{"data": {"bikes": [{"name": "865fb69feaa6a2246be6e449bf6d2497", "fusion_lat": 0.0, "type": "electric_scooter", "lat": 38.91888566666667, "is_reserved": 0, "is_disabled": 0, "fusion_lon": 0.0, "bike_id": "865fb69feaa6a2246be6e449bf6d2497", "lon": -77.052863, "rental_uris": {"ios": "https://dc.lft.to/lastmile_qr_scan", "android": "https://dc.lft.to/lastmile_qr_scan"}}, {"name": "38451be6a5319e1e7d9cc4badf7828ca", "fusion_lat": 0.0, "type": "electric_scooter", "lat": 38.898292833333336, "is_reserved": 0, "is_disabled": 0, "fusion_lon": 0.0, "bike_id": "38451be6a5319e1e7d9cc4badf7828ca", "lon": -76.94640133333333, "rental_uris": {"ios": "https://dc.lft.to/lastmile_qr_scan", "android": "https://dc.lft.to/lastmile_qr_scan"}}, {"name": "0acb1ac17c911575d933c34d69233a17", "fusion_lat": 0.0, "type": "electric_bike", "lat": 38.827275666666665, "is_reserved": 0, "is_disabled": 0, "fusion_lon": 0.0, "bike_id": "0acb1ac17c911575d933c34d69233a17", "lon": -77.00866916666666, "rental_uris": {"ios": "https://dc.lft.to/lastmile_qr_scan", "android": "https://dc.lft.to/lastmile_qr_scan"}}, {"name": "86ae571ce98d0970b247e00d638603ab", "fusion_lat": 0.0, "type": "electric_scooter", "lat": 38.89512233333333, "is_reserved": 0, "is_disabled": 0, "fusion_lon": 0.0, "bike_id": "86ae571ce98d0970b247e00d638603ab", "lon": -76.94890933333333, "rental_uris": {"ios": "https://dc.lft.to/lastmile_qr_scan", "android": "https://dc.lft.to/lastmile_qr_scan"}}, {"name": "a9efb57c7bf7a757775fbf91ea6fbc51", "fusion_lat": 0.0, "type": "electric_scooter", "lat": 38.92363133333333, "is_reserved": 0, "is_disabled": 0, "fusion_lon": 0.0, "bike_id": "a9efb57c7bf7a757775fbf91ea6fbc51", "lon": -77.05032516666667, "rental_uris": {"ios": "https://dc.lft.to/lastmile_qr_scan", "android": "https://dc.lft.to/lastmile_qr_scan"}}, {"name": "cc473ca26c650c1ac198aa4ad6787da9", "fusion_lat": 0.0, "type": "electric_scooter", "lat": 38.892253333333336, "is_reserved": 0, "is_disabled": 0, "fusion_lon": 0.0, "bike_id": "cc473ca26c650c1ac198aa4ad6787da9", "lon": -77.003056, "rental_uris": {"ios": "https://dc.lft.to/lastmile_qr_scan", "android": "https://dc.lft.to/lastmile_qr_scan"}}, {"name": "71fe33cfde3b2185550bcd57ef1bbeec", "fusion_lat": 0.0, "type": "electric_scooter", "lat": 38.880171, "is_reserved": 0, "is_disabled": 0, "fusion_lon": 0.0, "bike_id": "71fe33cfde3b2185550bcd57ef1bbeec", "lon": -76.93133433333334, "rental_uris": {"ios": "https://dc.lft.to/lastmile_qr_scan", "android": "https://dc.lft.to/lastmile_qr_scan"}}, {"name": "5554da258fb24d13d436eeb1034c3848", "fusion_lat": 0.0, "type": "electric_scooter", "lat": 38.91690933333334, "is_reserved": 0, "is_disabled": 0, "fusion_lon": 0.0, "bike_id": "5554da258fb24d13d436eeb1034c3848", "lon": -77.025979, "rental_uris": {"ios": "https://dc.lft.to/lastmile_qr_scan", "android": "https://dc.lft.to/lastmile_qr_scan"}}, {"name": "2516e0a5cba571079cb49b246a947138", "fusion_lat": 0.0, "type": "electric_scooter", "lat": 38.91053183333333, "is_reserved": 0, "is_disabled": 0, "fusion_lon": 0.0, "bike_id": "2516e0a5cba571079cb49b246a947138", "lon": -77.045781, "rental_uris": {"ios": "https://dc.lft.to/lastmile_qr_scan", "android": "https://dc.lft.to/lastmile_qr_scan"}}, {"name": "240ce7d83037b33effc5b9598c6299f3", "fusion_lat": 0.0, "type": "electric_scooter", "lat": 38.929777, "is_reserved": 0, "is_disabled": 0, "fusion_lon": 0.0, "bike_id": "240ce7d83037b33effc5b9598c6299f3", "lon": -77.02617066666667, "rental_uris": {"ios": "https://dc.lft.to/lastmile_qr_scan", "android": "https://dc.lft.to/lastmile_qr_scan"}}, {"name": "7220fd08a59eda565be8c2521b56dd77", "fusion_lat": 0.0, "type": "electric_scooter", "lat": 38.9010945, "is_reserved": 0, "is_disabled": 0, "fusion_lon": 0.0, "bike_id": "7220fd08a59eda565be8c2521b56dd77", "lon": -77.03175083333333, "rental_uris": {"ios": "https://dc.lft.to/lastmile_qr_scan", "android": "https://dc.lft.to/lastmile_qr_scan"}}, {"name": "1fb7ca08a635339e1a0a033740c36a85", "fusion_lat": 0.0, "type": "electric_scooter", "lat": 38.94200133333333, "is_reserved": 0, "is_disabled": 0, "fusion_lon": 0.0, "bike_id": "1fb7ca08a635339e1a0a033740c36a85", "lon": -77.025157, "rental_uris": {"ios": "https://dc.lft.to/lastmile_qr_scan", "android": "https://dc.lft.to/lastmile_qr_scan"}}, {"name": "28d5c31e08c3edf5b57befaf403c0f96", "fusion_lat": 0.0, "type": "electric_scooter", "lat": 38.92036183333333, "is_reserved": 0, "is_disabled": 0, "fusion_lon": 0.0, "bike_id": "28d5c31e08c3edf5b57befaf403c0f96", "lon": -77.02438266666667, "rental_uris": {"ios": "https://dc.lft.to/lastmile_qr_scan", "android": "https://dc.lft.to/lastmile_qr_scan"}}, {"name": "d309c1b4a41297c3945684edf6223dd6", "fusion_lat": 0.0, "type": "electric_scooter", "lat": 38.909722333333335, "is_reserved": 0, "is_disabled": 0, "fusion_lon": 0.0, "bike_id": "d309c1b4a41297c3945684edf6223dd6", "lon": -77.04622266666667, "rental_uris": {"ios": "https://dc.lft.to/lastmile_qr_scan", "android": "https://dc.lft.to/lastmile_qr_scan"}}, {"name": "4321e29726050251ab3f6e3ff5c9140e", "fusion_lat": 0.0, "type": "electric_scooter", "lat": 38.898982333333336, "is_reserved": 0, "is_disabled": 0, "fusion_lon": 0.0, "bike_id": "4321e29726050251ab3f6e3ff5c9140e", "lon": -77.03284433333333, "rental_uris": {"ios": "https://dc.lft.to/lastmile_qr_scan", "android": "https://dc.lft.to/lastmile_qr_scan"}}, {"name": "828c968503199376f69ad4d4bc59bbd1", "fusion_lat": 0.0, "type": "electric_scooter", "lat": 38.90835233333333, "is_reserved": 0, "is_disabled": 0, "fusion_lon": 0.0, "bike_id": "828c968503199376f69ad4d4bc59bbd1", "lon": -77.03685266666666, "rental_uris": {"ios": "https://dc.lft.to/lastmile_qr_scan", "android": "https://dc.lft.to/lastmile_qr_scan"}}, {"name": "43330a14268601dd1334ac9a83af5bf5", "fusion_lat": 0.0, "type": "electric_scooter", "lat": 38.90025966666666, "is_reserved": 0, "is_disabled": 0, "fusion_lon": 0.0, "bike_id": "43330a14268601dd1334ac9a83af5bf5", "lon": -76.9975905, "rental_uris": {"ios": "https://dc.lft.to/lastmile_qr_scan", "android": "https://dc.lft.to/lastmile_qr_scan"}}, {"name": "275a2aed8d71fe9f181de03d9d3e0eaf", "fusion_lat": 0.0, "type": "electric_scooter", "lat": 38.89500433333333, "is_reserved": 0, "is_disabled": 0, "fusion_lon": 0.0, "bike_id": "275a2aed8d71fe9f181de03d9d3e0eaf", "lon": -77.02391333333334, "rental_uris": {"ios": "https://dc.lft.to/lastmile_qr_scan", "android": "https://dc.lft.to/lastmile_qr_scan"}}, {"name": "56a29890260a334cd19e836161ad1165", "fusion_lat": 0.0, "type": "electric_scooter", "lat": 38.929427, "is_reserved": 0, "is_disabled": 0, "fusion_lon": 0.0, "bike_id": "56a29890260a334cd19e836161ad1165", "lon": -77.03477633333334, "rental_uris": {"ios": "https://dc.lft.to/lastmile_qr_scan", "android": "https://dc.lft.to/lastmile_qr_scan"}}, {"name": "4e1364442aa9d6064d96a62dc299b18e", "fusion_lat": 0.0, "type": "electric_bike", "lat": 38.990618166666664, "is_reserved": 0, "is_disabled": 0, "fusion_lon": 0.0, "bike_id": "4e1364442aa9d6064d96a62dc299b18e", "lon": -77.10031216666667, "rental_uris": {"ios": "https://dc.lft.to/lastmile_qr_scan", "android": "https://dc.lft.to/lastmile_qr_scan"}}, {"name": "4b8150e85e188c68e9d856169503c20b", "fusion_lat": 0.0, "type": "electric_scooter", "lat": 38.9111185, "is_reserved": 0, "is_disabled": 0, "fusion_lon": 0.0, "bike_id": "4b8150e85e188c68e9d856169503c20b", "lon": -77.03710216666667, "rental_uris": {"ios": "https://dc.lft.to/lastmile_qr_scan", "android": "https://dc.lft.to/lastmile_qr_scan"}}, {"name": "b25910f04cf86233e6568fcb822ccabd", "fusion_lat": 0.0, "type": "electric_scooter", "lat": 38.902634166666665, "is_reserved": 0, "is_disabled": 0, "fusion_lon": 0.0, "bike_id": "b25910f04cf86233e6568fcb822ccabd", "lon": -77.043619, "rental_uris": {"ios": "https://dc.lft.to/lastmile_qr_scan", "android": "https://dc.lft.to/lastmile_qr_scan"}}, {"name": "7bd50133082104d9192899f080ea3903", "fusion_lat": 0.0, "type": "electric_scooter", "lat": 38.92205466666667, "is_reserved": 0, "is_disabled": 0, "fusion_lon": 0.0, "bike_id": "7bd50133082104d9192899f080ea3903", "lon": -77.04233633333334, "rental_uris": {"ios": "https://dc.lft.to/lastmile_qr_scan", "android": "https://dc.lft.to/lastmile_qr_scan"}}, {"name": "9c1a1e88c4fc1d549e6d5861fc09020e", "fusion_lat": 0.0, "type": "electric_scooter", "lat": 38.93781383333334, "is_reserved": 0, "is_disabled": 0, "fusion_lon": 0.0, "bike_id": "9c1a1e88c4fc1d549e6d5861fc09020e", "lon": -77.059937, "rental_uris": {"ios": "https://dc.lft.to/lastmile_qr_scan", "android": "https://dc.lft.to/lastmile_qr_scan"}}, {"name": "2344da12c66a149faa09d780ebfeea5a", "fusion_lat": 0.0, "type": "electric_scooter", "lat": 38.904682, "is_reserved": 0, "is_disabled": 0, "fusion_lon": 0.0, "bike_id": "2344da12c66a149faa09d780ebfeea5a", "lon": -77.04363166666667, "rental_uris": {"ios": "https://dc.lft.to/lastmile_qr_scan", "android": "https://dc.lft.to/lastmile_qr_scan"}}, {"name": "cc53ee19c3e08ffcbdefdee8619d316b", "fusion_lat": 0.0, "type": "electric_scooter", "lat": 38.89033666666667, "is_reserved": 0, "is_disabled": 0, "fusion_lon": 0.0, "bike_id": "cc53ee19c3e08ffcbdefdee8619d316b", "lon": -77.0297675, "rental_uris": {"ios": "https://dc.lft.to/lastmile_qr_scan", "android": "https://dc.lft.to/lastmile_qr_scan"}}, {"name": "a7d82d54d55b5d7bff9f98a82a1452df", "fusion_lat": 0.0, "type": "electric_scooter", "lat": 38.93848066666666, "is_reserved": 0, "is_disabled": 0, "fusion_lon": 0.0, "bike_id": "a7d82d54d55b5d7bff9f98a82a1452df", "lon": -77.02487216666667, "rental_uris": {"ios": "https://dc.lft.to/lastmile_qr_scan", "android": "https://dc.lft.to/lastmile_qr_scan"}}, {"name": "3cb7a1eeb3b71188380319e3b6c501e7", "fusion_lat": 0.0, "type": "electric_scooter", "lat": 38.89983266666667, "is_reserved": 0, "is_disabled": 0, "fusion_lon": 0.0, "bike_id": "3cb7a1eeb3b71188380319e3b6c501e7", "lon": -77.02708, "rental_uris": {"ios": "https://dc.lft.to/lastmile_qr_scan", "android": "https://dc.lft.to/lastmile_qr_scan"}}, {"name": "f520d63201843b9b6e65d68954564b7a", "fusion_lat": 0.0, "type": "electric_scooter", "lat": 38.939482, "is_reserved": 0, "is_disabled": 0, "fusion_lon": 0.0, "bike_id": "f520d63201843b9b6e65d68954564b7a", "lon": -77.03265333333333, "rental_uris": {"ios": "https://dc.lft.to/lastmile_qr_scan", "android": "https://dc.lft.to/lastmile_qr_scan"}}, {"name": "d2508073933686dccd687395964aa897", "fusion_lat": 0.0, "type": "electric_scooter", "lat": 38.906743666666664, "is_reserved": 0, "is_disabled": 0, "fusion_lon": 0.0, "bike_id": "d2508073933686dccd687395964aa897", "lon": -77.03853266666667, "rental_uris": {"ios": "https://dc.lft.to/lastmile_qr_scan", "android": "https://dc.lft.to/lastmile_qr_scan"}}, {"name": "c3ac8cd598164e7f8340b2a2a7224950", "fusion_lat": 0.0, "type": "electric_scooter", "lat": 38.88489283333333, "is_reserved": 0, "is_disabled": 0, "fusion_lon": 0.0, "bike_id": "c3ac8cd598164e7f8340b2a2a7224950", "lon": -77.00712816666666, "rental_uris": {"ios": "https://dc.lft.to/lastmile_qr_scan", "android": "https://dc.lft.to/lastmile_qr_scan"}}, {"name": "8a7583941062ae0be35b6f4304c28a52", "fusion_lat": 0.0, "type": "electric_scooter", "lat": 38.876454, "is_reserved": 0, "is_disabled": 0, "fusion_lon": 0.0, "bike_id": "8a7583941062ae0be35b6f4304c28a52", "lon": -76.96507633333333, "rental_uris": {"ios": "https://dc.lft.to/lastmile_qr_scan", "android": "https://dc.lft.to/lastmile_qr_scan"}}, {"name": "7194fa851975d3d96d349fe8eafcb4af", "fusion_lat": 0.0, "type": "electric_scooter", "lat": 38.896161, "is_reserved": 0, "is_disabled": 0, "fusion_lon": 0.0, "bike_id": "7194fa851975d3d96d349fe8eafcb4af", "lon": -77.04660716666666, "rental_uris": {"ios": "https://dc.lft.to/lastmile_qr_scan", "android": "https://dc.lft.to/lastmile_qr_scan"}}, {"name": "9fa936bfa9a0eea71c713de463d2e1b2", "fusion_lat": 0.0, "type": "electric_scooter", "lat": 38.902559333333336, "is_reserved": 0, "is_disabled": 0, "fusion_lon": 0.0, "bike_id": "9fa936bfa9a0eea71c713de463d2e1b2", "lon": -77.04624016666666, "rental_uris": {"ios": "https://dc.lft.to/lastmile_qr_scan", "android": "https://dc.lft.to/lastmile_qr_scan"}}, {"name": "b63366ff39daf945b5a5d1a6eb0ea3d8", "fusion_lat": 0.0, "type": "electric_scooter", "lat": 38.907898833333334, "is_reserved": 0, "is_disabled": 0, "fusion_lon": 0.0, "bike_id": "b63366ff39daf945b5a5d1a6eb0ea3d8", "lon": -76.99698216666667, "rental_uris": {"ios": "https://dc.lft.to/lastmile_qr_scan", "android": "https://dc.lft.to/lastmile_qr_scan"}}, {"name": "b1890cc7e64f6d1e6bbf4fb3616d4a3f", "fusion_lat": 0.0, "type": "electric_scooter", "lat": 38.896804, "is_reserved": 0, "is_disabled": 0, "fusion_lon": 0.0, "bike_id": "b1890cc7e64f6d1e6bbf4fb3616d4a3f", "lon": -76.99627716666667, "rental_uris": {"ios": "https://dc.lft.to/lastmile_qr_scan", "android": "https://dc.lft.to/lastmile_qr_scan"}}, {"name": "1eea5cce6c77277783b2c621a4d1a5d1", "fusion_lat": 0.0, "type": "electric_scooter", "lat": 38.939618833333334, "is_reserved": 0, "is_disabled": 0, "fusion_lon": 0.0, "bike_id": "1eea5cce6c77277783b2c621a4d1a5d1", "lon": -77.03283266666666, "rental_uris": {"ios": "https://dc.lft.to/lastmile_qr_scan", "android": "https://dc.lft.to/lastmile_qr_scan"}}, {"name": "f97acf034f4e5f178a8f9a847386aeaf", "fusion_lat": 0.0, "type": "electric_bike", "lat": 38.973216666666666, "is_reserved": 0, "is_disabled": 0, "fusion_lon": 0.0, "bike_id": "f97acf034f4e5f178a8f9a847386aeaf", "lon": -77.02149633333333, "rental_uris": {"ios": "https://dc.lft.to/lastmile_qr_scan", "android": "https://dc.lft.to/lastmile_qr_scan"}}, {"name": "ece1bd6520ebcbf2040af2ceccd105f9", "fusion_lat": 0.0, "type": "electric_bike", "lat": 38.903547, "is_reserved": 0, "is_disabled": 0, "fusion_lon": 0.0, "bike_id": "ece1bd6520ebcbf2040af2ceccd105f9", "lon": -76.98094483333334, "rental_uris": {"ios": "https://dc.lft.to/lastmile_qr_scan", "android": "https://dc.lft.to/lastmile_qr_scan"}}, {"name": "8d0d3ce977868788472b9f261a0848f6", "fusion_lat": 0.0, "type": "electric_scooter", "lat": 38.88925716666667, "is_reserved": 0, "is_disabled": 0, "fusion_lon": 0.0, "bike_id": "8d0d3ce977868788472b9f261a0848f6", "lon": -76.94778083333334, "rental_uris": {"ios": "https://dc.lft.to/lastmile_qr_scan", "android": "https://dc.lft.to/lastmile_qr_scan"}}, {"name": "fa0e4e95f74f5612ea8b17d27ea3bd8f", "fusion_lat": 0.0, "type": "electric_scooter", "lat": 38.90381566666667, "is_reserved": 0, "is_disabled": 0, "fusion_lon": 0.0, "bike_id": "fa0e4e95f74f5612ea8b17d27ea3bd8f", "lon": -77.04511683333334, "rental_uris": {"ios": "https://dc.lft.to/lastmile_qr_scan", "android": "https://dc.lft.to/lastmile_qr_scan"}}, {"name": "f00087879a7b7fe49071f6f606e850c3", "fusion_lat": 0.0, "type": "electric_bike", "lat": 38.83857033333334, "is_reserved": 0, "is_disabled": 0, "fusion_lon": 0.0, "bike_id": "f00087879a7b7fe49071f6f606e850c3", "lon": -77.08870016666667, "rental_uris": {"ios": "https://dc.lft.to/lastmile_qr_scan", "android": "https://dc.lft.to/lastmile_qr_scan"}}, {"name": "f879fcda90dc0b25496effa55f72d070", "fusion_lat": 0.0, "type": "electric_scooter", "lat": 38.88489033333333, "is_reserved": 0, "is_disabled": 0, "fusion_lon": 0.0, "bike_id": "f879fcda90dc0b25496effa55f72d070", "lon": -77.00715483333333, "rental_uris": {"ios": "https://dc.lft.to/lastmile_qr_scan", "android": "https://dc.lft.to/lastmile_qr_scan"}}, {"name": "1453eb3ea360f495408618d8d7d0ce26", "fusion_lat": 0.0, "type": "electric_scooter", "lat": 38.90137433333334, "is_reserved": 0, "is_disabled": 0, "fusion_lon": 0.0, "bike_id": "1453eb3ea360f495408618d8d7d0ce26", "lon": -77.00041716666667, "rental_uris": {"ios": "https://dc.lft.to/lastmile_qr_scan", "android": "https://dc.lft.to/lastmile_qr_scan"}}, {"name": "966c0761d2d029c688daf3f715e7c875", "fusion_lat": 0.0, "type": "electric_scooter", "lat": 38.903256166666665, "is_reserved": 0, "is_disabled": 0, "fusion_lon": 0.0, "bike_id": "966c0761d2d029c688daf3f715e7c875", "lon": -77.03836266666667, "rental_uris": {"ios": "https://dc.lft.to/lastmile_qr_scan", "android": "https://dc.lft.to/lastmile_qr_scan"}}, {"name": "ce2f60e63a86fa057592a98c058f76d3", "fusion_lat": 0.0, "type": "electric_scooter", "lat": 38.92206266666667, "is_reserved": 0, "is_disabled": 0, "fusion_lon": 0.0, "bike_id": "ce2f60e63a86fa057592a98c058f76d3", "lon": -77.04236583333333, "rental_uris": {"ios": "https://dc.lft.to/lastmile_qr_scan", "android": "https://dc.lft.to/lastmile_qr_scan"}}, {"name": "e285ad428e5ac299149f2d7095e3f220", "fusion_lat": 0.0, "type": "electric_scooter", "lat": 38.930873166666665, "is_reserved": 0, "is_disabled": 0, "fusion_lon": 0.0, "bike_id": "e285ad428e5ac299149f2d7095e3f220", "lon": -77.024019, "rental_uris": {"ios": "https://dc.lft.to/lastmile_qr_scan", "android": "https://dc.lft.to/lastmile_qr_scan"}}, {"name": "211fed4214833b02714ca0092741a206", "fusion_lat": 0.0, "type": "electric_scooter", "lat": 38.90354516666667, "is_reserved": 0, "is_disabled": 0, "fusion_lon": 0.0, "bike_id": "211fed4214833b02714ca0092741a206", "lon": -77.01948983333334, "rental_uris": {"ios": "https://dc.lft.to/lastmile_qr_scan", "android": "https://dc.lft.to/lastmile_qr_scan"}}, {"name": "8fc116ba3d28927fb92e79f6e4ca76ff", "fusion_lat": 0.0, "type": "electric_scooter", "lat": 38.865351833333335, "is_reserved": 0, "is_disabled": 0, "fusion_lon": 0.0, "bike_id": "8fc116ba3d28927fb92e79f6e4ca76ff", "lon": -76.987136, "rental_uris": {"ios": "https://dc.lft.to/lastmile_qr_scan", "android": "https://dc.lft.to/lastmile_qr_scan"}}, {"name": "f61f4e849a4c75c8c2cf786189b0f088", "fusion_lat": 0.0, "type": "electric_scooter", "lat": 38.9025215, "is_reserved": 0, "is_disabled": 0, "fusion_lon": 0.0, "bike_id": "f61f4e849a4c75c8c2cf786189b0f088", "lon": -77.04326183333333, "rental_uris": {"ios": "https://dc.lft.to/lastmile_qr_scan", "android": "https://dc.lft.to/lastmile_qr_scan"}}, {"name": "be0d8ac6ecca1b419e22b86b4cf2b284", "fusion_lat": 0.0, "type": "electric_scooter", "lat": 38.88324083333333, "is_reserved": 0, "is_disabled": 0, "fusion_lon": 0.0, "bike_id": "be0d8ac6ecca1b419e22b86b4cf2b284", "lon": -77.0153705, "rental_uris": {"ios": "https://dc.lft.to/lastmile_qr_scan", "android": "https://dc.lft.to/lastmile_qr_scan"}}, {"name": "af03b5741573437a1596ecd65d05bc64", "fusion_lat": 0.0, "type": "electric_scooter", "lat": 38.923425, "is_reserved": 0, "is_disabled": 0, "fusion_lon": 0.0, "bike_id": "af03b5741573437a1596ecd65d05bc64", "lon": -77.019068, "rental_uris": {"ios": "https://dc.lft.to/lastmile_qr_scan", "android": "https://dc.lft.to/lastmile_qr_scan"}}, {"name": "6c0305ec575b9315d42dd8aeff614b5b", "fusion_lat": 0.0, "type": "electric_scooter", "lat": 38.931658666666664, "is_reserved": 0, "is_disabled": 0, "fusion_lon": 0.0, "bike_id": "6c0305ec575b9315d42dd8aeff614b5b", "lon": -77.036407, "rental_uris": {"ios": "https://dc.lft.to/lastmile_qr_scan", "android": "https://dc.lft.to/lastmile_qr_scan"}}, {"name": "52ec29a95a3f99ff9d9e4681bfd7e0b9", "fusion_lat": 0.0, "type": "electric_scooter", "lat": 38.926312, "is_reserved": 0, "is_disabled": 0, "fusion_lon": 0.0, "bike_id": "52ec29a95a3f99ff9d9e4681bfd7e0b9", "lon": -77.03510366666667, "rental_uris": {"ios": "https://dc.lft.to/lastmile_qr_scan", "android": "https://dc.lft.to/lastmile_qr_scan"}}, {"name": "3e4f1f064ca3e5d21bd0b2e653880e65", "fusion_lat": 0.0, "type": "electric_scooter", "lat": 38.91177066666667, "is_reserved": 0, "is_disabled": 0, "fusion_lon": 0.0, "bike_id": "3e4f1f064ca3e5d21bd0b2e653880e65", "lon": -77.069292, "rental_uris": {"ios": "https://dc.lft.to/lastmile_qr_scan", "android": "https://dc.lft.to/lastmile_qr_scan"}}, {"name": "31ad28a5769d2940fdda598f8489a523", "fusion_lat": 0.0, "type": "electric_scooter", "lat": 38.9026885, "is_reserved": 0, "is_disabled": 0, "fusion_lon": 0.0, "bike_id": "31ad28a5769d2940fdda598f8489a523", "lon": -77.04606416666667, "rental_uris": {"ios": "https://dc.lft.to/lastmile_qr_scan", "android": "https://dc.lft.to/lastmile_qr_scan"}}, {"name": "90d8000ad729a282c19481219807493e", "fusion_lat": 0.0, "type": "electric_scooter", "lat": 38.915313166666664, "is_reserved": 0, "is_disabled": 0, "fusion_lon": 0.0, "bike_id": "90d8000ad729a282c19481219807493e", "lon": -77.01227416666667, "rental_uris": {"ios": "https://dc.lft.to/lastmile_qr_scan", "android": "https://dc.lft.to/lastmile_qr_scan"}}, {"name": "0336371ca48bcbe8781eb80bf61efb2b", "fusion_lat": 0.0, "type": "electric_scooter", "lat": 38.909674833333334, "is_reserved": 0, "is_disabled": 0, "fusion_lon": 0.0, "bike_id": "0336371ca48bcbe8781eb80bf61efb2b", "lon": -77.0112135, "rental_uris": {"ios": "https://dc.lft.to/lastmile_qr_scan", "android": "https://dc.lft.to/lastmile_qr_scan"}}, {"name": "4b0b35630aecbb850d43bc35c6196021", "fusion_lat": 0.0, "type": "electric_scooter", "lat": 38.920604, "is_reserved": 0, "is_disabled": 0, "fusion_lon": 0.0, "bike_id": "4b0b35630aecbb850d43bc35c6196021", "lon": -76.97807383333334, "rental_uris": {"ios": "https://dc.lft.to/lastmile_qr_scan", "android": "https://dc.lft.to/lastmile_qr_scan"}}, {"name": "0075ab39da45d43f2a75740865b713bd", "fusion_lat": 0.0, "type": "electric_scooter", "lat": 38.89889616666667, "is_reserved": 0, "is_disabled": 0, "fusion_lon": 0.0, "bike_id": "0075ab39da45d43f2a75740865b713bd", "lon": -77.03325316666667, "rental_uris": {"ios": "https://dc.lft.to/lastmile_qr_scan", "android": "https://dc.lft.to/lastmile_qr_scan"}}, {"name": "926396c8e399f32116ecb72d757e8a41", "fusion_lat": 0.0, "type": "electric_scooter", "lat": 38.91718066666667, "is_reserved": 0, "is_disabled": 0, "fusion_lon": 0.0, "bike_id": "926396c8e399f32116ecb72d757e8a41", "lon": -77.008127, "rental_uris": {"ios": "https://dc.lft.to/lastmile_qr_scan", "android": "https://dc.lft.to/lastmile_qr_scan"}}, {"name": "6ff09d0ae7d377bcd3d1cd0fc57b7add", "fusion_lat": 0.0, "type": "electric_scooter", "lat": 38.9000895, "is_reserved": 0, "is_disabled": 0, "fusion_lon": 0.0, "bike_id": "6ff09d0ae7d377bcd3d1cd0fc57b7add", "lon": -77.0321805, "rental_uris": {"ios": "https://dc.lft.to/lastmile_qr_scan", "android": "https://dc.lft.to/lastmile_qr_scan"}}, {"name": "937c1995c41cfc631bd35bd47079fa38", "fusion_lat": 0.0, "type": "electric_bike", "lat": 38.9482975, "is_reserved": 0, "is_disabled": 0, "fusion_lon": 0.0, "bike_id": "937c1995c41cfc631bd35bd47079fa38", "lon": -77.0390125, "rental_uris": {"ios": "https://dc.lft.to/lastmile_qr_scan", "android": "https://dc.lft.to/lastmile_qr_scan"}}, {"name": "9938eb9174bb86750a30b9faba04bfdf", "fusion_lat": 0.0, "type": "electric_scooter", "lat": 38.90257233333333, "is_reserved": 0, "is_disabled": 0, "fusion_lon": 0.0, "bike_id": "9938eb9174bb86750a30b9faba04bfdf", "lon": -77.02644883333333, "rental_uris": {"ios": "https://dc.lft.to/lastmile_qr_scan", "android": "https://dc.lft.to/lastmile_qr_scan"}}, {"name": "d6516643fb46f13c8647e13f1bffd3b7", "fusion_lat": 0.0, "type": "electric_scooter", "lat": 38.905819666666666, "is_reserved": 0, "is_disabled": 0, "fusion_lon": 0.0, "bike_id": "d6516643fb46f13c8647e13f1bffd3b7", "lon": -77.04029216666666, "rental_uris": {"ios": "https://dc.lft.to/lastmile_qr_scan", "android": "https://dc.lft.to/lastmile_qr_scan"}}, {"name": "159dc20b74438b9d64afa28a90db0513", "fusion_lat": 0.0, "type": "electric_scooter", "lat": 38.900664166666665, "is_reserved": 0, "is_disabled": 0, "fusion_lon": 0.0, "bike_id": "159dc20b74438b9d64afa28a90db0513", "lon": -77.04539333333334, "rental_uris": {"ios": "https://dc.lft.to/lastmile_qr_scan", "android": "https://dc.lft.to/lastmile_qr_scan"}}, {"name": "b0e4db4ff30f4042262c0f5e40b77ee5", "fusion_lat": 0.0, "type": "electric_scooter", "lat": 38.92321866666666, "is_reserved": 0, "is_disabled": 0, "fusion_lon": 0.0, "bike_id": "b0e4db4ff30f4042262c0f5e40b77ee5", "lon": -77.024238, "rental_uris": {"ios": "https://dc.lft.to/lastmile_qr_scan", "android": "https://dc.lft.to/lastmile_qr_scan"}}, {"name": "c99ccabb8d156605351999e4cecf64c2", "fusion_lat": 0.0, "type": "electric_scooter", "lat": 38.93414883333333, "is_reserved": 0, "is_disabled": 0, "fusion_lon": 0.0, "bike_id": "c99ccabb8d156605351999e4cecf64c2", "lon": -77.0724945, "rental_uris": {"ios": "https://dc.lft.to/lastmile_qr_scan", "android": "https://dc.lft.to/lastmile_qr_scan"}}, {"name": "c2c37b8f2e5346183e01382518eb3413", "fusion_lat": 0.0, "type": "electric_scooter", "lat": 38.894463333333334, "is_reserved": 0, "is_disabled": 0, "fusion_lon": 0.0, "bike_id": "c2c37b8f2e5346183e01382518eb3413", "lon": -77.03052916666667, "rental_uris": {"ios": "https://dc.lft.to/lastmile_qr_scan", "android": "https://dc.lft.to/lastmile_qr_scan"}}, {"name": "9d91c55d6837f87542e63fc5d42ce9bd", "fusion_lat": 0.0, "type": "electric_scooter", "lat": 38.947500166666664, "is_reserved": 0, "is_disabled": 0, "fusion_lon": 0.0, "bike_id": "9d91c55d6837f87542e63fc5d42ce9bd", "lon": -77.03266316666667, "rental_uris": {"ios": "https://dc.lft.to/lastmile_qr_scan", "android": "https://dc.lft.to/lastmile_qr_scan"}}, {"name": "ccfacd5206f8e3bd3da95c338f554d26", "fusion_lat": 0.0, "type": "electric_bike", "lat": 38.97088566666667, "is_reserved": 0, "is_disabled": 0, "fusion_lon": 0.0, "bike_id": "ccfacd5206f8e3bd3da95c338f554d26", "lon": -77.0696305, "rental_uris": {"ios": "https://dc.lft.to/lastmile_qr_scan", "android": "https://dc.lft.to/lastmile_qr_scan"}}, {"name": "e17250b0729b06c1a1a6d74179ccd94d", "fusion_lat": 0.0, "type": "electric_scooter", "lat": 38.899007833333336, "is_reserved": 0, "is_disabled": 0, "fusion_lon": 0.0, "bike_id": "e17250b0729b06c1a1a6d74179ccd94d", "lon": -77.0329935, "rental_uris": {"ios": "https://dc.lft.to/lastmile_qr_scan", "android": "https://dc.lft.to/lastmile_qr_scan"}}, {"name": "861a73b0d3d427e8df41002fa71342de", "fusion_lat": 0.0, "type": "electric_scooter", "lat": 38.876560833333336, "is_reserved": 0, "is_disabled": 0, "fusion_lon": 0.0, "bike_id": "861a73b0d3d427e8df41002fa71342de", "lon": -77.00454516666667, "rental_uris": {"ios": "https://dc.lft.to/lastmile_qr_scan", "android": "https://dc.lft.to/lastmile_qr_scan"}}, {"name": "d988c692fd3598a7ad0bbb5e0f389f1a", "fusion_lat": 0.0, "type": "electric_scooter", "lat": 38.90009283333333, "is_reserved": 0, "is_disabled": 0, "fusion_lon": 0.0, "bike_id": "d988c692fd3598a7ad0bbb5e0f389f1a", "lon": -77.011146, "rental_uris": {"ios": "https://dc.lft.to/lastmile_qr_scan", "android": "https://dc.lft.to/lastmile_qr_scan"}}, {"name": "b18c51cac489f85aee92a93da72768fc", "fusion_lat": 0.0, "type": "electric_scooter", "lat": 38.89511366666667, "is_reserved": 0, "is_disabled": 0, "fusion_lon": 0.0, "bike_id": "b18c51cac489f85aee92a93da72768fc", "lon": -77.01107466666667, "rental_uris": {"ios": "https://dc.lft.to/lastmile_qr_scan", "android": "https://dc.lft.to/lastmile_qr_scan"}}, {"name": "758e804192a5914e14d0051c1a4404c4", "fusion_lat": 0.0, "type": "electric_scooter", "lat": 38.90573916666666, "is_reserved": 0, "is_disabled": 0, "fusion_lon": 0.0, "bike_id": "758e804192a5914e14d0051c1a4404c4", "lon": -77.0028185, "rental_uris": {"ios": "https://dc.lft.to/lastmile_qr_scan", "android": "https://dc.lft.to/lastmile_qr_scan"}}, {"name": "36ef3ff1b828b65d2b2090e0e5f02c04", "fusion_lat": 0.0, "type": "electric_scooter", "lat": 38.913276333333336, "is_reserved": 0, "is_disabled": 0, "fusion_lon": 0.0, "bike_id": "36ef3ff1b828b65d2b2090e0e5f02c04", "lon": -77.04864383333333, "rental_uris": {"ios": "https://dc.lft.to/lastmile_qr_scan", "android": "https://dc.lft.to/lastmile_qr_scan"}}, {"name": "5009c78d9c176459237f36882581b16a", "fusion_lat": 0.0, "type": "electric_scooter", "lat": 38.906754, "is_reserved": 0, "is_disabled": 0, "fusion_lon": 0.0, "bike_id": "5009c78d9c176459237f36882581b16a", "lon": -77.038202, "rental_uris": {"ios": "https://dc.lft.to/lastmile_qr_scan", "android": "https://dc.lft.to/lastmile_qr_scan"}}, {"name": "b54dd48da0ce6b6d0c5f9d01f97d7133", "fusion_lat": 0.0, "type": "electric_scooter", "lat": 38.902639666666666, "is_reserved": 0, "is_disabled": 0, "fusion_lon": 0.0, "bike_id": "b54dd48da0ce6b6d0c5f9d01f97d7133", "lon": -77.05316466666666, "rental_uris": {"ios": "https://dc.lft.to/lastmile_qr_scan", "android": "https://dc.lft.to/lastmile_qr_scan"}}, {"name": "91286406b8613472ae177fc9cc22b814", "fusion_lat": 0.0, "type": "electric_scooter", "lat": 38.90947416666667, "is_reserved": 0, "is_disabled": 0, "fusion_lon": 0.0, "bike_id": "91286406b8613472ae177fc9cc22b814", "lon": -77.0465905, "rental_uris": {"ios": "https://dc.lft.to/lastmile_qr_scan", "android": "https://dc.lft.to/lastmile_qr_scan"}}, {"name": "6c6ef3facfaab5607ea4a75999e4bbb4", "fusion_lat": 0.0, "type": "electric_scooter", "lat": 38.92629216666667, "is_reserved": 0, "is_disabled": 0, "fusion_lon": 0.0, "bike_id": "6c6ef3facfaab5607ea4a75999e4bbb4", "lon": -77.03785716666667, "rental_uris": {"ios": "https://dc.lft.to/lastmile_qr_scan", "android": "https://dc.lft.to/lastmile_qr_scan"}}, {"name": "4185aa421bdc54cc6a5f38a209f5dc41", "fusion_lat": 0.0, "type": "electric_scooter", "lat": 38.905224833333335, "is_reserved": 0, "is_disabled": 0, "fusion_lon": 0.0, "bike_id": "4185aa421bdc54cc6a5f38a209f5dc41", "lon": -77.0344195, "rental_uris": {"ios": "https://dc.lft.to/lastmile_qr_scan", "android": "https://dc.lft.to/lastmile_qr_scan"}}, {"name": "0dc4599bb3463efaaa0cc0e3486d1763", "fusion_lat": 0.0, "type": "electric_scooter", "lat": 38.9353505, "is_reserved": 0, "is_disabled": 0, "fusion_lon": 0.0, "bike_id": "0dc4599bb3463efaaa0cc0e3486d1763", "lon": -77.03413533333334, "rental_uris": {"ios": "https://dc.lft.to/lastmile_qr_scan", "android": "https://dc.lft.to/lastmile_qr_scan"}}, {"name": "d607968f2af25921ab0718fa71cab635", "fusion_lat": 0.0, "type": "electric_scooter", "lat": 38.902556833333335, "is_reserved": 0, "is_disabled": 0, "fusion_lon": 0.0, "bike_id": "d607968f2af25921ab0718fa71cab635", "lon": -77.0460695, "rental_uris": {"ios": "https://dc.lft.to/lastmile_qr_scan", "android": "https://dc.lft.to/lastmile_qr_scan"}}, {"name": "3d24169b6cc09e54e4ff6536631fb6d4", "fusion_lat": 0.0, "type": "electric_scooter", "lat": 38.906524, "is_reserved": 0, "is_disabled": 0, "fusion_lon": 0.0, "bike_id": "3d24169b6cc09e54e4ff6536631fb6d4", "lon": -77.05119233333333, "rental_uris": {"ios": "https://dc.lft.to/lastmile_qr_scan", "android": "https://dc.lft.to/lastmile_qr_scan"}}, {"name": "61315bb40d44827ec2faa714597dfe12", "fusion_lat": 0.0, "type": "electric_scooter", "lat": 38.92481816666667, "is_reserved": 0, "is_disabled": 0, "fusion_lon": 0.0, "bike_id": "61315bb40d44827ec2faa714597dfe12", "lon": -77.02708866666667, "rental_uris": {"ios": "https://dc.lft.to/lastmile_qr_scan", "android": "https://dc.lft.to/lastmile_qr_scan"}}, {"name": "bff2c361150986f20fa931afe06b6cbf", "fusion_lat": 0.0, "type": "electric_scooter", "lat": 38.866693166666664, "is_reserved": 0, "is_disabled": 0, "fusion_lon": 0.0, "bike_id": "bff2c361150986f20fa931afe06b6cbf", "lon": -76.98458716666667, "rental_uris": {"ios": "https://dc.lft.to/lastmile_qr_scan", "android": "https://dc.lft.to/lastmile_qr_scan"}}, {"name": "d3f99dcf19f60917083b7052c21fe548", "fusion_lat": 0.0, "type": "electric_scooter", "lat": 38.906468, "is_reserved": 0, "is_disabled": 0, "fusion_lon": 0.0, "bike_id": "d3f99dcf19f60917083b7052c21fe548", "lon": -77.05142333333333, "rental_uris": {"ios": "https://dc.lft.to/lastmile_qr_scan", "android": "https://dc.lft.to/lastmile_qr_scan"}}, {"name": "4fac14b962e69aa68fb58fefbbf6a0f5", "fusion_lat": 0.0, "type": "electric_scooter", "lat": 38.89733616666667, "is_reserved": 0, "is_disabled": 0, "fusion_lon": 0.0, "bike_id": "4fac14b962e69aa68fb58fefbbf6a0f5", "lon": -77.04336416666666, "rental_uris": {"ios": "https://dc.lft.to/lastmile_qr_scan", "android": "https://dc.lft.to/lastmile_qr_scan"}}, {"name": "934ee74fc512caaec3ef424155c7cfcf", "fusion_lat": 0.0, "type": "electric_scooter", "lat": 38.898473833333334, "is_reserved": 0, "is_disabled": 0, "fusion_lon": 0.0, "bike_id": "934ee74fc512caaec3ef424155c7cfcf", "lon": -77.0392305, "rental_uris": {"ios": "https://dc.lft.to/lastmile_qr_scan", "android": "https://dc.lft.to/lastmile_qr_scan"}}, {"name": "59e098adb051b365cf3c7f9076b0492a", "fusion_lat": 0.0, "type": "electric_scooter", "lat": 38.930107666666665, "is_reserved": 0, "is_disabled": 0, "fusion_lon": 0.0, "bike_id": "59e098adb051b365cf3c7f9076b0492a", "lon": -77.02320266666666, "rental_uris": {"ios": "https://dc.lft.to/lastmile_qr_scan", "android": "https://dc.lft.to/lastmile_qr_scan"}}, {"name": "4767674e80b4d176d37a8869ee45b6e2", "fusion_lat": 0.0, "type": "electric_scooter", "lat": 38.90271283333333, "is_reserved": 0, "is_disabled": 0, "fusion_lon": 0.0, "bike_id": "4767674e80b4d176d37a8869ee45b6e2", "lon": -77.01753683333334, "rental_uris": {"ios": "https://dc.lft.to/lastmile_qr_scan", "android": "https://dc.lft.to/lastmile_qr_scan"}}, {"name": "bce056c9ba9e17720dd22d46c4b0561a", "fusion_lat": 0.0, "type": "electric_scooter", "lat": 38.90725066666667, "is_reserved": 0, "is_disabled": 0, "fusion_lon": 0.0, "bike_id": "bce056c9ba9e17720dd22d46c4b0561a", "lon": -77.033581, "rental_uris": {"ios": "https://dc.lft.to/lastmile_qr_scan", "android": "https://dc.lft.to/lastmile_qr_scan"}}, {"name": "06aa519e9e634d8b9200dbbf3c00c31b", "fusion_lat": 0.0, "type": "electric_scooter", "lat": 38.92896266666666, "is_reserved": 0, "is_disabled": 0, "fusion_lon": 0.0, "bike_id": "06aa519e9e634d8b9200dbbf3c00c31b", "lon": -77.05457416666667, "rental_uris": {"ios": "https://dc.lft.to/lastmile_qr_scan", "android": "https://dc.lft.to/lastmile_qr_scan"}}, {"name": "3615d24dafc99eb4b60d4b579ae46667", "fusion_lat": 0.0, "type": "electric_scooter", "lat": 38.90983633333333, "is_reserved": 0, "is_disabled": 0, "fusion_lon": 0.0, "bike_id": "3615d24dafc99eb4b60d4b579ae46667", "lon": -77.0487275, "rental_uris": {"ios": "https://dc.lft.to/lastmile_qr_scan", "android": "https://dc.lft.to/lastmile_qr_scan"}}, {"name": "d5074140dd47f71fe4d11d40f4cc32fd", "fusion_lat": 0.0, "type": "electric_scooter", "lat": 38.90165733333333, "is_reserved": 0, "is_disabled": 0, "fusion_lon": 0.0, "bike_id": "d5074140dd47f71fe4d11d40f4cc32fd", "lon": -77.02015266666666, "rental_uris": {"ios": "https://dc.lft.to/lastmile_qr_scan", "android": "https://dc.lft.to/lastmile_qr_scan"}}, {"name": "649dd2b8870b06089f7e061a3b1655bc", "fusion_lat": 0.0, "type": "electric_bike", "lat": 38.8323005, "is_reserved": 0, "is_disabled": 0, "fusion_lon": 0.0, "bike_id": "649dd2b8870b06089f7e061a3b1655bc", "lon": -76.94621666666667, "rental_uris": {"ios": "https://dc.lft.to/lastmile_qr_scan", "android": "https://dc.lft.to/lastmile_qr_scan"}}, {"name": "a265589eb3ab170986857dd2ff665b3a", "fusion_lat": 0.0, "type": "electric_scooter", "lat": 38.939594, "is_reserved": 0, "is_disabled": 0, "fusion_lon": 0.0, "bike_id": "a265589eb3ab170986857dd2ff665b3a", "lon": -77.02747966666666, "rental_uris": {"ios": "https://dc.lft.to/lastmile_qr_scan", "android": "https://dc.lft.to/lastmile_qr_scan"}}, {"name": "bcbf6784ffa9813a7e84384757556dab", "fusion_lat": 0.0, "type": "electric_scooter", "lat": 38.88717883333333, "is_reserved": 0, "is_disabled": 0, "fusion_lon": 0.0, "bike_id": "bcbf6784ffa9813a7e84384757556dab", "lon": -76.953739, "rental_uris": {"ios": "https://dc.lft.to/lastmile_qr_scan", "android": "https://dc.lft.to/lastmile_qr_scan"}}, {"name": "f00fe15967a16c82a30c3c5c88dcb31f", "fusion_lat": 0.0, "type": "electric_scooter", "lat": 38.9094765, "is_reserved": 0, "is_disabled": 0, "fusion_lon": 0.0, "bike_id": "f00fe15967a16c82a30c3c5c88dcb31f", "lon": -77.04321766666666, "rental_uris": {"ios": "https://dc.lft.to/lastmile_qr_scan", "android": "https://dc.lft.to/lastmile_qr_scan"}}, {"name": "1036b05296ef7934e3d0bb4e63a1443c", "fusion_lat": 0.0, "type": "electric_scooter", "lat": 38.93112716666667, "is_reserved": 0, "is_disabled": 0, "fusion_lon": 0.0, "bike_id": "1036b05296ef7934e3d0bb4e63a1443c", "lon": -77.03809216666667, "rental_uris": {"ios": "https://dc.lft.to/lastmile_qr_scan", "android": "https://dc.lft.to/lastmile_qr_scan"}}, {"name": "8b63442427e866ad2a9988c3295af541", "fusion_lat": 0.0, "type": "electric_scooter", "lat": 38.944433333333336, "is_reserved": 0, "is_disabled": 0, "fusion_lon": 0.0, "bike_id": "8b63442427e866ad2a9988c3295af541", "lon": -77.063564, "rental_uris": {"ios": "https://dc.lft.to/lastmile_qr_scan", "android": "https://dc.lft.to/lastmile_qr_scan"}}, {"name": "3f5aa1dc07eb643019a7c4a97e7c35b7", "fusion_lat": 0.0, "type": "electric_scooter", "lat": 38.90365666666667, "is_reserved": 0, "is_disabled": 0, "fusion_lon": 0.0, "bike_id": "3f5aa1dc07eb643019a7c4a97e7c35b7", "lon": -77.01107583333334, "rental_uris": {"ios": "https://dc.lft.to/lastmile_qr_scan", "android": "https://dc.lft.to/lastmile_qr_scan"}}, {"name": "384612d2049a02a9e677d2e1c4d7fd28", "fusion_lat": 0.0, "type": "electric_scooter", "lat": 38.90747, "is_reserved": 0, "is_disabled": 0, "fusion_lon": 0.0, "bike_id": "384612d2049a02a9e677d2e1c4d7fd28", "lon": -77.03211283333333, "rental_uris": {"ios": "https://dc.lft.to/lastmile_qr_scan", "android": "https://dc.lft.to/lastmile_qr_scan"}}, {"name": "acb8655b5e07c3fd8ce91649d1bfbea9", "fusion_lat": 0.0, "type": "electric_scooter", "lat": 38.9033535, "is_reserved": 0, "is_disabled": 0, "fusion_lon": 0.0, "bike_id": "acb8655b5e07c3fd8ce91649d1bfbea9", "lon": -76.998526, "rental_uris": {"ios": "https://dc.lft.to/lastmile_qr_scan", "android": "https://dc.lft.to/lastmile_qr_scan"}}, {"name": "6a10a6cfcc5293f4b4258fab48dcb557", "fusion_lat": 0.0, "type": "electric_scooter", "lat": 38.90641683333333, "is_reserved": 0, "is_disabled": 0, "fusion_lon": 0.0, "bike_id": "6a10a6cfcc5293f4b4258fab48dcb557", "lon": -77.02494616666667, "rental_uris": {"ios": "https://dc.lft.to/lastmile_qr_scan", "android": "https://dc.lft.to/lastmile_qr_scan"}}, {"name": "3e8ce06b52648f59497db334ce6a5d09", "fusion_lat": 0.0, "type": "electric_scooter", "lat": 38.8953165, "is_reserved": 0, "is_disabled": 0, "fusion_lon": 0.0, "bike_id": "3e8ce06b52648f59497db334ce6a5d09", "lon": -77.0429215, "rental_uris": {"ios": "https://dc.lft.to/lastmile_qr_scan", "android": "https://dc.lft.to/lastmile_qr_scan"}}, {"name": "835082939509b79b7cb89165abdcefc8", "fusion_lat": 0.0, "type": "electric_scooter", "lat": 38.90572, "is_reserved": 0, "is_disabled": 0, "fusion_lon": 0.0, "bike_id": "835082939509b79b7cb89165abdcefc8", "lon": -77.03073533333334, "rental_uris": {"ios": "https://dc.lft.to/lastmile_qr_scan", "android": "https://dc.lft.to/lastmile_qr_scan"}}, {"name": "d45b41bb9766e6f5419c67bbe8314896", "fusion_lat": 0.0, "type": "electric_scooter", "lat": 38.938897833333336, "is_reserved": 0, "is_disabled": 0, "fusion_lon": 0.0, "bike_id": "d45b41bb9766e6f5419c67bbe8314896", "lon": -77.0246455, "rental_uris": {"ios": "https://dc.lft.to/lastmile_qr_scan", "android": "https://dc.lft.to/lastmile_qr_scan"}}, {"name": "d605f41c1e2893ca6440a3ef47561b3d", "fusion_lat": 0.0, "type": "electric_scooter", "lat": 38.93415066666667, "is_reserved": 0, "is_disabled": 0, "fusion_lon": 0.0, "bike_id": "d605f41c1e2893ca6440a3ef47561b3d", "lon": -77.07245233333333, "rental_uris": {"ios": "https://dc.lft.to/lastmile_qr_scan", "android": "https://dc.lft.to/lastmile_qr_scan"}}, {"name": "d641c5bb2427ec558afacbeab54cec21", "fusion_lat": 0.0, "type": "electric_bike", "lat": 38.80224283333333, "is_reserved": 0, "is_disabled": 0, "fusion_lon": 0.0, "bike_id": "d641c5bb2427ec558afacbeab54cec21", "lon": -77.079175, "rental_uris": {"ios": "https://dc.lft.to/lastmile_qr_scan", "android": "https://dc.lft.to/lastmile_qr_scan"}}, {"name": "cde633cc2a71a2d3ed5769b3731ad94e", "fusion_lat": 0.0, "type": "electric_scooter", "lat": 38.892187666666665, "is_reserved": 0, "is_disabled": 0, "fusion_lon": 0.0, "bike_id": "cde633cc2a71a2d3ed5769b3731ad94e", "lon": -77.03092183333334, "rental_uris": {"ios": "https://dc.lft.to/lastmile_qr_scan", "android": "https://dc.lft.to/lastmile_qr_scan"}}, {"name": "04a3bf469d9f7b89e2f1eff46557e35d", "fusion_lat": 0.0, "type": "electric_scooter", "lat": 38.897498166666665, "is_reserved": 0, "is_disabled": 0, "fusion_lon": 0.0, "bike_id": "04a3bf469d9f7b89e2f1eff46557e35d", "lon": -77.03104416666666, "rental_uris": {"ios": "https://dc.lft.to/lastmile_qr_scan", "android": "https://dc.lft.to/lastmile_qr_scan"}}, {"name": "893b543baa2bb97aa4c6ffd99d767759", "fusion_lat": 0.0, "type": "electric_scooter", "lat": 38.944436333333336, "is_reserved": 0, "is_disabled": 0, "fusion_lon": 0.0, "bike_id": "893b543baa2bb97aa4c6ffd99d767759", "lon": -77.06356783333334, "rental_uris": {"ios": "https://dc.lft.to/lastmile_qr_scan", "android": "https://dc.lft.to/lastmile_qr_scan"}}, {"name": "d1006d6173755fc10b81e080a602a6c1", "fusion_lat": 0.0, "type": "electric_bike", "lat": 38.906833666666664, "is_reserved": 0, "is_disabled": 0, "fusion_lon": 0.0, "bike_id": "d1006d6173755fc10b81e080a602a6c1", "lon": -76.95180583333334, "rental_uris": {"ios": "https://dc.lft.to/lastmile_qr_scan", "android": "https://dc.lft.to/lastmile_qr_scan"}}, {"name": "f79fbfa42822c92f478020c259dcd2e6", "fusion_lat": 0.0, "type": "electric_scooter", "lat": 38.90458133333333, "is_reserved": 0, "is_disabled": 0, "fusion_lon": 0.0, "bike_id": "f79fbfa42822c92f478020c259dcd2e6", "lon": -77.04646066666666, "rental_uris": {"ios": "https://dc.lft.to/lastmile_qr_scan", "android": "https://dc.lft.to/lastmile_qr_scan"}}, {"name": "7b763ccc26bec2c8daf22878f94e61ec", "fusion_lat": 0.0, "type": "electric_scooter", "lat": 38.912478666666665, "is_reserved": 0, "is_disabled": 0, "fusion_lon": 0.0, "bike_id": "7b763ccc26bec2c8daf22878f94e61ec", "lon": -77.03844366666667, "rental_uris": {"ios": "https://dc.lft.to/lastmile_qr_scan", "android": "https://dc.lft.to/lastmile_qr_scan"}}, {"name": "b0644fc62abd2dbe1b7bcad86a6849ba", "fusion_lat": 0.0, "type": "electric_scooter", "lat": 38.8989495, "is_reserved": 0, "is_disabled": 0, "fusion_lon": 0.0, "bike_id": "b0644fc62abd2dbe1b7bcad86a6849ba", "lon": -77.031774, "rental_uris": {"ios": "https://dc.lft.to/lastmile_qr_scan", "android": "https://dc.lft.to/lastmile_qr_scan"}}, {"name": "1d8197eda2b2a8ca9330b0fd14b67051", "fusion_lat": 0.0, "type": "electric_scooter", "lat": 38.93114933333333, "is_reserved": 0, "is_disabled": 0, "fusion_lon": 0.0, "bike_id": "1d8197eda2b2a8ca9330b0fd14b67051", "lon": -77.02089566666666, "rental_uris": {"ios": "https://dc.lft.to/lastmile_qr_scan", "android": "https://dc.lft.to/lastmile_qr_scan"}}, {"name": "92f37ee7c86bb4b9229f00df3e511191", "fusion_lat": 0.0, "type": "electric_scooter", "lat": 38.9370005, "is_reserved": 0, "is_disabled": 0, "fusion_lon": 0.0, "bike_id": "92f37ee7c86bb4b9229f00df3e511191", "lon": -77.02398783333334, "rental_uris": {"ios": "https://dc.lft.to/lastmile_qr_scan", "android": "https://dc.lft.to/lastmile_qr_scan"}}, {"name": "88a2f1bdfd4febdce86dc15dc100ec33", "fusion_lat": 0.0, "type": "electric_scooter", "lat": 38.90562383333334, "is_reserved": 0, "is_disabled": 0, "fusion_lon": 0.0, "bike_id": "88a2f1bdfd4febdce86dc15dc100ec33", "lon": -77.0438865, "rental_uris": {"ios": "https://dc.lft.to/lastmile_qr_scan", "android": "https://dc.lft.to/lastmile_qr_scan"}}, {"name": "0fa55794fe7052062567b70e4d0c90e6", "fusion_lat": 0.0, "type": "electric_scooter", "lat": 38.92670433333333, "is_reserved": 0, "is_disabled": 0, "fusion_lon": 0.0, "bike_id": "0fa55794fe7052062567b70e4d0c90e6", "lon": -77.01499516666667, "rental_uris": {"ios": "https://dc.lft.to/lastmile_qr_scan", "android": "https://dc.lft.to/lastmile_qr_scan"}}, {"name": "f4a18c6b591e27729b9e016a5ec68aa8", "fusion_lat": 0.0, "type": "electric_scooter", "lat": 38.897515166666665, "is_reserved": 0, "is_disabled": 0, "fusion_lon": 0.0, "bike_id": "f4a18c6b591e27729b9e016a5ec68aa8", "lon": -77.007496, "rental_uris": {"ios": "https://dc.lft.to/lastmile_qr_scan", "android": "https://dc.lft.to/lastmile_qr_scan"}}, {"name": "21d0631f27d5651a0ec5517e265f22c6", "fusion_lat": 0.0, "type": "electric_bike", "lat": 38.908623, "is_reserved": 0, "is_disabled": 0, "fusion_lon": 0.0, "bike_id": "21d0631f27d5651a0ec5517e265f22c6", "lon": -77.02284116666667, "rental_uris": {"ios": "https://dc.lft.to/lastmile_qr_scan", "android": "https://dc.lft.to/lastmile_qr_scan"}}, {"name": "843c2e58cd0c0ba4ff0820a024d1c42b", "fusion_lat": 0.0, "type": "electric_scooter", "lat": 38.931233, "is_reserved": 0, "is_disabled": 0, "fusion_lon": 0.0, "bike_id": "843c2e58cd0c0ba4ff0820a024d1c42b", "lon": -77.03605266666666, "rental_uris": {"ios": "https://dc.lft.to/lastmile_qr_scan", "android": "https://dc.lft.to/lastmile_qr_scan"}}, {"name": "15ae87808edafa787d8b47272665e801", "fusion_lat": 0.0, "type": "electric_scooter", "lat": 38.938961, "is_reserved": 0, "is_disabled": 0, "fusion_lon": 0.0, "bike_id": "15ae87808edafa787d8b47272665e801", "lon": -77.03285783333334, "rental_uris": {"ios": "https://dc.lft.to/lastmile_qr_scan", "android": "https://dc.lft.to/lastmile_qr_scan"}}, {"name": "ec74762f1fd8db1a3a91c06c466869fe", "fusion_lat": 0.0, "type": "electric_scooter", "lat": 38.89875133333334, "is_reserved": 0, "is_disabled": 0, "fusion_lon": 0.0, "bike_id": "ec74762f1fd8db1a3a91c06c466869fe", "lon": -77.033341, "rental_uris": {"ios": "https://dc.lft.to/lastmile_qr_scan", "android": "https://dc.lft.to/lastmile_qr_scan"}}, {"name": "dced1f73b53463e5872cb8ee4557cba4", "fusion_lat": 0.0, "type": "electric_scooter", "lat": 38.92342083333333, "is_reserved": 0, "is_disabled": 0, "fusion_lon": 0.0, "bike_id": "dced1f73b53463e5872cb8ee4557cba4", "lon": -77.034159, "rental_uris": {"ios": "https://dc.lft.to/lastmile_qr_scan", "android": "https://dc.lft.to/lastmile_qr_scan"}}, {"name": "5399ef321e80ee2d8942bae4ea45661e", "fusion_lat": 0.0, "type": "electric_scooter", "lat": 38.89942216666667, "is_reserved": 0, "is_disabled": 0, "fusion_lon": 0.0, "bike_id": "5399ef321e80ee2d8942bae4ea45661e", "lon": -77.03208916666667, "rental_uris": {"ios": "https://dc.lft.to/lastmile_qr_scan", "android": "https://dc.lft.to/lastmile_qr_scan"}}, {"name": "9941fa12a001106a0e77867fac7bcc41", "fusion_lat": 0.0, "type": "electric_scooter", "lat": 38.896030833333334, "is_reserved": 0, "is_disabled": 0, "fusion_lon": 0.0, "bike_id": "9941fa12a001106a0e77867fac7bcc41", "lon": -77.05076083333333, "rental_uris": {"ios": "https://dc.lft.to/lastmile_qr_scan", "android": "https://dc.lft.to/lastmile_qr_scan"}}, {"name": "d91089cac3fe07908918f043d078be69", "fusion_lat": 0.0, "type": "electric_scooter", "lat": 38.87289166666667, "is_reserved": 0, "is_disabled": 0, "fusion_lon": 0.0, "bike_id": "d91089cac3fe07908918f043d078be69", "lon": -77.00988066666666, "rental_uris": {"ios": "https://dc.lft.to/lastmile_qr_scan", "android": "https://dc.lft.to/lastmile_qr_scan"}}, {"name": "528550177962977c1cc99ee42dd1114e", "fusion_lat": 0.0, "type": "electric_scooter", "lat": 38.932442, "is_reserved": 0, "is_disabled": 0, "fusion_lon": 0.0, "bike_id": "528550177962977c1cc99ee42dd1114e", "lon": -77.03249216666667, "rental_uris": {"ios": "https://dc.lft.to/lastmile_qr_scan", "android": "https://dc.lft.to/lastmile_qr_scan"}}, {"name": "d745ec9f2d381b5d43570087fe5e5085", "fusion_lat": 0.0, "type": "electric_bike", "lat": 38.897741833333335, "is_reserved": 0, "is_disabled": 0, "fusion_lon": 0.0, "bike_id": "d745ec9f2d381b5d43570087fe5e5085", "lon": -76.9043745, "rental_uris": {"ios": "https://dc.lft.to/lastmile_qr_scan", "android": "https://dc.lft.to/lastmile_qr_scan"}}, {"name": "918fa9e0c8aad736abc2916c59b59997", "fusion_lat": 0.0, "type": "electric_bike", "lat": 38.946240833333334, "is_reserved": 0, "is_disabled": 0, "fusion_lon": 0.0, "bike_id": "918fa9e0c8aad736abc2916c59b59997", "lon": -76.94631716666666, "rental_uris": {"ios": "https://dc.lft.to/lastmile_qr_scan", "android": "https://dc.lft.to/lastmile_qr_scan"}}, {"name": "b54e1bb5fe0f9cb94bfa54295eb59718", "fusion_lat": 0.0, "type": "electric_scooter", "lat": 38.902836, "is_reserved": 0, "is_disabled": 0, "fusion_lon": 0.0, "bike_id": "b54e1bb5fe0f9cb94bfa54295eb59718", "lon": -77.03843116666667, "rental_uris": {"ios": "https://dc.lft.to/lastmile_qr_scan", "android": "https://dc.lft.to/lastmile_qr_scan"}}, {"name": "3cf9bfa610fb234d6286b0b8c7d64b3b", "fusion_lat": 0.0, "type": "electric_scooter", "lat": 38.917277, "is_reserved": 0, "is_disabled": 0, "fusion_lon": 0.0, "bike_id": "3cf9bfa610fb234d6286b0b8c7d64b3b", "lon": -77.03841883333334, "rental_uris": {"ios": "https://dc.lft.to/lastmile_qr_scan", "android": "https://dc.lft.to/lastmile_qr_scan"}}, {"name": "90ba07520873f43faefb804ef18ebfe6", "fusion_lat": 0.0, "type": "electric_scooter", "lat": 38.92895683333333, "is_reserved": 0, "is_disabled": 0, "fusion_lon": 0.0, "bike_id": "90ba07520873f43faefb804ef18ebfe6", "lon": -77.05461333333334, "rental_uris": {"ios": "https://dc.lft.to/lastmile_qr_scan", "android": "https://dc.lft.to/lastmile_qr_scan"}}, {"name": "cba1bdcc6f211b30a74f31b2cdd68842", "fusion_lat": 0.0, "type": "electric_scooter", "lat": 38.8831955, "is_reserved": 0, "is_disabled": 0, "fusion_lon": 0.0, "bike_id": "cba1bdcc6f211b30a74f31b2cdd68842", "lon": -77.017553, "rental_uris": {"ios": "https://dc.lft.to/lastmile_qr_scan", "android": "https://dc.lft.to/lastmile_qr_scan"}}, {"name": "f07d3234dbcae07f6ae9dc635491e5c8", "fusion_lat": 0.0, "type": "electric_bike", "lat": 38.83232, "is_reserved": 0, "is_disabled": 0, "fusion_lon": 0.0, "bike_id": "f07d3234dbcae07f6ae9dc635491e5c8", "lon": -77.00728183333334, "rental_uris": {"ios": "https://dc.lft.to/lastmile_qr_scan", "android": "https://dc.lft.to/lastmile_qr_scan"}}, {"name": "e2d4c0539bd99a5c57cd2130c281dd2e", "fusion_lat": 0.0, "type": "electric_scooter", "lat": 38.916205, "is_reserved": 0, "is_disabled": 0, "fusion_lon": 0.0, "bike_id": "e2d4c0539bd99a5c57cd2130c281dd2e", "lon": -77.03173966666667, "rental_uris": {"ios": "https://dc.lft.to/lastmile_qr_scan", "android": "https://dc.lft.to/lastmile_qr_scan"}}, {"name": "31bbfbd558ef9dbfda8087e8e942455a", "fusion_lat": 0.0, "type": "electric_scooter", "lat": 38.880467833333334, "is_reserved": 0, "is_disabled": 0, "fusion_lon": 0.0, "bike_id": "31bbfbd558ef9dbfda8087e8e942455a", "lon": -76.95985316666666, "rental_uris": {"ios": "https://dc.lft.to/lastmile_qr_scan", "android": "https://dc.lft.to/lastmile_qr_scan"}}, {"name": "5bd721de698bd231155e008563afb3df", "fusion_lat": 0.0, "type": "electric_bike", "lat": 38.85219383333333, "is_reserved": 0, "is_disabled": 0, "fusion_lon": 0.0, "bike_id": "5bd721de698bd231155e008563afb3df", "lon": -77.129602, "rental_uris": {"ios": "https://dc.lft.to/lastmile_qr_scan", "android": "https://dc.lft.to/lastmile_qr_scan"}}, {"name": "554f5cedd97776b7c80ea6886f674964", "fusion_lat": 0.0, "type": "electric_scooter", "lat": 38.9394375, "is_reserved": 0, "is_disabled": 0, "fusion_lon": 0.0, "bike_id": "554f5cedd97776b7c80ea6886f674964", "lon": -77.0325915, "rental_uris": {"ios": "https://dc.lft.to/lastmile_qr_scan", "android": "https://dc.lft.to/lastmile_qr_scan"}}, {"name": "9a4c30e5da788c78bf1e8e5b28a52ef4", "fusion_lat": 0.0, "type": "electric_scooter", "lat": 38.911120333333336, "is_reserved": 0, "is_disabled": 0, "fusion_lon": 0.0, "bike_id": "9a4c30e5da788c78bf1e8e5b28a52ef4", "lon": -77.042353, "rental_uris": {"ios": "https://dc.lft.to/lastmile_qr_scan", "android": "https://dc.lft.to/lastmile_qr_scan"}}, {"name": "5c302960f5422e7d91cef5e7c0ef0108", "fusion_lat": 0.0, "type": "electric_scooter", "lat": 38.916768, "is_reserved": 0, "is_disabled": 0, "fusion_lon": 0.0, "bike_id": "5c302960f5422e7d91cef5e7c0ef0108", "lon": -77.02962766666667, "rental_uris": {"ios": "https://dc.lft.to/lastmile_qr_scan", "android": "https://dc.lft.to/lastmile_qr_scan"}}, {"name": "6559ce79561dea41877328ef2f6f828e", "fusion_lat": 0.0, "type": "electric_scooter", "lat": 38.88352116666667, "is_reserved": 0, "is_disabled": 0, "fusion_lon": 0.0, "bike_id": "6559ce79561dea41877328ef2f6f828e", "lon": -76.9855155, "rental_uris": {"ios": "https://dc.lft.to/lastmile_qr_scan", "android": "https://dc.lft.to/lastmile_qr_scan"}}, {"name": "5d0ec9a4e46c486071eb1d7051713af2", "fusion_lat": 0.0, "type": "electric_scooter", "lat": 38.93948833333334, "is_reserved": 0, "is_disabled": 0, "fusion_lon": 0.0, "bike_id": "5d0ec9a4e46c486071eb1d7051713af2", "lon": -77.03264133333333, "rental_uris": {"ios": "https://dc.lft.to/lastmile_qr_scan", "android": "https://dc.lft.to/lastmile_qr_scan"}}, {"name": "a5ef0debd2796cc7a6c73e991dad857d", "fusion_lat": 0.0, "type": "electric_scooter", "lat": 38.902807833333334, "is_reserved": 0, "is_disabled": 0, "fusion_lon": 0.0, "bike_id": "a5ef0debd2796cc7a6c73e991dad857d", "lon": -77.04067033333334, "rental_uris": {"ios": "https://dc.lft.to/lastmile_qr_scan", "android": "https://dc.lft.to/lastmile_qr_scan"}}, {"name": "89938aad462e09119809a94d9fa82bff", "fusion_lat": 0.0, "type": "electric_bike", "lat": 38.984513, "is_reserved": 0, "is_disabled": 0, "fusion_lon": 0.0, "bike_id": "89938aad462e09119809a94d9fa82bff", "lon": -76.9552505, "rental_uris": {"ios": "https://dc.lft.to/lastmile_qr_scan", "android": "https://dc.lft.to/lastmile_qr_scan"}}, {"name": "be30c2783e0e02753df48f861b97aef8", "fusion_lat": 0.0, "type": "electric_bike", "lat": 38.865926, "is_reserved": 0, "is_disabled": 0, "fusion_lon": 0.0, "bike_id": "be30c2783e0e02753df48f861b97aef8", "lon": -76.93227983333334, "rental_uris": {"ios": "https://dc.lft.to/lastmile_qr_scan", "android": "https://dc.lft.to/lastmile_qr_scan"}}, {"name": "2118db94481cd27d701bd238fcf8408f", "fusion_lat": 0.0, "type": "electric_scooter", "lat": 38.9182555, "is_reserved": 0, "is_disabled": 0, "fusion_lon": 0.0, "bike_id": "2118db94481cd27d701bd238fcf8408f", "lon": -77.04529416666666, "rental_uris": {"ios": "https://dc.lft.to/lastmile_qr_scan", "android": "https://dc.lft.to/lastmile_qr_scan"}}, {"name": "b7351498eefe0429714f492837cdf763", "fusion_lat": 0.0, "type": "electric_bike", "lat": 38.86160616666667, "is_reserved": 0, "is_disabled": 0, "fusion_lon": 0.0, "bike_id": "b7351498eefe0429714f492837cdf763", "lon": -77.13097566666667, "rental_uris": {"ios": "https://dc.lft.to/lastmile_qr_scan", "android": "https://dc.lft.to/lastmile_qr_scan"}}, {"name": "689fe6df91210d3fd6e0faa999e46b79", "fusion_lat": 0.0, "type": "electric_bike", "lat": 38.96757516666667, "is_reserved": 0, "is_disabled": 0, "fusion_lon": 0.0, "bike_id": "689fe6df91210d3fd6e0faa999e46b79", "lon": -77.09163066666666, "rental_uris": {"ios": "https://dc.lft.to/lastmile_qr_scan", "android": "https://dc.lft.to/lastmile_qr_scan"}}, {"name": "361b2af2a20984972134f612875db2b0", "fusion_lat": 0.0, "type": "electric_scooter", "lat": 38.90236566666667, "is_reserved": 0, "is_disabled": 0, "fusion_lon": 0.0, "bike_id": "361b2af2a20984972134f612875db2b0", "lon": -76.97410233333333, "rental_uris": {"ios": "https://dc.lft.to/lastmile_qr_scan", "android": "https://dc.lft.to/lastmile_qr_scan"}}, {"name": "9f67f1b129f484cbbdf48dc35cc18df4", "fusion_lat": 0.0, "type": "electric_scooter", "lat": 38.9258255, "is_reserved": 0, "is_disabled": 0, "fusion_lon": 0.0, "bike_id": "9f67f1b129f484cbbdf48dc35cc18df4", "lon": -77.02844916666666, "rental_uris": {"ios": "https://dc.lft.to/lastmile_qr_scan", "android": "https://dc.lft.to/lastmile_qr_scan"}}, {"name": "079263a0d5012b2345561aa0af306411", "fusion_lat": 0.0, "type": "electric_scooter", "lat": 38.914053, "is_reserved": 0, "is_disabled": 0, "fusion_lon": 0.0, "bike_id": "079263a0d5012b2345561aa0af306411", "lon": -77.00807166666667, "rental_uris": {"ios": "https://dc.lft.to/lastmile_qr_scan", "android": "https://dc.lft.to/lastmile_qr_scan"}}, {"name": "c787c27d09c1ed474d6c63d03cc531c5", "fusion_lat": 0.0, "type": "electric_scooter", "lat": 38.92690833333333, "is_reserved": 0, "is_disabled": 0, "fusion_lon": 0.0, "bike_id": "c787c27d09c1ed474d6c63d03cc531c5", "lon": -77.02084766666667, "rental_uris": {"ios": "https://dc.lft.to/lastmile_qr_scan", "android": "https://dc.lft.to/lastmile_qr_scan"}}, {"name": "22e9283e310dd56d40bef3a8a5623706", "fusion_lat": 0.0, "type": "electric_scooter", "lat": 38.8954775, "is_reserved": 0, "is_disabled": 0, "fusion_lon": 0.0, "bike_id": "22e9283e310dd56d40bef3a8a5623706", "lon": -77.03943666666666, "rental_uris": {"ios": "https://dc.lft.to/lastmile_qr_scan", "android": "https://dc.lft.to/lastmile_qr_scan"}}, {"name": "30fe17fc6d5c6eeca197487955cd2d96", "fusion_lat": 0.0, "type": "electric_scooter", "lat": 38.9234, "is_reserved": 0, "is_disabled": 0, "fusion_lon": 0.0, "bike_id": "30fe17fc6d5c6eeca197487955cd2d96", "lon": -77.05094316666667, "rental_uris": {"ios": "https://dc.lft.to/lastmile_qr_scan", "android": "https://dc.lft.to/lastmile_qr_scan"}}, {"name": "beba4dc63d263e96dbbb27e726d98169", "fusion_lat": 0.0, "type": "electric_scooter", "lat": 38.934856333333336, "is_reserved": 0, "is_disabled": 0, "fusion_lon": 0.0, "bike_id": "beba4dc63d263e96dbbb27e726d98169", "lon": -77.032839, "rental_uris": {"ios": "https://dc.lft.to/lastmile_qr_scan", "android": "https://dc.lft.to/lastmile_qr_scan"}}, {"name": "93da7b89365d051cfd7dc4163cf2c223", "fusion_lat": 0.0, "type": "electric_scooter", "lat": 38.89238016666667, "is_reserved": 0, "is_disabled": 0, "fusion_lon": 0.0, "bike_id": "93da7b89365d051cfd7dc4163cf2c223", "lon": -77.01787083333333, "rental_uris": {"ios": "https://dc.lft.to/lastmile_qr_scan", "android": "https://dc.lft.to/lastmile_qr_scan"}}, {"name": "647eed1809d1fcfdf8ad4892d6327feb", "fusion_lat": 0.0, "type": "electric_scooter", "lat": 38.9163215, "is_reserved": 0, "is_disabled": 0, "fusion_lon": 0.0, "bike_id": "647eed1809d1fcfdf8ad4892d6327feb", "lon": -77.02698783333334, "rental_uris": {"ios": "https://dc.lft.to/lastmile_qr_scan", "android": "https://dc.lft.to/lastmile_qr_scan"}}, {"name": "9d6f2ceddd6bb247886359e26977992a", "fusion_lat": 0.0, "type": "electric_scooter", "lat": 38.924277833333335, "is_reserved": 0, "is_disabled": 0, "fusion_lon": 0.0, "bike_id": "9d6f2ceddd6bb247886359e26977992a", "lon": -77.052116, "rental_uris": {"ios": "https://dc.lft.to/lastmile_qr_scan", "android": "https://dc.lft.to/lastmile_qr_scan"}}, {"name": "0470bd493cb7ab8060d7afcb9ea5cddc", "fusion_lat": 0.0, "type": "electric_bike", "lat": 38.999104333333335, "is_reserved": 0, "is_disabled": 0, "fusion_lon": 0.0, "bike_id": "0470bd493cb7ab8060d7afcb9ea5cddc", "lon": -77.04617216666666, "rental_uris": {"ios": "https://dc.lft.to/lastmile_qr_scan", "android": "https://dc.lft.to/lastmile_qr_scan"}}, {"name": "310edf93164383aae39d2dc9000af239", "fusion_lat": 0.0, "type": "electric_scooter", "lat": 38.904915333333335, "is_reserved": 0, "is_disabled": 0, "fusion_lon": 0.0, "bike_id": "310edf93164383aae39d2dc9000af239", "lon": -77.00931266666667, "rental_uris": {"ios": "https://dc.lft.to/lastmile_qr_scan", "android": "https://dc.lft.to/lastmile_qr_scan"}}, {"name": "6905ee55cbef5896d92682a03a118e84", "fusion_lat": 0.0, "type": "electric_scooter", "lat": 38.961131333333334, "is_reserved": 0, "is_disabled": 0, "fusion_lon": 0.0, "bike_id": "6905ee55cbef5896d92682a03a118e84", "lon": -77.02814733333334, "rental_uris": {"ios": "https://dc.lft.to/lastmile_qr_scan", "android": "https://dc.lft.to/lastmile_qr_scan"}}, {"name": "64273cfb2eac26da5968cfee61c979d8", "fusion_lat": 0.0, "type": "electric_scooter", "lat": 38.88717116666667, "is_reserved": 0, "is_disabled": 0, "fusion_lon": 0.0, "bike_id": "64273cfb2eac26da5968cfee61c979d8", "lon": -77.02208466666667, "rental_uris": {"ios": "https://dc.lft.to/lastmile_qr_scan", "android": "https://dc.lft.to/lastmile_qr_scan"}}, {"name": "c55fd60d1ce9da0dc9838ff7e5412164", "fusion_lat": 0.0, "type": "electric_scooter", "lat": 38.87455716666667, "is_reserved": 0, "is_disabled": 0, "fusion_lon": 0.0, "bike_id": "c55fd60d1ce9da0dc9838ff7e5412164", "lon": -77.00755466666666, "rental_uris": {"ios": "https://dc.lft.to/lastmile_qr_scan", "android": "https://dc.lft.to/lastmile_qr_scan"}}, {"name": "f930f4fe131ad4ef43fa8e9b82884973", "fusion_lat": 0.0, "type": "electric_scooter", "lat": 38.90735516666667, "is_reserved": 0, "is_disabled": 0, "fusion_lon": 0.0, "bike_id": "f930f4fe131ad4ef43fa8e9b82884973", "lon": -77.04159233333333, "rental_uris": {"ios": "https://dc.lft.to/lastmile_qr_scan", "android": "https://dc.lft.to/lastmile_qr_scan"}}, {"name": "71517a1394ec1cd4927d3247c51ae5f5", "fusion_lat": 0.0, "type": "electric_scooter", "lat": 38.911077, "is_reserved": 0, "is_disabled": 0, "fusion_lon": 0.0, "bike_id": "71517a1394ec1cd4927d3247c51ae5f5", "lon": -77.04229483333333, "rental_uris": {"ios": "https://dc.lft.to/lastmile_qr_scan", "android": "https://dc.lft.to/lastmile_qr_scan"}}, {"name": "8f2a110469e72a7b70eee04fddc6206f", "fusion_lat": 0.0, "type": "electric_scooter", "lat": 38.916942666666664, "is_reserved": 0, "is_disabled": 0, "fusion_lon": 0.0, "bike_id": "8f2a110469e72a7b70eee04fddc6206f", "lon": -77.031848, "rental_uris": {"ios": "https://dc.lft.to/lastmile_qr_scan", "android": "https://dc.lft.to/lastmile_qr_scan"}}, {"name": "a45fee2133b348b8b80b53b47a903908", "fusion_lat": 0.0, "type": "electric_scooter", "lat": 38.892929333333335, "is_reserved": 0, "is_disabled": 0, "fusion_lon": 0.0, "bike_id": "a45fee2133b348b8b80b53b47a903908", "lon": -77.02014566666666, "rental_uris": {"ios": "https://dc.lft.to/lastmile_qr_scan", "android": "https://dc.lft.to/lastmile_qr_scan"}}, {"name": "184007a65cebc6b0ee2bd795f67957d0", "fusion_lat": 0.0, "type": "electric_scooter", "lat": 38.93700783333333, "is_reserved": 0, "is_disabled": 0, "fusion_lon": 0.0, "bike_id": "184007a65cebc6b0ee2bd795f67957d0", "lon": -77.06101983333333, "rental_uris": {"ios": "https://dc.lft.to/lastmile_qr_scan", "android": "https://dc.lft.to/lastmile_qr_scan"}}, {"name": "d3bd6b6dc87c78f4cf8c6b64eab93a48", "fusion_lat": 0.0, "type": "electric_scooter", "lat": 38.87391566666667, "is_reserved": 0, "is_disabled": 0, "fusion_lon": 0.0, "bike_id": "d3bd6b6dc87c78f4cf8c6b64eab93a48", "lon": -77.00026333333334, "rental_uris": {"ios": "https://dc.lft.to/lastmile_qr_scan", "android": "https://dc.lft.to/lastmile_qr_scan"}}, {"name": "e4d3e2eb930a52ae36cb75410ad8febd", "fusion_lat": 0.0, "type": "electric_scooter", "lat": 38.9302255, "is_reserved": 0, "is_disabled": 0, "fusion_lon": 0.0, "bike_id": "e4d3e2eb930a52ae36cb75410ad8febd", "lon": -77.02348333333333, "rental_uris": {"ios": "https://dc.lft.to/lastmile_qr_scan", "android": "https://dc.lft.to/lastmile_qr_scan"}}, {"name": "e1e8e4a5b6b11357eab55b5f763396f8", "fusion_lat": 0.0, "type": "electric_bike", "lat": 38.845689166666666, "is_reserved": 0, "is_disabled": 0, "fusion_lon": 0.0, "bike_id": "e1e8e4a5b6b11357eab55b5f763396f8", "lon": -77.09624816666667, "rental_uris": {"ios": "https://dc.lft.to/lastmile_qr_scan", "android": "https://dc.lft.to/lastmile_qr_scan"}}, {"name": "f2e1f88d63c6650ab82db50479565c8f", "fusion_lat": 0.0, "type": "electric_scooter", "lat": 38.8921855, "is_reserved": 0, "is_disabled": 0, "fusion_lon": 0.0, "bike_id": "f2e1f88d63c6650ab82db50479565c8f", "lon": -77.0310315, "rental_uris": {"ios": "https://dc.lft.to/lastmile_qr_scan", "android": "https://dc.lft.to/lastmile_qr_scan"}}, {"name": "d0e051f0979d048caa6341e7e6e07723", "fusion_lat": 0.0, "type": "electric_bike", "lat": 38.899625666666665, "is_reserved": 0, "is_disabled": 0, "fusion_lon": 0.0, "bike_id": "d0e051f0979d048caa6341e7e6e07723", "lon": -77.04715816666666, "rental_uris": {"ios": "https://dc.lft.to/lastmile_qr_scan", "android": "https://dc.lft.to/lastmile_qr_scan"}}, {"name": "bfc038196d0a21925913cc79d366574c", "fusion_lat": 0.0, "type": "electric_scooter", "lat": 38.86071883333334, "is_reserved": 0, "is_disabled": 0, "fusion_lon": 0.0, "bike_id": "bfc038196d0a21925913cc79d366574c", "lon": -76.96743783333334, "rental_uris": {"ios": "https://dc.lft.to/lastmile_qr_scan", "android": "https://dc.lft.to/lastmile_qr_scan"}}, {"name": "1696abb3c6b8260320154836bb0f99c0", "fusion_lat": 0.0, "type": "electric_scooter", "lat": 38.933528833333334, "is_reserved": 0, "is_disabled": 0, "fusion_lon": 0.0, "bike_id": "1696abb3c6b8260320154836bb0f99c0", "lon": -77.03366666666666, "rental_uris": {"ios": "https://dc.lft.to/lastmile_qr_scan", "android": "https://dc.lft.to/lastmile_qr_scan"}}, {"name": "61f5bd974f1db5f27871f8280df11461", "fusion_lat": 0.0, "type": "electric_scooter", "lat": 38.90263616666667, "is_reserved": 0, "is_disabled": 0, "fusion_lon": 0.0, "bike_id": "61f5bd974f1db5f27871f8280df11461", "lon": -77.04517016666667, "rental_uris": {"ios": "https://dc.lft.to/lastmile_qr_scan", "android": "https://dc.lft.to/lastmile_qr_scan"}}, {"name": "c9fc5720cbbc34be3424d4f9332bf776", "fusion_lat": 0.0, "type": "electric_scooter", "lat": 38.899859666666664, "is_reserved": 0, "is_disabled": 0, "fusion_lon": 0.0, "bike_id": "c9fc5720cbbc34be3424d4f9332bf776", "lon": -77.02955933333334, "rental_uris": {"ios": "https://dc.lft.to/lastmile_qr_scan", "android": "https://dc.lft.to/lastmile_qr_scan"}}, {"name": "d2dc65f934956e9551ec7809e119f895", "fusion_lat": 0.0, "type": "electric_scooter", "lat": 38.955291833333334, "is_reserved": 0, "is_disabled": 0, "fusion_lon": 0.0, "bike_id": "d2dc65f934956e9551ec7809e119f895", "lon": -77.06978216666667, "rental_uris": {"ios": "https://dc.lft.to/lastmile_qr_scan", "android": "https://dc.lft.to/lastmile_qr_scan"}}, {"name": "8d1a2afd95d07f13cd2fe10e5f94479c", "fusion_lat": 0.0, "type": "electric_scooter", "lat": 38.92134033333333, "is_reserved": 0, "is_disabled": 0, "fusion_lon": 0.0, "bike_id": "8d1a2afd95d07f13cd2fe10e5f94479c", "lon": -77.03902133333334, "rental_uris": {"ios": "https://dc.lft.to/lastmile_qr_scan", "android": "https://dc.lft.to/lastmile_qr_scan"}}, {"name": "996b9f55e3f71d8d15fcb79394cbebd1", "fusion_lat": 0.0, "type": "electric_scooter", "lat": 38.919427166666665, "is_reserved": 0, "is_disabled": 0, "fusion_lon": 0.0, "bike_id": "996b9f55e3f71d8d15fcb79394cbebd1", "lon": -77.04546433333333, "rental_uris": {"ios": "https://dc.lft.to/lastmile_qr_scan", "android": "https://dc.lft.to/lastmile_qr_scan"}}, {"name": "2c69a1cd9ae06906866b665533358a50", "fusion_lat": 0.0, "type": "electric_scooter", "lat": 38.904992666666665, "is_reserved": 0, "is_disabled": 0, "fusion_lon": 0.0, "bike_id": "2c69a1cd9ae06906866b665533358a50", "lon": -77.046594, "rental_uris": {"ios": "https://dc.lft.to/lastmile_qr_scan", "android": "https://dc.lft.to/lastmile_qr_scan"}}, {"name": "90315e92a082dd468cab587740cd165c", "fusion_lat": 0.0, "type": "electric_scooter", "lat": 38.8561215, "is_reserved": 0, "is_disabled": 0, "fusion_lon": 0.0, "bike_id": "90315e92a082dd468cab587740cd165c", "lon": -76.9802145, "rental_uris": {"ios": "https://dc.lft.to/lastmile_qr_scan", "android": "https://dc.lft.to/lastmile_qr_scan"}}, {"name": "2acd31c0533147b68a6fd70d673b6d07", "fusion_lat": 0.0, "type": "electric_scooter", "lat": 38.912639166666665, "is_reserved": 0, "is_disabled": 0, "fusion_lon": 0.0, "bike_id": "2acd31c0533147b68a6fd70d673b6d07", "lon": -77.06085916666666, "rental_uris": {"ios": "https://dc.lft.to/lastmile_qr_scan", "android": "https://dc.lft.to/lastmile_qr_scan"}}, {"name": "cbc26a86324ad79d8a037b43f9e7324f", "fusion_lat": 0.0, "type": "electric_scooter", "lat": 38.9191455, "is_reserved": 0, "is_disabled": 0, "fusion_lon": 0.0, "bike_id": "cbc26a86324ad79d8a037b43f9e7324f", "lon": -77.01345216666667, "rental_uris": {"ios": "https://dc.lft.to/lastmile_qr_scan", "android": "https://dc.lft.to/lastmile_qr_scan"}}, {"name": "626d842d9bdd62003104eb118c708db3", "fusion_lat": 0.0, "type": "electric_scooter", "lat": 38.895851, "is_reserved": 0, "is_disabled": 0, "fusion_lon": 0.0, "bike_id": "626d842d9bdd62003104eb118c708db3", "lon": -76.937202, "rental_uris": {"ios": "https://dc.lft.to/lastmile_qr_scan", "android": "https://dc.lft.to/lastmile_qr_scan"}}, {"name": "d6890947c2dd6d3297e52b7c22a5e8b6", "fusion_lat": 0.0, "type": "electric_scooter", "lat": 38.909734666666665, "is_reserved": 0, "is_disabled": 0, "fusion_lon": 0.0, "bike_id": "d6890947c2dd6d3297e52b7c22a5e8b6", "lon": -77.04547533333333, "rental_uris": {"ios": "https://dc.lft.to/lastmile_qr_scan", "android": "https://dc.lft.to/lastmile_qr_scan"}}, {"name": "765559da9c592f549197d933775a8fe8", "fusion_lat": 0.0, "type": "electric_scooter", "lat": 38.904433, "is_reserved": 0, "is_disabled": 0, "fusion_lon": 0.0, "bike_id": "765559da9c592f549197d933775a8fe8", "lon": -76.996231, "rental_uris": {"ios": "https://dc.lft.to/lastmile_qr_scan", "android": "https://dc.lft.to/lastmile_qr_scan"}}, {"name": "e1f2a819a0d7f593dfb0294e5cd0532b", "fusion_lat": 0.0, "type": "electric_scooter", "lat": 38.916779166666664, "is_reserved": 0, "is_disabled": 0, "fusion_lon": 0.0, "bike_id": "e1f2a819a0d7f593dfb0294e5cd0532b", "lon": -77.02974766666667, "rental_uris": {"ios": "https://dc.lft.to/lastmile_qr_scan", "android": "https://dc.lft.to/lastmile_qr_scan"}}, {"name": "ab6764d40aa60ac66864200f2cdc0883", "fusion_lat": 0.0, "type": "electric_scooter", "lat": 38.90340283333333, "is_reserved": 0, "is_disabled": 0, "fusion_lon": 0.0, "bike_id": "ab6764d40aa60ac66864200f2cdc0883", "lon": -77.03452833333333, "rental_uris": {"ios": "https://dc.lft.to/lastmile_qr_scan", "android": "https://dc.lft.to/lastmile_qr_scan"}}, {"name": "732a530f0d14f511e700fc0e9eaeebb4", "fusion_lat": 0.0, "type": "electric_scooter", "lat": 38.918229833333335, "is_reserved": 0, "is_disabled": 0, "fusion_lon": 0.0, "bike_id": "732a530f0d14f511e700fc0e9eaeebb4", "lon": -77.0121295, "rental_uris": {"ios": "https://dc.lft.to/lastmile_qr_scan", "android": "https://dc.lft.to/lastmile_qr_scan"}}, {"name": "967554ba0fcef257dbceaf755fcba2f3", "fusion_lat": 0.0, "type": "electric_scooter", "lat": 38.87832733333333, "is_reserved": 0, "is_disabled": 0, "fusion_lon": 0.0, "bike_id": "967554ba0fcef257dbceaf755fcba2f3", "lon": -76.99038633333333, "rental_uris": {"ios": "https://dc.lft.to/lastmile_qr_scan", "android": "https://dc.lft.to/lastmile_qr_scan"}}, {"name": "cbf7bd40fbe5e8f9768a2d01bab53663", "fusion_lat": 0.0, "type": "electric_scooter", "lat": 38.84292683333334, "is_reserved": 0, "is_disabled": 0, "fusion_lon": 0.0, "bike_id": "cbf7bd40fbe5e8f9768a2d01bab53663", "lon": -76.999449, "rental_uris": {"ios": "https://dc.lft.to/lastmile_qr_scan", "android": "https://dc.lft.to/lastmile_qr_scan"}}, {"name": "432ea348007fbfd8c132ee3c8bfc9161", "fusion_lat": 0.0, "type": "electric_scooter", "lat": 38.9066865, "is_reserved": 0, "is_disabled": 0, "fusion_lon": 0.0, "bike_id": "432ea348007fbfd8c132ee3c8bfc9161", "lon": -77.00606983333333, "rental_uris": {"ios": "https://dc.lft.to/lastmile_qr_scan", "android": "https://dc.lft.to/lastmile_qr_scan"}}, {"name": "ad8dbb6a1ca2c722f2bfc05880a9f2e2", "fusion_lat": 0.0, "type": "electric_scooter", "lat": 38.91213316666666, "is_reserved": 0, "is_disabled": 0, "fusion_lon": 0.0, "bike_id": "ad8dbb6a1ca2c722f2bfc05880a9f2e2", "lon": -77.07595966666666, "rental_uris": {"ios": "https://dc.lft.to/lastmile_qr_scan", "android": "https://dc.lft.to/lastmile_qr_scan"}}, {"name": "c2176e25e9f3a7bc2ab89b70118cbfb3", "fusion_lat": 0.0, "type": "electric_bike", "lat": 38.906820333333336, "is_reserved": 0, "is_disabled": 0, "fusion_lon": 0.0, "bike_id": "c2176e25e9f3a7bc2ab89b70118cbfb3", "lon": -77.05621783333333, "rental_uris": {"ios": "https://dc.lft.to/lastmile_qr_scan", "android": "https://dc.lft.to/lastmile_qr_scan"}}, {"name": "01b35de1882bdd96244dbe1da42737c0", "fusion_lat": 0.0, "type": "electric_scooter", "lat": 38.934854666666666, "is_reserved": 0, "is_disabled": 0, "fusion_lon": 0.0, "bike_id": "01b35de1882bdd96244dbe1da42737c0", "lon": -77.03287833333333, "rental_uris": {"ios": "https://dc.lft.to/lastmile_qr_scan", "android": "https://dc.lft.to/lastmile_qr_scan"}}, {"name": "230b561935d54f5c874c73b4142f1a3d", "fusion_lat": 0.0, "type": "electric_scooter", "lat": 38.910044166666665, "is_reserved": 0, "is_disabled": 0, "fusion_lon": 0.0, "bike_id": "230b561935d54f5c874c73b4142f1a3d", "lon": -76.99409983333334, "rental_uris": {"ios": "https://dc.lft.to/lastmile_qr_scan", "android": "https://dc.lft.to/lastmile_qr_scan"}}, {"name": "bf58d0760ea74dcf18fa69bae2f02f0a", "fusion_lat": 0.0, "type": "electric_scooter", "lat": 38.89865183333333, "is_reserved": 0, "is_disabled": 0, "fusion_lon": 0.0, "bike_id": "bf58d0760ea74dcf18fa69bae2f02f0a", "lon": -77.031706, "rental_uris": {"ios": "https://dc.lft.to/lastmile_qr_scan", "android": "https://dc.lft.to/lastmile_qr_scan"}}, {"name": "ce58cde6b33e621dade33933ee929903", "fusion_lat": 0.0, "type": "electric_scooter", "lat": 38.90264233333333, "is_reserved": 0, "is_disabled": 0, "fusion_lon": 0.0, "bike_id": "ce58cde6b33e621dade33933ee929903", "lon": -77.01542816666667, "rental_uris": {"ios": "https://dc.lft.to/lastmile_qr_scan", "android": "https://dc.lft.to/lastmile_qr_scan"}}, {"name": "151b3d231daecd3fa6949ed57503d18e", "fusion_lat": 0.0, "type": "electric_scooter", "lat": 38.90507616666667, "is_reserved": 0, "is_disabled": 0, "fusion_lon": 0.0, "bike_id": "151b3d231daecd3fa6949ed57503d18e", "lon": -77.069379, "rental_uris": {"ios": "https://dc.lft.to/lastmile_qr_scan", "android": "https://dc.lft.to/lastmile_qr_scan"}}, {"name": "9d7037d5e96d41458f9e411762bc908f", "fusion_lat": 0.0, "type": "electric_scooter", "lat": 38.9203885, "is_reserved": 0, "is_disabled": 0, "fusion_lon": 0.0, "bike_id": "9d7037d5e96d41458f9e411762bc908f", "lon": -77.03432233333334, "rental_uris": {"ios": "https://dc.lft.to/lastmile_qr_scan", "android": "https://dc.lft.to/lastmile_qr_scan"}}, {"name": "09d6fe21fae20ed9706dce17d2cb8e25", "fusion_lat": 0.0, "type": "electric_scooter", "lat": 38.89982166666667, "is_reserved": 0, "is_disabled": 0, "fusion_lon": 0.0, "bike_id": "09d6fe21fae20ed9706dce17d2cb8e25", "lon": -77.02718083333333, "rental_uris": {"ios": "https://dc.lft.to/lastmile_qr_scan", "android": "https://dc.lft.to/lastmile_qr_scan"}}, {"name": "65cb31d895729e23d1fee06beb7b3f2e", "fusion_lat": 0.0, "type": "electric_scooter", "lat": 38.905287666666666, "is_reserved": 0, "is_disabled": 0, "fusion_lon": 0.0, "bike_id": "65cb31d895729e23d1fee06beb7b3f2e", "lon": -77.06514783333333, "rental_uris": {"ios": "https://dc.lft.to/lastmile_qr_scan", "android": "https://dc.lft.to/lastmile_qr_scan"}}, {"name": "63730cca401a97dc9e434eea9e923ffb", "fusion_lat": 0.0, "type": "electric_scooter", "lat": 38.91102733333334, "is_reserved": 0, "is_disabled": 0, "fusion_lon": 0.0, "bike_id": "63730cca401a97dc9e434eea9e923ffb", "lon": -77.010579, "rental_uris": {"ios": "https://dc.lft.to/lastmile_qr_scan", "android": "https://dc.lft.to/lastmile_qr_scan"}}, {"name": "1ac6801f5d0b25e57a4894c918c2e655", "fusion_lat": 0.0, "type": "electric_scooter", "lat": 38.89561166666667, "is_reserved": 0, "is_disabled": 0, "fusion_lon": 0.0, "bike_id": "1ac6801f5d0b25e57a4894c918c2e655", "lon": -77.01105266666667, "rental_uris": {"ios": "https://dc.lft.to/lastmile_qr_scan", "android": "https://dc.lft.to/lastmile_qr_scan"}}, {"name": "27ba581ca91dbad6b681cb4f533f5267", "fusion_lat": 0.0, "type": "electric_scooter", "lat": 38.892387, "is_reserved": 0, "is_disabled": 0, "fusion_lon": 0.0, "bike_id": "27ba581ca91dbad6b681cb4f533f5267", "lon": -77.03200183333334, "rental_uris": {"ios": "https://dc.lft.to/lastmile_qr_scan", "android": "https://dc.lft.to/lastmile_qr_scan"}}, {"name": "2d15bcab404eb55d1d5ae5579177590f", "fusion_lat": 0.0, "type": "electric_scooter", "lat": 38.900862333333336, "is_reserved": 0, "is_disabled": 0, "fusion_lon": 0.0, "bike_id": "2d15bcab404eb55d1d5ae5579177590f", "lon": -77.04910283333334, "rental_uris": {"ios": "https://dc.lft.to/lastmile_qr_scan", "android": "https://dc.lft.to/lastmile_qr_scan"}}, {"name": "74d5930c5558c5c9319adee21499199a", "fusion_lat": 0.0, "type": "electric_scooter", "lat": 38.9421, "is_reserved": 0, "is_disabled": 0, "fusion_lon": 0.0, "bike_id": "74d5930c5558c5c9319adee21499199a", "lon": -77.01497033333334, "rental_uris": {"ios": "https://dc.lft.to/lastmile_qr_scan", "android": "https://dc.lft.to/lastmile_qr_scan"}}, {"name": "2a9d41c19fc0c95ab006958b040f8fa9", "fusion_lat": 0.0, "type": "electric_scooter", "lat": 38.92315266666667, "is_reserved": 0, "is_disabled": 0, "fusion_lon": 0.0, "bike_id": "2a9d41c19fc0c95ab006958b040f8fa9", "lon": -77.039526, "rental_uris": {"ios": "https://dc.lft.to/lastmile_qr_scan", "android": "https://dc.lft.to/lastmile_qr_scan"}}, {"name": "9e6a2b52c926622f10c119e65befb8dd", "fusion_lat": 0.0, "type": "electric_scooter", "lat": 38.950897, "is_reserved": 0, "is_disabled": 0, "fusion_lon": 0.0, "bike_id": "9e6a2b52c926622f10c119e65befb8dd", "lon": -77.0283995, "rental_uris": {"ios": "https://dc.lft.to/lastmile_qr_scan", "android": "https://dc.lft.to/lastmile_qr_scan"}}, {"name": "655b763ba8f472250868da9fa0ce4ce4", "fusion_lat": 0.0, "type": "electric_scooter", "lat": 38.905582833333334, "is_reserved": 0, "is_disabled": 0, "fusion_lon": 0.0, "bike_id": "655b763ba8f472250868da9fa0ce4ce4", "lon": -77.03798766666667, "rental_uris": {"ios": "https://dc.lft.to/lastmile_qr_scan", "android": "https://dc.lft.to/lastmile_qr_scan"}}, {"name": "9e3f3371d196d29e261bf05884839472", "fusion_lat": 0.0, "type": "electric_scooter", "lat": 38.907130333333335, "is_reserved": 0, "is_disabled": 0, "fusion_lon": 0.0, "bike_id": "9e3f3371d196d29e261bf05884839472", "lon": -77.04791033333333, "rental_uris": {"ios": "https://dc.lft.to/lastmile_qr_scan", "android": "https://dc.lft.to/lastmile_qr_scan"}}, {"name": "4b4e5fb5686d28242680416522e1670b", "fusion_lat": 0.0, "type": "electric_scooter", "lat": 38.92237433333333, "is_reserved": 0, "is_disabled": 0, "fusion_lon": 0.0, "bike_id": "4b4e5fb5686d28242680416522e1670b", "lon": -77.03088983333333, "rental_uris": {"ios": "https://dc.lft.to/lastmile_qr_scan", "android": "https://dc.lft.to/lastmile_qr_scan"}}, {"name": "b8df0af47d74d97291e7faec93505169", "fusion_lat": 0.0, "type": "electric_scooter", "lat": 38.909873833333336, "is_reserved": 0, "is_disabled": 0, "fusion_lon": 0.0, "bike_id": "b8df0af47d74d97291e7faec93505169", "lon": -77.03187383333334, "rental_uris": {"ios": "https://dc.lft.to/lastmile_qr_scan", "android": "https://dc.lft.to/lastmile_qr_scan"}}, {"name": "a0aff00bce75af36e1a35f6c0d29d86c", "fusion_lat": 0.0, "type": "electric_scooter", "lat": 38.9107415, "is_reserved": 0, "is_disabled": 0, "fusion_lon": 0.0, "bike_id": "a0aff00bce75af36e1a35f6c0d29d86c", "lon": -77.0302475, "rental_uris": {"ios": "https://dc.lft.to/lastmile_qr_scan", "android": "https://dc.lft.to/lastmile_qr_scan"}}, {"name": "a8ff297fae4ffe937ef86b8671b647bc", "fusion_lat": 0.0, "type": "electric_scooter", "lat": 38.935004, "is_reserved": 0, "is_disabled": 0, "fusion_lon": 0.0, "bike_id": "a8ff297fae4ffe937ef86b8671b647bc", "lon": -77.02855733333334, "rental_uris": {"ios": "https://dc.lft.to/lastmile_qr_scan", "android": "https://dc.lft.to/lastmile_qr_scan"}}, {"name": "e2e71041c44273cff8443fdeb89fe93e", "fusion_lat": 0.0, "type": "electric_bike", "lat": 38.8543545, "is_reserved": 0, "is_disabled": 0, "fusion_lon": 0.0, "bike_id": "e2e71041c44273cff8443fdeb89fe93e", "lon": -77.11706933333333, "rental_uris": {"ios": "https://dc.lft.to/lastmile_qr_scan", "android": "https://dc.lft.to/lastmile_qr_scan"}}, {"name": "c9a4823686c05af4ccf3f03b33df142b", "fusion_lat": 0.0, "type": "electric_scooter", "lat": 38.90644483333333, "is_reserved": 0, "is_disabled": 0, "fusion_lon": 0.0, "bike_id": "c9a4823686c05af4ccf3f03b33df142b", "lon": -77.00605683333333, "rental_uris": {"ios": "https://dc.lft.to/lastmile_qr_scan", "android": "https://dc.lft.to/lastmile_qr_scan"}}, {"name": "96ac2705a912fc06f1599c0058e044be", "fusion_lat": 0.0, "type": "electric_scooter", "lat": 38.88713883333333, "is_reserved": 0, "is_disabled": 0, "fusion_lon": 0.0, "bike_id": "96ac2705a912fc06f1599c0058e044be", "lon": -77.02204783333333, "rental_uris": {"ios": "https://dc.lft.to/lastmile_qr_scan", "android": "https://dc.lft.to/lastmile_qr_scan"}}, {"name": "8bbd1c6e1fc2b9ed5045adabe62ad24e", "fusion_lat": 0.0, "type": "electric_scooter", "lat": 38.907217833333334, "is_reserved": 0, "is_disabled": 0, "fusion_lon": 0.0, "bike_id": "8bbd1c6e1fc2b9ed5045adabe62ad24e", "lon": -77.02508983333334, "rental_uris": {"ios": "https://dc.lft.to/lastmile_qr_scan", "android": "https://dc.lft.to/lastmile_qr_scan"}}, {"name": "3b689d5d754e46a3e67a2b8770e2011d", "fusion_lat": 0.0, "type": "electric_scooter", "lat": 38.90002783333333, "is_reserved": 0, "is_disabled": 0, "fusion_lon": 0.0, "bike_id": "3b689d5d754e46a3e67a2b8770e2011d", "lon": -76.9983475, "rental_uris": {"ios": "https://dc.lft.to/lastmile_qr_scan", "android": "https://dc.lft.to/lastmile_qr_scan"}}, {"name": "d7bac8ba1325e0df861e45606e9c7158", "fusion_lat": 0.0, "type": "electric_scooter", "lat": 38.89523283333333, "is_reserved": 0, "is_disabled": 0, "fusion_lon": 0.0, "bike_id": "d7bac8ba1325e0df861e45606e9c7158", "lon": -77.016034, "rental_uris": {"ios": "https://dc.lft.to/lastmile_qr_scan", "android": "https://dc.lft.to/lastmile_qr_scan"}}, {"name": "858d8ee10420a753d45c587a9f10be7a", "fusion_lat": 0.0, "type": "electric_bike", "lat": 38.91051783333333, "is_reserved": 0, "is_disabled": 0, "fusion_lon": 0.0, "bike_id": "858d8ee10420a753d45c587a9f10be7a", "lon": -77.00465283333334, "rental_uris": {"ios": "https://dc.lft.to/lastmile_qr_scan", "android": "https://dc.lft.to/lastmile_qr_scan"}}, {"name": "febc14470f1c0f6537ceeb4eaf052154", "fusion_lat": 0.0, "type": "electric_scooter", "lat": 38.92345533333334, "is_reserved": 0, "is_disabled": 0, "fusion_lon": 0.0, "bike_id": "febc14470f1c0f6537ceeb4eaf052154", "lon": -77.05098033333333, "rental_uris": {"ios": "https://dc.lft.to/lastmile_qr_scan", "android": "https://dc.lft.to/lastmile_qr_scan"}}, {"name": "e6992a3d5ae1a708293c28908d040d7e", "fusion_lat": 0.0, "type": "electric_scooter", "lat": 38.94175633333333, "is_reserved": 0, "is_disabled": 0, "fusion_lon": 0.0, "bike_id": "e6992a3d5ae1a708293c28908d040d7e", "lon": -77.03093116666666, "rental_uris": {"ios": "https://dc.lft.to/lastmile_qr_scan", "android": "https://dc.lft.to/lastmile_qr_scan"}}, {"name": "c0b88dc3afc9eea81a5d281960c9666b", "fusion_lat": 0.0, "type": "electric_scooter", "lat": 38.93240216666667, "is_reserved": 0, "is_disabled": 0, "fusion_lon": 0.0, "bike_id": "c0b88dc3afc9eea81a5d281960c9666b", "lon": -77.03249716666667, "rental_uris": {"ios": "https://dc.lft.to/lastmile_qr_scan", "android": "https://dc.lft.to/lastmile_qr_scan"}}, {"name": "5898071a67808ef0db6864c386e03354", "fusion_lat": 0.0, "type": "electric_bike", "lat": 38.90082666666667, "is_reserved": 0, "is_disabled": 0, "fusion_lon": 0.0, "bike_id": "5898071a67808ef0db6864c386e03354", "lon": -77.059074, "rental_uris": {"ios": "https://dc.lft.to/lastmile_qr_scan", "android": "https://dc.lft.to/lastmile_qr_scan"}}, {"name": "84bc7612281ec3d67c9bbb12fd021d97", "fusion_lat": 0.0, "type": "electric_scooter", "lat": 38.90666366666667, "is_reserved": 0, "is_disabled": 0, "fusion_lon": 0.0, "bike_id": "84bc7612281ec3d67c9bbb12fd021d97", "lon": -77.03863083333333, "rental_uris": {"ios": "https://dc.lft.to/lastmile_qr_scan", "android": "https://dc.lft.to/lastmile_qr_scan"}}, {"name": "4e5030148bf1a44369cefda34afab869", "fusion_lat": 0.0, "type": "electric_scooter", "lat": 38.885873833333335, "is_reserved": 0, "is_disabled": 0, "fusion_lon": 0.0, "bike_id": "4e5030148bf1a44369cefda34afab869", "lon": -77.0176295, "rental_uris": {"ios": "https://dc.lft.to/lastmile_qr_scan", "android": "https://dc.lft.to/lastmile_qr_scan"}}, {"name": "5e24bf648da22cb3e96e2d3138515f8f", "fusion_lat": 0.0, "type": "electric_scooter", "lat": 38.8997395, "is_reserved": 0, "is_disabled": 0, "fusion_lon": 0.0, "bike_id": "5e24bf648da22cb3e96e2d3138515f8f", "lon": -77.0313545, "rental_uris": {"ios": "https://dc.lft.to/lastmile_qr_scan", "android": "https://dc.lft.to/lastmile_qr_scan"}}, {"name": "9c5716e2b10287f61aa3d0ecc6c577e0", "fusion_lat": 0.0, "type": "electric_scooter", "lat": 38.893460833333336, "is_reserved": 0, "is_disabled": 0, "fusion_lon": 0.0, "bike_id": "9c5716e2b10287f61aa3d0ecc6c577e0", "lon": -76.94953266666667, "rental_uris": {"ios": "https://dc.lft.to/lastmile_qr_scan", "android": "https://dc.lft.to/lastmile_qr_scan"}}, {"name": "88d8e95827274172d02a515156a33a06", "fusion_lat": 0.0, "type": "electric_scooter", "lat": 38.897499333333336, "is_reserved": 0, "is_disabled": 0, "fusion_lon": 0.0, "bike_id": "88d8e95827274172d02a515156a33a06", "lon": -77.03268666666666, "rental_uris": {"ios": "https://dc.lft.to/lastmile_qr_scan", "android": "https://dc.lft.to/lastmile_qr_scan"}}, {"name": "d25f65ac8ebc601c41cb96dce3372181", "fusion_lat": 0.0, "type": "electric_scooter", "lat": 38.937116, "is_reserved": 0, "is_disabled": 0, "fusion_lon": 0.0, "bike_id": "d25f65ac8ebc601c41cb96dce3372181", "lon": -77.03650716666667, "rental_uris": {"ios": "https://dc.lft.to/lastmile_qr_scan", "android": "https://dc.lft.to/lastmile_qr_scan"}}, {"name": "151882a61e06fa229e4ed8ebd2d12f00", "fusion_lat": 0.0, "type": "electric_scooter", "lat": 38.91488866666667, "is_reserved": 0, "is_disabled": 0, "fusion_lon": 0.0, "bike_id": "151882a61e06fa229e4ed8ebd2d12f00", "lon": -77.03243466666666, "rental_uris": {"ios": "https://dc.lft.to/lastmile_qr_scan", "android": "https://dc.lft.to/lastmile_qr_scan"}}, {"name": "740b4877bde889912436346a23ad2989", "fusion_lat": 0.0, "type": "electric_bike", "lat": 38.959072666666664, "is_reserved": 0, "is_disabled": 0, "fusion_lon": 0.0, "bike_id": "740b4877bde889912436346a23ad2989", "lon": -77.0015495, "rental_uris": {"ios": "https://dc.lft.to/lastmile_qr_scan", "android": "https://dc.lft.to/lastmile_qr_scan"}}, {"name": "65cbe46e634115d221c61478e25ff60e", "fusion_lat": 0.0, "type": "electric_scooter", "lat": 38.91870216666667, "is_reserved": 0, "is_disabled": 0, "fusion_lon": 0.0, "bike_id": "65cbe46e634115d221c61478e25ff60e", "lon": -77.04349766666667, "rental_uris": {"ios": "https://dc.lft.to/lastmile_qr_scan", "android": "https://dc.lft.to/lastmile_qr_scan"}}, {"name": "0ddc99ff0d39b6634f7cf3d53988a24d", "fusion_lat": 0.0, "type": "electric_scooter", "lat": 38.90130033333333, "is_reserved": 0, "is_disabled": 0, "fusion_lon": 0.0, "bike_id": "0ddc99ff0d39b6634f7cf3d53988a24d", "lon": -77.04017466666667, "rental_uris": {"ios": "https://dc.lft.to/lastmile_qr_scan", "android": "https://dc.lft.to/lastmile_qr_scan"}}, {"name": "6fda549210d0a365a32be9b96d8f6a53", "fusion_lat": 0.0, "type": "electric_scooter", "lat": 38.92732633333333, "is_reserved": 0, "is_disabled": 0, "fusion_lon": 0.0, "bike_id": "6fda549210d0a365a32be9b96d8f6a53", "lon": -77.0344475, "rental_uris": {"ios": "https://dc.lft.to/lastmile_qr_scan", "android": "https://dc.lft.to/lastmile_qr_scan"}}, {"name": "ad23be245d3234e38cc650fd7962fed1", "fusion_lat": 0.0, "type": "electric_scooter", "lat": 38.918041833333334, "is_reserved": 0, "is_disabled": 0, "fusion_lon": 0.0, "bike_id": "ad23be245d3234e38cc650fd7962fed1", "lon": -77.03213733333334, "rental_uris": {"ios": "https://dc.lft.to/lastmile_qr_scan", "android": "https://dc.lft.to/lastmile_qr_scan"}}, {"name": "5f05f15bb5ef03e92aa8114de22ea394", "fusion_lat": 0.0, "type": "electric_bike", "lat": 38.96858, "is_reserved": 0, "is_disabled": 0, "fusion_lon": 0.0, "bike_id": "5f05f15bb5ef03e92aa8114de22ea394", "lon": -77.03333016666667, "rental_uris": {"ios": "https://dc.lft.to/lastmile_qr_scan", "android": "https://dc.lft.to/lastmile_qr_scan"}}, {"name": "712df108777dd19fa1dc52b87280d6ad", "fusion_lat": 0.0, "type": "electric_scooter", "lat": 38.897383833333336, "is_reserved": 0, "is_disabled": 0, "fusion_lon": 0.0, "bike_id": "712df108777dd19fa1dc52b87280d6ad", "lon": -77.02176566666667, "rental_uris": {"ios": "https://dc.lft.to/lastmile_qr_scan", "android": "https://dc.lft.to/lastmile_qr_scan"}}, {"name": "1073feae732a1670636409b3c30f6196", "fusion_lat": 0.0, "type": "electric_scooter", "lat": 38.903054, "is_reserved": 0, "is_disabled": 0, "fusion_lon": 0.0, "bike_id": "1073feae732a1670636409b3c30f6196", "lon": -77.023202, "rental_uris": {"ios": "https://dc.lft.to/lastmile_qr_scan", "android": "https://dc.lft.to/lastmile_qr_scan"}}, {"name": "aa533b0caf98b695411f543374522a63", "fusion_lat": 0.0, "type": "electric_scooter", "lat": 38.90344283333334, "is_reserved": 0, "is_disabled": 0, "fusion_lon": 0.0, "bike_id": "aa533b0caf98b695411f543374522a63", "lon": -76.975673, "rental_uris": {"ios": "https://dc.lft.to/lastmile_qr_scan", "android": "https://dc.lft.to/lastmile_qr_scan"}}, {"name": "94fa49911e4c8272238f82b70fa21119", "fusion_lat": 0.0, "type": "electric_scooter", "lat": 38.879976166666665, "is_reserved": 0, "is_disabled": 0, "fusion_lon": 0.0, "bike_id": "94fa49911e4c8272238f82b70fa21119", "lon": -76.98541966666667, "rental_uris": {"ios": "https://dc.lft.to/lastmile_qr_scan", "android": "https://dc.lft.to/lastmile_qr_scan"}}, {"name": "845e1e954e925e7c129bdc1fc23a0703", "fusion_lat": 0.0, "type": "electric_scooter", "lat": 38.8851235, "is_reserved": 0, "is_disabled": 0, "fusion_lon": 0.0, "bike_id": "845e1e954e925e7c129bdc1fc23a0703", "lon": -77.03345133333333, "rental_uris": {"ios": "https://dc.lft.to/lastmile_qr_scan", "android": "https://dc.lft.to/lastmile_qr_scan"}}, {"name": "b8f4fce005e536ad4068395c8756a89b", "fusion_lat": 0.0, "type": "electric_scooter", "lat": 38.92154583333333, "is_reserved": 0, "is_disabled": 0, "fusion_lon": 0.0, "bike_id": "b8f4fce005e536ad4068395c8756a89b", "lon": -77.042164, "rental_uris": {"ios": "https://dc.lft.to/lastmile_qr_scan", "android": "https://dc.lft.to/lastmile_qr_scan"}}, {"name": "8b6c6117374698398b9ef60e7c9450fa", "fusion_lat": 0.0, "type": "electric_scooter", "lat": 38.91784366666667, "is_reserved": 0, "is_disabled": 0, "fusion_lon": 0.0, "bike_id": "8b6c6117374698398b9ef60e7c9450fa", "lon": -77.02308733333334, "rental_uris": {"ios": "https://dc.lft.to/lastmile_qr_scan", "android": "https://dc.lft.to/lastmile_qr_scan"}}, {"name": "c9a0dcf776ffe6b0b2f355f6a9632807", "fusion_lat": 0.0, "type": "electric_scooter", "lat": 38.9054135, "is_reserved": 0, "is_disabled": 0, "fusion_lon": 0.0, "bike_id": "c9a0dcf776ffe6b0b2f355f6a9632807", "lon": -77.05229383333334, "rental_uris": {"ios": "https://dc.lft.to/lastmile_qr_scan", "android": "https://dc.lft.to/lastmile_qr_scan"}}, {"name": "f56319eaeb21588dc01ca526404e94d9", "fusion_lat": 0.0, "type": "electric_scooter", "lat": 38.90642316666667, "is_reserved": 0, "is_disabled": 0, "fusion_lon": 0.0, "bike_id": "f56319eaeb21588dc01ca526404e94d9", "lon": -77.0432775, "rental_uris": {"ios": "https://dc.lft.to/lastmile_qr_scan", "android": "https://dc.lft.to/lastmile_qr_scan"}}, {"name": "1c7dce5addb5420c79b527e4efe0f28b", "fusion_lat": 0.0, "type": "electric_scooter", "lat": 38.919051, "is_reserved": 0, "is_disabled": 0, "fusion_lon": 0.0, "bike_id": "1c7dce5addb5420c79b527e4efe0f28b", "lon": -77.0213595, "rental_uris": {"ios": "https://dc.lft.to/lastmile_qr_scan", "android": "https://dc.lft.to/lastmile_qr_scan"}}, {"name": "8919782281a323c506528ed1e54d0579", "fusion_lat": 0.0, "type": "electric_scooter", "lat": 38.9174735, "is_reserved": 0, "is_disabled": 0, "fusion_lon": 0.0, "bike_id": "8919782281a323c506528ed1e54d0579", "lon": -77.03643133333334, "rental_uris": {"ios": "https://dc.lft.to/lastmile_qr_scan", "android": "https://dc.lft.to/lastmile_qr_scan"}}, {"name": "1d5f8c893038d9e97a7ae5475c7274ef", "fusion_lat": 0.0, "type": "electric_scooter", "lat": 38.91110333333334, "is_reserved": 0, "is_disabled": 0, "fusion_lon": 0.0, "bike_id": "1d5f8c893038d9e97a7ae5475c7274ef", "lon": -77.03150133333334, "rental_uris": {"ios": "https://dc.lft.to/lastmile_qr_scan", "android": "https://dc.lft.to/lastmile_qr_scan"}}, {"name": "25c1e9c5d83cb2282b43561e94442293", "fusion_lat": 0.0, "type": "electric_scooter", "lat": 38.925635666666665, "is_reserved": 0, "is_disabled": 0, "fusion_lon": 0.0, "bike_id": "25c1e9c5d83cb2282b43561e94442293", "lon": -77.022849, "rental_uris": {"ios": "https://dc.lft.to/lastmile_qr_scan", "android": "https://dc.lft.to/lastmile_qr_scan"}}, {"name": "efa90df24199a7954f7ac247cbd8de40", "fusion_lat": 0.0, "type": "electric_scooter", "lat": 38.9026835, "is_reserved": 0, "is_disabled": 0, "fusion_lon": 0.0, "bike_id": "efa90df24199a7954f7ac247cbd8de40", "lon": -77.01544383333334, "rental_uris": {"ios": "https://dc.lft.to/lastmile_qr_scan", "android": "https://dc.lft.to/lastmile_qr_scan"}}, {"name": "bab7fbe5100d6d09293448d1f362595b", "fusion_lat": 0.0, "type": "electric_scooter", "lat": 38.892300166666665, "is_reserved": 0, "is_disabled": 0, "fusion_lon": 0.0, "bike_id": "bab7fbe5100d6d09293448d1f362595b", "lon": -77.03211533333334, "rental_uris": {"ios": "https://dc.lft.to/lastmile_qr_scan", "android": "https://dc.lft.to/lastmile_qr_scan"}}, {"name": "7576927f02a358bd2a5ac27fe4d38263", "fusion_lat": 0.0, "type": "electric_scooter", "lat": 38.885326, "is_reserved": 0, "is_disabled": 0, "fusion_lon": 0.0, "bike_id": "7576927f02a358bd2a5ac27fe4d38263", "lon": -77.00580933333333, "rental_uris": {"ios": "https://dc.lft.to/lastmile_qr_scan", "android": "https://dc.lft.to/lastmile_qr_scan"}}, {"name": "683f60686b664e905fc66fb7ce884fce", "fusion_lat": 0.0, "type": "electric_scooter", "lat": 38.88705183333333, "is_reserved": 0, "is_disabled": 0, "fusion_lon": 0.0, "bike_id": "683f60686b664e905fc66fb7ce884fce", "lon": -77.02820766666666, "rental_uris": {"ios": "https://dc.lft.to/lastmile_qr_scan", "android": "https://dc.lft.to/lastmile_qr_scan"}}, {"name": "dc03de7685cc29cf1316c54647aa5c3d", "fusion_lat": 0.0, "type": "electric_scooter", "lat": 38.90563, "is_reserved": 0, "is_disabled": 0, "fusion_lon": 0.0, "bike_id": "dc03de7685cc29cf1316c54647aa5c3d", "lon": -77.02220883333334, "rental_uris": {"ios": "https://dc.lft.to/lastmile_qr_scan", "android": "https://dc.lft.to/lastmile_qr_scan"}}, {"name": "1555787e23464998342f2f304000b9d7", "fusion_lat": 0.0, "type": "electric_scooter", "lat": 38.912574, "is_reserved": 0, "is_disabled": 0, "fusion_lon": 0.0, "bike_id": "1555787e23464998342f2f304000b9d7", "lon": -77.03865266666666, "rental_uris": {"ios": "https://dc.lft.to/lastmile_qr_scan", "android": "https://dc.lft.to/lastmile_qr_scan"}}, {"name": "18e5dd38ec4a08d720e4600643c91455", "fusion_lat": 0.0, "type": "electric_scooter", "lat": 38.942753833333335, "is_reserved": 0, "is_disabled": 0, "fusion_lon": 0.0, "bike_id": "18e5dd38ec4a08d720e4600643c91455", "lon": -77.02503583333333, "rental_uris": {"ios": "https://dc.lft.to/lastmile_qr_scan", "android": "https://dc.lft.to/lastmile_qr_scan"}}, {"name": "3301e0066a53852aa9708286dfd46420", "fusion_lat": 0.0, "type": "electric_scooter", "lat": 38.9236245, "is_reserved": 0, "is_disabled": 0, "fusion_lon": 0.0, "bike_id": "3301e0066a53852aa9708286dfd46420", "lon": -77.05028616666667, "rental_uris": {"ios": "https://dc.lft.to/lastmile_qr_scan", "android": "https://dc.lft.to/lastmile_qr_scan"}}, {"name": "0196cdaaf8af1f75ccfc55771a348a22", "fusion_lat": 0.0, "type": "electric_scooter", "lat": 38.8665595, "is_reserved": 0, "is_disabled": 0, "fusion_lon": 0.0, "bike_id": "0196cdaaf8af1f75ccfc55771a348a22", "lon": -76.988861, "rental_uris": {"ios": "https://dc.lft.to/lastmile_qr_scan", "android": "https://dc.lft.to/lastmile_qr_scan"}}, {"name": "3d7b5999102cd1b80f2df4ba82e08957", "fusion_lat": 0.0, "type": "electric_scooter", "lat": 38.926233, "is_reserved": 0, "is_disabled": 0, "fusion_lon": 0.0, "bike_id": "3d7b5999102cd1b80f2df4ba82e08957", "lon": -77.037102, "rental_uris": {"ios": "https://dc.lft.to/lastmile_qr_scan", "android": "https://dc.lft.to/lastmile_qr_scan"}}, {"name": "ebe68e7a24a69d699c4ddb3f24699089", "fusion_lat": 0.0, "type": "electric_scooter", "lat": 38.9064115, "is_reserved": 0, "is_disabled": 0, "fusion_lon": 0.0, "bike_id": "ebe68e7a24a69d699c4ddb3f24699089", "lon": -77.03869116666667, "rental_uris": {"ios": "https://dc.lft.to/lastmile_qr_scan", "android": "https://dc.lft.to/lastmile_qr_scan"}}, {"name": "f472b9d0670495fc8d2faae737cdbd86", "fusion_lat": 0.0, "type": "electric_bike", "lat": 38.950670833333334, "is_reserved": 0, "is_disabled": 0, "fusion_lon": 0.0, "bike_id": "f472b9d0670495fc8d2faae737cdbd86", "lon": -77.0665015, "rental_uris": {"ios": "https://dc.lft.to/lastmile_qr_scan", "android": "https://dc.lft.to/lastmile_qr_scan"}}, {"name": "e556cb84ef19181a08bc82eed57132b5", "fusion_lat": 0.0, "type": "electric_scooter", "lat": 38.88354483333333, "is_reserved": 0, "is_disabled": 0, "fusion_lon": 0.0, "bike_id": "e556cb84ef19181a08bc82eed57132b5", "lon": -76.98562733333333, "rental_uris": {"ios": "https://dc.lft.to/lastmile_qr_scan", "android": "https://dc.lft.to/lastmile_qr_scan"}}, {"name": "e47a8ab4bac995e3ea4a0a6959bb1b47", "fusion_lat": 0.0, "type": "electric_bike", "lat": 38.96622266666667, "is_reserved": 0, "is_disabled": 0, "fusion_lon": 0.0, "bike_id": "e47a8ab4bac995e3ea4a0a6959bb1b47", "lon": -76.97671566666666, "rental_uris": {"ios": "https://dc.lft.to/lastmile_qr_scan", "android": "https://dc.lft.to/lastmile_qr_scan"}}, {"name": "d8165fbebbd245605dbdb566a84cf327", "fusion_lat": 0.0, "type": "electric_scooter", "lat": 38.924558, "is_reserved": 0, "is_disabled": 0, "fusion_lon": 0.0, "bike_id": "d8165fbebbd245605dbdb566a84cf327", "lon": -77.03275483333333, "rental_uris": {"ios": "https://dc.lft.to/lastmile_qr_scan", "android": "https://dc.lft.to/lastmile_qr_scan"}}, {"name": "fda8eaabdcfff0f0359eb4c87cd0d8ed", "fusion_lat": 0.0, "type": "electric_scooter", "lat": 38.93085383333333, "is_reserved": 0, "is_disabled": 0, "fusion_lon": 0.0, "bike_id": "fda8eaabdcfff0f0359eb4c87cd0d8ed", "lon": -77.03269566666667, "rental_uris": {"ios": "https://dc.lft.to/lastmile_qr_scan", "android": "https://dc.lft.to/lastmile_qr_scan"}}, {"name": "4aa5f6acc95d75ea7f79f7f8d469cea1", "fusion_lat": 0.0, "type": "electric_scooter", "lat": 38.92242266666667, "is_reserved": 0, "is_disabled": 0, "fusion_lon": 0.0, "bike_id": "4aa5f6acc95d75ea7f79f7f8d469cea1", "lon": -77.03663733333333, "rental_uris": {"ios": "https://dc.lft.to/lastmile_qr_scan", "android": "https://dc.lft.to/lastmile_qr_scan"}}, {"name": "2a4a1bc7d87d0629119496fa156bbabf", "fusion_lat": 0.0, "type": "electric_scooter", "lat": 38.939845166666665, "is_reserved": 0, "is_disabled": 0, "fusion_lon": 0.0, "bike_id": "2a4a1bc7d87d0629119496fa156bbabf", "lon": -77.02899916666667, "rental_uris": {"ios": "https://dc.lft.to/lastmile_qr_scan", "android": "https://dc.lft.to/lastmile_qr_scan"}}, {"name": "481408806f73af49d9e6ca7e800f05fd", "fusion_lat": 0.0, "type": "electric_bike", "lat": 38.856831666666665, "is_reserved": 0, "is_disabled": 0, "fusion_lon": 0.0, "bike_id": "481408806f73af49d9e6ca7e800f05fd", "lon": -77.08538633333333, "rental_uris": {"ios": "https://dc.lft.to/lastmile_qr_scan", "android": "https://dc.lft.to/lastmile_qr_scan"}}, {"name": "049ec1057d95606ab5f6b4df95533f48", "fusion_lat": 0.0, "type": "electric_scooter", "lat": 38.9205845, "is_reserved": 0, "is_disabled": 0, "fusion_lon": 0.0, "bike_id": "049ec1057d95606ab5f6b4df95533f48", "lon": -77.03458583333334, "rental_uris": {"ios": "https://dc.lft.to/lastmile_qr_scan", "android": "https://dc.lft.to/lastmile_qr_scan"}}, {"name": "c28d53629732346346f7a46abc15e554", "fusion_lat": 0.0, "type": "electric_bike", "lat": 38.99935983333334, "is_reserved": 0, "is_disabled": 0, "fusion_lon": 0.0, "bike_id": "c28d53629732346346f7a46abc15e554", "lon": -77.01770216666667, "rental_uris": {"ios": "https://dc.lft.to/lastmile_qr_scan", "android": "https://dc.lft.to/lastmile_qr_scan"}}, {"name": "63227a12a044c46c2f82097656830a93", "fusion_lat": 0.0, "type": "electric_scooter", "lat": 38.86694266666667, "is_reserved": 0, "is_disabled": 0, "fusion_lon": 0.0, "bike_id": "63227a12a044c46c2f82097656830a93", "lon": -76.98708366666666, "rental_uris": {"ios": "https://dc.lft.to/lastmile_qr_scan", "android": "https://dc.lft.to/lastmile_qr_scan"}}, {"name": "9b0eef27196a1ac695c9f22f7ce024fa", "fusion_lat": 0.0, "type": "electric_scooter", "lat": 38.900603833333335, "is_reserved": 0, "is_disabled": 0, "fusion_lon": 0.0, "bike_id": "9b0eef27196a1ac695c9f22f7ce024fa", "lon": -77.0151745, "rental_uris": {"ios": "https://dc.lft.to/lastmile_qr_scan", "android": "https://dc.lft.to/lastmile_qr_scan"}}, {"name": "bd6da4722e0965f13514e11193fafc8b", "fusion_lat": 0.0, "type": "electric_scooter", "lat": 38.941728, "is_reserved": 0, "is_disabled": 0, "fusion_lon": 0.0, "bike_id": "bd6da4722e0965f13514e11193fafc8b", "lon": -77.04141033333333, "rental_uris": {"ios": "https://dc.lft.to/lastmile_qr_scan", "android": "https://dc.lft.to/lastmile_qr_scan"}},