{"data": {"bikes": [{"is_reserved": 0, "is_disabled": 0, "fusion_lon": 0.0, "lat": 38.902363, "name": "ffe6c981491d29b14dff4ef07b42dd19", "bike_id": "ffe6c981491d29b14dff4ef07b42dd19", "lon": -77.00200316666667, "fusion_lat": 0.0, "rental_uris": {"android": "https://dc.lft.to/lastmile_qr_scan", "ios": "https://dc.lft.to/lastmile_qr_scan"}, "type": "electric_scooter"}, {"is_reserved": 0, "is_disabled": 0, "fusion_lon": 0.0, "lat": 38.897367833333334, "name": "898ff143834a0b26d98741f4a67d3fcc", "bike_id": "898ff143834a0b26d98741f4a67d3fcc", "lon": -77.03202566666667, "fusion_lat": 0.0, "rental_uris": {"android": "https://dc.lft.to/lastmile_qr_scan", "ios": "https://dc.lft.to/lastmile_qr_scan"}, "type": "electric_scooter"}, {"is_reserved": 0, "is_disabled": 0, "fusion_lon": 0.0, "lat": 38.920595666666664, "name": "99050fef3e85c2db8238ae65c200ff6c", "bike_id": "99050fef3e85c2db8238ae65c200ff6c", "lon": -77.0347865, "fusion_lat": 0.0, "rental_uris": {"android": "https://dc.lft.to/lastmile_qr_scan", "ios": "https://dc.lft.to/lastmile_qr_scan"}, "type": "electric_scooter"}, {"is_reserved": 0, "is_disabled": 0, "fusion_lon": 0.0, "lat": 38.93866416666667, "name": "22657db512930bcf2cb675cc27934f94", "bike_id": "22657db512930bcf2cb675cc27934f94", "lon": -77.03045033333333, "fusion_lat": 0.0, "rental_uris": {"android": "https://dc.lft.to/lastmile_qr_scan", "ios": "https://dc.lft.to/lastmile_qr_scan"}, "type": "electric_scooter"}, {"is_reserved": 0, "is_disabled": 0, "fusion_lon": 0.0, "lat": 38.909007833333334, "name": "09760ed505ac3fd1fac5d59df3525ac6", "bike_id": "09760ed505ac3fd1fac5d59df3525ac6", "lon": -77.07276633333333, "fusion_lat": 0.0, "rental_uris": {"android": "https://dc.lft.to/lastmile_qr_scan", "ios": "https://dc.lft.to/lastmile_qr_scan"}, "type": "electric_scooter"}, {"is_reserved": 0, "is_disabled": 0, "fusion_lon": 0.0, "lat": 38.8765095, "name": "5759d736570f47154ff4e0ba8428dce0", "bike_id": "5759d736570f47154ff4e0ba8428dce0", "lon": -77.00418483333333, "fusion_lat": 0.0, "rental_uris": {"android": "https://dc.lft.to/lastmile_qr_scan", "ios": "https://dc.lft.to/lastmile_qr_scan"}, "type": "electric_scooter"}, {"is_reserved": 0, "is_disabled": 0, "fusion_lon": 0.0, "lat": 38.882790166666666, "name": "e23e310637cbc1fa5d7a023cb0ff87f6", "bike_id": "e23e310637cbc1fa5d7a023cb0ff87f6", "lon": -76.93243683333333, "fusion_lat": 0.0, "rental_uris": {"android": "https://dc.lft.to/lastmile_qr_scan", "ios": "https://dc.lft.to/lastmile_qr_scan"}, "type": "electric_bike"}, {"is_reserved": 0, "is_disabled": 0, "fusion_lon": 0.0, "lat": 38.914519, "name": "16dfed14c4a7acff0017c72caa91ac32", "bike_id": "16dfed14c4a7acff0017c72caa91ac32", "lon": -76.97282166666666, "fusion_lat": 0.0, "rental_uris": {"android": "https://dc.lft.to/lastmile_qr_scan", "ios": "https://dc.lft.to/lastmile_qr_scan"}, "type": "electric_bike"}, {"is_reserved": 0, "is_disabled": 0, "fusion_lon": 0.0, "lat": 38.924436, "name": "6a5bc9adfb344dbfe7d9ff1613c60c9f", "bike_id": "6a5bc9adfb344dbfe7d9ff1613c60c9f", "lon": -77.032815, "fusion_lat": 0.0, "rental_uris": {"android": "https://dc.lft.to/lastmile_qr_scan", "ios": "https://dc.lft.to/lastmile_qr_scan"}, "type": "electric_scooter"}, {"is_reserved": 0, "is_disabled": 0, "fusion_lon": 0.0, "lat": 38.8521685, "name": "4777e0b47599cc03c9e25de746caa66f", "bike_id": "4777e0b47599cc03c9e25de746caa66f", "lon": -76.99373283333334, "fusion_lat": 0.0, "rental_uris": {"android": "https://dc.lft.to/lastmile_qr_scan", "ios": "https://dc.lft.to/lastmile_qr_scan"}, "type": "electric_bike"}, {"is_reserved": 0, "is_disabled": 0, "fusion_lon": 0.0, "lat": 38.8983695, "name": "0949d7baea1936e1d6aa9ad841055952", "bike_id": "0949d7baea1936e1d6aa9ad841055952", "lon": -77.02278083333333, "fusion_lat": 0.0, "rental_uris": {"android": "https://dc.lft.to/lastmile_qr_scan", "ios": "https://dc.lft.to/lastmile_qr_scan"}, "type": "electric_scooter"}, {"is_reserved": 0, "is_disabled": 0, "fusion_lon": 0.0, "lat": 38.92245066666667, "name": "f86051135be60171f4a2476ca2350d5b", "bike_id": "f86051135be60171f4a2476ca2350d5b", "lon": -77.035182, "fusion_lat": 0.0, "rental_uris": {"android": "https://dc.lft.to/lastmile_qr_scan", "ios": "https://dc.lft.to/lastmile_qr_scan"}, "type": "electric_scooter"}, {"is_reserved": 0, "is_disabled": 0, "fusion_lon": 0.0, "lat": 38.918596, "name": "229c6acf9651baa86adb945da17fde06", "bike_id": "229c6acf9651baa86adb945da17fde06", "lon": -77.03222283333334, "fusion_lat": 0.0, "rental_uris": {"android": "https://dc.lft.to/lastmile_qr_scan", "ios": "https://dc.lft.to/lastmile_qr_scan"}, "type": "electric_scooter"}, {"is_reserved": 0, "is_disabled": 0, "fusion_lon": 0.0, "lat": 38.922350333333334, "name": "4de863b46b7c3a47fb9e3686927efe8b", "bike_id": "4de863b46b7c3a47fb9e3686927efe8b", "lon": -77.02116583333333, "fusion_lat": 0.0, "rental_uris": {"android": "https://dc.lft.to/lastmile_qr_scan", "ios": "https://dc.lft.to/lastmile_qr_scan"}, "type": "electric_scooter"}, {"is_reserved": 0, "is_disabled": 0, "fusion_lon": 0.0, "lat": 38.87522, "name": "0787417f8b2f45fd8d109e0b7cdeb444", "bike_id": "0787417f8b2f45fd8d109e0b7cdeb444", "lon": -77.012317, "fusion_lat": 0.0, "rental_uris": {"android": "https://dc.lft.to/lastmile_qr_scan", "ios": "https://dc.lft.to/lastmile_qr_scan"}, "type": "electric_scooter"}, {"is_reserved": 0, "is_disabled": 0, "fusion_lon": 0.0, "lat": 38.9254195, "name": "eac6154fc6863dfb5f122a52c875580c", "bike_id": "eac6154fc6863dfb5f122a52c875580c", "lon": -77.00072883333333, "fusion_lat": 0.0, "rental_uris": {"android": "https://dc.lft.to/lastmile_qr_scan", "ios": "https://dc.lft.to/lastmile_qr_scan"}, "type": "electric_scooter"}, {"is_reserved": 0, "is_disabled": 0, "fusion_lon": 0.0, "lat": 38.92820233333333, "name": "e33ae0073d306c91cdabbcdb5706075b", "bike_id": "e33ae0073d306c91cdabbcdb5706075b", "lon": -77.023031, "fusion_lat": 0.0, "rental_uris": {"android": "https://dc.lft.to/lastmile_qr_scan", "ios": "https://dc.lft.to/lastmile_qr_scan"}, "type": "electric_scooter"}, {"is_reserved": 0, "is_disabled": 0, "fusion_lon": 0.0, "lat": 38.937222166666665, "name": "603f3323dfdda7af5930ebfd088f435e", "bike_id": "603f3323dfdda7af5930ebfd088f435e", "lon": -77.02423866666666, "fusion_lat": 0.0, "rental_uris": {"android": "https://dc.lft.to/lastmile_qr_scan", "ios": "https://dc.lft.to/lastmile_qr_scan"}, "type": "electric_scooter"}, {"is_reserved": 0, "is_disabled": 0, "fusion_lon": 0.0, "lat": 38.8986335, "name": "882bebca68fa3a6bd9a92979c8ed8839", "bike_id": "882bebca68fa3a6bd9a92979c8ed8839", "lon": -77.04898583333333, "fusion_lat": 0.0, "rental_uris": {"android": "https://dc.lft.to/lastmile_qr_scan", "ios": "https://dc.lft.to/lastmile_qr_scan"}, "type": "electric_scooter"}, {"is_reserved": 0, "is_disabled": 0, "fusion_lon": 0.0, "lat": 38.872908833333334, "name": "39177abebd8ae54133a87fa6dae1ff51", "bike_id": "39177abebd8ae54133a87fa6dae1ff51", "lon": -77.00987216666667, "fusion_lat": 0.0, "rental_uris": {"android": "https://dc.lft.to/lastmile_qr_scan", "ios": "https://dc.lft.to/lastmile_qr_scan"}, "type": "electric_scooter"}, {"is_reserved": 0, "is_disabled": 0, "fusion_lon": 0.0, "lat": 38.897059666666664, "name": "0c6b7fe304385204f08e6f2ee78af51d", "bike_id": "0c6b7fe304385204f08e6f2ee78af51d", "lon": -77.008311, "fusion_lat": 0.0, "rental_uris": {"android": "https://dc.lft.to/lastmile_qr_scan", "ios": "https://dc.lft.to/lastmile_qr_scan"}, "type": "electric_scooter"}, {"is_reserved": 0, "is_disabled": 0, "fusion_lon": 0.0, "lat": 38.91539233333334, "name": "8572a6851c3197aae90cb88f3949a40a", "bike_id": "8572a6851c3197aae90cb88f3949a40a", "lon": -77.03637633333334, "fusion_lat": 0.0, "rental_uris": {"android": "https://dc.lft.to/lastmile_qr_scan", "ios": "https://dc.lft.to/lastmile_qr_scan"}, "type": "electric_scooter"}, {"is_reserved": 0, "is_disabled": 0, "fusion_lon": 0.0, "lat": 38.914076666666666, "name": "cfd47eb0c0c1d529ea41785f0546fbc1", "bike_id": "cfd47eb0c0c1d529ea41785f0546fbc1", "lon": -77.03263683333333, "fusion_lat": 0.0, "rental_uris": {"android": "https://dc.lft.to/lastmile_qr_scan", "ios": "https://dc.lft.to/lastmile_qr_scan"}, "type": "electric_scooter"}, {"is_reserved": 0, "is_disabled": 0, "fusion_lon": 0.0, "lat": 38.928988333333336, "name": "c15373a1cda9c748e4ad8bc4250313f3", "bike_id": "c15373a1cda9c748e4ad8bc4250313f3", "lon": -76.9843365, "fusion_lat": 0.0, "rental_uris": {"android": "https://dc.lft.to/lastmile_qr_scan", "ios": "https://dc.lft.to/lastmile_qr_scan"}, "type": "electric_scooter"}, {"is_reserved": 0, "is_disabled": 0, "fusion_lon": 0.0, "lat": 38.96098333333333, "name": "72d4e135e51199532f2e4a6feb460f78", "bike_id": "72d4e135e51199532f2e4a6feb460f78", "lon": -77.06759416666667, "fusion_lat": 0.0, "rental_uris": {"android": "https://dc.lft.to/lastmile_qr_scan", "ios": "https://dc.lft.to/lastmile_qr_scan"}, "type": "electric_scooter"}, {"is_reserved": 0, "is_disabled": 0, "fusion_lon": 0.0, "lat": 38.929584166666665, "name": "794e8f25d2742100a419e7b965ceb905", "bike_id": "794e8f25d2742100a419e7b965ceb905", "lon": -77.01147816666666, "fusion_lat": 0.0, "rental_uris": {"android": "https://dc.lft.to/lastmile_qr_scan", "ios": "https://dc.lft.to/lastmile_qr_scan"}, "type": "electric_scooter"}, {"is_reserved": 0, "is_disabled": 0, "fusion_lon": 0.0, "lat": 38.9432855, "name": "f14c70f7eade5de8811a4a484fb6c086", "bike_id": "f14c70f7eade5de8811a4a484fb6c086", "lon": -77.01315583333333, "fusion_lat": 0.0, "rental_uris": {"android": "https://dc.lft.to/lastmile_qr_scan", "ios": "https://dc.lft.to/lastmile_qr_scan"}, "type": "electric_scooter"}, {"is_reserved": 0, "is_disabled": 0, "fusion_lon": 0.0, "lat": 38.90127616666667, "name": "39441abe44936b5a6409697564f15f77", "bike_id": "39441abe44936b5a6409697564f15f77", "lon": -77.03186616666666, "fusion_lat": 0.0, "rental_uris": {"android": "https://dc.lft.to/lastmile_qr_scan", "ios": "https://dc.lft.to/lastmile_qr_scan"}, "type": "electric_scooter"}, {"is_reserved": 0, "is_disabled": 0, "fusion_lon": 0.0, "lat": 38.89738216666667, "name": "acd8598c115ad1b02a471877abeee93d", "bike_id": "acd8598c115ad1b02a471877abeee93d", "lon": -77.00930766666667, "fusion_lat": 0.0, "rental_uris": {"android": "https://dc.lft.to/lastmile_qr_scan", "ios": "https://dc.lft.to/lastmile_qr_scan"}, "type": "electric_scooter"}, {"is_reserved": 0, "is_disabled": 0, "fusion_lon": 0.0, "lat": 38.909647666666665, "name": "ebb5b1ce34f15d972f87a99205a28eeb", "bike_id": "ebb5b1ce34f15d972f87a99205a28eeb", "lon": -77.023192, "fusion_lat": 0.0, "rental_uris": {"android": "https://dc.lft.to/lastmile_qr_scan", "ios": "https://dc.lft.to/lastmile_qr_scan"}, "type": "electric_scooter"}, {"is_reserved": 0, "is_disabled": 0, "fusion_lon": 0.0, "lat": 38.938564666666664, "name": "01faef7a5971197b6edce861bd1e4442", "bike_id": "01faef7a5971197b6edce861bd1e4442", "lon": -77.02517583333334, "fusion_lat": 0.0, "rental_uris": {"android": "https://dc.lft.to/lastmile_qr_scan", "ios": "https://dc.lft.to/lastmile_qr_scan"}, "type": "electric_scooter"}, {"is_reserved": 0, "is_disabled": 0, "fusion_lon": 0.0, "lat": 38.932457166666666, "name": "aa59e1f47ebaa7640ba89b143bc678e3", "bike_id": "aa59e1f47ebaa7640ba89b143bc678e3", "lon": -77.0327535, "fusion_lat": 0.0, "rental_uris": {"android": "https://dc.lft.to/lastmile_qr_scan", "ios": "https://dc.lft.to/lastmile_qr_scan"}, "type": "electric_scooter"}, {"is_reserved": 0, "is_disabled": 0, "fusion_lon": 0.0, "lat": 38.89705083333333, "name": "3656ff9e6e31edb6655bff715b29bc1d", "bike_id": "3656ff9e6e31edb6655bff715b29bc1d", "lon": -77.02442583333334, "fusion_lat": 0.0, "rental_uris": {"android": "https://dc.lft.to/lastmile_qr_scan", "ios": "https://dc.lft.to/lastmile_qr_scan"}, "type": "electric_scooter"}, {"is_reserved": 0, "is_disabled": 0, "fusion_lon": 0.0, "lat": 39.005352333333335, "name": "7ef7e8d12a9e86e598cda12807b7e534", "bike_id": "7ef7e8d12a9e86e598cda12807b7e534", "lon": -77.104017, "fusion_lat": 0.0, "rental_uris": {"android": "https://dc.lft.to/lastmile_qr_scan", "ios": "https://dc.lft.to/lastmile_qr_scan"}, "type": "electric_bike"}, {"is_reserved": 0, "is_disabled": 0, "fusion_lon": 0.0, "lat": 38.92824016666667, "name": "9e7107b92e37d36b14946f24cf2bc34d", "bike_id": "9e7107b92e37d36b14946f24cf2bc34d", "lon": -77.022993, "fusion_lat": 0.0, "rental_uris": {"android": "https://dc.lft.to/lastmile_qr_scan", "ios": "https://dc.lft.to/lastmile_qr_scan"}, "type": "electric_scooter"}, {"is_reserved": 0, "is_disabled": 0, "fusion_lon": 0.0, "lat": 38.89754533333333, "name": "36c93b617478e98b007c9aabbcaff941", "bike_id": "36c93b617478e98b007c9aabbcaff941", "lon": -77.04352033333333, "fusion_lat": 0.0, "rental_uris": {"android": "https://dc.lft.to/lastmile_qr_scan", "ios": "https://dc.lft.to/lastmile_qr_scan"}, "type": "electric_scooter"}, {"is_reserved": 0, "is_disabled": 0, "fusion_lon": 0.0, "lat": 38.9029875, "name": "c3b264944d2dea282e835538a7e13951", "bike_id": "c3b264944d2dea282e835538a7e13951", "lon": -77.0386045, "fusion_lat": 0.0, "rental_uris": {"android": "https://dc.lft.to/lastmile_qr_scan", "ios": "https://dc.lft.to/lastmile_qr_scan"}, "type": "electric_scooter"}, {"is_reserved": 0, "is_disabled": 0, "fusion_lon": 0.0, "lat": 38.938636333333335, "name": "3f51444b857830b3b329ca85967e493d", "bike_id": "3f51444b857830b3b329ca85967e493d", "lon": -77.0252215, "fusion_lat": 0.0, "rental_uris": {"android": "https://dc.lft.to/lastmile_qr_scan", "ios": "https://dc.lft.to/lastmile_qr_scan"}, "type": "electric_scooter"}, {"is_reserved": 0, "is_disabled": 0, "fusion_lon": 0.0, "lat": 38.91058666666667, "name": "32ab8c90c266f4f8326d74eb68192962", "bike_id": "32ab8c90c266f4f8326d74eb68192962", "lon": -77.052897, "fusion_lat": 0.0, "rental_uris": {"android": "https://dc.lft.to/lastmile_qr_scan", "ios": "https://dc.lft.to/lastmile_qr_scan"}, "type": "electric_scooter"}, {"is_reserved": 0, "is_disabled": 0, "fusion_lon": 0.0, "lat": 38.89591566666667, "name": "56bdc57e919e1ee0ef42e8bc3f0cce87", "bike_id": "56bdc57e919e1ee0ef42e8bc3f0cce87", "lon": -77.04810116666667, "fusion_lat": 0.0, "rental_uris": {"android": "https://dc.lft.to/lastmile_qr_scan", "ios": "https://dc.lft.to/lastmile_qr_scan"}, "type": "electric_scooter"}, {"is_reserved": 0, "is_disabled": 0, "fusion_lon": 0.0, "lat": 38.913291, "name": "fc471c41f51350275794bdde5bcfae9b", "bike_id": "fc471c41f51350275794bdde5bcfae9b", "lon": -77.0453775, "fusion_lat": 0.0, "rental_uris": {"android": "https://dc.lft.to/lastmile_qr_scan", "ios": "https://dc.lft.to/lastmile_qr_scan"}, "type": "electric_scooter"}, {"is_reserved": 0, "is_disabled": 0, "fusion_lon": 0.0, "lat": 38.92085383333333, "name": "59a5b26e41637cde58783f816805922a", "bike_id": "59a5b26e41637cde58783f816805922a", "lon": -77.02536816666667, "fusion_lat": 0.0, "rental_uris": {"android": "https://dc.lft.to/lastmile_qr_scan", "ios": "https://dc.lft.to/lastmile_qr_scan"}, "type": "electric_scooter"}, {"is_reserved": 0, "is_disabled": 0, "fusion_lon": 0.0, "lat": 38.93973, "name": "1b59dd348d497d2d9f3bf1c9e61bb3f1", "bike_id": "1b59dd348d497d2d9f3bf1c9e61bb3f1", "lon": -76.9861875, "fusion_lat": 0.0, "rental_uris": {"android": "https://dc.lft.to/lastmile_qr_scan", "ios": "https://dc.lft.to/lastmile_qr_scan"}, "type": "electric_bike"}, {"is_reserved": 0, "is_disabled": 0, "fusion_lon": 0.0, "lat": 38.91706283333333, "name": "ca36ae135979ebffcb7007a58252fcb1", "bike_id": "ca36ae135979ebffcb7007a58252fcb1", "lon": -77.03894216666667, "fusion_lat": 0.0, "rental_uris": {"android": "https://dc.lft.to/lastmile_qr_scan", "ios": "https://dc.lft.to/lastmile_qr_scan"}, "type": "electric_scooter"}, {"is_reserved": 0, "is_disabled": 0, "fusion_lon": 0.0, "lat": 38.91415533333333, "name": "9a6583cd6e1989ebf52f5dda51522e95", "bike_id": "9a6583cd6e1989ebf52f5dda51522e95", "lon": -77.00940833333334, "fusion_lat": 0.0, "rental_uris": {"android": "https://dc.lft.to/lastmile_qr_scan", "ios": "https://dc.lft.to/lastmile_qr_scan"}, "type": "electric_scooter"}, {"is_reserved": 0, "is_disabled": 0, "fusion_lon": 0.0, "lat": 38.86719, "name": "7c4fe32dda67be40f6de25c4af82ddae", "bike_id": "7c4fe32dda67be40f6de25c4af82ddae", "lon": -77.01012366666667, "fusion_lat": 0.0, "rental_uris": {"android": "https://dc.lft.to/lastmile_qr_scan", "ios": "https://dc.lft.to/lastmile_qr_scan"}, "type": "electric_scooter"}, {"is_reserved": 0, "is_disabled": 0, "fusion_lon": 0.0, "lat": 38.87068816666667, "name": "c0b5f0306b8f5364ee1a015f762ae0dd", "bike_id": "c0b5f0306b8f5364ee1a015f762ae0dd", "lon": -76.98005733333333, "fusion_lat": 0.0, "rental_uris": {"android": "https://dc.lft.to/lastmile_qr_scan", "ios": "https://dc.lft.to/lastmile_qr_scan"}, "type": "electric_scooter"}, {"is_reserved": 0, "is_disabled": 0, "fusion_lon": 0.0, "lat": 38.86562416666666, "name": "770f5d0d62b5ffe1def7380fe863ea8e", "bike_id": "770f5d0d62b5ffe1def7380fe863ea8e", "lon": -76.97478666666666, "fusion_lat": 0.0, "rental_uris": {"android": "https://dc.lft.to/lastmile_qr_scan", "ios": "https://dc.lft.to/lastmile_qr_scan"}, "type": "electric_bike"}, {"is_reserved": 0, "is_disabled": 0, "fusion_lon": 0.0, "lat": 38.824303666666665, "name": "d736ed910a7666bee511897c0b39e715", "bike_id": "d736ed910a7666bee511897c0b39e715", "lon": -77.12041483333333, "fusion_lat": 0.0, "rental_uris": {"android": "https://dc.lft.to/lastmile_qr_scan", "ios": "https://dc.lft.to/lastmile_qr_scan"}, "type": "electric_bike"}, {"is_reserved": 0, "is_disabled": 0, "fusion_lon": 0.0, "lat": 38.92330483333333, "name": "32d8933a3a88fc5d80960ebc670c193c", "bike_id": "32d8933a3a88fc5d80960ebc670c193c", "lon": -77.02972316666667, "fusion_lat": 0.0, "rental_uris": {"android": "https://dc.lft.to/lastmile_qr_scan", "ios": "https://dc.lft.to/lastmile_qr_scan"}, "type": "electric_scooter"}, {"is_reserved": 0, "is_disabled": 0, "fusion_lon": 0.0, "lat": 38.922305, "name": "c8a2f75a8a7baae05dac7798319d84fd", "bike_id": "c8a2f75a8a7baae05dac7798319d84fd", "lon": -77.04464666666667, "fusion_lat": 0.0, "rental_uris": {"android": "https://dc.lft.to/lastmile_qr_scan", "ios": "https://dc.lft.to/lastmile_qr_scan"}, "type": "electric_scooter"}, {"is_reserved": 0, "is_disabled": 0, "fusion_lon": 0.0, "lat": 38.90795416666667, "name": "c3bffaf0286dce4abf143f472b939028", "bike_id": "c3bffaf0286dce4abf143f472b939028", "lon": -77.03462166666667, "fusion_lat": 0.0, "rental_uris": {"android": "https://dc.lft.to/lastmile_qr_scan", "ios": "https://dc.lft.to/lastmile_qr_scan"}, "type": "electric_scooter"}, {"is_reserved": 0, "is_disabled": 0, "fusion_lon": 0.0, "lat": 38.903474, "name": "b46732aa2d3b658a6006c6e8d8244477", "bike_id": "b46732aa2d3b658a6006c6e8d8244477", "lon": -76.9827195, "fusion_lat": 0.0, "rental_uris": {"android": "https://dc.lft.to/lastmile_qr_scan", "ios": "https://dc.lft.to/lastmile_qr_scan"}, "type": "electric_scooter"}, {"is_reserved": 0, "is_disabled": 0, "fusion_lon": 0.0, "lat": 38.905182333333336, "name": "bf5c72ce0010cb79bf7b770bbfccea99", "bike_id": "bf5c72ce0010cb79bf7b770bbfccea99", "lon": -77.064527, "fusion_lat": 0.0, "rental_uris": {"android": "https://dc.lft.to/lastmile_qr_scan", "ios": "https://dc.lft.to/lastmile_qr_scan"}, "type": "electric_scooter"}, {"is_reserved": 0, "is_disabled": 0, "fusion_lon": 0.0, "lat": 38.92761566666667, "name": "5a96e40b033bb99f401facb10eefab09", "bike_id": "5a96e40b033bb99f401facb10eefab09", "lon": -77.03207366666666, "fusion_lat": 0.0, "rental_uris": {"android": "https://dc.lft.to/lastmile_qr_scan", "ios": "https://dc.lft.to/lastmile_qr_scan"}, "type": "electric_scooter"}, {"is_reserved": 0, "is_disabled": 0, "fusion_lon": 0.0, "lat": 38.899791666666665, "name": "7955c0278db05e83ace0cfa1af40eba6", "bike_id": "7955c0278db05e83ace0cfa1af40eba6", "lon": -77.03357616666666, "fusion_lat": 0.0, "rental_uris": {"android": "https://dc.lft.to/lastmile_qr_scan", "ios": "https://dc.lft.to/lastmile_qr_scan"}, "type": "electric_scooter"}, {"is_reserved": 0, "is_disabled": 0, "fusion_lon": 0.0, "lat": 38.911188833333334, "name": "dae8345d2aa36d0317f428bb5a19f61a", "bike_id": "dae8345d2aa36d0317f428bb5a19f61a", "lon": -77.04518633333333, "fusion_lat": 0.0, "rental_uris": {"android": "https://dc.lft.to/lastmile_qr_scan", "ios": "https://dc.lft.to/lastmile_qr_scan"}, "type": "electric_scooter"}, {"is_reserved": 0, "is_disabled": 0, "fusion_lon": 0.0, "lat": 38.9381915, "name": "efa192f038c64bdc65c7bd5f3f432c07", "bike_id": "efa192f038c64bdc65c7bd5f3f432c07", "lon": -77.05997666666667, "fusion_lat": 0.0, "rental_uris": {"android": "https://dc.lft.to/lastmile_qr_scan", "ios": "https://dc.lft.to/lastmile_qr_scan"}, "type": "electric_scooter"}, {"is_reserved": 0, "is_disabled": 0, "fusion_lon": 0.0, "lat": 38.892216, "name": "2e2de0be35b520dd62f2c409743db2ac", "bike_id": "2e2de0be35b520dd62f2c409743db2ac", "lon": -77.04367133333334, "fusion_lat": 0.0, "rental_uris": {"android": "https://dc.lft.to/lastmile_qr_scan", "ios": "https://dc.lft.to/lastmile_qr_scan"}, "type": "electric_scooter"}, {"is_reserved": 0, "is_disabled": 0, "fusion_lon": 0.0, "lat": 38.916318833333335, "name": "181006d9c732e3c8b228a2ca3ced2b31", "bike_id": "181006d9c732e3c8b228a2ca3ced2b31", "lon": -77.048136, "fusion_lat": 0.0, "rental_uris": {"android": "https://dc.lft.to/lastmile_qr_scan", "ios": "https://dc.lft.to/lastmile_qr_scan"}, "type": "electric_scooter"}, {"is_reserved": 0, "is_disabled": 0, "fusion_lon": 0.0, "lat": 38.9468105, "name": "99d50cc86becf62a4b6fd0b43feb3d6d", "bike_id": "99d50cc86becf62a4b6fd0b43feb3d6d", "lon": -76.99330733333333, "fusion_lat": 0.0, "rental_uris": {"android": "https://dc.lft.to/lastmile_qr_scan", "ios": "https://dc.lft.to/lastmile_qr_scan"}, "type": "electric_bike"}, {"is_reserved": 0, "is_disabled": 0, "fusion_lon": 0.0, "lat": 38.92063533333334, "name": "f5d55a5e3b16b7f63e5257a5143a55b6", "bike_id": "f5d55a5e3b16b7f63e5257a5143a55b6", "lon": -77.04192316666666, "fusion_lat": 0.0, "rental_uris": {"android": "https://dc.lft.to/lastmile_qr_scan", "ios": "https://dc.lft.to/lastmile_qr_scan"}, "type": "electric_scooter"}, {"is_reserved": 0, "is_disabled": 0, "fusion_lon": 0.0, "lat": 38.900612833333334, "name": "912b17f71847bad9860c1c6d61ee8398", "bike_id": "912b17f71847bad9860c1c6d61ee8398", "lon": -77.04343033333333, "fusion_lat": 0.0, "rental_uris": {"android": "https://dc.lft.to/lastmile_qr_scan", "ios": "https://dc.lft.to/lastmile_qr_scan"}, "type": "electric_scooter"}, {"is_reserved": 0, "is_disabled": 0, "fusion_lon": 0.0, "lat": 38.878927166666664, "name": "226dbec2eb33b4bcb5af6557478d3589", "bike_id": "226dbec2eb33b4bcb5af6557478d3589", "lon": -77.00582366666667, "fusion_lat": 0.0, "rental_uris": {"android": "https://dc.lft.to/lastmile_qr_scan", "ios": "https://dc.lft.to/lastmile_qr_scan"}, "type": "electric_scooter"}, {"is_reserved": 0, "is_disabled": 0, "fusion_lon": 0.0, "lat": 38.877014, "name": "c0260a5d2a8623290d943ae0c9d9272b", "bike_id": "c0260a5d2a8623290d943ae0c9d9272b", "lon": -77.0176475, "fusion_lat": 0.0, "rental_uris": {"android": "https://dc.lft.to/lastmile_qr_scan", "ios": "https://dc.lft.to/lastmile_qr_scan"}, "type": "electric_scooter"}, {"is_reserved": 0, "is_disabled": 0, "fusion_lon": 0.0, "lat": 38.88875983333333, "name": "e6984eb2ffd02ab8288470d4c8526afd", "bike_id": "e6984eb2ffd02ab8288470d4c8526afd", "lon": -76.98674133333333, "fusion_lat": 0.0, "rental_uris": {"android": "https://dc.lft.to/lastmile_qr_scan", "ios": "https://dc.lft.to/lastmile_qr_scan"}, "type": "electric_scooter"}, {"is_reserved": 0, "is_disabled": 0, "fusion_lon": 0.0, "lat": 38.881333833333336, "name": "15acfb9c629a92c2b565a74c2282a82c", "bike_id": "15acfb9c629a92c2b565a74c2282a82c", "lon": -77.02275466666667, "fusion_lat": 0.0, "rental_uris": {"android": "https://dc.lft.to/lastmile_qr_scan", "ios": "https://dc.lft.to/lastmile_qr_scan"}, "type": "electric_scooter"}, {"is_reserved": 0, "is_disabled": 0, "fusion_lon": 0.0, "lat": 38.93305383333333, "name": "1e0d3d3e5b375a797f3e4cfde61ccfb3", "bike_id": "1e0d3d3e5b375a797f3e4cfde61ccfb3", "lon": -77.03080916666667, "fusion_lat": 0.0, "rental_uris": {"android": "https://dc.lft.to/lastmile_qr_scan", "ios": "https://dc.lft.to/lastmile_qr_scan"}, "type": "electric_scooter"}, {"is_reserved": 0, "is_disabled": 0, "fusion_lon": 0.0, "lat": 38.91664316666667, "name": "01bc328c5c717fa68d1db6bc6d19274f", "bike_id": "01bc328c5c717fa68d1db6bc6d19274f", "lon": -77.03860116666667, "fusion_lat": 0.0, "rental_uris": {"android": "https://dc.lft.to/lastmile_qr_scan", "ios": "https://dc.lft.to/lastmile_qr_scan"}, "type": "electric_scooter"}, {"is_reserved": 0, "is_disabled": 0, "fusion_lon": 0.0, "lat": 38.90272983333333, "name": "322ef79f92b786e95dde94be7699dba6", "bike_id": "322ef79f92b786e95dde94be7699dba6", "lon": -77.0602515, "fusion_lat": 0.0, "rental_uris": {"android": "https://dc.lft.to/lastmile_qr_scan", "ios": "https://dc.lft.to/lastmile_qr_scan"}, "type": "electric_scooter"}, {"is_reserved": 0, "is_disabled": 0, "fusion_lon": 0.0, "lat": 38.9072445, "name": "3aea5d6361a3d1cbc2db97cd4123a043", "bike_id": "3aea5d6361a3d1cbc2db97cd4123a043", "lon": -77.03224733333333, "fusion_lat": 0.0, "rental_uris": {"android": "https://dc.lft.to/lastmile_qr_scan", "ios": "https://dc.lft.to/lastmile_qr_scan"}, "type": "electric_scooter"}, {"is_reserved": 0, "is_disabled": 0, "fusion_lon": 0.0, "lat": 38.9246915, "name": "a7feaf0290da5ad42af087c14941520d", "bike_id": "a7feaf0290da5ad42af087c14941520d", "lon": -77.0271725, "fusion_lat": 0.0, "rental_uris": {"android": "https://dc.lft.to/lastmile_qr_scan", "ios": "https://dc.lft.to/lastmile_qr_scan"}, "type": "electric_scooter"}, {"is_reserved": 0, "is_disabled": 0, "fusion_lon": 0.0, "lat": 38.90233833333333, "name": "0894b323aa55b2b425db0d4a609e9e7b", "bike_id": "0894b323aa55b2b425db0d4a609e9e7b", "lon": -77.017558, "fusion_lat": 0.0, "rental_uris": {"android": "https://dc.lft.to/lastmile_qr_scan", "ios": "https://dc.lft.to/lastmile_qr_scan"}, "type": "electric_scooter"}, {"is_reserved": 0, "is_disabled": 0, "fusion_lon": 0.0, "lat": 38.9359315, "name": "8f2117918227268718ec0f0a4c2ff19a", "bike_id": "8f2117918227268718ec0f0a4c2ff19a", "lon": -77.05848233333333, "fusion_lat": 0.0, "rental_uris": {"android": "https://dc.lft.to/lastmile_qr_scan", "ios": "https://dc.lft.to/lastmile_qr_scan"}, "type": "electric_scooter"}, {"is_reserved": 0, "is_disabled": 0, "fusion_lon": 0.0, "lat": 38.89852666666667, "name": "9ab15f041cb2c1049c569c6f624beada", "bike_id": "9ab15f041cb2c1049c569c6f624beada", "lon": -76.93187916666666, "fusion_lat": 0.0, "rental_uris": {"android": "https://dc.lft.to/lastmile_qr_scan", "ios": "https://dc.lft.to/lastmile_qr_scan"}, "type": "electric_bike"}, {"is_reserved": 0, "is_disabled": 0, "fusion_lon": 0.0, "lat": 38.887901666666664, "name": "a25b87fb50ded442d02a6d3734dd16c8", "bike_id": "a25b87fb50ded442d02a6d3734dd16c8", "lon": -77.015988, "fusion_lat": 0.0, "rental_uris": {"android": "https://dc.lft.to/lastmile_qr_scan", "ios": "https://dc.lft.to/lastmile_qr_scan"}, "type": "electric_scooter"}, {"is_reserved": 0, "is_disabled": 0, "fusion_lon": 0.0, "lat": 38.95359233333333, "name": "b1125ae4b90c31804ab163157686dc30", "bike_id": "b1125ae4b90c31804ab163157686dc30", "lon": -76.98092733333333, "fusion_lat": 0.0, "rental_uris": {"android": "https://dc.lft.to/lastmile_qr_scan", "ios": "https://dc.lft.to/lastmile_qr_scan"}, "type": "electric_bike"}, {"is_reserved": 0, "is_disabled": 0, "fusion_lon": 0.0, "lat": 38.92308083333333, "name": "0c33d0b8fb54f0b40fcd55cb58961c4b", "bike_id": "0c33d0b8fb54f0b40fcd55cb58961c4b", "lon": -77.03108183333333, "fusion_lat": 0.0, "rental_uris": {"android": "https://dc.lft.to/lastmile_qr_scan", "ios": "https://dc.lft.to/lastmile_qr_scan"}, "type": "electric_scooter"}, {"is_reserved": 0, "is_disabled": 0, "fusion_lon": 0.0, "lat": 38.91625966666667, "name": "85d3f6a57ceab24301961cac5a892d36", "bike_id": "85d3f6a57ceab24301961cac5a892d36", "lon": -77.05080216666667, "fusion_lat": 0.0, "rental_uris": {"android": "https://dc.lft.to/lastmile_qr_scan", "ios": "https://dc.lft.to/lastmile_qr_scan"}, "type": "electric_scooter"}, {"is_reserved": 0, "is_disabled": 0, "fusion_lon": 0.0, "lat": 38.919946, "name": "2fd5ecef8070e367e8d57cf47f1bc245", "bike_id": "2fd5ecef8070e367e8d57cf47f1bc245", "lon": -77.02359633333333, "fusion_lat": 0.0, "rental_uris": {"android": "https://dc.lft.to/lastmile_qr_scan", "ios": "https://dc.lft.to/lastmile_qr_scan"}, "type": "electric_scooter"}, {"is_reserved": 0, "is_disabled": 0, "fusion_lon": 0.0, "lat": 38.93528466666667, "name": "116d09495acefa34d1394ad88b2d85cd", "bike_id": "116d09495acefa34d1394ad88b2d85cd", "lon": -77.03492933333334, "fusion_lat": 0.0, "rental_uris": {"android": "https://dc.lft.to/lastmile_qr_scan", "ios": "https://dc.lft.to/lastmile_qr_scan"}, "type": "electric_scooter"}, {"is_reserved": 0, "is_disabled": 0, "fusion_lon": 0.0, "lat": 38.897018833333334, "name": "e3346f5fc2e14290ceeceb101e763e9c", "bike_id": "e3346f5fc2e14290ceeceb101e763e9c", "lon": -77.00589883333333, "fusion_lat": 0.0, "rental_uris": {"android": "https://dc.lft.to/lastmile_qr_scan", "ios": "https://dc.lft.to/lastmile_qr_scan"}, "type": "electric_scooter"}, {"is_reserved": 0, "is_disabled": 0, "fusion_lon": 0.0, "lat": 38.8769425, "name": "d94fbbbe7922c653598c3cb87eb789b3", "bike_id": "d94fbbbe7922c653598c3cb87eb789b3", "lon": -77.00362383333334, "fusion_lat": 0.0, "rental_uris": {"android": "https://dc.lft.to/lastmile_qr_scan", "ios": "https://dc.lft.to/lastmile_qr_scan"}, "type": "electric_scooter"}, {"is_reserved": 0, "is_disabled": 0, "fusion_lon": 0.0, "lat": 38.92777483333333, "name": "ff1f1adcf53de060ce2f5b06ee00031d", "bike_id": "ff1f1adcf53de060ce2f5b06ee00031d", "lon": -77.0370295, "fusion_lat": 0.0, "rental_uris": {"android": "https://dc.lft.to/lastmile_qr_scan", "ios": "https://dc.lft.to/lastmile_qr_scan"}, "type": "electric_scooter"}, {"is_reserved": 0, "is_disabled": 0, "fusion_lon": 0.0, "lat": 38.91398933333333, "name": "2ad6c82d23a4d00a09c92c0200d0fe7d", "bike_id": "2ad6c82d23a4d00a09c92c0200d0fe7d", "lon": -77.0488835, "fusion_lat": 0.0, "rental_uris": {"android": "https://dc.lft.to/lastmile_qr_scan", "ios": "https://dc.lft.to/lastmile_qr_scan"}, "type": "electric_scooter"}, {"is_reserved": 0, "is_disabled": 0, "fusion_lon": 0.0, "lat": 38.94292566666667, "name": "da6aa7a618c7eec4d4e6687df40acdde", "bike_id": "da6aa7a618c7eec4d4e6687df40acdde", "lon": -77.026379, "fusion_lat": 0.0, "rental_uris": {"android": "https://dc.lft.to/lastmile_qr_scan", "ios": "https://dc.lft.to/lastmile_qr_scan"}, "type": "electric_scooter"}, {"is_reserved": 0, "is_disabled": 0, "fusion_lon": 0.0, "lat": 38.9312145, "name": "22bd8ae2fe80e7eb5fa05c0302fe929d", "bike_id": "22bd8ae2fe80e7eb5fa05c0302fe929d", "lon": -77.02071116666667, "fusion_lat": 0.0, "rental_uris": {"android": "https://dc.lft.to/lastmile_qr_scan", "ios": "https://dc.lft.to/lastmile_qr_scan"}, "type": "electric_scooter"}, {"is_reserved": 0, "is_disabled": 0, "fusion_lon": 0.0, "lat": 38.920008333333335, "name": "67b74158a0b08c8679d75bdc58c5374a", "bike_id": "67b74158a0b08c8679d75bdc58c5374a", "lon": -76.9850535, "fusion_lat": 0.0, "rental_uris": {"android": "https://dc.lft.to/lastmile_qr_scan", "ios": "https://dc.lft.to/lastmile_qr_scan"}, "type": "electric_scooter"}, {"is_reserved": 0, "is_disabled": 0, "fusion_lon": 0.0, "lat": 38.91570733333333, "name": "1898240c0bb32d20a32c571d72cb4d5a", "bike_id": "1898240c0bb32d20a32c571d72cb4d5a", "lon": -77.02009316666667, "fusion_lat": 0.0, "rental_uris": {"android": "https://dc.lft.to/lastmile_qr_scan", "ios": "https://dc.lft.to/lastmile_qr_scan"}, "type": "electric_scooter"}, {"is_reserved": 0, "is_disabled": 0, "fusion_lon": 0.0, "lat": 38.92412, "name": "a25903918106ad164bea6e5b4cb5be60", "bike_id": "a25903918106ad164bea6e5b4cb5be60", "lon": -77.02129166666667, "fusion_lat": 0.0, "rental_uris": {"android": "https://dc.lft.to/lastmile_qr_scan", "ios": "https://dc.lft.to/lastmile_qr_scan"}, "type": "electric_scooter"}, {"is_reserved": 0, "is_disabled": 0, "fusion_lon": 0.0, "lat": 38.90271, "name": "f88860fba6aaf28dcf015fb7f8c83ab3", "bike_id": "f88860fba6aaf28dcf015fb7f8c83ab3", "lon": -77.00328933333333, "fusion_lat": 0.0, "rental_uris": {"android": "https://dc.lft.to/lastmile_qr_scan", "ios": "https://dc.lft.to/lastmile_qr_scan"}, "type": "electric_scooter"}, {"is_reserved": 0, "is_disabled": 0, "fusion_lon": 0.0, "lat": 38.88059966666667, "name": "06e4391f1d4762d2e5203ecdb1272101", "bike_id": "06e4391f1d4762d2e5203ecdb1272101", "lon": -77.011743, "fusion_lat": 0.0, "rental_uris": {"android": "https://dc.lft.to/lastmile_qr_scan", "ios": "https://dc.lft.to/lastmile_qr_scan"}, "type": "electric_scooter"}, {"is_reserved": 0, "is_disabled": 0, "fusion_lon": 0.0, "lat": 38.883672, "name": "a3beb28609a8d7aace76c217bcfe9cac", "bike_id": "a3beb28609a8d7aace76c217bcfe9cac", "lon": -77.01996516666667, "fusion_lat": 0.0, "rental_uris": {"android": "https://dc.lft.to/lastmile_qr_scan", "ios": "https://dc.lft.to/lastmile_qr_scan"}, "type": "electric_scooter"}, {"is_reserved": 0, "is_disabled": 0, "fusion_lon": 0.0, "lat": 38.906056166666666, "name": "19d26cda6ac234a3591e4de8d0be3af3", "bike_id": "19d26cda6ac234a3591e4de8d0be3af3", "lon": -77.12898566666667, "fusion_lat": 0.0, "rental_uris": {"android": "https://dc.lft.to/lastmile_qr_scan", "ios": "https://dc.lft.to/lastmile_qr_scan"}, "type": "electric_bike"}, {"is_reserved": 0, "is_disabled": 0, "fusion_lon": 0.0, "lat": 38.917448, "name": "ea6c94ae2df91c3f147d80b54e7c1489", "bike_id": "ea6c94ae2df91c3f147d80b54e7c1489", "lon": -77.01712933333333, "fusion_lat": 0.0, "rental_uris": {"android": "https://dc.lft.to/lastmile_qr_scan", "ios": "https://dc.lft.to/lastmile_qr_scan"}, "type": "electric_scooter"}, {"is_reserved": 0, "is_disabled": 0, "fusion_lon": 0.0, "lat": 38.91885716666667, "name": "eca661cf886547cc8476723b60da3e28", "bike_id": "eca661cf886547cc8476723b60da3e28", "lon": -77.0426645, "fusion_lat": 0.0, "rental_uris": {"android": "https://dc.lft.to/lastmile_qr_scan", "ios": "https://dc.lft.to/lastmile_qr_scan"}, "type": "electric_scooter"}, {"is_reserved": 0, "is_disabled": 0, "fusion_lon": 0.0, "lat": 38.90494183333333, "name": "0bd2b71eb4959d2db04774b66d1b403e", "bike_id": "0bd2b71eb4959d2db04774b66d1b403e", "lon": -77.02734716666667, "fusion_lat": 0.0, "rental_uris": {"android": "https://dc.lft.to/lastmile_qr_scan", "ios": "https://dc.lft.to/lastmile_qr_scan"}, "type": "electric_scooter"}, {"is_reserved": 0, "is_disabled": 0, "fusion_lon": 0.0, "lat": 38.9225605, "name": "50570b65965fbb375986bda8b9a7ffcf", "bike_id": "50570b65965fbb375986bda8b9a7ffcf", "lon": -77.03066833333334, "fusion_lat": 0.0, "rental_uris": {"android": "https://dc.lft.to/lastmile_qr_scan", "ios": "https://dc.lft.to/lastmile_qr_scan"}, "type": "electric_scooter"}, {"is_reserved": 0, "is_disabled": 0, "fusion_lon": 0.0, "lat": 38.899871833333336, "name": "05026a767bfb4f122c078a52a6e2157d", "bike_id": "05026a767bfb4f122c078a52a6e2157d", "lon": -77.03351766666667, "fusion_lat": 0.0, "rental_uris": {"android": "https://dc.lft.to/lastmile_qr_scan", "ios": "https://dc.lft.to/lastmile_qr_scan"}, "type": "electric_bike"}, {"is_reserved": 0, "is_disabled": 0, "fusion_lon": 0.0, "lat": 38.89610233333333, "name": "1af2f99449d6488c66fed7e3b57f2f20", "bike_id": "1af2f99449d6488c66fed7e3b57f2f20", "lon": -77.04517766666666, "fusion_lat": 0.0, "rental_uris": {"android": "https://dc.lft.to/lastmile_qr_scan", "ios": "https://dc.lft.to/lastmile_qr_scan"}, "type": "electric_scooter"}, {"is_reserved": 0, "is_disabled": 0, "fusion_lon": 0.0, "lat": 38.900361333333336, "name": "ab13d5e7c8db46ae886ac9962afd0b85", "bike_id": "ab13d5e7c8db46ae886ac9962afd0b85", "lon": -77.0021455, "fusion_lat": 0.0, "rental_uris": {"android": "https://dc.lft.to/lastmile_qr_scan", "ios": "https://dc.lft.to/lastmile_qr_scan"}, "type": "electric_scooter"}, {"is_reserved": 0, "is_disabled": 0, "fusion_lon": 0.0, "lat": 38.9041215, "name": "3e7ed163677f32493cdd2edef0baf365", "bike_id": "3e7ed163677f32493cdd2edef0baf365", "lon": -77.0187165, "fusion_lat": 0.0, "rental_uris": {"android": "https://dc.lft.to/lastmile_qr_scan", "ios": "https://dc.lft.to/lastmile_qr_scan"}, "type": "electric_scooter"}, {"is_reserved": 0, "is_disabled": 0, "fusion_lon": 0.0, "lat": 38.9112005, "name": "d829f13de5a905bd17442d3db2773942", "bike_id": "d829f13de5a905bd17442d3db2773942", "lon": -77.03625633333333, "fusion_lat": 0.0, "rental_uris": {"android": "https://dc.lft.to/lastmile_qr_scan", "ios": "https://dc.lft.to/lastmile_qr_scan"}, "type": "electric_scooter"}, {"is_reserved": 0, "is_disabled": 0, "fusion_lon": 0.0, "lat": 38.9128275, "name": "6b67997cdb1df3f532bdc4057ee99143", "bike_id": "6b67997cdb1df3f532bdc4057ee99143", "lon": -77.023036, "fusion_lat": 0.0, "rental_uris": {"android": "https://dc.lft.to/lastmile_qr_scan", "ios": "https://dc.lft.to/lastmile_qr_scan"}, "type": "electric_scooter"}, {"is_reserved": 0, "is_disabled": 0, "fusion_lon": 0.0, "lat": 38.9132355, "name": "1cab1ee24adabf54002324c80c271db8", "bike_id": "1cab1ee24adabf54002324c80c271db8", "lon": -77.0318195, "fusion_lat": 0.0, "rental_uris": {"android": "https://dc.lft.to/lastmile_qr_scan", "ios": "https://dc.lft.to/lastmile_qr_scan"}, "type": "electric_scooter"}, {"is_reserved": 0, "is_disabled": 0, "fusion_lon": 0.0, "lat": 38.922408833333336, "name": "9f12209214cc50a9571f0681bd642fb4", "bike_id": "9f12209214cc50a9571f0681bd642fb4", "lon": -77.03461533333333, "fusion_lat": 0.0, "rental_uris": {"android": "https://dc.lft.to/lastmile_qr_scan", "ios": "https://dc.lft.to/lastmile_qr_scan"}, "type": "electric_scooter"}, {"is_reserved": 0, "is_disabled": 0, "fusion_lon": 0.0, "lat": 38.913652166666665, "name": "3c12faae29583ae32349f1264e606e41", "bike_id": "3c12faae29583ae32349f1264e606e41", "lon": -77.04554566666667, "fusion_lat": 0.0, "rental_uris": {"android": "https://dc.lft.to/lastmile_qr_scan", "ios": "https://dc.lft.to/lastmile_qr_scan"}, "type": "electric_scooter"}, {"is_reserved": 0, "is_disabled": 0, "fusion_lon": 0.0, "lat": 38.937198, "name": "29fe2c24fbf572a20b76f7cb06a2c34a", "bike_id": "29fe2c24fbf572a20b76f7cb06a2c34a", "lon": -77.03291433333334, "fusion_lat": 0.0, "rental_uris": {"android": "https://dc.lft.to/lastmile_qr_scan", "ios": "https://dc.lft.to/lastmile_qr_scan"}, "type": "electric_scooter"}, {"is_reserved": 0, "is_disabled": 0, "fusion_lon": 0.0, "lat": 38.93532733333333, "name": "17052e3db4a8f11eea6417fa9b9b1d2b", "bike_id": "17052e3db4a8f11eea6417fa9b9b1d2b", "lon": -77.07318966666666, "fusion_lat": 0.0, "rental_uris": {"android": "https://dc.lft.to/lastmile_qr_scan", "ios": "https://dc.lft.to/lastmile_qr_scan"}, "type": "electric_scooter"}, {"is_reserved": 0, "is_disabled": 0, "fusion_lon": 0.0, "lat": 38.909236, "name": "d40603a1e2d85130554b092766f266cc", "bike_id": "d40603a1e2d85130554b092766f266cc", "lon": -77.07282533333333, "fusion_lat": 0.0, "rental_uris": {"android": "https://dc.lft.to/lastmile_qr_scan", "ios": "https://dc.lft.to/lastmile_qr_scan"}, "type": "electric_scooter"}, {"is_reserved": 0, "is_disabled": 0, "fusion_lon": 0.0, "lat": 38.902226166666665, "name": "29d6135951af2fa55213240649084d76", "bike_id": "29d6135951af2fa55213240649084d76", "lon": -77.0480645, "fusion_lat": 0.0, "rental_uris": {"android": "https://dc.lft.to/lastmile_qr_scan", "ios": "https://dc.lft.to/lastmile_qr_scan"}, "type": "electric_scooter"}, {"is_reserved": 0, "is_disabled": 0, "fusion_lon": 0.0, "lat": 38.89986433333333, "name": "b63c9630f1a853dffbee27a315bf0259", "bike_id": "b63c9630f1a853dffbee27a315bf0259", "lon": -77.04198516666666, "fusion_lat": 0.0, "rental_uris": {"android": "https://dc.lft.to/lastmile_qr_scan", "ios": "https://dc.lft.to/lastmile_qr_scan"}, "type": "electric_scooter"}, {"is_reserved": 0, "is_disabled": 0, "fusion_lon": 0.0, "lat": 38.9413365, "name": "c80354c92b45fd24aa743422a52f3a04", "bike_id": "c80354c92b45fd24aa743422a52f3a04", "lon": -77.023284, "fusion_lat": 0.0, "rental_uris": {"android": "https://dc.lft.to/lastmile_qr_scan", "ios": "https://dc.lft.to/lastmile_qr_scan"}, "type": "electric_scooter"}, {"is_reserved": 0, "is_disabled": 0, "fusion_lon": 0.0, "lat": 38.92466, "name": "45a0df4d0e2537a0584ce81000b26b52", "bike_id": "45a0df4d0e2537a0584ce81000b26b52", "lon": -77.03939533333333, "fusion_lat": 0.0, "rental_uris": {"android": "https://dc.lft.to/lastmile_qr_scan", "ios": "https://dc.lft.to/lastmile_qr_scan"}, "type": "electric_scooter"}, {"is_reserved": 0, "is_disabled": 0, "fusion_lon": 0.0, "lat": 38.867167, "name": "36e43721033716f8bc59faa805765ff2", "bike_id": "36e43721033716f8bc59faa805765ff2", "lon": -77.01012116666666, "fusion_lat": 0.0, "rental_uris": {"android": "https://dc.lft.to/lastmile_qr_scan", "ios": "https://dc.lft.to/lastmile_qr_scan"}, "type": "electric_scooter"}, {"is_reserved": 0, "is_disabled": 0, "fusion_lon": 0.0, "lat": 38.90173583333333, "name": "5346bf074198f929e18c798489a823d3", "bike_id": "5346bf074198f929e18c798489a823d3", "lon": -77.02204166666667, "fusion_lat": 0.0, "rental_uris": {"android": "https://dc.lft.to/lastmile_qr_scan", "ios": "https://dc.lft.to/lastmile_qr_scan"}, "type": "electric_scooter"}, {"is_reserved": 0, "is_disabled": 0, "fusion_lon": 0.0, "lat": 38.927096666666664, "name": "d6d238b5cbff31414632ec0aa7dfdec7", "bike_id": "d6d238b5cbff31414632ec0aa7dfdec7", "lon": -77.02332083333333, "fusion_lat": 0.0, "rental_uris": {"android": "https://dc.lft.to/lastmile_qr_scan", "ios": "https://dc.lft.to/lastmile_qr_scan"}, "type": "electric_scooter"}, {"is_reserved": 0, "is_disabled": 0, "fusion_lon": 0.0, "lat": 38.928820333333334, "name": "f753e60b10d1d21a9b6b977bba176dc1", "bike_id": "f753e60b10d1d21a9b6b977bba176dc1", "lon": -77.0327475, "fusion_lat": 0.0, "rental_uris": {"android": "https://dc.lft.to/lastmile_qr_scan", "ios": "https://dc.lft.to/lastmile_qr_scan"}, "type": "electric_scooter"}, {"is_reserved": 0, "is_disabled": 0, "fusion_lon": 0.0, "lat": 38.91559933333333, "name": "6a0c7b93d06807fb79ca23d39c53a0c5", "bike_id": "6a0c7b93d06807fb79ca23d39c53a0c5", "lon": -77.00700783333333, "fusion_lat": 0.0, "rental_uris": {"android": "https://dc.lft.to/lastmile_qr_scan", "ios": "https://dc.lft.to/lastmile_qr_scan"}, "type": "electric_scooter"}, {"is_reserved": 0, "is_disabled": 0, "fusion_lon": 0.0, "lat": 38.900509166666666, "name": "5b586ecd2afc9439d7a3884c6ad2100b", "bike_id": "5b586ecd2afc9439d7a3884c6ad2100b", "lon": -77.017633, "fusion_lat": 0.0, "rental_uris": {"android": "https://dc.lft.to/lastmile_qr_scan", "ios": "https://dc.lft.to/lastmile_qr_scan"}, "type": "electric_scooter"}, {"is_reserved": 0, "is_disabled": 0, "fusion_lon": 0.0, "lat": 39.00714266666667, "name": "d0b3211861eab17478ea6153f9dd9da8", "bike_id": "d0b3211861eab17478ea6153f9dd9da8", "lon": -76.98144383333333, "fusion_lat": 0.0, "rental_uris": {"android": "https://dc.lft.to/lastmile_qr_scan", "ios": "https://dc.lft.to/lastmile_qr_scan"}, "type": "electric_bike"}, {"is_reserved": 0, "is_disabled": 0, "fusion_lon": 0.0, "lat": 38.8997445, "name": "6ec3af8876d93a643b604f2282558973", "bike_id": "6ec3af8876d93a643b604f2282558973", "lon": -77.0317435, "fusion_lat": 0.0, "rental_uris": {"android": "https://dc.lft.to/lastmile_qr_scan", "ios": "https://dc.lft.to/lastmile_qr_scan"}, "type": "electric_scooter"}, {"is_reserved": 0, "is_disabled": 0, "fusion_lon": 0.0, "lat": 38.92288883333333, "name": "4905bda2405f107ee8b4524496ccba97", "bike_id": "4905bda2405f107ee8b4524496ccba97", "lon": -77.01951133333333, "fusion_lat": 0.0, "rental_uris": {"android": "https://dc.lft.to/lastmile_qr_scan", "ios": "https://dc.lft.to/lastmile_qr_scan"}, "type": "electric_scooter"}, {"is_reserved": 0, "is_disabled": 0, "fusion_lon": 0.0, "lat": 38.8491615, "name": "59eabac09cee819c742acd29d7d015ed", "bike_id": "59eabac09cee819c742acd29d7d015ed", "lon": -77.07814666666667, "fusion_lat": 0.0, "rental_uris": {"android": "https://dc.lft.to/lastmile_qr_scan", "ios": "https://dc.lft.to/lastmile_qr_scan"}, "type": "electric_bike"}, {"is_reserved": 0, "is_disabled": 0, "fusion_lon": 0.0, "lat": 38.91892933333333, "name": "cf4c0709fac460dfb2ca14a5fad6e0f3", "bike_id": "cf4c0709fac460dfb2ca14a5fad6e0f3", "lon": -77.04464166666666, "fusion_lat": 0.0, "rental_uris": {"android": "https://dc.lft.to/lastmile_qr_scan", "ios": "https://dc.lft.to/lastmile_qr_scan"}, "type": "electric_scooter"}, {"is_reserved": 0, "is_disabled": 0, "fusion_lon": 0.0, "lat": 38.903246833333334, "name": "27274f533529e8544c1efeb013321a43", "bike_id": "27274f533529e8544c1efeb013321a43", "lon": -77.04685666666667, "fusion_lat": 0.0, "rental_uris": {"android": "https://dc.lft.to/lastmile_qr_scan", "ios": "https://dc.lft.to/lastmile_qr_scan"}, "type": "electric_scooter"}, {"is_reserved": 0, "is_disabled": 0, "fusion_lon": 0.0, "lat": 38.934088833333334, "name": "f92262abae9429ff7224a98bcdc6b525", "bike_id": "f92262abae9429ff7224a98bcdc6b525", "lon": -77.03280666666667, "fusion_lat": 0.0, "rental_uris": {"android": "https://dc.lft.to/lastmile_qr_scan", "ios": "https://dc.lft.to/lastmile_qr_scan"}, "type": "electric_scooter"}, {"is_reserved": 0, "is_disabled": 0, "fusion_lon": 0.0, "lat": 38.9125675, "name": "a9518d139eb10e383be00b59cd604961", "bike_id": "a9518d139eb10e383be00b59cd604961", "lon": -77.02446333333333, "fusion_lat": 0.0, "rental_uris": {"android": "https://dc.lft.to/lastmile_qr_scan", "ios": "https://dc.lft.to/lastmile_qr_scan"}, "type": "electric_scooter"}, {"is_reserved": 0, "is_disabled": 0, "fusion_lon": 0.0, "lat": 38.91260183333333, "name": "b6d7e3d6ade6ba7a555585febe1193a6", "bike_id": "b6d7e3d6ade6ba7a555585febe1193a6", "lon": -77.03181266666667, "fusion_lat": 0.0, "rental_uris": {"android": "https://dc.lft.to/lastmile_qr_scan", "ios": "https://dc.lft.to/lastmile_qr_scan"}, "type": "electric_scooter"}, {"is_reserved": 0, "is_disabled": 0, "fusion_lon": 0.0, "lat": 38.91687066666667, "name": "601ccde464510acad7d0effe7c63637e", "bike_id": "601ccde464510acad7d0effe7c63637e", "lon": -77.02957133333334, "fusion_lat": 0.0, "rental_uris": {"android": "https://dc.lft.to/lastmile_qr_scan", "ios": "https://dc.lft.to/lastmile_qr_scan"}, "type": "electric_scooter"}, {"is_reserved": 0, "is_disabled": 0, "fusion_lon": 0.0, "lat": 38.92816283333333, "name": "a417f2a243f3d68f280b51ec91268fd6", "bike_id": "a417f2a243f3d68f280b51ec91268fd6", "lon": -77.02237766666667, "fusion_lat": 0.0, "rental_uris": {"android": "https://dc.lft.to/lastmile_qr_scan", "ios": "https://dc.lft.to/lastmile_qr_scan"}, "type": "electric_scooter"}, {"is_reserved": 0, "is_disabled": 0, "fusion_lon": 0.0, "lat": 38.8719835, "name": "17e31db7aa899e8cb983a66b8f5a11d7", "bike_id": "17e31db7aa899e8cb983a66b8f5a11d7", "lon": -77.005777, "fusion_lat": 0.0, "rental_uris": {"android": "https://dc.lft.to/lastmile_qr_scan", "ios": "https://dc.lft.to/lastmile_qr_scan"}, "type": "electric_scooter"}, {"is_reserved": 0, "is_disabled": 0, "fusion_lon": 0.0, "lat": 38.90474833333333, "name": "2628cc1ff90adc9c481c6e88a2b36235", "bike_id": "2628cc1ff90adc9c481c6e88a2b36235", "lon": -77.02721966666667, "fusion_lat": 0.0, "rental_uris": {"android": "https://dc.lft.to/lastmile_qr_scan", "ios": "https://dc.lft.to/lastmile_qr_scan"}, "type": "electric_scooter"}, {"is_reserved": 0, "is_disabled": 0, "fusion_lon": 0.0, "lat": 38.9136625, "name": "2c390b0f25086850594900cdd7302036", "bike_id": "2c390b0f25086850594900cdd7302036", "lon": -77.091923, "fusion_lat": 0.0, "rental_uris": {"android": "https://dc.lft.to/lastmile_qr_scan", "ios": "https://dc.lft.to/lastmile_qr_scan"}, "type": "electric_scooter"}, {"is_reserved": 0, "is_disabled": 0, "fusion_lon": 0.0, "lat": 38.922493, "name": "23c9a7c219ae500b6bd947857217d409", "bike_id": "23c9a7c219ae500b6bd947857217d409", "lon": -77.04256933333333, "fusion_lat": 0.0, "rental_uris": {"android": "https://dc.lft.to/lastmile_qr_scan", "ios": "https://dc.lft.to/lastmile_qr_scan"}, "type": "electric_scooter"}, {"is_reserved": 0, "is_disabled": 0, "fusion_lon": 0.0, "lat": 38.89987933333333, "name": "8ac2f24b9165f4004022abfd17e202c3", "bike_id": "8ac2f24b9165f4004022abfd17e202c3", "lon": -77.04198433333333, "fusion_lat": 0.0, "rental_uris": {"android": "https://dc.lft.to/lastmile_qr_scan", "ios": "https://dc.lft.to/lastmile_qr_scan"}, "type": "electric_scooter"}, {"is_reserved": 0, "is_disabled": 0, "fusion_lon": 0.0, "lat": 38.93011, "name": "77155f58f89197c9723159cae8f6b8b3", "bike_id": "77155f58f89197c9723159cae8f6b8b3", "lon": -77.01454066666666, "fusion_lat": 0.0, "rental_uris": {"android": "https://dc.lft.to/lastmile_qr_scan", "ios": "https://dc.lft.to/lastmile_qr_scan"}, "type": "electric_scooter"}, {"is_reserved": 0, "is_disabled": 0, "fusion_lon": 0.0, "lat": 38.926021166666665, "name": "ec5acc5f5082837e8c0b0de74b9f4e9e", "bike_id": "ec5acc5f5082837e8c0b0de74b9f4e9e", "lon": -77.0215495, "fusion_lat": 0.0, "rental_uris": {"android": "https://dc.lft.to/lastmile_qr_scan", "ios": "https://dc.lft.to/lastmile_qr_scan"}, "type": "electric_scooter"}, {"is_reserved": 0, "is_disabled": 0, "fusion_lon": 0.0, "lat": 38.9168945, "name": "d3f65c2c9b0578e20521de252088f3a6", "bike_id": "d3f65c2c9b0578e20521de252088f3a6", "lon": -77.03803, "fusion_lat": 0.0, "rental_uris": {"android": "https://dc.lft.to/lastmile_qr_scan", "ios": "https://dc.lft.to/lastmile_qr_scan"}, "type": "electric_scooter"}, {"is_reserved": 0, "is_disabled": 0, "fusion_lon": 0.0, "lat": 38.922502, "name": "e38c227d0ab91574d0f5a444504bf13d", "bike_id": "e38c227d0ab91574d0f5a444504bf13d", "lon": -77.0306405, "fusion_lat": 0.0, "rental_uris": {"android": "https://dc.lft.to/lastmile_qr_scan", "ios": "https://dc.lft.to/lastmile_qr_scan"}, "type": "electric_scooter"}, {"is_reserved": 0, "is_disabled": 0, "fusion_lon": 0.0, "lat": 38.831636333333336, "name": "82faed5b09523486e29c5a99abb29fb1", "bike_id": "82faed5b09523486e29c5a99abb29fb1", "lon": -76.99574683333333, "fusion_lat": 0.0, "rental_uris": {"android": "https://dc.lft.to/lastmile_qr_scan", "ios": "https://dc.lft.to/lastmile_qr_scan"}, "type": "electric_bike"}, {"is_reserved": 0, "is_disabled": 0, "fusion_lon": 0.0, "lat": 38.923661333333335, "name": "d57cacd7ef10bab1fd4b4df68e6bf610", "bike_id": "d57cacd7ef10bab1fd4b4df68e6bf610", "lon": -77.01954783333333, "fusion_lat": 0.0, "rental_uris": {"android": "https://dc.lft.to/lastmile_qr_scan", "ios": "https://dc.lft.to/lastmile_qr_scan"}, "type": "electric_scooter"}, {"is_reserved": 0, "is_disabled": 0, "fusion_lon": 0.0, "lat": 38.9011085, "name": "63ad06ee9e840a409c89663f5946a5f5", "bike_id": "63ad06ee9e840a409c89663f5946a5f5", "lon": -77.02183366666667, "fusion_lat": 0.0, "rental_uris": {"android": "https://dc.lft.to/lastmile_qr_scan", "ios": "https://dc.lft.to/lastmile_qr_scan"}, "type": "electric_scooter"}, {"is_reserved": 0, "is_disabled": 0, "fusion_lon": 0.0, "lat": 38.894943166666664, "name": "5752bf6169fa0549a8ab8052c3bd7e91", "bike_id": "5752bf6169fa0549a8ab8052c3bd7e91", "lon": -76.948945, "fusion_lat": 0.0, "rental_uris": {"android": "https://dc.lft.to/lastmile_qr_scan", "ios": "https://dc.lft.to/lastmile_qr_scan"}, "type": "electric_scooter"}, {"is_reserved": 0, "is_disabled": 0, "fusion_lon": 0.0, "lat": 38.93464866666667, "name": "3e61242225e43ba8e555d776db68f0da", "bike_id": "3e61242225e43ba8e555d776db68f0da", "lon": -77.0581165, "fusion_lat": 0.0, "rental_uris": {"android": "https://dc.lft.to/lastmile_qr_scan", "ios": "https://dc.lft.to/lastmile_qr_scan"}, "type": "electric_scooter"}, {"is_reserved": 0, "is_disabled": 0, "fusion_lon": 0.0, "lat": 38.92483, "name": "ca53830294a8bebf72333bb100d1b4ad", "bike_id": "ca53830294a8bebf72333bb100d1b4ad", "lon": -77.03008366666667, "fusion_lat": 0.0, "rental_uris": {"android": "https://dc.lft.to/lastmile_qr_scan", "ios": "https://dc.lft.to/lastmile_qr_scan"}, "type": "electric_scooter"}, {"is_reserved": 0, "is_disabled": 0, "fusion_lon": 0.0, "lat": 38.90097766666667, "name": "6f4a87a57b41a9f64a86a81be23e8e67", "bike_id": "6f4a87a57b41a9f64a86a81be23e8e67", "lon": -77.01764933333334, "fusion_lat": 0.0, "rental_uris": {"android": "https://dc.lft.to/lastmile_qr_scan", "ios": "https://dc.lft.to/lastmile_qr_scan"}, "type": "electric_scooter"}, {"is_reserved": 0, "is_disabled": 0, "fusion_lon": 0.0, "lat": 38.957327166666666, "name": "1770a43dd1a142b864f83e9ea185eff0", "bike_id": "1770a43dd1a142b864f83e9ea185eff0", "lon": -77.0240185, "fusion_lat": 0.0, "rental_uris": {"android": "https://dc.lft.to/lastmile_qr_scan", "ios": "https://dc.lft.to/lastmile_qr_scan"}, "type": "electric_scooter"}, {"is_reserved": 0, "is_disabled": 0, "fusion_lon": 0.0, "lat": 38.90958233333333, "name": "0fb02f32957de530ce0c26409973449a", "bike_id": "0fb02f32957de530ce0c26409973449a", "lon": -77.02278366666667, "fusion_lat": 0.0, "rental_uris": {"android": "https://dc.lft.to/lastmile_qr_scan", "ios": "https://dc.lft.to/lastmile_qr_scan"}, "type": "electric_scooter"}, {"is_reserved": 0, "is_disabled": 0, "fusion_lon": 0.0, "lat": 38.90686383333333, "name": "633754f778de13537717d3d63ec70c48", "bike_id": "633754f778de13537717d3d63ec70c48", "lon": -77.02694966666667, "fusion_lat": 0.0, "rental_uris": {"android": "https://dc.lft.to/lastmile_qr_scan", "ios": "https://dc.lft.to/lastmile_qr_scan"}, "type": "electric_scooter"}, {"is_reserved": 0, "is_disabled": 0, "fusion_lon": 0.0, "lat": 38.951156833333336, "name": "6a7071aed722a83972d1c1dbb5e00d11", "bike_id": "6a7071aed722a83972d1c1dbb5e00d11", "lon": -77.08866866666666, "fusion_lat": 0.0, "rental_uris": {"android": "https://dc.lft.to/lastmile_qr_scan", "ios": "https://dc.lft.to/lastmile_qr_scan"}, "type": "electric_bike"}, {"is_reserved": 0, "is_disabled": 0, "fusion_lon": 0.0, "lat": 38.923245, "name": "5b0050bdc5434ba08b654d4481917146", "bike_id": "5b0050bdc5434ba08b654d4481917146", "lon": -77.02900616666666, "fusion_lat": 0.0, "rental_uris": {"android": "https://dc.lft.to/lastmile_qr_scan", "ios": "https://dc.lft.to/lastmile_qr_scan"}, "type": "electric_scooter"}, {"is_reserved": 0, "is_disabled": 0, "fusion_lon": 0.0, "lat": 38.9363965, "name": "3a88bf7bce8657af7d77f42fc5ed1182", "bike_id": "3a88bf7bce8657af7d77f42fc5ed1182", "lon": -76.95459633333333, "fusion_lat": 0.0, "rental_uris": {"android": "https://dc.lft.to/lastmile_qr_scan", "ios": "https://dc.lft.to/lastmile_qr_scan"}, "type": "electric_bike"}, {"is_reserved": 0, "is_disabled": 0, "fusion_lon": 0.0, "lat": 38.93700783333333, "name": "4fe5e94008e6977b0ff4d1ce162ebd8b", "bike_id": "4fe5e94008e6977b0ff4d1ce162ebd8b", "lon": -77.05613466666667, "fusion_lat": 0.0, "rental_uris": {"android": "https://dc.lft.to/lastmile_qr_scan", "ios": "https://dc.lft.to/lastmile_qr_scan"}, "type": "electric_scooter"}, {"is_reserved": 0, "is_disabled": 0, "fusion_lon": 0.0, "lat": 38.906625166666664, "name": "fdcd062a75d18e7b0e8f712b6f553a98", "bike_id": "fdcd062a75d18e7b0e8f712b6f553a98", "lon": -77.02396616666667, "fusion_lat": 0.0, "rental_uris": {"android": "https://dc.lft.to/lastmile_qr_scan", "ios": "https://dc.lft.to/lastmile_qr_scan"}, "type": "electric_scooter"}, {"is_reserved": 0, "is_disabled": 0, "fusion_lon": 0.0, "lat": 38.91909716666667, "name": "70e4878d6e0f46debf38f7def755bf91", "bike_id": "70e4878d6e0f46debf38f7def755bf91", "lon": -77.02619166666666, "fusion_lat": 0.0, "rental_uris": {"android": "https://dc.lft.to/lastmile_qr_scan", "ios": "https://dc.lft.to/lastmile_qr_scan"}, "type": "electric_scooter"}, {"is_reserved": 0, "is_disabled": 0, "fusion_lon": 0.0, "lat": 38.902415166666664, "name": "c1a7c03ac7f0ace362d29f1321a76b8c", "bike_id": "c1a7c03ac7f0ace362d29f1321a76b8c", "lon": -77.05915, "fusion_lat": 0.0, "rental_uris": {"android": "https://dc.lft.to/lastmile_qr_scan", "ios": "https://dc.lft.to/lastmile_qr_scan"}, "type": "electric_scooter"}, {"is_reserved": 0, "is_disabled": 0, "fusion_lon": 0.0, "lat": 38.924690166666664, "name": "e12dae6550ef7233f0cbbaf1de84d135", "bike_id": "e12dae6550ef7233f0cbbaf1de84d135", "lon": -77.02717133333333, "fusion_lat": 0.0, "rental_uris": {"android": "https://dc.lft.to/lastmile_qr_scan", "ios": "https://dc.lft.to/lastmile_qr_scan"}, "type": "electric_scooter"}, {"is_reserved": 0, "is_disabled": 0, "fusion_lon": 0.0, "lat": 38.90982066666667, "name": "72c280a0cf2720afa9897b27118dc345", "bike_id": "72c280a0cf2720afa9897b27118dc345", "lon": -77.0319165, "fusion_lat": 0.0, "rental_uris": {"android": "https://dc.lft.to/lastmile_qr_scan", "ios": "https://dc.lft.to/lastmile_qr_scan"}, "type": "electric_scooter"}, {"is_reserved": 0, "is_disabled": 0, "fusion_lon": 0.0, "lat": 38.917060166666666, "name": "4748ac27564e5771d77daa77cf9556c1", "bike_id": "4748ac27564e5771d77daa77cf9556c1", "lon": -77.03861616666667, "fusion_lat": 0.0, "rental_uris": {"android": "https://dc.lft.to/lastmile_qr_scan", "ios": "https://dc.lft.to/lastmile_qr_scan"}, "type": "electric_scooter"}, {"is_reserved": 0, "is_disabled": 0, "fusion_lon": 0.0, "lat": 38.908706, "name": "e547cc7fcc9687babff503ffe6d0a331", "bike_id": "e547cc7fcc9687babff503ffe6d0a331", "lon": -77.024158, "fusion_lat": 0.0, "rental_uris": {"android": "https://dc.lft.to/lastmile_qr_scan", "ios": "https://dc.lft.to/lastmile_qr_scan"}, "type": "electric_scooter"}, {"is_reserved": 0, "is_disabled": 0, "fusion_lon": 0.0, "lat": 38.8744235, "name": "0ddfe7f002026b222d530c4d80d58bbb", "bike_id": "0ddfe7f002026b222d530c4d80d58bbb", "lon": -77.00063733333333, "fusion_lat": 0.0, "rental_uris": {"android": "https://dc.lft.to/lastmile_qr_scan", "ios": "https://dc.lft.to/lastmile_qr_scan"}, "type": "electric_scooter"}, {"is_reserved": 0, "is_disabled": 0, "fusion_lon": 0.0, "lat": 38.896724, "name": "f876d3296695379f395e8b6255e3b2be", "bike_id": "f876d3296695379f395e8b6255e3b2be", "lon": -76.98167483333333, "fusion_lat": 0.0, "rental_uris": {"android": "https://dc.lft.to/lastmile_qr_scan", "ios": "https://dc.lft.to/lastmile_qr_scan"}, "type": "electric_bike"}, {"is_reserved": 0, "is_disabled": 0, "fusion_lon": 0.0, "lat": 38.91733833333333, "name": "92fe44487c5664e03e598225371e3576", "bike_id": "92fe44487c5664e03e598225371e3576", "lon": -77.02304133333334, "fusion_lat": 0.0, "rental_uris": {"android": "https://dc.lft.to/lastmile_qr_scan", "ios": "https://dc.lft.to/lastmile_qr_scan"}, "type": "electric_scooter"}, {"is_reserved": 0, "is_disabled": 0, "fusion_lon": 0.0, "lat": 38.9324625, "name": "87df6e8bac4ddf4fee64c2831b69463f", "bike_id": "87df6e8bac4ddf4fee64c2831b69463f", "lon": -77.038782, "fusion_lat": 0.0, "rental_uris": {"android": "https://dc.lft.to/lastmile_qr_scan", "ios": "https://dc.lft.to/lastmile_qr_scan"}, "type": "electric_scooter"}, {"is_reserved": 0, "is_disabled": 0, "fusion_lon": 0.0, "lat": 38.914039833333334, "name": "507913bf15316fac5d1df2a2f0919548", "bike_id": "507913bf15316fac5d1df2a2f0919548", "lon": -77.01818416666667, "fusion_lat": 0.0, "rental_uris": {"android": "https://dc.lft.to/lastmile_qr_scan", "ios": "https://dc.lft.to/lastmile_qr_scan"}, "type": "electric_scooter"}, {"is_reserved": 0, "is_disabled": 0, "fusion_lon": 0.0, "lat": 38.92117616666667, "name": "cc1a8b92d9f8574e93af3b04fe6f0c98", "bike_id": "cc1a8b92d9f8574e93af3b04fe6f0c98", "lon": -76.9888215, "fusion_lat": 0.0, "rental_uris": {"android": "https://dc.lft.to/lastmile_qr_scan", "ios": "https://dc.lft.to/lastmile_qr_scan"}, "type": "electric_bike"}, {"is_reserved": 0, "is_disabled": 0, "fusion_lon": 0.0, "lat": 38.92681283333334, "name": "8d8964057c74c61258e16618cb076d9f", "bike_id": "8d8964057c74c61258e16618cb076d9f", "lon": -77.02781083333333, "fusion_lat": 0.0, "rental_uris": {"android": "https://dc.lft.to/lastmile_qr_scan", "ios": "https://dc.lft.to/lastmile_qr_scan"}, "type": "electric_scooter"}, {"is_reserved": 0, "is_disabled": 0, "fusion_lon": 0.0, "lat": 38.87788583333333, "name": "4866626009ebcab149d3769c6e3c7bf2", "bike_id": "4866626009ebcab149d3769c6e3c7bf2", "lon": -76.99415466666666, "fusion_lat": 0.0, "rental_uris": {"android": "https://dc.lft.to/lastmile_qr_scan", "ios": "https://dc.lft.to/lastmile_qr_scan"}, "type": "electric_scooter"}, {"is_reserved": 0, "is_disabled": 0, "fusion_lon": 0.0, "lat": 38.90268483333333, "name": "5b97b098b270978bdfa58d8713b86e8b", "bike_id": "5b97b098b270978bdfa58d8713b86e8b", "lon": -77.01131866666667, "fusion_lat": 0.0, "rental_uris": {"android": "https://dc.lft.to/lastmile_qr_scan", "ios": "https://dc.lft.to/lastmile_qr_scan"}, "type": "electric_scooter"}, {"is_reserved": 0, "is_disabled": 0, "fusion_lon": 0.0, "lat": 38.917392666666665, "name": "511d7e7034015699ac7f2e15f71dcaa3", "bike_id": "511d7e7034015699ac7f2e15f71dcaa3", "lon": -77.06850716666666, "fusion_lat": 0.0, "rental_uris": {"android": "https://dc.lft.to/lastmile_qr_scan", "ios": "https://dc.lft.to/lastmile_qr_scan"}, "type": "electric_scooter"}, {"is_reserved": 0, "is_disabled": 0, "fusion_lon": 0.0, "lat": 38.8988285, "name": "bebaf03a3379168af657cee7cd3d7759", "bike_id": "bebaf03a3379168af657cee7cd3d7759", "lon": -76.93175183333334, "fusion_lat": 0.0, "rental_uris": {"android": "https://dc.lft.to/lastmile_qr_scan", "ios": "https://dc.lft.to/lastmile_qr_scan"}, "type": "electric_scooter"}, {"is_reserved": 0, "is_disabled": 0, "fusion_lon": 0.0, "lat": 38.923720333333335, "name": "3f8293365b814cbde026791b1d99c6d9", "bike_id": "3f8293365b814cbde026791b1d99c6d9", "lon": -77.0313625, "fusion_lat": 0.0, "rental_uris": {"android": "https://dc.lft.to/lastmile_qr_scan", "ios": "https://dc.lft.to/lastmile_qr_scan"}, "type": "electric_scooter"}, {"is_reserved": 0, "is_disabled": 0, "fusion_lon": 0.0, "lat": 38.922914166666665, "name": "6c5fa695b1209a220308b7f5a49d5e63", "bike_id": "6c5fa695b1209a220308b7f5a49d5e63", "lon": -77.04224166666667, "fusion_lat": 0.0, "rental_uris": {"android": "https://dc.lft.to/lastmile_qr_scan", "ios": "https://dc.lft.to/lastmile_qr_scan"}, "type": "electric_scooter"}, {"is_reserved": 0, "is_disabled": 0, "fusion_lon": 0.0, "lat": 38.918548333333334, "name": "bbc87719826fe3e18c232fea3f4545ee", "bike_id": "bbc87719826fe3e18c232fea3f4545ee", "lon": -77.04482783333333, "fusion_lat": 0.0, "rental_uris": {"android": "https://dc.lft.to/lastmile_qr_scan", "ios": "https://dc.lft.to/lastmile_qr_scan"}, "type": "electric_scooter"}, {"is_reserved": 0, "is_disabled": 0, "fusion_lon": 0.0, "lat": 38.924732666666664, "name": "98e3a7aa31a7630abc80f4e3e2ccb9b6", "bike_id": "98e3a7aa31a7630abc80f4e3e2ccb9b6", "lon": -77.039364, "fusion_lat": 0.0, "rental_uris": {"android": "https://dc.lft.to/lastmile_qr_scan", "ios": "https://dc.lft.to/lastmile_qr_scan"}, "type": "electric_scooter"}, {"is_reserved": 0, "is_disabled": 0, "fusion_lon": 0.0, "lat": 38.912694, "name": "a0a96afdb7aa3c4060da10fa07e55efa", "bike_id": "a0a96afdb7aa3c4060da10fa07e55efa", "lon": -77.02213266666666, "fusion_lat": 0.0, "rental_uris": {"android": "https://dc.lft.to/lastmile_qr_scan", "ios": "https://dc.lft.to/lastmile_qr_scan"}, "type": "electric_scooter"}, {"is_reserved": 0, "is_disabled": 0, "fusion_lon": 0.0, "lat": 38.965612166666666, "name": "168f969749d88f74e752ba6aee22ea20", "bike_id": "168f969749d88f74e752ba6aee22ea20", "lon": -77.02819166666667, "fusion_lat": 0.0, "rental_uris": {"android": "https://dc.lft.to/lastmile_qr_scan", "ios": "https://dc.lft.to/lastmile_qr_scan"}, "type": "electric_bike"}, {"is_reserved": 0, "is_disabled": 0, "fusion_lon": 0.0, "lat": 38.92488816666667, "name": "b5705d63581ce3545019001ed02a7aa7", "bike_id": "b5705d63581ce3545019001ed02a7aa7", "lon": -77.07337916666667, "fusion_lat": 0.0, "rental_uris": {"android": "https://dc.lft.to/lastmile_qr_scan", "ios": "https://dc.lft.to/lastmile_qr_scan"}, "type": "electric_scooter"}, {"is_reserved": 0, "is_disabled": 0, "fusion_lon": 0.0, "lat": 38.91272716666667, "name": "ca3dd7c569397d5454edf762ac18468a", "bike_id": "ca3dd7c569397d5454edf762ac18468a", "lon": -77.014772, "fusion_lat": 0.0, "rental_uris": {"android": "https://dc.lft.to/lastmile_qr_scan", "ios": "https://dc.lft.to/lastmile_qr_scan"}, "type": "electric_scooter"}, {"is_reserved": 0, "is_disabled": 0, "fusion_lon": 0.0, "lat": 38.8969355, "name": "d87845d6b514ca6ccf57c9582293d2b5", "bike_id": "d87845d6b514ca6ccf57c9582293d2b5", "lon": -76.93239483333333, "fusion_lat": 0.0, "rental_uris": {"android": "https://dc.lft.to/lastmile_qr_scan", "ios": "https://dc.lft.to/lastmile_qr_scan"}, "type": "electric_bike"}, {"is_reserved": 0, "is_disabled": 0, "fusion_lon": 0.0, "lat": 38.921479, "name": "e809f79d2587436de468ba18170a9504", "bike_id": "e809f79d2587436de468ba18170a9504", "lon": -77.01803766666667, "fusion_lat": 0.0, "rental_uris": {"android": "https://dc.lft.to/lastmile_qr_scan", "ios": "https://dc.lft.to/lastmile_qr_scan"}, "type": "electric_scooter"}, {"is_reserved": 0, "is_disabled": 0, "fusion_lon": 0.0, "lat": 38.92140466666667, "name": "ec39e62c0fe46f522d822ad150a052f1", "bike_id": "ec39e62c0fe46f522d822ad150a052f1", "lon": -77.02148916666667, "fusion_lat": 0.0, "rental_uris": {"android": "https://dc.lft.to/lastmile_qr_scan", "ios": "https://dc.lft.to/lastmile_qr_scan"}, "type": "electric_scooter"}, {"is_reserved": 0, "is_disabled": 0, "fusion_lon": 0.0, "lat": 38.93248916666667, "name": "aa4fca6b512ac33dbb683ab7c9cb21ed", "bike_id": "aa4fca6b512ac33dbb683ab7c9cb21ed", "lon": -77.02985266666667, "fusion_lat": 0.0, "rental_uris": {"android": "https://dc.lft.to/lastmile_qr_scan", "ios": "https://dc.lft.to/lastmile_qr_scan"}, "type": "electric_scooter"}, {"is_reserved": 0, "is_disabled": 0, "fusion_lon": 0.0, "lat": 38.92155983333333, "name": "c1c4cd427917d494f8143b72d592bffb", "bike_id": "c1c4cd427917d494f8143b72d592bffb", "lon": -77.04243383333333, "fusion_lat": 0.0, "rental_uris": {"android": "https://dc.lft.to/lastmile_qr_scan", "ios": "https://dc.lft.to/lastmile_qr_scan"}, "type": "electric_scooter"}, {"is_reserved": 0, "is_disabled": 0, "fusion_lon": 0.0, "lat": 38.8919375, "name": "bb52de0b96ed5c8c2d366d5e0187494c", "bike_id": "bb52de0b96ed5c8c2d366d5e0187494c", "lon": -76.99851833333334, "fusion_lat": 0.0, "rental_uris": {"android": "https://dc.lft.to/lastmile_qr_scan", "ios": "https://dc.lft.to/lastmile_qr_scan"}, "type": "electric_scooter"}, {"is_reserved": 0, "is_disabled": 0, "fusion_lon": 0.0, "lat": 38.91536333333333, "name": "b88f67a91bedfb4d694e1feafcf4c6d8", "bike_id": "b88f67a91bedfb4d694e1feafcf4c6d8", "lon": -77.0364015, "fusion_lat": 0.0, "rental_uris": {"android": "https://dc.lft.to/lastmile_qr_scan", "ios": "https://dc.lft.to/lastmile_qr_scan"}, "type": "electric_scooter"}, {"is_reserved": 0, "is_disabled": 0, "fusion_lon": 0.0, "lat": 38.9068485, "name": "0b9b1761bc2a79ba17022f87c588563d", "bike_id": "0b9b1761bc2a79ba17022f87c588563d", "lon": -77.0269805, "fusion_lat": 0.0, "rental_uris": {"android": "https://dc.lft.to/lastmile_qr_scan", "ios": "https://dc.lft.to/lastmile_qr_scan"}, "type": "electric_scooter"}, {"is_reserved": 0, "is_disabled": 0, "fusion_lon": 0.0, "lat": 38.900672666666665, "name": "2eb913216ca0adf3855ee25ac119509f", "bike_id": "2eb913216ca0adf3855ee25ac119509f", "lon": -76.92747983333334, "fusion_lat": 0.0, "rental_uris": {"android": "https://dc.lft.to/lastmile_qr_scan", "ios": "https://dc.lft.to/lastmile_qr_scan"}, "type": "electric_scooter"}, {"is_reserved": 0, "is_disabled": 0, "fusion_lon": 0.0, "lat": 38.908009666666665, "name": "d17a58711d9bd9e5d13997f9ae73622a", "bike_id": "d17a58711d9bd9e5d13997f9ae73622a", "lon": -77.04993766666666, "fusion_lat": 0.0, "rental_uris": {"android": "https://dc.lft.to/lastmile_qr_scan", "ios": "https://dc.lft.to/lastmile_qr_scan"}, "type": "electric_scooter"}, {"is_reserved": 0, "is_disabled": 0, "fusion_lon": 0.0, "lat": 38.878637499999996, "name": "7bb81581dd6d12acb4ed96c3db7a09c7", "bike_id": "7bb81581dd6d12acb4ed96c3db7a09c7", "lon": -76.99165016666667, "fusion_lat": 0.0, "rental_uris": {"android": "https://dc.lft.to/lastmile_qr_scan", "ios": "https://dc.lft.to/lastmile_qr_scan"}, "type": "electric_scooter"}, {"is_reserved": 0, "is_disabled": 0, "fusion_lon": 0.0, "lat": 38.8812695, "name": "db23615603c9e64ba4f7dc25b4158700", "bike_id": "db23615603c9e64ba4f7dc25b4158700", "lon": -76.992925, "fusion_lat": 0.0, "rental_uris": {"android": "https://dc.lft.to/lastmile_qr_scan", "ios": "https://dc.lft.to/lastmile_qr_scan"}, "type": "electric_scooter"}, {"is_reserved": 0, "is_disabled": 0, "fusion_lon": 0.0, "lat": 38.940365166666666, "name": "08e5ad339000a9735e82f916359ac621", "bike_id": "08e5ad339000a9735e82f916359ac621", "lon": -77.07569733333334, "fusion_lat": 0.0, "rental_uris": {"android": "https://dc.lft.to/lastmile_qr_scan", "ios": "https://dc.lft.to/lastmile_qr_scan"}, "type": "electric_scooter"}, {"is_reserved": 0, "is_disabled": 0, "fusion_lon": 0.0, "lat": 38.91821366666667, "name": "f2cb09cc604c4a3acf2c29c2b9be88c2", "bike_id": "f2cb09cc604c4a3acf2c29c2b9be88c2", "lon": -77.04769116666667, "fusion_lat": 0.0, "rental_uris": {"android": "https://dc.lft.to/lastmile_qr_scan", "ios": "https://dc.lft.to/lastmile_qr_scan"}, "type": "electric_scooter"}, {"is_reserved": 0, "is_disabled": 0, "fusion_lon": 0.0, "lat": 38.89456833333333, "name": "0d59ced99d5ef54b46e7bad0790a46e1", "bike_id": "0d59ced99d5ef54b46e7bad0790a46e1", "lon": -77.00349333333334, "fusion_lat": 0.0, "rental_uris": {"android": "https://dc.lft.to/lastmile_qr_scan", "ios": "https://dc.lft.to/lastmile_qr_scan"}, "type": "electric_scooter"}, {"is_reserved": 0, "is_disabled": 0, "fusion_lon": 0.0, "lat": 38.92831833333334, "name": "4fda868eacc1acb85e30689c58550e82", "bike_id": "4fda868eacc1acb85e30689c58550e82", "lon": -76.9958665, "fusion_lat": 0.0, "rental_uris": {"android": "https://dc.lft.to/lastmile_qr_scan", "ios": "https://dc.lft.to/lastmile_qr_scan"}, "type": "electric_scooter"}, {"is_reserved": 0, "is_disabled": 0, "fusion_lon": 0.0, "lat": 38.9233345, "name": "450a1c8e57ec2846e1d3bcd57e6fe77f", "bike_id": "450a1c8e57ec2846e1d3bcd57e6fe77f", "lon": -77.03533233333333, "fusion_lat": 0.0, "rental_uris": {"android": "https://dc.lft.to/lastmile_qr_scan", "ios": "https://dc.lft.to/lastmile_qr_scan"}, "type": "electric_scooter"}, {"is_reserved": 0, "is_disabled": 0, "fusion_lon": 0.0, "lat": 38.93253583333333, "name": "fbe2564ec7ff191dc3c669675f6f8879", "bike_id": "fbe2564ec7ff191dc3c669675f6f8879", "lon": -77.0295235, "fusion_lat": 0.0, "rental_uris": {"android": "https://dc.lft.to/lastmile_qr_scan", "ios": "https://dc.lft.to/lastmile_qr_scan"}, "type": "electric_scooter"}, {"is_reserved": 0, "is_disabled": 0, "fusion_lon": 0.0, "lat": 38.917825, "name": "b467e5ac0eb702db1b4679d5ff34be43", "bike_id": "b467e5ac0eb702db1b4679d5ff34be43", "lon": -77.03644433333334, "fusion_lat": 0.0, "rental_uris": {"android": "https://dc.lft.to/lastmile_qr_scan", "ios": "https://dc.lft.to/lastmile_qr_scan"}, "type": "electric_scooter"}, {"is_reserved": 0, "is_disabled": 0, "fusion_lon": 0.0, "lat": 38.9096025, "name": "2bbdc36a7b18cad05e8d1fea66e79916", "bike_id": "2bbdc36a7b18cad05e8d1fea66e79916", "lon": -77.04614833333333, "fusion_lat": 0.0, "rental_uris": {"android": "https://dc.lft.to/lastmile_qr_scan", "ios": "https://dc.lft.to/lastmile_qr_scan"}, "type": "electric_scooter"}, {"is_reserved": 0, "is_disabled": 0, "fusion_lon": 0.0, "lat": 38.90734583333333, "name": "aa7761b856df510875550022eef39550", "bike_id": "aa7761b856df510875550022eef39550", "lon": -77.04552216666667, "fusion_lat": 0.0, "rental_uris": {"android": "https://dc.lft.to/lastmile_qr_scan", "ios": "https://dc.lft.to/lastmile_qr_scan"}, "type": "electric_scooter"}, {"is_reserved": 0, "is_disabled": 0, "fusion_lon": 0.0, "lat": 38.923339166666665, "name": "6f9a1a7ebd24f07e4eabe2a832117c52", "bike_id": "6f9a1a7ebd24f07e4eabe2a832117c52", "lon": -77.0353445, "fusion_lat": 0.0, "rental_uris": {"android": "https://dc.lft.to/lastmile_qr_scan", "ios": "https://dc.lft.to/lastmile_qr_scan"}, "type": "electric_scooter"}, {"is_reserved": 0, "is_disabled": 0, "fusion_lon": 0.0, "lat": 38.9215905, "name": "369eb29a30123dc8361bab284bf5c6d8", "bike_id": "369eb29a30123dc8361bab284bf5c6d8", "lon": -77.0344405, "fusion_lat": 0.0, "rental_uris": {"android": "https://dc.lft.to/lastmile_qr_scan", "ios": "https://dc.lft.to/lastmile_qr_scan"}, "type": "electric_scooter"}, {"is_reserved": 0, "is_disabled": 0, "fusion_lon": 0.0, "lat": 38.919725166666666, "name": "8d8d9e1bc3eed61e810d94b836ef857b", "bike_id": "8d8d9e1bc3eed61e810d94b836ef857b", "lon": -77.071217, "fusion_lat": 0.0, "rental_uris": {"android": "https://dc.lft.to/lastmile_qr_scan", "ios": "https://dc.lft.to/lastmile_qr_scan"}, "type": "electric_scooter"}, {"is_reserved": 0, "is_disabled": 0, "fusion_lon": 0.0, "lat": 38.91928716666666, "name": "80f05b17a11cadc86af52237305d8177", "bike_id": "80f05b17a11cadc86af52237305d8177", "lon": -77.034921, "fusion_lat": 0.0, "rental_uris": {"android": "https://dc.lft.to/lastmile_qr_scan", "ios": "https://dc.lft.to/lastmile_qr_scan"}, "type": "electric_scooter"}, {"is_reserved": 0, "is_disabled": 0, "fusion_lon": 0.0, "lat": 38.9241955, "name": "44ed69c6dd3b024f1ba9e217dd61cb03", "bike_id": "44ed69c6dd3b024f1ba9e217dd61cb03", "lon": -77.0201075, "fusion_lat": 0.0, "rental_uris": {"android": "https://dc.lft.to/lastmile_qr_scan", "ios": "https://dc.lft.to/lastmile_qr_scan"}, "type": "electric_scooter"}, {"is_reserved": 0, "is_disabled": 0, "fusion_lon": 0.0, "lat": 38.884933833333335, "name": "7493f76f00acb9721617202f9bcadd11", "bike_id": "7493f76f00acb9721617202f9bcadd11", "lon": -77.02675233333333, "fusion_lat": 0.0, "rental_uris": {"android": "https://dc.lft.to/lastmile_qr_scan", "ios": "https://dc.lft.to/lastmile_qr_scan"}, "type": "electric_scooter"}, {"is_reserved": 0, "is_disabled": 0, "fusion_lon": 0.0, "lat": 38.994952833333336, "name": "aa94061dfbd96bee74b13cdf5d959592", "bike_id": "aa94061dfbd96bee74b13cdf5d959592", "lon": -77.0292155, "fusion_lat": 0.0, "rental_uris": {"android": "https://dc.lft.to/lastmile_qr_scan", "ios": "https://dc.lft.to/lastmile_qr_scan"}, "type": "electric_bike"}, {"is_reserved": 0, "is_disabled": 0, "fusion_lon": 0.0, "lat": 38.91907, "name": "294c638e5562874a8c3c88cf27cc58de", "bike_id": "294c638e5562874a8c3c88cf27cc58de", "lon": -77.0294655, "fusion_lat": 0.0, "rental_uris": {"android": "https://dc.lft.to/lastmile_qr_scan", "ios": "https://dc.lft.to/lastmile_qr_scan"}, "type": "electric_scooter"}, {"is_reserved": 0, "is_disabled": 0, "fusion_lon": 0.0, "lat": 38.90386133333333, "name": "d70a3881117fefa50abb62366545c670", "bike_id": "d70a3881117fefa50abb62366545c670", "lon": -77.01845866666666, "fusion_lat": 0.0, "rental_uris": {"android": "https://dc.lft.to/lastmile_qr_scan", "ios": "https://dc.lft.to/lastmile_qr_scan"}, "type": "electric_scooter"}, {"is_reserved": 0, "is_disabled": 0, "fusion_lon": 0.0, "lat": 38.92992866666667, "name": "384151b7aae12937ae98466f0f736b41", "bike_id": "384151b7aae12937ae98466f0f736b41", "lon": -77.01206066666667, "fusion_lat": 0.0, "rental_uris": {"android": "https://dc.lft.to/lastmile_qr_scan", "ios": "https://dc.lft.to/lastmile_qr_scan"}, "type": "electric_scooter"}, {"is_reserved": 0, "is_disabled": 0, "fusion_lon": 0.0, "lat": 38.897131333333334, "name": "e6a6e69865b7ee1ea31d7b76da38cf08", "bike_id": "e6a6e69865b7ee1ea31d7b76da38cf08", "lon": -77.0322535, "fusion_lat": 0.0, "rental_uris": {"android": "https://dc.lft.to/lastmile_qr_scan", "ios": "https://dc.lft.to/lastmile_qr_scan"}, "type": "electric_scooter"}, {"is_reserved": 0, "is_disabled": 0, "fusion_lon": 0.0, "lat": 38.9125345, "name": "febbc0337aecd465d89c66e401a16c23", "bike_id": "febbc0337aecd465d89c66e401a16c23", "lon": -77.03278083333333, "fusion_lat": 0.0, "rental_uris": {"android": "https://dc.lft.to/lastmile_qr_scan", "ios": "https://dc.lft.to/lastmile_qr_scan"}, "type": "electric_scooter"}, {"is_reserved": 0, "is_disabled": 0, "fusion_lon": 0.0, "lat": 38.91513833333333, "name": "3142c984fee4e8b3e43dd4be27986773", "bike_id": "3142c984fee4e8b3e43dd4be27986773", "lon": -77.03827933333334, "fusion_lat": 0.0, "rental_uris": {"android": "https://dc.lft.to/lastmile_qr_scan", "ios": "https://dc.lft.to/lastmile_qr_scan"}, "type": "electric_scooter"}, {"is_reserved": 0, "is_disabled": 0, "fusion_lon": 0.0, "lat": 38.9169825, "name": "e7bb3b933e9b055c039e1a83ce5b8460", "bike_id": "e7bb3b933e9b055c039e1a83ce5b8460", "lon": -77.02937183333333, "fusion_lat": 0.0, "rental_uris": {"android": "https://dc.lft.to/lastmile_qr_scan", "ios": "https://dc.lft.to/lastmile_qr_scan"}, "type": "electric_scooter"}, {"is_reserved": 0, "is_disabled": 0, "fusion_lon": 0.0, "lat": 38.923516666666664, "name": "23563be6f0629c94ef9ffd943487985b", "bike_id": "23563be6f0629c94ef9ffd943487985b", "lon": -77.01897733333334, "fusion_lat": 0.0, "rental_uris": {"android": "https://dc.lft.to/lastmile_qr_scan", "ios": "https://dc.lft.to/lastmile_qr_scan"}, "type": "electric_scooter"}, {"is_reserved": 0, "is_disabled": 0, "fusion_lon": 0.0, "lat": 38.89601916666667, "name": "5f8357781ad4ce7f9615e3e3fcd57ad3", "bike_id": "5f8357781ad4ce7f9615e3e3fcd57ad3", "lon": -76.96783383333333, "fusion_lat": 0.0, "rental_uris": {"android": "https://dc.lft.to/lastmile_qr_scan", "ios": "https://dc.lft.to/lastmile_qr_scan"}, "type": "electric_bike"}, {"is_reserved": 0, "is_disabled": 0, "fusion_lon": 0.0, "lat": 38.92109633333333, "name": "8ade2710a9ed30cb424f3229f284d4b5", "bike_id": "8ade2710a9ed30cb424f3229f284d4b5", "lon": -77.02069283333333, "fusion_lat": 0.0, "rental_uris": {"android": "https://dc.lft.to/lastmile_qr_scan", "ios": "https://dc.lft.to/lastmile_qr_scan"}, "type": "electric_scooter"}, {"is_reserved": 0, "is_disabled": 0, "fusion_lon": 0.0, "lat": 38.88485466666667, "name": "546bdb3f06df17dbfc89bd5d725b8f7e", "bike_id": "546bdb3f06df17dbfc89bd5d725b8f7e", "lon": -77.02365866666666, "fusion_lat": 0.0, "rental_uris": {"android": "https://dc.lft.to/lastmile_qr_scan", "ios": "https://dc.lft.to/lastmile_qr_scan"}, "type": "electric_scooter"}, {"is_reserved": 0, "is_disabled": 0, "fusion_lon": 0.0, "lat": 38.90533683333334, "name": "70e98aedeafe1cb9a0fccf1daf9e1fc0", "bike_id": "70e98aedeafe1cb9a0fccf1daf9e1fc0", "lon": -77.0057085, "fusion_lat": 0.0, "rental_uris": {"android": "https://dc.lft.to/lastmile_qr_scan", "ios": "https://dc.lft.to/lastmile_qr_scan"}, "type": "electric_scooter"}, {"is_reserved": 0, "is_disabled": 0, "fusion_lon": 0.0, "lat": 38.926766666666666, "name": "64e92aaff97ae4193e30c93154f79d97", "bike_id": "64e92aaff97ae4193e30c93154f79d97", "lon": -77.03233866666666, "fusion_lat": 0.0, "rental_uris": {"android": "https://dc.lft.to/lastmile_qr_scan", "ios": "https://dc.lft.to/lastmile_qr_scan"}, "type": "electric_scooter"}, {"is_reserved": 0, "is_disabled": 0, "fusion_lon": 0.0, "lat": 38.92674616666667, "name": "c8f2d72851c0352465b18c0698bf6f65", "bike_id": "c8f2d72851c0352465b18c0698bf6f65", "lon": -77.0274595, "fusion_lat": 0.0, "rental_uris": {"android": "https://dc.lft.to/lastmile_qr_scan", "ios": "https://dc.lft.to/lastmile_qr_scan"}, "type": "electric_scooter"}, {"is_reserved": 0, "is_disabled": 0, "fusion_lon": 0.0, "lat": 38.90687533333333, "name": "cf95132fdee5d5f429576da2a47226f5", "bike_id": "cf95132fdee5d5f429576da2a47226f5", "lon": -77.0269525, "fusion_lat": 0.0, "rental_uris": {"android": "https://dc.lft.to/lastmile_qr_scan", "ios": "https://dc.lft.to/lastmile_qr_scan"}, "type": "electric_scooter"}, {"is_reserved": 0, "is_disabled": 0, "fusion_lon": 0.0, "lat": 38.929049666666664, "name": "8f65b3f85d16e4f30d3b51ba92d26188", "bike_id": "8f65b3f85d16e4f30d3b51ba92d26188", "lon": -77.032503, "fusion_lat": 0.0, "rental_uris": {"android": "https://dc.lft.to/lastmile_qr_scan", "ios": "https://dc.lft.to/lastmile_qr_scan"}, "type": "electric_scooter"}, {"is_reserved": 0, "is_disabled": 0, "fusion_lon": 0.0, "lat": 38.916046333333334, "name": "67eae7b1a84584b57d161a41263530a3", "bike_id": "67eae7b1a84584b57d161a41263530a3", "lon": -77.04906933333334, "fusion_lat": 0.0, "rental_uris": {"android": "https://dc.lft.to/lastmile_qr_scan", "ios": "https://dc.lft.to/lastmile_qr_scan"}, "type": "electric_scooter"}, {"is_reserved": 0, "is_disabled": 0, "fusion_lon": 0.0, "lat": 38.917981833333336, "name": "9d08d457d8b34a63ceebd7c7b242e985", "bike_id": "9d08d457d8b34a63ceebd7c7b242e985", "lon": -77.0402165, "fusion_lat": 0.0, "rental_uris": {"android": "https://dc.lft.to/lastmile_qr_scan", "ios": "https://dc.lft.to/lastmile_qr_scan"}, "type": "electric_scooter"}, {"is_reserved": 0, "is_disabled": 0, "fusion_lon": 0.0, "lat": 38.9332205, "name": "04a6d3ab6594becf6815c5884ef69e96", "bike_id": "04a6d3ab6594becf6815c5884ef69e96", "lon": -77.03189783333333, "fusion_lat": 0.0, "rental_uris": {"android": "https://dc.lft.to/lastmile_qr_scan", "ios": "https://dc.lft.to/lastmile_qr_scan"}, "type": "electric_scooter"}, {"is_reserved": 0, "is_disabled": 0, "fusion_lon": 0.0, "lat": 38.892583333333334, "name": "565c8eb76f2fea5de7353731b61d9d83", "bike_id": "565c8eb76f2fea5de7353731b61d9d83", "lon": -77.05024016666667, "fusion_lat": 0.0, "rental_uris": {"android": "https://dc.lft.to/lastmile_qr_scan", "ios": "https://dc.lft.to/lastmile_qr_scan"}, "type": "electric_scooter"}, {"is_reserved": 0, "is_disabled": 0, "fusion_lon": 0.0, "lat": 38.88483, "name": "c591c033b7db0aa43f906a085d1e0a58", "bike_id": "c591c033b7db0aa43f906a085d1e0a58", "lon": -77.03351266666667, "fusion_lat": 0.0, "rental_uris": {"android": "https://dc.lft.to/lastmile_qr_scan", "ios": "https://dc.lft.to/lastmile_qr_scan"}, "type": "electric_scooter"}, {"is_reserved": 0, "is_disabled": 0, "fusion_lon": 0.0, "lat": 38.87646316666667, "name": "f99a176dd222378e154d9defdeaa0b20", "bike_id": "f99a176dd222378e154d9defdeaa0b20", "lon": -76.93548833333334, "fusion_lat": 0.0, "rental_uris": {"android": "https://dc.lft.to/lastmile_qr_scan", "ios": "https://dc.lft.to/lastmile_qr_scan"}, "type": "electric_bike"}, {"is_reserved": 0, "is_disabled": 0, "fusion_lon": 0.0, "lat": 38.94853116666667, "name": "1abbfeb1a53d459559f455bf917d41da", "bike_id": "1abbfeb1a53d459559f455bf917d41da", "lon": -77.06527616666666, "fusion_lat": 0.0, "rental_uris": {"android": "https://dc.lft.to/lastmile_qr_scan", "ios": "https://dc.lft.to/lastmile_qr_scan"}, "type": "electric_scooter"}, {"is_reserved": 0, "is_disabled": 0, "fusion_lon": 0.0, "lat": 38.9008805, "name": "76c5a03a4c2ab16cb83c776cc52058a4", "bike_id": "76c5a03a4c2ab16cb83c776cc52058a4", "lon": -77.04872683333333, "fusion_lat": 0.0, "rental_uris": {"android": "https://dc.lft.to/lastmile_qr_scan", "ios": "https://dc.lft.to/lastmile_qr_scan"}, "type": "electric_scooter"}, {"is_reserved": 0, "is_disabled": 0, "fusion_lon": 0.0, "lat": 38.95688, "name": "7243cebbeabc26b171b8c8e37cbb0411", "bike_id": "7243cebbeabc26b171b8c8e37cbb0411", "lon": -77.0224335, "fusion_lat": 0.0, "rental_uris": {"android": "https://dc.lft.to/lastmile_qr_scan", "ios": "https://dc.lft.to/lastmile_qr_scan"}, "type": "electric_scooter"}, {"is_reserved": 0, "is_disabled": 0, "fusion_lon": 0.0, "lat": 38.832966166666665, "name": "5e9484ddc859b7aad48132a1d1c92e45", "bike_id": "5e9484ddc859b7aad48132a1d1c92e45", "lon": -77.08419216666667, "fusion_lat": 0.0, "rental_uris": {"android": "https://dc.lft.to/lastmile_qr_scan", "ios": "https://dc.lft.to/lastmile_qr_scan"}, "type": "electric_bike"}, {"is_reserved": 0, "is_disabled": 0, "fusion_lon": 0.0, "lat": 38.89488766666667, "name": "b37dffcf82a524dba8547b8df8e4fc41", "bike_id": "b37dffcf82a524dba8547b8df8e4fc41", "lon": -76.99521316666667, "fusion_lat": 0.0, "rental_uris": {"android": "https://dc.lft.to/lastmile_qr_scan", "ios": "https://dc.lft.to/lastmile_qr_scan"}, "type": "electric_scooter"}, {"is_reserved": 0, "is_disabled": 0, "fusion_lon": 0.0, "lat": 38.884872, "name": "e087792119c7953654215b99b7014dda", "bike_id": "e087792119c7953654215b99b7014dda", "lon": -77.01984283333333, "fusion_lat": 0.0, "rental_uris": {"android": "https://dc.lft.to/lastmile_qr_scan", "ios": "https://dc.lft.to/lastmile_qr_scan"}, "type": "electric_scooter"}, {"is_reserved": 0, "is_disabled": 0, "fusion_lon": 0.0, "lat": 38.905077666666664, "name": "b2192286497e801d83ef2f2d295ca18a", "bike_id": "b2192286497e801d83ef2f2d295ca18a", "lon": -77.02966833333333, "fusion_lat": 0.0, "rental_uris": {"android": "https://dc.lft.to/lastmile_qr_scan", "ios": "https://dc.lft.to/lastmile_qr_scan"}, "type": "electric_scooter"}, {"is_reserved": 0, "is_disabled": 0, "fusion_lon": 0.0, "lat": 38.874788333333335, "name": "91a70e82a6071b38902025731a58c9f7", "bike_id": "91a70e82a6071b38902025731a58c9f7", "lon": -76.96526466666667, "fusion_lat": 0.0, "rental_uris": {"android": "https://dc.lft.to/lastmile_qr_scan", "ios": "https://dc.lft.to/lastmile_qr_scan"}, "type": "electric_bike"}, {"is_reserved": 0, "is_disabled": 0, "fusion_lon": 0.0, "lat": 38.88441666666667, "name": "8a69b818d0e19b580e69789d84f46679", "bike_id": "8a69b818d0e19b580e69789d84f46679", "lon": -76.95771283333333, "fusion_lat": 0.0, "rental_uris": {"android": "https://dc.lft.to/lastmile_qr_scan", "ios": "https://dc.lft.to/lastmile_qr_scan"}, "type": "electric_scooter"}, {"is_reserved": 0, "is_disabled": 0, "fusion_lon": 0.0, "lat": 38.91555566666667, "name": "a93437ebf866cbbb49a60c5c0db53004", "bike_id": "a93437ebf866cbbb49a60c5c0db53004", "lon": -77.02048133333334, "fusion_lat": 0.0, "rental_uris": {"android": "https://dc.lft.to/lastmile_qr_scan", "ios": "https://dc.lft.to/lastmile_qr_scan"}, "type": "electric_scooter"}, {"is_reserved": 0, "is_disabled": 0, "fusion_lon": 0.0, "lat": 38.91407733333333, "name": "182cb83b98302f06b9e27bfe8e412fda", "bike_id": "182cb83b98302f06b9e27bfe8e412fda", "lon": -77.04183366666666, "fusion_lat": 0.0, "rental_uris": {"android": "https://dc.lft.to/lastmile_qr_scan", "ios": "https://dc.lft.to/lastmile_qr_scan"}, "type": "electric_scooter"}, {"is_reserved": 0, "is_disabled": 0, "fusion_lon": 0.0, "lat": 38.8757855, "name": "9ffdb7b38954dbbfee706f91954e7223", "bike_id": "9ffdb7b38954dbbfee706f91954e7223", "lon": -77.005824, "fusion_lat": 0.0, "rental_uris": {"android": "https://dc.lft.to/lastmile_qr_scan", "ios": "https://dc.lft.to/lastmile_qr_scan"}, "type": "electric_scooter"}, {"is_reserved": 0, "is_disabled": 0, "fusion_lon": 0.0, "lat": 38.89564716666667, "name": "0d8e2f6826e14e765fe333f18c0e04b7", "bike_id": "0d8e2f6826e14e765fe333f18c0e04b7", "lon": -76.94901016666667, "fusion_lat": 0.0, "rental_uris": {"android": "https://dc.lft.to/lastmile_qr_scan", "ios": "https://dc.lft.to/lastmile_qr_scan"}, "type": "electric_scooter"}, {"is_reserved": 0, "is_disabled": 0, "fusion_lon": 0.0, "lat": 38.876861, "name": "fd8a0e6a9a2ac90a04eba004c2eec123", "bike_id": "fd8a0e6a9a2ac90a04eba004c2eec123", "lon": -77.0007305, "fusion_lat": 0.0, "rental_uris": {"android": "https://dc.lft.to/lastmile_qr_scan", "ios": "https://dc.lft.to/lastmile_qr_scan"}, "type": "electric_scooter"}, {"is_reserved": 0, "is_disabled": 0, "fusion_lon": 0.0, "lat": 38.85938783333334, "name": "22bb00125fcc9b86a09490971b8acf8e", "bike_id": "22bb00125fcc9b86a09490971b8acf8e", "lon": -76.984511, "fusion_lat": 0.0, "rental_uris": {"android": "https://dc.lft.to/lastmile_qr_scan", "ios": "https://dc.lft.to/lastmile_qr_scan"}, "type": "electric_scooter"}, {"is_reserved": 0, "is_disabled": 0, "fusion_lon": 0.0, "lat": 38.8990895, "name": "8f30b3e08b4bbd67e259036455556ee9", "bike_id": "8f30b3e08b4bbd67e259036455556ee9", "lon": -77.024552, "fusion_lat": 0.0, "rental_uris": {"android": "https://dc.lft.to/lastmile_qr_scan", "ios": "https://dc.lft.to/lastmile_qr_scan"}, "type": "electric_scooter"}, {"is_reserved": 0, "is_disabled": 0, "fusion_lon": 0.0, "lat": 38.912538833333336, "name": "a4c4b180d586b6caab3f8422f04cf96c", "bike_id": "a4c4b180d586b6caab3f8422f04cf96c", "lon": -77.00386833333333, "fusion_lat": 0.0, "rental_uris": {"android": "https://dc.lft.to/lastmile_qr_scan", "ios": "https://dc.lft.to/lastmile_qr_scan"}, "type": "electric_scooter"}, {"is_reserved": 0, "is_disabled": 0, "fusion_lon": 0.0, "lat": 38.892463166666666, "name": "06ec1206e1ddc0ff608e8014fd144ecd", "bike_id": "06ec1206e1ddc0ff608e8014fd144ecd", "lon": -77.032091, "fusion_lat": 0.0, "rental_uris": {"android": "https://dc.lft.to/lastmile_qr_scan", "ios": "https://dc.lft.to/lastmile_qr_scan"}, "type": "electric_scooter"}, {"is_reserved": 0, "is_disabled": 0, "fusion_lon": 0.0, "lat": 38.849672166666664, "name": "f3cc9d1d7d8119bb11f01b5a23efc41d", "bike_id": "f3cc9d1d7d8119bb11f01b5a23efc41d", "lon": -77.08929833333333, "fusion_lat": 0.0, "rental_uris": {"android": "https://dc.lft.to/lastmile_qr_scan", "ios": "https://dc.lft.to/lastmile_qr_scan"}, "type": "electric_bike"}, {"is_reserved": 0, "is_disabled": 0, "fusion_lon": 0.0, "lat": 38.8846085, "name": "a4c39bfecfde2554b651e20331f12c3c", "bike_id": "a4c39bfecfde2554b651e20331f12c3c", "lon": -76.92621683333333, "fusion_lat": 0.0, "rental_uris": {"android": "https://dc.lft.to/lastmile_qr_scan", "ios": "https://dc.lft.to/lastmile_qr_scan"}, "type": "electric_scooter"}, {"is_reserved": 0, "is_disabled": 0, "fusion_lon": 0.0, "lat": 38.91817366666667, "name": "b547baaf15e55ce86c8846c2635470ff", "bike_id": "b547baaf15e55ce86c8846c2635470ff", "lon": -77.02477983333333, "fusion_lat": 0.0, "rental_uris": {"android": "https://dc.lft.to/lastmile_qr_scan", "ios": "https://dc.lft.to/lastmile_qr_scan"}, "type": "electric_scooter"}, {"is_reserved": 0, "is_disabled": 0, "fusion_lon": 0.0, "lat": 38.91117233333333, "name": "06ccd2b9de3397b71a1db1432cab173c", "bike_id": "06ccd2b9de3397b71a1db1432cab173c", "lon": -77.02197933333333, "fusion_lat": 0.0, "rental_uris": {"android": "https://dc.lft.to/lastmile_qr_scan", "ios": "https://dc.lft.to/lastmile_qr_scan"}, "type": "electric_scooter"}, {"is_reserved": 0, "is_disabled": 0, "fusion_lon": 0.0, "lat": 38.921715166666665, "name": "e3c121c1459d742542359d88f07da81f", "bike_id": "e3c121c1459d742542359d88f07da81f", "lon": -77.036608, "fusion_lat": 0.0, "rental_uris": {"android": "https://dc.lft.to/lastmile_qr_scan", "ios": "https://dc.lft.to/lastmile_qr_scan"}, "type": "electric_scooter"}, {"is_reserved": 0, "is_disabled": 0, "fusion_lon": 0.0, "lat": 38.90194833333334, "name": "584c8e73983dac630cee01faedf4df1a", "bike_id": "584c8e73983dac630cee01faedf4df1a", "lon": -77.0125815, "fusion_lat": 0.0, "rental_uris": {"android": "https://dc.lft.to/lastmile_qr_scan", "ios": "https://dc.lft.to/lastmile_qr_scan"}, "type": "electric_scooter"}, {"is_reserved": 0, "is_disabled": 0, "fusion_lon": 0.0, "lat": 38.90413266666667, "name": "5dd3f0e27c25346c3c20767d99b2fc74", "bike_id": "5dd3f0e27c25346c3c20767d99b2fc74", "lon": -77.01876283333333, "fusion_lat": 0.0, "rental_uris": {"android": "https://dc.lft.to/lastmile_qr_scan", "ios": "https://dc.lft.to/lastmile_qr_scan"}, "type": "electric_scooter"}, {"is_reserved": 0, "is_disabled": 0, "fusion_lon": 0.0, "lat": 38.9196105, "name": "c0f2363e3251567684c206b6e993c461", "bike_id": "c0f2363e3251567684c206b6e993c461", "lon": -77.01436433333333, "fusion_lat": 0.0, "rental_uris": {"android": "https://dc.lft.to/lastmile_qr_scan", "ios": "https://dc.lft.to/lastmile_qr_scan"}, "type": "electric_scooter"}, {"is_reserved": 0, "is_disabled": 0, "fusion_lon": 0.0, "lat": 38.90164133333333, "name": "a1d137d5f0527ae447e23c52b035f442", "bike_id": "a1d137d5f0527ae447e23c52b035f442", "lon": -76.94991616666667, "fusion_lat": 0.0, "rental_uris": {"android": "https://dc.lft.to/lastmile_qr_scan", "ios": "https://dc.lft.to/lastmile_qr_scan"}, "type": "electric_scooter"}, {"is_reserved": 0, "is_disabled": 0, "fusion_lon": 0.0, "lat": 38.93594016666667, "name": "497704760d218e6abe39c4cf094511c2", "bike_id": "497704760d218e6abe39c4cf094511c2", "lon": -77.05846916666667, "fusion_lat": 0.0, "rental_uris": {"android": "https://dc.lft.to/lastmile_qr_scan", "ios": "https://dc.lft.to/lastmile_qr_scan"}, "type": "electric_scooter"}, {"is_reserved": 0, "is_disabled": 0, "fusion_lon": 0.0, "lat": 38.92658483333334, "name": "38b333522924268f8e5f32de6494b1c0", "bike_id": "38b333522924268f8e5f32de6494b1c0", "lon": -77.0902695, "fusion_lat": 0.0, "rental_uris": {"android": "https://dc.lft.to/lastmile_qr_scan", "ios": "https://dc.lft.to/lastmile_qr_scan"}, "type": "electric_bike"}, {"is_reserved": 0, "is_disabled": 0, "fusion_lon": 0.0, "lat": 38.921034, "name": "6acf96249da33c17eb38ddf9190d3c0e", "bike_id": "6acf96249da33c17eb38ddf9190d3c0e", "lon": -77.04385716666667, "fusion_lat": 0.0, "rental_uris": {"android": "https://dc.lft.to/lastmile_qr_scan", "ios": "https://dc.lft.to/lastmile_qr_scan"}, "type": "electric_scooter"}, {"is_reserved": 0, "is_disabled": 0, "fusion_lon": 0.0, "lat": 38.921456666666664, "name": "c522b1f4c5bdccd85bf888225b852609", "bike_id": "c522b1f4c5bdccd85bf888225b852609", "lon": -77.01796766666666, "fusion_lat": 0.0, "rental_uris": {"android": "https://dc.lft.to/lastmile_qr_scan", "ios": "https://dc.lft.to/lastmile_qr_scan"}, "type": "electric_scooter"}, {"is_reserved": 0, "is_disabled": 0, "fusion_lon": 0.0, "lat": 38.924433666666665, "name": "3aa152e07a659e28d1614a7967ca6559", "bike_id": "3aa152e07a659e28d1614a7967ca6559", "lon": -77.05229833333334, "fusion_lat": 0.0, "rental_uris": {"android": "https://dc.lft.to/lastmile_qr_scan", "ios": "https://dc.lft.to/lastmile_qr_scan"}, "type": "electric_scooter"}, {"is_reserved": 0, "is_disabled": 0, "fusion_lon": 0.0, "lat": 38.91994716666667, "name": "1eebb99eb0b78f810d1b969f887ddb6e", "bike_id": "1eebb99eb0b78f810d1b969f887ddb6e", "lon": -77.02381183333334, "fusion_lat": 0.0, "rental_uris": {"android": "https://dc.lft.to/lastmile_qr_scan", "ios": "https://dc.lft.to/lastmile_qr_scan"}, "type": "electric_scooter"}, {"is_reserved": 0, "is_disabled": 0, "fusion_lon": 0.0, "lat": 38.80736916666667, "name": "28be2ddd35284b31f87062dc23bec664", "bike_id": "28be2ddd35284b31f87062dc23bec664", "lon": -77.09693266666666, "fusion_lat": 0.0, "rental_uris": {"android": "https://dc.lft.to/lastmile_qr_scan", "ios": "https://dc.lft.to/lastmile_qr_scan"}, "type": "electric_bike"}, {"is_reserved": 0, "is_disabled": 0, "fusion_lon": 0.0, "lat": 38.88822433333333, "name": "561152654ab005511ddcdd78cdcee408", "bike_id": "561152654ab005511ddcdd78cdcee408", "lon": -76.9771105, "fusion_lat": 0.0, "rental_uris": {"android": "https://dc.lft.to/lastmile_qr_scan", "ios": "https://dc.lft.to/lastmile_qr_scan"}, "type": "electric_scooter"}, {"is_reserved": 0, "is_disabled": 0, "fusion_lon": 0.0, "lat": 38.8819195, "name": "6dfa64f6215aef814223650a69a04f32", "bike_id": "6dfa64f6215aef814223650a69a04f32", "lon": -77.02860266666667, "fusion_lat": 0.0, "rental_uris": {"android": "https://dc.lft.to/lastmile_qr_scan", "ios": "https://dc.lft.to/lastmile_qr_scan"}, "type": "electric_scooter"}, {"is_reserved": 0, "is_disabled": 0, "fusion_lon": 0.0, "lat": 38.89903133333333, "name": "9f5885360d92290a86b51dbbd7411802", "bike_id": "9f5885360d92290a86b51dbbd7411802", "lon": -77.04879366666667, "fusion_lat": 0.0, "rental_uris": {"android": "https://dc.lft.to/lastmile_qr_scan", "ios": "https://dc.lft.to/lastmile_qr_scan"}, "type": "electric_scooter"}, {"is_reserved": 0, "is_disabled": 0, "fusion_lon": 0.0, "lat": 38.891882333333335, "name": "d654ae19d8a5500c6145f460f9277888", "bike_id": "d654ae19d8a5500c6145f460f9277888", "lon": -77.03673266666667, "fusion_lat": 0.0, "rental_uris": {"android": "https://dc.lft.to/lastmile_qr_scan", "ios": "https://dc.lft.to/lastmile_qr_scan"}, "type": "electric_scooter"}, {"is_reserved": 0, "is_disabled": 0, "fusion_lon": 0.0, "lat": 38.924619666666665, "name": "f15cb0456f2aaf2aaa6e0efc580f24e3", "bike_id": "f15cb0456f2aaf2aaa6e0efc580f24e3", "lon": -77.02155866666666, "fusion_lat": 0.0, "rental_uris": {"android": "https://dc.lft.to/lastmile_qr_scan", "ios": "https://dc.lft.to/lastmile_qr_scan"}, "type": "electric_scooter"}, {"is_reserved": 0, "is_disabled": 0, "fusion_lon": 0.0, "lat": 38.933579, "name": "5bac55009925296554f126337f9c52cb", "bike_id": "5bac55009925296554f126337f9c52cb", "lon": -77.0241175, "fusion_lat": 0.0, "rental_uris": {"android": "https://dc.lft.to/lastmile_qr_scan", "ios": "https://dc.lft.to/lastmile_qr_scan"}, "type": "electric_scooter"}, {"is_reserved": 0, "is_disabled": 0, "fusion_lon": 0.0, "lat": 38.93146216666667, "name": "12f257e6efdb12c0af1579b09fdea783", "bike_id": "12f257e6efdb12c0af1579b09fdea783", "lon": -77.05700533333334, "fusion_lat": 0.0, "rental_uris": {"android": "https://dc.lft.to/lastmile_qr_scan", "ios": "https://dc.lft.to/lastmile_qr_scan"}, "type": "electric_scooter"}, {"is_reserved": 0, "is_disabled": 0, "fusion_lon": 0.0, "lat": 38.925072666666665, "name": "c62120d44588c681bd75feaaea22ced7", "bike_id": "c62120d44588c681bd75feaaea22ced7", "lon": -77.02576816666667, "fusion_lat": 0.0, "rental_uris": {"android": "https://dc.lft.to/lastmile_qr_scan", "ios": "https://dc.lft.to/lastmile_qr_scan"}, "type": "electric_scooter"}, {"is_reserved": 0, "is_disabled": 0, "fusion_lon": 0.0, "lat": 38.92346, "name": "a175f09b82b04d3116bd9fede39d32f8", "bike_id": "a175f09b82b04d3116bd9fede39d32f8", "lon": -77.03414216666667, "fusion_lat": 0.0, "rental_uris": {"android": "https://dc.lft.to/lastmile_qr_scan", "ios": "https://dc.lft.to/lastmile_qr_scan"}, "type": "electric_scooter"}, {"is_reserved": 0, "is_disabled": 0, "fusion_lon": 0.0, "lat": 38.915194, "name": "8985c5b72031096ba5e80a82afd127ea", "bike_id": "8985c5b72031096ba5e80a82afd127ea", "lon": -77.01225783333334, "fusion_lat": 0.0, "rental_uris": {"android": "https://dc.lft.to/lastmile_qr_scan", "ios": "https://dc.lft.to/lastmile_qr_scan"}, "type": "electric_bike"}, {"is_reserved": 0, "is_disabled": 0, "fusion_lon": 0.0, "lat": 38.911105666666664, "name": "7b7c1f21aef884ea238861d5015d5782", "bike_id": "7b7c1f21aef884ea238861d5015d5782", "lon": -77.0386535, "fusion_lat": 0.0, "rental_uris": {"android": "https://dc.lft.to/lastmile_qr_scan", "ios": "https://dc.lft.to/lastmile_qr_scan"}, "type": "electric_scooter"}, {"is_reserved": 0, "is_disabled": 0, "fusion_lon": 0.0, "lat": 38.943895499999996, "name": "327cf200b60d6b4607695e756d870921", "bike_id": "327cf200b60d6b4607695e756d870921", "lon": -77.063662, "fusion_lat": 0.0, "rental_uris": {"android": "https://dc.lft.to/lastmile_qr_scan", "ios": "https://dc.lft.to/lastmile_qr_scan"}, "type": "electric_scooter"}, {"is_reserved": 0, "is_disabled": 0, "fusion_lon": 0.0, "lat": 38.926069166666665, "name": "6b5b018cd68e72d966ce07b3d2bcc4cd", "bike_id": "6b5b018cd68e72d966ce07b3d2bcc4cd", "lon": -76.98204983333333, "fusion_lat": 0.0, "rental_uris": {"android": "https://dc.lft.to/lastmile_qr_scan", "ios": "https://dc.lft.to/lastmile_qr_scan"}, "type": "electric_scooter"}, {"is_reserved": 0, "is_disabled": 0, "fusion_lon": 0.0, "lat": 38.922400833333334, "name": "0d1b5a246df4db5c93acb13fd1a1731e", "bike_id": "0d1b5a246df4db5c93acb13fd1a1731e", "lon": -77.02125666666667, "fusion_lat": 0.0, "rental_uris": {"android": "https://dc.lft.to/lastmile_qr_scan", "ios": "https://dc.lft.to/lastmile_qr_scan"}, "type": "electric_scooter"}, {"is_reserved": 0, "is_disabled": 0, "fusion_lon": 0.0, "lat": 38.90121633333333, "name": "16588d8660e649e07a16e005931f7f5a", "bike_id": "16588d8660e649e07a16e005931f7f5a", "lon": -77.017459, "fusion_lat": 0.0, "rental_uris": {"android": "https://dc.lft.to/lastmile_qr_scan", "ios": "https://dc.lft.to/lastmile_qr_scan"}, "type": "electric_scooter"}, {"is_reserved": 0, "is_disabled": 0, "fusion_lon": 0.0, "lat": 38.9261265, "name": "22c95436e4bd696bafa00dd7c0f2c4b6", "bike_id": "22c95436e4bd696bafa00dd7c0f2c4b6", "lon": -77.021639, "fusion_lat": 0.0, "rental_uris": {"android": "https://dc.lft.to/lastmile_qr_scan", "ios": "https://dc.lft.to/lastmile_qr_scan"}, "type": "electric_scooter"}, {"is_reserved": 0, "is_disabled": 0, "fusion_lon": 0.0, "lat": 38.934894166666666, "name": "d8c022cab0f0336b91681b96a21aff01", "bike_id": "d8c022cab0f0336b91681b96a21aff01", "lon": -77.02980983333333, "fusion_lat": 0.0, "rental_uris": {"android": "https://dc.lft.to/lastmile_qr_scan", "ios": "https://dc.lft.to/lastmile_qr_scan"}, "type": "electric_scooter"}, {"is_reserved": 0, "is_disabled": 0, "fusion_lon": 0.0, "lat": 38.92251783333333, "name": "daf0c1a842c0af7d79eebe8e324d4a9f", "bike_id": "daf0c1a842c0af7d79eebe8e324d4a9f", "lon": -77.04367733333333, "fusion_lat": 0.0, "rental_uris": {"android": "https://dc.lft.to/lastmile_qr_scan", "ios": "https://dc.lft.to/lastmile_qr_scan"}, "type": "electric_scooter"},