{"data": {"bikes": [{"fusion_lat": 0.0, "name": "bf7b29bcdc488ae7dd17e656f21e671f", "is_disabled": 0, "rental_uris": {"android": "https://dc.lft.to/lastmile_qr_scan", "ios": "https://dc.lft.to/lastmile_qr_scan"}, "fusion_lon": 0.0, "lat": 38.90257033333334, "bike_id": "bf7b29bcdc488ae7dd17e656f21e671f", "type": "electric_scooter", "is_reserved": 0, "lon": -77.03365333333333}, {"fusion_lat": 0.0, "name": "197a284c211f1e72f453f9cf08f8d61a", "is_disabled": 0, "rental_uris": {"android": "https://dc.lft.to/lastmile_qr_scan", "ios": "https://dc.lft.to/lastmile_qr_scan"}, "fusion_lon": 0.0, "lat": 38.90206216666667, "bike_id": "197a284c211f1e72f453f9cf08f8d61a", "type": "electric_scooter", "is_reserved": 0, "lon": -77.03178033333333}, {"fusion_lat": 0.0, "name": "d00f3a3b6d46028899136066dee164d5", "is_disabled": 0, "rental_uris": {"android": "https://dc.lft.to/lastmile_qr_scan", "ios": "https://dc.lft.to/lastmile_qr_scan"}, "fusion_lon": 0.0, "lat": 38.90092416666667, "bike_id": "d00f3a3b6d46028899136066dee164d5", "type": "electric_scooter", "is_reserved": 0, "lon": -77.05700816666666}, {"fusion_lat": 0.0, "name": "d22daac660883b83bcac093b1f6cb244", "is_disabled": 0, "rental_uris": {"android": "https://dc.lft.to/lastmile_qr_scan", "ios": "https://dc.lft.to/lastmile_qr_scan"}, "fusion_lon": 0.0, "lat": 38.884993333333334, "bike_id": "d22daac660883b83bcac093b1f6cb244", "type": "electric_scooter", "is_reserved": 0, "lon": -77.00893766666667}, {"fusion_lat": 0.0, "name": "49541c75a2b0c761e1e02a6558818f17", "is_disabled": 0, "rental_uris": {"android": "https://dc.lft.to/lastmile_qr_scan", "ios": "https://dc.lft.to/lastmile_qr_scan"}, "fusion_lon": 0.0, "lat": 38.9067635, "bike_id": "49541c75a2b0c761e1e02a6558818f17", "type": "electric_scooter", "is_reserved": 0, "lon": -77.036387}, {"fusion_lat": 0.0, "name": "51de49e92db43f65e3773631fc3e4709", "is_disabled": 0, "rental_uris": {"android": "https://dc.lft.to/lastmile_qr_scan", "ios": "https://dc.lft.to/lastmile_qr_scan"}, "fusion_lon": 0.0, "lat": 38.911054666666665, "bike_id": "51de49e92db43f65e3773631fc3e4709", "type": "electric_scooter", "is_reserved": 0, "lon": -77.04199583333333}, {"fusion_lat": 0.0, "name": "663a32842e22f7741bbcbb3f0c875126", "is_disabled": 0, "rental_uris": {"android": "https://dc.lft.to/lastmile_qr_scan", "ios": "https://dc.lft.to/lastmile_qr_scan"}, "fusion_lon": 0.0, "lat": 38.896669, "bike_id": "663a32842e22f7741bbcbb3f0c875126", "type": "electric_scooter", "is_reserved": 0, "lon": -76.932088}, {"fusion_lat": 0.0, "name": "e8830858b4f2b3692cc0e95d165b6f8d", "is_disabled": 0, "rental_uris": {"android": "https://dc.lft.to/lastmile_qr_scan", "ios": "https://dc.lft.to/lastmile_qr_scan"}, "fusion_lon": 0.0, "lat": 38.92384116666667, "bike_id": "e8830858b4f2b3692cc0e95d165b6f8d", "type": "electric_scooter", "is_reserved": 0, "lon": -77.02738483333333}, {"fusion_lat": 0.0, "name": "885a84cd2074b623023bca51a6aca254", "is_disabled": 0, "rental_uris": {"android": "https://dc.lft.to/lastmile_qr_scan", "ios": "https://dc.lft.to/lastmile_qr_scan"}, "fusion_lon": 0.0, "lat": 38.9326115, "bike_id": "885a84cd2074b623023bca51a6aca254", "type": "electric_scooter", "is_reserved": 0, "lon": -77.01921583333333}, {"fusion_lat": 0.0, "name": "6e1580c827958a076195f734cad6ad86", "is_disabled": 0, "rental_uris": {"android": "https://dc.lft.to/lastmile_qr_scan", "ios": "https://dc.lft.to/lastmile_qr_scan"}, "fusion_lon": 0.0, "lat": 38.92485416666667, "bike_id": "6e1580c827958a076195f734cad6ad86", "type": "electric_bike", "is_reserved": 0, "lon": -77.233532}, {"fusion_lat": 0.0, "name": "bdc64ca87d079267d467b34d7e6267ce", "is_disabled": 0, "rental_uris": {"android": "https://dc.lft.to/lastmile_qr_scan", "ios": "https://dc.lft.to/lastmile_qr_scan"}, "fusion_lon": 0.0, "lat": 38.912698166666665, "bike_id": "bdc64ca87d079267d467b34d7e6267ce", "type": "electric_scooter", "is_reserved": 0, "lon": -77.0319205}, {"fusion_lat": 0.0, "name": "0e338090aef3896c97e21e63e8f10b9b", "is_disabled": 0, "rental_uris": {"android": "https://dc.lft.to/lastmile_qr_scan", "ios": "https://dc.lft.to/lastmile_qr_scan"}, "fusion_lon": 0.0, "lat": 38.931700166666666, "bike_id": "0e338090aef3896c97e21e63e8f10b9b", "type": "electric_scooter", "is_reserved": 0, "lon": -77.05646766666666}, {"fusion_lat": 0.0, "name": "fe2af71e070257198138b24760af2d96", "is_disabled": 0, "rental_uris": {"android": "https://dc.lft.to/lastmile_qr_scan", "ios": "https://dc.lft.to/lastmile_qr_scan"}, "fusion_lon": 0.0, "lat": 38.9069535, "bike_id": "fe2af71e070257198138b24760af2d96", "type": "electric_scooter", "is_reserved": 0, "lon": -77.07173383333334}, {"fusion_lat": 0.0, "name": "a55268bd84158551ee56e300cb795600", "is_disabled": 0, "rental_uris": {"android": "https://dc.lft.to/lastmile_qr_scan", "ios": "https://dc.lft.to/lastmile_qr_scan"}, "fusion_lon": 0.0, "lat": 38.91096, "bike_id": "a55268bd84158551ee56e300cb795600", "type": "electric_scooter", "is_reserved": 0, "lon": -77.044484}, {"fusion_lat": 0.0, "name": "08285e7e65f305af37ee059e316d6d2c", "is_disabled": 0, "rental_uris": {"android": "https://dc.lft.to/lastmile_qr_scan", "ios": "https://dc.lft.to/lastmile_qr_scan"}, "fusion_lon": 0.0, "lat": 38.88403866666667, "bike_id": "08285e7e65f305af37ee059e316d6d2c", "type": "electric_scooter", "is_reserved": 0, "lon": -77.008368}, {"fusion_lat": 0.0, "name": "6089a1e05b724e232263557960b454f6", "is_disabled": 0, "rental_uris": {"android": "https://dc.lft.to/lastmile_qr_scan", "ios": "https://dc.lft.to/lastmile_qr_scan"}, "fusion_lon": 0.0, "lat": 38.9126295, "bike_id": "6089a1e05b724e232263557960b454f6", "type": "electric_scooter", "is_reserved": 0, "lon": -77.03661983333333}, {"fusion_lat": 0.0, "name": "9ce257d4bcc1c5bc32b0e23517426867", "is_disabled": 0, "rental_uris": {"android": "https://dc.lft.to/lastmile_qr_scan", "ios": "https://dc.lft.to/lastmile_qr_scan"}, "fusion_lon": 0.0, "lat": 38.90393383333333, "bike_id": "9ce257d4bcc1c5bc32b0e23517426867", "type": "electric_scooter", "is_reserved": 0, "lon": -77.06295633333333}, {"fusion_lat": 0.0, "name": "99b787fc1c2bb06872a4d191f04c084e", "is_disabled": 0, "rental_uris": {"android": "https://dc.lft.to/lastmile_qr_scan", "ios": "https://dc.lft.to/lastmile_qr_scan"}, "fusion_lon": 0.0, "lat": 38.894502833333334, "bike_id": "99b787fc1c2bb06872a4d191f04c084e", "type": "electric_scooter", "is_reserved": 0, "lon": -77.02715566666667}, {"fusion_lat": 0.0, "name": "39c5ab6ca2e7aeff2915b1e80a52b1ab", "is_disabled": 0, "rental_uris": {"android": "https://dc.lft.to/lastmile_qr_scan", "ios": "https://dc.lft.to/lastmile_qr_scan"}, "fusion_lon": 0.0, "lat": 38.9228755, "bike_id": "39c5ab6ca2e7aeff2915b1e80a52b1ab", "type": "electric_scooter", "is_reserved": 0, "lon": -77.02960983333334}, {"fusion_lat": 0.0, "name": "aec77bcfccacb688f5db94627e06441b", "is_disabled": 0, "rental_uris": {"android": "https://dc.lft.to/lastmile_qr_scan", "ios": "https://dc.lft.to/lastmile_qr_scan"}, "fusion_lon": 0.0, "lat": 38.90455216666667, "bike_id": "aec77bcfccacb688f5db94627e06441b", "type": "electric_scooter", "is_reserved": 0, "lon": -77.04877833333333}, {"fusion_lat": 0.0, "name": "50c31db6989fbd79c2da292295030156", "is_disabled": 0, "rental_uris": {"android": "https://dc.lft.to/lastmile_qr_scan", "ios": "https://dc.lft.to/lastmile_qr_scan"}, "fusion_lon": 0.0, "lat": 38.903485833333335, "bike_id": "50c31db6989fbd79c2da292295030156", "type": "electric_scooter", "is_reserved": 0, "lon": -76.9747835}, {"fusion_lat": 0.0, "name": "019b07fcfb0b56501042af65b4bdefee", "is_disabled": 0, "rental_uris": {"android": "https://dc.lft.to/lastmile_qr_scan", "ios": "https://dc.lft.to/lastmile_qr_scan"}, "fusion_lon": 0.0, "lat": 38.92527916666667, "bike_id": "019b07fcfb0b56501042af65b4bdefee", "type": "electric_scooter", "is_reserved": 0, "lon": -77.04112316666667}, {"fusion_lat": 0.0, "name": "fb342e2c8491444cdb4a6974c3ce098d", "is_disabled": 0, "rental_uris": {"android": "https://dc.lft.to/lastmile_qr_scan", "ios": "https://dc.lft.to/lastmile_qr_scan"}, "fusion_lon": 0.0, "lat": 38.90745016666666, "bike_id": "fb342e2c8491444cdb4a6974c3ce098d", "type": "electric_scooter", "is_reserved": 0, "lon": -77.04189033333333}, {"fusion_lat": 0.0, "name": "8afc66e409135903c85d892f56ac23c5", "is_disabled": 0, "rental_uris": {"android": "https://dc.lft.to/lastmile_qr_scan", "ios": "https://dc.lft.to/lastmile_qr_scan"}, "fusion_lon": 0.0, "lat": 38.9736345, "bike_id": "8afc66e409135903c85d892f56ac23c5", "type": "electric_scooter", "is_reserved": 0, "lon": -77.01295916666666}, {"fusion_lat": 0.0, "name": "e391cecb0f64fbd5930b661d9e38ecf3", "is_disabled": 0, "rental_uris": {"android": "https://dc.lft.to/lastmile_qr_scan", "ios": "https://dc.lft.to/lastmile_qr_scan"}, "fusion_lon": 0.0, "lat": 38.912059166666666, "bike_id": "e391cecb0f64fbd5930b661d9e38ecf3", "type": "electric_scooter", "is_reserved": 0, "lon": -77.031808}, {"fusion_lat": 0.0, "name": "344267e4bd266ba521c54ba341518adc", "is_disabled": 0, "rental_uris": {"android": "https://dc.lft.to/lastmile_qr_scan", "ios": "https://dc.lft.to/lastmile_qr_scan"}, "fusion_lon": 0.0, "lat": 38.90311066666666, "bike_id": "344267e4bd266ba521c54ba341518adc", "type": "electric_scooter", "is_reserved": 0, "lon": -76.97801616666666}, {"fusion_lat": 0.0, "name": "0b483fa9500c307e70035e39dba7bc15", "is_disabled": 0, "rental_uris": {"android": "https://dc.lft.to/lastmile_qr_scan", "ios": "https://dc.lft.to/lastmile_qr_scan"}, "fusion_lon": 0.0, "lat": 38.922918, "bike_id": "0b483fa9500c307e70035e39dba7bc15", "type": "electric_scooter", "is_reserved": 0, "lon": -77.042091}, {"fusion_lat": 0.0, "name": "d108f5fb3631822b2d42b4b015a0bcec", "is_disabled": 0, "rental_uris": {"android": "https://dc.lft.to/lastmile_qr_scan", "ios": "https://dc.lft.to/lastmile_qr_scan"}, "fusion_lon": 0.0, "lat": 38.897609833333334, "bike_id": "d108f5fb3631822b2d42b4b015a0bcec", "type": "electric_scooter", "is_reserved": 0, "lon": -77.00193366666667}, {"fusion_lat": 0.0, "name": "0c5a3309c1b5df3ad57df5ae12fcee9c", "is_disabled": 0, "rental_uris": {"android": "https://dc.lft.to/lastmile_qr_scan", "ios": "https://dc.lft.to/lastmile_qr_scan"}, "fusion_lon": 0.0, "lat": 38.9073065, "bike_id": "0c5a3309c1b5df3ad57df5ae12fcee9c", "type": "electric_scooter", "is_reserved": 0, "lon": -77.04344083333334}, {"fusion_lat": 0.0, "name": "d12e5523d600db0e6616770c31192589", "is_disabled": 0, "rental_uris": {"android": "https://dc.lft.to/lastmile_qr_scan", "ios": "https://dc.lft.to/lastmile_qr_scan"}, "fusion_lon": 0.0, "lat": 38.91924133333333, "bike_id": "d12e5523d600db0e6616770c31192589", "type": "electric_scooter", "is_reserved": 0, "lon": -77.026604}, {"fusion_lat": 0.0, "name": "3db02e94fb6f0aa578eebeecc1fd3eb2", "is_disabled": 0, "rental_uris": {"android": "https://dc.lft.to/lastmile_qr_scan", "ios": "https://dc.lft.to/lastmile_qr_scan"}, "fusion_lon": 0.0, "lat": 38.9003935, "bike_id": "3db02e94fb6f0aa578eebeecc1fd3eb2", "type": "electric_scooter", "is_reserved": 0, "lon": -77.01624}, {"fusion_lat": 0.0, "name": "cdad6c8c410b45c98e545272b0d9beb5", "is_disabled": 0, "rental_uris": {"android": "https://dc.lft.to/lastmile_qr_scan", "ios": "https://dc.lft.to/lastmile_qr_scan"}, "fusion_lon": 0.0, "lat": 38.910133, "bike_id": "cdad6c8c410b45c98e545272b0d9beb5", "type": "electric_scooter", "is_reserved": 0, "lon": -77.05279516666667}, {"fusion_lat": 0.0, "name": "b0bf8ecb051b566f85ba04a6b7302118", "is_disabled": 0, "rental_uris": {"android": "https://dc.lft.to/lastmile_qr_scan", "ios": "https://dc.lft.to/lastmile_qr_scan"}, "fusion_lon": 0.0, "lat": 38.883908166666664, "bike_id": "b0bf8ecb051b566f85ba04a6b7302118", "type": "electric_scooter", "is_reserved": 0, "lon": -76.9304285}, {"fusion_lat": 0.0, "name": "72237afdd0db932740a0f00766e700cf", "is_disabled": 0, "rental_uris": {"android": "https://dc.lft.to/lastmile_qr_scan", "ios": "https://dc.lft.to/lastmile_qr_scan"}, "fusion_lon": 0.0, "lat": 38.93030366666667, "bike_id": "72237afdd0db932740a0f00766e700cf", "type": "electric_scooter", "is_reserved": 0, "lon": -77.03787}, {"fusion_lat": 0.0, "name": "c01aff4f82a575a966031b49bc33ee30", "is_disabled": 0, "rental_uris": {"android": "https://dc.lft.to/lastmile_qr_scan", "ios": "https://dc.lft.to/lastmile_qr_scan"}, "fusion_lon": 0.0, "lat": 38.883666, "bike_id": "c01aff4f82a575a966031b49bc33ee30", "type": "electric_scooter", "is_reserved": 0, "lon": -77.01361616666667}, {"fusion_lat": 0.0, "name": "cb6b68589510f245b99fe1160c352256", "is_disabled": 0, "rental_uris": {"android": "https://dc.lft.to/lastmile_qr_scan", "ios": "https://dc.lft.to/lastmile_qr_scan"}, "fusion_lon": 0.0, "lat": 38.90700916666667, "bike_id": "cb6b68589510f245b99fe1160c352256", "type": "electric_scooter", "is_reserved": 0, "lon": -77.071725}, {"fusion_lat": 0.0, "name": "6afa7d506384ab0609f41c309ca3dc47", "is_disabled": 0, "rental_uris": {"android": "https://dc.lft.to/lastmile_qr_scan", "ios": "https://dc.lft.to/lastmile_qr_scan"}, "fusion_lon": 0.0, "lat": 38.89500533333333, "bike_id": "6afa7d506384ab0609f41c309ca3dc47", "type": "electric_scooter", "is_reserved": 0, "lon": -77.00331833333334}, {"fusion_lat": 0.0, "name": "fb8aabe67ad8ecfb8993d7675555ec7e", "is_disabled": 0, "rental_uris": {"android": "https://dc.lft.to/lastmile_qr_scan", "ios": "https://dc.lft.to/lastmile_qr_scan"}, "fusion_lon": 0.0, "lat": 38.9009115, "bike_id": "fb8aabe67ad8ecfb8993d7675555ec7e", "type": "electric_scooter", "is_reserved": 0, "lon": -76.98331983333334}, {"fusion_lat": 0.0, "name": "f311c4f95ba7d9f1a79fb264e5326f09", "is_disabled": 0, "rental_uris": {"android": "https://dc.lft.to/lastmile_qr_scan", "ios": "https://dc.lft.to/lastmile_qr_scan"}, "fusion_lon": 0.0, "lat": 38.90584466666667, "bike_id": "f311c4f95ba7d9f1a79fb264e5326f09", "type": "electric_scooter", "is_reserved": 0, "lon": -77.04271616666666}, {"fusion_lat": 0.0, "name": "7cb3f2a5eddfa5f50cc0cc6eb9fc9048", "is_disabled": 0, "rental_uris": {"android": "https://dc.lft.to/lastmile_qr_scan", "ios": "https://dc.lft.to/lastmile_qr_scan"}, "fusion_lon": 0.0, "lat": 38.920841, "bike_id": "7cb3f2a5eddfa5f50cc0cc6eb9fc9048", "type": "electric_scooter", "is_reserved": 0, "lon": -77.0139915}, {"fusion_lat": 0.0, "name": "df580a5a03679f2feb35ded8c60ac00b", "is_disabled": 0, "rental_uris": {"android": "https://dc.lft.to/lastmile_qr_scan", "ios": "https://dc.lft.to/lastmile_qr_scan"}, "fusion_lon": 0.0, "lat": 38.901279333333335, "bike_id": "df580a5a03679f2feb35ded8c60ac00b", "type": "electric_scooter", "is_reserved": 0, "lon": -77.04158183333334}, {"fusion_lat": 0.0, "name": "b330f240cbb085481ecf9d2fe8a0b467", "is_disabled": 0, "rental_uris": {"android": "https://dc.lft.to/lastmile_qr_scan", "ios": "https://dc.lft.to/lastmile_qr_scan"}, "fusion_lon": 0.0, "lat": 38.93471916666667, "bike_id": "b330f240cbb085481ecf9d2fe8a0b467", "type": "electric_scooter", "is_reserved": 0, "lon": -77.07211316666667}, {"fusion_lat": 0.0, "name": "b4bb26cffa9edae1d969a5a4a584574a", "is_disabled": 0, "rental_uris": {"android": "https://dc.lft.to/lastmile_qr_scan", "ios": "https://dc.lft.to/lastmile_qr_scan"}, "fusion_lon": 0.0, "lat": 38.929932666666666, "bike_id": "b4bb26cffa9edae1d969a5a4a584574a", "type": "electric_scooter", "is_reserved": 0, "lon": -77.03800483333333}, {"fusion_lat": 0.0, "name": "e5bcfa237806ac75f85392937549cbeb", "is_disabled": 0, "rental_uris": {"android": "https://dc.lft.to/lastmile_qr_scan", "ios": "https://dc.lft.to/lastmile_qr_scan"}, "fusion_lon": 0.0, "lat": 38.908024166666664, "bike_id": "e5bcfa237806ac75f85392937549cbeb", "type": "electric_scooter", "is_reserved": 0, "lon": -77.0432695}, {"fusion_lat": 0.0, "name": "da8e34c0b4b12436f34bd0b3da135ca8", "is_disabled": 0, "rental_uris": {"android": "https://dc.lft.to/lastmile_qr_scan", "ios": "https://dc.lft.to/lastmile_qr_scan"}, "fusion_lon": 0.0, "lat": 38.93078966666667, "bike_id": "da8e34c0b4b12436f34bd0b3da135ca8", "type": "electric_scooter", "is_reserved": 0, "lon": -77.03162083333333}, {"fusion_lat": 0.0, "name": "85b3bc483bae6d99750ded7a5b84de08", "is_disabled": 0, "rental_uris": {"android": "https://dc.lft.to/lastmile_qr_scan", "ios": "https://dc.lft.to/lastmile_qr_scan"}, "fusion_lon": 0.0, "lat": 38.884225666666666, "bike_id": "85b3bc483bae6d99750ded7a5b84de08", "type": "electric_scooter", "is_reserved": 0, "lon": -77.02981916666667}, {"fusion_lat": 0.0, "name": "78df8a820c8ee1d71bcae80e1b618700", "is_disabled": 0, "rental_uris": {"android": "https://dc.lft.to/lastmile_qr_scan", "ios": "https://dc.lft.to/lastmile_qr_scan"}, "fusion_lon": 0.0, "lat": 38.91542283333333, "bike_id": "78df8a820c8ee1d71bcae80e1b618700", "type": "electric_scooter", "is_reserved": 0, "lon": -77.03201233333333}, {"fusion_lat": 0.0, "name": "fdd7f5f46528a827a02980e5ecd7cc9f", "is_disabled": 0, "rental_uris": {"android": "https://dc.lft.to/lastmile_qr_scan", "ios": "https://dc.lft.to/lastmile_qr_scan"}, "fusion_lon": 0.0, "lat": 38.895764, "bike_id": "fdd7f5f46528a827a02980e5ecd7cc9f", "type": "electric_scooter", "is_reserved": 0, "lon": -77.02305033333333}, {"fusion_lat": 0.0, "name": "36eaadd9461fc83e299e2e7066f41419", "is_disabled": 0, "rental_uris": {"android": "https://dc.lft.to/lastmile_qr_scan", "ios": "https://dc.lft.to/lastmile_qr_scan"}, "fusion_lon": 0.0, "lat": 38.90667083333334, "bike_id": "36eaadd9461fc83e299e2e7066f41419", "type": "electric_scooter", "is_reserved": 0, "lon": -77.03858516666666}, {"fusion_lat": 0.0, "name": "c483119887e86efc23c01dd90cbc355b", "is_disabled": 0, "rental_uris": {"android": "https://dc.lft.to/lastmile_qr_scan", "ios": "https://dc.lft.to/lastmile_qr_scan"}, "fusion_lon": 0.0, "lat": 38.90258466666667, "bike_id": "c483119887e86efc23c01dd90cbc355b", "type": "electric_scooter", "is_reserved": 0, "lon": -77.018476}, {"fusion_lat": 0.0, "name": "b253e93321834102410159049d160a73", "is_disabled": 0, "rental_uris": {"android": "https://dc.lft.to/lastmile_qr_scan", "ios": "https://dc.lft.to/lastmile_qr_scan"}, "fusion_lon": 0.0, "lat": 38.88743216666667, "bike_id": "b253e93321834102410159049d160a73", "type": "electric_scooter", "is_reserved": 0, "lon": -76.99848633333333}, {"fusion_lat": 0.0, "name": "1939f30dbb00bc573f31e76d5179f5fa", "is_disabled": 0, "rental_uris": {"android": "https://dc.lft.to/lastmile_qr_scan", "ios": "https://dc.lft.to/lastmile_qr_scan"}, "fusion_lon": 0.0, "lat": 38.9212545, "bike_id": "1939f30dbb00bc573f31e76d5179f5fa", "type": "electric_scooter", "is_reserved": 0, "lon": -77.04428633333333}, {"fusion_lat": 0.0, "name": "f9cebed8076cc25430375fc7efde7aad", "is_disabled": 0, "rental_uris": {"android": "https://dc.lft.to/lastmile_qr_scan", "ios": "https://dc.lft.to/lastmile_qr_scan"}, "fusion_lon": 0.0, "lat": 38.833626833333334, "bike_id": "f9cebed8076cc25430375fc7efde7aad", "type": "electric_bike", "is_reserved": 0, "lon": -77.00301116666667}, {"fusion_lat": 0.0, "name": "c54461c604a4d9cf4042799a7016e5ce", "is_disabled": 0, "rental_uris": {"android": "https://dc.lft.to/lastmile_qr_scan", "ios": "https://dc.lft.to/lastmile_qr_scan"}, "fusion_lon": 0.0, "lat": 38.92178633333333, "bike_id": "c54461c604a4d9cf4042799a7016e5ce", "type": "electric_scooter", "is_reserved": 0, "lon": -77.02664366666667}, {"fusion_lat": 0.0, "name": "ca1336a32c1e2f2717d76c2987eaa11a", "is_disabled": 0, "rental_uris": {"android": "https://dc.lft.to/lastmile_qr_scan", "ios": "https://dc.lft.to/lastmile_qr_scan"}, "fusion_lon": 0.0, "lat": 38.9043895, "bike_id": "ca1336a32c1e2f2717d76c2987eaa11a", "type": "electric_scooter", "is_reserved": 0, "lon": -76.97948683333334}, {"fusion_lat": 0.0, "name": "8a3fdd5084cb8f2fd9212f5d03bff0d1", "is_disabled": 0, "rental_uris": {"android": "https://dc.lft.to/lastmile_qr_scan", "ios": "https://dc.lft.to/lastmile_qr_scan"}, "fusion_lon": 0.0, "lat": 38.903909, "bike_id": "8a3fdd5084cb8f2fd9212f5d03bff0d1", "type": "electric_scooter", "is_reserved": 0, "lon": -77.03414466666666}, {"fusion_lat": 0.0, "name": "e8eb3cc47d19ccdd4d0bfd406dfa4dc6", "is_disabled": 0, "rental_uris": {"android": "https://dc.lft.to/lastmile_qr_scan", "ios": "https://dc.lft.to/lastmile_qr_scan"}, "fusion_lon": 0.0, "lat": 38.87637483333334, "bike_id": "e8eb3cc47d19ccdd4d0bfd406dfa4dc6", "type": "electric_scooter", "is_reserved": 0, "lon": -77.00919866666666}, {"fusion_lat": 0.0, "name": "620d525217614582f35ceb47c373622a", "is_disabled": 0, "rental_uris": {"android": "https://dc.lft.to/lastmile_qr_scan", "ios": "https://dc.lft.to/lastmile_qr_scan"}, "fusion_lon": 0.0, "lat": 38.9298905, "bike_id": "620d525217614582f35ceb47c373622a", "type": "electric_scooter", "is_reserved": 0, "lon": -77.03470433333334}, {"fusion_lat": 0.0, "name": "65d66e5cfa97c9b6dc4d71b1798938d2", "is_disabled": 0, "rental_uris": {"android": "https://dc.lft.to/lastmile_qr_scan", "ios": "https://dc.lft.to/lastmile_qr_scan"}, "fusion_lon": 0.0, "lat": 38.9039495, "bike_id": "65d66e5cfa97c9b6dc4d71b1798938d2", "type": "electric_scooter", "is_reserved": 0, "lon": -77.038384}, {"fusion_lat": 0.0, "name": "fd2fc128dddbf71f9c777ab7729a5379", "is_disabled": 0, "rental_uris": {"android": "https://dc.lft.to/lastmile_qr_scan", "ios": "https://dc.lft.to/lastmile_qr_scan"}, "fusion_lon": 0.0, "lat": 38.89655033333333, "bike_id": "fd2fc128dddbf71f9c777ab7729a5379", "type": "electric_scooter", "is_reserved": 0, "lon": -77.02502766666667}, {"fusion_lat": 0.0, "name": "a8f16e6bf72b5304565192ef4424231e", "is_disabled": 0, "rental_uris": {"android": "https://dc.lft.to/lastmile_qr_scan", "ios": "https://dc.lft.to/lastmile_qr_scan"}, "fusion_lon": 0.0, "lat": 38.88364716666667, "bike_id": "a8f16e6bf72b5304565192ef4424231e", "type": "electric_scooter", "is_reserved": 0, "lon": -76.94154883333333}, {"fusion_lat": 0.0, "name": "6d3bc1c185fdbec0e48d166728ba5fed", "is_disabled": 0, "rental_uris": {"android": "https://dc.lft.to/lastmile_qr_scan", "ios": "https://dc.lft.to/lastmile_qr_scan"}, "fusion_lon": 0.0, "lat": 38.92341833333333, "bike_id": "6d3bc1c185fdbec0e48d166728ba5fed", "type": "electric_scooter", "is_reserved": 0, "lon": -77.05230983333334}, {"fusion_lat": 0.0, "name": "c65c8ee397d9c4e07f3b084df41bbdfe", "is_disabled": 0, "rental_uris": {"android": "https://dc.lft.to/lastmile_qr_scan", "ios": "https://dc.lft.to/lastmile_qr_scan"}, "fusion_lon": 0.0, "lat": 38.9158045, "bike_id": "c65c8ee397d9c4e07f3b084df41bbdfe", "type": "electric_scooter", "is_reserved": 0, "lon": -76.9839385}, {"fusion_lat": 0.0, "name": "2da8ef4da07d353a9af37805b4cd47fe", "is_disabled": 0, "rental_uris": {"android": "https://dc.lft.to/lastmile_qr_scan", "ios": "https://dc.lft.to/lastmile_qr_scan"}, "fusion_lon": 0.0, "lat": 38.90157266666667, "bike_id": "2da8ef4da07d353a9af37805b4cd47fe", "type": "electric_scooter", "is_reserved": 0, "lon": -77.05915266666666}, {"fusion_lat": 0.0, "name": "5e7010a1c9bfbd07e39af9aef0fb924d", "is_disabled": 0, "rental_uris": {"android": "https://dc.lft.to/lastmile_qr_scan", "ios": "https://dc.lft.to/lastmile_qr_scan"}, "fusion_lon": 0.0, "lat": 38.91708783333333, "bike_id": "5e7010a1c9bfbd07e39af9aef0fb924d", "type": "electric_scooter", "is_reserved": 0, "lon": -77.03228283333333}, {"fusion_lat": 0.0, "name": "5434d2d19e6c396f1d9f20e6fc056891", "is_disabled": 0, "rental_uris": {"android": "https://dc.lft.to/lastmile_qr_scan", "ios": "https://dc.lft.to/lastmile_qr_scan"}, "fusion_lon": 0.0, "lat": 38.920450333333335, "bike_id": "5434d2d19e6c396f1d9f20e6fc056891", "type": "electric_bike", "is_reserved": 0, "lon": -76.998218}, {"fusion_lat": 0.0, "name": "5545690267d3a9aa4a2a3e5e8f3c01d7", "is_disabled": 0, "rental_uris": {"android": "https://dc.lft.to/lastmile_qr_scan", "ios": "https://dc.lft.to/lastmile_qr_scan"}, "fusion_lon": 0.0, "lat": 38.917818, "bike_id": "5545690267d3a9aa4a2a3e5e8f3c01d7", "type": "electric_bike", "is_reserved": 0, "lon": -77.042654}, {"fusion_lat": 0.0, "name": "16952d9aff83def142f3cfc2a5a403fd", "is_disabled": 0, "rental_uris": {"android": "https://dc.lft.to/lastmile_qr_scan", "ios": "https://dc.lft.to/lastmile_qr_scan"}, "fusion_lon": 0.0, "lat": 38.9562725, "bike_id": "16952d9aff83def142f3cfc2a5a403fd", "type": "electric_scooter", "is_reserved": 0, "lon": -77.0283745}, {"fusion_lat": 0.0, "name": "f0f7f3a3502476a60997c84a68255eed", "is_disabled": 0, "rental_uris": {"android": "https://dc.lft.to/lastmile_qr_scan", "ios": "https://dc.lft.to/lastmile_qr_scan"}, "fusion_lon": 0.0, "lat": 38.90365166666667, "bike_id": "f0f7f3a3502476a60997c84a68255eed", "type": "electric_scooter", "is_reserved": 0, "lon": -77.03536566666666}, {"fusion_lat": 0.0, "name": "adf9314748e34dc13111bce3a3b9363a", "is_disabled": 0, "rental_uris": {"android": "https://dc.lft.to/lastmile_qr_scan", "ios": "https://dc.lft.to/lastmile_qr_scan"}, "fusion_lon": 0.0, "lat": 38.90503133333333, "bike_id": "adf9314748e34dc13111bce3a3b9363a", "type": "electric_bike", "is_reserved": 0, "lon": -76.974466}, {"fusion_lat": 0.0, "name": "fbbf50e6cb1e46a1f0301b3fd01b6b7e", "is_disabled": 0, "rental_uris": {"android": "https://dc.lft.to/lastmile_qr_scan", "ios": "https://dc.lft.to/lastmile_qr_scan"}, "fusion_lon": 0.0, "lat": 38.931361333333335, "bike_id": "fbbf50e6cb1e46a1f0301b3fd01b6b7e", "type": "electric_bike", "is_reserved": 0, "lon": -77.019759}, {"fusion_lat": 0.0, "name": "7ff8b1f43a7f23c78ec5c3b6d1fb49e5", "is_disabled": 0, "rental_uris": {"android": "https://dc.lft.to/lastmile_qr_scan", "ios": "https://dc.lft.to/lastmile_qr_scan"}, "fusion_lon": 0.0, "lat": 38.900408, "bike_id": "7ff8b1f43a7f23c78ec5c3b6d1fb49e5", "type": "electric_scooter", "is_reserved": 0, "lon": -77.032929}, {"fusion_lat": 0.0, "name": "1100b65413fa13b1ab337cd1e4be55d5", "is_disabled": 0, "rental_uris": {"android": "https://dc.lft.to/lastmile_qr_scan", "ios": "https://dc.lft.to/lastmile_qr_scan"}, "fusion_lon": 0.0, "lat": 38.84354183333333, "bike_id": "1100b65413fa13b1ab337cd1e4be55d5", "type": "electric_bike", "is_reserved": 0, "lon": -76.97830633333334}, {"fusion_lat": 0.0, "name": "ea849fcbe3a2d59a230f29c15508fcd2", "is_disabled": 0, "rental_uris": {"android": "https://dc.lft.to/lastmile_qr_scan", "ios": "https://dc.lft.to/lastmile_qr_scan"}, "fusion_lon": 0.0, "lat": 38.931030166666666, "bike_id": "ea849fcbe3a2d59a230f29c15508fcd2", "type": "electric_scooter", "is_reserved": 0, "lon": -77.0380785}, {"fusion_lat": 0.0, "name": "4c7a8fb61383aaf4dad814e8ebe00b12", "is_disabled": 0, "rental_uris": {"android": "https://dc.lft.to/lastmile_qr_scan", "ios": "https://dc.lft.to/lastmile_qr_scan"}, "fusion_lon": 0.0, "lat": 38.918140333333334, "bike_id": "4c7a8fb61383aaf4dad814e8ebe00b12", "type": "electric_scooter", "is_reserved": 0, "lon": -77.02679433333333}, {"fusion_lat": 0.0, "name": "d2b52105eb801d7d37e5e50b9c8907ba", "is_disabled": 0, "rental_uris": {"android": "https://dc.lft.to/lastmile_qr_scan", "ios": "https://dc.lft.to/lastmile_qr_scan"}, "fusion_lon": 0.0, "lat": 38.9643925, "bike_id": "d2b52105eb801d7d37e5e50b9c8907ba", "type": "electric_bike", "is_reserved": 0, "lon": -77.02071083333334}, {"fusion_lat": 0.0, "name": "8fe9ca1af11255b2ff2acb7f8848602b", "is_disabled": 0, "rental_uris": {"android": "https://dc.lft.to/lastmile_qr_scan", "ios": "https://dc.lft.to/lastmile_qr_scan"}, "fusion_lon": 0.0, "lat": 38.91711033333333, "bike_id": "8fe9ca1af11255b2ff2acb7f8848602b", "type": "electric_scooter", "is_reserved": 0, "lon": -77.026156}, {"fusion_lat": 0.0, "name": "2c41a8d127928bdaadeab0f1c5b9a9ef", "is_disabled": 0, "rental_uris": {"android": "https://dc.lft.to/lastmile_qr_scan", "ios": "https://dc.lft.to/lastmile_qr_scan"}, "fusion_lon": 0.0, "lat": 38.933531333333335, "bike_id": "2c41a8d127928bdaadeab0f1c5b9a9ef", "type": "electric_scooter", "is_reserved": 0, "lon": -77.07216266666667}, {"fusion_lat": 0.0, "name": "15fb21870697cac800fb144d11aa0371", "is_disabled": 0, "rental_uris": {"android": "https://dc.lft.to/lastmile_qr_scan", "ios": "https://dc.lft.to/lastmile_qr_scan"}, "fusion_lon": 0.0, "lat": 38.9051105, "bike_id": "15fb21870697cac800fb144d11aa0371", "type": "electric_scooter", "is_reserved": 0, "lon": -77.00608566666666}, {"fusion_lat": 0.0, "name": "3a4a7a56607074a30a624bbb7d92f46f", "is_disabled": 0, "rental_uris": {"android": "https://dc.lft.to/lastmile_qr_scan", "ios": "https://dc.lft.to/lastmile_qr_scan"}, "fusion_lon": 0.0, "lat": 38.91839233333334, "bike_id": "3a4a7a56607074a30a624bbb7d92f46f", "type": "electric_scooter", "is_reserved": 0, "lon": -77.01612266666666}, {"fusion_lat": 0.0, "name": "f8316d5db28384b5a2ba7e881d26fa3d", "is_disabled": 0, "rental_uris": {"android": "https://dc.lft.to/lastmile_qr_scan", "ios": "https://dc.lft.to/lastmile_qr_scan"}, "fusion_lon": 0.0, "lat": 38.91705616666667, "bike_id": "f8316d5db28384b5a2ba7e881d26fa3d", "type": "electric_scooter", "is_reserved": 0, "lon": -77.024368}, {"fusion_lat": 0.0, "name": "7001c1c78f97ce0660900c526af9c3a3", "is_disabled": 0, "rental_uris": {"android": "https://dc.lft.to/lastmile_qr_scan", "ios": "https://dc.lft.to/lastmile_qr_scan"}, "fusion_lon": 0.0, "lat": 38.92018483333333, "bike_id": "7001c1c78f97ce0660900c526af9c3a3", "type": "electric_scooter", "is_reserved": 0, "lon": -77.08192266666667}, {"fusion_lat": 0.0, "name": "bbd9525c5b8f5576bb878637ada427fa", "is_disabled": 0, "rental_uris": {"android": "https://dc.lft.to/lastmile_qr_scan", "ios": "https://dc.lft.to/lastmile_qr_scan"}, "fusion_lon": 0.0, "lat": 38.905229166666665, "bike_id": "bbd9525c5b8f5576bb878637ada427fa", "type": "electric_scooter", "is_reserved": 0, "lon": -77.06137433333333}, {"fusion_lat": 0.0, "name": "7f34a792fca086c1d324ebedb926b529", "is_disabled": 0, "rental_uris": {"android": "https://dc.lft.to/lastmile_qr_scan", "ios": "https://dc.lft.to/lastmile_qr_scan"}, "fusion_lon": 0.0, "lat": 38.915600833333336, "bike_id": "7f34a792fca086c1d324ebedb926b529", "type": "electric_scooter", "is_reserved": 0, "lon": -77.03113116666667}, {"fusion_lat": 0.0, "name": "8349c873796b3e0483e4aa1d551fe221", "is_disabled": 0, "rental_uris": {"android": "https://dc.lft.to/lastmile_qr_scan", "ios": "https://dc.lft.to/lastmile_qr_scan"}, "fusion_lon": 0.0, "lat": 38.90537166666667, "bike_id": "8349c873796b3e0483e4aa1d551fe221", "type": "electric_scooter", "is_reserved": 0, "lon": -77.05005166666666}, {"fusion_lat": 0.0, "name": "a473f00bb10d992e0eb5080c4165a692", "is_disabled": 0, "rental_uris": {"android": "https://dc.lft.to/lastmile_qr_scan", "ios": "https://dc.lft.to/lastmile_qr_scan"}, "fusion_lon": 0.0, "lat": 38.966676166666666, "bike_id": "a473f00bb10d992e0eb5080c4165a692", "type": "electric_scooter", "is_reserved": 0, "lon": -77.0254995}, {"fusion_lat": 0.0, "name": "24bc1fec72ffb96ee1c3a5745907f090", "is_disabled": 0, "rental_uris": {"android": "https://dc.lft.to/lastmile_qr_scan", "ios": "https://dc.lft.to/lastmile_qr_scan"}, "fusion_lon": 0.0, "lat": 38.901393666666664, "bike_id": "24bc1fec72ffb96ee1c3a5745907f090", "type": "electric_scooter", "is_reserved": 0, "lon": -77.04192533333334}, {"fusion_lat": 0.0, "name": "df0a2bcaf41c075a6a8ae84103a63aae", "is_disabled": 0, "rental_uris": {"android": "https://dc.lft.to/lastmile_qr_scan", "ios": "https://dc.lft.to/lastmile_qr_scan"}, "fusion_lon": 0.0, "lat": 38.90376366666667, "bike_id": "df0a2bcaf41c075a6a8ae84103a63aae", "type": "electric_scooter", "is_reserved": 0, "lon": -77.00754466666666}, {"fusion_lat": 0.0, "name": "436715490a6a15885b83cdd0db0b8550", "is_disabled": 0, "rental_uris": {"android": "https://dc.lft.to/lastmile_qr_scan", "ios": "https://dc.lft.to/lastmile_qr_scan"}, "fusion_lon": 0.0, "lat": 38.88414316666667, "bike_id": "436715490a6a15885b83cdd0db0b8550", "type": "electric_scooter", "is_reserved": 0, "lon": -77.023311}, {"fusion_lat": 0.0, "name": "64c77d259e05b77936931633bef3dc26", "is_disabled": 0, "rental_uris": {"android": "https://dc.lft.to/lastmile_qr_scan", "ios": "https://dc.lft.to/lastmile_qr_scan"}, "fusion_lon": 0.0, "lat": 38.93421566666667, "bike_id": "64c77d259e05b77936931633bef3dc26", "type": "electric_bike", "is_reserved": 0, "lon": -77.04305116666667}, {"fusion_lat": 0.0, "name": "1ff1e6922233d61a9fd7b6e74c9f7685", "is_disabled": 0, "rental_uris": {"android": "https://dc.lft.to/lastmile_qr_scan", "ios": "https://dc.lft.to/lastmile_qr_scan"}, "fusion_lon": 0.0, "lat": 38.920266, "bike_id": "1ff1e6922233d61a9fd7b6e74c9f7685", "type": "electric_scooter", "is_reserved": 0, "lon": -77.07148166666667}, {"fusion_lat": 0.0, "name": "acb17844d48a7901066bc0054f0a5ed5", "is_disabled": 0, "rental_uris": {"android": "https://dc.lft.to/lastmile_qr_scan", "ios": "https://dc.lft.to/lastmile_qr_scan"}, "fusion_lon": 0.0, "lat": 38.923668, "bike_id": "acb17844d48a7901066bc0054f0a5ed5", "type": "electric_scooter", "is_reserved": 0, "lon": -77.03372883333333}, {"fusion_lat": 0.0, "name": "88e9bfbc66e285280cfcc5c308e9485e", "is_disabled": 0, "rental_uris": {"android": "https://dc.lft.to/lastmile_qr_scan", "ios": "https://dc.lft.to/lastmile_qr_scan"}, "fusion_lon": 0.0, "lat": 38.997784833333334, "bike_id": "88e9bfbc66e285280cfcc5c308e9485e", "type": "electric_bike", "is_reserved": 0, "lon": -77.0471725}, {"fusion_lat": 0.0, "name": "6d7f74dd01569dadfef875d44c97f80b", "is_disabled": 0, "rental_uris": {"android": "https://dc.lft.to/lastmile_qr_scan", "ios": "https://dc.lft.to/lastmile_qr_scan"}, "fusion_lon": 0.0, "lat": 38.90951333333334, "bike_id": "6d7f74dd01569dadfef875d44c97f80b", "type": "electric_scooter", "is_reserved": 0, "lon": -76.98539616666666}, {"fusion_lat": 0.0, "name": "b2356c8bd533b052b165eda7dd701b96", "is_disabled": 0, "rental_uris": {"android": "https://dc.lft.to/lastmile_qr_scan", "ios": "https://dc.lft.to/lastmile_qr_scan"}, "fusion_lon": 0.0, "lat": 38.90081266666667, "bike_id": "b2356c8bd533b052b165eda7dd701b96", "type": "electric_scooter", "is_reserved": 0, "lon": -77.04782483333334}, {"fusion_lat": 0.0, "name": "1da5406990964314f611d3ef8ab5d238", "is_disabled": 0, "rental_uris": {"android": "https://dc.lft.to/lastmile_qr_scan", "ios": "https://dc.lft.to/lastmile_qr_scan"}, "fusion_lon": 0.0, "lat": 38.90388933333333, "bike_id": "1da5406990964314f611d3ef8ab5d238", "type": "electric_scooter", "is_reserved": 0, "lon": -77.048224}, {"fusion_lat": 0.0, "name": "51ca322ffd70dda52a10be5050386a91", "is_disabled": 0, "rental_uris": {"android": "https://dc.lft.to/lastmile_qr_scan", "ios": "https://dc.lft.to/lastmile_qr_scan"}, "fusion_lon": 0.0, "lat": 38.9059025, "bike_id": "51ca322ffd70dda52a10be5050386a91", "type": "electric_scooter", "is_reserved": 0, "lon": -77.00632066666667}, {"fusion_lat": 0.0, "name": "c628e1008c3beaeab7fd0b09ff07acc5", "is_disabled": 0, "rental_uris": {"android": "https://dc.lft.to/lastmile_qr_scan", "ios": "https://dc.lft.to/lastmile_qr_scan"}, "fusion_lon": 0.0, "lat": 38.90592133333333, "bike_id": "c628e1008c3beaeab7fd0b09ff07acc5", "type": "electric_scooter", "is_reserved": 0, "lon": -77.0455365}, {"fusion_lat": 0.0, "name": "8169c6ea9f18e434cfd27644106fb172", "is_disabled": 0, "rental_uris": {"android": "https://dc.lft.to/lastmile_qr_scan", "ios": "https://dc.lft.to/lastmile_qr_scan"}, "fusion_lon": 0.0, "lat": 38.9370375, "bike_id": "8169c6ea9f18e434cfd27644106fb172", "type": "electric_scooter", "is_reserved": 0, "lon": -77.03281733333333}, {"fusion_lat": 0.0, "name": "a0bfb2c8367a9f30a80a0c08ee314682", "is_disabled": 0, "rental_uris": {"android": "https://dc.lft.to/lastmile_qr_scan", "ios": "https://dc.lft.to/lastmile_qr_scan"}, "fusion_lon": 0.0, "lat": 38.92531233333333, "bike_id": "a0bfb2c8367a9f30a80a0c08ee314682", "type": "electric_scooter", "is_reserved": 0, "lon": -77.05244833333333}, {"fusion_lat": 0.0, "name": "fb0de24d07c10245596ace87099fc0fd", "is_disabled": 0, "rental_uris": {"android": "https://dc.lft.to/lastmile_qr_scan", "ios": "https://dc.lft.to/lastmile_qr_scan"}, "fusion_lon": 0.0, "lat": 38.91931366666667, "bike_id": "fb0de24d07c10245596ace87099fc0fd", "type": "electric_scooter", "is_reserved": 0, "lon": -77.03058166666666}, {"fusion_lat": 0.0, "name": "9ff5c8c6a701facd58d45939ae0d5502", "is_disabled": 0, "rental_uris": {"android": "https://dc.lft.to/lastmile_qr_scan", "ios": "https://dc.lft.to/lastmile_qr_scan"}, "fusion_lon": 0.0, "lat": 38.90246716666667, "bike_id": "9ff5c8c6a701facd58d45939ae0d5502", "type": "electric_scooter", "is_reserved": 0, "lon": -77.01782933333334}, {"fusion_lat": 0.0, "name": "3e4d1d9662b7cc7e6891a6b67dfc53a1", "is_disabled": 0, "rental_uris": {"android": "https://dc.lft.to/lastmile_qr_scan", "ios": "https://dc.lft.to/lastmile_qr_scan"}, "fusion_lon": 0.0, "lat": 38.902722833333335, "bike_id": "3e4d1d9662b7cc7e6891a6b67dfc53a1", "type": "electric_scooter", "is_reserved": 0, "lon": -76.98988583333333}, {"fusion_lat": 0.0, "name": "70576b67d0b1e2141844c1da3d84ccf7", "is_disabled": 0, "rental_uris": {"android": "https://dc.lft.to/lastmile_qr_scan", "ios": "https://dc.lft.to/lastmile_qr_scan"}, "fusion_lon": 0.0, "lat": 38.900447166666666, "bike_id": "70576b67d0b1e2141844c1da3d84ccf7", "type": "electric_scooter", "is_reserved": 0, "lon": -77.02969033333333}, {"fusion_lat": 0.0, "name": "6d42ca7cabc68a2c732b5814aca14711", "is_disabled": 0, "rental_uris": {"android": "https://dc.lft.to/lastmile_qr_scan", "ios": "https://dc.lft.to/lastmile_qr_scan"}, "fusion_lon": 0.0, "lat": 38.894997833333335, "bike_id": "6d42ca7cabc68a2c732b5814aca14711", "type": "electric_scooter", "is_reserved": 0, "lon": -77.00215333333334}, {"fusion_lat": 0.0, "name": "474141d37ad645e87cc24a605a606b27", "is_disabled": 0, "rental_uris": {"android": "https://dc.lft.to/lastmile_qr_scan", "ios": "https://dc.lft.to/lastmile_qr_scan"}, "fusion_lon": 0.0, "lat": 38.912091333333336, "bike_id": "474141d37ad645e87cc24a605a606b27", "type": "electric_scooter", "is_reserved": 0, "lon": -77.01985733333333}, {"fusion_lat": 0.0, "name": "c24ad7bbc93999e508aea44c5a3c9cf3", "is_disabled": 0, "rental_uris": {"android": "https://dc.lft.to/lastmile_qr_scan", "ios": "https://dc.lft.to/lastmile_qr_scan"}, "fusion_lon": 0.0, "lat": 38.90957133333333, "bike_id": "c24ad7bbc93999e508aea44c5a3c9cf3", "type": "electric_scooter", "is_reserved": 0, "lon": -77.0394165}, {"fusion_lat": 0.0, "name": "b0265e76951eb50368dcbeba1bd81e92", "is_disabled": 0, "rental_uris": {"android": "https://dc.lft.to/lastmile_qr_scan", "ios": "https://dc.lft.to/lastmile_qr_scan"}, "fusion_lon": 0.0, "lat": 38.967479833333336, "bike_id": "b0265e76951eb50368dcbeba1bd81e92", "type": "electric_bike", "is_reserved": 0, "lon": -76.98221166666667}, {"fusion_lat": 0.0, "name": "6ae798079b6fbbec75110b05684edcf5", "is_disabled": 0, "rental_uris": {"android": "https://dc.lft.to/lastmile_qr_scan", "ios": "https://dc.lft.to/lastmile_qr_scan"}, "fusion_lon": 0.0, "lat": 38.92443816666667, "bike_id": "6ae798079b6fbbec75110b05684edcf5", "type": "electric_scooter", "is_reserved": 0, "lon": -77.04023916666667}, {"fusion_lat": 0.0, "name": "e6a606c3779a0de7f8714abd5023a7bb", "is_disabled": 0, "rental_uris": {"android": "https://dc.lft.to/lastmile_qr_scan", "ios": "https://dc.lft.to/lastmile_qr_scan"}, "fusion_lon": 0.0, "lat": 38.914663166666664, "bike_id": "e6a606c3779a0de7f8714abd5023a7bb", "type": "electric_scooter", "is_reserved": 0, "lon": -77.01562166666666}, {"fusion_lat": 0.0, "name": "7e85325d28b5eca979cc96cb6ffb5db0", "is_disabled": 0, "rental_uris": {"android": "https://dc.lft.to/lastmile_qr_scan", "ios": "https://dc.lft.to/lastmile_qr_scan"}, "fusion_lon": 0.0, "lat": 38.877664, "bike_id": "7e85325d28b5eca979cc96cb6ffb5db0", "type": "electric_scooter", "is_reserved": 0, "lon": -77.00352833333334}, {"fusion_lat": 0.0, "name": "55e4a589bb24d8e77c00c4320bfec9d0", "is_disabled": 0, "rental_uris": {"android": "https://dc.lft.to/lastmile_qr_scan", "ios": "https://dc.lft.to/lastmile_qr_scan"}, "fusion_lon": 0.0, "lat": 38.856089833333336, "bike_id": "55e4a589bb24d8e77c00c4320bfec9d0", "type": "electric_bike", "is_reserved": 0, "lon": -77.10803233333333}, {"fusion_lat": 0.0, "name": "18c9dfada9b670aed7dcbeb096d08944", "is_disabled": 0, "rental_uris": {"android": "https://dc.lft.to/lastmile_qr_scan", "ios": "https://dc.lft.to/lastmile_qr_scan"}, "fusion_lon": 0.0, "lat": 38.912226, "bike_id": "18c9dfada9b670aed7dcbeb096d08944", "type": "electric_scooter", "is_reserved": 0, "lon": -77.047774}, {"fusion_lat": 0.0, "name": "776ebe0fa0c70fea38e3486e3fc6ab8c", "is_disabled": 0, "rental_uris": {"android": "https://dc.lft.to/lastmile_qr_scan", "ios": "https://dc.lft.to/lastmile_qr_scan"}, "fusion_lon": 0.0, "lat": 38.90520933333333, "bike_id": "776ebe0fa0c70fea38e3486e3fc6ab8c", "type": "electric_scooter", "is_reserved": 0, "lon": -77.017113}, {"fusion_lat": 0.0, "name": "fcfc47eb170798f73e43c63c59f45abb", "is_disabled": 0, "rental_uris": {"android": "https://dc.lft.to/lastmile_qr_scan", "ios": "https://dc.lft.to/lastmile_qr_scan"}, "fusion_lon": 0.0, "lat": 38.89916866666667, "bike_id": "fcfc47eb170798f73e43c63c59f45abb", "type": "electric_scooter", "is_reserved": 0, "lon": -77.051459}, {"fusion_lat": 0.0, "name": "d04b0be70de0193a4d96da1578bac466", "is_disabled": 0, "rental_uris": {"android": "https://dc.lft.to/lastmile_qr_scan", "ios": "https://dc.lft.to/lastmile_qr_scan"}, "fusion_lon": 0.0, "lat": 38.909649, "bike_id": "d04b0be70de0193a4d96da1578bac466", "type": "electric_scooter", "is_reserved": 0, "lon": -77.04607683333333}, {"fusion_lat": 0.0, "name": "9c5e0867195019096c7693eb5302c56c", "is_disabled": 0, "rental_uris": {"android": "https://dc.lft.to/lastmile_qr_scan", "ios": "https://dc.lft.to/lastmile_qr_scan"}, "fusion_lon": 0.0, "lat": 38.91118183333333, "bike_id": "9c5e0867195019096c7693eb5302c56c", "type": "electric_scooter", "is_reserved": 0, "lon": -77.01165766666666}, {"fusion_lat": 0.0, "name": "8ce2d8961d94641d71dc8d4638244d63", "is_disabled": 0, "rental_uris": {"android": "https://dc.lft.to/lastmile_qr_scan", "ios": "https://dc.lft.to/lastmile_qr_scan"}, "fusion_lon": 0.0, "lat": 38.956056, "bike_id": "8ce2d8961d94641d71dc8d4638244d63", "type": "electric_scooter", "is_reserved": 0, "lon": -77.03355016666667}, {"fusion_lat": 0.0, "name": "97de88a7c6da7834998c76f6476e1c48", "is_disabled": 0, "rental_uris": {"android": "https://dc.lft.to/lastmile_qr_scan", "ios": "https://dc.lft.to/lastmile_qr_scan"}, "fusion_lon": 0.0, "lat": 38.93823016666666, "bike_id": "97de88a7c6da7834998c76f6476e1c48", "type": "electric_scooter", "is_reserved": 0, "lon": -77.03284233333333}, {"fusion_lat": 0.0, "name": "352a93b72650bfb950aa84869b58e7e4", "is_disabled": 0, "rental_uris": {"android": "https://dc.lft.to/lastmile_qr_scan", "ios": "https://dc.lft.to/lastmile_qr_scan"}, "fusion_lon": 0.0, "lat": 38.904095833333336, "bike_id": "352a93b72650bfb950aa84869b58e7e4", "type": "electric_scooter", "is_reserved": 0, "lon": -77.02590483333333}, {"fusion_lat": 0.0, "name": "6ce24494649bde640b4b4bed3940c3d8", "is_disabled": 0, "rental_uris": {"android": "https://dc.lft.to/lastmile_qr_scan", "ios": "https://dc.lft.to/lastmile_qr_scan"}, "fusion_lon": 0.0, "lat": 38.9311, "bike_id": "6ce24494649bde640b4b4bed3940c3d8", "type": "electric_scooter", "is_reserved": 0, "lon": -77.02370833333333}, {"fusion_lat": 0.0, "name": "d3f5a266fb3448bf5534be9d3acd7a9d", "is_disabled": 0, "rental_uris": {"android": "https://dc.lft.to/lastmile_qr_scan", "ios": "https://dc.lft.to/lastmile_qr_scan"}, "fusion_lon": 0.0, "lat": 38.91919133333333, "bike_id": "d3f5a266fb3448bf5534be9d3acd7a9d", "type": "electric_scooter", "is_reserved": 0, "lon": -77.02413516666667}, {"fusion_lat": 0.0, "name": "76f02da8ea39fb9de17e61fb44608c63", "is_disabled": 0, "rental_uris": {"android": "https://dc.lft.to/lastmile_qr_scan", "ios": "https://dc.lft.to/lastmile_qr_scan"}, "fusion_lon": 0.0, "lat": 38.90570616666667, "bike_id": "76f02da8ea39fb9de17e61fb44608c63", "type": "electric_scooter", "is_reserved": 0, "lon": -77.04446766666666}, {"fusion_lat": 0.0, "name": "df29efa611106791fcc43f8a7123a48d", "is_disabled": 0, "rental_uris": {"android": "https://dc.lft.to/lastmile_qr_scan", "ios": "https://dc.lft.to/lastmile_qr_scan"}, "fusion_lon": 0.0, "lat": 38.9093395, "bike_id": "df29efa611106791fcc43f8a7123a48d", "type": "electric_scooter", "is_reserved": 0, "lon": -77.04862616666666}, {"fusion_lat": 0.0, "name": "f1ae4a844077a10465e5f8a0aadf59cb", "is_disabled": 0, "rental_uris": {"android": "https://dc.lft.to/lastmile_qr_scan", "ios": "https://dc.lft.to/lastmile_qr_scan"}, "fusion_lon": 0.0, "lat": 38.91191933333333, "bike_id": "f1ae4a844077a10465e5f8a0aadf59cb", "type": "electric_scooter", "is_reserved": 0, "lon": -77.03760583333333}, {"fusion_lat": 0.0, "name": "38c1305d3df72f74965d928f1ea9ce46", "is_disabled": 0, "rental_uris": {"android": "https://dc.lft.to/lastmile_qr_scan", "ios": "https://dc.lft.to/lastmile_qr_scan"}, "fusion_lon": 0.0, "lat": 38.8973155, "bike_id": "38c1305d3df72f74965d928f1ea9ce46", "type": "electric_scooter", "is_reserved": 0, "lon": -77.04683583333333}, {"fusion_lat": 0.0, "name": "63821d1372f7c9075a3ddad6030051d8", "is_disabled": 0, "rental_uris": {"android": "https://dc.lft.to/lastmile_qr_scan", "ios": "https://dc.lft.to/lastmile_qr_scan"}, "fusion_lon": 0.0, "lat": 38.92317583333333, "bike_id": "63821d1372f7c9075a3ddad6030051d8", "type": "electric_scooter", "is_reserved": 0, "lon": -77.036613}, {"fusion_lat": 0.0, "name": "b558bf5d84df3c6816ec0c6d8e75db34", "is_disabled": 0, "rental_uris": {"android": "https://dc.lft.to/lastmile_qr_scan", "ios": "https://dc.lft.to/lastmile_qr_scan"}, "fusion_lon": 0.0, "lat": 38.91473583333333, "bike_id": "b558bf5d84df3c6816ec0c6d8e75db34", "type": "electric_scooter", "is_reserved": 0, "lon": -76.9810735}, {"fusion_lat": 0.0, "name": "135c115b641a9aa8477ddc23e59f32ad", "is_disabled": 0, "rental_uris": {"android": "https://dc.lft.to/lastmile_qr_scan", "ios": "https://dc.lft.to/lastmile_qr_scan"}, "fusion_lon": 0.0, "lat": 38.92602616666667, "bike_id": "135c115b641a9aa8477ddc23e59f32ad", "type": "electric_scooter", "is_reserved": 0, "lon": -77.03752816666666}, {"fusion_lat": 0.0, "name": "68b343da34b4b270a8bb4f20cc7111c1", "is_disabled": 0, "rental_uris": {"android": "https://dc.lft.to/lastmile_qr_scan", "ios": "https://dc.lft.to/lastmile_qr_scan"}, "fusion_lon": 0.0, "lat": 38.896643166666664, "bike_id": "68b343da34b4b270a8bb4f20cc7111c1", "type": "electric_scooter", "is_reserved": 0, "lon": -77.050452}, {"fusion_lat": 0.0, "name": "d73246cb1335c22fb1f165cec915455d", "is_disabled": 0, "rental_uris": {"android": "https://dc.lft.to/lastmile_qr_scan", "ios": "https://dc.lft.to/lastmile_qr_scan"}, "fusion_lon": 0.0, "lat": 38.914752666666665, "bike_id": "d73246cb1335c22fb1f165cec915455d", "type": "electric_scooter", "is_reserved": 0, "lon": -77.0461435}, {"fusion_lat": 0.0, "name": "486b19556ae073d6fb16adbd9cf4b282", "is_disabled": 0, "rental_uris": {"android": "https://dc.lft.to/lastmile_qr_scan", "ios": "https://dc.lft.to/lastmile_qr_scan"}, "fusion_lon": 0.0, "lat": 38.90062, "bike_id": "486b19556ae073d6fb16adbd9cf4b282", "type": "electric_scooter", "is_reserved": 0, "lon": -77.02203633333333}, {"fusion_lat": 0.0, "name": "fb410c367717b597b23f6d0613ecbce8", "is_disabled": 0, "rental_uris": {"android": "https://dc.lft.to/lastmile_qr_scan", "ios": "https://dc.lft.to/lastmile_qr_scan"}, "fusion_lon": 0.0, "lat": 38.969876166666666, "bike_id": "fb410c367717b597b23f6d0613ecbce8", "type": "electric_scooter", "is_reserved": 0, "lon": -77.01160616666667}, {"fusion_lat": 0.0, "name": "10950ca648a93172b2a4e8ce90bca2e8", "is_disabled": 0, "rental_uris": {"android": "https://dc.lft.to/lastmile_qr_scan", "ios": "https://dc.lft.to/lastmile_qr_scan"}, "fusion_lon": 0.0, "lat": 38.9205205, "bike_id": "10950ca648a93172b2a4e8ce90bca2e8", "type": "electric_scooter", "is_reserved": 0, "lon": -77.0435025}, {"fusion_lat": 0.0, "name": "f423ced8a633289f100ee8e976bf15f5", "is_disabled": 0, "rental_uris": {"android": "https://dc.lft.to/lastmile_qr_scan", "ios": "https://dc.lft.to/lastmile_qr_scan"}, "fusion_lon": 0.0, "lat": 38.90617066666667, "bike_id": "f423ced8a633289f100ee8e976bf15f5", "type": "electric_scooter", "is_reserved": 0, "lon": -77.0501205}, {"fusion_lat": 0.0, "name": "8cf9fcf96fe143ff5a9fe488a35a97fe", "is_disabled": 0, "rental_uris": {"android": "https://dc.lft.to/lastmile_qr_scan", "ios": "https://dc.lft.to/lastmile_qr_scan"}, "fusion_lon": 0.0, "lat": 38.895786, "bike_id": "8cf9fcf96fe143ff5a9fe488a35a97fe", "type": "electric_scooter", "is_reserved": 0, "lon": -77.021904}, {"fusion_lat": 0.0, "name": "8957b44c7a479658a69799c5f87531da", "is_disabled": 0, "rental_uris": {"android": "https://dc.lft.to/lastmile_qr_scan", "ios": "https://dc.lft.to/lastmile_qr_scan"}, "fusion_lon": 0.0, "lat": 38.87750033333333, "bike_id": "8957b44c7a479658a69799c5f87531da", "type": "electric_scooter", "is_reserved": 0, "lon": -77.002653}, {"fusion_lat": 0.0, "name": "95ed2ec55dfe5d21f248203baabd0582", "is_disabled": 0, "rental_uris": {"android": "https://dc.lft.to/lastmile_qr_scan", "ios": "https://dc.lft.to/lastmile_qr_scan"}, "fusion_lon": 0.0, "lat": 38.89737483333333, "bike_id": "95ed2ec55dfe5d21f248203baabd0582", "type": "electric_scooter", "is_reserved": 0, "lon": -76.94720216666667}, {"fusion_lat": 0.0, "name": "473f924aac965b96cc5fe395a9efca68", "is_disabled": 0, "rental_uris": {"android": "https://dc.lft.to/lastmile_qr_scan", "ios": "https://dc.lft.to/lastmile_qr_scan"}, "fusion_lon": 0.0, "lat": 38.924883666666666, "bike_id": "473f924aac965b96cc5fe395a9efca68", "type": "electric_scooter", "is_reserved": 0, "lon": -77.03553533333333}, {"fusion_lat": 0.0, "name": "0c5766b449c55229e4b54a3dba9e6362", "is_disabled": 0, "rental_uris": {"android": "https://dc.lft.to/lastmile_qr_scan", "ios": "https://dc.lft.to/lastmile_qr_scan"}, "fusion_lon": 0.0, "lat": 38.933569166666665, "bike_id": "0c5766b449c55229e4b54a3dba9e6362", "type": "electric_scooter", "is_reserved": 0, "lon": -77.061981}, {"fusion_lat": 0.0, "name": "f268d21d40a8476f9646b76a711317b4", "is_disabled": 0, "rental_uris": {"android": "https://dc.lft.to/lastmile_qr_scan", "ios": "https://dc.lft.to/lastmile_qr_scan"}, "fusion_lon": 0.0, "lat": 38.892162, "bike_id": "f268d21d40a8476f9646b76a711317b4", "type": "electric_scooter", "is_reserved": 0, "lon": -77.02654016666666}, {"fusion_lat": 0.0, "name": "f9ee70cab179e517dcf09f3a79828788", "is_disabled": 0, "rental_uris": {"android": "https://dc.lft.to/lastmile_qr_scan", "ios": "https://dc.lft.to/lastmile_qr_scan"}, "fusion_lon": 0.0, "lat": 38.8747545, "bike_id": "f9ee70cab179e517dcf09f3a79828788", "type": "electric_scooter", "is_reserved": 0, "lon": -77.00472466666666}, {"fusion_lat": 0.0, "name": "668bd6716593aa5da39d30de7f1e9082", "is_disabled": 0, "rental_uris": {"android": "https://dc.lft.to/lastmile_qr_scan", "ios": "https://dc.lft.to/lastmile_qr_scan"}, "fusion_lon": 0.0, "lat": 38.90724566666667, "bike_id": "668bd6716593aa5da39d30de7f1e9082", "type": "electric_scooter", "is_reserved": 0, "lon": -77.025037}, {"fusion_lat": 0.0, "name": "c65275d8e10be2cefa7942489eb96b9d", "is_disabled": 0, "rental_uris": {"android": "https://dc.lft.to/lastmile_qr_scan", "ios": "https://dc.lft.to/lastmile_qr_scan"}, "fusion_lon": 0.0, "lat": 38.8872805, "bike_id": "c65275d8e10be2cefa7942489eb96b9d", "type": "electric_scooter", "is_reserved": 0, "lon": -77.0134285}, {"fusion_lat": 0.0, "name": "8faa0bd92d0399d85367a0df28da552c", "is_disabled": 0, "rental_uris": {"android": "https://dc.lft.to/lastmile_qr_scan", "ios": "https://dc.lft.to/lastmile_qr_scan"}, "fusion_lon": 0.0, "lat": 38.884216, "bike_id": "8faa0bd92d0399d85367a0df28da552c", "type": "electric_scooter", "is_reserved": 0, "lon": -77.02893216666666}, {"fusion_lat": 0.0, "name": "44ace1c226f469c836015135e1774a29", "is_disabled": 0, "rental_uris": {"android": "https://dc.lft.to/lastmile_qr_scan", "ios": "https://dc.lft.to/lastmile_qr_scan"}, "fusion_lon": 0.0, "lat": 38.90065383333334, "bike_id": "44ace1c226f469c836015135e1774a29", "type": "electric_scooter", "is_reserved": 0, "lon": -77.01682916666667}, {"fusion_lat": 0.0, "name": "907ae25323fabff90e0eb7d488feb41e", "is_disabled": 0, "rental_uris": {"android": "https://dc.lft.to/lastmile_qr_scan", "ios": "https://dc.lft.to/lastmile_qr_scan"}, "fusion_lon": 0.0, "lat": 38.94113466666667, "bike_id": "907ae25323fabff90e0eb7d488feb41e", "type": "electric_scooter", "is_reserved": 0, "lon": -77.000473}, {"fusion_lat": 0.0, "name": "958aee20683dafe642cfe48646334c46", "is_disabled": 0, "rental_uris": {"android": "https://dc.lft.to/lastmile_qr_scan", "ios": "https://dc.lft.to/lastmile_qr_scan"}, "fusion_lon": 0.0, "lat": 38.903927833333334, "bike_id": "958aee20683dafe642cfe48646334c46", "type": "electric_scooter", "is_reserved": 0, "lon": -77.001951}, {"fusion_lat": 0.0, "name": "04da1d7828127b84fc8d2bb9018cc9c5", "is_disabled": 0, "rental_uris": {"android": "https://dc.lft.to/lastmile_qr_scan", "ios": "https://dc.lft.to/lastmile_qr_scan"}, "fusion_lon": 0.0, "lat": 38.9375575, "bike_id": "04da1d7828127b84fc8d2bb9018cc9c5", "type": "electric_bike", "is_reserved": 0, "lon": -76.95824466666667}, {"fusion_lat": 0.0, "name": "1a9ad83c3fd29d4cfb9b303a6211ec14", "is_disabled": 0, "rental_uris": {"android": "https://dc.lft.to/lastmile_qr_scan", "ios": "https://dc.lft.to/lastmile_qr_scan"}, "fusion_lon": 0.0, "lat": 38.899621833333335, "bike_id": "1a9ad83c3fd29d4cfb9b303a6211ec14", "type": "electric_bike", "is_reserved": 0, "lon": -76.98675233333333}, {"fusion_lat": 0.0, "name": "25b2a2b22417e6a3a73149a80c0f1ab8", "is_disabled": 0, "rental_uris": {"android": "https://dc.lft.to/lastmile_qr_scan", "ios": "https://dc.lft.to/lastmile_qr_scan"}, "fusion_lon": 0.0, "lat": 38.919358333333335, "bike_id": "25b2a2b22417e6a3a73149a80c0f1ab8", "type": "electric_scooter", "is_reserved": 0, "lon": -77.048915}, {"fusion_lat": 0.0, "name": "8f6e8e22aae270fb92c2ff7b2bd719f8", "is_disabled": 0, "rental_uris": {"android": "https://dc.lft.to/lastmile_qr_scan", "ios": "https://dc.lft.to/lastmile_qr_scan"}, "fusion_lon": 0.0, "lat": 38.90646683333333, "bike_id": "8f6e8e22aae270fb92c2ff7b2bd719f8", "type": "electric_scooter", "is_reserved": 0, "lon": -77.04140916666667}, {"fusion_lat": 0.0, "name": "e9583fe19bf030be8a54e8a6e565afa3", "is_disabled": 0, "rental_uris": {"android": "https://dc.lft.to/lastmile_qr_scan", "ios": "https://dc.lft.to/lastmile_qr_scan"}, "fusion_lon": 0.0, "lat": 38.90772116666667, "bike_id": "e9583fe19bf030be8a54e8a6e565afa3", "type": "electric_scooter", "is_reserved": 0, "lon": -76.99716416666666}, {"fusion_lat": 0.0, "name": "a2471cd7cbfae1b9d9eb5b41f4a20f2d", "is_disabled": 0, "rental_uris": {"android": "https://dc.lft.to/lastmile_qr_scan", "ios": "https://dc.lft.to/lastmile_qr_scan"}, "fusion_lon": 0.0, "lat": 38.893859666666664, "bike_id": "a2471cd7cbfae1b9d9eb5b41f4a20f2d", "type": "electric_scooter", "is_reserved": 0, "lon": -76.923042}, {"fusion_lat": 0.0, "name": "b749c61f965aeadd3555bed7e9e79159", "is_disabled": 0, "rental_uris": {"android": "https://dc.lft.to/lastmile_qr_scan", "ios": "https://dc.lft.to/lastmile_qr_scan"}, "fusion_lon": 0.0, "lat": 38.9120845, "bike_id": "b749c61f965aeadd3555bed7e9e79159", "type": "electric_scooter", "is_reserved": 0, "lon": -77.03855666666666}, {"fusion_lat": 0.0, "name": "6801eb9531bad099b1113354d3358483", "is_disabled": 0, "rental_uris": {"android": "https://dc.lft.to/lastmile_qr_scan", "ios": "https://dc.lft.to/lastmile_qr_scan"}, "fusion_lon": 0.0, "lat": 38.9101895, "bike_id": "6801eb9531bad099b1113354d3358483", "type": "electric_scooter", "is_reserved": 0, "lon": -77.069092}, {"fusion_lat": 0.0, "name": "bdfee9df835984413c605468f226cc7e", "is_disabled": 0, "rental_uris": {"android": "https://dc.lft.to/lastmile_qr_scan", "ios": "https://dc.lft.to/lastmile_qr_scan"}, "fusion_lon": 0.0, "lat": 38.89085983333333, "bike_id": "bdfee9df835984413c605468f226cc7e", "type": "electric_scooter", "is_reserved": 0, "lon": -77.00339966666667}, {"fusion_lat": 0.0, "name": "c68b64b48eb0c66eef5b1ce5ae640835", "is_disabled": 0, "rental_uris": {"android": "https://dc.lft.to/lastmile_qr_scan", "ios": "https://dc.lft.to/lastmile_qr_scan"}, "fusion_lon": 0.0, "lat": 38.952631333333336, "bike_id": "c68b64b48eb0c66eef5b1ce5ae640835", "type": "electric_bike", "is_reserved": 0, "lon": -76.9987965}, {"fusion_lat": 0.0, "name": "293c1dc31702fe20fdf74f1c28c4ad4f", "is_disabled": 0, "rental_uris": {"android": "https://dc.lft.to/lastmile_qr_scan", "ios": "https://dc.lft.to/lastmile_qr_scan"}, "fusion_lon": 0.0, "lat": 38.955105333333336, "bike_id": "293c1dc31702fe20fdf74f1c28c4ad4f", "type": "electric_scooter", "is_reserved": 0, "lon": -77.02842433333333}, {"fusion_lat": 0.0, "name": "8963f15d4d0a03de9bc9b55e1979b23b", "is_disabled": 0, "rental_uris": {"android": "https://dc.lft.to/lastmile_qr_scan", "ios": "https://dc.lft.to/lastmile_qr_scan"}, "fusion_lon": 0.0, "lat": 38.89216616666667, "bike_id": "8963f15d4d0a03de9bc9b55e1979b23b", "type": "electric_scooter", "is_reserved": 0, "lon": -77.02657283333333}, {"fusion_lat": 0.0, "name": "16afdfda3e5e9e10f5b4628619b51eb2", "is_disabled": 0, "rental_uris": {"android": "https://dc.lft.to/lastmile_qr_scan", "ios": "https://dc.lft.to/lastmile_qr_scan"}, "fusion_lon": 0.0, "lat": 38.935017, "bike_id": "16afdfda3e5e9e10f5b4628619b51eb2", "type": "electric_scooter", "is_reserved": 0, "lon": -77.03636133333333}, {"fusion_lat": 0.0, "name": "edd76f16f78ef0c953eb562330b32e61", "is_disabled": 0, "rental_uris": {"android": "https://dc.lft.to/lastmile_qr_scan", "ios": "https://dc.lft.to/lastmile_qr_scan"}, "fusion_lon": 0.0, "lat": 38.89998633333333, "bike_id": "edd76f16f78ef0c953eb562330b32e61", "type": "electric_scooter", "is_reserved": 0, "lon": -77.045002}, {"fusion_lat": 0.0, "name": "c3ee98f493096de9889abeeb90ec552d", "is_disabled": 0, "rental_uris": {"android": "https://dc.lft.to/lastmile_qr_scan", "ios": "https://dc.lft.to/lastmile_qr_scan"}, "fusion_lon": 0.0, "lat": 38.91713466666667, "bike_id": "c3ee98f493096de9889abeeb90ec552d", "type": "electric_scooter", "is_reserved": 0, "lon": -77.02299133333334}, {"fusion_lat": 0.0, "name": "e0b705b1e885502a9e2353408654cc74", "is_disabled": 0, "rental_uris": {"android": "https://dc.lft.to/lastmile_qr_scan", "ios": "https://dc.lft.to/lastmile_qr_scan"}, "fusion_lon": 0.0, "lat": 38.89746733333333, "bike_id": "e0b705b1e885502a9e2353408654cc74", "type": "electric_scooter", "is_reserved": 0, "lon": -77.02697}, {"fusion_lat": 0.0, "name": "91ae232b0a97749774d2c8063518b40e", "is_disabled": 0, "rental_uris": {"android": "https://dc.lft.to/lastmile_qr_scan", "ios": "https://dc.lft.to/lastmile_qr_scan"}, "fusion_lon": 0.0, "lat": 38.950562833333336, "bike_id": "91ae232b0a97749774d2c8063518b40e", "type": "electric_scooter", "is_reserved": 0, "lon": -77.08029}, {"fusion_lat": 0.0, "name": "df6778983b81837d98f7a1bc5d318018", "is_disabled": 0, "rental_uris": {"android": "https://dc.lft.to/lastmile_qr_scan", "ios": "https://dc.lft.to/lastmile_qr_scan"}, "fusion_lon": 0.0, "lat": 38.92405766666667, "bike_id": "df6778983b81837d98f7a1bc5d318018", "type": "electric_scooter", "is_reserved": 0, "lon": -77.02702966666666}, {"fusion_lat": 0.0, "name": "3b4a5b103f7ecaecfe8cc29b9898d8c1", "is_disabled": 0, "rental_uris": {"android": "https://dc.lft.to/lastmile_qr_scan", "ios": "https://dc.lft.to/lastmile_qr_scan"}, "fusion_lon": 0.0, "lat": 38.9145995, "bike_id": "3b4a5b103f7ecaecfe8cc29b9898d8c1", "type": "electric_scooter", "is_reserved": 0, "lon": -77.00212283333333}, {"fusion_lat": 0.0, "name": "32859596ca5a2198962b7ddf63562ee8", "is_disabled": 0, "rental_uris": {"android": "https://dc.lft.to/lastmile_qr_scan", "ios": "https://dc.lft.to/lastmile_qr_scan"}, "fusion_lon": 0.0, "lat": 38.8922965, "bike_id": "32859596ca5a2198962b7ddf63562ee8", "type": "electric_scooter", "is_reserved": 0, "lon": -77.02384866666667}, {"fusion_lat": 0.0, "name": "d8c90b81be2262bfe46c02b74e9e48da", "is_disabled": 0, "rental_uris": {"android": "https://dc.lft.to/lastmile_qr_scan", "ios": "https://dc.lft.to/lastmile_qr_scan"}, "fusion_lon": 0.0, "lat": 38.876572, "bike_id": "d8c90b81be2262bfe46c02b74e9e48da", "type": "electric_scooter", "is_reserved": 0, "lon": -77.003522}, {"fusion_lat": 0.0, "name": "f4f353327b8bd7386a883f58d2c8badb", "is_disabled": 0, "rental_uris": {"android": "https://dc.lft.to/lastmile_qr_scan", "ios": "https://dc.lft.to/lastmile_qr_scan"}, "fusion_lon": 0.0, "lat": 38.920663166666664, "bike_id": "f4f353327b8bd7386a883f58d2c8badb", "type": "electric_scooter", "is_reserved": 0, "lon": -77.01482216666666}, {"fusion_lat": 0.0, "name": "727f5223f4c5c134fbe4e2b9eb285447", "is_disabled": 0, "rental_uris": {"android": "https://dc.lft.to/lastmile_qr_scan", "ios": "https://dc.lft.to/lastmile_qr_scan"}, "fusion_lon": 0.0, "lat": 38.900125833333334, "bike_id": "727f5223f4c5c134fbe4e2b9eb285447", "type": "electric_scooter", "is_reserved": 0, "lon": -77.01218133333333}, {"fusion_lat": 0.0, "name": "c899c3a98d48af04eee6be1367c84b85", "is_disabled": 0, "rental_uris": {"android": "https://dc.lft.to/lastmile_qr_scan", "ios": "https://dc.lft.to/lastmile_qr_scan"}, "fusion_lon": 0.0, "lat": 38.90215233333333, "bike_id": "c899c3a98d48af04eee6be1367c84b85", "type": "electric_scooter", "is_reserved": 0, "lon": -77.01900383333333}, {"fusion_lat": 0.0, "name": "aac0002d1534b62860bedb4c134229e6", "is_disabled": 0, "rental_uris": {"android": "https://dc.lft.to/lastmile_qr_scan", "ios": "https://dc.lft.to/lastmile_qr_scan"}, "fusion_lon": 0.0, "lat": 38.920871, "bike_id": "aac0002d1534b62860bedb4c134229e6", "type": "electric_scooter", "is_reserved": 0, "lon": -77.02219216666667}, {"fusion_lat": 0.0, "name": "0caa2f21ae90e891e0b63256b0b0afe7", "is_disabled": 0, "rental_uris": {"android": "https://dc.lft.to/lastmile_qr_scan", "ios": "https://dc.lft.to/lastmile_qr_scan"}, "fusion_lon": 0.0, "lat": 38.9036565, "bike_id": "0caa2f21ae90e891e0b63256b0b0afe7", "type": "electric_scooter", "is_reserved": 0, "lon": -77.016215}, {"fusion_lat": 0.0, "name": "9f6d117c3ee65f024236a056ce236d88", "is_disabled": 0, "rental_uris": {"android": "https://dc.lft.to/lastmile_qr_scan", "ios": "https://dc.lft.to/lastmile_qr_scan"}, "fusion_lon": 0.0, "lat": 38.8975745, "bike_id": "9f6d117c3ee65f024236a056ce236d88", "type": "electric_scooter", "is_reserved": 0, "lon": -77.03297966666666}, {"fusion_lat": 0.0, "name": "49fca20ef9f5f357d2e453c3d0d9e0fb", "is_disabled": 0, "rental_uris": {"android": "https://dc.lft.to/lastmile_qr_scan", "ios": "https://dc.lft.to/lastmile_qr_scan"}, "fusion_lon": 0.0, "lat": 38.90454716666667, "bike_id": "49fca20ef9f5f357d2e453c3d0d9e0fb", "type": "electric_scooter", "is_reserved": 0, "lon": -77.0533305}, {"fusion_lat": 0.0, "name": "47009892d509ddc1bdc5a32c82922676", "is_disabled": 0, "rental_uris": {"android": "https://dc.lft.to/lastmile_qr_scan", "ios": "https://dc.lft.to/lastmile_qr_scan"}, "fusion_lon": 0.0, "lat": 38.966970333333336, "bike_id": "47009892d509ddc1bdc5a32c82922676", "type": "electric_bike", "is_reserved": 0, "lon": -77.028318}, {"fusion_lat": 0.0, "name": "0ea357d3f1f29bd8fabacfc84d0c3e0b", "is_disabled": 0, "rental_uris": {"android": "https://dc.lft.to/lastmile_qr_scan", "ios": "https://dc.lft.to/lastmile_qr_scan"}, "fusion_lon": 0.0, "lat": 38.900466333333334, "bike_id": "0ea357d3f1f29bd8fabacfc84d0c3e0b", "type": "electric_scooter", "is_reserved": 0, "lon": -77.00066066666666}, {"fusion_lat": 0.0, "name": "364e57d84bd09566dd0518a6387b8773", "is_disabled": 0, "rental_uris": {"android": "https://dc.lft.to/lastmile_qr_scan", "ios": "https://dc.lft.to/lastmile_qr_scan"}, "fusion_lon": 0.0, "lat": 38.96614483333333, "bike_id": "364e57d84bd09566dd0518a6387b8773", "type": "electric_scooter", "is_reserved": 0, "lon": -77.03321866666667}, {"fusion_lat": 0.0, "name": "4e4fb73d909fdf8e5276ed1bf5b8d6bd", "is_disabled": 0, "rental_uris": {"android": "https://dc.lft.to/lastmile_qr_scan", "ios": "https://dc.lft.to/lastmile_qr_scan"}, "fusion_lon": 0.0, "lat": 38.915899833333334, "bike_id": "4e4fb73d909fdf8e5276ed1bf5b8d6bd", "type": "electric_scooter", "is_reserved": 0, "lon": -77.03214983333334}, {"fusion_lat": 0.0, "name": "0abbc28a279507187203892f87a84636", "is_disabled": 0, "rental_uris": {"android": "https://dc.lft.to/lastmile_qr_scan", "ios": "https://dc.lft.to/lastmile_qr_scan"}, "fusion_lon": 0.0, "lat": 38.905995, "bike_id": "0abbc28a279507187203892f87a84636", "type": "electric_scooter", "is_reserved": 0, "lon": -77.00685066666667}, {"fusion_lat": 0.0, "name": "97df9ae695f3c4069c6806f068c74230", "is_disabled": 0, "rental_uris": {"android": "https://dc.lft.to/lastmile_qr_scan", "ios": "https://dc.lft.to/lastmile_qr_scan"}, "fusion_lon": 0.0, "lat": 38.893136, "bike_id": "97df9ae695f3c4069c6806f068c74230", "type": "electric_scooter", "is_reserved": 0, "lon": -77.048696}, {"fusion_lat": 0.0, "name": "02d318e5f6f0365d893aa73450d67c8b", "is_disabled": 0, "rental_uris": {"android": "https://dc.lft.to/lastmile_qr_scan", "ios": "https://dc.lft.to/lastmile_qr_scan"}, "fusion_lon": 0.0, "lat": 38.8958555, "bike_id": "02d318e5f6f0365d893aa73450d67c8b", "type": "electric_scooter", "is_reserved": 0, "lon": -76.9831905}, {"fusion_lat": 0.0, "name": "ffcfeb548969a1251958442c2f625e98", "is_disabled": 0, "rental_uris": {"android": "https://dc.lft.to/lastmile_qr_scan", "ios": "https://dc.lft.to/lastmile_qr_scan"}, "fusion_lon": 0.0, "lat": 38.919281833333336, "bike_id": "ffcfeb548969a1251958442c2f625e98", "type": "electric_scooter", "is_reserved": 0, "lon": -77.03215033333333}, {"fusion_lat": 0.0, "name": "3cd0d2e7d961fce620e9f5dfaddf15af", "is_disabled": 0, "rental_uris": {"android": "https://dc.lft.to/lastmile_qr_scan", "ios": "https://dc.lft.to/lastmile_qr_scan"}, "fusion_lon": 0.0, "lat": 38.925406833333334, "bike_id": "3cd0d2e7d961fce620e9f5dfaddf15af", "type": "electric_scooter", "is_reserved": 0, "lon": -77.03485416666666}, {"fusion_lat": 0.0, "name": "96f4895148ab0069f8ae1cd7149200da", "is_disabled": 0, "rental_uris": {"android": "https://dc.lft.to/lastmile_qr_scan", "ios": "https://dc.lft.to/lastmile_qr_scan"}, "fusion_lon": 0.0, "lat": 38.930024333333336, "bike_id": "96f4895148ab0069f8ae1cd7149200da", "type": "electric_scooter", "is_reserved": 0, "lon": -77.0554275}, {"fusion_lat": 0.0, "name": "afca657dadee647a1c55170b54b00616", "is_disabled": 0, "rental_uris": {"android": "https://dc.lft.to/lastmile_qr_scan", "ios": "https://dc.lft.to/lastmile_qr_scan"}, "fusion_lon": 0.0, "lat": 38.913289166666665, "bike_id": "afca657dadee647a1c55170b54b00616", "type": "electric_scooter", "is_reserved": 0, "lon": -77.0198215}, {"fusion_lat": 0.0, "name": "63b4da173d5ddbaca868615e73ba5e39", "is_disabled": 0, "rental_uris": {"android": "https://dc.lft.to/lastmile_qr_scan", "ios": "https://dc.lft.to/lastmile_qr_scan"}, "fusion_lon": 0.0, "lat": 38.929165833333336, "bike_id": "63b4da173d5ddbaca868615e73ba5e39", "type": "electric_scooter", "is_reserved": 0, "lon": -77.032887}, {"fusion_lat": 0.0, "name": "6e2d38989c006562832ddef62288a99b", "is_disabled": 0, "rental_uris": {"android": "https://dc.lft.to/lastmile_qr_scan", "ios": "https://dc.lft.to/lastmile_qr_scan"}, "fusion_lon": 0.0, "lat": 38.89487616666667, "bike_id": "6e2d38989c006562832ddef62288a99b", "type": "electric_scooter", "is_reserved": 0, "lon": -77.00976133333333}, {"fusion_lat": 0.0, "name": "4a8440945c33176431af8adbb0a94025", "is_disabled": 0, "rental_uris": {"android": "https://dc.lft.to/lastmile_qr_scan", "ios": "https://dc.lft.to/lastmile_qr_scan"}, "fusion_lon": 0.0, "lat": 38.90343083333333, "bike_id": "4a8440945c33176431af8adbb0a94025", "type": "electric_scooter", "is_reserved": 0, "lon": -77.04486616666667}, {"fusion_lat": 0.0, "name": "c7d567acc1645c044dff3240d98c2be1", "is_disabled": 0, "rental_uris": {"android": "https://dc.lft.to/lastmile_qr_scan", "ios": "https://dc.lft.to/lastmile_qr_scan"}, "fusion_lon": 0.0, "lat": 38.877591833333334, "bike_id": "c7d567acc1645c044dff3240d98c2be1", "type": "electric_scooter", "is_reserved": 0, "lon": -77.003492}, {"fusion_lat": 0.0, "name": "4a043ba542d7e624941d27b1d815dec5", "is_disabled": 0, "rental_uris": {"android": "https://dc.lft.to/lastmile_qr_scan", "ios": "https://dc.lft.to/lastmile_qr_scan"}, "fusion_lon": 0.0, "lat": 38.9224525, "bike_id": "4a043ba542d7e624941d27b1d815dec5", "type": "electric_scooter", "is_reserved": 0, "lon": -77.0308485}, {"fusion_lat": 0.0, "name": "03efb9c10ef94cdc32d27710228f9aae", "is_disabled": 0, "rental_uris": {"android": "https://dc.lft.to/lastmile_qr_scan", "ios": "https://dc.lft.to/lastmile_qr_scan"}, "fusion_lon": 0.0, "lat": 38.9231745, "bike_id": "03efb9c10ef94cdc32d27710228f9aae", "type": "electric_scooter", "is_reserved": 0, "lon": -77.040297}, {"fusion_lat": 0.0, "name": "ff28b6a963e26c091c360be06526784e", "is_disabled": 0, "rental_uris": {"android": "https://dc.lft.to/lastmile_qr_scan", "ios": "https://dc.lft.to/lastmile_qr_scan"}, "fusion_lon": 0.0, "lat": 38.90532666666667, "bike_id": "ff28b6a963e26c091c360be06526784e", "type": "electric_bike", "is_reserved": 0, "lon": -76.99803066666666}, {"fusion_lat": 0.0, "name": "33d137704ad7e6d48acfe455798eb253", "is_disabled": 0, "rental_uris": {"android": "https://dc.lft.to/lastmile_qr_scan", "ios": "https://dc.lft.to/lastmile_qr_scan"}, "fusion_lon": 0.0, "lat": 38.8955825, "bike_id": "33d137704ad7e6d48acfe455798eb253", "type": "electric_scooter", "is_reserved": 0, "lon": -76.94871566666667}, {"fusion_lat": 0.0, "name": "b7351fda1b7c888984a90075bb74a504", "is_disabled": 0, "rental_uris": {"android": "https://dc.lft.to/lastmile_qr_scan", "ios": "https://dc.lft.to/lastmile_qr_scan"}, "fusion_lon": 0.0, "lat": 38.909341, "bike_id": "b7351fda1b7c888984a90075bb74a504", "type": "electric_scooter", "is_reserved": 0, "lon": -77.02815366666667}, {"fusion_lat": 0.0, "name": "a6990cffc170fa1f43ddeb9b6ad616fb", "is_disabled": 0, "rental_uris": {"android": "https://dc.lft.to/lastmile_qr_scan", "ios": "https://dc.lft.to/lastmile_qr_scan"}, "fusion_lon": 0.0, "lat": 38.93055183333333, "bike_id": "a6990cffc170fa1f43ddeb9b6ad616fb", "type": "electric_scooter", "is_reserved": 0, "lon": -77.03800683333333}, {"fusion_lat": 0.0, "name": "a9cb649efc4edb6ea5993d79396fd9af", "is_disabled": 0, "rental_uris": {"android": "https://dc.lft.to/lastmile_qr_scan", "ios": "https://dc.lft.to/lastmile_qr_scan"}, "fusion_lon": 0.0, "lat": 38.89733833333333, "bike_id": "a9cb649efc4edb6ea5993d79396fd9af", "type": "electric_scooter", "is_reserved": 0, "lon": -77.01914966666666}, {"fusion_lat": 0.0, "name": "c7a5ed002a447f22f150b7a2a20d38c9", "is_disabled": 0, "rental_uris": {"android": "https://dc.lft.to/lastmile_qr_scan", "ios": "https://dc.lft.to/lastmile_qr_scan"}, "fusion_lon": 0.0, "lat": 38.89622716666667, "bike_id": "c7a5ed002a447f22f150b7a2a20d38c9", "type": "electric_scooter", "is_reserved": 0, "lon": -77.00933666666667}, {"fusion_lat": 0.0, "name": "0b8bb1ae8d7f4b9ce26b4c9e729887b7", "is_disabled": 0, "rental_uris": {"android": "https://dc.lft.to/lastmile_qr_scan", "ios": "https://dc.lft.to/lastmile_qr_scan"}, "fusion_lon": 0.0, "lat": 38.88022766666667, "bike_id": "0b8bb1ae8d7f4b9ce26b4c9e729887b7", "type": "electric_scooter", "is_reserved": 0, "lon": -76.93113466666667}, {"fusion_lat": 0.0, "name": "ac80f4a1b1961827eaec01f9f1b17456", "is_disabled": 0, "rental_uris": {"android": "https://dc.lft.to/lastmile_qr_scan", "ios": "https://dc.lft.to/lastmile_qr_scan"}, "fusion_lon": 0.0, "lat": 38.921100833333334, "bike_id": "ac80f4a1b1961827eaec01f9f1b17456", "type": "electric_scooter", "is_reserved": 0, "lon": -77.06331566666667}, {"fusion_lat": 0.0, "name": "33b402ebc34c73bebe3838273224ba43", "is_disabled": 0, "rental_uris": {"android": "https://dc.lft.to/lastmile_qr_scan", "ios": "https://dc.lft.to/lastmile_qr_scan"}, "fusion_lon": 0.0, "lat": 38.917638, "bike_id": "33b402ebc34c73bebe3838273224ba43", "type": "electric_scooter", "is_reserved": 0, "lon": -77.02817633333333}, {"fusion_lat": 0.0, "name": "7ec2bee523475c319d0b88c9caa80a8b", "is_disabled": 0, "rental_uris": {"android": "https://dc.lft.to/lastmile_qr_scan", "ios": "https://dc.lft.to/lastmile_qr_scan"}, "fusion_lon": 0.0, "lat": 38.90260583333333, "bike_id": "7ec2bee523475c319d0b88c9caa80a8b", "type": "electric_scooter", "is_reserved": 0, "lon": -77.03977866666666}, {"fusion_lat": 0.0, "name": "b1392b6a9008260b6a960d9203f0bb4e", "is_disabled": 0, "rental_uris": {"android": "https://dc.lft.to/lastmile_qr_scan", "ios": "https://dc.lft.to/lastmile_qr_scan"}, "fusion_lon": 0.0, "lat": 38.8246175, "bike_id": "b1392b6a9008260b6a960d9203f0bb4e", "type": "electric_bike", "is_reserved": 0, "lon": -77.00793816666666}, {"fusion_lat": 0.0, "name": "c6468947b61d92a743e6526efcf9bbea", "is_disabled": 0, "rental_uris": {"android": "https://dc.lft.to/lastmile_qr_scan", "ios": "https://dc.lft.to/lastmile_qr_scan"}, "fusion_lon": 0.0, "lat": 38.916676, "bike_id": "c6468947b61d92a743e6526efcf9bbea", "type": "electric_scooter", "is_reserved": 0, "lon": -77.04381}, {"fusion_lat": 0.0, "name": "65937ea56ca7b180d5e0cba36ee01643", "is_disabled": 0, "rental_uris": {"android": "https://dc.lft.to/lastmile_qr_scan", "ios": "https://dc.lft.to/lastmile_qr_scan"}, "fusion_lon": 0.0, "lat": 38.90530283333333, "bike_id": "65937ea56ca7b180d5e0cba36ee01643", "type": "electric_scooter", "is_reserved": 0, "lon": -77.0298155}, {"fusion_lat": 0.0, "name": "dfa9ccd909b7f5d71f69986658a93e70", "is_disabled": 0, "rental_uris": {"android": "https://dc.lft.to/lastmile_qr_scan", "ios": "https://dc.lft.to/lastmile_qr_scan"}, "fusion_lon": 0.0, "lat": 38.924482, "bike_id": "dfa9ccd909b7f5d71f69986658a93e70", "type": "electric_scooter", "is_reserved": 0, "lon": -77.04021766666666}, {"fusion_lat": 0.0, "name": "d8a2a0b9b52153c84d028b01058d44c1", "is_disabled": 0, "rental_uris": {"android": "https://dc.lft.to/lastmile_qr_scan", "ios": "https://dc.lft.to/lastmile_qr_scan"}, "fusion_lon": 0.0, "lat": 38.91408466666667, "bike_id": "d8a2a0b9b52153c84d028b01058d44c1", "type": "electric_scooter", "is_reserved": 0, "lon": -77.00848016666667}, {"fusion_lat": 0.0, "name": "bb893c6e9bbce30c75f7a784a7e695c3", "is_disabled": 0, "rental_uris": {"android": "https://dc.lft.to/lastmile_qr_scan", "ios": "https://dc.lft.to/lastmile_qr_scan"}, "fusion_lon": 0.0, "lat": 38.899078, "bike_id": "bb893c6e9bbce30c75f7a784a7e695c3", "type": "electric_scooter", "is_reserved": 0, "lon": -76.94549566666667}, {"fusion_lat": 0.0, "name": "630270f261c38ee35767fce4c5eb23bc", "is_disabled": 0, "rental_uris": {"android": "https://dc.lft.to/lastmile_qr_scan", "ios": "https://dc.lft.to/lastmile_qr_scan"}, "fusion_lon": 0.0, "lat": 38.892179166666665, "bike_id": "630270f261c38ee35767fce4c5eb23bc", "type": "electric_scooter", "is_reserved": 0, "lon": -77.04871666666666}, {"fusion_lat": 0.0, "name": "5f4dad18574a6d1a784800c4eccfd3dd", "is_disabled": 0, "rental_uris": {"android": "https://dc.lft.to/lastmile_qr_scan", "ios": "https://dc.lft.to/lastmile_qr_scan"}, "fusion_lon": 0.0, "lat": 38.84294966666667, "bike_id": "5f4dad18574a6d1a784800c4eccfd3dd", "type": "electric_bike", "is_reserved": 0, "lon": -77.1086715}, {"fusion_lat": 0.0, "name": "908c979a366dad523106740382a91583", "is_disabled": 0, "rental_uris": {"android": "https://dc.lft.to/lastmile_qr_scan", "ios": "https://dc.lft.to/lastmile_qr_scan"}, "fusion_lon": 0.0, "lat": 38.947356166666665, "bike_id": "908c979a366dad523106740382a91583", "type": "electric_scooter", "is_reserved": 0, "lon": -77.01614233333333}, {"fusion_lat": 0.0, "name": "dc13183f1f5212c0610153094598a4a9", "is_disabled": 0, "rental_uris": {"android": "https://dc.lft.to/lastmile_qr_scan", "ios": "https://dc.lft.to/lastmile_qr_scan"}, "fusion_lon": 0.0, "lat": 38.92959533333333, "bike_id": "dc13183f1f5212c0610153094598a4a9", "type": "electric_scooter", "is_reserved": 0, "lon": -77.01979366666667}, {"fusion_lat": 0.0, "name": "3a8bc8c9afb8b5693c23f8054e6393fb", "is_disabled": 0, "rental_uris": {"android": "https://dc.lft.to/lastmile_qr_scan", "ios": "https://dc.lft.to/lastmile_qr_scan"}, "fusion_lon": 0.0, "lat": 38.944076333333335, "bike_id": "3a8bc8c9afb8b5693c23f8054e6393fb", "type": "electric_scooter", "is_reserved": 0, "lon": -77.0386095}, {"fusion_lat": 0.0, "name": "49ec1f217ed2a619808ce77fed382984", "is_disabled": 0, "rental_uris": {"android": "https://dc.lft.to/lastmile_qr_scan", "ios": "https://dc.lft.to/lastmile_qr_scan"}, "fusion_lon": 0.0, "lat": 38.90223233333333, "bike_id": "49ec1f217ed2a619808ce77fed382984", "type": "electric_scooter", "is_reserved": 0, "lon": -77.06139416666667}, {"fusion_lat": 0.0, "name": "f6f7b52c1c5b011f1c3e594cf494e2c0", "is_disabled": 0, "rental_uris": {"android": "https://dc.lft.to/lastmile_qr_scan", "ios": "https://dc.lft.to/lastmile_qr_scan"}, "fusion_lon": 0.0, "lat": 38.91334366666667, "bike_id": "f6f7b52c1c5b011f1c3e594cf494e2c0", "type": "electric_scooter", "is_reserved": 0, "lon": -77.047928}, {"fusion_lat": 0.0, "name": "c8b372c5fb6857e9f77fc70346c2e4dc", "is_disabled": 0, "rental_uris": {"android": "https://dc.lft.to/lastmile_qr_scan", "ios": "https://dc.lft.to/lastmile_qr_scan"}, "fusion_lon": 0.0, "lat": 38.91777533333333, "bike_id": "c8b372c5fb6857e9f77fc70346c2e4dc", "type": "electric_scooter", "is_reserved": 0, "lon": -77.02315733333333}, {"fusion_lat": 0.0, "name": "ca70d94208023c29ea5abefef10c84e2", "is_disabled": 0, "rental_uris": {"android": "https://dc.lft.to/lastmile_qr_scan", "ios": "https://dc.lft.to/lastmile_qr_scan"}, "fusion_lon": 0.0, "lat": 38.877471666666665, "bike_id": "ca70d94208023c29ea5abefef10c84e2", "type": "electric_scooter", "is_reserved": 0, "lon": -77.00735783333333}, {"fusion_lat": 0.0, "name": "da7f3d48e7397a8ccc3a1693b4bb97a2", "is_disabled": 0, "rental_uris": {"android": "https://dc.lft.to/lastmile_qr_scan", "ios": "https://dc.lft.to/lastmile_qr_scan"}, "fusion_lon": 0.0, "lat": 38.925521333333336, "bike_id": "da7f3d48e7397a8ccc3a1693b4bb97a2", "type": "electric_scooter", "is_reserved": 0, "lon": -77.04296383333333}, {"fusion_lat": 0.0, "name": "f3951ce4d0067632fb2215fedacf79f6", "is_disabled": 0, "rental_uris": {"android": "https://dc.lft.to/lastmile_qr_scan", "ios": "https://dc.lft.to/lastmile_qr_scan"}, "fusion_lon": 0.0, "lat": 38.901089, "bike_id": "f3951ce4d0067632fb2215fedacf79f6", "type": "electric_scooter", "is_reserved": 0, "lon": -77.02569066666666}, {"fusion_lat": 0.0, "name": "7ce4de8aedc02d261571eed76a2bb5ff", "is_disabled": 0, "rental_uris": {"android": "https://dc.lft.to/lastmile_qr_scan", "ios": "https://dc.lft.to/lastmile_qr_scan"}, "fusion_lon": 0.0, "lat": 38.91425, "bike_id": "7ce4de8aedc02d261571eed76a2bb5ff", "type": "electric_scooter", "is_reserved": 0, "lon": -77.0450685}, {"fusion_lat": 0.0, "name": "3b7a7d6debcbb02083a243b9976b35dd", "is_disabled": 0, "rental_uris": {"android": "https://dc.lft.to/lastmile_qr_scan", "ios": "https://dc.lft.to/lastmile_qr_scan"}, "fusion_lon": 0.0, "lat": 38.918122833333335, "bike_id": "3b7a7d6debcbb02083a243b9976b35dd", "type": "electric_scooter", "is_reserved": 0, "lon": -77.02682933333334}, {"fusion_lat": 0.0, "name": "843d525093e710b8449b276bcea1a467", "is_disabled": 0, "rental_uris": {"android": "https://dc.lft.to/lastmile_qr_scan", "ios": "https://dc.lft.to/lastmile_qr_scan"}, "fusion_lon": 0.0, "lat": 38.93096766666667, "bike_id": "843d525093e710b8449b276bcea1a467", "type": "electric_scooter", "is_reserved": 0, "lon": -77.03816883333333}, {"fusion_lat": 0.0, "name": "0456f2777c9f44be756a5ef82aec4be9", "is_disabled": 0, "rental_uris": {"android": "https://dc.lft.to/lastmile_qr_scan", "ios": "https://dc.lft.to/lastmile_qr_scan"}, "fusion_lon": 0.0, "lat": 38.92502366666667, "bike_id": "0456f2777c9f44be756a5ef82aec4be9", "type": "electric_scooter", "is_reserved": 0, "lon": -77.0216835}, {"fusion_lat": 0.0, "name": "8c01a56d7cdb95ea020ff1719592ff04", "is_disabled": 0, "rental_uris": {"android": "https://dc.lft.to/lastmile_qr_scan", "ios": "https://dc.lft.to/lastmile_qr_scan"}, "fusion_lon": 0.0, "lat": 38.9057655, "bike_id": "8c01a56d7cdb95ea020ff1719592ff04", "type": "electric_scooter", "is_reserved": 0, "lon": -77.04441133333333}, {"fusion_lat": 0.0, "name": "0a2615fe2b896380b10b026e4060cbbd", "is_disabled": 0, "rental_uris": {"android": "https://dc.lft.to/lastmile_qr_scan", "ios": "https://dc.lft.to/lastmile_qr_scan"}, "fusion_lon": 0.0, "lat": 38.918168666666666, "bike_id": "0a2615fe2b896380b10b026e4060cbbd", "type": "electric_scooter", "is_reserved": 0, "lon": -77.0374785}, {"fusion_lat": 0.0, "name": "dbbceb5191deb404c43d6ecad76e5161", "is_disabled": 0, "rental_uris": {"android": "https://dc.lft.to/lastmile_qr_scan", "ios": "https://dc.lft.to/lastmile_qr_scan"}, "fusion_lon": 0.0, "lat": 38.9181685, "bike_id": "dbbceb5191deb404c43d6ecad76e5161", "type": "electric_scooter", "is_reserved": 0, "lon": -77.03073983333333}, {"fusion_lat": 0.0, "name": "92cfe181c3ba1bb836d943bf1751e2c5", "is_disabled": 0, "rental_uris": {"android": "https://dc.lft.to/lastmile_qr_scan", "ios": "https://dc.lft.to/lastmile_qr_scan"}, "fusion_lon": 0.0, "lat": 38.923189666666666, "bike_id": "92cfe181c3ba1bb836d943bf1751e2c5", "type": "electric_scooter", "is_reserved": 0, "lon": -77.04025483333334}, {"fusion_lat": 0.0, "name": "82b2ea25a1b1ac8046ba61b6bb479a89", "is_disabled": 0, "rental_uris": {"android": "https://dc.lft.to/lastmile_qr_scan", "ios": "https://dc.lft.to/lastmile_qr_scan"}, "fusion_lon": 0.0, "lat": 38.87642533333333, "bike_id": "82b2ea25a1b1ac8046ba61b6bb479a89", "type": "electric_scooter", "is_reserved": 0, "lon": -77.001077}, {"fusion_lat": 0.0, "name": "37e1f32050e3340a3ae628fa411d006d", "is_disabled": 0, "rental_uris": {"android": "https://dc.lft.to/lastmile_qr_scan", "ios": "https://dc.lft.to/lastmile_qr_scan"}, "fusion_lon": 0.0, "lat": 38.95240533333333, "bike_id": "37e1f32050e3340a3ae628fa411d006d", "type": "electric_bike", "is_reserved": 0, "lon": -76.979565}, {"fusion_lat": 0.0, "name": "28e8d7b5455f6e5dc536886451050a53", "is_disabled": 0, "rental_uris": {"android": "https://dc.lft.to/lastmile_qr_scan", "ios": "https://dc.lft.to/lastmile_qr_scan"}, "fusion_lon": 0.0, "lat": 38.916314166666666, "bike_id": "28e8d7b5455f6e5dc536886451050a53", "type": "electric_scooter", "is_reserved": 0, "lon": -77.02973483333334}, {"fusion_lat": 0.0, "name": "e74db9432bbdc15b02ca5c3bfcd73c15", "is_disabled": 0, "rental_uris": {"android": "https://dc.lft.to/lastmile_qr_scan", "ios": "https://dc.lft.to/lastmile_qr_scan"}, "fusion_lon": 0.0, "lat": 38.880157833333335, "bike_id": "e74db9432bbdc15b02ca5c3bfcd73c15", "type": "electric_scooter", "is_reserved": 0, "lon": -76.98072466666666}, {"fusion_lat": 0.0, "name": "e7a018f31c7e087850aabce10eb350fe", "is_disabled": 0, "rental_uris": {"android": "https://dc.lft.to/lastmile_qr_scan", "ios": "https://dc.lft.to/lastmile_qr_scan"}, "fusion_lon": 0.0, "lat": 38.919377, "bike_id": "e7a018f31c7e087850aabce10eb350fe", "type": "electric_scooter", "is_reserved": 0, "lon": -77.02464816666667}, {"fusion_lat": 0.0, "name": "7734eb6a66928a8d6e1f1d06c7298323", "is_disabled": 0, "rental_uris": {"android": "https://dc.lft.to/lastmile_qr_scan", "ios": "https://dc.lft.to/lastmile_qr_scan"}, "fusion_lon": 0.0, "lat": 38.9023725, "bike_id": "7734eb6a66928a8d6e1f1d06c7298323", "type": "electric_scooter", "is_reserved": 0, "lon": -77.0019805}, {"fusion_lat": 0.0, "name": "aa0b985847b1741e7fe375e2cfb45e71", "is_disabled": 0, "rental_uris": {"android": "https://dc.lft.to/lastmile_qr_scan", "ios": "https://dc.lft.to/lastmile_qr_scan"}, "fusion_lon": 0.0, "lat": 38.906515, "bike_id": "aa0b985847b1741e7fe375e2cfb45e71", "type": "electric_scooter", "is_reserved": 0, "lon": -77.02229183333333}, {"fusion_lat": 0.0, "name": "c8482c52f476dbddd8db90818780a4a1", "is_disabled": 0, "rental_uris": {"android": "https://dc.lft.to/lastmile_qr_scan", "ios": "https://dc.lft.to/lastmile_qr_scan"}, "fusion_lon": 0.0, "lat": 38.917502166666665, "bike_id": "c8482c52f476dbddd8db90818780a4a1", "type": "electric_scooter", "is_reserved": 0, "lon": -77.06940383333334}, {"fusion_lat": 0.0, "name": "be4dc84e9f836ceb19d40df0e7254d43", "is_disabled": 0, "rental_uris": {"android": "https://dc.lft.to/lastmile_qr_scan", "ios": "https://dc.lft.to/lastmile_qr_scan"}, "fusion_lon": 0.0, "lat": 38.911146, "bike_id": "be4dc84e9f836ceb19d40df0e7254d43", "type": "electric_scooter", "is_reserved": 0, "lon": -77.01880033333333}, {"fusion_lat": 0.0, "name": "5741806db468eb598a0ae4f99f29b7a4", "is_disabled": 0, "rental_uris": {"android": "https://dc.lft.to/lastmile_qr_scan", "ios": "https://dc.lft.to/lastmile_qr_scan"}, "fusion_lon": 0.0, "lat": 38.91124516666667, "bike_id": "5741806db468eb598a0ae4f99f29b7a4", "type": "electric_scooter", "is_reserved": 0, "lon": -77.04373716666667}, {"fusion_lat": 0.0, "name": "f2d910279ac2d108bccc7a8b5e70c1fe", "is_disabled": 0, "rental_uris": {"android": "https://dc.lft.to/lastmile_qr_scan", "ios": "https://dc.lft.to/lastmile_qr_scan"}, "fusion_lon": 0.0, "lat": 38.9062485, "bike_id": "f2d910279ac2d108bccc7a8b5e70c1fe", "type": "electric_scooter", "is_reserved": 0, "lon": -77.0260465}, {"fusion_lat": 0.0, "name": "22c0d73353230e2d2f315e3f76a9dae5", "is_disabled": 0, "rental_uris": {"android": "https://dc.lft.to/lastmile_qr_scan", "ios": "https://dc.lft.to/lastmile_qr_scan"}, "fusion_lon": 0.0, "lat": 38.90023433333333, "bike_id": "22c0d73353230e2d2f315e3f76a9dae5", "type": "electric_scooter", "is_reserved": 0, "lon": -77.003283}, {"fusion_lat": 0.0, "name": "6269e503d1eb28c86f82d077dca45dd9", "is_disabled": 0, "rental_uris": {"android": "https://dc.lft.to/lastmile_qr_scan", "ios": "https://dc.lft.to/lastmile_qr_scan"}, "fusion_lon": 0.0, "lat": 38.871264, "bike_id": "6269e503d1eb28c86f82d077dca45dd9", "type": "electric_scooter", "is_reserved": 0, "lon": -77.0122825}, {"fusion_lat": 0.0, "name": "a2aecf634b500bb268b0daa75f0b6a4e", "is_disabled": 0, "rental_uris": {"android": "https://dc.lft.to/lastmile_qr_scan", "ios": "https://dc.lft.to/lastmile_qr_scan"}, "fusion_lon": 0.0, "lat": 38.896675, "bike_id": "a2aecf634b500bb268b0daa75f0b6a4e", "type": "electric_scooter", "is_reserved": 0, "lon": -77.01172583333333}, {"fusion_lat": 0.0, "name": "812ea13db007fc30fc73b2ae3e56fafb", "is_disabled": 0, "rental_uris": {"android": "https://dc.lft.to/lastmile_qr_scan", "ios": "https://dc.lft.to/lastmile_qr_scan"}, "fusion_lon": 0.0, "lat": 38.910448833333334, "bike_id": "812ea13db007fc30fc73b2ae3e56fafb", "type": "electric_scooter", "is_reserved": 0, "lon": -77.04389033333334}, {"fusion_lat": 0.0, "name": "d20f3df06e37c683ab3e84c7a82d528f", "is_disabled": 0, "rental_uris": {"android": "https://dc.lft.to/lastmile_qr_scan", "ios": "https://dc.lft.to/lastmile_qr_scan"}, "fusion_lon": 0.0, "lat": 38.92612783333333, "bike_id": "d20f3df06e37c683ab3e84c7a82d528f", "type": "electric_scooter", "is_reserved": 0, "lon": -77.0757145}, {"fusion_lat": 0.0, "name": "fbb1aa9f9903b0e39fefa27073b2d842", "is_disabled": 0, "rental_uris": {"android": "https://dc.lft.to/lastmile_qr_scan", "ios": "https://dc.lft.to/lastmile_qr_scan"}, "fusion_lon": 0.0, "lat": 38.905134833333335, "bike_id": "fbb1aa9f9903b0e39fefa27073b2d842", "type": "electric_scooter", "is_reserved": 0, "lon": -77.06131683333334}, {"fusion_lat": 0.0, "name": "962c01a3cf6d2761a3cf2ceccb83878c", "is_disabled": 0, "rental_uris": {"android": "https://dc.lft.to/lastmile_qr_scan", "ios": "https://dc.lft.to/lastmile_qr_scan"}, "fusion_lon": 0.0, "lat": 38.91601583333333, "bike_id": "962c01a3cf6d2761a3cf2ceccb83878c", "type": "electric_scooter", "is_reserved": 0, "lon": -77.045585}, {"fusion_lat": 0.0, "name": "568b45e13aab81de6180e186e06c1cdd", "is_disabled": 0, "rental_uris": {"android": "https://dc.lft.to/lastmile_qr_scan", "ios": "https://dc.lft.to/lastmile_qr_scan"}, "fusion_lon": 0.0, "lat": 38.922977, "bike_id": "568b45e13aab81de6180e186e06c1cdd", "type": "electric_scooter", "is_reserved": 0, "lon": -77.02328616666667}, {"fusion_lat": 0.0, "name": "4af1542a0128826f4ee380cebda8c7ac", "is_disabled": 0, "rental_uris": {"android": "https://dc.lft.to/lastmile_qr_scan", "ios": "https://dc.lft.to/lastmile_qr_scan"}, "fusion_lon": 0.0, "lat": 38.90110083333333, "bike_id": "4af1542a0128826f4ee380cebda8c7ac", "type": "electric_scooter", "is_reserved": 0, "lon": -76.97427266666666}, {"fusion_lat": 0.0, "name": "a97bb5636538dbce31a3bedd9ef42d92", "is_disabled": 0, "rental_uris": {"android": "https://dc.lft.to/lastmile_qr_scan", "ios": "https://dc.lft.to/lastmile_qr_scan"}, "fusion_lon": 0.0, "lat": 38.9282815, "bike_id": "a97bb5636538dbce31a3bedd9ef42d92", "type": "electric_scooter", "is_reserved": 0, "lon": -77.02255166666667}, {"fusion_lat": 0.0, "name": "32e82cd0efb27491d2e7995a71b5e214", "is_disabled": 0, "rental_uris": {"android": "https://dc.lft.to/lastmile_qr_scan", "ios": "https://dc.lft.to/lastmile_qr_scan"}, "fusion_lon": 0.0, "lat": 38.900767333333334, "bike_id": "32e82cd0efb27491d2e7995a71b5e214", "type": "electric_scooter", "is_reserved": 0, "lon": -77.02818183333333}, {"fusion_lat": 0.0, "name": "c536f83c90ace9cc5e431d85d918b64b", "is_disabled": 0, "rental_uris": {"android": "https://dc.lft.to/lastmile_qr_scan", "ios": "https://dc.lft.to/lastmile_qr_scan"}, "fusion_lon": 0.0, "lat": 38.924275, "bike_id": "c536f83c90ace9cc5e431d85d918b64b", "type": "electric_scooter", "is_reserved": 0, "lon": -77.05178383333333}, {"fusion_lat": 0.0, "name": "cc9d68bdfe85a050563d4ed1dc460a83", "is_disabled": 0, "rental_uris": {"android": "https://dc.lft.to/lastmile_qr_scan", "ios": "https://dc.lft.to/lastmile_qr_scan"}, "fusion_lon": 0.0, "lat": 38.92320633333333, "bike_id": "cc9d68bdfe85a050563d4ed1dc460a83", "type": "electric_scooter", "is_reserved": 0, "lon": -77.03539133333334}, {"fusion_lat": 0.0, "name": "81bace8facf73b6713d34eead5a0ef62", "is_disabled": 0, "rental_uris": {"android": "https://dc.lft.to/lastmile_qr_scan", "ios": "https://dc.lft.to/lastmile_qr_scan"}, "fusion_lon": 0.0, "lat": 38.879855666666664, "bike_id": "81bace8facf73b6713d34eead5a0ef62", "type": "electric_scooter", "is_reserved": 0, "lon": -76.9837955}, {"fusion_lat": 0.0, "name": "014ebb5e7108ae742460615e326a4b3d", "is_disabled": 0, "rental_uris": {"android": "https://dc.lft.to/lastmile_qr_scan", "ios": "https://dc.lft.to/lastmile_qr_scan"}, "fusion_lon": 0.0, "lat": 38.91107616666667, "bike_id": "014ebb5e7108ae742460615e326a4b3d", "type": "electric_scooter", "is_reserved": 0, "lon": -77.03156216666666}, {"fusion_lat": 0.0, "name": "4f66fac17c3dab66454866c3181e7a28", "is_disabled": 0, "rental_uris": {"android": "https://dc.lft.to/lastmile_qr_scan", "ios": "https://dc.lft.to/lastmile_qr_scan"}, "fusion_lon": 0.0, "lat": 38.934661166666665, "bike_id": "4f66fac17c3dab66454866c3181e7a28", "type": "electric_scooter", "is_reserved": 0, "lon": -77.04123416666667}, {"fusion_lat": 0.0, "name": "7af7720277e600b29000095e7486ba4b", "is_disabled": 0, "rental_uris": {"android": "https://dc.lft.to/lastmile_qr_scan", "ios": "https://dc.lft.to/lastmile_qr_scan"}, "fusion_lon": 0.0, "lat": 38.89971383333334, "bike_id": "7af7720277e600b29000095e7486ba4b", "type": "electric_scooter", "is_reserved": 0, "lon": -77.05272583333333}, {"fusion_lat": 0.0, "name": "62271a22546eb22a0b97b9afbd92354c", "is_disabled": 0, "rental_uris": {"android": "https://dc.lft.to/lastmile_qr_scan", "ios": "https://dc.lft.to/lastmile_qr_scan"}, "fusion_lon": 0.0, "lat": 38.930843, "bike_id": "62271a22546eb22a0b97b9afbd92354c", "type": "electric_scooter", "is_reserved": 0, "lon": -77.019986}, {"fusion_lat": 0.0, "name": "45a441fb1beb3cb11405f4a2e1777890", "is_disabled": 0, "rental_uris": {"android": "https://dc.lft.to/lastmile_qr_scan", "ios": "https://dc.lft.to/lastmile_qr_scan"}, "fusion_lon": 0.0, "lat": 38.90103666666667, "bike_id": "45a441fb1beb3cb11405f4a2e1777890", "type": "electric_scooter", "is_reserved": 0, "lon": -76.930485}, {"fusion_lat": 0.0, "name": "f788f14aaebd0892d2a81dc4287c8561", "is_disabled": 0, "rental_uris": {"android": "https://dc.lft.to/lastmile_qr_scan", "ios": "https://dc.lft.to/lastmile_qr_scan"}, "fusion_lon": 0.0, "lat": 38.9038775, "bike_id": "f788f14aaebd0892d2a81dc4287c8561", "type": "electric_scooter", "is_reserved": 0, "lon": -77.01779216666667}, {"fusion_lat": 0.0, "name": "442069438af99dd3fb908e13e9d56dcc", "is_disabled": 0, "rental_uris": {"android": "https://dc.lft.to/lastmile_qr_scan", "ios": "https://dc.lft.to/lastmile_qr_scan"}, "fusion_lon": 0.0, "lat": 38.8767375, "bike_id": "442069438af99dd3fb908e13e9d56dcc", "type": "electric_scooter", "is_reserved": 0, "lon": -77.00345333333334}, {"fusion_lat": 0.0, "name": "995f233ad220f15ef360fe1780bebef2", "is_disabled": 0, "rental_uris": {"android": "https://dc.lft.to/lastmile_qr_scan", "ios": "https://dc.lft.to/lastmile_qr_scan"}, "fusion_lon": 0.0, "lat": 38.923415, "bike_id": "995f233ad220f15ef360fe1780bebef2", "type": "electric_scooter", "is_reserved": 0, "lon": -77.05217816666666}, {"fusion_lat": 0.0, "name": "9d5da4cf6f0023c72e9ecf30e9184596", "is_disabled": 0, "rental_uris": {"android": "https://dc.lft.to/lastmile_qr_scan", "ios": "https://dc.lft.to/lastmile_qr_scan"}, "fusion_lon": 0.0, "lat": 38.923166, "bike_id": "9d5da4cf6f0023c72e9ecf30e9184596", "type": "electric_scooter", "is_reserved": 0, "lon": -77.04042666666666}, {"fusion_lat": 0.0, "name": "eed571c5a1ececee8ec64d7bf1c3383e", "is_disabled": 0, "rental_uris": {"android": "https://dc.lft.to/lastmile_qr_scan", "ios": "https://dc.lft.to/lastmile_qr_scan"}, "fusion_lon": 0.0, "lat": 38.897483333333334, "bike_id": "eed571c5a1ececee8ec64d7bf1c3383e", "type": "electric_scooter", "is_reserved": 0, "lon": -77.02439616666666}, {"fusion_lat": 0.0, "name": "4ae4acbf5cb4403255f79f4359b0dc80", "is_disabled": 0, "rental_uris": {"android": "https://dc.lft.to/lastmile_qr_scan", "ios": "https://dc.lft.to/lastmile_qr_scan"}, "fusion_lon": 0.0, "lat": 38.903509666666665, "bike_id": "4ae4acbf5cb4403255f79f4359b0dc80", "type": "electric_scooter", "is_reserved": 0, "lon": -76.97476883333333}, {"fusion_lat": 0.0, "name": "977f3ace39281485d9155f8ae79a0d75", "is_disabled": 0, "rental_uris": {"android": "https://dc.lft.to/lastmile_qr_scan", "ios": "https://dc.lft.to/lastmile_qr_scan"}, "fusion_lon": 0.0, "lat": 38.90795333333333, "bike_id": "977f3ace39281485d9155f8ae79a0d75", "type": "electric_scooter", "is_reserved": 0, "lon": -77.04234666666666}, {"fusion_lat": 0.0, "name": "40859d1be4a482bdb6d544d63ee6e6bd", "is_disabled": 0, "rental_uris": {"android": "https://dc.lft.to/lastmile_qr_scan", "ios": "https://dc.lft.to/lastmile_qr_scan"}, "fusion_lon": 0.0, "lat": 38.92235016666667, "bike_id": "40859d1be4a482bdb6d544d63ee6e6bd", "type": "electric_scooter", "is_reserved": 0, "lon": -77.03909416666667}, {"fusion_lat": 0.0, "name": "a1037fa3c58330da34b37955021af87a", "is_disabled": 0, "rental_uris": {"android": "https://dc.lft.to/lastmile_qr_scan", "ios": "https://dc.lft.to/lastmile_qr_scan"}, "fusion_lon": 0.0, "lat": 38.9318875, "bike_id": "a1037fa3c58330da34b37955021af87a", "type": "electric_scooter", "is_reserved": 0, "lon": -77.02006483333334}, {"fusion_lat": 0.0, "name": "681989cfa4738dfa3796e46304e0c564", "is_disabled": 0, "rental_uris": {"android": "https://dc.lft.to/lastmile_qr_scan", "ios": "https://dc.lft.to/lastmile_qr_scan"}, "fusion_lon": 0.0, "lat": 38.924747333333336, "bike_id": "681989cfa4738dfa3796e46304e0c564", "type": "electric_scooter", "is_reserved": 0, "lon": -77.02073216666666}, {"fusion_lat": 0.0, "name": "cfec5b4f85a0112edabc43fe03f4dc8b", "is_disabled": 0, "rental_uris": {"android": "https://dc.lft.to/lastmile_qr_scan", "ios": "https://dc.lft.to/lastmile_qr_scan"}, "fusion_lon": 0.0, "lat": 38.927015, "bike_id": "cfec5b4f85a0112edabc43fe03f4dc8b", "type": "electric_scooter", "is_reserved": 0, "lon": -77.02103516666666}, {"fusion_lat": 0.0, "name": "db4dc0d67a7d7c865f35f234570c38d9", "is_disabled": 0, "rental_uris": {"android": "https://dc.lft.to/lastmile_qr_scan", "ios": "https://dc.lft.to/lastmile_qr_scan"}, "fusion_lon": 0.0, "lat": 38.921363166666666, "bike_id": "db4dc0d67a7d7c865f35f234570c38d9", "type": "electric_scooter", "is_reserved": 0, "lon": -77.01934916666667}, {"fusion_lat": 0.0, "name": "3cbfd5a9c2177067894e2a04b46eb786", "is_disabled": 0, "rental_uris": {"android": "https://dc.lft.to/lastmile_qr_scan", "ios": "https://dc.lft.to/lastmile_qr_scan"}, "fusion_lon": 0.0, "lat": 38.906688333333335, "bike_id": "3cbfd5a9c2177067894e2a04b46eb786", "type": "electric_scooter", "is_reserved": 0, "lon": -77.03861816666667}, {"fusion_lat": 0.0, "name": "2c95db2ac370213ff4995c44726ca70a", "is_disabled": 0, "rental_uris": {"android": "https://dc.lft.to/lastmile_qr_scan", "ios": "https://dc.lft.to/lastmile_qr_scan"}, "fusion_lon": 0.0, "lat": 38.90518733333333, "bike_id": "2c95db2ac370213ff4995c44726ca70a", "type": "electric_scooter", "is_reserved": 0, "lon": -77.02961333333333}, {"fusion_lat": 0.0, "name": "14dbce8940e99eba152703ea7cbed401", "is_disabled": 0, "rental_uris": {"android": "https://dc.lft.to/lastmile_qr_scan", "ios": "https://dc.lft.to/lastmile_qr_scan"}, "fusion_lon": 0.0, "lat": 38.904836833333334, "bike_id": "14dbce8940e99eba152703ea7cbed401", "type": "electric_scooter", "is_reserved": 0, "lon": -77.03554783333334}, {"fusion_lat": 0.0, "name": "d3c94c4c64bcce2ddc23a079249326db", "is_disabled": 0, "rental_uris": {"android": "https://dc.lft.to/lastmile_qr_scan", "ios": "https://dc.lft.to/lastmile_qr_scan"}, "fusion_lon": 0.0, "lat": 38.90101266666667, "bike_id": "d3c94c4c64bcce2ddc23a079249326db", "type": "electric_scooter", "is_reserved": 0, "lon": -77.02617133333334}, {"fusion_lat": 0.0, "name": "17abb0561059e3a69618b8e95caac2c5", "is_disabled": 0, "rental_uris": {"android": "https://dc.lft.to/lastmile_qr_scan", "ios": "https://dc.lft.to/lastmile_qr_scan"}, "fusion_lon": 0.0, "lat": 38.9097045, "bike_id": "17abb0561059e3a69618b8e95caac2c5", "type": "electric_scooter", "is_reserved": 0, "lon": -77.03426233333333}, {"fusion_lat": 0.0, "name": "9427875f942b934c6e8cf5dadc8140c7", "is_disabled": 0, "rental_uris": {"android": "https://dc.lft.to/lastmile_qr_scan", "ios": "https://dc.lft.to/lastmile_qr_scan"}, "fusion_lon": 0.0, "lat": 38.932036, "bike_id": "9427875f942b934c6e8cf5dadc8140c7", "type": "electric_scooter", "is_reserved": 0, "lon": -77.03499233333334}, {"fusion_lat": 0.0, "name": "afa7469952f3572f49b37ec25a219b95", "is_disabled": 0, "rental_uris": {"android": "https://dc.lft.to/lastmile_qr_scan", "ios": "https://dc.lft.to/lastmile_qr_scan"}, "fusion_lon": 0.0, "lat": 38.91966166666667, "bike_id": "afa7469952f3572f49b37ec25a219b95", "type": "electric_scooter", "is_reserved": 0, "lon": -77.02350466666667}, {"fusion_lat": 0.0, "name": "662a7d971f3888a88ae70b9d99d7c70a", "is_disabled": 0, "rental_uris": {"android": "https://dc.lft.to/lastmile_qr_scan", "ios": "https://dc.lft.to/lastmile_qr_scan"}, "fusion_lon": 0.0, "lat": 38.897391666666664, "bike_id": "662a7d971f3888a88ae70b9d99d7c70a", "type": "electric_scooter", "is_reserved": 0, "lon": -77.04420183333333}, {"fusion_lat": 0.0, "name": "316faa805ae5a5675fe6ec2736f566f2", "is_disabled": 0, "rental_uris": {"android": "https://dc.lft.to/lastmile_qr_scan", "ios": "https://dc.lft.to/lastmile_qr_scan"}, "fusion_lon": 0.0, "lat": 38.937569333333336, "bike_id": "316faa805ae5a5675fe6ec2736f566f2", "type": "electric_scooter", "is_reserved": 0, "lon": -77.03257183333334}, {"fusion_lat": 0.0, "name": "b70be59e04dea8fa789f53e05b389fb6", "is_disabled": 0, "rental_uris": {"android": "https://dc.lft.to/lastmile_qr_scan", "ios": "https://dc.lft.to/lastmile_qr_scan"}, "fusion_lon": 0.0, "lat": 38.9275975, "bike_id": "b70be59e04dea8fa789f53e05b389fb6", "type": "electric_scooter", "is_reserved": 0, "lon": -77.05271633333334}, {"fusion_lat": 0.0, "name": "a3c1aab80332df422b1fc0d7d29264d9", "is_disabled": 0, "rental_uris": {"android": "https://dc.lft.to/lastmile_qr_scan", "ios": "https://dc.lft.to/lastmile_qr_scan"}, "fusion_lon": 0.0, "lat": 38.9001815, "bike_id": "a3c1aab80332df422b1fc0d7d29264d9", "type": "electric_scooter", "is_reserved": 0, "lon": -76.98815233333333}, {"fusion_lat": 0.0, "name": "dd93870ea2f48d8381918b41c789e6c8", "is_disabled": 0, "rental_uris": {"android": "https://dc.lft.to/lastmile_qr_scan", "ios": "https://dc.lft.to/lastmile_qr_scan"}, "fusion_lon": 0.0, "lat": 38.927839166666665, "bike_id": "dd93870ea2f48d8381918b41c789e6c8", "type": "electric_scooter", "is_reserved": 0, "lon": -77.05316816666667},