{"data": {"bikes": [{"fusion_lon": 0.0, "bike_id": "0b5e5f1cbd2524a689ae673dd770e6a1", "is_disabled": 0, "is_reserved": 0, "lat": 38.976023166666664, "name": "0b5e5f1cbd2524a689ae673dd770e6a1", "rental_uris": {"ios": "https://dc.lft.to/lastmile_qr_scan", "android": "https://dc.lft.to/lastmile_qr_scan"}, "type": "electric_scooter", "fusion_lat": 0.0, "lon": -77.02655383333334}, {"fusion_lon": 0.0, "bike_id": "ac7457a717adc594ce26d7b2e15a5ddd", "is_disabled": 0, "is_reserved": 0, "lat": 38.91558333333333, "name": "ac7457a717adc594ce26d7b2e15a5ddd", "rental_uris": {"ios": "https://dc.lft.to/lastmile_qr_scan", "android": "https://dc.lft.to/lastmile_qr_scan"}, "type": "electric_scooter", "fusion_lat": 0.0, "lon": -77.01207816666667}, {"fusion_lon": 0.0, "bike_id": "7de0aa04c3e77c53e2c61b067d12a9bb", "is_disabled": 0, "is_reserved": 0, "lat": 38.9180285, "name": "7de0aa04c3e77c53e2c61b067d12a9bb", "rental_uris": {"ios": "https://dc.lft.to/lastmile_qr_scan", "android": "https://dc.lft.to/lastmile_qr_scan"}, "type": "electric_scooter", "fusion_lat": 0.0, "lon": -77.02452116666667}, {"fusion_lon": 0.0, "bike_id": "0b5d3f0bdd3fa2149179af6e1cf5d2d2", "is_disabled": 0, "is_reserved": 0, "lat": 38.932723, "name": "0b5d3f0bdd3fa2149179af6e1cf5d2d2", "rental_uris": {"ios": "https://dc.lft.to/lastmile_qr_scan", "android": "https://dc.lft.to/lastmile_qr_scan"}, "type": "electric_scooter", "fusion_lat": 0.0, "lon": -77.0348185}, {"fusion_lon": 0.0, "bike_id": "019d2eb4c98407288fe214d929a78952", "is_disabled": 0, "is_reserved": 0, "lat": 38.90869216666667, "name": "019d2eb4c98407288fe214d929a78952", "rental_uris": {"ios": "https://dc.lft.to/lastmile_qr_scan", "android": "https://dc.lft.to/lastmile_qr_scan"}, "type": "electric_scooter", "fusion_lat": 0.0, "lon": -77.044785}, {"fusion_lon": 0.0, "bike_id": "86b460783de289ae38cc5a3974e222a0", "is_disabled": 0, "is_reserved": 0, "lat": 38.92774933333333, "name": "86b460783de289ae38cc5a3974e222a0", "rental_uris": {"ios": "https://dc.lft.to/lastmile_qr_scan", "android": "https://dc.lft.to/lastmile_qr_scan"}, "type": "electric_scooter", "fusion_lat": 0.0, "lon": -77.0205185}, {"fusion_lon": 0.0, "bike_id": "c5a45bda37c18ee68d1cfb31a95bd674", "is_disabled": 0, "is_reserved": 0, "lat": 38.927553833333334, "name": "c5a45bda37c18ee68d1cfb31a95bd674", "rental_uris": {"ios": "https://dc.lft.to/lastmile_qr_scan", "android": "https://dc.lft.to/lastmile_qr_scan"}, "type": "electric_scooter", "fusion_lat": 0.0, "lon": -77.02940233333334}, {"fusion_lon": 0.0, "bike_id": "3fd982a5873360524ea7dc446caefd1e", "is_disabled": 0, "is_reserved": 0, "lat": 38.876777, "name": "3fd982a5873360524ea7dc446caefd1e", "rental_uris": {"ios": "https://dc.lft.to/lastmile_qr_scan", "android": "https://dc.lft.to/lastmile_qr_scan"}, "type": "electric_bike", "fusion_lat": 0.0, "lon": -77.01461266666666}, {"fusion_lon": 0.0, "bike_id": "53dec4db4044e5a68503d408d3f256a4", "is_disabled": 0, "is_reserved": 0, "lat": 38.918778, "name": "53dec4db4044e5a68503d408d3f256a4", "rental_uris": {"ios": "https://dc.lft.to/lastmile_qr_scan", "android": "https://dc.lft.to/lastmile_qr_scan"}, "type": "electric_scooter", "fusion_lat": 0.0, "lon": -77.04473716666666}, {"fusion_lon": 0.0, "bike_id": "9a9387eb4602d107e4013bc7bdd0863f", "is_disabled": 0, "is_reserved": 0, "lat": 38.91183516666667, "name": "9a9387eb4602d107e4013bc7bdd0863f", "rental_uris": {"ios": "https://dc.lft.to/lastmile_qr_scan", "android": "https://dc.lft.to/lastmile_qr_scan"}, "type": "electric_scooter", "fusion_lat": 0.0, "lon": -77.03213116666667}, {"fusion_lon": 0.0, "bike_id": "ba2251398e887c0ba0145e98df489612", "is_disabled": 0, "is_reserved": 0, "lat": 38.902385, "name": "ba2251398e887c0ba0145e98df489612", "rental_uris": {"ios": "https://dc.lft.to/lastmile_qr_scan", "android": "https://dc.lft.to/lastmile_qr_scan"}, "type": "electric_scooter", "fusion_lat": 0.0, "lon": -77.03955783333333}, {"fusion_lon": 0.0, "bike_id": "c2d9a3a35c65fd32b01dc9b97c5cef98", "is_disabled": 0, "is_reserved": 0, "lat": 38.91106033333333, "name": "c2d9a3a35c65fd32b01dc9b97c5cef98", "rental_uris": {"ios": "https://dc.lft.to/lastmile_qr_scan", "android": "https://dc.lft.to/lastmile_qr_scan"}, "type": "electric_scooter", "fusion_lat": 0.0, "lon": -77.04471383333333}, {"fusion_lon": 0.0, "bike_id": "131d1ea21c760da5d51c22d7d9cc678d", "is_disabled": 0, "is_reserved": 0, "lat": 38.923221, "name": "131d1ea21c760da5d51c22d7d9cc678d", "rental_uris": {"ios": "https://dc.lft.to/lastmile_qr_scan", "android": "https://dc.lft.to/lastmile_qr_scan"}, "type": "electric_scooter", "fusion_lat": 0.0, "lon": -77.03909283333333}, {"fusion_lon": 0.0, "bike_id": "8f6a808caaa9f20b991643548769bd73", "is_disabled": 0, "is_reserved": 0, "lat": 38.918122, "name": "8f6a808caaa9f20b991643548769bd73", "rental_uris": {"ios": "https://dc.lft.to/lastmile_qr_scan", "android": "https://dc.lft.to/lastmile_qr_scan"}, "type": "electric_scooter", "fusion_lat": 0.0, "lon": -77.04979666666667}, {"fusion_lon": 0.0, "bike_id": "e880d94a09302f2e75b7d7866ec21c29", "is_disabled": 0, "is_reserved": 0, "lat": 38.89977183333333, "name": "e880d94a09302f2e75b7d7866ec21c29", "rental_uris": {"ios": "https://dc.lft.to/lastmile_qr_scan", "android": "https://dc.lft.to/lastmile_qr_scan"}, "type": "electric_scooter", "fusion_lat": 0.0, "lon": -77.01935233333333}, {"fusion_lon": 0.0, "bike_id": "47e7c7df5496c378fd90de730db3b710", "is_disabled": 0, "is_reserved": 0, "lat": 38.89137733333333, "name": "47e7c7df5496c378fd90de730db3b710", "rental_uris": {"ios": "https://dc.lft.to/lastmile_qr_scan", "android": "https://dc.lft.to/lastmile_qr_scan"}, "type": "electric_scooter", "fusion_lat": 0.0, "lon": -76.99946266666667}, {"fusion_lon": 0.0, "bike_id": "f89258c8eecc59471336a0aed2898f3f", "is_disabled": 0, "is_reserved": 0, "lat": 38.93286666666667, "name": "f89258c8eecc59471336a0aed2898f3f", "rental_uris": {"ios": "https://dc.lft.to/lastmile_qr_scan", "android": "https://dc.lft.to/lastmile_qr_scan"}, "type": "electric_scooter", "fusion_lat": 0.0, "lon": -76.98646133333334}, {"fusion_lon": 0.0, "bike_id": "6abc57b8cd9f1a736939a87a1b454f2e", "is_disabled": 0, "is_reserved": 0, "lat": 38.974448333333335, "name": "6abc57b8cd9f1a736939a87a1b454f2e", "rental_uris": {"ios": "https://dc.lft.to/lastmile_qr_scan", "android": "https://dc.lft.to/lastmile_qr_scan"}, "type": "electric_bike", "fusion_lat": 0.0, "lon": -77.09612966666667}, {"fusion_lon": 0.0, "bike_id": "9c18fce781a07a1a153b74eae01e1000", "is_disabled": 0, "is_reserved": 0, "lat": 38.919158333333336, "name": "9c18fce781a07a1a153b74eae01e1000", "rental_uris": {"ios": "https://dc.lft.to/lastmile_qr_scan", "android": "https://dc.lft.to/lastmile_qr_scan"}, "type": "electric_scooter", "fusion_lat": 0.0, "lon": -77.03418633333334}, {"fusion_lon": 0.0, "bike_id": "7bd9919f85e0fc539e9d83044b3ee66f", "is_disabled": 0, "is_reserved": 0, "lat": 38.854451, "name": "7bd9919f85e0fc539e9d83044b3ee66f", "rental_uris": {"ios": "https://dc.lft.to/lastmile_qr_scan", "android": "https://dc.lft.to/lastmile_qr_scan"}, "type": "electric_scooter", "fusion_lat": 0.0, "lon": -76.98610416666666}, {"fusion_lon": 0.0, "bike_id": "fc6e8578a9ef0f874c635e2e41df1d42", "is_disabled": 0, "is_reserved": 0, "lat": 38.92406583333333, "name": "fc6e8578a9ef0f874c635e2e41df1d42", "rental_uris": {"ios": "https://dc.lft.to/lastmile_qr_scan", "android": "https://dc.lft.to/lastmile_qr_scan"}, "type": "electric_scooter", "fusion_lat": 0.0, "lon": -77.02013166666667}, {"fusion_lon": 0.0, "bike_id": "056a0a8fcb537a3c92e5b7c7e9b26d56", "is_disabled": 0, "is_reserved": 0, "lat": 38.913658166666664, "name": "056a0a8fcb537a3c92e5b7c7e9b26d56", "rental_uris": {"ios": "https://dc.lft.to/lastmile_qr_scan", "android": "https://dc.lft.to/lastmile_qr_scan"}, "type": "electric_scooter", "fusion_lat": 0.0, "lon": -77.02054566666666}, {"fusion_lon": 0.0, "bike_id": "bc136c86e704e68ba296a64107cb33fd", "is_disabled": 0, "is_reserved": 0, "lat": 38.917786, "name": "bc136c86e704e68ba296a64107cb33fd", "rental_uris": {"ios": "https://dc.lft.to/lastmile_qr_scan", "android": "https://dc.lft.to/lastmile_qr_scan"}, "type": "electric_scooter", "fusion_lat": 0.0, "lon": -77.04754683333333}, {"fusion_lon": 0.0, "bike_id": "cb32ede178096063bcde51dd66f873e5", "is_disabled": 0, "is_reserved": 0, "lat": 38.804247, "name": "cb32ede178096063bcde51dd66f873e5", "rental_uris": {"ios": "https://dc.lft.to/lastmile_qr_scan", "android": "https://dc.lft.to/lastmile_qr_scan"}, "type": "electric_bike", "fusion_lat": 0.0, "lon": -77.060831}, {"fusion_lon": 0.0, "bike_id": "8e2c47c2bb80bcf5a97913cbc2fbbeab", "is_disabled": 0, "is_reserved": 0, "lat": 38.8995545, "name": "8e2c47c2bb80bcf5a97913cbc2fbbeab", "rental_uris": {"ios": "https://dc.lft.to/lastmile_qr_scan", "android": "https://dc.lft.to/lastmile_qr_scan"}, "type": "electric_scooter", "fusion_lat": 0.0, "lon": -77.04509533333334}, {"fusion_lon": 0.0, "bike_id": "d664c709767448f970b216582f99dc99", "is_disabled": 0, "is_reserved": 0, "lat": 38.946334, "name": "d664c709767448f970b216582f99dc99", "rental_uris": {"ios": "https://dc.lft.to/lastmile_qr_scan", "android": "https://dc.lft.to/lastmile_qr_scan"}, "type": "electric_bike", "fusion_lat": 0.0, "lon": -76.993096}, {"fusion_lon": 0.0, "bike_id": "5697f7728f3a7df74da62adb066393c8", "is_disabled": 0, "is_reserved": 0, "lat": 38.9649195, "name": "5697f7728f3a7df74da62adb066393c8", "rental_uris": {"ios": "https://dc.lft.to/lastmile_qr_scan", "android": "https://dc.lft.to/lastmile_qr_scan"}, "type": "electric_bike", "fusion_lat": 0.0, "lon": -77.02857916666666}, {"fusion_lon": 0.0, "bike_id": "7422961b19693545ea1255f21aff3308", "is_disabled": 0, "is_reserved": 0, "lat": 38.93114716666667, "name": "7422961b19693545ea1255f21aff3308", "rental_uris": {"ios": "https://dc.lft.to/lastmile_qr_scan", "android": "https://dc.lft.to/lastmile_qr_scan"}, "type": "electric_scooter", "fusion_lat": 0.0, "lon": -77.0212145}, {"fusion_lon": 0.0, "bike_id": "173bce08dff1cc361bc2181fa67a2d72", "is_disabled": 0, "is_reserved": 0, "lat": 38.92368283333333, "name": "173bce08dff1cc361bc2181fa67a2d72", "rental_uris": {"ios": "https://dc.lft.to/lastmile_qr_scan", "android": "https://dc.lft.to/lastmile_qr_scan"}, "type": "electric_scooter", "fusion_lat": 0.0, "lon": -77.01957383333334}, {"fusion_lon": 0.0, "bike_id": "6cd7d52a3b78e5b99658f2eeaa200db0", "is_disabled": 0, "is_reserved": 0, "lat": 38.903347833333335, "name": "6cd7d52a3b78e5b99658f2eeaa200db0", "rental_uris": {"ios": "https://dc.lft.to/lastmile_qr_scan", "android": "https://dc.lft.to/lastmile_qr_scan"}, "type": "electric_scooter", "fusion_lat": 0.0, "lon": -77.0493805}, {"fusion_lon": 0.0, "bike_id": "e5ce4675bde6ee748e47c8703080ad5c", "is_disabled": 0, "is_reserved": 0, "lat": 38.91927033333333, "name": "e5ce4675bde6ee748e47c8703080ad5c", "rental_uris": {"ios": "https://dc.lft.to/lastmile_qr_scan", "android": "https://dc.lft.to/lastmile_qr_scan"}, "type": "electric_scooter", "fusion_lat": 0.0, "lon": -77.03419233333334}, {"fusion_lon": 0.0, "bike_id": "202ab3a1319799ad9b5882347a57123d", "is_disabled": 0, "is_reserved": 0, "lat": 38.923353666666664, "name": "202ab3a1319799ad9b5882347a57123d", "rental_uris": {"ios": "https://dc.lft.to/lastmile_qr_scan", "android": "https://dc.lft.to/lastmile_qr_scan"}, "type": "electric_scooter", "fusion_lat": 0.0, "lon": -77.02130883333334}, {"fusion_lon": 0.0, "bike_id": "641d5c6ee91bbb41084d4142cdd8e225", "is_disabled": 0, "is_reserved": 0, "lat": 38.9228365, "name": "641d5c6ee91bbb41084d4142cdd8e225", "rental_uris": {"ios": "https://dc.lft.to/lastmile_qr_scan", "android": "https://dc.lft.to/lastmile_qr_scan"}, "type": "electric_scooter", "fusion_lat": 0.0, "lon": -77.03659533333334}, {"fusion_lon": 0.0, "bike_id": "6a369ef668df72e08a5803f07ad7bc0a", "is_disabled": 0, "is_reserved": 0, "lat": 38.892574333333336, "name": "6a369ef668df72e08a5803f07ad7bc0a", "rental_uris": {"ios": "https://dc.lft.to/lastmile_qr_scan", "android": "https://dc.lft.to/lastmile_qr_scan"}, "type": "electric_scooter", "fusion_lat": 0.0, "lon": -77.045079}, {"fusion_lon": 0.0, "bike_id": "cd46cfa787008898a5173a832a7c3be2", "is_disabled": 0, "is_reserved": 0, "lat": 38.906761833333334, "name": "cd46cfa787008898a5173a832a7c3be2", "rental_uris": {"ios": "https://dc.lft.to/lastmile_qr_scan", "android": "https://dc.lft.to/lastmile_qr_scan"}, "type": "electric_scooter", "fusion_lat": 0.0, "lon": -77.06264433333334}, {"fusion_lon": 0.0, "bike_id": "4c7a5927d24f041f4b52f45f066efc62", "is_disabled": 0, "is_reserved": 0, "lat": 38.8922205, "name": "4c7a5927d24f041f4b52f45f066efc62", "rental_uris": {"ios": "https://dc.lft.to/lastmile_qr_scan", "android": "https://dc.lft.to/lastmile_qr_scan"}, "type": "electric_scooter", "fusion_lat": 0.0, "lon": -77.0487735}, {"fusion_lon": 0.0, "bike_id": "bf53608f4809c8739f9837134389cb37", "is_disabled": 0, "is_reserved": 0, "lat": 38.919859333333335, "name": "bf53608f4809c8739f9837134389cb37", "rental_uris": {"ios": "https://dc.lft.to/lastmile_qr_scan", "android": "https://dc.lft.to/lastmile_qr_scan"}, "type": "electric_scooter", "fusion_lat": 0.0, "lon": -77.02393366666666}, {"fusion_lon": 0.0, "bike_id": "5970d791e9a945accab9c56f97c56aae", "is_disabled": 0, "is_reserved": 0, "lat": 38.9015915, "name": "5970d791e9a945accab9c56f97c56aae", "rental_uris": {"ios": "https://dc.lft.to/lastmile_qr_scan", "android": "https://dc.lft.to/lastmile_qr_scan"}, "type": "electric_scooter", "fusion_lat": 0.0, "lon": -77.03451583333333}, {"fusion_lon": 0.0, "bike_id": "df1e2f10d342df64fc36b88031fcb26b", "is_disabled": 0, "is_reserved": 0, "lat": 38.92077166666667, "name": "df1e2f10d342df64fc36b88031fcb26b", "rental_uris": {"ios": "https://dc.lft.to/lastmile_qr_scan", "android": "https://dc.lft.to/lastmile_qr_scan"}, "type": "electric_scooter", "fusion_lat": 0.0, "lon": -77.02397833333333}, {"fusion_lon": 0.0, "bike_id": "fa9f799e4c2f41e14b2a2ca7b6b9dd7a", "is_disabled": 0, "is_reserved": 0, "lat": 38.91293666666667, "name": "fa9f799e4c2f41e14b2a2ca7b6b9dd7a", "rental_uris": {"ios": "https://dc.lft.to/lastmile_qr_scan", "android": "https://dc.lft.to/lastmile_qr_scan"}, "type": "electric_scooter", "fusion_lat": 0.0, "lon": -76.98688783333333}, {"fusion_lon": 0.0, "bike_id": "48906fe19fb8749cd806e6d02e23967d", "is_disabled": 0, "is_reserved": 0, "lat": 38.910294666666665, "name": "48906fe19fb8749cd806e6d02e23967d", "rental_uris": {"ios": "https://dc.lft.to/lastmile_qr_scan", "android": "https://dc.lft.to/lastmile_qr_scan"}, "type": "electric_scooter", "fusion_lat": 0.0, "lon": -77.0294325}, {"fusion_lon": 0.0, "bike_id": "e13e1cca04d49584ea2e56d93bfd2c6f", "is_disabled": 0, "is_reserved": 0, "lat": 38.846141333333335, "name": "e13e1cca04d49584ea2e56d93bfd2c6f", "rental_uris": {"ios": "https://dc.lft.to/lastmile_qr_scan", "android": "https://dc.lft.to/lastmile_qr_scan"}, "type": "electric_bike", "fusion_lat": 0.0, "lon": -76.978231}, {"fusion_lon": 0.0, "bike_id": "42c566e52dd247dbb68e8809afe38cec", "is_disabled": 0, "is_reserved": 0, "lat": 38.88106616666666, "name": "42c566e52dd247dbb68e8809afe38cec", "rental_uris": {"ios": "https://dc.lft.to/lastmile_qr_scan", "android": "https://dc.lft.to/lastmile_qr_scan"}, "type": "electric_scooter", "fusion_lat": 0.0, "lon": -77.016628}, {"fusion_lon": 0.0, "bike_id": "19d92bacebe31e4a39ab0c98c11a0fb6", "is_disabled": 0, "is_reserved": 0, "lat": 38.91693566666667, "name": "19d92bacebe31e4a39ab0c98c11a0fb6", "rental_uris": {"ios": "https://dc.lft.to/lastmile_qr_scan", "android": "https://dc.lft.to/lastmile_qr_scan"}, "type": "electric_scooter", "fusion_lat": 0.0, "lon": -77.02725783333334}, {"fusion_lon": 0.0, "bike_id": "91e8dd2a4e63096bc2fb1305336f8ddd", "is_disabled": 0, "is_reserved": 0, "lat": 38.9068555, "name": "91e8dd2a4e63096bc2fb1305336f8ddd", "rental_uris": {"ios": "https://dc.lft.to/lastmile_qr_scan", "android": "https://dc.lft.to/lastmile_qr_scan"}, "type": "electric_scooter", "fusion_lat": 0.0, "lon": -77.0717335}, {"fusion_lon": 0.0, "bike_id": "a4cc434ec7b74941daa269f3ec284434", "is_disabled": 0, "is_reserved": 0, "lat": 38.9090185, "name": "a4cc434ec7b74941daa269f3ec284434", "rental_uris": {"ios": "https://dc.lft.to/lastmile_qr_scan", "android": "https://dc.lft.to/lastmile_qr_scan"}, "type": "electric_scooter", "fusion_lat": 0.0, "lon": -76.99778416666666}, {"fusion_lon": 0.0, "bike_id": "9684a9774d5a126057a98fa367f7fb7b", "is_disabled": 0, "is_reserved": 0, "lat": 38.914042333333335, "name": "9684a9774d5a126057a98fa367f7fb7b", "rental_uris": {"ios": "https://dc.lft.to/lastmile_qr_scan", "android": "https://dc.lft.to/lastmile_qr_scan"}, "type": "electric_scooter", "fusion_lat": 0.0, "lon": -77.01072516666666}, {"fusion_lon": 0.0, "bike_id": "18513c23915b9b2d1ab83f4a95ff0e7a", "is_disabled": 0, "is_reserved": 0, "lat": 38.91113433333334, "name": "18513c23915b9b2d1ab83f4a95ff0e7a", "rental_uris": {"ios": "https://dc.lft.to/lastmile_qr_scan", "android": "https://dc.lft.to/lastmile_qr_scan"}, "type": "electric_scooter", "fusion_lat": 0.0, "lon": -77.03831283333334}, {"fusion_lon": 0.0, "bike_id": "767cbd1f710eb234cd11a6b7558559d6", "is_disabled": 0, "is_reserved": 0, "lat": 38.92754883333333, "name": "767cbd1f710eb234cd11a6b7558559d6", "rental_uris": {"ios": "https://dc.lft.to/lastmile_qr_scan", "android": "https://dc.lft.to/lastmile_qr_scan"}, "type": "electric_scooter", "fusion_lat": 0.0, "lon": -77.03301733333333}, {"fusion_lon": 0.0, "bike_id": "31e46ebd0a474d408140605666412fe6", "is_disabled": 0, "is_reserved": 0, "lat": 38.94262583333333, "name": "31e46ebd0a474d408140605666412fe6", "rental_uris": {"ios": "https://dc.lft.to/lastmile_qr_scan", "android": "https://dc.lft.to/lastmile_qr_scan"}, "type": "electric_scooter", "fusion_lat": 0.0, "lon": -77.02982866666666}, {"fusion_lon": 0.0, "bike_id": "6784b3e5296b1be4f30b1979c9aa2ce8", "is_disabled": 0, "is_reserved": 0, "lat": 38.87459883333333, "name": "6784b3e5296b1be4f30b1979c9aa2ce8", "rental_uris": {"ios": "https://dc.lft.to/lastmile_qr_scan", "android": "https://dc.lft.to/lastmile_qr_scan"}, "type": "electric_scooter", "fusion_lat": 0.0, "lon": -77.00060566666667}, {"fusion_lon": 0.0, "bike_id": "3a8c52680d8eb47574016ff45f4b4805", "is_disabled": 0, "is_reserved": 0, "lat": 38.91868616666667, "name": "3a8c52680d8eb47574016ff45f4b4805", "rental_uris": {"ios": "https://dc.lft.to/lastmile_qr_scan", "android": "https://dc.lft.to/lastmile_qr_scan"}, "type": "electric_scooter", "fusion_lat": 0.0, "lon": -77.04474633333334}, {"fusion_lon": 0.0, "bike_id": "ad2a14aa6a090de08a908e79c93ef50f", "is_disabled": 0, "is_reserved": 0, "lat": 38.92480533333333, "name": "ad2a14aa6a090de08a908e79c93ef50f", "rental_uris": {"ios": "https://dc.lft.to/lastmile_qr_scan", "android": "https://dc.lft.to/lastmile_qr_scan"}, "type": "electric_scooter", "fusion_lat": 0.0, "lon": -77.02670766666667}, {"fusion_lon": 0.0, "bike_id": "55cc21ac1fd252c584c355f4e0135c9b", "is_disabled": 0, "is_reserved": 0, "lat": 38.90817916666666, "name": "55cc21ac1fd252c584c355f4e0135c9b", "rental_uris": {"ios": "https://dc.lft.to/lastmile_qr_scan", "android": "https://dc.lft.to/lastmile_qr_scan"}, "type": "electric_scooter", "fusion_lat": 0.0, "lon": -77.031985}, {"fusion_lon": 0.0, "bike_id": "630658dfd06936c3f748563e464db333", "is_disabled": 0, "is_reserved": 0, "lat": 38.874637166666666, "name": "630658dfd06936c3f748563e464db333", "rental_uris": {"ios": "https://dc.lft.to/lastmile_qr_scan", "android": "https://dc.lft.to/lastmile_qr_scan"}, "type": "electric_scooter", "fusion_lat": 0.0, "lon": -77.01573666666667}, {"fusion_lon": 0.0, "bike_id": "3b65a6aafb7e2f9f97e1ae786baea9ab", "is_disabled": 0, "is_reserved": 0, "lat": 38.9286755, "name": "3b65a6aafb7e2f9f97e1ae786baea9ab", "rental_uris": {"ios": "https://dc.lft.to/lastmile_qr_scan", "android": "https://dc.lft.to/lastmile_qr_scan"}, "type": "electric_scooter", "fusion_lat": 0.0, "lon": -77.03361716666667}, {"fusion_lon": 0.0, "bike_id": "bad54038e3d51d342ee1c7c035fc4529", "is_disabled": 0, "is_reserved": 0, "lat": 38.936459, "name": "bad54038e3d51d342ee1c7c035fc4529", "rental_uris": {"ios": "https://dc.lft.to/lastmile_qr_scan", "android": "https://dc.lft.to/lastmile_qr_scan"}, "type": "electric_scooter", "fusion_lat": 0.0, "lon": -77.02004166666667}, {"fusion_lon": 0.0, "bike_id": "320e6fd5eed855e8beaa5791f37d785c", "is_disabled": 0, "is_reserved": 0, "lat": 38.906961, "name": "320e6fd5eed855e8beaa5791f37d785c", "rental_uris": {"ios": "https://dc.lft.to/lastmile_qr_scan", "android": "https://dc.lft.to/lastmile_qr_scan"}, "type": "electric_bike", "fusion_lat": 0.0, "lon": -76.952524}, {"fusion_lon": 0.0, "bike_id": "fd13722f9ea96426fa234d905c50ca59", "is_disabled": 0, "is_reserved": 0, "lat": 38.96737183333333, "name": "fd13722f9ea96426fa234d905c50ca59", "rental_uris": {"ios": "https://dc.lft.to/lastmile_qr_scan", "android": "https://dc.lft.to/lastmile_qr_scan"}, "type": "electric_bike", "fusion_lat": 0.0, "lon": -76.960518}, {"fusion_lon": 0.0, "bike_id": "24f470bcb35f0cd15312dd291a530ca2", "is_disabled": 0, "is_reserved": 0, "lat": 38.95267283333333, "name": "24f470bcb35f0cd15312dd291a530ca2", "rental_uris": {"ios": "https://dc.lft.to/lastmile_qr_scan", "android": "https://dc.lft.to/lastmile_qr_scan"}, "type": "electric_scooter", "fusion_lat": 0.0, "lon": -77.01770316666666}, {"fusion_lon": 0.0, "bike_id": "a8e4932be05122d1a6d7e1151602aa54", "is_disabled": 0, "is_reserved": 0, "lat": 38.91884, "name": "a8e4932be05122d1a6d7e1151602aa54", "rental_uris": {"ios": "https://dc.lft.to/lastmile_qr_scan", "android": "https://dc.lft.to/lastmile_qr_scan"}, "type": "electric_scooter", "fusion_lat": 0.0, "lon": -77.03510966666667}, {"fusion_lon": 0.0, "bike_id": "284002760e33d89e93330f48f4e76095", "is_disabled": 0, "is_reserved": 0, "lat": 38.93526033333333, "name": "284002760e33d89e93330f48f4e76095", "rental_uris": {"ios": "https://dc.lft.to/lastmile_qr_scan", "android": "https://dc.lft.to/lastmile_qr_scan"}, "type": "electric_scooter", "fusion_lat": 0.0, "lon": -77.0337315}, {"fusion_lon": 0.0, "bike_id": "163cd9924572d85b08228416b438e6c3", "is_disabled": 0, "is_reserved": 0, "lat": 38.875465, "name": "163cd9924572d85b08228416b438e6c3", "rental_uris": {"ios": "https://dc.lft.to/lastmile_qr_scan", "android": "https://dc.lft.to/lastmile_qr_scan"}, "type": "electric_scooter", "fusion_lat": 0.0, "lon": -77.00537633333333}, {"fusion_lon": 0.0, "bike_id": "067e9c55e6cfa8fc593458846b6340a8", "is_disabled": 0, "is_reserved": 0, "lat": 38.91470266666666, "name": "067e9c55e6cfa8fc593458846b6340a8", "rental_uris": {"ios": "https://dc.lft.to/lastmile_qr_scan", "android": "https://dc.lft.to/lastmile_qr_scan"}, "type": "electric_scooter", "fusion_lat": 0.0, "lon": -77.00213633333334}, {"fusion_lon": 0.0, "bike_id": "48feee3852df968c3c8f722670d175c4", "is_disabled": 0, "is_reserved": 0, "lat": 38.9737065, "name": "48feee3852df968c3c8f722670d175c4", "rental_uris": {"ios": "https://dc.lft.to/lastmile_qr_scan", "android": "https://dc.lft.to/lastmile_qr_scan"}, "type": "electric_scooter", "fusion_lat": 0.0, "lon": -77.01864316666666}, {"fusion_lon": 0.0, "bike_id": "b6b7b39381664d53fce28097791d1f02", "is_disabled": 0, "is_reserved": 0, "lat": 38.9331235, "name": "b6b7b39381664d53fce28097791d1f02", "rental_uris": {"ios": "https://dc.lft.to/lastmile_qr_scan", "android": "https://dc.lft.to/lastmile_qr_scan"}, "type": "electric_scooter", "fusion_lat": 0.0, "lon": -77.03440683333334}, {"fusion_lon": 0.0, "bike_id": "8b671856c909616981d960e860e85c0f", "is_disabled": 0, "is_reserved": 0, "lat": 38.956024, "name": "8b671856c909616981d960e860e85c0f", "rental_uris": {"ios": "https://dc.lft.to/lastmile_qr_scan", "android": "https://dc.lft.to/lastmile_qr_scan"}, "type": "electric_scooter", "fusion_lat": 0.0, "lon": -77.08039866666667}, {"fusion_lon": 0.0, "bike_id": "8cace1c5416b228779173a0f333392fd", "is_disabled": 0, "is_reserved": 0, "lat": 38.916866666666664, "name": "8cace1c5416b228779173a0f333392fd", "rental_uris": {"ios": "https://dc.lft.to/lastmile_qr_scan", "android": "https://dc.lft.to/lastmile_qr_scan"}, "type": "electric_scooter", "fusion_lat": 0.0, "lon": -77.0377125}, {"fusion_lon": 0.0, "bike_id": "0782936d7191d387aa1c221560367d15", "is_disabled": 0, "is_reserved": 0, "lat": 38.9073875, "name": "0782936d7191d387aa1c221560367d15", "rental_uris": {"ios": "https://dc.lft.to/lastmile_qr_scan", "android": "https://dc.lft.to/lastmile_qr_scan"}, "type": "electric_scooter", "fusion_lat": 0.0, "lon": -77.02184833333334}, {"fusion_lon": 0.0, "bike_id": "6f7b7d8f3c59152a65f896f84c552a08", "is_disabled": 0, "is_reserved": 0, "lat": 38.885320166666666, "name": "6f7b7d8f3c59152a65f896f84c552a08", "rental_uris": {"ios": "https://dc.lft.to/lastmile_qr_scan", "android": "https://dc.lft.to/lastmile_qr_scan"}, "type": "electric_scooter", "fusion_lat": 0.0, "lon": -76.95425783333333}, {"fusion_lon": 0.0, "bike_id": "751143d37a8a866df2a8db46bb1c99bc", "is_disabled": 0, "is_reserved": 0, "lat": 38.894434333333336, "name": "751143d37a8a866df2a8db46bb1c99bc", "rental_uris": {"ios": "https://dc.lft.to/lastmile_qr_scan", "android": "https://dc.lft.to/lastmile_qr_scan"}, "type": "electric_scooter", "fusion_lat": 0.0, "lon": -76.97730133333333}, {"fusion_lon": 0.0, "bike_id": "8056d69262b40901b692aa5a45f0e839", "is_disabled": 0, "is_reserved": 0, "lat": 38.92465716666667, "name": "8056d69262b40901b692aa5a45f0e839", "rental_uris": {"ios": "https://dc.lft.to/lastmile_qr_scan", "android": "https://dc.lft.to/lastmile_qr_scan"}, "type": "electric_scooter", "fusion_lat": 0.0, "lon": -77.02243283333334}, {"fusion_lon": 0.0, "bike_id": "7e45e884ea232bda83edee6ed91e8ad3", "is_disabled": 0, "is_reserved": 0, "lat": 38.906925333333334, "name": "7e45e884ea232bda83edee6ed91e8ad3", "rental_uris": {"ios": "https://dc.lft.to/lastmile_qr_scan", "android": "https://dc.lft.to/lastmile_qr_scan"}, "type": "electric_scooter", "fusion_lat": 0.0, "lon": -77.02719166666667}, {"fusion_lon": 0.0, "bike_id": "b6c137b76eb8b41f5710d5b19c3873b5", "is_disabled": 0, "is_reserved": 0, "lat": 38.9255855, "name": "b6c137b76eb8b41f5710d5b19c3873b5", "rental_uris": {"ios": "https://dc.lft.to/lastmile_qr_scan", "android": "https://dc.lft.to/lastmile_qr_scan"}, "type": "electric_scooter", "fusion_lat": 0.0, "lon": -77.0332755}, {"fusion_lon": 0.0, "bike_id": "89271b4b4d6ef90e6a518b52d5b87440", "is_disabled": 0, "is_reserved": 0, "lat": 38.916142, "name": "89271b4b4d6ef90e6a518b52d5b87440", "rental_uris": {"ios": "https://dc.lft.to/lastmile_qr_scan", "android": "https://dc.lft.to/lastmile_qr_scan"}, "type": "electric_scooter", "fusion_lat": 0.0, "lon": -77.02805116666667}, {"fusion_lon": 0.0, "bike_id": "a255e7c8b7e9e78ca3e97e5fa1573ec6", "is_disabled": 0, "is_reserved": 0, "lat": 38.91710883333333, "name": "a255e7c8b7e9e78ca3e97e5fa1573ec6", "rental_uris": {"ios": "https://dc.lft.to/lastmile_qr_scan", "android": "https://dc.lft.to/lastmile_qr_scan"}, "type": "electric_scooter", "fusion_lat": 0.0, "lon": -77.02289766666667}, {"fusion_lon": 0.0, "bike_id": "8db736d0976b0ce9fd83817b6e65ddc4", "is_disabled": 0, "is_reserved": 0, "lat": 38.899916, "name": "8db736d0976b0ce9fd83817b6e65ddc4", "rental_uris": {"ios": "https://dc.lft.to/lastmile_qr_scan", "android": "https://dc.lft.to/lastmile_qr_scan"}, "type": "electric_scooter", "fusion_lat": 0.0, "lon": -77.04202533333333}, {"fusion_lon": 0.0, "bike_id": "ad1c692fb6a1600adb516a567f9a6f0b", "is_disabled": 0, "is_reserved": 0, "lat": 38.877911166666664, "name": "ad1c692fb6a1600adb516a567f9a6f0b", "rental_uris": {"ios": "https://dc.lft.to/lastmile_qr_scan", "android": "https://dc.lft.to/lastmile_qr_scan"}, "type": "electric_scooter", "fusion_lat": 0.0, "lon": -76.99608333333333}, {"fusion_lon": 0.0, "bike_id": "c638a7b278bb2f8acdbb97df0ba6b3c2", "is_disabled": 0, "is_reserved": 0, "lat": 38.9239825, "name": "c638a7b278bb2f8acdbb97df0ba6b3c2", "rental_uris": {"ios": "https://dc.lft.to/lastmile_qr_scan", "android": "https://dc.lft.to/lastmile_qr_scan"}, "type": "electric_scooter", "fusion_lat": 0.0, "lon": -77.0404705}, {"fusion_lon": 0.0, "bike_id": "460f4aaa3e042e982ee9e4f2e0ef778c", "is_disabled": 0, "is_reserved": 0, "lat": 38.919592, "name": "460f4aaa3e042e982ee9e4f2e0ef778c", "rental_uris": {"ios": "https://dc.lft.to/lastmile_qr_scan", "android": "https://dc.lft.to/lastmile_qr_scan"}, "type": "electric_scooter", "fusion_lat": 0.0, "lon": -77.024978}, {"fusion_lon": 0.0, "bike_id": "fd4ad1fba381fea04435c42985c96225", "is_disabled": 0, "is_reserved": 0, "lat": 38.925049666666666, "name": "fd4ad1fba381fea04435c42985c96225", "rental_uris": {"ios": "https://dc.lft.to/lastmile_qr_scan", "android": "https://dc.lft.to/lastmile_qr_scan"}, "type": "electric_scooter", "fusion_lat": 0.0, "lon": -77.02164766666667}, {"fusion_lon": 0.0, "bike_id": "8582f8d08866a3ef42930af402adcad3", "is_disabled": 0, "is_reserved": 0, "lat": 38.915650166666666, "name": "8582f8d08866a3ef42930af402adcad3", "rental_uris": {"ios": "https://dc.lft.to/lastmile_qr_scan", "android": "https://dc.lft.to/lastmile_qr_scan"}, "type": "electric_scooter", "fusion_lat": 0.0, "lon": -77.046279}, {"fusion_lon": 0.0, "bike_id": "6629dfc20759a7e45999726d2f075c71", "is_disabled": 0, "is_reserved": 0, "lat": 38.88737533333333, "name": "6629dfc20759a7e45999726d2f075c71", "rental_uris": {"ios": "https://dc.lft.to/lastmile_qr_scan", "android": "https://dc.lft.to/lastmile_qr_scan"}, "type": "electric_scooter", "fusion_lat": 0.0, "lon": -77.031841}, {"fusion_lon": 0.0, "bike_id": "f380ecd3e2b695388bd54028c816b475", "is_disabled": 0, "is_reserved": 0, "lat": 38.931790166666666, "name": "f380ecd3e2b695388bd54028c816b475", "rental_uris": {"ios": "https://dc.lft.to/lastmile_qr_scan", "android": "https://dc.lft.to/lastmile_qr_scan"}, "type": "electric_scooter", "fusion_lat": 0.0, "lon": -77.02828383333333}, {"fusion_lon": 0.0, "bike_id": "4bdf24b8b297ce6fad3333127842e3f0", "is_disabled": 0, "is_reserved": 0, "lat": 38.917062666666666, "name": "4bdf24b8b297ce6fad3333127842e3f0", "rental_uris": {"ios": "https://dc.lft.to/lastmile_qr_scan", "android": "https://dc.lft.to/lastmile_qr_scan"}, "type": "electric_scooter", "fusion_lat": 0.0, "lon": -77.05077866666667}, {"fusion_lon": 0.0, "bike_id": "bf309206713207fdda348a3a6226a56f", "is_disabled": 0, "is_reserved": 0, "lat": 38.879228833333336, "name": "bf309206713207fdda348a3a6226a56f", "rental_uris": {"ios": "https://dc.lft.to/lastmile_qr_scan", "android": "https://dc.lft.to/lastmile_qr_scan"}, "type": "electric_scooter", "fusion_lat": 0.0, "lon": -77.01331383333333}, {"fusion_lon": 0.0, "bike_id": "d5b1607700073d70653044fa357cde33", "is_disabled": 0, "is_reserved": 0, "lat": 38.898024666666664, "name": "d5b1607700073d70653044fa357cde33", "rental_uris": {"ios": "https://dc.lft.to/lastmile_qr_scan", "android": "https://dc.lft.to/lastmile_qr_scan"}, "type": "electric_scooter", "fusion_lat": 0.0, "lon": -77.011963}, {"fusion_lon": 0.0, "bike_id": "ecbe59f0620f48aad1ef7f1f4cdc1b49", "is_disabled": 0, "is_reserved": 0, "lat": 38.920300166666664, "name": "ecbe59f0620f48aad1ef7f1f4cdc1b49", "rental_uris": {"ios": "https://dc.lft.to/lastmile_qr_scan", "android": "https://dc.lft.to/lastmile_qr_scan"}, "type": "electric_scooter", "fusion_lat": 0.0, "lon": -77.04200283333333}, {"fusion_lon": 0.0, "bike_id": "d10577aa83d4d4e177904595866c9385", "is_disabled": 0, "is_reserved": 0, "lat": 38.90862816666667, "name": "d10577aa83d4d4e177904595866c9385", "rental_uris": {"ios": "https://dc.lft.to/lastmile_qr_scan", "android": "https://dc.lft.to/lastmile_qr_scan"}, "type": "electric_scooter", "fusion_lat": 0.0, "lon": -77.02270616666667}, {"fusion_lon": 0.0, "bike_id": "5c649cad15e72d779671abc26c8607c5", "is_disabled": 0, "is_reserved": 0, "lat": 38.90953866666667, "name": "5c649cad15e72d779671abc26c8607c5", "rental_uris": {"ios": "https://dc.lft.to/lastmile_qr_scan", "android": "https://dc.lft.to/lastmile_qr_scan"}, "type": "electric_scooter", "fusion_lat": 0.0, "lon": -76.98541316666666}, {"fusion_lon": 0.0, "bike_id": "93905c2c8860afc34dd4a37a11514c70", "is_disabled": 0, "is_reserved": 0, "lat": 38.93533683333333, "name": "93905c2c8860afc34dd4a37a11514c70", "rental_uris": {"ios": "https://dc.lft.to/lastmile_qr_scan", "android": "https://dc.lft.to/lastmile_qr_scan"}, "type": "electric_scooter", "fusion_lat": 0.0, "lon": -77.0234845}, {"fusion_lon": 0.0, "bike_id": "3f6e88725262cb471b82e79807922043", "is_disabled": 0, "is_reserved": 0, "lat": 38.89871266666667, "name": "3f6e88725262cb471b82e79807922043", "rental_uris": {"ios": "https://dc.lft.to/lastmile_qr_scan", "android": "https://dc.lft.to/lastmile_qr_scan"}, "type": "electric_scooter", "fusion_lat": 0.0, "lon": -77.02292}, {"fusion_lon": 0.0, "bike_id": "94e384b39fe3029fdd50814c95460396", "is_disabled": 0, "is_reserved": 0, "lat": 38.9236565, "name": "94e384b39fe3029fdd50814c95460396", "rental_uris": {"ios": "https://dc.lft.to/lastmile_qr_scan", "android": "https://dc.lft.to/lastmile_qr_scan"}, "type": "electric_scooter", "fusion_lat": 0.0, "lon": -77.031574}, {"fusion_lon": 0.0, "bike_id": "793b67df8b229a9843d393c31c59c5b2", "is_disabled": 0, "is_reserved": 0, "lat": 38.88581383333333, "name": "793b67df8b229a9843d393c31c59c5b2", "rental_uris": {"ios": "https://dc.lft.to/lastmile_qr_scan", "android": "https://dc.lft.to/lastmile_qr_scan"}, "type": "electric_scooter", "fusion_lat": 0.0, "lon": -77.02019116666666}, {"fusion_lon": 0.0, "bike_id": "638e0c1956ac0a158c0e80098eeb3c0f", "is_disabled": 0, "is_reserved": 0, "lat": 38.87736116666667, "name": "638e0c1956ac0a158c0e80098eeb3c0f", "rental_uris": {"ios": "https://dc.lft.to/lastmile_qr_scan", "android": "https://dc.lft.to/lastmile_qr_scan"}, "type": "electric_scooter", "fusion_lat": 0.0, "lon": -77.010591}, {"fusion_lon": 0.0, "bike_id": "872e5a8b3321b32333e9ab687c101915", "is_disabled": 0, "is_reserved": 0, "lat": 38.92054383333333, "name": "872e5a8b3321b32333e9ab687c101915", "rental_uris": {"ios": "https://dc.lft.to/lastmile_qr_scan", "android": "https://dc.lft.to/lastmile_qr_scan"}, "type": "electric_scooter", "fusion_lat": 0.0, "lon": -77.034056}, {"fusion_lon": 0.0, "bike_id": "522909d1cb71a242ef218fdf18318092", "is_disabled": 0, "is_reserved": 0, "lat": 38.927401833333334, "name": "522909d1cb71a242ef218fdf18318092", "rental_uris": {"ios": "https://dc.lft.to/lastmile_qr_scan", "android": "https://dc.lft.to/lastmile_qr_scan"}, "type": "electric_scooter", "fusion_lat": 0.0, "lon": -77.0329965}, {"fusion_lon": 0.0, "bike_id": "ee8eba73f7cc381792bce10d187a8509", "is_disabled": 0, "is_reserved": 0, "lat": 38.91936533333333, "name": "ee8eba73f7cc381792bce10d187a8509", "rental_uris": {"ios": "https://dc.lft.to/lastmile_qr_scan", "android": "https://dc.lft.to/lastmile_qr_scan"}, "type": "electric_scooter", "fusion_lat": 0.0, "lon": -77.013572}, {"fusion_lon": 0.0, "bike_id": "884495681b24fcbb7cd388aadaec3057", "is_disabled": 0, "is_reserved": 0, "lat": 38.90174966666667, "name": "884495681b24fcbb7cd388aadaec3057", "rental_uris": {"ios": "https://dc.lft.to/lastmile_qr_scan", "android": "https://dc.lft.to/lastmile_qr_scan"}, "type": "electric_scooter", "fusion_lat": 0.0, "lon": -76.92945566666667}, {"fusion_lon": 0.0, "bike_id": "9bb106aff972722fa4c60ede057e9adb", "is_disabled": 0, "is_reserved": 0, "lat": 38.92118383333333, "name": "9bb106aff972722fa4c60ede057e9adb", "rental_uris": {"ios": "https://dc.lft.to/lastmile_qr_scan", "android": "https://dc.lft.to/lastmile_qr_scan"}, "type": "electric_scooter", "fusion_lat": 0.0, "lon": -77.01210616666667}, {"fusion_lon": 0.0, "bike_id": "be1dd6e573eb4707d15b9ac2b82af70d", "is_disabled": 0, "is_reserved": 0, "lat": 38.90108716666667, "name": "be1dd6e573eb4707d15b9ac2b82af70d", "rental_uris": {"ios": "https://dc.lft.to/lastmile_qr_scan", "android": "https://dc.lft.to/lastmile_qr_scan"}, "type": "electric_scooter", "fusion_lat": 0.0, "lon": -77.02728316666666}, {"fusion_lon": 0.0, "bike_id": "115d121b1aa7ab3ec72d484c13cff84d", "is_disabled": 0, "is_reserved": 0, "lat": 38.9181215, "name": "115d121b1aa7ab3ec72d484c13cff84d", "rental_uris": {"ios": "https://dc.lft.to/lastmile_qr_scan", "android": "https://dc.lft.to/lastmile_qr_scan"}, "type": "electric_scooter", "fusion_lat": 0.0, "lon": -77.01159033333333}, {"fusion_lon": 0.0, "bike_id": "e16b2439d205affb235e4c585a002a9f", "is_disabled": 0, "is_reserved": 0, "lat": 38.919351, "name": "e16b2439d205affb235e4c585a002a9f", "rental_uris": {"ios": "https://dc.lft.to/lastmile_qr_scan", "android": "https://dc.lft.to/lastmile_qr_scan"}, "type": "electric_scooter", "fusion_lat": 0.0, "lon": -77.017846}, {"fusion_lon": 0.0, "bike_id": "8f7830769198e2f3c61334fc4849048e", "is_disabled": 0, "is_reserved": 0, "lat": 38.91912083333333, "name": "8f7830769198e2f3c61334fc4849048e", "rental_uris": {"ios": "https://dc.lft.to/lastmile_qr_scan", "android": "https://dc.lft.to/lastmile_qr_scan"}, "type": "electric_scooter", "fusion_lat": 0.0, "lon": -77.0447095}, {"fusion_lon": 0.0, "bike_id": "7129eef837a98adad7ae7fc207b0e217", "is_disabled": 0, "is_reserved": 0, "lat": 38.93126433333333, "name": "7129eef837a98adad7ae7fc207b0e217", "rental_uris": {"ios": "https://dc.lft.to/lastmile_qr_scan", "android": "https://dc.lft.to/lastmile_qr_scan"}, "type": "electric_scooter", "fusion_lat": 0.0, "lon": -77.0219885}, {"fusion_lon": 0.0, "bike_id": "c4f417a9f1b7b20997454585c7fff4d4", "is_disabled": 0, "is_reserved": 0, "lat": 38.92148783333333, "name": "c4f417a9f1b7b20997454585c7fff4d4", "rental_uris": {"ios": "https://dc.lft.to/lastmile_qr_scan", "android": "https://dc.lft.to/lastmile_qr_scan"}, "type": "electric_scooter", "fusion_lat": 0.0, "lon": -77.03320066666667}, {"fusion_lon": 0.0, "bike_id": "410da6dadb9dcd24ed68612c2cb33c97", "is_disabled": 0, "is_reserved": 0, "lat": 38.903709666666664, "name": "410da6dadb9dcd24ed68612c2cb33c97", "rental_uris": {"ios": "https://dc.lft.to/lastmile_qr_scan", "android": "https://dc.lft.to/lastmile_qr_scan"}, "type": "electric_bike", "fusion_lat": 0.0, "lon": -76.98115483333333}, {"fusion_lon": 0.0, "bike_id": "dcccf7b8f803c6ac7c283dc14f7f68aa", "is_disabled": 0, "is_reserved": 0, "lat": 39.01069666666667, "name": "dcccf7b8f803c6ac7c283dc14f7f68aa", "rental_uris": {"ios": "https://dc.lft.to/lastmile_qr_scan", "android": "https://dc.lft.to/lastmile_qr_scan"}, "type": "electric_bike", "fusion_lat": 0.0, "lon": -76.92242933333333}, {"fusion_lon": 0.0, "bike_id": "ddcab9be743712328154c835d0560bb8", "is_disabled": 0, "is_reserved": 0, "lat": 38.9395, "name": "ddcab9be743712328154c835d0560bb8", "rental_uris": {"ios": "https://dc.lft.to/lastmile_qr_scan", "android": "https://dc.lft.to/lastmile_qr_scan"}, "type": "electric_scooter", "fusion_lat": 0.0, "lon": -77.07246466666666}, {"fusion_lon": 0.0, "bike_id": "207c8f004fb5d8b434d283b7f71cdb2d", "is_disabled": 0, "is_reserved": 0, "lat": 38.90515883333333, "name": "207c8f004fb5d8b434d283b7f71cdb2d", "rental_uris": {"ios": "https://dc.lft.to/lastmile_qr_scan", "android": "https://dc.lft.to/lastmile_qr_scan"}, "type": "electric_scooter", "fusion_lat": 0.0, "lon": -77.02942266666666}, {"fusion_lon": 0.0, "bike_id": "837e73cfae2fca6bcbdc80801c5d1a3d", "is_disabled": 0, "is_reserved": 0, "lat": 38.87837066666667, "name": "837e73cfae2fca6bcbdc80801c5d1a3d", "rental_uris": {"ios": "https://dc.lft.to/lastmile_qr_scan", "android": "https://dc.lft.to/lastmile_qr_scan"}, "type": "electric_scooter", "fusion_lat": 0.0, "lon": -76.93133116666667}, {"fusion_lon": 0.0, "bike_id": "90fe249a9da89b003d378578a8fbbfed", "is_disabled": 0, "is_reserved": 0, "lat": 38.915780833333336, "name": "90fe249a9da89b003d378578a8fbbfed", "rental_uris": {"ios": "https://dc.lft.to/lastmile_qr_scan", "android": "https://dc.lft.to/lastmile_qr_scan"}, "type": "electric_scooter", "fusion_lat": 0.0, "lon": -77.03660583333334}, {"fusion_lon": 0.0, "bike_id": "8dff359f26b10d6254a889c3e7e0b260", "is_disabled": 0, "is_reserved": 0, "lat": 38.908975166666664, "name": "8dff359f26b10d6254a889c3e7e0b260", "rental_uris": {"ios": "https://dc.lft.to/lastmile_qr_scan", "android": "https://dc.lft.to/lastmile_qr_scan"}, "type": "electric_scooter", "fusion_lat": 0.0, "lon": -77.0028475}, {"fusion_lon": 0.0, "bike_id": "21c38d1c5978eb095699d3b838c4572a", "is_disabled": 0, "is_reserved": 0, "lat": 38.92639533333333, "name": "21c38d1c5978eb095699d3b838c4572a", "rental_uris": {"ios": "https://dc.lft.to/lastmile_qr_scan", "android": "https://dc.lft.to/lastmile_qr_scan"}, "type": "electric_scooter", "fusion_lat": 0.0, "lon": -77.0217885}, {"fusion_lon": 0.0, "bike_id": "455adfe524d10a0b7a7e722541863763", "is_disabled": 0, "is_reserved": 0, "lat": 38.92060166666667, "name": "455adfe524d10a0b7a7e722541863763", "rental_uris": {"ios": "https://dc.lft.to/lastmile_qr_scan", "android": "https://dc.lft.to/lastmile_qr_scan"}, "type": "electric_scooter", "fusion_lat": 0.0, "lon": -77.02561016666667}, {"fusion_lon": 0.0, "bike_id": "42df0260e7e9fc74e64e3e7822ba1c78", "is_disabled": 0, "is_reserved": 0, "lat": 38.90864583333333, "name": "42df0260e7e9fc74e64e3e7822ba1c78", "rental_uris": {"ios": "https://dc.lft.to/lastmile_qr_scan", "android": "https://dc.lft.to/lastmile_qr_scan"}, "type": "electric_scooter", "fusion_lat": 0.0, "lon": -77.030311}, {"fusion_lon": 0.0, "bike_id": "3571f67d801f2ba33f8d757147a62d9d", "is_disabled": 0, "is_reserved": 0, "lat": 38.87668633333333, "name": "3571f67d801f2ba33f8d757147a62d9d", "rental_uris": {"ios": "https://dc.lft.to/lastmile_qr_scan", "android": "https://dc.lft.to/lastmile_qr_scan"}, "type": "electric_scooter", "fusion_lat": 0.0, "lon": -77.00282583333333}, {"fusion_lon": 0.0, "bike_id": "b73ab9f345156a2adfe27d0386e976a7", "is_disabled": 0, "is_reserved": 0, "lat": 38.90616683333333, "name": "b73ab9f345156a2adfe27d0386e976a7", "rental_uris": {"ios": "https://dc.lft.to/lastmile_qr_scan", "android": "https://dc.lft.to/lastmile_qr_scan"}, "type": "electric_scooter", "fusion_lat": 0.0, "lon": -77.03401416666667}, {"fusion_lon": 0.0, "bike_id": "164998a6ddd65c771bdd8eebec0710ec", "is_disabled": 0, "is_reserved": 0, "lat": 38.9075555, "name": "164998a6ddd65c771bdd8eebec0710ec", "rental_uris": {"ios": "https://dc.lft.to/lastmile_qr_scan", "android": "https://dc.lft.to/lastmile_qr_scan"}, "type": "electric_scooter", "fusion_lat": 0.0, "lon": -77.017018}, {"fusion_lon": 0.0, "bike_id": "867befb3f7ce670801d9322128c51b43", "is_disabled": 0, "is_reserved": 0, "lat": 38.92342566666667, "name": "867befb3f7ce670801d9322128c51b43", "rental_uris": {"ios": "https://dc.lft.to/lastmile_qr_scan", "android": "https://dc.lft.to/lastmile_qr_scan"}, "type": "electric_scooter", "fusion_lat": 0.0, "lon": -77.05621233333333}, {"fusion_lon": 0.0, "bike_id": "37b1c9b74007db4c8a09b9305dcb8f35", "is_disabled": 0, "is_reserved": 0, "lat": 38.865191333333335, "name": "37b1c9b74007db4c8a09b9305dcb8f35", "rental_uris": {"ios": "https://dc.lft.to/lastmile_qr_scan", "android": "https://dc.lft.to/lastmile_qr_scan"}, "type": "electric_bike", "fusion_lat": 0.0, "lon": -76.97329166666667}, {"fusion_lon": 0.0, "bike_id": "ff60bcfb1cca21ebc185d779b22c518b", "is_disabled": 0, "is_reserved": 0, "lat": 38.920296666666665, "name": "ff60bcfb1cca21ebc185d779b22c518b", "rental_uris": {"ios": "https://dc.lft.to/lastmile_qr_scan", "android": "https://dc.lft.to/lastmile_qr_scan"}, "type": "electric_scooter", "fusion_lat": 0.0, "lon": -77.01217433333333}, {"fusion_lon": 0.0, "bike_id": "fa70887545f155a98d62c293c2a512c4", "is_disabled": 0, "is_reserved": 0, "lat": 38.9397945, "name": "fa70887545f155a98d62c293c2a512c4", "rental_uris": {"ios": "https://dc.lft.to/lastmile_qr_scan", "android": "https://dc.lft.to/lastmile_qr_scan"}, "type": "electric_scooter", "fusion_lat": 0.0, "lon": -77.0296165}, {"fusion_lon": 0.0, "bike_id": "d1930d6109a5def25fd2adb0cc9f3a82", "is_disabled": 0, "is_reserved": 0, "lat": 38.9517335, "name": "d1930d6109a5def25fd2adb0cc9f3a82", "rental_uris": {"ios": "https://dc.lft.to/lastmile_qr_scan", "android": "https://dc.lft.to/lastmile_qr_scan"}, "type": "electric_scooter", "fusion_lat": 0.0, "lon": -77.0376975}, {"fusion_lon": 0.0, "bike_id": "fd6f5b7ddd81015414f2c4f3fd2cfa50", "is_disabled": 0, "is_reserved": 0, "lat": 39.005320166666664, "name": "fd6f5b7ddd81015414f2c4f3fd2cfa50", "rental_uris": {"ios": "https://dc.lft.to/lastmile_qr_scan", "android": "https://dc.lft.to/lastmile_qr_scan"}, "type": "electric_bike", "fusion_lat": 0.0, "lon": -77.10403133333334}, {"fusion_lon": 0.0, "bike_id": "6559a471d7f36603ead23d5360fdea67", "is_disabled": 0, "is_reserved": 0, "lat": 38.877384, "name": "6559a471d7f36603ead23d5360fdea67", "rental_uris": {"ios": "https://dc.lft.to/lastmile_qr_scan", "android": "https://dc.lft.to/lastmile_qr_scan"}, "type": "electric_bike", "fusion_lat": 0.0, "lon": -77.14871716666667}, {"fusion_lon": 0.0, "bike_id": "f553b8f8b08790516a31d8f4df38d61a", "is_disabled": 0, "is_reserved": 0, "lat": 38.95073683333333, "name": "f553b8f8b08790516a31d8f4df38d61a", "rental_uris": {"ios": "https://dc.lft.to/lastmile_qr_scan", "android": "https://dc.lft.to/lastmile_qr_scan"}, "type": "electric_bike", "fusion_lat": 0.0, "lon": -77.01201866666666}, {"fusion_lon": 0.0, "bike_id": "3dc72286e1c7a054e9c1cbdc35439485", "is_disabled": 0, "is_reserved": 0, "lat": 38.923318, "name": "3dc72286e1c7a054e9c1cbdc35439485", "rental_uris": {"ios": "https://dc.lft.to/lastmile_qr_scan", "android": "https://dc.lft.to/lastmile_qr_scan"}, "type": "electric_scooter", "fusion_lat": 0.0, "lon": -77.035246}, {"fusion_lon": 0.0, "bike_id": "2ee03125ed5940e4e24d06f3b6e463c9", "is_disabled": 0, "is_reserved": 0, "lat": 38.89552483333333, "name": "2ee03125ed5940e4e24d06f3b6e463c9", "rental_uris": {"ios": "https://dc.lft.to/lastmile_qr_scan", "android": "https://dc.lft.to/lastmile_qr_scan"}, "type": "electric_scooter", "fusion_lat": 0.0, "lon": -77.00912566666666}, {"fusion_lon": 0.0, "bike_id": "2ea466afc98904e202f42909f2693cdb", "is_disabled": 0, "is_reserved": 0, "lat": 38.878467, "name": "2ea466afc98904e202f42909f2693cdb", "rental_uris": {"ios": "https://dc.lft.to/lastmile_qr_scan", "android": "https://dc.lft.to/lastmile_qr_scan"}, "type": "electric_scooter", "fusion_lat": 0.0, "lon": -77.01967083333334}, {"fusion_lon": 0.0, "bike_id": "77f67f8792135faa102257633d182a32", "is_disabled": 0, "is_reserved": 0, "lat": 38.9055475, "name": "77f67f8792135faa102257633d182a32", "rental_uris": {"ios": "https://dc.lft.to/lastmile_qr_scan", "android": "https://dc.lft.to/lastmile_qr_scan"}, "type": "electric_scooter", "fusion_lat": 0.0, "lon": -77.03467316666666}, {"fusion_lon": 0.0, "bike_id": "42ab8d47d0475ed380244b7211ff0ecb", "is_disabled": 0, "is_reserved": 0, "lat": 38.91266316666667, "name": "42ab8d47d0475ed380244b7211ff0ecb", "rental_uris": {"ios": "https://dc.lft.to/lastmile_qr_scan", "android": "https://dc.lft.to/lastmile_qr_scan"}, "type": "electric_scooter", "fusion_lat": 0.0, "lon": -77.038716}, {"fusion_lon": 0.0, "bike_id": "d2672007bd97cd86fd84fc370119d0b5", "is_disabled": 0, "is_reserved": 0, "lat": 38.85647433333333, "name": "d2672007bd97cd86fd84fc370119d0b5", "rental_uris": {"ios": "https://dc.lft.to/lastmile_qr_scan", "android": "https://dc.lft.to/lastmile_qr_scan"}, "type": "electric_bike", "fusion_lat": 0.0, "lon": -77.08529366666667}, {"fusion_lon": 0.0, "bike_id": "fb9893bc599297937db119ffeccde941", "is_disabled": 0, "is_reserved": 0, "lat": 38.871509333333336, "name": "fb9893bc599297937db119ffeccde941", "rental_uris": {"ios": "https://dc.lft.to/lastmile_qr_scan", "android": "https://dc.lft.to/lastmile_qr_scan"}, "type": "electric_scooter", "fusion_lat": 0.0, "lon": -77.0058065}, {"fusion_lon": 0.0, "bike_id": "4ffd86a8617092eff6a0f413f9965509", "is_disabled": 0, "is_reserved": 0, "lat": 38.86516066666667, "name": "4ffd86a8617092eff6a0f413f9965509", "rental_uris": {"ios": "https://dc.lft.to/lastmile_qr_scan", "android": "https://dc.lft.to/lastmile_qr_scan"}, "type": "electric_bike", "fusion_lat": 0.0, "lon": -76.97329266666667}, {"fusion_lon": 0.0, "bike_id": "88d75559a6a76061ea351a981d362005", "is_disabled": 0, "is_reserved": 0, "lat": 38.905764833333336, "name": "88d75559a6a76061ea351a981d362005", "rental_uris": {"ios": "https://dc.lft.to/lastmile_qr_scan", "android": "https://dc.lft.to/lastmile_qr_scan"}, "type": "electric_scooter", "fusion_lat": 0.0, "lon": -77.02204683333333}, {"fusion_lon": 0.0, "bike_id": "75c20e3829d530a1f83cf5a003a69c01", "is_disabled": 0, "is_reserved": 0, "lat": 38.899166, "name": "75c20e3829d530a1f83cf5a003a69c01", "rental_uris": {"ios": "https://dc.lft.to/lastmile_qr_scan", "android": "https://dc.lft.to/lastmile_qr_scan"}, "type": "electric_bike", "fusion_lat": 0.0, "lon": -77.00159783333334}, {"fusion_lon": 0.0, "bike_id": "2a9fdf5bd29fa23d4c7f0849177d1693", "is_disabled": 0, "is_reserved": 0, "lat": 38.915746, "name": "2a9fdf5bd29fa23d4c7f0849177d1693", "rental_uris": {"ios": "https://dc.lft.to/lastmile_qr_scan", "android": "https://dc.lft.to/lastmile_qr_scan"}, "type": "electric_scooter", "fusion_lat": 0.0, "lon": -77.03661383333333}, {"fusion_lon": 0.0, "bike_id": "c6c99986d0ac10897907f89fcc45b738", "is_disabled": 0, "is_reserved": 0, "lat": 38.9084135, "name": "c6c99986d0ac10897907f89fcc45b738", "rental_uris": {"ios": "https://dc.lft.to/lastmile_qr_scan", "android": "https://dc.lft.to/lastmile_qr_scan"}, "type": "electric_scooter", "fusion_lat": 0.0, "lon": -77.0227905}, {"fusion_lon": 0.0, "bike_id": "bddfe70541e3107322bab3c4a159eac7", "is_disabled": 0, "is_reserved": 0, "lat": 38.89826083333333, "name": "bddfe70541e3107322bab3c4a159eac7", "rental_uris": {"ios": "https://dc.lft.to/lastmile_qr_scan", "android": "https://dc.lft.to/lastmile_qr_scan"}, "type": "electric_scooter", "fusion_lat": 0.0, "lon": -76.9464935}, {"fusion_lon": 0.0, "bike_id": "f8325b4a353edbc01dce5cafea24089f", "is_disabled": 0, "is_reserved": 0, "lat": 38.9204875, "name": "f8325b4a353edbc01dce5cafea24089f", "rental_uris": {"ios": "https://dc.lft.to/lastmile_qr_scan", "android": "https://dc.lft.to/lastmile_qr_scan"}, "type": "electric_scooter", "fusion_lat": 0.0, "lon": -77.041842}, {"fusion_lon": 0.0, "bike_id": "ab3dc8eaa2230fdab992fc11adc8ab00", "is_disabled": 0, "is_reserved": 0, "lat": 38.884868, "name": "ab3dc8eaa2230fdab992fc11adc8ab00", "rental_uris": {"ios": "https://dc.lft.to/lastmile_qr_scan", "android": "https://dc.lft.to/lastmile_qr_scan"}, "type": "electric_scooter", "fusion_lat": 0.0, "lon": -77.00713916666666}, {"fusion_lon": 0.0, "bike_id": "c09a8844fbee85b64f24663afbd62b4e", "is_disabled": 0, "is_reserved": 0, "lat": 38.90469383333333, "name": "c09a8844fbee85b64f24663afbd62b4e", "rental_uris": {"ios": "https://dc.lft.to/lastmile_qr_scan", "android": "https://dc.lft.to/lastmile_qr_scan"}, "type": "electric_scooter", "fusion_lat": 0.0, "lon": -77.0485525}, {"fusion_lon": 0.0, "bike_id": "28c2c932f20af596af652aba94e69298", "is_disabled": 0, "is_reserved": 0, "lat": 38.90338766666667, "name": "28c2c932f20af596af652aba94e69298", "rental_uris": {"ios": "https://dc.lft.to/lastmile_qr_scan", "android": "https://dc.lft.to/lastmile_qr_scan"}, "type": "electric_scooter", "fusion_lat": 0.0, "lon": -77.04994533333333}, {"fusion_lon": 0.0, "bike_id": "00cb6528e1d879eed2871bdbc4a78e0e", "is_disabled": 0, "is_reserved": 0, "lat": 38.92279, "name": "00cb6528e1d879eed2871bdbc4a78e0e", "rental_uris": {"ios": "https://dc.lft.to/lastmile_qr_scan", "android": "https://dc.lft.to/lastmile_qr_scan"}, "type": "electric_scooter", "fusion_lat": 0.0, "lon": -77.03657616666666}, {"fusion_lon": 0.0, "bike_id": "fbd3cf98dfe1b7457b47597847b71708", "is_disabled": 0, "is_reserved": 0, "lat": 38.9492135, "name": "fbd3cf98dfe1b7457b47597847b71708", "rental_uris": {"ios": "https://dc.lft.to/lastmile_qr_scan", "android": "https://dc.lft.to/lastmile_qr_scan"}, "type": "electric_scooter", "fusion_lat": 0.0, "lon": -77.01857133333333}, {"fusion_lon": 0.0, "bike_id": "11fb2f51e05fc659662994f5a1b0159c", "is_disabled": 0, "is_reserved": 0, "lat": 38.902317833333335, "name": "11fb2f51e05fc659662994f5a1b0159c", "rental_uris": {"ios": "https://dc.lft.to/lastmile_qr_scan", "android": "https://dc.lft.to/lastmile_qr_scan"}, "type": "electric_scooter", "fusion_lat": 0.0, "lon": -77.05339283333333}, {"fusion_lon": 0.0, "bike_id": "2e72f8e8458a83faed8fabc352de3ea1", "is_disabled": 0, "is_reserved": 0, "lat": 38.899639, "name": "2e72f8e8458a83faed8fabc352de3ea1", "rental_uris": {"ios": "https://dc.lft.to/lastmile_qr_scan", "android": "https://dc.lft.to/lastmile_qr_scan"}, "type": "electric_scooter", "fusion_lat": 0.0, "lon": -77.02579066666667}, {"fusion_lon": 0.0, "bike_id": "a67b438183de4ce39b8318bd1ad52f60", "is_disabled": 0, "is_reserved": 0, "lat": 38.92911083333333, "name": "a67b438183de4ce39b8318bd1ad52f60", "rental_uris": {"ios": "https://dc.lft.to/lastmile_qr_scan", "android": "https://dc.lft.to/lastmile_qr_scan"}, "type": "electric_scooter", "fusion_lat": 0.0, "lon": -77.02345466666667}, {"fusion_lon": 0.0, "bike_id": "12800f6fea210113a74a1b8e2708018c", "is_disabled": 0, "is_reserved": 0, "lat": 38.91705483333333, "name": "12800f6fea210113a74a1b8e2708018c", "rental_uris": {"ios": "https://dc.lft.to/lastmile_qr_scan", "android": "https://dc.lft.to/lastmile_qr_scan"}, "type": "electric_scooter", "fusion_lat": 0.0, "lon": -77.03865183333333}, {"fusion_lon": 0.0, "bike_id": "7d9720df08b1154394f8534834a5310e", "is_disabled": 0, "is_reserved": 0, "lat": 38.9212565, "name": "7d9720df08b1154394f8534834a5310e", "rental_uris": {"ios": "https://dc.lft.to/lastmile_qr_scan", "android": "https://dc.lft.to/lastmile_qr_scan"}, "type": "electric_scooter", "fusion_lat": 0.0, "lon": -77.012119}, {"fusion_lon": 0.0, "bike_id": "ae37b006a96b3cf97a73c81029fde65f", "is_disabled": 0, "is_reserved": 0, "lat": 38.904203833333334, "name": "ae37b006a96b3cf97a73c81029fde65f", "rental_uris": {"ios": "https://dc.lft.to/lastmile_qr_scan", "android": "https://dc.lft.to/lastmile_qr_scan"}, "type": "electric_scooter", "fusion_lat": 0.0, "lon": -77.02517666666667}, {"fusion_lon": 0.0, "bike_id": "199f3f58758dce99d13748854e7cfd93", "is_disabled": 0, "is_reserved": 0, "lat": 38.92097616666667, "name": "199f3f58758dce99d13748854e7cfd93", "rental_uris": {"ios": "https://dc.lft.to/lastmile_qr_scan", "android": "https://dc.lft.to/lastmile_qr_scan"}, "type": "electric_scooter", "fusion_lat": 0.0, "lon": -76.9991005}, {"fusion_lon": 0.0, "bike_id": "d7fc3f9f173efe83ef7a78f4626cf4cb", "is_disabled": 0, "is_reserved": 0, "lat": 38.921067666666666, "name": "d7fc3f9f173efe83ef7a78f4626cf4cb", "rental_uris": {"ios": "https://dc.lft.to/lastmile_qr_scan", "android": "https://dc.lft.to/lastmile_qr_scan"}, "type": "electric_scooter", "fusion_lat": 0.0, "lon": -77.031734}, {"fusion_lon": 0.0, "bike_id": "8ba4dea89466dc6c1fd333179be8ef70", "is_disabled": 0, "is_reserved": 0, "lat": 38.91658666666667, "name": "8ba4dea89466dc6c1fd333179be8ef70", "rental_uris": {"ios": "https://dc.lft.to/lastmile_qr_scan", "android": "https://dc.lft.to/lastmile_qr_scan"}, "type": "electric_scooter", "fusion_lat": 0.0, "lon": -77.03852}, {"fusion_lon": 0.0, "bike_id": "35c7c043ef6bcf42b36f963f9538a659", "is_disabled": 0, "is_reserved": 0, "lat": 38.90229766666667, "name": "35c7c043ef6bcf42b36f963f9538a659", "rental_uris": {"ios": "https://dc.lft.to/lastmile_qr_scan", "android": "https://dc.lft.to/lastmile_qr_scan"}, "type": "electric_scooter", "fusion_lat": 0.0, "lon": -77.01923516666666}, {"fusion_lon": 0.0, "bike_id": "fd43d75f8c2bd1735f2e863b1fcf470a", "is_disabled": 0, "is_reserved": 0, "lat": 38.921393, "name": "fd43d75f8c2bd1735f2e863b1fcf470a", "rental_uris": {"ios": "https://dc.lft.to/lastmile_qr_scan", "android": "https://dc.lft.to/lastmile_qr_scan"}, "type": "electric_scooter", "fusion_lat": 0.0, "lon": -77.01784316666667}, {"fusion_lon": 0.0, "bike_id": "2820ef08633c398fe023b24d6d2fb018", "is_disabled": 0, "is_reserved": 0, "lat": 38.9248035, "name": "2820ef08633c398fe023b24d6d2fb018", "rental_uris": {"ios": "https://dc.lft.to/lastmile_qr_scan", "android": "https://dc.lft.to/lastmile_qr_scan"}, "type": "electric_scooter", "fusion_lat": 0.0, "lon": -77.00890016666666}, {"fusion_lon": 0.0, "bike_id": "6f9936ebd4d32735ecd7de5b8760db2c", "is_disabled": 0, "is_reserved": 0, "lat": 38.939549166666666, "name": "6f9936ebd4d32735ecd7de5b8760db2c", "rental_uris": {"ios": "https://dc.lft.to/lastmile_qr_scan", "android": "https://dc.lft.to/lastmile_qr_scan"}, "type": "electric_scooter", "fusion_lat": 0.0, "lon": -77.07242633333334}, {"fusion_lon": 0.0, "bike_id": "5c5fef148d8ca2b9fa29a1ec5d51e173", "is_disabled": 0, "is_reserved": 0, "lat": 38.91035266666667, "name": "5c5fef148d8ca2b9fa29a1ec5d51e173", "rental_uris": {"ios": "https://dc.lft.to/lastmile_qr_scan", "android": "https://dc.lft.to/lastmile_qr_scan"}, "type": "electric_scooter", "fusion_lat": 0.0, "lon": -77.02760166666667}, {"fusion_lon": 0.0, "bike_id": "1fc91a163ec57f0ac599867abf405c03", "is_disabled": 0, "is_reserved": 0, "lat": 38.93075966666667, "name": "1fc91a163ec57f0ac599867abf405c03", "rental_uris": {"ios": "https://dc.lft.to/lastmile_qr_scan", "android": "https://dc.lft.to/lastmile_qr_scan"}, "type": "electric_scooter", "fusion_lat": 0.0, "lon": -77.02793816666667}, {"fusion_lon": 0.0, "bike_id": "891c0f8de916831001449552b9bd81e2", "is_disabled": 0, "is_reserved": 0, "lat": 38.91691316666667, "name": "891c0f8de916831001449552b9bd81e2", "rental_uris": {"ios": "https://dc.lft.to/lastmile_qr_scan", "android": "https://dc.lft.to/lastmile_qr_scan"}, "type": "electric_scooter", "fusion_lat": 0.0, "lon": -77.01759116666666}, {"fusion_lon": 0.0, "bike_id": "f00d29fc03c8d9f9962e5d940ffc111e", "is_disabled": 0, "is_reserved": 0, "lat": 38.930724, "name": "f00d29fc03c8d9f9962e5d940ffc111e", "rental_uris": {"ios": "https://dc.lft.to/lastmile_qr_scan", "android": "https://dc.lft.to/lastmile_qr_scan"}, "type": "electric_scooter", "fusion_lat": 0.0, "lon": -77.0216505}, {"fusion_lon": 0.0, "bike_id": "76485538960549f3aa7c1a42b7e3b045", "is_disabled": 0, "is_reserved": 0, "lat": 38.922441166666665, "name": "76485538960549f3aa7c1a42b7e3b045", "rental_uris": {"ios": "https://dc.lft.to/lastmile_qr_scan", "android": "https://dc.lft.to/lastmile_qr_scan"}, "type": "electric_scooter", "fusion_lat": 0.0, "lon": -77.0282}, {"fusion_lon": 0.0, "bike_id": "b298530230bdf558c4b79b58b342a8c1", "is_disabled": 0, "is_reserved": 0, "lat": 38.89641683333333, "name": "b298530230bdf558c4b79b58b342a8c1", "rental_uris": {"ios": "https://dc.lft.to/lastmile_qr_scan", "android": "https://dc.lft.to/lastmile_qr_scan"}, "type": "electric_scooter", "fusion_lat": 0.0, "lon": -77.022084}, {"fusion_lon": 0.0, "bike_id": "2fb54b06fd8462593e3c62c687c3d6d7", "is_disabled": 0, "is_reserved": 0, "lat": 38.921024833333334, "name": "2fb54b06fd8462593e3c62c687c3d6d7", "rental_uris": {"ios": "https://dc.lft.to/lastmile_qr_scan", "android": "https://dc.lft.to/lastmile_qr_scan"}, "type": "electric_scooter", "fusion_lat": 0.0, "lon": -77.081911}, {"fusion_lon": 0.0, "bike_id": "61adae92d2a173eeb8560e9f6a3ac4ef", "is_disabled": 0, "is_reserved": 0, "lat": 38.913322666666666, "name": "61adae92d2a173eeb8560e9f6a3ac4ef", "rental_uris": {"ios": "https://dc.lft.to/lastmile_qr_scan", "android": "https://dc.lft.to/lastmile_qr_scan"}, "type": "electric_scooter", "fusion_lat": 0.0, "lon": -77.01469816666666}, {"fusion_lon": 0.0, "bike_id": "7a7366bf55dac1e4fc38eaa376b3a116", "is_disabled": 0, "is_reserved": 0, "lat": 38.909935, "name": "7a7366bf55dac1e4fc38eaa376b3a116", "rental_uris": {"ios": "https://dc.lft.to/lastmile_qr_scan", "android": "https://dc.lft.to/lastmile_qr_scan"}, "type": "electric_scooter", "fusion_lat": 0.0, "lon": -77.05281866666667}, {"fusion_lon": 0.0, "bike_id": "70128fd0358bcfdff9091b7e8079b258", "is_disabled": 0, "is_reserved": 0, "lat": 38.920899666666664, "name": "70128fd0358bcfdff9091b7e8079b258", "rental_uris": {"ios": "https://dc.lft.to/lastmile_qr_scan", "android": "https://dc.lft.to/lastmile_qr_scan"}, "type": "electric_scooter", "fusion_lat": 0.0, "lon": -77.02228566666666}, {"fusion_lon": 0.0, "bike_id": "0b10176d7e9e0f2289d2b4b419fa9335", "is_disabled": 0, "is_reserved": 0, "lat": 38.90496316666667, "name": "0b10176d7e9e0f2289d2b4b419fa9335", "rental_uris": {"ios": "https://dc.lft.to/lastmile_qr_scan", "android": "https://dc.lft.to/lastmile_qr_scan"}, "type": "electric_scooter", "fusion_lat": 0.0, "lon": -77.01991216666667}, {"fusion_lon": 0.0, "bike_id": "b29b0939b9299ad9bd3ae6ce927a49b3", "is_disabled": 0, "is_reserved": 0, "lat": 38.90691433333333, "name": "b29b0939b9299ad9bd3ae6ce927a49b3", "rental_uris": {"ios": "https://dc.lft.to/lastmile_qr_scan", "android": "https://dc.lft.to/lastmile_qr_scan"}, "type": "electric_scooter", "fusion_lat": 0.0, "lon": -77.0271515}, {"fusion_lon": 0.0, "bike_id": "573456257bdf1af8a8779355a9854137", "is_disabled": 0, "is_reserved": 0, "lat": 38.92228383333333, "name": "573456257bdf1af8a8779355a9854137", "rental_uris": {"ios": "https://dc.lft.to/lastmile_qr_scan", "android": "https://dc.lft.to/lastmile_qr_scan"}, "type": "electric_scooter", "fusion_lat": 0.0, "lon": -77.04250066666667}, {"fusion_lon": 0.0, "bike_id": "b25fe8bc7497d2027f995780f2ecea38", "is_disabled": 0, "is_reserved": 0, "lat": 38.907361333333334, "name": "b25fe8bc7497d2027f995780f2ecea38", "rental_uris": {"ios": "https://dc.lft.to/lastmile_qr_scan", "android": "https://dc.lft.to/lastmile_qr_scan"}, "type": "electric_scooter", "fusion_lat": 0.0, "lon": -77.03457533333334}, {"fusion_lon": 0.0, "bike_id": "76de7ece74dcc8ef481b8a2006d6ce73", "is_disabled": 0, "is_reserved": 0, "lat": 38.952580166666664, "name": "76de7ece74dcc8ef481b8a2006d6ce73", "rental_uris": {"ios": "https://dc.lft.to/lastmile_qr_scan", "android": "https://dc.lft.to/lastmile_qr_scan"}, "type": "electric_scooter", "fusion_lat": 0.0, "lon": -77.02073983333334}, {"fusion_lon": 0.0, "bike_id": "5ba07b55c5d7df85774a2f24a4639fb6", "is_disabled": 0, "is_reserved": 0, "lat": 38.917480166666664, "name": "5ba07b55c5d7df85774a2f24a4639fb6", "rental_uris": {"ios": "https://dc.lft.to/lastmile_qr_scan", "android": "https://dc.lft.to/lastmile_qr_scan"}, "type": "electric_scooter", "fusion_lat": 0.0, "lon": -77.02117666666666}, {"fusion_lon": 0.0, "bike_id": "1a81ece980fb978aab3f7b6059356ea9", "is_disabled": 0, "is_reserved": 0, "lat": 38.912505833333334, "name": "1a81ece980fb978aab3f7b6059356ea9", "rental_uris": {"ios": "https://dc.lft.to/lastmile_qr_scan", "android": "https://dc.lft.to/lastmile_qr_scan"}, "type": "electric_scooter", "fusion_lat": 0.0, "lon": -77.028131}, {"fusion_lon": 0.0, "bike_id": "a99f5ca93c367bea4bbfa53df30f0041", "is_disabled": 0, "is_reserved": 0, "lat": 38.90505516666666, "name": "a99f5ca93c367bea4bbfa53df30f0041", "rental_uris": {"ios": "https://dc.lft.to/lastmile_qr_scan", "android": "https://dc.lft.to/lastmile_qr_scan"}, "type": "electric_scooter", "fusion_lat": 0.0, "lon": -77.06521916666667}, {"fusion_lon": 0.0, "bike_id": "b886f25db9120ef3ab9c16008be96600", "is_disabled": 0, "is_reserved": 0, "lat": 38.8982435, "name": "b886f25db9120ef3ab9c16008be96600", "rental_uris": {"ios": "https://dc.lft.to/lastmile_qr_scan", "android": "https://dc.lft.to/lastmile_qr_scan"}, "type": "electric_scooter", "fusion_lat": 0.0, "lon": -77.04614333333333}, {"fusion_lon": 0.0, "bike_id": "986b3cc17d78e43dfbf732c9d40da555", "is_disabled": 0, "is_reserved": 0, "lat": 38.899127166666666, "name": "986b3cc17d78e43dfbf732c9d40da555", "rental_uris": {"ios": "https://dc.lft.to/lastmile_qr_scan", "android": "https://dc.lft.to/lastmile_qr_scan"}, "type": "electric_scooter", "fusion_lat": 0.0, "lon": -77.02320916666666}, {"fusion_lon": 0.0, "bike_id": "0fac85af87326f16cb7c186af85c5089", "is_disabled": 0, "is_reserved": 0, "lat": 38.91035766666667, "name": "0fac85af87326f16cb7c186af85c5089", "rental_uris": {"ios": "https://dc.lft.to/lastmile_qr_scan", "android": "https://dc.lft.to/lastmile_qr_scan"}, "type": "electric_scooter", "fusion_lat": 0.0, "lon": -77.04095716666667}, {"fusion_lon": 0.0, "bike_id": "39fb5b47a223f7a185313097f0cbc214", "is_disabled": 0, "is_reserved": 0, "lat": 38.919974, "name": "39fb5b47a223f7a185313097f0cbc214", "rental_uris": {"ios": "https://dc.lft.to/lastmile_qr_scan", "android": "https://dc.lft.to/lastmile_qr_scan"}, "type": "electric_scooter", "fusion_lat": 0.0, "lon": -77.03280566666666}, {"fusion_lon": 0.0, "bike_id": "124d963e729e284daca7b640b310ef57", "is_disabled": 0, "is_reserved": 0, "lat": 38.9041335, "name": "124d963e729e284daca7b640b310ef57", "rental_uris": {"ios": "https://dc.lft.to/lastmile_qr_scan", "android": "https://dc.lft.to/lastmile_qr_scan"}, "type": "electric_scooter", "fusion_lat": 0.0, "lon": -77.0436645}, {"fusion_lon": 0.0, "bike_id": "8fc5cc51d60cedf907781d6857d66997", "is_disabled": 0, "is_reserved": 0, "lat": 38.9307145, "name": "8fc5cc51d60cedf907781d6857d66997", "rental_uris": {"ios": "https://dc.lft.to/lastmile_qr_scan", "android": "https://dc.lft.to/lastmile_qr_scan"}, "type": "electric_scooter", "fusion_lat": 0.0, "lon": -77.03946216666667}, {"fusion_lon": 0.0, "bike_id": "9f094f47c4230a1320e560bde7977194", "is_disabled": 0, "is_reserved": 0, "lat": 38.91816983333333, "name": "9f094f47c4230a1320e560bde7977194", "rental_uris": {"ios": "https://dc.lft.to/lastmile_qr_scan", "android": "https://dc.lft.to/lastmile_qr_scan"}, "type": "electric_scooter", "fusion_lat": 0.0, "lon": -77.04004}, {"fusion_lon": 0.0, "bike_id": "644d5f3475236d99528fa47fbf98286c", "is_disabled": 0, "is_reserved": 0, "lat": 38.92364, "name": "644d5f3475236d99528fa47fbf98286c", "rental_uris": {"ios": "https://dc.lft.to/lastmile_qr_scan", "android": "https://dc.lft.to/lastmile_qr_scan"}, "type": "electric_scooter", "fusion_lat": 0.0, "lon": -77.08050133333333}, {"fusion_lon": 0.0, "bike_id": "e3374c512b14689b1ff84fd68417d28a", "is_disabled": 0, "is_reserved": 0, "lat": 38.8921895, "name": "e3374c512b14689b1ff84fd68417d28a", "rental_uris": {"ios": "https://dc.lft.to/lastmile_qr_scan", "android": "https://dc.lft.to/lastmile_qr_scan"}, "type": "electric_scooter", "fusion_lat": 0.0, "lon": -77.03987166666667}, {"fusion_lon": 0.0, "bike_id": "3ba421ecceb2505469eb4f09aba899f0", "is_disabled": 0, "is_reserved": 0, "lat": 38.923362166666664, "name": "3ba421ecceb2505469eb4f09aba899f0", "rental_uris": {"ios": "https://dc.lft.to/lastmile_qr_scan", "android": "https://dc.lft.to/lastmile_qr_scan"}, "type": "electric_scooter", "fusion_lat": 0.0, "lon": -77.0378285}, {"fusion_lon": 0.0, "bike_id": "8f5a4f6041898df48c12c47d10bff367", "is_disabled": 0, "is_reserved": 0, "lat": 38.895493, "name": "8f5a4f6041898df48c12c47d10bff367", "rental_uris": {"ios": "https://dc.lft.to/lastmile_qr_scan", "android": "https://dc.lft.to/lastmile_qr_scan"}, "type": "electric_scooter", "fusion_lat": 0.0, "lon": -76.98340416666667}, {"fusion_lon": 0.0, "bike_id": "a3975cb0131d06af5bedbabb3510eb0a", "is_disabled": 0, "is_reserved": 0, "lat": 38.92818283333333, "name": "a3975cb0131d06af5bedbabb3510eb0a", "rental_uris": {"ios": "https://dc.lft.to/lastmile_qr_scan", "android": "https://dc.lft.to/lastmile_qr_scan"}, "type": "electric_scooter", "fusion_lat": 0.0, "lon": -77.01410466666667}, {"fusion_lon": 0.0, "bike_id": "e3b5540be347d7168fe5e74639b0328e", "is_disabled": 0, "is_reserved": 0, "lat": 38.911191, "name": "e3b5540be347d7168fe5e74639b0328e", "rental_uris": {"ios": "https://dc.lft.to/lastmile_qr_scan", "android": "https://dc.lft.to/lastmile_qr_scan"}, "type": "electric_scooter", "fusion_lat": 0.0, "lon": -77.03271983333333}, {"fusion_lon": 0.0, "bike_id": "26059cbe948bfbe74075c5e2821df1ec", "is_disabled": 0, "is_reserved": 0, "lat": 38.9518545, "name": "26059cbe948bfbe74075c5e2821df1ec", "rental_uris": {"ios": "https://dc.lft.to/lastmile_qr_scan", "android": "https://dc.lft.to/lastmile_qr_scan"}, "type": "electric_bike", "fusion_lat": 0.0, "lon": -76.93544533333333}, {"fusion_lon": 0.0, "bike_id": "499d6e232c4354663c3e1b0098245577", "is_disabled": 0, "is_reserved": 0, "lat": 38.91734783333333, "name": "499d6e232c4354663c3e1b0098245577", "rental_uris": {"ios": "https://dc.lft.to/lastmile_qr_scan", "android": "https://dc.lft.to/lastmile_qr_scan"}, "type": "electric_scooter", "fusion_lat": 0.0, "lon": -77.02802716666666}, {"fusion_lon": 0.0, "bike_id": "c802214464662600dd54a4778094ccaf", "is_disabled": 0, "is_reserved": 0, "lat": 38.89718333333333, "name": "c802214464662600dd54a4778094ccaf", "rental_uris": {"ios": "https://dc.lft.to/lastmile_qr_scan", "android": "https://dc.lft.to/lastmile_qr_scan"}, "type": "electric_bike", "fusion_lat": 0.0, "lon": -77.00699966666667}, {"fusion_lon": 0.0, "bike_id": "531015cb8e6ed01a9701b6a4d33ff3bb", "is_disabled": 0, "is_reserved": 0, "lat": 38.96728866666667, "name": "531015cb8e6ed01a9701b6a4d33ff3bb", "rental_uris": {"ios": "https://dc.lft.to/lastmile_qr_scan", "android": "https://dc.lft.to/lastmile_qr_scan"}, "type": "electric_bike", "fusion_lat": 0.0, "lon": -77.08912183333334}, {"fusion_lon": 0.0, "bike_id": "22072d8d3c44ccebe9f386af23ab0088", "is_disabled": 0, "is_reserved": 0, "lat": 38.920284, "name": "22072d8d3c44ccebe9f386af23ab0088", "rental_uris": {"ios": "https://dc.lft.to/lastmile_qr_scan", "android": "https://dc.lft.to/lastmile_qr_scan"}, "type": "electric_scooter", "fusion_lat": 0.0, "lon": -77.04190283333334}, {"fusion_lon": 0.0, "bike_id": "0c7e9b88d329921dd0390dff97437890", "is_disabled": 0, "is_reserved": 0, "lat": 38.8876475, "name": "0c7e9b88d329921dd0390dff97437890", "rental_uris": {"ios": "https://dc.lft.to/lastmile_qr_scan", "android": "https://dc.lft.to/lastmile_qr_scan"}, "type": "electric_scooter", "fusion_lat": 0.0, "lon": -77.0004275}, {"fusion_lon": 0.0, "bike_id": "8c095dedb6f661e3b29d7aa129119b3c", "is_disabled": 0, "is_reserved": 0, "lat": 38.922302, "name": "8c095dedb6f661e3b29d7aa129119b3c", "rental_uris": {"ios": "https://dc.lft.to/lastmile_qr_scan", "android": "https://dc.lft.to/lastmile_qr_scan"}, "type": "electric_scooter", "fusion_lat": 0.0, "lon": -77.02829266666667}, {"fusion_lon": 0.0, "bike_id": "c7a443643d56b985f411a85a14375496", "is_disabled": 0, "is_reserved": 0, "lat": 38.895819, "name": "c7a443643d56b985f411a85a14375496", "rental_uris": {"ios": "https://dc.lft.to/lastmile_qr_scan", "android": "https://dc.lft.to/lastmile_qr_scan"}, "type": "electric_scooter", "fusion_lat": 0.0, "lon": -77.0295}, {"fusion_lon": 0.0, "bike_id": "db9833472fa1111c7e52737a2fde3e64", "is_disabled": 0, "is_reserved": 0, "lat": 38.83579066666667, "name": "db9833472fa1111c7e52737a2fde3e64", "rental_uris": {"ios": "https://dc.lft.to/lastmile_qr_scan", "android": "https://dc.lft.to/lastmile_qr_scan"}, "type": "electric_bike", "fusion_lat": 0.0, "lon": -76.99019116666666}, {"fusion_lon": 0.0, "bike_id": "2c40f09a64f80a7dab3d4264bd86dfbf", "is_disabled": 0, "is_reserved": 0, "lat": 38.882453166666664, "name": "2c40f09a64f80a7dab3d4264bd86dfbf", "rental_uris": {"ios": "https://dc.lft.to/lastmile_qr_scan", "android": "https://dc.lft.to/lastmile_qr_scan"}, "type": "electric_bike", "fusion_lat": 0.0, "lon": -76.9625785}, {"fusion_lon": 0.0, "bike_id": "4dbbc434db49fb6f4bae155efa358736", "is_disabled": 0, "is_reserved": 0, "lat": 38.932606, "name": "4dbbc434db49fb6f4bae155efa358736", "rental_uris": {"ios": "https://dc.lft.to/lastmile_qr_scan", "android": "https://dc.lft.to/lastmile_qr_scan"}, "type": "electric_scooter", "fusion_lat": 0.0, "lon": -76.98871083333333}, {"fusion_lon": 0.0, "bike_id": "5a430d7d735b034c853f889a43047180", "is_disabled": 0, "is_reserved": 0, "lat": 38.914499666666664, "name": "5a430d7d735b034c853f889a43047180", "rental_uris": {"ios": "https://dc.lft.to/lastmile_qr_scan", "android": "https://dc.lft.to/lastmile_qr_scan"}, "type": "electric_bike", "fusion_lat": 0.0, "lon": -76.97233966666667}, {"fusion_lon": 0.0, "bike_id": "9b3b2239a939a0f586dc5b90f4670918", "is_disabled": 0, "is_reserved": 0, "lat": 38.88772183333333, "name": "9b3b2239a939a0f586dc5b90f4670918", "rental_uris": {"ios": "https://dc.lft.to/lastmile_qr_scan", "android": "https://dc.lft.to/lastmile_qr_scan"}, "type": "electric_scooter", "fusion_lat": 0.0, "lon": -76.97736266666666}, {"fusion_lon": 0.0, "bike_id": "c524ea789361b4cab13f3ca86c4bb5e5", "is_disabled": 0, "is_reserved": 0, "lat": 38.87888866666667, "name": "c524ea789361b4cab13f3ca86c4bb5e5", "rental_uris": {"ios": "https://dc.lft.to/lastmile_qr_scan", "android": "https://dc.lft.to/lastmile_qr_scan"}, "type": "electric_scooter", "fusion_lat": 0.0, "lon": -76.9654165}, {"fusion_lon": 0.0, "bike_id": "baa53c633c49360188ccd99a8c18dd8b", "is_disabled": 0, "is_reserved": 0, "lat": 38.91857233333333, "name": "baa53c633c49360188ccd99a8c18dd8b", "rental_uris": {"ios": "https://dc.lft.to/lastmile_qr_scan", "android": "https://dc.lft.to/lastmile_qr_scan"}, "type": "electric_scooter", "fusion_lat": 0.0, "lon": -77.025423}, {"fusion_lon": 0.0, "bike_id": "b072fa2808a57e881251c70bf01b962e", "is_disabled": 0, "is_reserved": 0, "lat": 38.885242166666664, "name": "b072fa2808a57e881251c70bf01b962e", "rental_uris": {"ios": "https://dc.lft.to/lastmile_qr_scan", "android": "https://dc.lft.to/lastmile_qr_scan"}, "type": "electric_scooter", "fusion_lat": 0.0, "lon": -76.97710466666666}, {"fusion_lon": 0.0, "bike_id": "0eef3cb0300e4b3a954cc1d08c345c30", "is_disabled": 0, "is_reserved": 0, "lat": 38.9193635, "name": "0eef3cb0300e4b3a954cc1d08c345c30", "rental_uris": {"ios": "https://dc.lft.to/lastmile_qr_scan", "android": "https://dc.lft.to/lastmile_qr_scan"}, "type": "electric_scooter", "fusion_lat": 0.0, "lon": -77.04625383333334}, {"fusion_lon": 0.0, "bike_id": "d98794dcc302f618dbeb9167e0bd9339", "is_disabled": 0, "is_reserved": 0, "lat": 38.9233055, "name": "d98794dcc302f618dbeb9167e0bd9339", "rental_uris": {"ios": "https://dc.lft.to/lastmile_qr_scan", "android": "https://dc.lft.to/lastmile_qr_scan"}, "type": "electric_scooter", "fusion_lat": 0.0, "lon": -77.008927}, {"fusion_lon": 0.0, "bike_id": "dcd0af9218052deba38af1f6da273450", "is_disabled": 0, "is_reserved": 0, "lat": 38.922369, "name": "dcd0af9218052deba38af1f6da273450", "rental_uris": {"ios": "https://dc.lft.to/lastmile_qr_scan", "android": "https://dc.lft.to/lastmile_qr_scan"}, "type": "electric_scooter", "fusion_lat": 0.0, "lon": -77.03380733333333}, {"fusion_lon": 0.0, "bike_id": "6c02f14607276fa5ca4e7b22e2f10ca4", "is_disabled": 0, "is_reserved": 0, "lat": 38.906825833333336, "name": "6c02f14607276fa5ca4e7b22e2f10ca4", "rental_uris": {"ios": "https://dc.lft.to/lastmile_qr_scan", "android": "https://dc.lft.to/lastmile_qr_scan"}, "type": "electric_scooter", "fusion_lat": 0.0, "lon": -76.979995}, {"fusion_lon": 0.0, "bike_id": "f387745cf625214695e027f627710276", "is_disabled": 0, "is_reserved": 0, "lat": 38.9408115, "name": "f387745cf625214695e027f627710276", "rental_uris": {"ios": "https://dc.lft.to/lastmile_qr_scan", "android": "https://dc.lft.to/lastmile_qr_scan"}, "type": "electric_scooter", "fusion_lat": 0.0, "lon": -77.02112983333333}, {"fusion_lon": 0.0, "bike_id": "41b2b85bcaa0f6189d4420e9c4d235c5", "is_disabled": 0, "is_reserved": 0, "lat": 38.899605666666666, "name": "41b2b85bcaa0f6189d4420e9c4d235c5", "rental_uris": {"ios": "https://dc.lft.to/lastmile_qr_scan", "android": "https://dc.lft.to/lastmile_qr_scan"}, "type": "electric_scooter", "fusion_lat": 0.0, "lon": -77.04493783333334}, {"fusion_lon": 0.0, "bike_id": "b9c9c7d9030421984a8abed7c518ee3c", "is_disabled": 0, "is_reserved": 0, "lat": 38.87943083333333, "name": "b9c9c7d9030421984a8abed7c518ee3c", "rental_uris": {"ios": "https://dc.lft.to/lastmile_qr_scan", "android": "https://dc.lft.to/lastmile_qr_scan"}, "type": "electric_scooter", "fusion_lat": 0.0, "lon": -77.01002383333334}, {"fusion_lon": 0.0, "bike_id": "e3407bff3dcaf71b54f0e91b9fc5331b", "is_disabled": 0, "is_reserved": 0, "lat": 38.87661283333333, "name": "e3407bff3dcaf71b54f0e91b9fc5331b", "rental_uris": {"ios": "https://dc.lft.to/lastmile_qr_scan", "android": "https://dc.lft.to/lastmile_qr_scan"}, "type": "electric_scooter", "fusion_lat": 0.0, "lon": -77.00707366666667}, {"fusion_lon": 0.0, "bike_id": "c6545c8174d458c437a0d1e44df16906", "is_disabled": 0, "is_reserved": 0, "lat": 38.80740633333333, "name": "c6545c8174d458c437a0d1e44df16906", "rental_uris": {"ios": "https://dc.lft.to/lastmile_qr_scan", "android": "https://dc.lft.to/lastmile_qr_scan"}, "type": "electric_bike", "fusion_lat": 0.0, "lon": -77.09689066666667}, {"fusion_lon": 0.0, "bike_id": "ec17599410a44394a755b588c531bb86", "is_disabled": 0, "is_reserved": 0, "lat": 38.895433833333335, "name": "ec17599410a44394a755b588c531bb86", "rental_uris": {"ios": "https://dc.lft.to/lastmile_qr_scan", "android": "https://dc.lft.to/lastmile_qr_scan"}, "type": "electric_scooter", "fusion_lat": 0.0, "lon": -76.98337766666667}, {"fusion_lon": 0.0, "bike_id": "30cb5cf95988ca3f2359b6a339702477", "is_disabled": 0, "is_reserved": 0, "lat": 38.87285333333333, "name": "30cb5cf95988ca3f2359b6a339702477", "rental_uris": {"ios": "https://dc.lft.to/lastmile_qr_scan", "android": "https://dc.lft.to/lastmile_qr_scan"}, "type": "electric_scooter", "fusion_lat": 0.0, "lon": -77.01528416666666}, {"fusion_lon": 0.0, "bike_id": "9c4260b9843f037de72b01d605705add", "is_disabled": 0, "is_reserved": 0, "lat": 38.9192665, "name": "9c4260b9843f037de72b01d605705add", "rental_uris": {"ios": "https://dc.lft.to/lastmile_qr_scan", "android": "https://dc.lft.to/lastmile_qr_scan"}, "type": "electric_scooter", "fusion_lat": 0.0, "lon": -77.03185}, {"fusion_lon": 0.0, "bike_id": "0e26e201113219470b2b8040191f0cfd", "is_disabled": 0, "is_reserved": 0, "lat": 38.87175366666666, "name": "0e26e201113219470b2b8040191f0cfd", "rental_uris": {"ios": "https://dc.lft.to/lastmile_qr_scan", "android": "https://dc.lft.to/lastmile_qr_scan"}, "type": "electric_bike", "fusion_lat": 0.0, "lon": -77.23393083333333}, {"fusion_lon": 0.0, "bike_id": "89e86aedc2d7ae7e9934705d6784a469", "is_disabled": 0, "is_reserved": 0, "lat": 38.87659216666667, "name": "89e86aedc2d7ae7e9934705d6784a469", "rental_uris": {"ios": "https://dc.lft.to/lastmile_qr_scan", "android": "https://dc.lft.to/lastmile_qr_scan"}, "type": "electric_scooter", "fusion_lat": 0.0, "lon": -77.000657}, {"fusion_lon": 0.0, "bike_id": "4b828d946b615c2382ff8d95ef6b0994", "is_disabled": 0, "is_reserved": 0, "lat": 38.91805516666667, "name": "4b828d946b615c2382ff8d95ef6b0994", "rental_uris": {"ios": "https://dc.lft.to/lastmile_qr_scan", "android": "https://dc.lft.to/lastmile_qr_scan"}, "type": "electric_scooter", "fusion_lat": 0.0, "lon": -77.046421}, {"fusion_lon": 0.0, "bike_id": "674f2e3bc363757c1cf80e20d1380240", "is_disabled": 0, "is_reserved": 0, "lat": 38.9205525, "name": "674f2e3bc363757c1cf80e20d1380240", "rental_uris": {"ios": "https://dc.lft.to/lastmile_qr_scan", "android": "https://dc.lft.to/lastmile_qr_scan"}, "type": "electric_scooter", "fusion_lat": 0.0, "lon": -77.0425605}, {"fusion_lon": 0.0, "bike_id": "33e6f078d97a39215ecb5ab943d58bc0", "is_disabled": 0, "is_reserved": 0, "lat": 38.900547833333334, "name": "33e6f078d97a39215ecb5ab943d58bc0", "rental_uris": {"ios": "https://dc.lft.to/lastmile_qr_scan", "android": "https://dc.lft.to/lastmile_qr_scan"}, "type": "electric_scooter", "fusion_lat": 0.0, "lon": -77.04903083333333}, {"fusion_lon": 0.0, "bike_id": "eb2981427234bc328ea798f1952f1cbe", "is_disabled": 0, "is_reserved": 0, "lat": 38.93528116666667, "name": "eb2981427234bc328ea798f1952f1cbe", "rental_uris": {"ios": "https://dc.lft.to/lastmile_qr_scan", "android": "https://dc.lft.to/lastmile_qr_scan"}, "type": "electric_bike", "fusion_lat": 0.0, "lon": -77.056975}, {"fusion_lon": 0.0, "bike_id": "29b43cd2381421f730970ff0f0c1caf4", "is_disabled": 0, "is_reserved": 0, "lat": 38.912699833333335, "name": "29b43cd2381421f730970ff0f0c1caf4", "rental_uris": {"ios": "https://dc.lft.to/lastmile_qr_scan", "android": "https://dc.lft.to/lastmile_qr_scan"}, "type": "electric_scooter", "fusion_lat": 0.0, "lon": -77.03869983333334}, {"fusion_lon": 0.0, "bike_id": "8ed2eb6d2edaa8e9edb7f579f71a99c1", "is_disabled": 0, "is_reserved": 0, "lat": 38.9282725, "name": "8ed2eb6d2edaa8e9edb7f579f71a99c1", "rental_uris": {"ios": "https://dc.lft.to/lastmile_qr_scan", "android": "https://dc.lft.to/lastmile_qr_scan"}, "type": "electric_scooter", "fusion_lat": 0.0, "lon": -77.02256966666667}, {"fusion_lon": 0.0, "bike_id": "483187ac3d962b3395e7fc42b92f909b", "is_disabled": 0, "is_reserved": 0, "lat": 38.909616, "name": "483187ac3d962b3395e7fc42b92f909b", "rental_uris": {"ios": "https://dc.lft.to/lastmile_qr_scan", "android": "https://dc.lft.to/lastmile_qr_scan"}, "type": "electric_scooter", "fusion_lat": 0.0, "lon": -77.011852}, {"fusion_lon": 0.0, "bike_id": "30d98fb93a637ec021ff9c373db4166b", "is_disabled": 0, "is_reserved": 0, "lat": 38.90152466666667, "name": "30d98fb93a637ec021ff9c373db4166b", "rental_uris": {"ios": "https://dc.lft.to/lastmile_qr_scan", "android": "https://dc.lft.to/lastmile_qr_scan"}, "type": "electric_scooter", "fusion_lat": 0.0, "lon": -77.05128833333333}, {"fusion_lon": 0.0, "bike_id": "46bf0c9b45f79b0ecf3e0ffebe097706", "is_disabled": 0, "is_reserved": 0, "lat": 38.92624883333333, "name": "46bf0c9b45f79b0ecf3e0ffebe097706", "rental_uris": {"ios": "https://dc.lft.to/lastmile_qr_scan", "android": "https://dc.lft.to/lastmile_qr_scan"}, "type": "electric_scooter", "fusion_lat": 0.0, "lon": -77.07721783333334}, {"fusion_lon": 0.0, "bike_id": "3f2bdbafe94d6d0a0056c0c0dbadf76c", "is_disabled": 0, "is_reserved": 0, "lat": 38.87648733333333, "name": "3f2bdbafe94d6d0a0056c0c0dbadf76c", "rental_uris": {"ios": "https://dc.lft.to/lastmile_qr_scan", "android": "https://dc.lft.to/lastmile_qr_scan"}, "type": "electric_scooter", "fusion_lat": 0.0, "lon": -77.00065683333334}, {"fusion_lon": 0.0, "bike_id": "6aefd49cfbe617c0a1306ccbfc097d3a", "is_disabled": 0, "is_reserved": 0, "lat": 38.903995333333334, "name": "6aefd49cfbe617c0a1306ccbfc097d3a", "rental_uris": {"ios": "https://dc.lft.to/lastmile_qr_scan", "android": "https://dc.lft.to/lastmile_qr_scan"}, "type": "electric_scooter", "fusion_lat": 0.0, "lon": -77.0043145}, {"fusion_lon": 0.0, "bike_id": "f6e813036457875dbfe23ee8281a2f58", "is_disabled": 0, "is_reserved": 0, "lat": 38.896136166666665, "name": "f6e813036457875dbfe23ee8281a2f58", "rental_uris": {"ios": "https://dc.lft.to/lastmile_qr_scan", "android": "https://dc.lft.to/lastmile_qr_scan"}, "type": "electric_scooter", "fusion_lat": 0.0, "lon": -76.99964066666666}, {"fusion_lon": 0.0, "bike_id": "46256ff40c4ef10b41f4495793746f99", "is_disabled": 0, "is_reserved": 0, "lat": 38.87654066666666, "name": "46256ff40c4ef10b41f4495793746f99", "rental_uris": {"ios": "https://dc.lft.to/lastmile_qr_scan", "android": "https://dc.lft.to/lastmile_qr_scan"}, "type": "electric_scooter", "fusion_lat": 0.0, "lon": -77.00683533333333}, {"fusion_lon": 0.0, "bike_id": "e27a1498c7d694ae644447e3f22ce9d4", "is_disabled": 0, "is_reserved": 0, "lat": 38.90270916666667, "name": "e27a1498c7d694ae644447e3f22ce9d4", "rental_uris": {"ios": "https://dc.lft.to/lastmile_qr_scan", "android": "https://dc.lft.to/lastmile_qr_scan"}, "type": "electric_scooter", "fusion_lat": 0.0, "lon": -77.00326033333333}, {"fusion_lon": 0.0, "bike_id": "34081374358b65b0e5c3504c438df9e4", "is_disabled": 0, "is_reserved": 0, "lat": 38.92414316666667, "name": "34081374358b65b0e5c3504c438df9e4", "rental_uris": {"ios": "https://dc.lft.to/lastmile_qr_scan", "android": "https://dc.lft.to/lastmile_qr_scan"}, "type": "electric_scooter", "fusion_lat": 0.0, "lon": -77.0212865}, {"fusion_lon": 0.0, "bike_id": "d68e4e3ae682f17a6b2dfd8f6176c468", "is_disabled": 0, "is_reserved": 0, "lat": 38.85242866666667, "name": "d68e4e3ae682f17a6b2dfd8f6176c468", "rental_uris": {"ios": "https://dc.lft.to/lastmile_qr_scan", "android": "https://dc.lft.to/lastmile_qr_scan"}, "type": "electric_bike", "fusion_lat": 0.0, "lon": -77.11411933333333}, {"fusion_lon": 0.0, "bike_id": "78be9d26749deb4898c2a99aced36dfb", "is_disabled": 0, "is_reserved": 0, "lat": 38.90532133333333, "name": "78be9d26749deb4898c2a99aced36dfb", "rental_uris": {"ios": "https://dc.lft.to/lastmile_qr_scan", "android": "https://dc.lft.to/lastmile_qr_scan"}, "type": "electric_bike", "fusion_lat": 0.0, "lon": -77.059118}, {"fusion_lon": 0.0, "bike_id": "5c00704282520300dbd30a21632513ce", "is_disabled": 0, "is_reserved": 0, "lat": 38.927840333333336, "name": "5c00704282520300dbd30a21632513ce", "rental_uris": {"ios": "https://dc.lft.to/lastmile_qr_scan", "android": "https://dc.lft.to/lastmile_qr_scan"}, "type": "electric_scooter", "fusion_lat": 0.0, "lon": -77.02729916666667}, {"fusion_lon": 0.0, "bike_id": "43b2862b30ee7543b40fab40e85bf0f9", "is_disabled": 0, "is_reserved": 0, "lat": 38.90834066666667, "name": "43b2862b30ee7543b40fab40e85bf0f9", "rental_uris": {"ios": "https://dc.lft.to/lastmile_qr_scan", "android": "https://dc.lft.to/lastmile_qr_scan"}, "type": "electric_scooter", "fusion_lat": 0.0, "lon": -76.93475916666667}, {"fusion_lon": 0.0, "bike_id": "17edad3b3eb219bcb986e71d861de002", "is_disabled": 0, "is_reserved": 0, "lat": 38.88276033333333, "name": "17edad3b3eb219bcb986e71d861de002", "rental_uris": {"ios": "https://dc.lft.to/lastmile_qr_scan", "android": "https://dc.lft.to/lastmile_qr_scan"}, "type": "electric_scooter", "fusion_lat": 0.0, "lon": -76.93556533333333}, {"fusion_lon": 0.0, "bike_id": "a3548f3f2790899e839b09d1bd5c9dcb", "is_disabled": 0, "is_reserved": 0, "lat": 38.90123533333333, "name": "a3548f3f2790899e839b09d1bd5c9dcb", "rental_uris": {"ios": "https://dc.lft.to/lastmile_qr_scan", "android": "https://dc.lft.to/lastmile_qr_scan"}, "type": "electric_scooter", "fusion_lat": 0.0, "lon": -77.00254166666667}, {"fusion_lon": 0.0, "bike_id": "c400842238a7ecf3b1cf5bad8bf9a848", "is_disabled": 0, "is_reserved": 0, "lat": 38.9051625, "name": "c400842238a7ecf3b1cf5bad8bf9a848", "rental_uris": {"ios": "https://dc.lft.to/lastmile_qr_scan", "android": "https://dc.lft.to/lastmile_qr_scan"}, "type": "electric_scooter", "fusion_lat": 0.0, "lon": -77.01722366666667}, {"fusion_lon": 0.0, "bike_id": "4803a3d1474dd92b917989522a2399da", "is_disabled": 0, "is_reserved": 0, "lat": 38.917369666666666, "name": "4803a3d1474dd92b917989522a2399da", "rental_uris": {"ios": "https://dc.lft.to/lastmile_qr_scan", "android": "https://dc.lft.to/lastmile_qr_scan"}, "type": "electric_scooter", "fusion_lat": 0.0, "lon": -77.02117933333334}, {"fusion_lon": 0.0, "bike_id": "635211722f068c05fddcda63877aa303", "is_disabled": 0, "is_reserved": 0, "lat": 38.92719, "name": "635211722f068c05fddcda63877aa303", "rental_uris": {"ios": "https://dc.lft.to/lastmile_qr_scan", "android": "https://dc.lft.to/lastmile_qr_scan"}, "type": "electric_scooter", "fusion_lat": 0.0, "lon": -77.02298016666667}, {"fusion_lon": 0.0, "bike_id": "bc93082859a46e45dbb9fc299a87ef61", "is_disabled": 0, "is_reserved": 0, "lat": 38.92238666666667, "name": "bc93082859a46e45dbb9fc299a87ef61", "rental_uris": {"ios": "https://dc.lft.to/lastmile_qr_scan", "android": "https://dc.lft.to/lastmile_qr_scan"}, "type": "electric_scooter", "fusion_lat": 0.0, "lon": -77.03663}, {"fusion_lon": 0.0, "bike_id": "d6c8a267198e45e130b382aaa2e9d750", "is_disabled": 0, "is_reserved": 0, "lat": 39.00646016666666, "name": "d6c8a267198e45e130b382aaa2e9d750", "rental_uris": {"ios": "https://dc.lft.to/lastmile_qr_scan", "android": "https://dc.lft.to/lastmile_qr_scan"}, "type": "electric_bike", "fusion_lat": 0.0, "lon": -76.9002335}, {"fusion_lon": 0.0, "bike_id": "3ce4115e309111b868459e3750d7b902", "is_disabled": 0, "is_reserved": 0, "lat": 38.88006016666667, "name": "3ce4115e309111b868459e3750d7b902", "rental_uris": {"ios": "https://dc.lft.to/lastmile_qr_scan", "android": "https://dc.lft.to/lastmile_qr_scan"}, "type": "electric_scooter", "fusion_lat": 0.0, "lon": -76.99835483333334}, {"fusion_lon": 0.0, "bike_id": "d6592f3f2667e07af8bb3b5f9f0bb8de", "is_disabled": 0, "is_reserved": 0, "lat": 38.92701133333333, "name": "d6592f3f2667e07af8bb3b5f9f0bb8de", "rental_uris": {"ios": "https://dc.lft.to/lastmile_qr_scan", "android": "https://dc.lft.to/lastmile_qr_scan"}, "type": "electric_scooter", "fusion_lat": 0.0, "lon": -76.9950435}, {"fusion_lon": 0.0, "bike_id": "f4e341431b62a0c0b85172a13551ffe6", "is_disabled": 0, "is_reserved": 0, "lat": 38.9201625, "name": "f4e341431b62a0c0b85172a13551ffe6", "rental_uris": {"ios": "https://dc.lft.to/lastmile_qr_scan", "android": "https://dc.lft.to/lastmile_qr_scan"}, "type": "electric_scooter", "fusion_lat": 0.0, "lon": -77.07133783333333}, {"fusion_lon": 0.0, "bike_id": "f6bd728ba7390ea40fb252d473fb8277", "is_disabled": 0, "is_reserved": 0, "lat": 38.9241075, "name": "f6bd728ba7390ea40fb252d473fb8277", "rental_uris": {"ios": "https://dc.lft.to/lastmile_qr_scan", "android": "https://dc.lft.to/lastmile_qr_scan"}, "type": "electric_scooter", "fusion_lat": 0.0, "lon": -77.0353725}, {"fusion_lon": 0.0, "bike_id": "094ae7c2fcffb27faf91dda13a11d6ef", "is_disabled": 0, "is_reserved": 0, "lat": 38.96119433333333, "name": "094ae7c2fcffb27faf91dda13a11d6ef", "rental_uris": {"ios": "https://dc.lft.to/lastmile_qr_scan", "android": "https://dc.lft.to/lastmile_qr_scan"}, "type": "electric_bike", "fusion_lat": 0.0, "lon": -77.03271333333333}, {"fusion_lon": 0.0, "bike_id": "80e29e536d994e8c35ac8b264827c024", "is_disabled": 0, "is_reserved": 0, "lat": 38.90004866666666, "name": "80e29e536d994e8c35ac8b264827c024", "rental_uris": {"ios": "https://dc.lft.to/lastmile_qr_scan", "android": "https://dc.lft.to/lastmile_qr_scan"}, "type": "electric_scooter", "fusion_lat": 0.0, "lon": -77.04491716666666}, {"fusion_lon": 0.0, "bike_id": "0c3c94ed3d3d75316a1575eb9f062f78", "is_disabled": 0, "is_reserved": 0, "lat": 38.8886955, "name": "0c3c94ed3d3d75316a1575eb9f062f78", "rental_uris": {"ios": "https://dc.lft.to/lastmile_qr_scan", "android": "https://dc.lft.to/lastmile_qr_scan"}, "type": "electric_scooter", "fusion_lat": 0.0, "lon": -77.0000055}, {"fusion_lon": 0.0, "bike_id": "a5d411594c9eddb5a9192e65245b8abb", "is_disabled": 0, "is_reserved": 0, "lat": 38.947509, "name": "a5d411594c9eddb5a9192e65245b8abb", "rental_uris": {"ios": "https://dc.lft.to/lastmile_qr_scan", "android": "https://dc.lft.to/lastmile_qr_scan"}, "type": "electric_scooter", "fusion_lat": 0.0, "lon": -77.0328545}, {"fusion_lon": 0.0, "bike_id": "05918c8be88226cef9cd0b8d457264a3", "is_disabled": 0, "is_reserved": 0, "lat": 38.909049833333334, "name": "05918c8be88226cef9cd0b8d457264a3", "rental_uris": {"ios": "https://dc.lft.to/lastmile_qr_scan", "android": "https://dc.lft.to/lastmile_qr_scan"}, "type": "electric_bike", "fusion_lat": 0.0, "lon": -77.090007}, {"fusion_lon": 0.0, "bike_id": "20ff146ed189d468491eec50e72f0a24", "is_disabled": 0, "is_reserved": 0, "lat": 38.87536516666667, "name": "20ff146ed189d468491eec50e72f0a24", "rental_uris": {"ios": "https://dc.lft.to/lastmile_qr_scan", "android": "https://dc.lft.to/lastmile_qr_scan"}, "type": "electric_scooter", "fusion_lat": 0.0, "lon": -77.008789}, {"fusion_lon": 0.0, "bike_id": "377018415e2297386d85daa95cd1212b", "is_disabled": 0, "is_reserved": 0, "lat": 38.902409166666665, "name": "377018415e2297386d85daa95cd1212b", "rental_uris": {"ios": "https://dc.lft.to/lastmile_qr_scan", "android": "https://dc.lft.to/lastmile_qr_scan"}, "type": "electric_scooter", "fusion_lat": 0.0, "lon": -77.02785616666667}, {"fusion_lon": 0.0, "bike_id": "0a75b72f89ac94400fe31877f200bc84", "is_disabled": 0, "is_reserved": 0, "lat": 38.924367333333336, "name": "0a75b72f89ac94400fe31877f200bc84", "rental_uris": {"ios": "https://dc.lft.to/lastmile_qr_scan", "android": "https://dc.lft.to/lastmile_qr_scan"}, "type": "electric_scooter", "fusion_lat": 0.0, "lon": -77.02032166666666}, {"fusion_lon": 0.0, "bike_id": "dc3ff137e35d94a8d4be1caa23d17e81", "is_disabled": 0, "is_reserved": 0, "lat": 38.92106, "name": "dc3ff137e35d94a8d4be1caa23d17e81", "rental_uris": {"ios": "https://dc.lft.to/lastmile_qr_scan", "android": "https://dc.lft.to/lastmile_qr_scan"}, "type": "electric_scooter", "fusion_lat": 0.0, "lon": -77.03924116666667}, {"fusion_lon": 0.0, "bike_id": "da9e8bd5d7a373e0d3e3e4f7d289668b", "is_disabled": 0, "is_reserved": 0, "lat": 38.9112165, "name": "da9e8bd5d7a373e0d3e3e4f7d289668b", "rental_uris": {"ios": "https://dc.lft.to/lastmile_qr_scan", "android": "https://dc.lft.to/lastmile_qr_scan"}, "type": "electric_scooter", "fusion_lat": 0.0, "lon": -77.02196716666667}, {"fusion_lon": 0.0, "bike_id": "1fe5b7a51b8498ec37b3333b97d7232c", "is_disabled": 0, "is_reserved": 0, "lat": 38.924891833333334, "name": "1fe5b7a51b8498ec37b3333b97d7232c", "rental_uris": {"ios": "https://dc.lft.to/lastmile_qr_scan", "android": "https://dc.lft.to/lastmile_qr_scan"}, "type": "electric_scooter", "fusion_lat": 0.0, "lon": -77.02182}, {"fusion_lon": 0.0, "bike_id": "3c758b789b22e4a5f22f56f1402ee8e2", "is_disabled": 0, "is_reserved": 0, "lat": 38.94090416666667, "name": "3c758b789b22e4a5f22f56f1402ee8e2", "rental_uris": {"ios": "https://dc.lft.to/lastmile_qr_scan", "android": "https://dc.lft.to/lastmile_qr_scan"}, "type": "electric_scooter", "fusion_lat": 0.0, "lon": -77.07817566666667}, {"fusion_lon": 0.0, "bike_id": "91b0bd7d5562cb54b574f3d62c374ccb", "is_disabled": 0, "is_reserved": 0, "lat": 38.915629, "name": "91b0bd7d5562cb54b574f3d62c374ccb", "rental_uris": {"ios": "https://dc.lft.to/lastmile_qr_scan", "android": "https://dc.lft.to/lastmile_qr_scan"}, "type": "electric_scooter", "fusion_lat": 0.0, "lon": -77.00704216666666}, {"fusion_lon": 0.0, "bike_id": "bf4b98a3a6ad1df3478d2ed2fdd36473", "is_disabled": 0, "is_reserved": 0, "lat": 38.91562616666667, "name": "bf4b98a3a6ad1df3478d2ed2fdd36473", "rental_uris": {"ios": "https://dc.lft.to/lastmile_qr_scan", "android": "https://dc.lft.to/lastmile_qr_scan"}, "type": "electric_scooter", "fusion_lat": 0.0, "lon": -77.033483}, {"fusion_lon": 0.0, "bike_id": "cf9011c838dc709c422fa13a59a29749", "is_disabled": 0, "is_reserved": 0, "lat": 38.92043233333333, "name": "cf9011c838dc709c422fa13a59a29749", "rental_uris": {"ios": "https://dc.lft.to/lastmile_qr_scan", "android": "https://dc.lft.to/lastmile_qr_scan"}, "type": "electric_scooter", "fusion_lat": 0.0, "lon": -77.01669483333333}, {"fusion_lon": 0.0, "bike_id": "5bbac6910b1c3cb01b627c86bdfe180f", "is_disabled": 0, "is_reserved": 0, "lat": 38.871649166666664, "name": "5bbac6910b1c3cb01b627c86bdfe180f", "rental_uris": {"ios": "https://dc.lft.to/lastmile_qr_scan", "android": "https://dc.lft.to/lastmile_qr_scan"}, "type": "electric_scooter", "fusion_lat": 0.0, "lon": -77.00637433333333}, {"fusion_lon": 0.0, "bike_id": "3f63016c0e1a43a0faaa3d8bee8d9133", "is_disabled": 0, "is_reserved": 0, "lat": 38.92100883333333, "name": "3f63016c0e1a43a0faaa3d8bee8d9133", "rental_uris": {"ios": "https://dc.lft.to/lastmile_qr_scan", "android": "https://dc.lft.to/lastmile_qr_scan"}, "type": "electric_scooter", "fusion_lat": 0.0, "lon": -77.03174}, {"fusion_lon": 0.0, "bike_id": "f86d3f76a87d7736879072dd4107975f", "is_disabled": 0, "is_reserved": 0, "lat": 38.930356833333335, "name": "f86d3f76a87d7736879072dd4107975f", "rental_uris": {"ios": "https://dc.lft.to/lastmile_qr_scan", "android": "https://dc.lft.to/lastmile_qr_scan"}, "type": "electric_scooter", "fusion_lat": 0.0, "lon": -77.038091}, {"fusion_lon": 0.0, "bike_id": "e38e3e6c89cb0026dda1433e85e09e0b", "is_disabled": 0, "is_reserved": 0, "lat": 38.91779233333333, "name": "e38e3e6c89cb0026dda1433e85e09e0b", "rental_uris": {"ios": "https://dc.lft.to/lastmile_qr_scan", "android": "https://dc.lft.to/lastmile_qr_scan"}, "type": "electric_scooter", "fusion_lat": 0.0, "lon": -77.02312566666667}, {"fusion_lon": 0.0, "bike_id": "1519b1758a76956e52f797f9d50f5584", "is_disabled": 0, "is_reserved": 0, "lat": 38.901644166666664, "name": "1519b1758a76956e52f797f9d50f5584", "rental_uris": {"ios": "https://dc.lft.to/lastmile_qr_scan", "android": "https://dc.lft.to/lastmile_qr_scan"}, "type": "electric_scooter", "fusion_lat": 0.0, "lon": -76.98452916666666}, {"fusion_lon": 0.0, "bike_id": "5a9765d1eaaf05e69c2c868f97c74450", "is_disabled": 0, "is_reserved": 0, "lat": 38.83269816666667, "name": "5a9765d1eaaf05e69c2c868f97c74450", "rental_uris": {"ios": "https://dc.lft.to/lastmile_qr_scan", "android": "https://dc.lft.to/lastmile_qr_scan"}, "type": "electric_bike", "fusion_lat": 0.0, "lon": -77.08366033333333}, {"fusion_lon": 0.0, "bike_id": "27bc4437b6e89426a1a4f647345709c4", "is_disabled": 0, "is_reserved": 0, "lat": 38.918099833333336, "name": "27bc4437b6e89426a1a4f647345709c4", "rental_uris": {"ios": "https://dc.lft.to/lastmile_qr_scan", "android": "https://dc.lft.to/lastmile_qr_scan"}, "type": "electric_scooter", "fusion_lat": 0.0, "lon": -77.03667183333333}, {"fusion_lon": 0.0, "bike_id": "57f6a8f5b5b35adf5a7738b40022019c", "is_disabled": 0, "is_reserved": 0, "lat": 38.87730633333334, "name": "57f6a8f5b5b35adf5a7738b40022019c", "rental_uris": {"ios": "https://dc.lft.to/lastmile_qr_scan", "android": "https://dc.lft.to/lastmile_qr_scan"}, "type": "electric_bike", "fusion_lat": 0.0, "lon": -77.11850433333333}, {"fusion_lon": 0.0, "bike_id": "76b502331409d968b6a6c88fe36e534c", "is_disabled": 0, "is_reserved": 0, "lat": 38.91138733333333, "name": "76b502331409d968b6a6c88fe36e534c", "rental_uris": {"ios": "https://dc.lft.to/lastmile_qr_scan", "android": "https://dc.lft.to/lastmile_qr_scan"}, "type": "electric_scooter", "fusion_lat": 0.0, "lon": -77.010714}, {"fusion_lon": 0.0, "bike_id": "8e0693f5b2469895cc3f8de1939f7d8e", "is_disabled": 0, "is_reserved": 0, "lat": 38.931846666666665, "name": "8e0693f5b2469895cc3f8de1939f7d8e", "rental_uris": {"ios": "https://dc.lft.to/lastmile_qr_scan", "android": "https://dc.lft.to/lastmile_qr_scan"}, "type": "electric_scooter", "fusion_lat": 0.0, "lon": -77.03445366666666}, {"fusion_lon": 0.0, "bike_id": "4aa31d311af5528e908e45ec1c106f0d", "is_disabled": 0, "is_reserved": 0, "lat": 38.910017833333335, "name": "4aa31d311af5528e908e45ec1c106f0d", "rental_uris": {"ios": "https://dc.lft.to/lastmile_qr_scan", "android": "https://dc.lft.to/lastmile_qr_scan"}, "type": "electric_bike", "fusion_lat": 0.0, "lon": -76.98424616666667}, {"fusion_lon": 0.0, "bike_id": "d11fa44f1e009a451bce2fec97afee95", "is_disabled": 0, "is_reserved": 0, "lat": 38.920593833333335, "name": "d11fa44f1e009a451bce2fec97afee95", "rental_uris": {"ios": "https://dc.lft.to/lastmile_qr_scan", "android": "https://dc.lft.to/lastmile_qr_scan"}, "type": "electric_scooter", "fusion_lat": 0.0, "lon": -77.01717066666667}, {"fusion_lon": 0.0, "bike_id": "47a5ff611c0ae0c69b276832893c835d", "is_disabled": 0, "is_reserved": 0, "lat": 38.985038, "name": "47a5ff611c0ae0c69b276832893c835d", "rental_uris": {"ios": "https://dc.lft.to/lastmile_qr_scan", "android": "https://dc.lft.to/lastmile_qr_scan"}, "type": "electric_bike", "fusion_lat": 0.0, "lon": -76.98203466666666}, {"fusion_lon": 0.0, "bike_id": "33f35c84343ec90acebd442f425ebfb9", "is_disabled": 0, "is_reserved": 0, "lat": 38.902527, "name": "33f35c84343ec90acebd442f425ebfb9", "rental_uris": {"ios": "https://dc.lft.to/lastmile_qr_scan", "android": "https://dc.lft.to/lastmile_qr_scan"}, "type": "electric_scooter", "fusion_lat": 0.0, "lon": -77.017626}, {"fusion_lon": 0.0, "bike_id": "e6fcdcd6cafe2448e87ebd26226d4203", "is_disabled": 0, "is_reserved": 0, "lat": 38.913857, "name": "e6fcdcd6cafe2448e87ebd26226d4203", "rental_uris": {"ios": "https://dc.lft.to/lastmile_qr_scan", "android": "https://dc.lft.to/lastmile_qr_scan"}, "type": "electric_scooter", "fusion_lat": 0.0, "lon": -77.0170255}, {"fusion_lon": 0.0, "bike_id": "879c67c440262c49b77a3d408ea58c4e", "is_disabled": 0, "is_reserved": 0, "lat": 38.95737616666667, "name": "879c67c440262c49b77a3d408ea58c4e", "rental_uris": {"ios": "https://dc.lft.to/lastmile_qr_scan", "android": "https://dc.lft.to/lastmile_qr_scan"}, "type": "electric_scooter", "fusion_lat": 0.0, "lon": -77.0022015}, {"fusion_lon": 0.0, "bike_id": "4f7c1a16c5cd7c39fb30bac05c207485", "is_disabled": 0, "is_reserved": 0, "lat": 38.92359616666667, "name": "4f7c1a16c5cd7c39fb30bac05c207485", "rental_uris": {"ios": "https://dc.lft.to/lastmile_qr_scan", "android": "https://dc.lft.to/lastmile_qr_scan"}, "type": "electric_scooter", "fusion_lat": 0.0, "lon": -77.03543066666667},