{"data": {"bikes": [{"type": "electric_scooter", "rental_uris": {"ios": "https://dc.lft.to/lastmile_qr_scan", "android": "https://dc.lft.to/lastmile_qr_scan"}, "lon": -76.9982085, "fusion_lon": 0.0, "is_disabled": 0, "lat": 38.9001615, "bike_id": "27b6d0ee3413dc4427c24e232c1fc8f7", "name": "27b6d0ee3413dc4427c24e232c1fc8f7", "is_reserved": 0, "fusion_lat": 0.0}, {"type": "electric_scooter", "rental_uris": {"ios": "https://dc.lft.to/lastmile_qr_scan", "android": "https://dc.lft.to/lastmile_qr_scan"}, "lon": -77.03867733333334, "fusion_lon": 0.0, "is_disabled": 0, "lat": 38.909735166666664, "bike_id": "5ab1d0f42440ebf9fc3c1576f5593142", "name": "5ab1d0f42440ebf9fc3c1576f5593142", "is_reserved": 0, "fusion_lat": 0.0}, {"type": "electric_bike", "rental_uris": {"ios": "https://dc.lft.to/lastmile_qr_scan", "android": "https://dc.lft.to/lastmile_qr_scan"}, "lon": -77.0390455, "fusion_lon": 0.0, "is_disabled": 0, "lat": 38.922265833333334, "bike_id": "654737b0eeb929f02b643c4e745c8909", "name": "654737b0eeb929f02b643c4e745c8909", "is_reserved": 0, "fusion_lat": 0.0}, {"type": "electric_scooter", "rental_uris": {"ios": "https://dc.lft.to/lastmile_qr_scan", "android": "https://dc.lft.to/lastmile_qr_scan"}, "lon": -77.03879416666666, "fusion_lon": 0.0, "is_disabled": 0, "lat": 38.902753, "bike_id": "47d82bf6ce88b1013e8a6ab2018a19a3", "name": "47d82bf6ce88b1013e8a6ab2018a19a3", "is_reserved": 0, "fusion_lat": 0.0}, {"type": "electric_scooter", "rental_uris": {"ios": "https://dc.lft.to/lastmile_qr_scan", "android": "https://dc.lft.to/lastmile_qr_scan"}, "lon": -77.07712766666667, "fusion_lon": 0.0, "is_disabled": 0, "lat": 38.94384866666667, "bike_id": "ca7b3549cfcd40a24093ac201714eb6a", "name": "ca7b3549cfcd40a24093ac201714eb6a", "is_reserved": 0, "fusion_lat": 0.0}, {"type": "electric_scooter", "rental_uris": {"ios": "https://dc.lft.to/lastmile_qr_scan", "android": "https://dc.lft.to/lastmile_qr_scan"}, "lon": -77.03508183333334, "fusion_lon": 0.0, "is_disabled": 0, "lat": 38.92152083333333, "bike_id": "44f1ae6909aa80ef38052193edaa594d", "name": "44f1ae6909aa80ef38052193edaa594d", "is_reserved": 0, "fusion_lat": 0.0}, {"type": "electric_bike", "rental_uris": {"ios": "https://dc.lft.to/lastmile_qr_scan", "android": "https://dc.lft.to/lastmile_qr_scan"}, "lon": -77.04926616666667, "fusion_lon": 0.0, "is_disabled": 0, "lat": 39.02938283333334, "bike_id": "144057dbf0906fc8a00b6d5fa4d6490a", "name": "144057dbf0906fc8a00b6d5fa4d6490a", "is_reserved": 0, "fusion_lat": 0.0}, {"type": "electric_scooter", "rental_uris": {"ios": "https://dc.lft.to/lastmile_qr_scan", "android": "https://dc.lft.to/lastmile_qr_scan"}, "lon": -77.027019, "fusion_lon": 0.0, "is_disabled": 0, "lat": 38.906053, "bike_id": "3c7be5f195e2b8c1b41db0832f1846a6", "name": "3c7be5f195e2b8c1b41db0832f1846a6", "is_reserved": 0, "fusion_lat": 0.0}, {"type": "electric_bike", "rental_uris": {"ios": "https://dc.lft.to/lastmile_qr_scan", "android": "https://dc.lft.to/lastmile_qr_scan"}, "lon": -77.02775, "fusion_lon": 0.0, "is_disabled": 0, "lat": 38.92907, "bike_id": "7c4c5d11c8962de6af2a7043185bb0c0", "name": "7c4c5d11c8962de6af2a7043185bb0c0", "is_reserved": 0, "fusion_lat": 0.0}, {"type": "electric_scooter", "rental_uris": {"ios": "https://dc.lft.to/lastmile_qr_scan", "android": "https://dc.lft.to/lastmile_qr_scan"}, "lon": -77.04423783333333, "fusion_lon": 0.0, "is_disabled": 0, "lat": 38.921303333333334, "bike_id": "c48e9a7e3774de609d27005a7230e45a", "name": "c48e9a7e3774de609d27005a7230e45a", "is_reserved": 0, "fusion_lat": 0.0}, {"type": "electric_scooter", "rental_uris": {"ios": "https://dc.lft.to/lastmile_qr_scan", "android": "https://dc.lft.to/lastmile_qr_scan"}, "lon": -77.04360333333334, "fusion_lon": 0.0, "is_disabled": 0, "lat": 38.913472666666664, "bike_id": "ae188ddb9b5db5b606228356b399f430", "name": "ae188ddb9b5db5b606228356b399f430", "is_reserved": 0, "fusion_lat": 0.0}, {"type": "electric_scooter", "rental_uris": {"ios": "https://dc.lft.to/lastmile_qr_scan", "android": "https://dc.lft.to/lastmile_qr_scan"}, "lon": -77.0177075, "fusion_lon": 0.0, "is_disabled": 0, "lat": 38.902669333333336, "bike_id": "b1655e721c5e299b63a3b9c72f245318", "name": "b1655e721c5e299b63a3b9c72f245318", "is_reserved": 0, "fusion_lat": 0.0}, {"type": "electric_scooter", "rental_uris": {"ios": "https://dc.lft.to/lastmile_qr_scan", "android": "https://dc.lft.to/lastmile_qr_scan"}, "lon": -77.05858633333334, "fusion_lon": 0.0, "is_disabled": 0, "lat": 38.936097, "bike_id": "d3d6ebe52265f7df0278252a0de8dddc", "name": "d3d6ebe52265f7df0278252a0de8dddc", "is_reserved": 0, "fusion_lat": 0.0}, {"type": "electric_scooter", "rental_uris": {"ios": "https://dc.lft.to/lastmile_qr_scan", "android": "https://dc.lft.to/lastmile_qr_scan"}, "lon": -77.02174966666666, "fusion_lon": 0.0, "is_disabled": 0, "lat": 38.9428955, "bike_id": "1eff1914b87936963e24c140890bcaee", "name": "1eff1914b87936963e24c140890bcaee", "is_reserved": 0, "fusion_lat": 0.0}, {"type": "electric_scooter", "rental_uris": {"ios": "https://dc.lft.to/lastmile_qr_scan", "android": "https://dc.lft.to/lastmile_qr_scan"}, "lon": -76.96530666666666, "fusion_lon": 0.0, "is_disabled": 0, "lat": 38.876324, "bike_id": "38a648f2a6d760e933bebb43880f912b", "name": "38a648f2a6d760e933bebb43880f912b", "is_reserved": 0, "fusion_lat": 0.0}, {"type": "electric_scooter", "rental_uris": {"ios": "https://dc.lft.to/lastmile_qr_scan", "android": "https://dc.lft.to/lastmile_qr_scan"}, "lon": -76.97628266666666, "fusion_lon": 0.0, "is_disabled": 0, "lat": 38.89876783333333, "bike_id": "1153b28f4c3b19199f48bbebb5a442a2", "name": "1153b28f4c3b19199f48bbebb5a442a2", "is_reserved": 0, "fusion_lat": 0.0}, {"type": "electric_scooter", "rental_uris": {"ios": "https://dc.lft.to/lastmile_qr_scan", "android": "https://dc.lft.to/lastmile_qr_scan"}, "lon": -76.94153983333334, "fusion_lon": 0.0, "is_disabled": 0, "lat": 38.88362933333333, "bike_id": "d8639f9b436f86042a3a239c712aca55", "name": "d8639f9b436f86042a3a239c712aca55", "is_reserved": 0, "fusion_lat": 0.0}, {"type": "electric_bike", "rental_uris": {"ios": "https://dc.lft.to/lastmile_qr_scan", "android": "https://dc.lft.to/lastmile_qr_scan"}, "lon": -76.9249665, "fusion_lon": 0.0, "is_disabled": 0, "lat": 38.95895866666667, "bike_id": "3569a1be028eb957aabc35415f99c55c", "name": "3569a1be028eb957aabc35415f99c55c", "is_reserved": 0, "fusion_lat": 0.0}, {"type": "electric_scooter", "rental_uris": {"ios": "https://dc.lft.to/lastmile_qr_scan", "android": "https://dc.lft.to/lastmile_qr_scan"}, "lon": -77.03960566666667, "fusion_lon": 0.0, "is_disabled": 0, "lat": 38.89895166666667, "bike_id": "802249fc52fb74a1e063845e3f256361", "name": "802249fc52fb74a1e063845e3f256361", "is_reserved": 0, "fusion_lat": 0.0}, {"type": "electric_scooter", "rental_uris": {"ios": "https://dc.lft.to/lastmile_qr_scan", "android": "https://dc.lft.to/lastmile_qr_scan"}, "lon": -77.026346, "fusion_lon": 0.0, "is_disabled": 0, "lat": 38.925351666666664, "bike_id": "024070961d2f656cebb6988b2c689d76", "name": "024070961d2f656cebb6988b2c689d76", "is_reserved": 0, "fusion_lat": 0.0}, {"type": "electric_scooter", "rental_uris": {"ios": "https://dc.lft.to/lastmile_qr_scan", "android": "https://dc.lft.to/lastmile_qr_scan"}, "lon": -77.00597433333333, "fusion_lon": 0.0, "is_disabled": 0, "lat": 38.905649333333336, "bike_id": "06ffc454c09c195fc33a76a874873202", "name": "06ffc454c09c195fc33a76a874873202", "is_reserved": 0, "fusion_lat": 0.0}, {"type": "electric_scooter", "rental_uris": {"ios": "https://dc.lft.to/lastmile_qr_scan", "android": "https://dc.lft.to/lastmile_qr_scan"}, "lon": -77.02980266666667, "fusion_lon": 0.0, "is_disabled": 0, "lat": 38.916973666666664, "bike_id": "46c957b0c70e245111774e4e5c741dff", "name": "46c957b0c70e245111774e4e5c741dff", "is_reserved": 0, "fusion_lat": 0.0}, {"type": "electric_scooter", "rental_uris": {"ios": "https://dc.lft.to/lastmile_qr_scan", "android": "https://dc.lft.to/lastmile_qr_scan"}, "lon": -77.07887533333333, "fusion_lon": 0.0, "is_disabled": 0, "lat": 38.920675, "bike_id": "036948698de761451f8cb0a7a243f66c", "name": "036948698de761451f8cb0a7a243f66c", "is_reserved": 0, "fusion_lat": 0.0}, {"type": "electric_scooter", "rental_uris": {"ios": "https://dc.lft.to/lastmile_qr_scan", "android": "https://dc.lft.to/lastmile_qr_scan"}, "lon": -77.0059815, "fusion_lon": 0.0, "is_disabled": 0, "lat": 38.90571666666666, "bike_id": "cfbddd2bfdede6f1bc5319b4501d342e", "name": "cfbddd2bfdede6f1bc5319b4501d342e", "is_reserved": 0, "fusion_lat": 0.0}, {"type": "electric_scooter", "rental_uris": {"ios": "https://dc.lft.to/lastmile_qr_scan", "android": "https://dc.lft.to/lastmile_qr_scan"}, "lon": -77.0170905, "fusion_lon": 0.0, "is_disabled": 0, "lat": 38.913844166666664, "bike_id": "faa0bf580f056cca71a2a52a557f2b29", "name": "faa0bf580f056cca71a2a52a557f2b29", "is_reserved": 0, "fusion_lat": 0.0}, {"type": "electric_scooter", "rental_uris": {"ios": "https://dc.lft.to/lastmile_qr_scan", "android": "https://dc.lft.to/lastmile_qr_scan"}, "lon": -77.03692233333334, "fusion_lon": 0.0, "is_disabled": 0, "lat": 38.92615516666667, "bike_id": "e5a6b42534a140db15b4b0a446f37ffc", "name": "e5a6b42534a140db15b4b0a446f37ffc", "is_reserved": 0, "fusion_lat": 0.0}, {"type": "electric_scooter", "rental_uris": {"ios": "https://dc.lft.to/lastmile_qr_scan", "android": "https://dc.lft.to/lastmile_qr_scan"}, "lon": -77.02489366666667, "fusion_lon": 0.0, "is_disabled": 0, "lat": 38.941861, "bike_id": "a8f476e1148e4675e57325b05d09276b", "name": "a8f476e1148e4675e57325b05d09276b", "is_reserved": 0, "fusion_lat": 0.0}, {"type": "electric_scooter", "rental_uris": {"ios": "https://dc.lft.to/lastmile_qr_scan", "android": "https://dc.lft.to/lastmile_qr_scan"}, "lon": -77.05857016666667, "fusion_lon": 0.0, "is_disabled": 0, "lat": 38.93549466666666, "bike_id": "0f1c394a7f10f2097c2201876a671bfa", "name": "0f1c394a7f10f2097c2201876a671bfa", "is_reserved": 0, "fusion_lat": 0.0}, {"type": "electric_scooter", "rental_uris": {"ios": "https://dc.lft.to/lastmile_qr_scan", "android": "https://dc.lft.to/lastmile_qr_scan"}, "lon": -77.03265233333333, "fusion_lon": 0.0, "is_disabled": 0, "lat": 38.91567333333333, "bike_id": "69d3b1a9078dbda123c5bd68fe0caaa1", "name": "69d3b1a9078dbda123c5bd68fe0caaa1", "is_reserved": 0, "fusion_lat": 0.0}, {"type": "electric_scooter", "rental_uris": {"ios": "https://dc.lft.to/lastmile_qr_scan", "android": "https://dc.lft.to/lastmile_qr_scan"}, "lon": -77.0321085, "fusion_lon": 0.0, "is_disabled": 0, "lat": 38.912087666666665, "bike_id": "8abba351de4cdcc6dc658e51f9daa5ba", "name": "8abba351de4cdcc6dc658e51f9daa5ba", "is_reserved": 0, "fusion_lat": 0.0}, {"type": "electric_scooter", "rental_uris": {"ios": "https://dc.lft.to/lastmile_qr_scan", "android": "https://dc.lft.to/lastmile_qr_scan"}, "lon": -77.00610733333333, "fusion_lon": 0.0, "is_disabled": 0, "lat": 38.8718115, "bike_id": "a600aa03d70130cda164a9a7ed995835", "name": "a600aa03d70130cda164a9a7ed995835", "is_reserved": 0, "fusion_lat": 0.0}, {"type": "electric_scooter", "rental_uris": {"ios": "https://dc.lft.to/lastmile_qr_scan", "android": "https://dc.lft.to/lastmile_qr_scan"}, "lon": -77.03850433333334, "fusion_lon": 0.0, "is_disabled": 0, "lat": 38.908505, "bike_id": "7e335104cc7ec43e2d1cb20be667960c", "name": "7e335104cc7ec43e2d1cb20be667960c", "is_reserved": 0, "fusion_lat": 0.0}, {"type": "electric_scooter", "rental_uris": {"ios": "https://dc.lft.to/lastmile_qr_scan", "android": "https://dc.lft.to/lastmile_qr_scan"}, "lon": -77.031482, "fusion_lon": 0.0, "is_disabled": 0, "lat": 38.91565333333333, "bike_id": "a30cbcdf865d7712c0d0ded58e1905d6", "name": "a30cbcdf865d7712c0d0ded58e1905d6", "is_reserved": 0, "fusion_lat": 0.0}, {"type": "electric_scooter", "rental_uris": {"ios": "https://dc.lft.to/lastmile_qr_scan", "android": "https://dc.lft.to/lastmile_qr_scan"}, "lon": -77.029869, "fusion_lon": 0.0, "is_disabled": 0, "lat": 38.93068516666666, "bike_id": "03022b6115ee384606ce306d744e3310", "name": "03022b6115ee384606ce306d744e3310", "is_reserved": 0, "fusion_lat": 0.0}, {"type": "electric_scooter", "rental_uris": {"ios": "https://dc.lft.to/lastmile_qr_scan", "android": "https://dc.lft.to/lastmile_qr_scan"}, "lon": -77.0107035, "fusion_lon": 0.0, "is_disabled": 0, "lat": 38.907320666666664, "bike_id": "e5679293b302485e2922d8852f0d52bc", "name": "e5679293b302485e2922d8852f0d52bc", "is_reserved": 0, "fusion_lat": 0.0}, {"type": "electric_scooter", "rental_uris": {"ios": "https://dc.lft.to/lastmile_qr_scan", "android": "https://dc.lft.to/lastmile_qr_scan"}, "lon": -76.95416283333333, "fusion_lon": 0.0, "is_disabled": 0, "lat": 38.889992166666666, "bike_id": "aba006e8a0cd1a32c885d4a99896e500", "name": "aba006e8a0cd1a32c885d4a99896e500", "is_reserved": 0, "fusion_lat": 0.0}, {"type": "electric_scooter", "rental_uris": {"ios": "https://dc.lft.to/lastmile_qr_scan", "android": "https://dc.lft.to/lastmile_qr_scan"}, "lon": -77.04172083333333, "fusion_lon": 0.0, "is_disabled": 0, "lat": 38.91549066666666, "bike_id": "545cbc892ffb3e984d128e951bb8c2e5", "name": "545cbc892ffb3e984d128e951bb8c2e5", "is_reserved": 0, "fusion_lat": 0.0}, {"type": "electric_scooter", "rental_uris": {"ios": "https://dc.lft.to/lastmile_qr_scan", "android": "https://dc.lft.to/lastmile_qr_scan"}, "lon": -77.04162416666667, "fusion_lon": 0.0, "is_disabled": 0, "lat": 38.90527633333333, "bike_id": "9c3d085b38e11937ef726342b5711237", "name": "9c3d085b38e11937ef726342b5711237", "is_reserved": 0, "fusion_lat": 0.0}, {"type": "electric_scooter", "rental_uris": {"ios": "https://dc.lft.to/lastmile_qr_scan", "android": "https://dc.lft.to/lastmile_qr_scan"}, "lon": -77.03673066666667, "fusion_lon": 0.0, "is_disabled": 0, "lat": 38.91708116666667, "bike_id": "c8b39bc92db2e23d11d8fe12ea08ea38", "name": "c8b39bc92db2e23d11d8fe12ea08ea38", "is_reserved": 0, "fusion_lat": 0.0}, {"type": "electric_scooter", "rental_uris": {"ios": "https://dc.lft.to/lastmile_qr_scan", "android": "https://dc.lft.to/lastmile_qr_scan"}, "lon": -76.98692466666667, "fusion_lon": 0.0, "is_disabled": 0, "lat": 38.866251, "bike_id": "6ad1bda89e030f7420652f602694f1f4", "name": "6ad1bda89e030f7420652f602694f1f4", "is_reserved": 0, "fusion_lat": 0.0}, {"type": "electric_scooter", "rental_uris": {"ios": "https://dc.lft.to/lastmile_qr_scan", "android": "https://dc.lft.to/lastmile_qr_scan"}, "lon": -77.03220516666667, "fusion_lon": 0.0, "is_disabled": 0, "lat": 38.89228083333333, "bike_id": "3baebcd16fecb24b6e59fadbf5c41831", "name": "3baebcd16fecb24b6e59fadbf5c41831", "is_reserved": 0, "fusion_lat": 0.0}, {"type": "electric_scooter", "rental_uris": {"ios": "https://dc.lft.to/lastmile_qr_scan", "android": "https://dc.lft.to/lastmile_qr_scan"}, "lon": -77.0239775, "fusion_lon": 0.0, "is_disabled": 0, "lat": 38.957072, "bike_id": "db938026a500b178db802a17ef9648ff", "name": "db938026a500b178db802a17ef9648ff", "is_reserved": 0, "fusion_lat": 0.0}, {"type": "electric_scooter", "rental_uris": {"ios": "https://dc.lft.to/lastmile_qr_scan", "android": "https://dc.lft.to/lastmile_qr_scan"}, "lon": -77.0416595, "fusion_lon": 0.0, "is_disabled": 0, "lat": 38.90521066666667, "bike_id": "e04202486712e9d6e9a7c9aa4269d86f", "name": "e04202486712e9d6e9a7c9aa4269d86f", "is_reserved": 0, "fusion_lat": 0.0}, {"type": "electric_scooter", "rental_uris": {"ios": "https://dc.lft.to/lastmile_qr_scan", "android": "https://dc.lft.to/lastmile_qr_scan"}, "lon": -77.03872133333333, "fusion_lon": 0.0, "is_disabled": 0, "lat": 38.912372, "bike_id": "0dbd2c714d727e9ec534d7dc48aa6611", "name": "0dbd2c714d727e9ec534d7dc48aa6611", "is_reserved": 0, "fusion_lat": 0.0}, {"type": "electric_scooter", "rental_uris": {"ios": "https://dc.lft.to/lastmile_qr_scan", "android": "https://dc.lft.to/lastmile_qr_scan"}, "lon": -77.02799216666666, "fusion_lon": 0.0, "is_disabled": 0, "lat": 38.89927083333333, "bike_id": "4e9d8ff99a882282232c8425a1114a3d", "name": "4e9d8ff99a882282232c8425a1114a3d", "is_reserved": 0, "fusion_lat": 0.0}, {"type": "electric_scooter", "rental_uris": {"ios": "https://dc.lft.to/lastmile_qr_scan", "android": "https://dc.lft.to/lastmile_qr_scan"}, "lon": -77.04351983333333, "fusion_lon": 0.0, "is_disabled": 0, "lat": 38.905283, "bike_id": "e6e4909141dc1ff9d3ff325f1c859bba", "name": "e6e4909141dc1ff9d3ff325f1c859bba", "is_reserved": 0, "fusion_lat": 0.0}, {"type": "electric_scooter", "rental_uris": {"ios": "https://dc.lft.to/lastmile_qr_scan", "android": "https://dc.lft.to/lastmile_qr_scan"}, "lon": -77.00368816666666, "fusion_lon": 0.0, "is_disabled": 0, "lat": 38.88264866666667, "bike_id": "fe4671dcb032474072581babeae8e4cd", "name": "fe4671dcb032474072581babeae8e4cd", "is_reserved": 0, "fusion_lat": 0.0}, {"type": "electric_bike", "rental_uris": {"ios": "https://dc.lft.to/lastmile_qr_scan", "android": "https://dc.lft.to/lastmile_qr_scan"}, "lon": -77.03596183333333, "fusion_lon": 0.0, "is_disabled": 0, "lat": 38.90695133333333, "bike_id": "621e5a55ba36c4be866a98304e69a5d6", "name": "621e5a55ba36c4be866a98304e69a5d6", "is_reserved": 0, "fusion_lat": 0.0}, {"type": "electric_scooter", "rental_uris": {"ios": "https://dc.lft.to/lastmile_qr_scan", "android": "https://dc.lft.to/lastmile_qr_scan"}, "lon": -77.03665183333334, "fusion_lon": 0.0, "is_disabled": 0, "lat": 38.918647666666665, "bike_id": "a5326bfcb17c2838b46931e869a7a812", "name": "a5326bfcb17c2838b46931e869a7a812", "is_reserved": 0, "fusion_lat": 0.0}, {"type": "electric_scooter", "rental_uris": {"ios": "https://dc.lft.to/lastmile_qr_scan", "android": "https://dc.lft.to/lastmile_qr_scan"}, "lon": -77.047714, "fusion_lon": 0.0, "is_disabled": 0, "lat": 38.90858133333333, "bike_id": "3bc04b6f99aa6f63609cda06d5ade23e", "name": "3bc04b6f99aa6f63609cda06d5ade23e", "is_reserved": 0, "fusion_lat": 0.0}, {"type": "electric_scooter", "rental_uris": {"ios": "https://dc.lft.to/lastmile_qr_scan", "android": "https://dc.lft.to/lastmile_qr_scan"}, "lon": -77.031776, "fusion_lon": 0.0, "is_disabled": 0, "lat": 38.897552166666664, "bike_id": "f5d30ae7d75a8169164fa5a0ae656e1a", "name": "f5d30ae7d75a8169164fa5a0ae656e1a", "is_reserved": 0, "fusion_lat": 0.0}, {"type": "electric_scooter", "rental_uris": {"ios": "https://dc.lft.to/lastmile_qr_scan", "android": "https://dc.lft.to/lastmile_qr_scan"}, "lon": -77.00958366666667, "fusion_lon": 0.0, "is_disabled": 0, "lat": 38.90784683333333, "bike_id": "846823a5d824caee1ac5faa38ba250f1", "name": "846823a5d824caee1ac5faa38ba250f1", "is_reserved": 0, "fusion_lat": 0.0}, {"type": "electric_scooter", "rental_uris": {"ios": "https://dc.lft.to/lastmile_qr_scan", "android": "https://dc.lft.to/lastmile_qr_scan"}, "lon": -76.99855616666666, "fusion_lon": 0.0, "is_disabled": 0, "lat": 38.881143333333334, "bike_id": "2e29ab3cd002102e13fa3d1c1228a18b", "name": "2e29ab3cd002102e13fa3d1c1228a18b", "is_reserved": 0, "fusion_lat": 0.0}, {"type": "electric_scooter", "rental_uris": {"ios": "https://dc.lft.to/lastmile_qr_scan", "android": "https://dc.lft.to/lastmile_qr_scan"}, "lon": -76.968632, "fusion_lon": 0.0, "is_disabled": 0, "lat": 38.870779166666665, "bike_id": "adae256a569cfd9f4c83a4975b7ac4fd", "name": "adae256a569cfd9f4c83a4975b7ac4fd", "is_reserved": 0, "fusion_lat": 0.0}, {"type": "electric_scooter", "rental_uris": {"ios": "https://dc.lft.to/lastmile_qr_scan", "android": "https://dc.lft.to/lastmile_qr_scan"}, "lon": -77.01226616666666, "fusion_lon": 0.0, "is_disabled": 0, "lat": 38.91499066666667, "bike_id": "5cea41df86181528d0410fe139ae7717", "name": "5cea41df86181528d0410fe139ae7717", "is_reserved": 0, "fusion_lat": 0.0}, {"type": "electric_scooter", "rental_uris": {"ios": "https://dc.lft.to/lastmile_qr_scan", "android": "https://dc.lft.to/lastmile_qr_scan"}, "lon": -76.97730816666666, "fusion_lon": 0.0, "is_disabled": 0, "lat": 38.872463333333336, "bike_id": "fa82a8e263745a233d5e895c2c8184a2", "name": "fa82a8e263745a233d5e895c2c8184a2", "is_reserved": 0, "fusion_lat": 0.0}, {"type": "electric_scooter", "rental_uris": {"ios": "https://dc.lft.to/lastmile_qr_scan", "android": "https://dc.lft.to/lastmile_qr_scan"}, "lon": -77.032841, "fusion_lon": 0.0, "is_disabled": 0, "lat": 38.92746116666667, "bike_id": "84ceb8e896c38824799de27375b03283", "name": "84ceb8e896c38824799de27375b03283", "is_reserved": 0, "fusion_lat": 0.0}, {"type": "electric_scooter", "rental_uris": {"ios": "https://dc.lft.to/lastmile_qr_scan", "android": "https://dc.lft.to/lastmile_qr_scan"}, "lon": -77.0272535, "fusion_lon": 0.0, "is_disabled": 0, "lat": 38.924816666666665, "bike_id": "2bbe41e729c7b7fec7241974e2f2f6c5", "name": "2bbe41e729c7b7fec7241974e2f2f6c5", "is_reserved": 0, "fusion_lat": 0.0}, {"type": "electric_scooter", "rental_uris": {"ios": "https://dc.lft.to/lastmile_qr_scan", "android": "https://dc.lft.to/lastmile_qr_scan"}, "lon": -76.99778983333333, "fusion_lon": 0.0, "is_disabled": 0, "lat": 38.84429866666667, "bike_id": "cd2db1b5412b2229486e491820e77258", "name": "cd2db1b5412b2229486e491820e77258", "is_reserved": 0, "fusion_lat": 0.0}, {"type": "electric_scooter", "rental_uris": {"ios": "https://dc.lft.to/lastmile_qr_scan", "android": "https://dc.lft.to/lastmile_qr_scan"}, "lon": -77.0343255, "fusion_lon": 0.0, "is_disabled": 0, "lat": 38.90790616666666, "bike_id": "645c2755f6eb0f002285913a52630b41", "name": "645c2755f6eb0f002285913a52630b41", "is_reserved": 0, "fusion_lat": 0.0}, {"type": "electric_scooter", "rental_uris": {"ios": "https://dc.lft.to/lastmile_qr_scan", "android": "https://dc.lft.to/lastmile_qr_scan"}, "lon": -77.0198095, "fusion_lon": 0.0, "is_disabled": 0, "lat": 38.902438333333336, "bike_id": "2aba6161608c61b19e76efb9164fe521", "name": "2aba6161608c61b19e76efb9164fe521", "is_reserved": 0, "fusion_lat": 0.0}, {"type": "electric_scooter", "rental_uris": {"ios": "https://dc.lft.to/lastmile_qr_scan", "android": "https://dc.lft.to/lastmile_qr_scan"}, "lon": -77.032102, "fusion_lon": 0.0, "is_disabled": 0, "lat": 38.91425866666667, "bike_id": "ed2a4abd69c3fe95ededa31ccbd3b553", "name": "ed2a4abd69c3fe95ededa31ccbd3b553", "is_reserved": 0, "fusion_lat": 0.0}, {"type": "electric_scooter", "rental_uris": {"ios": "https://dc.lft.to/lastmile_qr_scan", "android": "https://dc.lft.to/lastmile_qr_scan"}, "lon": -77.02963283333334, "fusion_lon": 0.0, "is_disabled": 0, "lat": 38.9232995, "bike_id": "c56484fbc833ddc65cf915f51f786529", "name": "c56484fbc833ddc65cf915f51f786529", "is_reserved": 0, "fusion_lat": 0.0}, {"type": "electric_scooter", "rental_uris": {"ios": "https://dc.lft.to/lastmile_qr_scan", "android": "https://dc.lft.to/lastmile_qr_scan"}, "lon": -77.04682383333333, "fusion_lon": 0.0, "is_disabled": 0, "lat": 38.917108, "bike_id": "5861e7ef8e89bf1f2e9157f79cf0715e", "name": "5861e7ef8e89bf1f2e9157f79cf0715e", "is_reserved": 0, "fusion_lat": 0.0}, {"type": "electric_scooter", "rental_uris": {"ios": "https://dc.lft.to/lastmile_qr_scan", "android": "https://dc.lft.to/lastmile_qr_scan"}, "lon": -77.04376416666666, "fusion_lon": 0.0, "is_disabled": 0, "lat": 38.90257233333333, "bike_id": "04a9d6b16aedb5e38fd283169e632211", "name": "04a9d6b16aedb5e38fd283169e632211", "is_reserved": 0, "fusion_lat": 0.0}, {"type": "electric_scooter", "rental_uris": {"ios": "https://dc.lft.to/lastmile_qr_scan", "android": "https://dc.lft.to/lastmile_qr_scan"}, "lon": -77.03502783333333, "fusion_lon": 0.0, "is_disabled": 0, "lat": 38.92485833333333, "bike_id": "7e907f6a3e8c93398211609a921b9a9c", "name": "7e907f6a3e8c93398211609a921b9a9c", "is_reserved": 0, "fusion_lat": 0.0}, {"type": "electric_scooter", "rental_uris": {"ios": "https://dc.lft.to/lastmile_qr_scan", "android": "https://dc.lft.to/lastmile_qr_scan"}, "lon": -77.01783616666667, "fusion_lon": 0.0, "is_disabled": 0, "lat": 38.887235833333335, "bike_id": "0969de81c61cc4a5689f4aef1ed6dd81", "name": "0969de81c61cc4a5689f4aef1ed6dd81", "is_reserved": 0, "fusion_lat": 0.0}, {"type": "electric_bike", "rental_uris": {"ios": "https://dc.lft.to/lastmile_qr_scan", "android": "https://dc.lft.to/lastmile_qr_scan"}, "lon": -77.00279933333333, "fusion_lon": 0.0, "is_disabled": 0, "lat": 38.91179183333333, "bike_id": "da706860090c5f7c79323a34c268c540", "name": "da706860090c5f7c79323a34c268c540", "is_reserved": 0, "fusion_lat": 0.0}, {"type": "electric_scooter", "rental_uris": {"ios": "https://dc.lft.to/lastmile_qr_scan", "android": "https://dc.lft.to/lastmile_qr_scan"}, "lon": -76.933837, "fusion_lon": 0.0, "is_disabled": 0, "lat": 38.89551733333333, "bike_id": "432f4d7673d938b6166bc35ac6103999", "name": "432f4d7673d938b6166bc35ac6103999", "is_reserved": 0, "fusion_lat": 0.0}, {"type": "electric_bike", "rental_uris": {"ios": "https://dc.lft.to/lastmile_qr_scan", "android": "https://dc.lft.to/lastmile_qr_scan"}, "lon": -77.03407183333333, "fusion_lon": 0.0, "is_disabled": 0, "lat": 38.9193205, "bike_id": "a090c3f0c170eb9d099d9a46dbc2a2ef", "name": "a090c3f0c170eb9d099d9a46dbc2a2ef", "is_reserved": 0, "fusion_lat": 0.0}, {"type": "electric_scooter", "rental_uris": {"ios": "https://dc.lft.to/lastmile_qr_scan", "android": "https://dc.lft.to/lastmile_qr_scan"}, "lon": -77.04265416666667, "fusion_lon": 0.0, "is_disabled": 0, "lat": 38.9102875, "bike_id": "c4b648e9a7c23b88334aa27424dd60fc", "name": "c4b648e9a7c23b88334aa27424dd60fc", "is_reserved": 0, "fusion_lat": 0.0}, {"type": "electric_scooter", "rental_uris": {"ios": "https://dc.lft.to/lastmile_qr_scan", "android": "https://dc.lft.to/lastmile_qr_scan"}, "lon": -77.0061095, "fusion_lon": 0.0, "is_disabled": 0, "lat": 38.871773, "bike_id": "9c40cf077dbd6b86c80b044a246a6876", "name": "9c40cf077dbd6b86c80b044a246a6876", "is_reserved": 0, "fusion_lat": 0.0}, {"type": "electric_scooter", "rental_uris": {"ios": "https://dc.lft.to/lastmile_qr_scan", "android": "https://dc.lft.to/lastmile_qr_scan"}, "lon": -77.02204133333333, "fusion_lon": 0.0, "is_disabled": 0, "lat": 38.91137283333333, "bike_id": "4861d2180435ddfffffa2a87609c9771", "name": "4861d2180435ddfffffa2a87609c9771", "is_reserved": 0, "fusion_lat": 0.0}, {"type": "electric_scooter", "rental_uris": {"ios": "https://dc.lft.to/lastmile_qr_scan", "android": "https://dc.lft.to/lastmile_qr_scan"}, "lon": -77.033438, "fusion_lon": 0.0, "is_disabled": 0, "lat": 38.892567666666665, "bike_id": "3363cb099f2436871677c0bca95e0153", "name": "3363cb099f2436871677c0bca95e0153", "is_reserved": 0, "fusion_lat": 0.0}, {"type": "electric_scooter", "rental_uris": {"ios": "https://dc.lft.to/lastmile_qr_scan", "android": "https://dc.lft.to/lastmile_qr_scan"}, "lon": -76.98012783333333, "fusion_lon": 0.0, "is_disabled": 0, "lat": 38.85322933333333, "bike_id": "7be8fe85bb88d718e840e4c6955ca8cf", "name": "7be8fe85bb88d718e840e4c6955ca8cf", "is_reserved": 0, "fusion_lat": 0.0}, {"type": "electric_scooter", "rental_uris": {"ios": "https://dc.lft.to/lastmile_qr_scan", "android": "https://dc.lft.to/lastmile_qr_scan"}, "lon": -76.93742083333333, "fusion_lon": 0.0, "is_disabled": 0, "lat": 38.890176333333336, "bike_id": "61e3a020735c4d78b21f33b9cf7b5fcd", "name": "61e3a020735c4d78b21f33b9cf7b5fcd", "is_reserved": 0, "fusion_lat": 0.0}, {"type": "electric_scooter", "rental_uris": {"ios": "https://dc.lft.to/lastmile_qr_scan", "android": "https://dc.lft.to/lastmile_qr_scan"}, "lon": -76.9801855, "fusion_lon": 0.0, "is_disabled": 0, "lat": 38.901262333333335, "bike_id": "118cca203cfad5641791f3d3cc01fa3a", "name": "118cca203cfad5641791f3d3cc01fa3a", "is_reserved": 0, "fusion_lat": 0.0}, {"type": "electric_bike", "rental_uris": {"ios": "https://dc.lft.to/lastmile_qr_scan", "android": "https://dc.lft.to/lastmile_qr_scan"}, "lon": -77.01208233333334, "fusion_lon": 0.0, "is_disabled": 0, "lat": 38.871013, "bike_id": "b863f645ce8f8aaa2bf11ea9c141b5a2", "name": "b863f645ce8f8aaa2bf11ea9c141b5a2", "is_reserved": 0, "fusion_lat": 0.0}, {"type": "electric_scooter", "rental_uris": {"ios": "https://dc.lft.to/lastmile_qr_scan", "android": "https://dc.lft.to/lastmile_qr_scan"}, "lon": -77.04009283333333, "fusion_lon": 0.0, "is_disabled": 0, "lat": 38.92434433333333, "bike_id": "e055b2238d0774e51aa82af652d9faf1", "name": "e055b2238d0774e51aa82af652d9faf1", "is_reserved": 0, "fusion_lat": 0.0}, {"type": "electric_scooter", "rental_uris": {"ios": "https://dc.lft.to/lastmile_qr_scan", "android": "https://dc.lft.to/lastmile_qr_scan"}, "lon": -77.05559716666667, "fusion_lon": 0.0, "is_disabled": 0, "lat": 38.89978966666666, "bike_id": "d1ec74a998aaa36d8d22385be03ff392", "name": "d1ec74a998aaa36d8d22385be03ff392", "is_reserved": 0, "fusion_lat": 0.0}, {"type": "electric_scooter", "rental_uris": {"ios": "https://dc.lft.to/lastmile_qr_scan", "android": "https://dc.lft.to/lastmile_qr_scan"}, "lon": -77.0269975, "fusion_lon": 0.0, "is_disabled": 0, "lat": 38.9257255, "bike_id": "17d8372a2323695f36e3d4cb117de9bc", "name": "17d8372a2323695f36e3d4cb117de9bc", "is_reserved": 0, "fusion_lat": 0.0}, {"type": "electric_scooter", "rental_uris": {"ios": "https://dc.lft.to/lastmile_qr_scan", "android": "https://dc.lft.to/lastmile_qr_scan"}, "lon": -77.00454566666667, "fusion_lon": 0.0, "is_disabled": 0, "lat": 38.8766235, "bike_id": "32dd8f4781f62c1800b1e0c7b15f67f9", "name": "32dd8f4781f62c1800b1e0c7b15f67f9", "is_reserved": 0, "fusion_lat": 0.0}, {"type": "electric_scooter", "rental_uris": {"ios": "https://dc.lft.to/lastmile_qr_scan", "android": "https://dc.lft.to/lastmile_qr_scan"}, "lon": -77.031904, "fusion_lon": 0.0, "is_disabled": 0, "lat": 38.909815, "bike_id": "4642a698067ec9922e0f994f1cee76c9", "name": "4642a698067ec9922e0f994f1cee76c9", "is_reserved": 0, "fusion_lat": 0.0}, {"type": "electric_scooter", "rental_uris": {"ios": "https://dc.lft.to/lastmile_qr_scan", "android": "https://dc.lft.to/lastmile_qr_scan"}, "lon": -77.03197033333333, "fusion_lon": 0.0, "is_disabled": 0, "lat": 38.91846783333333, "bike_id": "6d258a0567d04d3577b662999392e761", "name": "6d258a0567d04d3577b662999392e761", "is_reserved": 0, "fusion_lat": 0.0}, {"type": "electric_bike", "rental_uris": {"ios": "https://dc.lft.to/lastmile_qr_scan", "android": "https://dc.lft.to/lastmile_qr_scan"}, "lon": -77.0812135, "fusion_lon": 0.0, "is_disabled": 0, "lat": 38.80684183333334, "bike_id": "b5c85948746dd8b5a167044332baf40a", "name": "b5c85948746dd8b5a167044332baf40a", "is_reserved": 0, "fusion_lat": 0.0}, {"type": "electric_scooter", "rental_uris": {"ios": "https://dc.lft.to/lastmile_qr_scan", "android": "https://dc.lft.to/lastmile_qr_scan"}, "lon": -77.0363945, "fusion_lon": 0.0, "is_disabled": 0, "lat": 38.913113, "bike_id": "a9f956d0dc5f77c094592c0ccd066c78", "name": "a9f956d0dc5f77c094592c0ccd066c78", "is_reserved": 0, "fusion_lat": 0.0}, {"type": "electric_bike", "rental_uris": {"ios": "https://dc.lft.to/lastmile_qr_scan", "android": "https://dc.lft.to/lastmile_qr_scan"}, "lon": -76.91606166666666, "fusion_lon": 0.0, "is_disabled": 0, "lat": 38.879736, "bike_id": "cb22f88cee38558a3ef3c5dda80af81e", "name": "cb22f88cee38558a3ef3c5dda80af81e", "is_reserved": 0, "fusion_lat": 0.0}, {"type": "electric_scooter", "rental_uris": {"ios": "https://dc.lft.to/lastmile_qr_scan", "android": "https://dc.lft.to/lastmile_qr_scan"}, "lon": -77.02341483333333, "fusion_lon": 0.0, "is_disabled": 0, "lat": 38.917818, "bike_id": "a88f1e523ed51153cd22b90f146da9af", "name": "a88f1e523ed51153cd22b90f146da9af", "is_reserved": 0, "fusion_lat": 0.0}, {"type": "electric_scooter", "rental_uris": {"ios": "https://dc.lft.to/lastmile_qr_scan", "android": "https://dc.lft.to/lastmile_qr_scan"}, "lon": -77.04900733333334, "fusion_lon": 0.0, "is_disabled": 0, "lat": 38.89226933333333, "bike_id": "a64ca1e8004267260070fe56e74f0ea1", "name": "a64ca1e8004267260070fe56e74f0ea1", "is_reserved": 0, "fusion_lat": 0.0}, {"type": "electric_scooter", "rental_uris": {"ios": "https://dc.lft.to/lastmile_qr_scan", "android": "https://dc.lft.to/lastmile_qr_scan"}, "lon": -77.03667133333333, "fusion_lon": 0.0, "is_disabled": 0, "lat": 38.9260525, "bike_id": "d0822a79901598515a985606383eecd7", "name": "d0822a79901598515a985606383eecd7", "is_reserved": 0, "fusion_lat": 0.0}, {"type": "electric_scooter", "rental_uris": {"ios": "https://dc.lft.to/lastmile_qr_scan", "android": "https://dc.lft.to/lastmile_qr_scan"}, "lon": -77.02304233333334, "fusion_lon": 0.0, "is_disabled": 0, "lat": 38.91613433333333, "bike_id": "35eec910370ae9d49a9610f018a44032", "name": "35eec910370ae9d49a9610f018a44032", "is_reserved": 0, "fusion_lat": 0.0}, {"type": "electric_scooter", "rental_uris": {"ios": "https://dc.lft.to/lastmile_qr_scan", "android": "https://dc.lft.to/lastmile_qr_scan"}, "lon": -77.041858, "fusion_lon": 0.0, "is_disabled": 0, "lat": 38.90572183333333, "bike_id": "0ee9fa627e537acb4907e1a3890c4c69", "name": "0ee9fa627e537acb4907e1a3890c4c69", "is_reserved": 0, "fusion_lat": 0.0}, {"type": "electric_scooter", "rental_uris": {"ios": "https://dc.lft.to/lastmile_qr_scan", "android": "https://dc.lft.to/lastmile_qr_scan"}, "lon": -77.04411783333333, "fusion_lon": 0.0, "is_disabled": 0, "lat": 38.9259645, "bike_id": "06c20e45e05de987ef6f72278923d7a2", "name": "06c20e45e05de987ef6f72278923d7a2", "is_reserved": 0, "fusion_lat": 0.0}, {"type": "electric_scooter", "rental_uris": {"ios": "https://dc.lft.to/lastmile_qr_scan", "android": "https://dc.lft.to/lastmile_qr_scan"}, "lon": -77.03188, "fusion_lon": 0.0, "is_disabled": 0, "lat": 38.91921033333333, "bike_id": "17580e4b9c70d284fd80774d1802e9f8", "name": "17580e4b9c70d284fd80774d1802e9f8", "is_reserved": 0, "fusion_lat": 0.0}, {"type": "electric_scooter", "rental_uris": {"ios": "https://dc.lft.to/lastmile_qr_scan", "android": "https://dc.lft.to/lastmile_qr_scan"}, "lon": -77.04575416666667, "fusion_lon": 0.0, "is_disabled": 0, "lat": 38.922419166666664, "bike_id": "fb14670600932e4583f653dc0f0d584e", "name": "fb14670600932e4583f653dc0f0d584e", "is_reserved": 0, "fusion_lat": 0.0}, {"type": "electric_scooter", "rental_uris": {"ios": "https://dc.lft.to/lastmile_qr_scan", "android": "https://dc.lft.to/lastmile_qr_scan"}, "lon": -76.9773045, "fusion_lon": 0.0, "is_disabled": 0, "lat": 38.87288433333333, "bike_id": "9e2366ced119a7a50ba7a0f6ebf064a4", "name": "9e2366ced119a7a50ba7a0f6ebf064a4", "is_reserved": 0, "fusion_lat": 0.0}, {"type": "electric_scooter", "rental_uris": {"ios": "https://dc.lft.to/lastmile_qr_scan", "android": "https://dc.lft.to/lastmile_qr_scan"}, "lon": -77.035063, "fusion_lon": 0.0, "is_disabled": 0, "lat": 38.918767333333335, "bike_id": "2fed3e317fcbc95b11db08f8f8d1da5a", "name": "2fed3e317fcbc95b11db08f8f8d1da5a", "is_reserved": 0, "fusion_lat": 0.0}, {"type": "electric_scooter", "rental_uris": {"ios": "https://dc.lft.to/lastmile_qr_scan", "android": "https://dc.lft.to/lastmile_qr_scan"}, "lon": -77.04159783333333, "fusion_lon": 0.0, "is_disabled": 0, "lat": 38.9052035, "bike_id": "693e2365bb2d73abe4e85b5d4983f05c", "name": "693e2365bb2d73abe4e85b5d4983f05c", "is_reserved": 0, "fusion_lat": 0.0}, {"type": "electric_scooter", "rental_uris": {"ios": "https://dc.lft.to/lastmile_qr_scan", "android": "https://dc.lft.to/lastmile_qr_scan"}, "lon": -76.99095216666667, "fusion_lon": 0.0, "is_disabled": 0, "lat": 38.882334666666665, "bike_id": "2c140cc1955a90ffb651dc8c250b15be", "name": "2c140cc1955a90ffb651dc8c250b15be", "is_reserved": 0, "fusion_lat": 0.0}, {"type": "electric_scooter", "rental_uris": {"ios": "https://dc.lft.to/lastmile_qr_scan", "android": "https://dc.lft.to/lastmile_qr_scan"}, "lon": -77.03647666666667, "fusion_lon": 0.0, "is_disabled": 0, "lat": 38.90680483333333, "bike_id": "11f164007f87315ea6b5747896ad6ab5", "name": "11f164007f87315ea6b5747896ad6ab5", "is_reserved": 0, "fusion_lat": 0.0}, {"type": "electric_scooter", "rental_uris": {"ios": "https://dc.lft.to/lastmile_qr_scan", "android": "https://dc.lft.to/lastmile_qr_scan"}, "lon": -77.031972, "fusion_lon": 0.0, "is_disabled": 0, "lat": 38.91837966666667, "bike_id": "4b6e7ea096451d1f741b1efed13d68f5", "name": "4b6e7ea096451d1f741b1efed13d68f5", "is_reserved": 0, "fusion_lat": 0.0}, {"type": "electric_scooter", "rental_uris": {"ios": "https://dc.lft.to/lastmile_qr_scan", "android": "https://dc.lft.to/lastmile_qr_scan"}, "lon": -77.05905116666666, "fusion_lon": 0.0, "is_disabled": 0, "lat": 38.902404833333335, "bike_id": "ac9e6660f70cd96fab5d6b571a50dfe3", "name": "ac9e6660f70cd96fab5d6b571a50dfe3", "is_reserved": 0, "fusion_lat": 0.0}, {"type": "electric_scooter", "rental_uris": {"ios": "https://dc.lft.to/lastmile_qr_scan", "android": "https://dc.lft.to/lastmile_qr_scan"}, "lon": -76.99637616666666, "fusion_lon": 0.0, "is_disabled": 0, "lat": 38.908892, "bike_id": "a963cc4e8e28e0cf5c3099e49ce01390", "name": "a963cc4e8e28e0cf5c3099e49ce01390", "is_reserved": 0, "fusion_lat": 0.0}, {"type": "electric_scooter", "rental_uris": {"ios": "https://dc.lft.to/lastmile_qr_scan", "android": "https://dc.lft.to/lastmile_qr_scan"}, "lon": -77.02178883333333, "fusion_lon": 0.0, "is_disabled": 0, "lat": 38.921014, "bike_id": "85d5b56a1ffc787e8c013c33a3420f2e", "name": "85d5b56a1ffc787e8c013c33a3420f2e", "is_reserved": 0, "fusion_lat": 0.0}, {"type": "electric_bike", "rental_uris": {"ios": "https://dc.lft.to/lastmile_qr_scan", "android": "https://dc.lft.to/lastmile_qr_scan"}, "lon": -77.05351066666667, "fusion_lon": 0.0, "is_disabled": 0, "lat": 38.902279666666665, "bike_id": "d99b4b9412815f6f03924ecea293b326", "name": "d99b4b9412815f6f03924ecea293b326", "is_reserved": 0, "fusion_lat": 0.0}, {"type": "electric_scooter", "rental_uris": {"ios": "https://dc.lft.to/lastmile_qr_scan", "android": "https://dc.lft.to/lastmile_qr_scan"}, "lon": -77.0425175, "fusion_lon": 0.0, "is_disabled": 0, "lat": 38.922191166666664, "bike_id": "3f74ab93aef05d9d7725875f04f571a3", "name": "3f74ab93aef05d9d7725875f04f571a3", "is_reserved": 0, "fusion_lat": 0.0}, {"type": "electric_scooter", "rental_uris": {"ios": "https://dc.lft.to/lastmile_qr_scan", "android": "https://dc.lft.to/lastmile_qr_scan"}, "lon": -77.03187116666666, "fusion_lon": 0.0, "is_disabled": 0, "lat": 38.91747983333333, "bike_id": "94f53467b8f1444d248c9ffeb8812867", "name": "94f53467b8f1444d248c9ffeb8812867", "is_reserved": 0, "fusion_lat": 0.0}, {"type": "electric_scooter", "rental_uris": {"ios": "https://dc.lft.to/lastmile_qr_scan", "android": "https://dc.lft.to/lastmile_qr_scan"}, "lon": -76.98727566666666, "fusion_lon": 0.0, "is_disabled": 0, "lat": 38.867116, "bike_id": "aa6af98dc85a740cdd301d9f3ba1c452", "name": "aa6af98dc85a740cdd301d9f3ba1c452", "is_reserved": 0, "fusion_lat": 0.0}, {"type": "electric_scooter", "rental_uris": {"ios": "https://dc.lft.to/lastmile_qr_scan", "android": "https://dc.lft.to/lastmile_qr_scan"}, "lon": -77.02666166666667, "fusion_lon": 0.0, "is_disabled": 0, "lat": 38.917040166666666, "bike_id": "ca1dbb8a610f4ae4e4c5aab611093d6e", "name": "ca1dbb8a610f4ae4e4c5aab611093d6e", "is_reserved": 0, "fusion_lat": 0.0}, {"type": "electric_scooter", "rental_uris": {"ios": "https://dc.lft.to/lastmile_qr_scan", "android": "https://dc.lft.to/lastmile_qr_scan"}, "lon": -77.009885, "fusion_lon": 0.0, "is_disabled": 0, "lat": 38.87288133333333, "bike_id": "b9429e11a09e94794a5f5607f7fde902", "name": "b9429e11a09e94794a5f5607f7fde902", "is_reserved": 0, "fusion_lat": 0.0}, {"type": "electric_scooter", "rental_uris": {"ios": "https://dc.lft.to/lastmile_qr_scan", "android": "https://dc.lft.to/lastmile_qr_scan"}, "lon": -77.028054, "fusion_lon": 0.0, "is_disabled": 0, "lat": 38.911031333333334, "bike_id": "853268bb1862767b260175f8c5f459d5", "name": "853268bb1862767b260175f8c5f459d5", "is_reserved": 0, "fusion_lat": 0.0}, {"type": "electric_scooter", "rental_uris": {"ios": "https://dc.lft.to/lastmile_qr_scan", "android": "https://dc.lft.to/lastmile_qr_scan"}, "lon": -77.03625566666666, "fusion_lon": 0.0, "is_disabled": 0, "lat": 38.93685983333334, "bike_id": "f3d2daf116cf93128bb6431e41a9d555", "name": "f3d2daf116cf93128bb6431e41a9d555", "is_reserved": 0, "fusion_lat": 0.0}, {"type": "electric_scooter", "rental_uris": {"ios": "https://dc.lft.to/lastmile_qr_scan", "android": "https://dc.lft.to/lastmile_qr_scan"}, "lon": -77.04188766666667, "fusion_lon": 0.0, "is_disabled": 0, "lat": 38.920537833333334, "bike_id": "0d27aaa7ea1cff6eca064e36158eab21", "name": "0d27aaa7ea1cff6eca064e36158eab21", "is_reserved": 0, "fusion_lat": 0.0}, {"type": "electric_scooter", "rental_uris": {"ios": "https://dc.lft.to/lastmile_qr_scan", "android": "https://dc.lft.to/lastmile_qr_scan"}, "lon": -77.031832, "fusion_lon": 0.0, "is_disabled": 0, "lat": 38.897645, "bike_id": "17523160e7a9d3aa27ab6c4ddecf24a8", "name": "17523160e7a9d3aa27ab6c4ddecf24a8", "is_reserved": 0, "fusion_lat": 0.0}, {"type": "electric_scooter", "rental_uris": {"ios": "https://dc.lft.to/lastmile_qr_scan", "android": "https://dc.lft.to/lastmile_qr_scan"}, "lon": -77.03251133333333, "fusion_lon": 0.0, "is_disabled": 0, "lat": 38.929395, "bike_id": "68491e22b61642f4503ad0d963b9f240", "name": "68491e22b61642f4503ad0d963b9f240", "is_reserved": 0, "fusion_lat": 0.0}, {"type": "electric_scooter", "rental_uris": {"ios": "https://dc.lft.to/lastmile_qr_scan", "android": "https://dc.lft.to/lastmile_qr_scan"}, "lon": -77.02085983333333, "fusion_lon": 0.0, "is_disabled": 0, "lat": 38.9311685, "bike_id": "dc63087fd924831c4a32bc342428612e", "name": "dc63087fd924831c4a32bc342428612e", "is_reserved": 0, "fusion_lat": 0.0}, {"type": "electric_scooter", "rental_uris": {"ios": "https://dc.lft.to/lastmile_qr_scan", "android": "https://dc.lft.to/lastmile_qr_scan"}, "lon": -77.023236, "fusion_lon": 0.0, "is_disabled": 0, "lat": 38.901988333333335, "bike_id": "e7c1e2105d2536767a8934894764985b", "name": "e7c1e2105d2536767a8934894764985b", "is_reserved": 0, "fusion_lat": 0.0}, {"type": "electric_scooter", "rental_uris": {"ios": "https://dc.lft.to/lastmile_qr_scan", "android": "https://dc.lft.to/lastmile_qr_scan"}, "lon": -77.0217665, "fusion_lon": 0.0, "is_disabled": 0, "lat": 38.942908, "bike_id": "e6261e26b40ab3cff778cb79c13ec3dc", "name": "e6261e26b40ab3cff778cb79c13ec3dc", "is_reserved": 0, "fusion_lat": 0.0}, {"type": "electric_scooter", "rental_uris": {"ios": "https://dc.lft.to/lastmile_qr_scan", "android": "https://dc.lft.to/lastmile_qr_scan"}, "lon": -77.00577683333333, "fusion_lon": 0.0, "is_disabled": 0, "lat": 38.908842, "bike_id": "2b3b4dd38f1fbfa8c37ad666f94f432a", "name": "2b3b4dd38f1fbfa8c37ad666f94f432a", "is_reserved": 0, "fusion_lat": 0.0}, {"type": "electric_scooter", "rental_uris": {"ios": "https://dc.lft.to/lastmile_qr_scan", "android": "https://dc.lft.to/lastmile_qr_scan"}, "lon": -77.0342465, "fusion_lon": 0.0, "is_disabled": 0, "lat": 38.93542216666667, "bike_id": "18876cd38ed0d26d71393017ad320202", "name": "18876cd38ed0d26d71393017ad320202", "is_reserved": 0, "fusion_lat": 0.0}, {"type": "electric_scooter", "rental_uris": {"ios": "https://dc.lft.to/lastmile_qr_scan", "android": "https://dc.lft.to/lastmile_qr_scan"}, "lon": -76.999379, "fusion_lon": 0.0, "is_disabled": 0, "lat": 38.8897585, "bike_id": "d94b9685aaf121dca510789fd3e786af", "name": "d94b9685aaf121dca510789fd3e786af", "is_reserved": 0, "fusion_lat": 0.0}, {"type": "electric_bike", "rental_uris": {"ios": "https://dc.lft.to/lastmile_qr_scan", "android": "https://dc.lft.to/lastmile_qr_scan"}, "lon": -77.02628616666667, "fusion_lon": 0.0, "is_disabled": 0, "lat": 38.96229066666667, "bike_id": "b17d87b15ba79dcddc10b6e11d848537", "name": "b17d87b15ba79dcddc10b6e11d848537", "is_reserved": 0, "fusion_lat": 0.0}, {"type": "electric_scooter", "rental_uris": {"ios": "https://dc.lft.to/lastmile_qr_scan", "android": "https://dc.lft.to/lastmile_qr_scan"}, "lon": -76.98578666666667, "fusion_lon": 0.0, "is_disabled": 0, "lat": 38.85447, "bike_id": "34a4db0c432eadecb45d0ad1c3fb1b4a", "name": "34a4db0c432eadecb45d0ad1c3fb1b4a", "is_reserved": 0, "fusion_lat": 0.0}, {"type": "electric_scooter", "rental_uris": {"ios": "https://dc.lft.to/lastmile_qr_scan", "android": "https://dc.lft.to/lastmile_qr_scan"}, "lon": -77.05756766666667, "fusion_lon": 0.0, "is_disabled": 0, "lat": 38.923829833333336, "bike_id": "fd9f98adb267b250d4b1a7e1108636cc", "name": "fd9f98adb267b250d4b1a7e1108636cc", "is_reserved": 0, "fusion_lat": 0.0}, {"type": "electric_scooter", "rental_uris": {"ios": "https://dc.lft.to/lastmile_qr_scan", "android": "https://dc.lft.to/lastmile_qr_scan"}, "lon": -77.036664, "fusion_lon": 0.0, "is_disabled": 0, "lat": 38.92251866666667, "bike_id": "d64bfc830c208d4a2a67b78fe163e462", "name": "d64bfc830c208d4a2a67b78fe163e462", "is_reserved": 0, "fusion_lat": 0.0}, {"type": "electric_scooter", "rental_uris": {"ios": "https://dc.lft.to/lastmile_qr_scan", "android": "https://dc.lft.to/lastmile_qr_scan"}, "lon": -77.02009066666666, "fusion_lon": 0.0, "is_disabled": 0, "lat": 38.92412, "bike_id": "ce7f89fa28446f62a4f70691d978f524", "name": "ce7f89fa28446f62a4f70691d978f524", "is_reserved": 0, "fusion_lat": 0.0}, {"type": "electric_scooter", "rental_uris": {"ios": "https://dc.lft.to/lastmile_qr_scan", "android": "https://dc.lft.to/lastmile_qr_scan"}, "lon": -77.01349816666666, "fusion_lon": 0.0, "is_disabled": 0, "lat": 38.88662266666667, "bike_id": "b30757e1c0eaf0ba35ffa50069e2179f", "name": "b30757e1c0eaf0ba35ffa50069e2179f", "is_reserved": 0, "fusion_lat": 0.0}, {"type": "electric_scooter", "rental_uris": {"ios": "https://dc.lft.to/lastmile_qr_scan", "android": "https://dc.lft.to/lastmile_qr_scan"}, "lon": -77.02249233333333, "fusion_lon": 0.0, "is_disabled": 0, "lat": 38.878642, "bike_id": "7cd6cfe7784f7ff3c60e4f3ac4db1a7a", "name": "7cd6cfe7784f7ff3c60e4f3ac4db1a7a", "is_reserved": 0, "fusion_lat": 0.0}, {"type": "electric_bike", "rental_uris": {"ios": "https://dc.lft.to/lastmile_qr_scan", "android": "https://dc.lft.to/lastmile_qr_scan"}, "lon": -77.10779116666667, "fusion_lon": 0.0, "is_disabled": 0, "lat": 38.892222333333336, "bike_id": "8a11a3582ad244994f68ef3a449dc21f", "name": "8a11a3582ad244994f68ef3a449dc21f", "is_reserved": 0, "fusion_lat": 0.0}, {"type": "electric_scooter", "rental_uris": {"ios": "https://dc.lft.to/lastmile_qr_scan", "android": "https://dc.lft.to/lastmile_qr_scan"}, "lon": -77.03854583333333, "fusion_lon": 0.0, "is_disabled": 0, "lat": 38.910159, "bike_id": "a77d360f8f4daec0ef4c1a89e47fb96d", "name": "a77d360f8f4daec0ef4c1a89e47fb96d", "is_reserved": 0, "fusion_lat": 0.0}, {"type": "electric_scooter", "rental_uris": {"ios": "https://dc.lft.to/lastmile_qr_scan", "android": "https://dc.lft.to/lastmile_qr_scan"}, "lon": -76.96529233333334, "fusion_lon": 0.0, "is_disabled": 0, "lat": 38.876327, "bike_id": "c8296defb4691b941db8e975c5cd7c13", "name": "c8296defb4691b941db8e975c5cd7c13", "is_reserved": 0, "fusion_lat": 0.0}, {"type": "electric_scooter", "rental_uris": {"ios": "https://dc.lft.to/lastmile_qr_scan", "android": "https://dc.lft.to/lastmile_qr_scan"}, "lon": -76.93144583333333, "fusion_lon": 0.0, "is_disabled": 0, "lat": 38.8934085, "bike_id": "18c0f9f67ebb9217e523f731d1dd616a", "name": "18c0f9f67ebb9217e523f731d1dd616a", "is_reserved": 0, "fusion_lat": 0.0}, {"type": "electric_scooter", "rental_uris": {"ios": "https://dc.lft.to/lastmile_qr_scan", "android": "https://dc.lft.to/lastmile_qr_scan"}, "lon": -77.0047675, "fusion_lon": 0.0, "is_disabled": 0, "lat": 38.911442, "bike_id": "4612a0e04073870043ea44765dfcb4ce", "name": "4612a0e04073870043ea44765dfcb4ce", "is_reserved": 0, "fusion_lat": 0.0}, {"type": "electric_bike", "rental_uris": {"ios": "https://dc.lft.to/lastmile_qr_scan", "android": "https://dc.lft.to/lastmile_qr_scan"}, "lon": -77.03345283333333, "fusion_lon": 0.0, "is_disabled": 0, "lat": 38.969385833333334, "bike_id": "97862709f2df5d41707c037449bfe358", "name": "97862709f2df5d41707c037449bfe358", "is_reserved": 0, "fusion_lat": 0.0}, {"type": "electric_scooter", "rental_uris": {"ios": "https://dc.lft.to/lastmile_qr_scan", "android": "https://dc.lft.to/lastmile_qr_scan"}, "lon": -77.00577733333333, "fusion_lon": 0.0, "is_disabled": 0, "lat": 38.90640783333333, "bike_id": "4eb125db03f8ab05a4c9a01c97eab637", "name": "4eb125db03f8ab05a4c9a01c97eab637", "is_reserved": 0, "fusion_lat": 0.0}, {"type": "electric_scooter", "rental_uris": {"ios": "https://dc.lft.to/lastmile_qr_scan", "android": "https://dc.lft.to/lastmile_qr_scan"}, "lon": -77.03211533333334, "fusion_lon": 0.0, "is_disabled": 0, "lat": 38.909515166666665, "bike_id": "1c8db564920b43c78b017e185c3708d8", "name": "1c8db564920b43c78b017e185c3708d8", "is_reserved": 0, "fusion_lat": 0.0}, {"type": "electric_scooter", "rental_uris": {"ios": "https://dc.lft.to/lastmile_qr_scan", "android": "https://dc.lft.to/lastmile_qr_scan"}, "lon": -77.04332783333334, "fusion_lon": 0.0, "is_disabled": 0, "lat": 38.89222933333333, "bike_id": "3235370bd61a19e67e8ac3f61c9dc225", "name": "3235370bd61a19e67e8ac3f61c9dc225", "is_reserved": 0, "fusion_lat": 0.0}, {"type": "electric_scooter", "rental_uris": {"ios": "https://dc.lft.to/lastmile_qr_scan", "android": "https://dc.lft.to/lastmile_qr_scan"}, "lon": -77.0328605, "fusion_lon": 0.0, "is_disabled": 0, "lat": 38.9325395, "bike_id": "b3aa8b00331eaf7d178c5cc68c7606e5", "name": "b3aa8b00331eaf7d178c5cc68c7606e5", "is_reserved": 0, "fusion_lat": 0.0}, {"type": "electric_scooter", "rental_uris": {"ios": "https://dc.lft.to/lastmile_qr_scan", "android": "https://dc.lft.to/lastmile_qr_scan"}, "lon": -77.0325895, "fusion_lon": 0.0, "is_disabled": 0, "lat": 38.937718833333335, "bike_id": "f279f16e0bc2ac5437ebddfdd247bbe9", "name": "f279f16e0bc2ac5437ebddfdd247bbe9", "is_reserved": 0, "fusion_lat": 0.0}, {"type": "electric_scooter", "rental_uris": {"ios": "https://dc.lft.to/lastmile_qr_scan", "android": "https://dc.lft.to/lastmile_qr_scan"}, "lon": -77.024955, "fusion_lon": 0.0, "is_disabled": 0, "lat": 38.918092, "bike_id": "6124578512ce4d76b5e62b800cbd92a5", "name": "6124578512ce4d76b5e62b800cbd92a5", "is_reserved": 0, "fusion_lat": 0.0}, {"type": "electric_scooter", "rental_uris": {"ios": "https://dc.lft.to/lastmile_qr_scan", "android": "https://dc.lft.to/lastmile_qr_scan"}, "lon": -77.04434883333333, "fusion_lon": 0.0, "is_disabled": 0, "lat": 38.925434833333334, "bike_id": "2d6ed0a1b25106f36b143e5427748686", "name": "2d6ed0a1b25106f36b143e5427748686", "is_reserved": 0, "fusion_lat": 0.0}, {"type": "electric_scooter", "rental_uris": {"ios": "https://dc.lft.to/lastmile_qr_scan", "android": "https://dc.lft.to/lastmile_qr_scan"}, "lon": -77.03632633333334, "fusion_lon": 0.0, "is_disabled": 0, "lat": 38.93709783333333, "bike_id": "475023137b1712b8e63c9c1d870908bb", "name": "475023137b1712b8e63c9c1d870908bb", "is_reserved": 0, "fusion_lat": 0.0}, {"type": "electric_scooter", "rental_uris": {"ios": "https://dc.lft.to/lastmile_qr_scan", "android": "https://dc.lft.to/lastmile_qr_scan"}, "lon": -76.993879, "fusion_lon": 0.0, "is_disabled": 0, "lat": 38.90040233333333, "bike_id": "40e858c9f72a81bf025dcf90da595435", "name": "40e858c9f72a81bf025dcf90da595435", "is_reserved": 0, "fusion_lat": 0.0}, {"type": "electric_scooter", "rental_uris": {"ios": "https://dc.lft.to/lastmile_qr_scan", "android": "https://dc.lft.to/lastmile_qr_scan"}, "lon": -77.03267633333333, "fusion_lon": 0.0, "is_disabled": 0, "lat": 38.9351445, "bike_id": "216b4a47b8603106eeed9cd08d98e921", "name": "216b4a47b8603106eeed9cd08d98e921", "is_reserved": 0, "fusion_lat": 0.0}, {"type": "electric_scooter", "rental_uris": {"ios": "https://dc.lft.to/lastmile_qr_scan", "android": "https://dc.lft.to/lastmile_qr_scan"}, "lon": -77.02313083333334, "fusion_lon": 0.0, "is_disabled": 0, "lat": 38.91778683333333, "bike_id": "ab4cd40aff503e71cdfaf5430e01413a", "name": "ab4cd40aff503e71cdfaf5430e01413a", "is_reserved": 0, "fusion_lat": 0.0}, {"type": "electric_scooter", "rental_uris": {"ios": "https://dc.lft.to/lastmile_qr_scan", "android": "https://dc.lft.to/lastmile_qr_scan"}, "lon": -77.02017783333334, "fusion_lon": 0.0, "is_disabled": 0, "lat": 38.911244333333336, "bike_id": "431422c4d97c53a599fa8ebb736a0c81", "name": "431422c4d97c53a599fa8ebb736a0c81", "is_reserved": 0, "fusion_lat": 0.0}, {"type": "electric_scooter", "rental_uris": {"ios": "https://dc.lft.to/lastmile_qr_scan", "android": "https://dc.lft.to/lastmile_qr_scan"}, "lon": -77.02803483333334, "fusion_lon": 0.0, "is_disabled": 0, "lat": 38.892342166666666, "bike_id": "39c919c0af08f982b9ffb9a529eb0bc3", "name": "39c919c0af08f982b9ffb9a529eb0bc3", "is_reserved": 0, "fusion_lat": 0.0}, {"type": "electric_scooter", "rental_uris": {"ios": "https://dc.lft.to/lastmile_qr_scan", "android": "https://dc.lft.to/lastmile_qr_scan"}, "lon": -77.03174716666666, "fusion_lon": 0.0, "is_disabled": 0, "lat": 38.91821933333333, "bike_id": "7c5dc76f790a3ba501ff5bfd268b708b", "name": "7c5dc76f790a3ba501ff5bfd268b708b", "is_reserved": 0, "fusion_lat": 0.0}, {"type": "electric_scooter", "rental_uris": {"ios": "https://dc.lft.to/lastmile_qr_scan", "android": "https://dc.lft.to/lastmile_qr_scan"}, "lon": -77.046891, "fusion_lon": 0.0, "is_disabled": 0, "lat": 38.89224183333333, "bike_id": "f18ef438aa0ea0934b2c749f4acfb281", "name": "f18ef438aa0ea0934b2c749f4acfb281", "is_reserved": 0, "fusion_lat": 0.0}, {"type": "electric_scooter", "rental_uris": {"ios": "https://dc.lft.to/lastmile_qr_scan", "android": "https://dc.lft.to/lastmile_qr_scan"}, "lon": -77.041415, "fusion_lon": 0.0, "is_disabled": 0, "lat": 38.893534333333335, "bike_id": "b79a6ff22bd9ba392f8252736c26ddc0", "name": "b79a6ff22bd9ba392f8252736c26ddc0", "is_reserved": 0, "fusion_lat": 0.0}, {"type": "electric_scooter", "rental_uris": {"ios": "https://dc.lft.to/lastmile_qr_scan", "android": "https://dc.lft.to/lastmile_qr_scan"}, "lon": -77.04843483333333, "fusion_lon": 0.0, "is_disabled": 0, "lat": 38.91053816666667, "bike_id": "a36d8dd5f492de505ac11a859d7a0d99", "name": "a36d8dd5f492de505ac11a859d7a0d99", "is_reserved": 0, "fusion_lat": 0.0}, {"type": "electric_scooter", "rental_uris": {"ios": "https://dc.lft.to/lastmile_qr_scan", "android": "https://dc.lft.to/lastmile_qr_scan"}, "lon": -77.04203666666666, "fusion_lon": 0.0, "is_disabled": 0, "lat": 38.9187495, "bike_id": "8f0820223e8d0e8c4384ff57cdfdba6e", "name": "8f0820223e8d0e8c4384ff57cdfdba6e", "is_reserved": 0, "fusion_lat": 0.0}, {"type": "electric_scooter", "rental_uris": {"ios": "https://dc.lft.to/lastmile_qr_scan", "android": "https://dc.lft.to/lastmile_qr_scan"}, "lon": -76.997084, "fusion_lon": 0.0, "is_disabled": 0, "lat": 38.844382833333334, "bike_id": "12471274f81104b0ba3ddbdf2b88d378", "name": "12471274f81104b0ba3ddbdf2b88d378", "is_reserved": 0, "fusion_lat": 0.0}, {"type": "electric_scooter", "rental_uris": {"ios": "https://dc.lft.to/lastmile_qr_scan", "android": "https://dc.lft.to/lastmile_qr_scan"}, "lon": -76.9464045, "fusion_lon": 0.0, "is_disabled": 0, "lat": 38.898449, "bike_id": "0207468cee1a90c8b7944a4797544c13", "name": "0207468cee1a90c8b7944a4797544c13", "is_reserved": 0, "fusion_lat": 0.0}, {"type": "electric_scooter", "rental_uris": {"ios": "https://dc.lft.to/lastmile_qr_scan", "android": "https://dc.lft.to/lastmile_qr_scan"}, "lon": -77.05116133333334, "fusion_lon": 0.0, "is_disabled": 0, "lat": 38.9020405, "bike_id": "0c8f703d5ec86e14aa78378d31a923b7", "name": "0c8f703d5ec86e14aa78378d31a923b7", "is_reserved": 0, "fusion_lat": 0.0}, {"type": "electric_scooter", "rental_uris": {"ios": "https://dc.lft.to/lastmile_qr_scan", "android": "https://dc.lft.to/lastmile_qr_scan"}, "lon": -77.02423483333334, "fusion_lon": 0.0, "is_disabled": 0, "lat": 38.919343833333336, "bike_id": "e631697c6f67b23772e7ea2929a40ec1", "name": "e631697c6f67b23772e7ea2929a40ec1", "is_reserved": 0, "fusion_lat": 0.0}, {"type": "electric_scooter", "rental_uris": {"ios": "https://dc.lft.to/lastmile_qr_scan", "android": "https://dc.lft.to/lastmile_qr_scan"}, "lon": -76.9575235, "fusion_lon": 0.0, "is_disabled": 0, "lat": 38.88427633333333, "bike_id": "9fa261e1f6610f085d5ef66521b8196c", "name": "9fa261e1f6610f085d5ef66521b8196c", "is_reserved": 0, "fusion_lat": 0.0}, {"type": "electric_bike", "rental_uris": {"ios": "https://dc.lft.to/lastmile_qr_scan", "android": "https://dc.lft.to/lastmile_qr_scan"}, "lon": -76.93708883333333, "fusion_lon": 0.0, "is_disabled": 0, "lat": 38.87145316666667, "bike_id": "802210752a65da30b1b9db3467378778", "name": "802210752a65da30b1b9db3467378778", "is_reserved": 0, "fusion_lat": 0.0}, {"type": "electric_scooter", "rental_uris": {"ios": "https://dc.lft.to/lastmile_qr_scan", "android": "https://dc.lft.to/lastmile_qr_scan"}, "lon": -77.02327016666666, "fusion_lon": 0.0, "is_disabled": 0, "lat": 38.916720833333336, "bike_id": "75a5335762820f15a3021330d1bdd48f", "name": "75a5335762820f15a3021330d1bdd48f", "is_reserved": 0, "fusion_lat": 0.0}, {"type": "electric_scooter", "rental_uris": {"ios": "https://dc.lft.to/lastmile_qr_scan", "android": "https://dc.lft.to/lastmile_qr_scan"}, "lon": -77.022403, "fusion_lon": 0.0, "is_disabled": 0, "lat": 38.96137183333333, "bike_id": "38bf099464e07300df0c86c4da927cf5", "name": "38bf099464e07300df0c86c4da927cf5", "is_reserved": 0, "fusion_lat": 0.0}, {"type": "electric_scooter", "rental_uris": {"ios": "https://dc.lft.to/lastmile_qr_scan", "android": "https://dc.lft.to/lastmile_qr_scan"}, "lon": -76.997758, "fusion_lon": 0.0, "is_disabled": 0, "lat": 38.84431216666667, "bike_id": "472f06057b07cce6d50c7a0e0bd000ff", "name": "472f06057b07cce6d50c7a0e0bd000ff", "is_reserved": 0, "fusion_lat": 0.0}, {"type": "electric_bike", "rental_uris": {"ios": "https://dc.lft.to/lastmile_qr_scan", "android": "https://dc.lft.to/lastmile_qr_scan"}, "lon": -76.97089866666667, "fusion_lon": 0.0, "is_disabled": 0, "lat": 38.857216666666666, "bike_id": "a9cbf0f698bd741464aaf9d5b1cfdced", "name": "a9cbf0f698bd741464aaf9d5b1cfdced", "is_reserved": 0, "fusion_lat": 0.0}, {"type": "electric_scooter", "rental_uris": {"ios": "https://dc.lft.to/lastmile_qr_scan", "android": "https://dc.lft.to/lastmile_qr_scan"}, "lon": -77.04768416666667, "fusion_lon": 0.0, "is_disabled": 0, "lat": 38.917656666666666, "bike_id": "e320a73e5ba8ed959a810436942422dc", "name": "e320a73e5ba8ed959a810436942422dc", "is_reserved": 0, "fusion_lat": 0.0}, {"type": "electric_scooter", "rental_uris": {"ios": "https://dc.lft.to/lastmile_qr_scan", "android": "https://dc.lft.to/lastmile_qr_scan"}, "lon": -76.939904, "fusion_lon": 0.0, "is_disabled": 0, "lat": 38.89975883333334, "bike_id": "75d03b519844e24f7171a5211a78df41", "name": "75d03b519844e24f7171a5211a78df41", "is_reserved": 0, "fusion_lat": 0.0}, {"type": "electric_scooter", "rental_uris": {"ios": "https://dc.lft.to/lastmile_qr_scan", "android": "https://dc.lft.to/lastmile_qr_scan"}, "lon": -77.03376166666666, "fusion_lon": 0.0, "is_disabled": 0, "lat": 38.892308166666666, "bike_id": "42ad81f7ed17c90fe713b0f5157bb1f3", "name": "42ad81f7ed17c90fe713b0f5157bb1f3", "is_reserved": 0, "fusion_lat": 0.0}, {"type": "electric_scooter", "rental_uris": {"ios": "https://dc.lft.to/lastmile_qr_scan", "android": "https://dc.lft.to/lastmile_qr_scan"}, "lon": -77.03009883333333, "fusion_lon": 0.0, "is_disabled": 0, "lat": 38.922471333333334, "bike_id": "8aac14585119007b5462745eb01c5c3b", "name": "8aac14585119007b5462745eb01c5c3b", "is_reserved": 0, "fusion_lat": 0.0}, {"type": "electric_scooter", "rental_uris": {"ios": "https://dc.lft.to/lastmile_qr_scan", "android": "https://dc.lft.to/lastmile_qr_scan"}, "lon": -77.01901566666666, "fusion_lon": 0.0, "is_disabled": 0, "lat": 38.92379483333333, "bike_id": "86ecfee5cbbf62169bfb8eefb595b5d1", "name": "86ecfee5cbbf62169bfb8eefb595b5d1", "is_reserved": 0, "fusion_lat": 0.0}, {"type": "electric_scooter", "rental_uris": {"ios": "https://dc.lft.to/lastmile_qr_scan", "android": "https://dc.lft.to/lastmile_qr_scan"}, "lon": -76.99778466666666, "fusion_lon": 0.0, "is_disabled": 0, "lat": 38.844254666666664, "bike_id": "76f256fd9f12c95fe9349a6d9b71d33c", "name": "76f256fd9f12c95fe9349a6d9b71d33c", "is_reserved": 0, "fusion_lat": 0.0}, {"type": "electric_bike", "rental_uris": {"ios": "https://dc.lft.to/lastmile_qr_scan", "android": "https://dc.lft.to/lastmile_qr_scan"}, "lon": -76.98353866666666, "fusion_lon": 0.0, "is_disabled": 0, "lat": 38.89435433333333, "bike_id": "6387d70e17b370f4dfc45207c6bc3c4e", "name": "6387d70e17b370f4dfc45207c6bc3c4e", "is_reserved": 0, "fusion_lat": 0.0}, {"type": "electric_scooter", "rental_uris": {"ios": "https://dc.lft.to/lastmile_qr_scan", "android": "https://dc.lft.to/lastmile_qr_scan"}, "lon": -77.0019635, "fusion_lon": 0.0, "is_disabled": 0, "lat": 38.900429833333334, "bike_id": "a5c47f1876081e6bbd073805df20b988", "name": "a5c47f1876081e6bbd073805df20b988", "is_reserved": 0, "fusion_lat": 0.0}, {"type": "electric_scooter", "rental_uris": {"ios": "https://dc.lft.to/lastmile_qr_scan", "android": "https://dc.lft.to/lastmile_qr_scan"}, "lon": -76.9773, "fusion_lon": 0.0, "is_disabled": 0, "lat": 38.89519716666667, "bike_id": "dc3d46286a0b6ea4061a41fe3a01768e", "name": "dc3d46286a0b6ea4061a41fe3a01768e", "is_reserved": 0, "fusion_lat": 0.0}, {"type": "electric_scooter", "rental_uris": {"ios": "https://dc.lft.to/lastmile_qr_scan", "android": "https://dc.lft.to/lastmile_qr_scan"}, "lon": -77.00215783333333, "fusion_lon": 0.0, "is_disabled": 0, "lat": 38.9043125, "bike_id": "b2bb6178f32a81e7b7a09e8e4c7d5f8c", "name": "b2bb6178f32a81e7b7a09e8e4c7d5f8c", "is_reserved": 0, "fusion_lat": 0.0}, {"type": "electric_scooter", "rental_uris": {"ios": "https://dc.lft.to/lastmile_qr_scan", "android": "https://dc.lft.to/lastmile_qr_scan"}, "lon": -77.04336016666667, "fusion_lon": 0.0, "is_disabled": 0, "lat": 38.908395, "bike_id": "12a161d1b92d5f62bd666064d4c042cb", "name": "12a161d1b92d5f62bd666064d4c042cb", "is_reserved": 0, "fusion_lat": 0.0}, {"type": "electric_scooter", "rental_uris": {"ios": "https://dc.lft.to/lastmile_qr_scan", "android": "https://dc.lft.to/lastmile_qr_scan"}, "lon": -77.03213966666667, "fusion_lon": 0.0, "is_disabled": 0, "lat": 38.91716666666667, "bike_id": "fe5503cf3a4d4701217f09b56a28c1c4", "name": "fe5503cf3a4d4701217f09b56a28c1c4", "is_reserved": 0, "fusion_lat": 0.0}, {"type": "electric_bike", "rental_uris": {"ios": "https://dc.lft.to/lastmile_qr_scan", "android": "https://dc.lft.to/lastmile_qr_scan"}, "lon": -77.03516283333333, "fusion_lon": 0.0, "is_disabled": 0, "lat": 38.9620435, "bike_id": "3deb5746c098a01566fd1c48fe26735c", "name": "3deb5746c098a01566fd1c48fe26735c", "is_reserved": 0, "fusion_lat": 0.0}, {"type": "electric_scooter", "rental_uris": {"ios": "https://dc.lft.to/lastmile_qr_scan", "android": "https://dc.lft.to/lastmile_qr_scan"}, "lon": -77.02412833333334, "fusion_lon": 0.0, "is_disabled": 0, "lat": 38.9175365, "bike_id": "f4a9df70a77b07b1967a5ce6363f5fa0", "name": "f4a9df70a77b07b1967a5ce6363f5fa0", "is_reserved": 0, "fusion_lat": 0.0}, {"type": "electric_scooter", "rental_uris": {"ios": "https://dc.lft.to/lastmile_qr_scan", "android": "https://dc.lft.to/lastmile_qr_scan"}, "lon": -77.03961933333333, "fusion_lon": 0.0, "is_disabled": 0, "lat": 38.89903066666667, "bike_id": "d0bc39d9a9dda068429cbc32092906e2", "name": "d0bc39d9a9dda068429cbc32092906e2", "is_reserved": 0, "fusion_lat": 0.0}, {"type": "electric_scooter", "rental_uris": {"ios": "https://dc.lft.to/lastmile_qr_scan", "android": "https://dc.lft.to/lastmile_qr_scan"}, "lon": -77.04056633333333, "fusion_lon": 0.0, "is_disabled": 0, "lat": 38.89893383333333, "bike_id": "ae6697b3da2e1841be27cee711a4bceb", "name": "ae6697b3da2e1841be27cee711a4bceb", "is_reserved": 0, "fusion_lat": 0.0}, {"type": "electric_scooter", "rental_uris": {"ios": "https://dc.lft.to/lastmile_qr_scan", "android": "https://dc.lft.to/lastmile_qr_scan"}, "lon": -77.02627816666667, "fusion_lon": 0.0, "is_disabled": 0, "lat": 38.90180133333333, "bike_id": "fb8b2e91ef0b6599dc4af8d837dd27a9", "name": "fb8b2e91ef0b6599dc4af8d837dd27a9", "is_reserved": 0, "fusion_lat": 0.0}, {"type": "electric_scooter", "rental_uris": {"ios": "https://dc.lft.to/lastmile_qr_scan", "android": "https://dc.lft.to/lastmile_qr_scan"}, "lon": -77.03004033333333, "fusion_lon": 0.0, "is_disabled": 0, "lat": 38.92976183333333, "bike_id": "b286999d75a9efe402c596d77f75244a", "name": "b286999d75a9efe402c596d77f75244a", "is_reserved": 0, "fusion_lat": 0.0}, {"type": "electric_bike", "rental_uris": {"ios": "https://dc.lft.to/lastmile_qr_scan", "android": "https://dc.lft.to/lastmile_qr_scan"}, "lon": -77.0492515, "fusion_lon": 0.0, "is_disabled": 0, "lat": 38.813493666666666, "bike_id": "92708f70a81b47c04bcd7534dbad145a", "name": "92708f70a81b47c04bcd7534dbad145a", "is_reserved": 0, "fusion_lat": 0.0}, {"type": "electric_scooter", "rental_uris": {"ios": "https://dc.lft.to/lastmile_qr_scan", "android": "https://dc.lft.to/lastmile_qr_scan"}, "lon": -77.04175416666666, "fusion_lon": 0.0, "is_disabled": 0, "lat": 38.917621833333335, "bike_id": "578563972701540cecb323cdbec3e8da", "name": "578563972701540cecb323cdbec3e8da", "is_reserved": 0, "fusion_lat": 0.0}, {"type": "electric_bike", "rental_uris": {"ios": "https://dc.lft.to/lastmile_qr_scan", "android": "https://dc.lft.to/lastmile_qr_scan"}, "lon": -77.044965, "fusion_lon": 0.0, "is_disabled": 0, "lat": 38.842899833333334, "bike_id": "b16af4af3233598f7569b8135731ea0d", "name": "b16af4af3233598f7569b8135731ea0d", "is_reserved": 0, "fusion_lat": 0.0}, {"type": "electric_scooter", "rental_uris": {"ios": "https://dc.lft.to/lastmile_qr_scan", "android": "https://dc.lft.to/lastmile_qr_scan"}, "lon": -77.02469216666667, "fusion_lon": 0.0, "is_disabled": 0, "lat": 38.933070666666666, "bike_id": "48c68a58b6d418943556dfef762ae8cc", "name": "48c68a58b6d418943556dfef762ae8cc", "is_reserved": 0, "fusion_lat": 0.0}, {"type": "electric_scooter", "rental_uris": {"ios": "https://dc.lft.to/lastmile_qr_scan", "android": "https://dc.lft.to/lastmile_qr_scan"}, "lon": -77.038588, "fusion_lon": 0.0, "is_disabled": 0, "lat": 38.915516, "bike_id": "06b9e6e729b12409ece5614abb2dfc31", "name": "06b9e6e729b12409ece5614abb2dfc31", "is_reserved": 0, "fusion_lat": 0.0}, {"type": "electric_bike", "rental_uris": {"ios": "https://dc.lft.to/lastmile_qr_scan", "android": "https://dc.lft.to/lastmile_qr_scan"}, "lon": -77.02820233333334, "fusion_lon": 0.0, "is_disabled": 0, "lat": 38.96508383333333, "bike_id": "11daf05ebdd8a874dd630375f68ada2a", "name": "11daf05ebdd8a874dd630375f68ada2a", "is_reserved": 0, "fusion_lat": 0.0}, {"type": "electric_scooter", "rental_uris": {"ios": "https://dc.lft.to/lastmile_qr_scan", "android": "https://dc.lft.to/lastmile_qr_scan"}, "lon": -77.044356, "fusion_lon": 0.0, "is_disabled": 0, "lat": 38.912656166666665, "bike_id": "f3edbc7daf3b055502d2b540dcda6511", "name": "f3edbc7daf3b055502d2b540dcda6511", "is_reserved": 0, "fusion_lat": 0.0}, {"type": "electric_scooter", "rental_uris": {"ios": "https://dc.lft.to/lastmile_qr_scan", "android": "https://dc.lft.to/lastmile_qr_scan"}, "lon": -77.0060495, "fusion_lon": 0.0, "is_disabled": 0, "lat": 38.90566166666667, "bike_id": "1625944741f0116225734989e335b841", "name": "1625944741f0116225734989e335b841", "is_reserved": 0, "fusion_lat": 0.0}, {"type": "electric_scooter", "rental_uris": {"ios": "https://dc.lft.to/lastmile_qr_scan", "android": "https://dc.lft.to/lastmile_qr_scan"}, "lon": -77.04013533333334, "fusion_lon": 0.0, "is_disabled": 0, "lat": 38.91000066666667, "bike_id": "d2b95e78eb5046573889df317b0d7875", "name": "d2b95e78eb5046573889df317b0d7875", "is_reserved": 0, "fusion_lat": 0.0}, {"type": "electric_scooter", "rental_uris": {"ios": "https://dc.lft.to/lastmile_qr_scan", "android": "https://dc.lft.to/lastmile_qr_scan"}, "lon": -77.04127916666667, "fusion_lon": 0.0, "is_disabled": 0, "lat": 38.934003, "bike_id": "cc5e125fedcaeb97fdf71eff0958f936", "name": "cc5e125fedcaeb97fdf71eff0958f936", "is_reserved": 0, "fusion_lat": 0.0}, {"type": "electric_scooter", "rental_uris": {"ios": "https://dc.lft.to/lastmile_qr_scan", "android": "https://dc.lft.to/lastmile_qr_scan"}, "lon": -77.03962783333333, "fusion_lon": 0.0, "is_disabled": 0, "lat": 38.8988595, "bike_id": "99cd1bbd5ca1aa49f1d854cafd42ab44", "name": "99cd1bbd5ca1aa49f1d854cafd42ab44", "is_reserved": 0, "fusion_lat": 0.0}, {"type": "electric_scooter", "rental_uris": {"ios": "https://dc.lft.to/lastmile_qr_scan", "android": "https://dc.lft.to/lastmile_qr_scan"}, "lon": -77.02224216666667, "fusion_lon": 0.0, "is_disabled": 0, "lat": 38.892224, "bike_id": "cdbad1a8b087318f4c2a2ae57343140d", "name": "cdbad1a8b087318f4c2a2ae57343140d", "is_reserved": 0, "fusion_lat": 0.0}, {"type": "electric_scooter", "rental_uris": {"ios": "https://dc.lft.to/lastmile_qr_scan", "android": "https://dc.lft.to/lastmile_qr_scan"}, "lon": -77.072762, "fusion_lon": 0.0, "is_disabled": 0, "lat": 38.934916333333334, "bike_id": "4680db8a440141d170065506e8e7de4c", "name": "4680db8a440141d170065506e8e7de4c", "is_reserved": 0, "fusion_lat": 0.0}, {"type": "electric_scooter", "rental_uris": {"ios": "https://dc.lft.to/lastmile_qr_scan", "android": "https://dc.lft.to/lastmile_qr_scan"}, "lon": -77.0329655, "fusion_lon": 0.0, "is_disabled": 0, "lat": 38.9111945, "bike_id": "fac3430a7ef91845bcd376f150c5a461", "name": "fac3430a7ef91845bcd376f150c5a461", "is_reserved": 0, "fusion_lat": 0.0}, {"type": "electric_scooter", "rental_uris": {"ios": "https://dc.lft.to/lastmile_qr_scan", "android": "https://dc.lft.to/lastmile_qr_scan"}, "lon": -77.02146216666667, "fusion_lon": 0.0, "is_disabled": 0, "lat": 38.92591316666667, "bike_id": "06821a6a0182497fada680e51b683ed1", "name": "06821a6a0182497fada680e51b683ed1", "is_reserved": 0, "fusion_lat": 0.0}, {"type": "electric_scooter", "rental_uris": {"ios": "https://dc.lft.to/lastmile_qr_scan", "android": "https://dc.lft.to/lastmile_qr_scan"}, "lon": -77.032919, "fusion_lon": 0.0, "is_disabled": 0, "lat": 38.9471285, "bike_id": "5b2c83ff6826e1e67ab5d331dca61706", "name": "5b2c83ff6826e1e67ab5d331dca61706", "is_reserved": 0, "fusion_lat": 0.0}, {"type": "electric_scooter", "rental_uris": {"ios": "https://dc.lft.to/lastmile_qr_scan", "android": "https://dc.lft.to/lastmile_qr_scan"}, "lon": -76.99774433333333, "fusion_lon": 0.0, "is_disabled": 0, "lat": 38.90022966666667, "bike_id": "57f3c87ce3eec7edd46c0f0986e60443", "name": "57f3c87ce3eec7edd46c0f0986e60443", "is_reserved": 0, "fusion_lat": 0.0}, {"type": "electric_bike", "rental_uris": {"ios": "https://dc.lft.to/lastmile_qr_scan", "android": "https://dc.lft.to/lastmile_qr_scan"}, "lon": -77.03221933333333, "fusion_lon": 0.0, "is_disabled": 0, "lat": 38.91562483333333, "bike_id": "dced965feaae80a6ffb572c5151a5c26", "name": "dced965feaae80a6ffb572c5151a5c26", "is_reserved": 0, "fusion_lat": 0.0}, {"type": "electric_scooter", "rental_uris": {"ios": "https://dc.lft.to/lastmile_qr_scan", "android": "https://dc.lft.to/lastmile_qr_scan"}, "lon": -77.01134716666667, "fusion_lon": 0.0, "is_disabled": 0, "lat": 38.88526133333333, "bike_id": "a4888a5ae25a3f39692775e108c86abd", "name": "a4888a5ae25a3f39692775e108c86abd", "is_reserved": 0, "fusion_lat": 0.0}, {"type": "electric_scooter", "rental_uris": {"ios": "https://dc.lft.to/lastmile_qr_scan", "android": "https://dc.lft.to/lastmile_qr_scan"}, "lon": -77.04229283333333, "fusion_lon": 0.0, "is_disabled": 0, "lat": 38.921761333333336, "bike_id": "1c3de950dc0e612f64a70c0dc263edd6", "name": "1c3de950dc0e612f64a70c0dc263edd6", "is_reserved": 0, "fusion_lat": 0.0}, {"type": "electric_scooter", "rental_uris": {"ios": "https://dc.lft.to/lastmile_qr_scan", "android": "https://dc.lft.to/lastmile_qr_scan"}, "lon": -77.02983316666666, "fusion_lon": 0.0, "is_disabled": 0, "lat": 38.90506516666667, "bike_id": "fe7b0e270d8e37b0637489f827ed9a44", "name": "fe7b0e270d8e37b0637489f827ed9a44", "is_reserved": 0, "fusion_lat": 0.0}, {"type": "electric_scooter", "rental_uris": {"ios": "https://dc.lft.to/lastmile_qr_scan", "android": "https://dc.lft.to/lastmile_qr_scan"}, "lon": -77.03427083333334, "fusion_lon": 0.0, "is_disabled": 0, "lat": 38.93089283333333, "bike_id": "9cceab4bf0d3614cd4c6c51165b57555", "name": "9cceab4bf0d3614cd4c6c51165b57555", "is_reserved": 0, "fusion_lat": 0.0}, {"type": "electric_scooter", "rental_uris": {"ios": "https://dc.lft.to/lastmile_qr_scan", "android": "https://dc.lft.to/lastmile_qr_scan"}, "lon": -76.9808065, "fusion_lon": 0.0, "is_disabled": 0, "lat": 38.919525, "bike_id": "134dbe9a09eb3bdd2ecd5bf17873794e", "name": "134dbe9a09eb3bdd2ecd5bf17873794e", "is_reserved": 0, "fusion_lat": 0.0}, {"type": "electric_bike", "rental_uris": {"ios": "https://dc.lft.to/lastmile_qr_scan", "android": "https://dc.lft.to/lastmile_qr_scan"}, "lon": -77.03695366666666, "fusion_lon": 0.0, "is_disabled": 0, "lat": 38.93651216666667, "bike_id": "778b9696b954cc7d9a2e73291e1f0f80", "name": "778b9696b954cc7d9a2e73291e1f0f80", "is_reserved": 0, "fusion_lat": 0.0}, {"type": "electric_scooter", "rental_uris": {"ios": "https://dc.lft.to/lastmile_qr_scan", "android": "https://dc.lft.to/lastmile_qr_scan"}, "lon": -76.977065, "fusion_lon": 0.0, "is_disabled": 0, "lat": 38.9025775, "bike_id": "997ab0c6ad4a82e6e85589babd2dabbc", "name": "997ab0c6ad4a82e6e85589babd2dabbc", "is_reserved": 0, "fusion_lat": 0.0}, {"type": "electric_scooter", "rental_uris": {"ios": "https://dc.lft.to/lastmile_qr_scan", "android": "https://dc.lft.to/lastmile_qr_scan"}, "lon": -77.02729733333334, "fusion_lon": 0.0, "is_disabled": 0, "lat": 38.932531833333336, "bike_id": "ddefa9d843e6ce05a1f6ece82d863382", "name": "ddefa9d843e6ce05a1f6ece82d863382", "is_reserved": 0, "fusion_lat": 0.0}, {"type": "electric_bike", "rental_uris": {"ios": "https://dc.lft.to/lastmile_qr_scan", "android": "https://dc.lft.to/lastmile_qr_scan"}, "lon": -77.0101225, "fusion_lon": 0.0, "is_disabled": 0, "lat": 38.955934, "bike_id": "b9e543b66ea6751c5ea49aa6dc56e3ed", "name": "b9e543b66ea6751c5ea49aa6dc56e3ed", "is_reserved": 0, "fusion_lat": 0.0}, {"type": "electric_scooter", "rental_uris": {"ios": "https://dc.lft.to/lastmile_qr_scan", "android": "https://dc.lft.to/lastmile_qr_scan"}, "lon": -77.038837, "fusion_lon": 0.0, "is_disabled": 0, "lat": 38.9026185, "bike_id": "2e8f1697f5a205dbdb804e3513bef0c9", "name": "2e8f1697f5a205dbdb804e3513bef0c9", "is_reserved": 0, "fusion_lat": 0.0}, {"type": "electric_scooter", "rental_uris": {"ios": "https://dc.lft.to/lastmile_qr_scan", "android": "https://dc.lft.to/lastmile_qr_scan"}, "lon": -77.03961683333333, "fusion_lon": 0.0, "is_disabled": 0, "lat": 38.8924345, "bike_id": "86a865ae49f83ce64fae411d0d6194e5", "name": "86a865ae49f83ce64fae411d0d6194e5", "is_reserved": 0, "fusion_lat": 0.0}, {"type": "electric_scooter", "rental_uris": {"ios": "https://dc.lft.to/lastmile_qr_scan", "android": "https://dc.lft.to/lastmile_qr_scan"}, "lon": -77.04370416666667, "fusion_lon": 0.0, "is_disabled": 0, "lat": 38.933279666666664, "bike_id": "338b5cade055d9d7aec683282b41fa5b", "name": "338b5cade055d9d7aec683282b41fa5b", "is_reserved": 0, "fusion_lat": 0.0}, {"type": "electric_bike", "rental_uris": {"ios": "https://dc.lft.to/lastmile_qr_scan", "android": "https://dc.lft.to/lastmile_qr_scan"}, "lon": -76.989949, "fusion_lon": 0.0, "is_disabled": 0, "lat": 38.863892, "bike_id": "defc01f4f6277dd5d4682374faa627b4", "name": "defc01f4f6277dd5d4682374faa627b4", "is_reserved": 0, "fusion_lat": 0.0}, {"type": "electric_scooter", "rental_uris": {"ios": "https://dc.lft.to/lastmile_qr_scan", "android": "https://dc.lft.to/lastmile_qr_scan"}, "lon": -77.028283, "fusion_lon": 0.0, "is_disabled": 0, "lat": 38.887365833333334, "bike_id": "4f2605227dd8a440146e440bbfc1113e", "name": "4f2605227dd8a440146e440bbfc1113e", "is_reserved": 0, "fusion_lat": 0.0}, {"type": "electric_bike", "rental_uris": {"ios": "https://dc.lft.to/lastmile_qr_scan", "android": "https://dc.lft.to/lastmile_qr_scan"}, "lon": -76.98300633333334, "fusion_lon": 0.0, "is_disabled": 0, "lat": 38.9628665, "bike_id": "4b278646a10791943944611bfc27cd57", "name": "4b278646a10791943944611bfc27cd57", "is_reserved": 0, "fusion_lat": 0.0}, {"type": "electric_scooter", "rental_uris": {"ios": "https://dc.lft.to/lastmile_qr_scan", "android": "https://dc.lft.to/lastmile_qr_scan"}, "lon": -77.03314516666667, "fusion_lon": 0.0, "is_disabled": 0, "lat": 38.93197383333333, "bike_id": "c70cb8fbc52e6b8fe60f5b655dbb2555", "name": "c70cb8fbc52e6b8fe60f5b655dbb2555", "is_reserved": 0, "fusion_lat": 0.0}, {"type": "electric_scooter", "rental_uris": {"ios": "https://dc.lft.to/lastmile_qr_scan", "android": "https://dc.lft.to/lastmile_qr_scan"}, "lon": -76.966839, "fusion_lon": 0.0, "is_disabled": 0, "lat": 38.86958166666667, "bike_id": "c58ae6118b807d809a1c9ff7d0a4108d", "name": "c58ae6118b807d809a1c9ff7d0a4108d", "is_reserved": 0, "fusion_lat": 0.0}, {"type": "electric_scooter", "rental_uris": {"ios": "https://dc.lft.to/lastmile_qr_scan", "android": "https://dc.lft.to/lastmile_qr_scan"}, "lon": -77.02225116666666, "fusion_lon": 0.0, "is_disabled": 0, "lat": 38.93550966666667, "bike_id": "a152e1048ae7e1fe72c02008562c74e3", "name": "a152e1048ae7e1fe72c02008562c74e3", "is_reserved": 0, "fusion_lat": 0.0}, {"type": "electric_scooter", "rental_uris": {"ios": "https://dc.lft.to/lastmile_qr_scan", "android": "https://dc.lft.to/lastmile_qr_scan"}, "lon": -77.0269435, "fusion_lon": 0.0, "is_disabled": 0, "lat": 38.90688166666666, "bike_id": "d13602ff1e8a071e067c7280757e0552", "name": "d13602ff1e8a071e067c7280757e0552", "is_reserved": 0, "fusion_lat": 0.0}, {"type": "electric_scooter", "rental_uris": {"ios": "https://dc.lft.to/lastmile_qr_scan", "android": "https://dc.lft.to/lastmile_qr_scan"}, "lon": -77.07284333333334, "fusion_lon": 0.0, "is_disabled": 0, "lat": 38.93487666666667, "bike_id": "92004ce6ea3b2c4c6cb9b887f136c1fe", "name": "92004ce6ea3b2c4c6cb9b887f136c1fe", "is_reserved": 0, "fusion_lat": 0.0}, {"type": "electric_scooter", "rental_uris": {"ios": "https://dc.lft.to/lastmile_qr_scan", "android": "https://dc.lft.to/lastmile_qr_scan"}, "lon": -77.03743066666667, "fusion_lon": 0.0, "is_disabled": 0, "lat": 38.929331833333336, "bike_id": "dcb3e8c3ecbf2464cc7372ec9551f9b4", "name": "dcb3e8c3ecbf2464cc7372ec9551f9b4", "is_reserved": 0, "fusion_lat": 0.0}, {"type": "electric_bike", "rental_uris": {"ios": "https://dc.lft.to/lastmile_qr_scan", "android": "https://dc.lft.to/lastmile_qr_scan"}, "lon": -76.99130083333333, "fusion_lon": 0.0, "is_disabled": 0, "lat": 38.84642383333333, "bike_id": "9bf86100bb7155d4117f0a3852b0f122", "name": "9bf86100bb7155d4117f0a3852b0f122", "is_reserved": 0, "fusion_lat": 0.0}, {"type": "electric_scooter", "rental_uris": {"ios": "https://dc.lft.to/lastmile_qr_scan", "android": "https://dc.lft.to/lastmile_qr_scan"}, "lon": -76.948784, "fusion_lon": 0.0, "is_disabled": 0, "lat": 38.895011, "bike_id": "0f4e30e32d589f868af1c504df8d0440", "name": "0f4e30e32d589f868af1c504df8d0440", "is_reserved": 0, "fusion_lat": 0.0}, {"type": "electric_scooter", "rental_uris": {"ios": "https://dc.lft.to/lastmile_qr_scan", "android": "https://dc.lft.to/lastmile_qr_scan"}, "lon": -77.02472733333333, "fusion_lon": 0.0, "is_disabled": 0, "lat": 38.931096833333335, "bike_id": "b1774d97ca6f065ffe38bb5e57523016", "name": "b1774d97ca6f065ffe38bb5e57523016", "is_reserved": 0, "fusion_lat": 0.0}, {"type": "electric_scooter", "rental_uris": {"ios": "https://dc.lft.to/lastmile_qr_scan", "android": "https://dc.lft.to/lastmile_qr_scan"}, "lon": -77.02223666666667, "fusion_lon": 0.0, "is_disabled": 0, "lat": 38.8922285, "bike_id": "c04a32e85841738471ffcfa6cf09ab96", "name": "c04a32e85841738471ffcfa6cf09ab96", "is_reserved": 0, "fusion_lat": 0.0}, {"type": "electric_bike", "rental_uris": {"ios": "https://dc.lft.to/lastmile_qr_scan", "android": "https://dc.lft.to/lastmile_qr_scan"}, "lon": -77.05645666666666, "fusion_lon": 0.0, "is_disabled": 0, "lat": 38.93692133333333, "bike_id": "f19e56891a5bbd1fefa7c2780fbc8fe6", "name": "f19e56891a5bbd1fefa7c2780fbc8fe6", "is_reserved": 0, "fusion_lat": 0.0}, {"type": "electric_scooter", "rental_uris": {"ios": "https://dc.lft.to/lastmile_qr_scan", "android": "https://dc.lft.to/lastmile_qr_scan"}, "lon": -77.04178533333334, "fusion_lon": 0.0, "is_disabled": 0, "lat": 38.918104666666665, "bike_id": "465bb90cac88f8c0c4988db0251c4965", "name": "465bb90cac88f8c0c4988db0251c4965", "is_reserved": 0, "fusion_lat": 0.0}, {"type": "electric_scooter", "rental_uris": {"ios": "https://dc.lft.to/lastmile_qr_scan", "android": "https://dc.lft.to/lastmile_qr_scan"}, "lon": -77.02716416666667, "fusion_lon": 0.0, "is_disabled": 0, "lat": 38.906881, "bike_id": "983c59425ccbb2bf71557d3cb88f2b79", "name": "983c59425ccbb2bf71557d3cb88f2b79", "is_reserved": 0, "fusion_lat": 0.0}, {"type": "electric_scooter", "rental_uris": {"ios": "https://dc.lft.to/lastmile_qr_scan", "android": "https://dc.lft.to/lastmile_qr_scan"}, "lon": -77.01966366666667, "fusion_lon": 0.0, "is_disabled": 0, "lat": 38.93000466666667, "bike_id": "b268c5d81f797f43f1415926f453820a", "name": "b268c5d81f797f43f1415926f453820a", "is_reserved": 0, "fusion_lat": 0.0}, {"type": "electric_scooter", "rental_uris": {"ios": "https://dc.lft.to/lastmile_qr_scan", "android": "https://dc.lft.to/lastmile_qr_scan"}, "lon": -76.98172516666666, "fusion_lon": 0.0, "is_disabled": 0, "lat": 38.8568125, "bike_id": "f5fa9ac516813720b4c218452c939472", "name": "f5fa9ac516813720b4c218452c939472", "is_reserved": 0, "fusion_lat": 0.0}, {"type": "electric_scooter", "rental_uris": {"ios": "https://dc.lft.to/lastmile_qr_scan", "android": "https://dc.lft.to/lastmile_qr_scan"}, "lon": -77.04298766666666, "fusion_lon": 0.0, "is_disabled": 0, "lat": 38.901454666666666, "bike_id": "97ba7b468837d38d3793ac309ca8b4ea", "name": "97ba7b468837d38d3793ac309ca8b4ea", "is_reserved": 0, "fusion_lat": 0.0}, {"type": "electric_bike", "rental_uris": {"ios": "https://dc.lft.to/lastmile_qr_scan", "android": "https://dc.lft.to/lastmile_qr_scan"}, "lon": -76.9977135, "fusion_lon": 0.0, "is_disabled": 0, "lat": 38.83738566666667, "bike_id": "1ff39eb75f11b9334ec95eb43be8e5bd", "name": "1ff39eb75f11b9334ec95eb43be8e5bd", "is_reserved": 0, "fusion_lat": 0.0}, {"type": "electric_scooter", "rental_uris": {"ios": "https://dc.lft.to/lastmile_qr_scan", "android": "https://dc.lft.to/lastmile_qr_scan"}, "lon": -76.93345516666666, "fusion_lon": 0.0, "is_disabled": 0, "lat": 38.88814466666667, "bike_id": "46c6561e63c1b2a988537af3bbc1b8c1", "name": "46c6561e63c1b2a988537af3bbc1b8c1", "is_reserved": 0, "fusion_lat": 0.0}, {"type": "electric_scooter", "rental_uris": {"ios": "https://dc.lft.to/lastmile_qr_scan", "android": "https://dc.lft.to/lastmile_qr_scan"}, "lon": -77.03990166666667, "fusion_lon": 0.0, "is_disabled": 0, "lat": 38.913328, "bike_id": "34153b5ccaea7d3e9359e0c223fafba6", "name": "34153b5ccaea7d3e9359e0c223fafba6", "is_reserved": 0, "fusion_lat": 0.0}, {"type": "electric_bike", "rental_uris": {"ios": "https://dc.lft.to/lastmile_qr_scan", "android": "https://dc.lft.to/lastmile_qr_scan"}, "lon": -77.0332995, "fusion_lon": 0.0, "is_disabled": 0, "lat": 38.920619333333335, "bike_id": "db53a847fdfd38c2f9520201e5a9754f", "name": "db53a847fdfd38c2f9520201e5a9754f", "is_reserved": 0, "fusion_lat": 0.0}, {"type": "electric_bike", "rental_uris": {"ios": "https://dc.lft.to/lastmile_qr_scan", "android": "https://dc.lft.to/lastmile_qr_scan"}, "lon": -77.00573316666667, "fusion_lon": 0.0, "is_disabled": 0, "lat": 38.83989583333333, "bike_id": "ab919e9d6e515b93db386d2db7f07f57", "name": "ab919e9d6e515b93db386d2db7f07f57", "is_reserved": 0, "fusion_lat": 0.0}, {"type": "electric_bike", "rental_uris": {"ios": "https://dc.lft.to/lastmile_qr_scan", "android": "https://dc.lft.to/lastmile_qr_scan"}, "lon": -77.0144745, "fusion_lon": 0.0, "is_disabled": 0, "lat": 38.876765, "bike_id": "f7f2496796f56cd2bdee693e3c76c63d", "name": "f7f2496796f56cd2bdee693e3c76c63d", "is_reserved": 0, "fusion_lat": 0.0}, {"type": "electric_scooter", "rental_uris": {"ios": "https://dc.lft.to/lastmile_qr_scan", "android": "https://dc.lft.to/lastmile_qr_scan"}, "lon": -77.0320345, "fusion_lon": 0.0, "is_disabled": 0, "lat": 38.9177765, "bike_id": "98d071276669afd46c0fbafeafaa1704", "name": "98d071276669afd46c0fbafeafaa1704", "is_reserved": 0, "fusion_lat": 0.0}, {"type": "electric_scooter", "rental_uris": {"ios": "https://dc.lft.to/lastmile_qr_scan", "android": "https://dc.lft.to/lastmile_qr_scan"}, "lon": -77.03163483333333, "fusion_lon": 0.0, "is_disabled": 0, "lat": 38.8922525, "bike_id": "984bc97cef6e6b563bd233adbdbdcc4b", "name": "984bc97cef6e6b563bd233adbdbdcc4b", "is_reserved": 0, "fusion_lat": 0.0}, {"type": "electric_scooter", "rental_uris": {"ios": "https://dc.lft.to/lastmile_qr_scan", "android": "https://dc.lft.to/lastmile_qr_scan"}, "lon": -77.032102, "fusion_lon": 0.0, "is_disabled": 0, "lat": 38.90890266666667, "bike_id": "411264876dfc76707fe995c459b5cbcd", "name": "411264876dfc76707fe995c459b5cbcd", "is_reserved": 0, "fusion_lat": 0.0}, {"type": "electric_scooter", "rental_uris": {"ios": "https://dc.lft.to/lastmile_qr_scan", "android": "https://dc.lft.to/lastmile_qr_scan"}, "lon": -77.07056683333333, "fusion_lon": 0.0, "is_disabled": 0, "lat": 38.93180233333333, "bike_id": "7d40db50369752de6f727e25dca74c69", "name": "7d40db50369752de6f727e25dca74c69", "is_reserved": 0, "fusion_lat": 0.0}, {"type": "electric_scooter", "rental_uris": {"ios": "https://dc.lft.to/lastmile_qr_scan", "android": "https://dc.lft.to/lastmile_qr_scan"}, "lon": -76.985232, "fusion_lon": 0.0, "is_disabled": 0, "lat": 38.86685716666667, "bike_id": "98a065f8f8819bcd7b1f5f0a2a298c5d", "name": "98a065f8f8819bcd7b1f5f0a2a298c5d", "is_reserved": 0, "fusion_lat": 0.0}, {"type": "electric_scooter", "rental_uris": {"ios": "https://dc.lft.to/lastmile_qr_scan", "android": "https://dc.lft.to/lastmile_qr_scan"}, "lon": -77.02496, "fusion_lon": 0.0, "is_disabled": 0, "lat": 38.91807283333333, "bike_id": "58e56004c566cd7eafc65632de82a54e", "name": "58e56004c566cd7eafc65632de82a54e", "is_reserved": 0, "fusion_lat": 0.0}, {"type": "electric_scooter", "rental_uris": {"ios": "https://dc.lft.to/lastmile_qr_scan", "android": "https://dc.lft.to/lastmile_qr_scan"}, "lon": -77.03404266666666, "fusion_lon": 0.0, "is_disabled": 0, "lat": 38.920424833333335, "bike_id": "b22c1580536192f727e9bf36c1086c11", "name": "b22c1580536192f727e9bf36c1086c11", "is_reserved": 0, "fusion_lat": 0.0}, {"type": "electric_scooter", "rental_uris": {"ios": "https://dc.lft.to/lastmile_qr_scan", "android": "https://dc.lft.to/lastmile_qr_scan"}, "lon": -76.985274, "fusion_lon": 0.0, "is_disabled": 0, "lat": 38.86686533333334, "bike_id": "69f7de4034dac7c129a1a87a1d7319e0", "name": "69f7de4034dac7c129a1a87a1d7319e0", "is_reserved": 0, "fusion_lat": 0.0}, {"type": "electric_scooter", "rental_uris": {"ios": "https://dc.lft.to/lastmile_qr_scan", "android": "https://dc.lft.to/lastmile_qr_scan"}, "lon": -77.03535466666666, "fusion_lon": 0.0, "is_disabled": 0, "lat": 38.9253755, "bike_id": "c7eda3d88ce9d84eaedc50ffbfa2f118", "name": "c7eda3d88ce9d84eaedc50ffbfa2f118", "is_reserved": 0, "fusion_lat": 0.0}, {"type": "electric_scooter", "rental_uris": {"ios": "https://dc.lft.to/lastmile_qr_scan", "android": "https://dc.lft.to/lastmile_qr_scan"}, "lon": -77.022044, "fusion_lon": 0.0, "is_disabled": 0, "lat": 38.915471833333335, "bike_id": "ca2bd29495049277d954de39f2383c5a", "name": "ca2bd29495049277d954de39f2383c5a", "is_reserved": 0, "fusion_lat": 0.0}, {"type": "electric_bike", "rental_uris": {"ios": "https://dc.lft.to/lastmile_qr_scan", "android": "https://dc.lft.to/lastmile_qr_scan"}, "lon": -77.12527216666666, "fusion_lon": 0.0, "is_disabled": 0, "lat": 39.05640783333333, "bike_id": "ca579b26c9dacbddf6a107b69a9729af", "name": "ca579b26c9dacbddf6a107b69a9729af", "is_reserved": 0, "fusion_lat": 0.0}, {"type": "electric_scooter", "rental_uris": {"ios": "https://dc.lft.to/lastmile_qr_scan", "android": "https://dc.lft.to/lastmile_qr_scan"}, "lon": -77.03792933333334, "fusion_lon": 0.0, "is_disabled": 0, "lat": 38.9112, "bike_id": "895ec3a2f1961c380cce1c0b7228d5f8", "name": "895ec3a2f1961c380cce1c0b7228d5f8", "is_reserved": 0, "fusion_lat": 0.0}, {"type": "electric_scooter", "rental_uris": {"ios": "https://dc.lft.to/lastmile_qr_scan", "android": "https://dc.lft.to/lastmile_qr_scan"}, "lon": -77.02226966666667, "fusion_lon": 0.0, "is_disabled": 0, "lat": 38.89224333333333, "bike_id": "32f2095c09fc3fdf094a0edf388d69c9", "name": "32f2095c09fc3fdf094a0edf388d69c9", "is_reserved": 0, "fusion_lat": 0.0}, {"type": "electric_scooter", "rental_uris": {"ios": "https://dc.lft.to/lastmile_qr_scan", "android": "https://dc.lft.to/lastmile_qr_scan"}, "lon": -76.98394433333333, "fusion_lon": 0.0, "is_disabled": 0, "lat": 38.88092133333333, "bike_id": "a46e3955f44f019cfec16e60924ec649", "name": "a46e3955f44f019cfec16e60924ec649", "is_reserved": 0, "fusion_lat": 0.0}, {"type": "electric_scooter", "rental_uris": {"ios": "https://dc.lft.to/lastmile_qr_scan", "android": "https://dc.lft.to/lastmile_qr_scan"}, "lon": -77.011787, "fusion_lon": 0.0, "is_disabled": 0, "lat": 38.91567083333333, "bike_id": "a3d1a20c33290a8cd3d94da274e5e150", "name": "a3d1a20c33290a8cd3d94da274e5e150", "is_reserved": 0, "fusion_lat": 0.0}, {"type": "electric_scooter", "rental_uris": {"ios": "https://dc.lft.to/lastmile_qr_scan", "android": "https://dc.lft.to/lastmile_qr_scan"}, "lon": -76.9465645, "fusion_lon": 0.0, "is_disabled": 0, "lat": 38.89830116666667, "bike_id": "906818e606bc380a5fe032a30f54004f", "name": "906818e606bc380a5fe032a30f54004f", "is_reserved": 0, "fusion_lat": 0.0}, {"type": "electric_scooter", "rental_uris": {"ios": "https://dc.lft.to/lastmile_qr_scan", "android": "https://dc.lft.to/lastmile_qr_scan"}, "lon": -77.03181716666667, "fusion_lon": 0.0, "is_disabled": 0, "lat": 38.918656166666665, "bike_id": "4009d71eef053328104672428b76f49c", "name": "4009d71eef053328104672428b76f49c", "is_reserved": 0, "fusion_lat": 0.0}, {"type": "electric_scooter", "rental_uris": {"ios": "https://dc.lft.to/lastmile_qr_scan", "android": "https://dc.lft.to/lastmile_qr_scan"}, "lon": -77.02626266666667, "fusion_lon": 0.0, "is_disabled": 0, "lat": 38.9017605, "bike_id": "2a7ebfd3ddfcd318a7b0c14e787d6948", "name": "2a7ebfd3ddfcd318a7b0c14e787d6948", "is_reserved": 0, "fusion_lat": 0.0}, {"type": "electric_scooter", "rental_uris": {"ios": "https://dc.lft.to/lastmile_qr_scan", "android": "https://dc.lft.to/lastmile_qr_scan"}, "lon": -77.036418, "fusion_lon": 0.0, "is_disabled": 0, "lat": 38.917644, "bike_id": "a1d1984356191c8d081aeaca22eef4b9", "name": "a1d1984356191c8d081aeaca22eef4b9", "is_reserved": 0, "fusion_lat": 0.0}, {"type": "electric_scooter", "rental_uris": {"ios": "https://dc.lft.to/lastmile_qr_scan", "android": "https://dc.lft.to/lastmile_qr_scan"}, "lon": -77.01539283333334, "fusion_lon": 0.0, "is_disabled": 0, "lat": 38.887397666666665, "bike_id": "750789fed6a77f8176a7418230e07d47", "name": "750789fed6a77f8176a7418230e07d47", "is_reserved": 0, "fusion_lat": 0.0}, {"type": "electric_scooter", "rental_uris": {"ios": "https://dc.lft.to/lastmile_qr_scan", "android": "https://dc.lft.to/lastmile_qr_scan"}, "lon": -77.03449, "fusion_lon": 0.0, "is_disabled": 0, "lat": 38.909820333333336, "bike_id": "d37997be4fae2cbf8744614c1ea5990b", "name": "d37997be4fae2cbf8744614c1ea5990b", "is_reserved": 0, "fusion_lat": 0.0}, {"type": "electric_scooter", "rental_uris": {"ios": "https://dc.lft.to/lastmile_qr_scan", "android": "https://dc.lft.to/lastmile_qr_scan"}, "lon": -77.04562666666666, "fusion_lon": 0.0, "is_disabled": 0, "lat": 38.919380333333336, "bike_id": "c8f185ff7d30144b0165e746d1f55b6c", "name": "c8f185ff7d30144b0165e746d1f55b6c", "is_reserved": 0, "fusion_lat": 0.0}, {"type": "electric_scooter", "rental_uris": {"ios": "https://dc.lft.to/lastmile_qr_scan", "android": "https://dc.lft.to/lastmile_qr_scan"}, "lon": -77.04397383333334, "fusion_lon": 0.0, "is_disabled": 0, "lat": 38.90284033333333, "bike_id": "96edcf50b06028098bf3e93647508fef", "name": "96edcf50b06028098bf3e93647508fef", "is_reserved": 0, "fusion_lat": 0.0}, {"type": "electric_scooter", "rental_uris": {"ios": "https://dc.lft.to/lastmile_qr_scan", "android": "https://dc.lft.to/lastmile_qr_scan"}, "lon": -77.03445866666667, "fusion_lon": 0.0, "is_disabled": 0, "lat": 38.91844283333333, "bike_id": "6165c8321b63aad0465524902bae0f7a", "name": "6165c8321b63aad0465524902bae0f7a", "is_reserved": 0, "fusion_lat": 0.0}, {"type": "electric_scooter", "rental_uris": {"ios": "https://dc.lft.to/lastmile_qr_scan", "android": "https://dc.lft.to/lastmile_qr_scan"}, "lon": -77.02970116666667, "fusion_lon": 0.0, "is_disabled": 0, "lat": 38.90533716666667, "bike_id": "d399d51e2f03779fc2ba2afce790ff45", "name": "d399d51e2f03779fc2ba2afce790ff45", "is_reserved": 0, "fusion_lat": 0.0}, {"type": "electric_bike", "rental_uris": {"ios": "https://dc.lft.to/lastmile_qr_scan", "android": "https://dc.lft.to/lastmile_qr_scan"}, "lon": -76.92372333333333, "fusion_lon": 0.0, "is_disabled": 0, "lat": 38.883757833333334, "bike_id": "01f39ce0c794eb5c195b938eb367518d", "name": "01f39ce0c794eb5c195b938eb367518d", "is_reserved": 0, "fusion_lat": 0.0}, {"type": "electric_scooter", "rental_uris": {"ios": "https://dc.lft.to/lastmile_qr_scan", "android": "https://dc.lft.to/lastmile_qr_scan"}, "lon": -77.03451066666666, "fusion_lon": 0.0, "is_disabled": 0, "lat": 38.907426, "bike_id": "3f0ac381ca66b1ffa6a47aaff5a4ec6f", "name": "3f0ac381ca66b1ffa6a47aaff5a4ec6f", "is_reserved": 0, "fusion_lat": 0.0}, {"type": "electric_scooter", "rental_uris": {"ios": "https://dc.lft.to/lastmile_qr_scan", "android": "https://dc.lft.to/lastmile_qr_scan"}, "lon": -77.0240585, "fusion_lon": 0.0, "is_disabled": 0, "lat": 38.9174935, "bike_id": "2c01f4dd662e115c34169526e6f99268", "name": "2c01f4dd662e115c34169526e6f99268", "is_reserved": 0, "fusion_lat": 0.0}, {"type": "electric_bike", "rental_uris": {"ios": "https://dc.lft.to/lastmile_qr_scan", "android": "https://dc.lft.to/lastmile_qr_scan"}, "lon": -76.92327983333334, "fusion_lon": 0.0, "is_disabled": 0, "lat": 38.87112666666667, "bike_id": "b8e73eebfede35094f8952fb4c2f5470", "name": "b8e73eebfede35094f8952fb4c2f5470", "is_reserved": 0, "fusion_lat": 0.0}, {"type": "electric_scooter", "rental_uris": {"ios": "https://dc.lft.to/lastmile_qr_scan", "android": "https://dc.lft.to/lastmile_qr_scan"}, "lon": -76.98779816666666, "fusion_lon": 0.0, "is_disabled": 0, "lat": 38.89827733333333, "bike_id": "ebd6fb968e955e298ae9dc0173be6bc5", "name": "ebd6fb968e955e298ae9dc0173be6bc5", "is_reserved": 0, "fusion_lat": 0.0}, {"type": "electric_bike", "rental_uris": {"ios": "https://dc.lft.to/lastmile_qr_scan", "android": "https://dc.lft.to/lastmile_qr_scan"}, "lon": -77.09964866666667, "fusion_lon": 0.0, "is_disabled": 0, "lat": 38.933610333333334, "bike_id": "c1d3dbdfc639b46b8f5361589d91bb2b", "name": "c1d3dbdfc639b46b8f5361589d91bb2b", "is_reserved": 0, "fusion_lat": 0.0}, {"type": "electric_scooter", "rental_uris": {"ios": "https://dc.lft.to/lastmile_qr_scan", "android": "https://dc.lft.to/lastmile_qr_scan"}, "lon": -77.03481966666666, "fusion_lon": 0.0, "is_disabled": 0, "lat": 38.93267066666667, "bike_id": "fdcd7ec0e946561e22f6f22cc7fcb394", "name": "fdcd7ec0e946561e22f6f22cc7fcb394", "is_reserved": 0, "fusion_lat": 0.0}, {"type": "electric_scooter", "rental_uris": {"ios": "https://dc.lft.to/lastmile_qr_scan", "android": "https://dc.lft.to/lastmile_qr_scan"}, "lon": -77.05133816666667, "fusion_lon": 0.0, "is_disabled": 0, "lat": 38.92365816666667, "bike_id": "86ed7b0b8e34b27ff933b332353e13e2", "name": "86ed7b0b8e34b27ff933b332353e13e2", "is_reserved": 0, "fusion_lat": 0.0}, {"type": "electric_scooter", "rental_uris": {"ios": "https://dc.lft.to/lastmile_qr_scan", "android": "https://dc.lft.to/lastmile_qr_scan"}, "lon": -77.04265083333334, "fusion_lon": 0.0, "is_disabled": 0, "lat": 38.92199766666667, "bike_id": "6b0e6dcb6a96ed63c3e8a6f71f1d7028", "name": "6b0e6dcb6a96ed63c3e8a6f71f1d7028", "is_reserved": 0, "fusion_lat": 0.0}, {"type": "electric_scooter", "rental_uris": {"ios": "https://dc.lft.to/lastmile_qr_scan", "android": "https://dc.lft.to/lastmile_qr_scan"}, "lon": -77.0414345, "fusion_lon": 0.0, "is_disabled": 0, "lat": 38.9265085, "bike_id": "6ae0569b3356eedfecbe33af30927ab9", "name": "6ae0569b3356eedfecbe33af30927ab9", "is_reserved": 0, "fusion_lat": 0.0}, {"type": "electric_scooter", "rental_uris": {"ios": "https://dc.lft.to/lastmile_qr_scan", "android": "https://dc.lft.to/lastmile_qr_scan"}, "lon": -77.01212283333334, "fusion_lon": 0.0, "is_disabled": 0, "lat": 38.89331966666666, "bike_id": "ad3b83d904761a1eb257a0430f3f8a0f", "name": "ad3b83d904761a1eb257a0430f3f8a0f", "is_reserved": 0, "fusion_lat": 0.0}, {"type": "electric_scooter", "rental_uris": {"ios": "https://dc.lft.to/lastmile_qr_scan", "android": "https://dc.lft.to/lastmile_qr_scan"}, "lon": -77.03212766666667, "fusion_lon": 0.0, "is_disabled": 0, "lat": 38.89225283333333, "bike_id": "1b0c85c7ba162218a72e51864b75ffad", "name": "1b0c85c7ba162218a72e51864b75ffad", "is_reserved": 0, "fusion_lat": 0.0}, {"type": "electric_scooter", "rental_uris": {"ios": "https://dc.lft.to/lastmile_qr_scan", "android": "https://dc.lft.to/lastmile_qr_scan"}, "lon": -76.957611, "fusion_lon": 0.0, "is_disabled": 0, "lat": 38.884321, "bike_id": "ff700b73fa8eed1db5dd754ba0d5a5d2", "name": "ff700b73fa8eed1db5dd754ba0d5a5d2", "is_reserved": 0, "fusion_lat": 0.0}, {"type": "electric_scooter", "rental_uris": {"ios": "https://dc.lft.to/lastmile_qr_scan", "android": "https://dc.lft.to/lastmile_qr_scan"}, "lon": -77.03441766666667, "fusion_lon": 0.0, "is_disabled": 0, "lat": 38.930950333333335, "bike_id": "3438678318bf938018a65e4bf6f0da7e", "name": "3438678318bf938018a65e4bf6f0da7e", "is_reserved": 0, "fusion_lat": 0.0}, {"type": "electric_scooter", "rental_uris": {"ios": "https://dc.lft.to/lastmile_qr_scan", "android": "https://dc.lft.to/lastmile_qr_scan"}, "lon": -77.02131666666666, "fusion_lon": 0.0, "is_disabled": 0, "lat": 38.8874735, "bike_id": "4e6b277042dc7210b83720d1e1f9ab08", "name": "4e6b277042dc7210b83720d1e1f9ab08", "is_reserved": 0, "fusion_lat": 0.0}, {"type": "electric_scooter", "rental_uris": {"ios": "https://dc.lft.to/lastmile_qr_scan", "android": "https://dc.lft.to/lastmile_qr_scan"}, "lon": -76.95537333333333, "fusion_lon": 0.0, "is_disabled": 0, "lat": 38.88776566666667, "bike_id": "b0251a94ac5ef318d05d6ee2e11cfc7f", "name": "b0251a94ac5ef318d05d6ee2e11cfc7f", "is_reserved": 0, "fusion_lat": 0.0}, {"type": "electric_bike", "rental_uris": {"ios": "https://dc.lft.to/lastmile_qr_scan", "android": "https://dc.lft.to/lastmile_qr_scan"}, "lon": -77.10593466666667, "fusion_lon": 0.0, "is_disabled": 0, "lat": 38.928931166666665, "bike_id": "ee631e23964bc57c364ce491f2d2343f", "name": "ee631e23964bc57c364ce491f2d2343f", "is_reserved": 0, "fusion_lat": 0.0}, {"type": "electric_scooter", "rental_uris": {"ios": "https://dc.lft.to/lastmile_qr_scan", "android": "https://dc.lft.to/lastmile_qr_scan"}, "lon": -77.0157595, "fusion_lon": 0.0, "is_disabled": 0, "lat": 38.91684883333333, "bike_id": "aa072f0c2cdfb0589d5b83ae086aebe5", "name": "aa072f0c2cdfb0589d5b83ae086aebe5", "is_reserved": 0, "fusion_lat": 0.0}, {"type": "electric_scooter", "rental_uris": {"ios": "https://dc.lft.to/lastmile_qr_scan", "android": "https://dc.lft.to/lastmile_qr_scan"}, "lon": -77.0114285, "fusion_lon": 0.0, "is_disabled": 0, "lat": 38.91703666666667, "bike_id": "21d4275c8280a0bcd91fd8906dd70ff9", "name": "21d4275c8280a0bcd91fd8906dd70ff9", "is_reserved": 0, "fusion_lat": 0.0}, {"type": "electric_scooter", "rental_uris": {"ios": "https://dc.lft.to/lastmile_qr_scan", "android": "https://dc.lft.to/lastmile_qr_scan"}, "lon": -77.03238766666666, "fusion_lon": 0.0, "is_disabled": 0, "lat": 38.90283133333333, "bike_id": "bd1b7338f32412100d8cc701ea0524d9", "name": "bd1b7338f32412100d8cc701ea0524d9", "is_reserved": 0, "fusion_lat": 0.0}, {"type": "electric_scooter", "rental_uris": {"ios": "https://dc.lft.to/lastmile_qr_scan", "android": "https://dc.lft.to/lastmile_qr_scan"}, "lon": -77.03152883333334, "fusion_lon": 0.0, "is_disabled": 0, "lat": 38.89972, "bike_id": "d8a4cae447b4b4eb4374e67312e26f2e", "name": "d8a4cae447b4b4eb4374e67312e26f2e", "is_reserved": 0, "fusion_lat": 0.0}, {"type": "electric_scooter", "rental_uris": {"ios": "https://dc.lft.to/lastmile_qr_scan", "android": "https://dc.lft.to/lastmile_qr_scan"}, "lon": -77.04035933333333, "fusion_lon": 0.0, "is_disabled": 0, "lat": 38.924436166666666, "bike_id": "30f2d48e00461f752814bc9c25bb4270", "name": "30f2d48e00461f752814bc9c25bb4270", "is_reserved": 0, "fusion_lat": 0.0}, {"type": "electric_scooter", "rental_uris": {"ios": "https://dc.lft.to/lastmile_qr_scan", "android": "https://dc.lft.to/lastmile_qr_scan"},