{"data": {"bikes": [{"rental_uris": {"android": "https://dc.lft.to/lastmile_qr_scan", "ios": "https://dc.lft.to/lastmile_qr_scan"}, "type": "electric_scooter", "lon": -77.0208985, "name": "4cfb843c6434ca3d31397cc96cb77d74", "bike_id": "4cfb843c6434ca3d31397cc96cb77d74", "fusion_lat": 0.0, "is_reserved": 0, "lat": 38.929154833333335, "fusion_lon": 0.0, "is_disabled": 0}, {"rental_uris": {"android": "https://dc.lft.to/lastmile_qr_scan", "ios": "https://dc.lft.to/lastmile_qr_scan"}, "type": "electric_scooter", "lon": -77.02112016666666, "name": "1e95dbb86e24cb782463eb803bc3bda3", "bike_id": "1e95dbb86e24cb782463eb803bc3bda3", "fusion_lat": 0.0, "is_reserved": 0, "lat": 38.9409995, "fusion_lon": 0.0, "is_disabled": 0}, {"rental_uris": {"android": "https://dc.lft.to/lastmile_qr_scan", "ios": "https://dc.lft.to/lastmile_qr_scan"}, "type": "electric_scooter", "lon": -77.06522566666666, "name": "3e2d3aecec7c4754afab87f88611f7f1", "bike_id": "3e2d3aecec7c4754afab87f88611f7f1", "fusion_lat": 0.0, "is_reserved": 0, "lat": 38.90527016666667, "fusion_lon": 0.0, "is_disabled": 0}, {"rental_uris": {"android": "https://dc.lft.to/lastmile_qr_scan", "ios": "https://dc.lft.to/lastmile_qr_scan"}, "type": "electric_scooter", "lon": -77.0269425, "name": "db495ea6a52aef9cc6ef3ab955fedc9a", "bike_id": "db495ea6a52aef9cc6ef3ab955fedc9a", "fusion_lat": 0.0, "is_reserved": 0, "lat": 38.9084615, "fusion_lon": 0.0, "is_disabled": 0}, {"rental_uris": {"android": "https://dc.lft.to/lastmile_qr_scan", "ios": "https://dc.lft.to/lastmile_qr_scan"}, "type": "electric_scooter", "lon": -77.04044866666666, "name": "731ed17de0832a7efbb92b1e6ee060ef", "bike_id": "731ed17de0832a7efbb92b1e6ee060ef", "fusion_lat": 0.0, "is_reserved": 0, "lat": 38.90584166666667, "fusion_lon": 0.0, "is_disabled": 0}, {"rental_uris": {"android": "https://dc.lft.to/lastmile_qr_scan", "ios": "https://dc.lft.to/lastmile_qr_scan"}, "type": "electric_scooter", "lon": -76.99946416666667, "name": "f38bd8be3768a9e34735fcdd1f1301bb", "bike_id": "f38bd8be3768a9e34735fcdd1f1301bb", "fusion_lat": 0.0, "is_reserved": 0, "lat": 38.842954666666664, "fusion_lon": 0.0, "is_disabled": 0}, {"rental_uris": {"android": "https://dc.lft.to/lastmile_qr_scan", "ios": "https://dc.lft.to/lastmile_qr_scan"}, "type": "electric_bike", "lon": -77.01454483333333, "name": "63fc0fa99366d56ac3a587322a0ec3d1", "bike_id": "63fc0fa99366d56ac3a587322a0ec3d1", "fusion_lat": 0.0, "is_reserved": 0, "lat": 38.8680005, "fusion_lon": 0.0, "is_disabled": 0}, {"rental_uris": {"android": "https://dc.lft.to/lastmile_qr_scan", "ios": "https://dc.lft.to/lastmile_qr_scan"}, "type": "electric_scooter", "lon": -77.0185865, "name": "c4c44db3cb89d863dc8907b7b736c8ed", "bike_id": "c4c44db3cb89d863dc8907b7b736c8ed", "fusion_lat": 0.0, "is_reserved": 0, "lat": 38.8771535, "fusion_lon": 0.0, "is_disabled": 0}, {"rental_uris": {"android": "https://dc.lft.to/lastmile_qr_scan", "ios": "https://dc.lft.to/lastmile_qr_scan"}, "type": "electric_scooter", "lon": -77.006433, "name": "094f4c388117c3669c3b29bd889131e1", "bike_id": "094f4c388117c3669c3b29bd889131e1", "fusion_lat": 0.0, "is_reserved": 0, "lat": 38.8833905, "fusion_lon": 0.0, "is_disabled": 0}, {"rental_uris": {"android": "https://dc.lft.to/lastmile_qr_scan", "ios": "https://dc.lft.to/lastmile_qr_scan"}, "type": "electric_scooter", "lon": -77.01203916666667, "name": "ed7371602e99decfce849b8831139f37", "bike_id": "ed7371602e99decfce849b8831139f37", "fusion_lat": 0.0, "is_reserved": 0, "lat": 38.870956666666665, "fusion_lon": 0.0, "is_disabled": 0}, {"rental_uris": {"android": "https://dc.lft.to/lastmile_qr_scan", "ios": "https://dc.lft.to/lastmile_qr_scan"}, "type": "electric_scooter", "lon": -77.0318325, "name": "8cb3fda56b34249e926974731f30fdea", "bike_id": "8cb3fda56b34249e926974731f30fdea", "fusion_lat": 0.0, "is_reserved": 0, "lat": 38.929833333333335, "fusion_lon": 0.0, "is_disabled": 0}, {"rental_uris": {"android": "https://dc.lft.to/lastmile_qr_scan", "ios": "https://dc.lft.to/lastmile_qr_scan"}, "type": "electric_scooter", "lon": -77.03440933333333, "name": "491b20c8e841c93cbb0368a81a78ee87", "bike_id": "491b20c8e841c93cbb0368a81a78ee87", "fusion_lat": 0.0, "is_reserved": 0, "lat": 38.918339333333336, "fusion_lon": 0.0, "is_disabled": 0}, {"rental_uris": {"android": "https://dc.lft.to/lastmile_qr_scan", "ios": "https://dc.lft.to/lastmile_qr_scan"}, "type": "electric_scooter", "lon": -77.0338815, "name": "ead798ad912fdb0663fde1fc2af59199", "bike_id": "ead798ad912fdb0663fde1fc2af59199", "fusion_lat": 0.0, "is_reserved": 0, "lat": 38.919183, "fusion_lon": 0.0, "is_disabled": 0}, {"rental_uris": {"android": "https://dc.lft.to/lastmile_qr_scan", "ios": "https://dc.lft.to/lastmile_qr_scan"}, "type": "electric_scooter", "lon": -77.01116666666667, "name": "ef25c6e53e5d466d9521dce553315d59", "bike_id": "ef25c6e53e5d466d9521dce553315d59", "fusion_lat": 0.0, "is_reserved": 0, "lat": 38.920320333333336, "fusion_lon": 0.0, "is_disabled": 0}, {"rental_uris": {"android": "https://dc.lft.to/lastmile_qr_scan", "ios": "https://dc.lft.to/lastmile_qr_scan"}, "type": "electric_scooter", "lon": -77.05805483333333, "name": "9625002d44deb44525b3ec4758493dc4", "bike_id": "9625002d44deb44525b3ec4758493dc4", "fusion_lat": 0.0, "is_reserved": 0, "lat": 38.903788166666665, "fusion_lon": 0.0, "is_disabled": 0}, {"rental_uris": {"android": "https://dc.lft.to/lastmile_qr_scan", "ios": "https://dc.lft.to/lastmile_qr_scan"}, "type": "electric_scooter", "lon": -77.025944, "name": "1d0d398934857561b8b4caa7812ea480", "bike_id": "1d0d398934857561b8b4caa7812ea480", "fusion_lat": 0.0, "is_reserved": 0, "lat": 38.900093, "fusion_lon": 0.0, "is_disabled": 0}, {"rental_uris": {"android": "https://dc.lft.to/lastmile_qr_scan", "ios": "https://dc.lft.to/lastmile_qr_scan"}, "type": "electric_scooter", "lon": -77.02096933333333, "name": "64f88e9c3fb5f90111b749efb6611621", "bike_id": "64f88e9c3fb5f90111b749efb6611621", "fusion_lat": 0.0, "is_reserved": 0, "lat": 38.91108716666667, "fusion_lon": 0.0, "is_disabled": 0}, {"rental_uris": {"android": "https://dc.lft.to/lastmile_qr_scan", "ios": "https://dc.lft.to/lastmile_qr_scan"}, "type": "electric_scooter", "lon": -77.02169183333334, "name": "b317c676549962324a71b849b27e88c5", "bike_id": "b317c676549962324a71b849b27e88c5", "fusion_lat": 0.0, "is_reserved": 0, "lat": 38.9429895, "fusion_lon": 0.0, "is_disabled": 0}, {"rental_uris": {"android": "https://dc.lft.to/lastmile_qr_scan", "ios": "https://dc.lft.to/lastmile_qr_scan"}, "type": "electric_scooter", "lon": -77.00574516666667, "name": "4fef3565164578adb90ced347448af07", "bike_id": "4fef3565164578adb90ced347448af07", "fusion_lat": 0.0, "is_reserved": 0, "lat": 38.876349833333336, "fusion_lon": 0.0, "is_disabled": 0}, {"rental_uris": {"android": "https://dc.lft.to/lastmile_qr_scan", "ios": "https://dc.lft.to/lastmile_qr_scan"}, "type": "electric_scooter", "lon": -76.99380666666667, "name": "dfe21692b29ba427387d345692cc984d", "bike_id": "dfe21692b29ba427387d345692cc984d", "fusion_lat": 0.0, "is_reserved": 0, "lat": 38.886961166666666, "fusion_lon": 0.0, "is_disabled": 0}, {"rental_uris": {"android": "https://dc.lft.to/lastmile_qr_scan", "ios": "https://dc.lft.to/lastmile_qr_scan"}, "type": "electric_scooter", "lon": -76.99484233333334, "name": "6645bf9942a7337baeb04ed90a5b86a8", "bike_id": "6645bf9942a7337baeb04ed90a5b86a8", "fusion_lat": 0.0, "is_reserved": 0, "lat": 38.90097516666667, "fusion_lon": 0.0, "is_disabled": 0}, {"rental_uris": {"android": "https://dc.lft.to/lastmile_qr_scan", "ios": "https://dc.lft.to/lastmile_qr_scan"}, "type": "electric_scooter", "lon": -77.04019933333333, "name": "539fda04cb0b82b8379f059387b72dd8", "bike_id": "539fda04cb0b82b8379f059387b72dd8", "fusion_lat": 0.0, "is_reserved": 0, "lat": 38.9027965, "fusion_lon": 0.0, "is_disabled": 0}, {"rental_uris": {"android": "https://dc.lft.to/lastmile_qr_scan", "ios": "https://dc.lft.to/lastmile_qr_scan"}, "type": "electric_bike", "lon": -77.132289, "name": "9228a28659e96dbf91c3592148905743", "bike_id": "9228a28659e96dbf91c3592148905743", "fusion_lat": 0.0, "is_reserved": 0, "lat": 38.869761833333335, "fusion_lon": 0.0, "is_disabled": 0}, {"rental_uris": {"android": "https://dc.lft.to/lastmile_qr_scan", "ios": "https://dc.lft.to/lastmile_qr_scan"}, "type": "electric_scooter", "lon": -77.06824416666667, "name": "bf933a6dd2a205c2b89072f97ad19baa", "bike_id": "bf933a6dd2a205c2b89072f97ad19baa", "fusion_lat": 0.0, "is_reserved": 0, "lat": 38.916433, "fusion_lon": 0.0, "is_disabled": 0}, {"rental_uris": {"android": "https://dc.lft.to/lastmile_qr_scan", "ios": "https://dc.lft.to/lastmile_qr_scan"}, "type": "electric_scooter", "lon": -77.02470616666666, "name": "04f8bdb675e37a08960fc38148d642d5", "bike_id": "04f8bdb675e37a08960fc38148d642d5", "fusion_lat": 0.0, "is_reserved": 0, "lat": 38.926535333333334, "fusion_lon": 0.0, "is_disabled": 0}, {"rental_uris": {"android": "https://dc.lft.to/lastmile_qr_scan", "ios": "https://dc.lft.to/lastmile_qr_scan"}, "type": "electric_bike", "lon": -76.97980833333334, "name": "46806a0ff1a96c7b9a7d02109d486221", "bike_id": "46806a0ff1a96c7b9a7d02109d486221", "fusion_lat": 0.0, "is_reserved": 0, "lat": 38.957782, "fusion_lon": 0.0, "is_disabled": 0}, {"rental_uris": {"android": "https://dc.lft.to/lastmile_qr_scan", "ios": "https://dc.lft.to/lastmile_qr_scan"}, "type": "electric_scooter", "lon": -77.0382605, "name": "b660badbdae9766216ed9b55c438b787", "bike_id": "b660badbdae9766216ed9b55c438b787", "fusion_lat": 0.0, "is_reserved": 0, "lat": 38.908604833333335, "fusion_lon": 0.0, "is_disabled": 0}, {"rental_uris": {"android": "https://dc.lft.to/lastmile_qr_scan", "ios": "https://dc.lft.to/lastmile_qr_scan"}, "type": "electric_scooter", "lon": -77.007608, "name": "670b8c2e204f2ea0f914a84ee862a534", "bike_id": "670b8c2e204f2ea0f914a84ee862a534", "fusion_lat": 0.0, "is_reserved": 0, "lat": 38.87652666666666, "fusion_lon": 0.0, "is_disabled": 0}, {"rental_uris": {"android": "https://dc.lft.to/lastmile_qr_scan", "ios": "https://dc.lft.to/lastmile_qr_scan"}, "type": "electric_scooter", "lon": -77.03636066666667, "name": "edc32da65954071bae0d76210c944fa6", "bike_id": "edc32da65954071bae0d76210c944fa6", "fusion_lat": 0.0, "is_reserved": 0, "lat": 38.92744183333333, "fusion_lon": 0.0, "is_disabled": 0}, {"rental_uris": {"android": "https://dc.lft.to/lastmile_qr_scan", "ios": "https://dc.lft.to/lastmile_qr_scan"}, "type": "electric_scooter", "lon": -77.0215405, "name": "50faeb17a820152a98e0d364b1e0e370", "bike_id": "50faeb17a820152a98e0d364b1e0e370", "fusion_lat": 0.0, "is_reserved": 0, "lat": 38.896092, "fusion_lon": 0.0, "is_disabled": 0}, {"rental_uris": {"android": "https://dc.lft.to/lastmile_qr_scan", "ios": "https://dc.lft.to/lastmile_qr_scan"}, "type": "electric_scooter", "lon": -77.019995, "name": "64736fca8fdc3d941769b96693802bad", "bike_id": "64736fca8fdc3d941769b96693802bad", "fusion_lat": 0.0, "is_reserved": 0, "lat": 38.9133525, "fusion_lon": 0.0, "is_disabled": 0}, {"rental_uris": {"android": "https://dc.lft.to/lastmile_qr_scan", "ios": "https://dc.lft.to/lastmile_qr_scan"}, "type": "electric_bike", "lon": -76.96831116666667, "name": "619e204c919eb1faa36070e32378d1f3", "bike_id": "619e204c919eb1faa36070e32378d1f3", "fusion_lat": 0.0, "is_reserved": 0, "lat": 38.92447933333333, "fusion_lon": 0.0, "is_disabled": 0}, {"rental_uris": {"android": "https://dc.lft.to/lastmile_qr_scan", "ios": "https://dc.lft.to/lastmile_qr_scan"}, "type": "electric_bike", "lon": -76.92997366666667, "name": "37eb887eba858646cb3853292f97c810", "bike_id": "37eb887eba858646cb3853292f97c810", "fusion_lat": 0.0, "is_reserved": 0, "lat": 38.888021333333334, "fusion_lon": 0.0, "is_disabled": 0}, {"rental_uris": {"android": "https://dc.lft.to/lastmile_qr_scan", "ios": "https://dc.lft.to/lastmile_qr_scan"}, "type": "electric_scooter", "lon": -77.0472135, "name": "9fc776889bdb48e93d07b19cefcae196", "bike_id": "9fc776889bdb48e93d07b19cefcae196", "fusion_lat": 0.0, "is_reserved": 0, "lat": 38.8995025, "fusion_lon": 0.0, "is_disabled": 0}, {"rental_uris": {"android": "https://dc.lft.to/lastmile_qr_scan", "ios": "https://dc.lft.to/lastmile_qr_scan"}, "type": "electric_scooter", "lon": -77.0726895, "name": "a96033f8bf51226afcc7d64718079f33", "bike_id": "a96033f8bf51226afcc7d64718079f33", "fusion_lat": 0.0, "is_reserved": 0, "lat": 38.934855, "fusion_lon": 0.0, "is_disabled": 0}, {"rental_uris": {"android": "https://dc.lft.to/lastmile_qr_scan", "ios": "https://dc.lft.to/lastmile_qr_scan"}, "type": "electric_bike", "lon": -77.15267033333333, "name": "0974e9f736285a753a383464ee9dc206", "bike_id": "0974e9f736285a753a383464ee9dc206", "fusion_lat": 0.0, "is_reserved": 0, "lat": 39.10567283333334, "fusion_lon": 0.0, "is_disabled": 0}, {"rental_uris": {"android": "https://dc.lft.to/lastmile_qr_scan", "ios": "https://dc.lft.to/lastmile_qr_scan"}, "type": "electric_scooter", "lon": -77.07071016666667, "name": "d01795f407aabc7be8d3414c0e686f84", "bike_id": "d01795f407aabc7be8d3414c0e686f84", "fusion_lat": 0.0, "is_reserved": 0, "lat": 38.91936533333333, "fusion_lon": 0.0, "is_disabled": 0}, {"rental_uris": {"android": "https://dc.lft.to/lastmile_qr_scan", "ios": "https://dc.lft.to/lastmile_qr_scan"}, "type": "electric_scooter", "lon": -77.037952, "name": "17852de1971ba36392106cc3551a6a38", "bike_id": "17852de1971ba36392106cc3551a6a38", "fusion_lat": 0.0, "is_reserved": 0, "lat": 38.9302175, "fusion_lon": 0.0, "is_disabled": 0}, {"rental_uris": {"android": "https://dc.lft.to/lastmile_qr_scan", "ios": "https://dc.lft.to/lastmile_qr_scan"}, "type": "electric_scooter", "lon": -77.0271325, "name": "1665af6537fb69d09b5fbfa110eed997", "bike_id": "1665af6537fb69d09b5fbfa110eed997", "fusion_lat": 0.0, "is_reserved": 0, "lat": 38.92472333333333, "fusion_lon": 0.0, "is_disabled": 0}, {"rental_uris": {"android": "https://dc.lft.to/lastmile_qr_scan", "ios": "https://dc.lft.to/lastmile_qr_scan"}, "type": "electric_scooter", "lon": -76.9832335, "name": "895665862aaf37b29a1b08d9632e63ce", "bike_id": "895665862aaf37b29a1b08d9632e63ce", "fusion_lat": 0.0, "is_reserved": 0, "lat": 38.8617135, "fusion_lon": 0.0, "is_disabled": 0}, {"rental_uris": {"android": "https://dc.lft.to/lastmile_qr_scan", "ios": "https://dc.lft.to/lastmile_qr_scan"}, "type": "electric_scooter", "lon": -76.965065, "name": "92b288b8fb48ea64f44a1a1c52552a42", "bike_id": "92b288b8fb48ea64f44a1a1c52552a42", "fusion_lat": 0.0, "is_reserved": 0, "lat": 38.876485, "fusion_lon": 0.0, "is_disabled": 0}, {"rental_uris": {"android": "https://dc.lft.to/lastmile_qr_scan", "ios": "https://dc.lft.to/lastmile_qr_scan"}, "type": "electric_scooter", "lon": -77.039678, "name": "ab0e8e821c42f98383af23f0a8a81759", "bike_id": "ab0e8e821c42f98383af23f0a8a81759", "fusion_lat": 0.0, "is_reserved": 0, "lat": 38.91633083333333, "fusion_lon": 0.0, "is_disabled": 0}, {"rental_uris": {"android": "https://dc.lft.to/lastmile_qr_scan", "ios": "https://dc.lft.to/lastmile_qr_scan"}, "type": "electric_scooter", "lon": -77.01009016666667, "name": "65ab60c450f87eab4aa90d72320a58ae", "bike_id": "65ab60c450f87eab4aa90d72320a58ae", "fusion_lat": 0.0, "is_reserved": 0, "lat": 38.86712883333333, "fusion_lon": 0.0, "is_disabled": 0}, {"rental_uris": {"android": "https://dc.lft.to/lastmile_qr_scan", "ios": "https://dc.lft.to/lastmile_qr_scan"}, "type": "electric_scooter", "lon": -77.03641683333333, "name": "2048781d80356982e1b3f4a838b54a30", "bike_id": "2048781d80356982e1b3f4a838b54a30", "fusion_lat": 0.0, "is_reserved": 0, "lat": 38.91771416666667, "fusion_lon": 0.0, "is_disabled": 0}, {"rental_uris": {"android": "https://dc.lft.to/lastmile_qr_scan", "ios": "https://dc.lft.to/lastmile_qr_scan"}, "type": "electric_scooter", "lon": -76.998849, "name": "7c7bd494e3ea617ce59cf6562532ae64", "bike_id": "7c7bd494e3ea617ce59cf6562532ae64", "fusion_lat": 0.0, "is_reserved": 0, "lat": 38.92056733333333, "fusion_lon": 0.0, "is_disabled": 0}, {"rental_uris": {"android": "https://dc.lft.to/lastmile_qr_scan", "ios": "https://dc.lft.to/lastmile_qr_scan"}, "type": "electric_scooter", "lon": -77.0499015, "name": "abdf6b9a836497164a8ec5ee0c51b19a", "bike_id": "abdf6b9a836497164a8ec5ee0c51b19a", "fusion_lat": 0.0, "is_reserved": 0, "lat": 38.90408766666667, "fusion_lon": 0.0, "is_disabled": 0}, {"rental_uris": {"android": "https://dc.lft.to/lastmile_qr_scan", "ios": "https://dc.lft.to/lastmile_qr_scan"}, "type": "electric_scooter", "lon": -76.99365983333334, "name": "97195c9c157a66ca15a560c5fbb8bb74", "bike_id": "97195c9c157a66ca15a560c5fbb8bb74", "fusion_lat": 0.0, "is_reserved": 0, "lat": 38.90052633333333, "fusion_lon": 0.0, "is_disabled": 0}, {"rental_uris": {"android": "https://dc.lft.to/lastmile_qr_scan", "ios": "https://dc.lft.to/lastmile_qr_scan"}, "type": "electric_scooter", "lon": -76.98846183333333, "name": "e557ff422cb4db6b20123c8abd65eeed", "bike_id": "e557ff422cb4db6b20123c8abd65eeed", "fusion_lat": 0.0, "is_reserved": 0, "lat": 38.9035125, "fusion_lon": 0.0, "is_disabled": 0}, {"rental_uris": {"android": "https://dc.lft.to/lastmile_qr_scan", "ios": "https://dc.lft.to/lastmile_qr_scan"}, "type": "electric_scooter", "lon": -77.02767333333334, "name": "5343879805163a0df18fdab7cc1be56c", "bike_id": "5343879805163a0df18fdab7cc1be56c", "fusion_lat": 0.0, "is_reserved": 0, "lat": 38.89226216666667, "fusion_lon": 0.0, "is_disabled": 0}, {"rental_uris": {"android": "https://dc.lft.to/lastmile_qr_scan", "ios": "https://dc.lft.to/lastmile_qr_scan"}, "type": "electric_scooter", "lon": -77.024964, "name": "c5479ae386ef73118e2949b8c07fe482", "bike_id": "c5479ae386ef73118e2949b8c07fe482", "fusion_lat": 0.0, "is_reserved": 0, "lat": 38.93286833333333, "fusion_lon": 0.0, "is_disabled": 0}, {"rental_uris": {"android": "https://dc.lft.to/lastmile_qr_scan", "ios": "https://dc.lft.to/lastmile_qr_scan"}, "type": "electric_scooter", "lon": -77.026865, "name": "d2ccf3a7c0469db04b3e0b480b16d80d", "bike_id": "d2ccf3a7c0469db04b3e0b480b16d80d", "fusion_lat": 0.0, "is_reserved": 0, "lat": 38.90456833333333, "fusion_lon": 0.0, "is_disabled": 0}, {"rental_uris": {"android": "https://dc.lft.to/lastmile_qr_scan", "ios": "https://dc.lft.to/lastmile_qr_scan"}, "type": "electric_scooter", "lon": -76.97819633333333, "name": "615b297f3979a0f333a2f26087e405fa", "bike_id": "615b297f3979a0f333a2f26087e405fa", "fusion_lat": 0.0, "is_reserved": 0, "lat": 38.89612266666666, "fusion_lon": 0.0, "is_disabled": 0}, {"rental_uris": {"android": "https://dc.lft.to/lastmile_qr_scan", "ios": "https://dc.lft.to/lastmile_qr_scan"}, "type": "electric_bike", "lon": -77.127391, "name": "c0e6cccc64742af8da507eb5aa25bfeb", "bike_id": "c0e6cccc64742af8da507eb5aa25bfeb", "fusion_lat": 0.0, "is_reserved": 0, "lat": 38.895684, "fusion_lon": 0.0, "is_disabled": 0}, {"rental_uris": {"android": "https://dc.lft.to/lastmile_qr_scan", "ios": "https://dc.lft.to/lastmile_qr_scan"}, "type": "electric_scooter", "lon": -77.02294633333334, "name": "b8ca2322c0468260cb25d317cbf467ce", "bike_id": "b8ca2322c0468260cb25d317cbf467ce", "fusion_lat": 0.0, "is_reserved": 0, "lat": 38.917893166666666, "fusion_lon": 0.0, "is_disabled": 0}, {"rental_uris": {"android": "https://dc.lft.to/lastmile_qr_scan", "ios": "https://dc.lft.to/lastmile_qr_scan"}, "type": "electric_scooter", "lon": -77.0399885, "name": "6408be5d80832623bac5b178fc330b0a", "bike_id": "6408be5d80832623bac5b178fc330b0a", "fusion_lat": 0.0, "is_reserved": 0, "lat": 38.9180895, "fusion_lon": 0.0, "is_disabled": 0}, {"rental_uris": {"android": "https://dc.lft.to/lastmile_qr_scan", "ios": "https://dc.lft.to/lastmile_qr_scan"}, "type": "electric_bike", "lon": -76.9655725, "name": "efb08634918967b335120889428deff7", "bike_id": "efb08634918967b335120889428deff7", "fusion_lat": 0.0, "is_reserved": 0, "lat": 38.95092133333333, "fusion_lon": 0.0, "is_disabled": 0}, {"rental_uris": {"android": "https://dc.lft.to/lastmile_qr_scan", "ios": "https://dc.lft.to/lastmile_qr_scan"}, "type": "electric_scooter", "lon": -77.04855316666666, "name": "fad6f58c1ef5aadc66671dd66d8d0bcc", "bike_id": "fad6f58c1ef5aadc66671dd66d8d0bcc", "fusion_lat": 0.0, "is_reserved": 0, "lat": 38.90436666666667, "fusion_lon": 0.0, "is_disabled": 0}, {"rental_uris": {"android": "https://dc.lft.to/lastmile_qr_scan", "ios": "https://dc.lft.to/lastmile_qr_scan"}, "type": "electric_scooter", "lon": -77.04593433333334, "name": "003d001dd83ee4c2d3793cead043758c", "bike_id": "003d001dd83ee4c2d3793cead043758c", "fusion_lat": 0.0, "is_reserved": 0, "lat": 38.899967833333335, "fusion_lon": 0.0, "is_disabled": 0}, {"rental_uris": {"android": "https://dc.lft.to/lastmile_qr_scan", "ios": "https://dc.lft.to/lastmile_qr_scan"}, "type": "electric_scooter", "lon": -77.02422583333333, "name": "23c4c876248bbe7759fa1ca5ed339a29", "bike_id": "23c4c876248bbe7759fa1ca5ed339a29", "fusion_lat": 0.0, "is_reserved": 0, "lat": 38.9096635, "fusion_lon": 0.0, "is_disabled": 0}, {"rental_uris": {"android": "https://dc.lft.to/lastmile_qr_scan", "ios": "https://dc.lft.to/lastmile_qr_scan"}, "type": "electric_scooter", "lon": -77.07850866666666, "name": "d585fc7203c593d4207b3a4b9a9facda", "bike_id": "d585fc7203c593d4207b3a4b9a9facda", "fusion_lat": 0.0, "is_reserved": 0, "lat": 38.93128133333333, "fusion_lon": 0.0, "is_disabled": 0}, {"rental_uris": {"android": "https://dc.lft.to/lastmile_qr_scan", "ios": "https://dc.lft.to/lastmile_qr_scan"}, "type": "electric_scooter", "lon": -77.03850866666667, "name": "86a072f49f8bc94a5e9695d31e4757bd", "bike_id": "86a072f49f8bc94a5e9695d31e4757bd", "fusion_lat": 0.0, "is_reserved": 0, "lat": 38.911983666666664, "fusion_lon": 0.0, "is_disabled": 0}, {"rental_uris": {"android": "https://dc.lft.to/lastmile_qr_scan", "ios": "https://dc.lft.to/lastmile_qr_scan"}, "type": "electric_scooter", "lon": -77.03081416666667, "name": "fb67246429c6626341d0a5ca5b94e452", "bike_id": "fb67246429c6626341d0a5ca5b94e452", "fusion_lat": 0.0, "is_reserved": 0, "lat": 38.92249016666667, "fusion_lon": 0.0, "is_disabled": 0}, {"rental_uris": {"android": "https://dc.lft.to/lastmile_qr_scan", "ios": "https://dc.lft.to/lastmile_qr_scan"}, "type": "electric_scooter", "lon": -77.02964233333333, "name": "0f3ba0aca3196388ceae48700156f3a8", "bike_id": "0f3ba0aca3196388ceae48700156f3a8", "fusion_lat": 0.0, "is_reserved": 0, "lat": 38.92463, "fusion_lon": 0.0, "is_disabled": 0}, {"rental_uris": {"android": "https://dc.lft.to/lastmile_qr_scan", "ios": "https://dc.lft.to/lastmile_qr_scan"}, "type": "electric_scooter", "lon": -77.027114, "name": "1b78572b9f72434478c99cf2a3ebe663", "bike_id": "1b78572b9f72434478c99cf2a3ebe663", "fusion_lat": 0.0, "is_reserved": 0, "lat": 38.924709666666665, "fusion_lon": 0.0, "is_disabled": 0}, {"rental_uris": {"android": "https://dc.lft.to/lastmile_qr_scan", "ios": "https://dc.lft.to/lastmile_qr_scan"}, "type": "electric_scooter", "lon": -77.0304305, "name": "661bf086dd984d25c88c130cb52820f7", "bike_id": "661bf086dd984d25c88c130cb52820f7", "fusion_lat": 0.0, "is_reserved": 0, "lat": 38.88410483333333, "fusion_lon": 0.0, "is_disabled": 0}, {"rental_uris": {"android": "https://dc.lft.to/lastmile_qr_scan", "ios": "https://dc.lft.to/lastmile_qr_scan"}, "type": "electric_scooter", "lon": -77.01208866666667, "name": "6104a1aac9b9e1882962fdf92077212e", "bike_id": "6104a1aac9b9e1882962fdf92077212e", "fusion_lat": 0.0, "is_reserved": 0, "lat": 38.90844466666667, "fusion_lon": 0.0, "is_disabled": 0}, {"rental_uris": {"android": "https://dc.lft.to/lastmile_qr_scan", "ios": "https://dc.lft.to/lastmile_qr_scan"}, "type": "electric_scooter", "lon": -77.05454033333334, "name": "9047b850d35cc0fe91de8b3cbc43e76b", "bike_id": "9047b850d35cc0fe91de8b3cbc43e76b", "fusion_lat": 0.0, "is_reserved": 0, "lat": 38.928978666666666, "fusion_lon": 0.0, "is_disabled": 0}, {"rental_uris": {"android": "https://dc.lft.to/lastmile_qr_scan", "ios": "https://dc.lft.to/lastmile_qr_scan"}, "type": "electric_scooter", "lon": -76.97183466666667, "name": "a7dcbe8c4a66dbae2c9a20db5f5d0808", "bike_id": "a7dcbe8c4a66dbae2c9a20db5f5d0808", "fusion_lat": 0.0, "is_reserved": 0, "lat": 38.91265033333333, "fusion_lon": 0.0, "is_disabled": 0}, {"rental_uris": {"android": "https://dc.lft.to/lastmile_qr_scan", "ios": "https://dc.lft.to/lastmile_qr_scan"}, "type": "electric_scooter", "lon": -77.00760766666667, "name": "a7070a058e021dc8e072d363653e5385", "bike_id": "a7070a058e021dc8e072d363653e5385", "fusion_lat": 0.0, "is_reserved": 0, "lat": 38.87904483333333, "fusion_lon": 0.0, "is_disabled": 0}, {"rental_uris": {"android": "https://dc.lft.to/lastmile_qr_scan", "ios": "https://dc.lft.to/lastmile_qr_scan"}, "type": "electric_scooter", "lon": -77.04804333333334, "name": "567f7cddaee490d17780e03622af17bb", "bike_id": "567f7cddaee490d17780e03622af17bb", "fusion_lat": 0.0, "is_reserved": 0, "lat": 38.91929066666667, "fusion_lon": 0.0, "is_disabled": 0}, {"rental_uris": {"android": "https://dc.lft.to/lastmile_qr_scan", "ios": "https://dc.lft.to/lastmile_qr_scan"}, "type": "electric_scooter", "lon": -77.01765733333333, "name": "b3fc80645c28d89b88e914ade6e6ad10", "bike_id": "b3fc80645c28d89b88e914ade6e6ad10", "fusion_lat": 0.0, "is_reserved": 0, "lat": 38.872951666666665, "fusion_lon": 0.0, "is_disabled": 0}, {"rental_uris": {"android": "https://dc.lft.to/lastmile_qr_scan", "ios": "https://dc.lft.to/lastmile_qr_scan"}, "type": "electric_scooter", "lon": -77.01135666666667, "name": "d73fbecd711fc4a776bcb384afc221ec", "bike_id": "d73fbecd711fc4a776bcb384afc221ec", "fusion_lat": 0.0, "is_reserved": 0, "lat": 38.90734166666667, "fusion_lon": 0.0, "is_disabled": 0}, {"rental_uris": {"android": "https://dc.lft.to/lastmile_qr_scan", "ios": "https://dc.lft.to/lastmile_qr_scan"}, "type": "electric_scooter", "lon": -77.05141833333333, "name": "f1220532a6524e583bd7bbb7505f0c39", "bike_id": "f1220532a6524e583bd7bbb7505f0c39", "fusion_lat": 0.0, "is_reserved": 0, "lat": 38.90803733333333, "fusion_lon": 0.0, "is_disabled": 0}, {"rental_uris": {"android": "https://dc.lft.to/lastmile_qr_scan", "ios": "https://dc.lft.to/lastmile_qr_scan"}, "type": "electric_scooter", "lon": -77.05305216666666, "name": "2a8a8ec6b8b17dc5aebc0c83d6d8aa0b", "bike_id": "2a8a8ec6b8b17dc5aebc0c83d6d8aa0b", "fusion_lat": 0.0, "is_reserved": 0, "lat": 38.92787883333333, "fusion_lon": 0.0, "is_disabled": 0}, {"rental_uris": {"android": "https://dc.lft.to/lastmile_qr_scan", "ios": "https://dc.lft.to/lastmile_qr_scan"}, "type": "electric_scooter", "lon": -77.03886433333334, "name": "d1a41fba4dbcd46feb8f4e04f4adc791", "bike_id": "d1a41fba4dbcd46feb8f4e04f4adc791", "fusion_lat": 0.0, "is_reserved": 0, "lat": 38.92226566666667, "fusion_lon": 0.0, "is_disabled": 0}, {"rental_uris": {"android": "https://dc.lft.to/lastmile_qr_scan", "ios": "https://dc.lft.to/lastmile_qr_scan"}, "type": "electric_scooter", "lon": -77.0286525, "name": "15f7d35cd79842f8692db7a1d12026d5", "bike_id": "15f7d35cd79842f8692db7a1d12026d5", "fusion_lat": 0.0, "is_reserved": 0, "lat": 38.92219383333333, "fusion_lon": 0.0, "is_disabled": 0}, {"rental_uris": {"android": "https://dc.lft.to/lastmile_qr_scan", "ios": "https://dc.lft.to/lastmile_qr_scan"}, "type": "electric_scooter", "lon": -77.03260316666666, "name": "1a418c9a92ba583fef008c3097eba836", "bike_id": "1a418c9a92ba583fef008c3097eba836", "fusion_lat": 0.0, "is_reserved": 0, "lat": 38.93668316666667, "fusion_lon": 0.0, "is_disabled": 0}, {"rental_uris": {"android": "https://dc.lft.to/lastmile_qr_scan", "ios": "https://dc.lft.to/lastmile_qr_scan"}, "type": "electric_scooter", "lon": -77.00248033333334, "name": "df25fa59707a05c35333d16a6e0e336c", "bike_id": "df25fa59707a05c35333d16a6e0e336c", "fusion_lat": 0.0, "is_reserved": 0, "lat": 38.90838866666667, "fusion_lon": 0.0, "is_disabled": 0}, {"rental_uris": {"android": "https://dc.lft.to/lastmile_qr_scan", "ios": "https://dc.lft.to/lastmile_qr_scan"}, "type": "electric_scooter", "lon": -76.9482655, "name": "926883c0e302e3f21bba4c1968c0487d", "bike_id": "926883c0e302e3f21bba4c1968c0487d", "fusion_lat": 0.0, "is_reserved": 0, "lat": 38.8934575, "fusion_lon": 0.0, "is_disabled": 0}, {"rental_uris": {"android": "https://dc.lft.to/lastmile_qr_scan", "ios": "https://dc.lft.to/lastmile_qr_scan"}, "type": "electric_scooter", "lon": -76.93429283333333, "name": "c7b1234b3108457879b63f2a9f8e87de", "bike_id": "c7b1234b3108457879b63f2a9f8e87de", "fusion_lat": 0.0, "is_reserved": 0, "lat": 38.899652, "fusion_lon": 0.0, "is_disabled": 0}, {"rental_uris": {"android": "https://dc.lft.to/lastmile_qr_scan", "ios": "https://dc.lft.to/lastmile_qr_scan"}, "type": "electric_bike", "lon": -76.9790195, "name": "3cdeff4849139ea09429a4efcc1e06ba", "bike_id": "3cdeff4849139ea09429a4efcc1e06ba", "fusion_lat": 0.0, "is_reserved": 0, "lat": 38.88838116666667, "fusion_lon": 0.0, "is_disabled": 0}, {"rental_uris": {"android": "https://dc.lft.to/lastmile_qr_scan", "ios": "https://dc.lft.to/lastmile_qr_scan"}, "type": "electric_scooter", "lon": -76.98998933333333, "name": "4a854fa6b714b2fc926e401407f12c89", "bike_id": "4a854fa6b714b2fc926e401407f12c89", "fusion_lat": 0.0, "is_reserved": 0, "lat": 38.865074, "fusion_lon": 0.0, "is_disabled": 0}, {"rental_uris": {"android": "https://dc.lft.to/lastmile_qr_scan", "ios": "https://dc.lft.to/lastmile_qr_scan"}, "type": "electric_scooter", "lon": -77.03508933333333, "name": "67c638b75e3f58b896aea36949bd438c", "bike_id": "67c638b75e3f58b896aea36949bd438c", "fusion_lat": 0.0, "is_reserved": 0, "lat": 38.92149333333333, "fusion_lon": 0.0, "is_disabled": 0}, {"rental_uris": {"android": "https://dc.lft.to/lastmile_qr_scan", "ios": "https://dc.lft.to/lastmile_qr_scan"}, "type": "electric_scooter", "lon": -77.04962933333333, "name": "511efd029f4ed699965eb83aa1f87347", "bike_id": "511efd029f4ed699965eb83aa1f87347", "fusion_lat": 0.0, "is_reserved": 0, "lat": 38.91264266666667, "fusion_lon": 0.0, "is_disabled": 0}, {"rental_uris": {"android": "https://dc.lft.to/lastmile_qr_scan", "ios": "https://dc.lft.to/lastmile_qr_scan"}, "type": "electric_scooter", "lon": -77.04222183333333, "name": "96819542e5b26a34460d7776f26f82fa", "bike_id": "96819542e5b26a34460d7776f26f82fa", "fusion_lat": 0.0, "is_reserved": 0, "lat": 38.92623566666666, "fusion_lon": 0.0, "is_disabled": 0}, {"rental_uris": {"android": "https://dc.lft.to/lastmile_qr_scan", "ios": "https://dc.lft.to/lastmile_qr_scan"}, "type": "electric_scooter", "lon": -77.0233315, "name": "12d08d997d231f8345c8d0d748b7e078", "bike_id": "12d08d997d231f8345c8d0d748b7e078", "fusion_lat": 0.0, "is_reserved": 0, "lat": 38.929807333333336, "fusion_lon": 0.0, "is_disabled": 0}, {"rental_uris": {"android": "https://dc.lft.to/lastmile_qr_scan", "ios": "https://dc.lft.to/lastmile_qr_scan"}, "type": "electric_bike", "lon": -76.92337633333334, "name": "07ef37d78f28f6d3b3c42f8364f4603d", "bike_id": "07ef37d78f28f6d3b3c42f8364f4603d", "fusion_lat": 0.0, "is_reserved": 0, "lat": 38.8879195, "fusion_lon": 0.0, "is_disabled": 0}, {"rental_uris": {"android": "https://dc.lft.to/lastmile_qr_scan", "ios": "https://dc.lft.to/lastmile_qr_scan"}, "type": "electric_scooter", "lon": -76.98777083333333, "name": "6c3ae22f87bc46e9ecde97666126a0a1", "bike_id": "6c3ae22f87bc46e9ecde97666126a0a1", "fusion_lat": 0.0, "is_reserved": 0, "lat": 38.90036116666667, "fusion_lon": 0.0, "is_disabled": 0}, {"rental_uris": {"android": "https://dc.lft.to/lastmile_qr_scan", "ios": "https://dc.lft.to/lastmile_qr_scan"}, "type": "electric_scooter", "lon": -77.0298365, "name": "c839f40c6b7780ceed9e25ee89144bab", "bike_id": "c839f40c6b7780ceed9e25ee89144bab", "fusion_lat": 0.0, "is_reserved": 0, "lat": 38.93756833333333, "fusion_lon": 0.0, "is_disabled": 0}, {"rental_uris": {"android": "https://dc.lft.to/lastmile_qr_scan", "ios": "https://dc.lft.to/lastmile_qr_scan"}, "type": "electric_bike", "lon": -77.02978516666667, "name": "42d857d21ebda5acce05da6ff9705151", "bike_id": "42d857d21ebda5acce05da6ff9705151", "fusion_lat": 0.0, "is_reserved": 0, "lat": 38.9370165, "fusion_lon": 0.0, "is_disabled": 0}, {"rental_uris": {"android": "https://dc.lft.to/lastmile_qr_scan", "ios": "https://dc.lft.to/lastmile_qr_scan"}, "type": "electric_scooter", "lon": -77.07274433333333, "name": "87170f158a3e274bbb5a5531793c6c75", "bike_id": "87170f158a3e274bbb5a5531793c6c75", "fusion_lat": 0.0, "is_reserved": 0, "lat": 38.934839833333335, "fusion_lon": 0.0, "is_disabled": 0}, {"rental_uris": {"android": "https://dc.lft.to/lastmile_qr_scan", "ios": "https://dc.lft.to/lastmile_qr_scan"}, "type": "electric_scooter", "lon": -76.99022333333333, "name": "58b00dee50dc1bb74d4d6065aa456fef", "bike_id": "58b00dee50dc1bb74d4d6065aa456fef", "fusion_lat": 0.0, "is_reserved": 0, "lat": 38.864092166666666, "fusion_lon": 0.0, "is_disabled": 0}, {"rental_uris": {"android": "https://dc.lft.to/lastmile_qr_scan", "ios": "https://dc.lft.to/lastmile_qr_scan"}, "type": "electric_scooter", "lon": -77.03177466666666, "name": "272bbfadfd536ad57297902cc3404166", "bike_id": "272bbfadfd536ad57297902cc3404166", "fusion_lat": 0.0, "is_reserved": 0, "lat": 38.9016075, "fusion_lon": 0.0, "is_disabled": 0}, {"rental_uris": {"android": "https://dc.lft.to/lastmile_qr_scan", "ios": "https://dc.lft.to/lastmile_qr_scan"}, "type": "electric_scooter", "lon": -77.00618616666667, "name": "6f451cc77f7345d5573fbf2f2bd5e27c", "bike_id": "6f451cc77f7345d5573fbf2f2bd5e27c", "fusion_lat": 0.0, "is_reserved": 0, "lat": 38.885015333333335, "fusion_lon": 0.0, "is_disabled": 0}, {"rental_uris": {"android": "https://dc.lft.to/lastmile_qr_scan", "ios": "https://dc.lft.to/lastmile_qr_scan"}, "type": "electric_scooter", "lon": -77.030745, "name": "6e666d353b5ff67feab7510b4077ebc3", "bike_id": "6e666d353b5ff67feab7510b4077ebc3", "fusion_lat": 0.0, "is_reserved": 0, "lat": 38.923861333333335, "fusion_lon": 0.0, "is_disabled": 0}, {"rental_uris": {"android": "https://dc.lft.to/lastmile_qr_scan", "ios": "https://dc.lft.to/lastmile_qr_scan"}, "type": "electric_scooter", "lon": -77.02791383333333, "name": "cedc9c13e1f87beab245482582635a12", "bike_id": "cedc9c13e1f87beab245482582635a12", "fusion_lat": 0.0, "is_reserved": 0, "lat": 38.930871, "fusion_lon": 0.0, "is_disabled": 0}, {"rental_uris": {"android": "https://dc.lft.to/lastmile_qr_scan", "ios": "https://dc.lft.to/lastmile_qr_scan"}, "type": "electric_scooter", "lon": -77.0220465, "name": "c83b63f8aea7b6dfa1abda68a2f81702", "bike_id": "c83b63f8aea7b6dfa1abda68a2f81702", "fusion_lat": 0.0, "is_reserved": 0, "lat": 38.887231, "fusion_lon": 0.0, "is_disabled": 0}, {"rental_uris": {"android": "https://dc.lft.to/lastmile_qr_scan", "ios": "https://dc.lft.to/lastmile_qr_scan"}, "type": "electric_scooter", "lon": -77.04151833333333, "name": "7f15c21c1c763cbfb49bec8cd91abbf6", "bike_id": "7f15c21c1c763cbfb49bec8cd91abbf6", "fusion_lat": 0.0, "is_reserved": 0, "lat": 38.91087666666667, "fusion_lon": 0.0, "is_disabled": 0}, {"rental_uris": {"android": "https://dc.lft.to/lastmile_qr_scan", "ios": "https://dc.lft.to/lastmile_qr_scan"}, "type": "electric_bike", "lon": -77.112377, "name": "1b63fb1c5d54941b9c14dc7d894c4d30", "bike_id": "1b63fb1c5d54941b9c14dc7d894c4d30", "fusion_lat": 0.0, "is_reserved": 0, "lat": 38.812327333333336, "fusion_lon": 0.0, "is_disabled": 0}, {"rental_uris": {"android": "https://dc.lft.to/lastmile_qr_scan", "ios": "https://dc.lft.to/lastmile_qr_scan"}, "type": "electric_scooter", "lon": -77.03241433333334, "name": "7c4629d5f84d9dce33ce95f051e142f4", "bike_id": "7c4629d5f84d9dce33ce95f051e142f4", "fusion_lat": 0.0, "is_reserved": 0, "lat": 38.9054915, "fusion_lon": 0.0, "is_disabled": 0}, {"rental_uris": {"android": "https://dc.lft.to/lastmile_qr_scan", "ios": "https://dc.lft.to/lastmile_qr_scan"}, "type": "electric_bike", "lon": -76.98120716666666, "name": "76a0da47e44f7fb04200b26480622fda", "bike_id": "76a0da47e44f7fb04200b26480622fda", "fusion_lat": 0.0, "is_reserved": 0, "lat": 38.89671716666667, "fusion_lon": 0.0, "is_disabled": 0}, {"rental_uris": {"android": "https://dc.lft.to/lastmile_qr_scan", "ios": "https://dc.lft.to/lastmile_qr_scan"}, "type": "electric_bike", "lon": -77.10184416666667, "name": "d86f1ef7d1effe587b6473eb0fb09515", "bike_id": "d86f1ef7d1effe587b6473eb0fb09515", "fusion_lat": 0.0, "is_reserved": 0, "lat": 38.918153333333336, "fusion_lon": 0.0, "is_disabled": 0}, {"rental_uris": {"android": "https://dc.lft.to/lastmile_qr_scan", "ios": "https://dc.lft.to/lastmile_qr_scan"}, "type": "electric_scooter", "lon": -77.021559, "name": "de7694df1f68d0dd2f9cb2aea1b83348", "bike_id": "de7694df1f68d0dd2f9cb2aea1b83348", "fusion_lat": 0.0, "is_reserved": 0, "lat": 38.926071, "fusion_lon": 0.0, "is_disabled": 0}, {"rental_uris": {"android": "https://dc.lft.to/lastmile_qr_scan", "ios": "https://dc.lft.to/lastmile_qr_scan"}, "type": "electric_scooter", "lon": -77.037577, "name": "f904777e25559be30f09ad5f1f42c4d4", "bike_id": "f904777e25559be30f09ad5f1f42c4d4", "fusion_lat": 0.0, "is_reserved": 0, "lat": 38.92935716666667, "fusion_lon": 0.0, "is_disabled": 0}, {"rental_uris": {"android": "https://dc.lft.to/lastmile_qr_scan", "ios": "https://dc.lft.to/lastmile_qr_scan"}, "type": "electric_scooter", "lon": -77.04549116666666, "name": "47dfa554cf898f420d08a4817681d181", "bike_id": "47dfa554cf898f420d08a4817681d181", "fusion_lat": 0.0, "is_reserved": 0, "lat": 38.91941283333333, "fusion_lon": 0.0, "is_disabled": 0}, {"rental_uris": {"android": "https://dc.lft.to/lastmile_qr_scan", "ios": "https://dc.lft.to/lastmile_qr_scan"}, "type": "electric_bike", "lon": -76.98327116666667, "name": "4d57688eb47785702ffebffdfa56a31d", "bike_id": "4d57688eb47785702ffebffdfa56a31d", "fusion_lat": 0.0, "is_reserved": 0, "lat": 38.96607066666667, "fusion_lon": 0.0, "is_disabled": 0}, {"rental_uris": {"android": "https://dc.lft.to/lastmile_qr_scan", "ios": "https://dc.lft.to/lastmile_qr_scan"}, "type": "electric_scooter", "lon": -76.98995583333334, "name": "e30e4f64f8c5a4e5822b6d3a084065e7", "bike_id": "e30e4f64f8c5a4e5822b6d3a084065e7", "fusion_lat": 0.0, "is_reserved": 0, "lat": 38.864444, "fusion_lon": 0.0, "is_disabled": 0}, {"rental_uris": {"android": "https://dc.lft.to/lastmile_qr_scan", "ios": "https://dc.lft.to/lastmile_qr_scan"}, "type": "electric_scooter", "lon": -76.946335, "name": "3bab00e9519f738fa5b5e8a8362a1fe4", "bike_id": "3bab00e9519f738fa5b5e8a8362a1fe4", "fusion_lat": 0.0, "is_reserved": 0, "lat": 38.8984805, "fusion_lon": 0.0, "is_disabled": 0}, {"rental_uris": {"android": "https://dc.lft.to/lastmile_qr_scan", "ios": "https://dc.lft.to/lastmile_qr_scan"}, "type": "electric_scooter", "lon": -77.02353833333333, "name": "8773b7110f7c93a192e99882d61e9314", "bike_id": "8773b7110f7c93a192e99882d61e9314", "fusion_lat": 0.0, "is_reserved": 0, "lat": 38.892225, "fusion_lon": 0.0, "is_disabled": 0}, {"rental_uris": {"android": "https://dc.lft.to/lastmile_qr_scan", "ios": "https://dc.lft.to/lastmile_qr_scan"}, "type": "electric_scooter", "lon": -77.02175683333333, "name": "2cb9f7f908667ac8e55f4976c8f78b30", "bike_id": "2cb9f7f908667ac8e55f4976c8f78b30", "fusion_lat": 0.0, "is_reserved": 0, "lat": 38.8848345, "fusion_lon": 0.0, "is_disabled": 0}, {"rental_uris": {"android": "https://dc.lft.to/lastmile_qr_scan", "ios": "https://dc.lft.to/lastmile_qr_scan"}, "type": "electric_bike", "lon": -77.10992216666666, "name": "d52ebf836a09e83cec53449fbda9ceaf", "bike_id": "d52ebf836a09e83cec53449fbda9ceaf", "fusion_lat": 0.0, "is_reserved": 0, "lat": 38.870548666666664, "fusion_lon": 0.0, "is_disabled": 0}, {"rental_uris": {"android": "https://dc.lft.to/lastmile_qr_scan", "ios": "https://dc.lft.to/lastmile_qr_scan"}, "type": "electric_scooter", "lon": -77.04162683333334, "name": "6ea108d2345963f63ed94a7bc477ac45", "bike_id": "6ea108d2345963f63ed94a7bc477ac45", "fusion_lat": 0.0, "is_reserved": 0, "lat": 38.9133935, "fusion_lon": 0.0, "is_disabled": 0}, {"rental_uris": {"android": "https://dc.lft.to/lastmile_qr_scan", "ios": "https://dc.lft.to/lastmile_qr_scan"}, "type": "electric_scooter", "lon": -77.03668033333334, "name": "b90566087d2ec379f0a78c1d1cc2516d", "bike_id": "b90566087d2ec379f0a78c1d1cc2516d", "fusion_lat": 0.0, "is_reserved": 0, "lat": 38.936674833333335, "fusion_lon": 0.0, "is_disabled": 0}, {"rental_uris": {"android": "https://dc.lft.to/lastmile_qr_scan", "ios": "https://dc.lft.to/lastmile_qr_scan"}, "type": "electric_scooter", "lon": -77.01928333333333, "name": "8fd5d0162b31546363b9a69ec3a1330e", "bike_id": "8fd5d0162b31546363b9a69ec3a1330e", "fusion_lat": 0.0, "is_reserved": 0, "lat": 38.935754333333335, "fusion_lon": 0.0, "is_disabled": 0}, {"rental_uris": {"android": "https://dc.lft.to/lastmile_qr_scan", "ios": "https://dc.lft.to/lastmile_qr_scan"}, "type": "electric_scooter", "lon": -77.025046, "name": "d9b8e8868e23a39e75d98b0949a421ac", "bike_id": "d9b8e8868e23a39e75d98b0949a421ac", "fusion_lat": 0.0, "is_reserved": 0, "lat": 38.901739666666664, "fusion_lon": 0.0, "is_disabled": 0}, {"rental_uris": {"android": "https://dc.lft.to/lastmile_qr_scan", "ios": "https://dc.lft.to/lastmile_qr_scan"}, "type": "electric_scooter", "lon": -77.00553166666667, "name": "00025c4dff9d0c102f0e575ff26bde2d", "bike_id": "00025c4dff9d0c102f0e575ff26bde2d", "fusion_lat": 0.0, "is_reserved": 0, "lat": 38.87856583333333, "fusion_lon": 0.0, "is_disabled": 0}, {"rental_uris": {"android": "https://dc.lft.to/lastmile_qr_scan", "ios": "https://dc.lft.to/lastmile_qr_scan"}, "type": "electric_scooter", "lon": -76.96426, "name": "e4b10043fe24c9c7d68850feb2254685", "bike_id": "e4b10043fe24c9c7d68850feb2254685", "fusion_lat": 0.0, "is_reserved": 0, "lat": 38.93448466666667, "fusion_lon": 0.0, "is_disabled": 0}, {"rental_uris": {"android": "https://dc.lft.to/lastmile_qr_scan", "ios": "https://dc.lft.to/lastmile_qr_scan"}, "type": "electric_scooter", "lon": -77.034446, "name": "7484e6b9d718d3515e85b156fef40340", "bike_id": "7484e6b9d718d3515e85b156fef40340", "fusion_lat": 0.0, "is_reserved": 0, "lat": 38.91808533333333, "fusion_lon": 0.0, "is_disabled": 0}, {"rental_uris": {"android": "https://dc.lft.to/lastmile_qr_scan", "ios": "https://dc.lft.to/lastmile_qr_scan"}, "type": "electric_scooter", "lon": -77.02701333333333, "name": "8b09ca6878043e6568ff8ce52614e208", "bike_id": "8b09ca6878043e6568ff8ce52614e208", "fusion_lat": 0.0, "is_reserved": 0, "lat": 38.91825216666667, "fusion_lon": 0.0, "is_disabled": 0}, {"rental_uris": {"android": "https://dc.lft.to/lastmile_qr_scan", "ios": "https://dc.lft.to/lastmile_qr_scan"}, "type": "electric_scooter", "lon": -77.04459383333334, "name": "9fadf4331ee6e8dc3116202344291a70", "bike_id": "9fadf4331ee6e8dc3116202344291a70", "fusion_lat": 0.0, "is_reserved": 0, "lat": 38.91879766666667, "fusion_lon": 0.0, "is_disabled": 0}, {"rental_uris": {"android": "https://dc.lft.to/lastmile_qr_scan", "ios": "https://dc.lft.to/lastmile_qr_scan"}, "type": "electric_scooter", "lon": -77.03438416666667, "name": "cd8815ca345a62514e9310612b248871", "bike_id": "cd8815ca345a62514e9310612b248871", "fusion_lat": 0.0, "is_reserved": 0, "lat": 38.90301266666667, "fusion_lon": 0.0, "is_disabled": 0}, {"rental_uris": {"android": "https://dc.lft.to/lastmile_qr_scan", "ios": "https://dc.lft.to/lastmile_qr_scan"}, "type": "electric_scooter", "lon": -77.02341833333334, "name": "cc32224eef33c4e67e0a9fbf07cc25af", "bike_id": "cc32224eef33c4e67e0a9fbf07cc25af", "fusion_lat": 0.0, "is_reserved": 0, "lat": 38.96209, "fusion_lon": 0.0, "is_disabled": 0}, {"rental_uris": {"android": "https://dc.lft.to/lastmile_qr_scan", "ios": "https://dc.lft.to/lastmile_qr_scan"}, "type": "electric_scooter", "lon": -77.04550183333333, "name": "118da76d86344e13c2d56383c5e00010", "bike_id": "118da76d86344e13c2d56383c5e00010", "fusion_lat": 0.0, "is_reserved": 0, "lat": 38.919453833333336, "fusion_lon": 0.0, "is_disabled": 0}, {"rental_uris": {"android": "https://dc.lft.to/lastmile_qr_scan", "ios": "https://dc.lft.to/lastmile_qr_scan"}, "type": "electric_scooter", "lon": -76.99483183333334, "name": "47fae804da23f97570e87df909ae75f4", "bike_id": "47fae804da23f97570e87df909ae75f4", "fusion_lat": 0.0, "is_reserved": 0, "lat": 38.877355333333334, "fusion_lon": 0.0, "is_disabled": 0}, {"rental_uris": {"android": "https://dc.lft.to/lastmile_qr_scan", "ios": "https://dc.lft.to/lastmile_qr_scan"}, "type": "electric_scooter", "lon": -77.02169483333333, "name": "2d59bacc1c8aa7b29fd766c477aca0e6", "bike_id": "2d59bacc1c8aa7b29fd766c477aca0e6", "fusion_lat": 0.0, "is_reserved": 0, "lat": 38.887466, "fusion_lon": 0.0, "is_disabled": 0}, {"rental_uris": {"android": "https://dc.lft.to/lastmile_qr_scan", "ios": "https://dc.lft.to/lastmile_qr_scan"}, "type": "electric_bike", "lon": -76.90534333333333, "name": "765580310cb5375ddde74e545cf0056b", "bike_id": "765580310cb5375ddde74e545cf0056b", "fusion_lat": 0.0, "is_reserved": 0, "lat": 38.8973795, "fusion_lon": 0.0, "is_disabled": 0}, {"rental_uris": {"android": "https://dc.lft.to/lastmile_qr_scan", "ios": "https://dc.lft.to/lastmile_qr_scan"}, "type": "electric_scooter", "lon": -77.0499875, "name": "66342fe91da184a03fcecd1c373acf48", "bike_id": "66342fe91da184a03fcecd1c373acf48", "fusion_lat": 0.0, "is_reserved": 0, "lat": 38.905560333333334, "fusion_lon": 0.0, "is_disabled": 0}, {"rental_uris": {"android": "https://dc.lft.to/lastmile_qr_scan", "ios": "https://dc.lft.to/lastmile_qr_scan"}, "type": "electric_scooter", "lon": -77.04056933333334, "name": "e61c5ba239f2659dd5554a67fbf64040", "bike_id": "e61c5ba239f2659dd5554a67fbf64040", "fusion_lat": 0.0, "is_reserved": 0, "lat": 38.926535666666666, "fusion_lon": 0.0, "is_disabled": 0}, {"rental_uris": {"android": "https://dc.lft.to/lastmile_qr_scan", "ios": "https://dc.lft.to/lastmile_qr_scan"}, "type": "electric_scooter", "lon": -77.00831916666667, "name": "670e89baf1283cb3d3b48b32b47a4c13", "bike_id": "670e89baf1283cb3d3b48b32b47a4c13", "fusion_lat": 0.0, "is_reserved": 0, "lat": 38.91553533333333, "fusion_lon": 0.0, "is_disabled": 0}, {"rental_uris": {"android": "https://dc.lft.to/lastmile_qr_scan", "ios": "https://dc.lft.to/lastmile_qr_scan"}, "type": "electric_scooter", "lon": -77.0309125, "name": "3b781709f7de720999bd31c992611280", "bike_id": "3b781709f7de720999bd31c992611280", "fusion_lat": 0.0, "is_reserved": 0, "lat": 38.932405333333335, "fusion_lon": 0.0, "is_disabled": 0}, {"rental_uris": {"android": "https://dc.lft.to/lastmile_qr_scan", "ios": "https://dc.lft.to/lastmile_qr_scan"}, "type": "electric_scooter", "lon": -77.03284716666667, "name": "1951633d53a7b24456863635cb5d86e4", "bike_id": "1951633d53a7b24456863635cb5d86e4", "fusion_lat": 0.0, "is_reserved": 0, "lat": 38.902336, "fusion_lon": 0.0, "is_disabled": 0}, {"rental_uris": {"android": "https://dc.lft.to/lastmile_qr_scan", "ios": "https://dc.lft.to/lastmile_qr_scan"}, "type": "electric_scooter", "lon": -77.03653733333333, "name": "b307fca28a8eb0acc0a15ada236bfaf9", "bike_id": "b307fca28a8eb0acc0a15ada236bfaf9", "fusion_lat": 0.0, "is_reserved": 0, "lat": 38.9225, "fusion_lon": 0.0, "is_disabled": 0}, {"rental_uris": {"android": "https://dc.lft.to/lastmile_qr_scan", "ios": "https://dc.lft.to/lastmile_qr_scan"}, "type": "electric_scooter", "lon": -77.03446733333334, "name": "4aede2f30641ba51fc265a1f430ff957", "bike_id": "4aede2f30641ba51fc265a1f430ff957", "fusion_lat": 0.0, "is_reserved": 0, "lat": 38.9058235, "fusion_lon": 0.0, "is_disabled": 0}, {"rental_uris": {"android": "https://dc.lft.to/lastmile_qr_scan", "ios": "https://dc.lft.to/lastmile_qr_scan"}, "type": "electric_scooter", "lon": -77.02820766666666, "name": "138aecd1f5e4579bb5ce70d7a96d3d33", "bike_id": "138aecd1f5e4579bb5ce70d7a96d3d33", "fusion_lat": 0.0, "is_reserved": 0, "lat": 38.9328755, "fusion_lon": 0.0, "is_disabled": 0}, {"rental_uris": {"android": "https://dc.lft.to/lastmile_qr_scan", "ios": "https://dc.lft.to/lastmile_qr_scan"}, "type": "electric_scooter", "lon": -77.03047733333334, "name": "f4f5b2ff7f3e723b7eb258ded80aa72b", "bike_id": "f4f5b2ff7f3e723b7eb258ded80aa72b", "fusion_lat": 0.0, "is_reserved": 0, "lat": 38.90973916666667, "fusion_lon": 0.0, "is_disabled": 0}, {"rental_uris": {"android": "https://dc.lft.to/lastmile_qr_scan", "ios": "https://dc.lft.to/lastmile_qr_scan"}, "type": "electric_scooter", "lon": -77.05599133333334, "name": "f90bfc8427cd18987992d8289e9dd3cc", "bike_id": "f90bfc8427cd18987992d8289e9dd3cc", "fusion_lat": 0.0, "is_reserved": 0, "lat": 38.937011, "fusion_lon": 0.0, "is_disabled": 0}, {"rental_uris": {"android": "https://dc.lft.to/lastmile_qr_scan", "ios": "https://dc.lft.to/lastmile_qr_scan"}, "type": "electric_scooter", "lon": -77.0301965, "name": "5cb9a689f5cfb75a1bb077ffb81b0dcd", "bike_id": "5cb9a689f5cfb75a1bb077ffb81b0dcd", "fusion_lat": 0.0, "is_reserved": 0, "lat": 38.92387683333333, "fusion_lon": 0.0, "is_disabled": 0}, {"rental_uris": {"android": "https://dc.lft.to/lastmile_qr_scan", "ios": "https://dc.lft.to/lastmile_qr_scan"}, "type": "electric_scooter", "lon": -77.04747283333333, "name": "0daa34a392206dccde48c54a373b75c9", "bike_id": "0daa34a392206dccde48c54a373b75c9", "fusion_lat": 0.0, "is_reserved": 0, "lat": 38.90532983333333, "fusion_lon": 0.0, "is_disabled": 0}, {"rental_uris": {"android": "https://dc.lft.to/lastmile_qr_scan", "ios": "https://dc.lft.to/lastmile_qr_scan"}, "type": "electric_scooter", "lon": -77.0014345, "name": "c544bc9cc3971258abb2247ae8df161a", "bike_id": "c544bc9cc3971258abb2247ae8df161a", "fusion_lat": 0.0, "is_reserved": 0, "lat": 38.90008383333333, "fusion_lon": 0.0, "is_disabled": 0}, {"rental_uris": {"android": "https://dc.lft.to/lastmile_qr_scan", "ios": "https://dc.lft.to/lastmile_qr_scan"}, "type": "electric_scooter", "lon": -77.0499305, "name": "d4b6bb899a5c7f217f0be08900a8c529", "bike_id": "d4b6bb899a5c7f217f0be08900a8c529", "fusion_lat": 0.0, "is_reserved": 0, "lat": 38.897305, "fusion_lon": 0.0, "is_disabled": 0}, {"rental_uris": {"android": "https://dc.lft.to/lastmile_qr_scan", "ios": "https://dc.lft.to/lastmile_qr_scan"}, "type": "electric_scooter", "lon": -77.0345505, "name": "0c5304506bf68d7e1387881a9549f2e6", "bike_id": "0c5304506bf68d7e1387881a9549f2e6", "fusion_lat": 0.0, "is_reserved": 0, "lat": 38.93557833333333, "fusion_lon": 0.0, "is_disabled": 0}, {"rental_uris": {"android": "https://dc.lft.to/lastmile_qr_scan", "ios": "https://dc.lft.to/lastmile_qr_scan"}, "type": "electric_scooter", "lon": -77.03212216666667, "name": "cd11dedff40c0080bd737fc5f27d1861", "bike_id": "cd11dedff40c0080bd737fc5f27d1861", "fusion_lat": 0.0, "is_reserved": 0, "lat": 38.91889, "fusion_lon": 0.0, "is_disabled": 0}, {"rental_uris": {"android": "https://dc.lft.to/lastmile_qr_scan", "ios": "https://dc.lft.to/lastmile_qr_scan"}, "type": "electric_scooter", "lon": -76.97020116666667, "name": "f5555d9e3259925fea352bc062bd1fe7", "bike_id": "f5555d9e3259925fea352bc062bd1fe7", "fusion_lat": 0.0, "is_reserved": 0, "lat": 38.92034483333333, "fusion_lon": 0.0, "is_disabled": 0}, {"rental_uris": {"android": "https://dc.lft.to/lastmile_qr_scan", "ios": "https://dc.lft.to/lastmile_qr_scan"}, "type": "electric_bike", "lon": -76.94773016666667, "name": "0a8bc65fb63c0911d1645aaaff957ef2", "bike_id": "0a8bc65fb63c0911d1645aaaff957ef2", "fusion_lat": 0.0, "is_reserved": 0, "lat": 38.8964245, "fusion_lon": 0.0, "is_disabled": 0}, {"rental_uris": {"android": "https://dc.lft.to/lastmile_qr_scan", "ios": "https://dc.lft.to/lastmile_qr_scan"}, "type": "electric_scooter", "lon": -77.0500465, "name": "d4d005c60827137415edd533aee181c5", "bike_id": "d4d005c60827137415edd533aee181c5", "fusion_lat": 0.0, "is_reserved": 0, "lat": 38.90087066666667, "fusion_lon": 0.0, "is_disabled": 0}, {"rental_uris": {"android": "https://dc.lft.to/lastmile_qr_scan", "ios": "https://dc.lft.to/lastmile_qr_scan"}, "type": "electric_scooter", "lon": -76.98460233333333, "name": "3f652da49d43264988f265334bd6ba43", "bike_id": "3f652da49d43264988f265334bd6ba43", "fusion_lat": 0.0, "is_reserved": 0, "lat": 38.8936465, "fusion_lon": 0.0, "is_disabled": 0}, {"rental_uris": {"android": "https://dc.lft.to/lastmile_qr_scan", "ios": "https://dc.lft.to/lastmile_qr_scan"}, "type": "electric_scooter", "lon": -77.021529, "name": "80cc1c8cfa0d8ba4afac1e83d0bab7df", "bike_id": "80cc1c8cfa0d8ba4afac1e83d0bab7df", "fusion_lat": 0.0, "is_reserved": 0, "lat": 38.87919866666667, "fusion_lon": 0.0, "is_disabled": 0}, {"rental_uris": {"android": "https://dc.lft.to/lastmile_qr_scan", "ios": "https://dc.lft.to/lastmile_qr_scan"}, "type": "electric_scooter", "lon": -77.0189435, "name": "dfcbeaecd4aede500e95a1b62d9b02c4", "bike_id": "dfcbeaecd4aede500e95a1b62d9b02c4", "fusion_lat": 0.0, "is_reserved": 0, "lat": 38.93920816666667, "fusion_lon": 0.0, "is_disabled": 0}, {"rental_uris": {"android": "https://dc.lft.to/lastmile_qr_scan", "ios": "https://dc.lft.to/lastmile_qr_scan"}, "type": "electric_scooter", "lon": -77.03862566666666, "name": "86cd078aa65a8d7b20cd53a08760897b", "bike_id": "86cd078aa65a8d7b20cd53a08760897b", "fusion_lat": 0.0, "is_reserved": 0, "lat": 38.91712116666667, "fusion_lon": 0.0, "is_disabled": 0}, {"rental_uris": {"android": "https://dc.lft.to/lastmile_qr_scan", "ios": "https://dc.lft.to/lastmile_qr_scan"}, "type": "electric_scooter", "lon": -76.990832, "name": "1aaba3583f1c0e506fe8d35bc238b562", "bike_id": "1aaba3583f1c0e506fe8d35bc238b562", "fusion_lat": 0.0, "is_reserved": 0, "lat": 38.842937666666664, "fusion_lon": 0.0, "is_disabled": 0}, {"rental_uris": {"android": "https://dc.lft.to/lastmile_qr_scan", "ios": "https://dc.lft.to/lastmile_qr_scan"}, "type": "electric_bike", "lon": -77.00285533333333, "name": "d542f91d85a9583ecd936e5d395ca478", "bike_id": "d542f91d85a9583ecd936e5d395ca478", "fusion_lat": 0.0, "is_reserved": 0, "lat": 38.91113633333333, "fusion_lon": 0.0, "is_disabled": 0}, {"rental_uris": {"android": "https://dc.lft.to/lastmile_qr_scan", "ios": "https://dc.lft.to/lastmile_qr_scan"}, "type": "electric_bike", "lon": -76.99106166666667, "name": "ce8be6698699c509e92b228331e52498", "bike_id": "ce8be6698699c509e92b228331e52498", "fusion_lat": 0.0, "is_reserved": 0, "lat": 38.93373716666667, "fusion_lon": 0.0, "is_disabled": 0}, {"rental_uris": {"android": "https://dc.lft.to/lastmile_qr_scan", "ios": "https://dc.lft.to/lastmile_qr_scan"}, "type": "electric_scooter", "lon": -77.01207583333333, "name": "5435e7a9c6663384d96893839588ee00", "bike_id": "5435e7a9c6663384d96893839588ee00", "fusion_lat": 0.0, "is_reserved": 0, "lat": 38.91819666666667, "fusion_lon": 0.0, "is_disabled": 0}, {"rental_uris": {"android": "https://dc.lft.to/lastmile_qr_scan", "ios": "https://dc.lft.to/lastmile_qr_scan"}, "type": "electric_bike", "lon": -77.12262916666667, "name": "1145d3952410075ad14a770cc0cd15a1", "bike_id": "1145d3952410075ad14a770cc0cd15a1", "fusion_lat": 0.0, "is_reserved": 0, "lat": 38.897363666666664, "fusion_lon": 0.0, "is_disabled": 0}, {"rental_uris": {"android": "https://dc.lft.to/lastmile_qr_scan", "ios": "https://dc.lft.to/lastmile_qr_scan"}, "type": "electric_bike", "lon": -77.01615733333334, "name": "7075fe1bc34d6eff3ac5766c3c314b14", "bike_id": "7075fe1bc34d6eff3ac5766c3c314b14", "fusion_lat": 0.0, "is_reserved": 0, "lat": 38.91233033333334, "fusion_lon": 0.0, "is_disabled": 0}, {"rental_uris": {"android": "https://dc.lft.to/lastmile_qr_scan", "ios": "https://dc.lft.to/lastmile_qr_scan"}, "type": "electric_scooter", "lon": -77.02569083333333, "name": "b227a3c7afae649ea14cb640985587f4", "bike_id": "b227a3c7afae649ea14cb640985587f4", "fusion_lat": 0.0, "is_reserved": 0, "lat": 38.895188166666664, "fusion_lon": 0.0, "is_disabled": 0}, {"rental_uris": {"android": "https://dc.lft.to/lastmile_qr_scan", "ios": "https://dc.lft.to/lastmile_qr_scan"}, "type": "electric_scooter", "lon": -77.06074733333334, "name": "cf7950eecfbfdc2d98b8ecaa51305e76", "bike_id": "cf7950eecfbfdc2d98b8ecaa51305e76", "fusion_lat": 0.0, "is_reserved": 0, "lat": 38.905154333333336, "fusion_lon": 0.0, "is_disabled": 0}, {"rental_uris": {"android": "https://dc.lft.to/lastmile_qr_scan", "ios": "https://dc.lft.to/lastmile_qr_scan"}, "type": "electric_scooter", "lon": -77.025759, "name": "3625a217984b5ecb70747a9fbd73719a", "bike_id": "3625a217984b5ecb70747a9fbd73719a", "fusion_lat": 0.0, "is_reserved": 0, "lat": 38.92509283333333, "fusion_lon": 0.0, "is_disabled": 0}, {"rental_uris": {"android": "https://dc.lft.to/lastmile_qr_scan", "ios": "https://dc.lft.to/lastmile_qr_scan"}, "type": "electric_bike", "lon": -77.232924, "name": "4ceab90114e0d0de5ed2b5277c5c13af", "bike_id": "4ceab90114e0d0de5ed2b5277c5c13af", "fusion_lat": 0.0, "is_reserved": 0, "lat": 38.92538116666667, "fusion_lon": 0.0, "is_disabled": 0}, {"rental_uris": {"android": "https://dc.lft.to/lastmile_qr_scan", "ios": "https://dc.lft.to/lastmile_qr_scan"}, "type": "electric_scooter", "lon": -76.9540925, "name": "f6bed6b8e355734ea37c3b8073f53d69", "bike_id": "f6bed6b8e355734ea37c3b8073f53d69", "fusion_lat": 0.0, "is_reserved": 0, "lat": 38.891655166666666, "fusion_lon": 0.0, "is_disabled": 0}, {"rental_uris": {"android": "https://dc.lft.to/lastmile_qr_scan", "ios": "https://dc.lft.to/lastmile_qr_scan"}, "type": "electric_scooter", "lon": -77.0436345, "name": "bad340a2b52604ee43a46ac3df8d9af1", "bike_id": "bad340a2b52604ee43a46ac3df8d9af1", "fusion_lat": 0.0, "is_reserved": 0, "lat": 38.90654766666667, "fusion_lon": 0.0, "is_disabled": 0}, {"rental_uris": {"android": "https://dc.lft.to/lastmile_qr_scan", "ios": "https://dc.lft.to/lastmile_qr_scan"}, "type": "electric_scooter", "lon": -77.07347366666667, "name": "92672b3b57985dd1bab6e4d531f4f8d1", "bike_id": "92672b3b57985dd1bab6e4d531f4f8d1", "fusion_lat": 0.0, "is_reserved": 0, "lat": 38.91103716666667, "fusion_lon": 0.0, "is_disabled": 0}, {"rental_uris": {"android": "https://dc.lft.to/lastmile_qr_scan", "ios": "https://dc.lft.to/lastmile_qr_scan"}, "type": "electric_scooter", "lon": -77.04006916666667, "name": "52c2fbbcbbac309b445cd2f2cefff8e5", "bike_id": "52c2fbbcbbac309b445cd2f2cefff8e5", "fusion_lat": 0.0, "is_reserved": 0, "lat": 38.913165166666666, "fusion_lon": 0.0, "is_disabled": 0}, {"rental_uris": {"android": "https://dc.lft.to/lastmile_qr_scan", "ios": "https://dc.lft.to/lastmile_qr_scan"}, "type": "electric_bike", "lon": -76.91655733333333, "name": "a8b26fb8efbfc56b8b80a3fd95106a28", "bike_id": "a8b26fb8efbfc56b8b80a3fd95106a28", "fusion_lat": 0.0, "is_reserved": 0, "lat": 38.8686255, "fusion_lon": 0.0, "is_disabled": 0}, {"rental_uris": {"android": "https://dc.lft.to/lastmile_qr_scan", "ios": "https://dc.lft.to/lastmile_qr_scan"}, "type": "electric_scooter", "lon": -77.04809533333334, "name": "d9b8422feaa896eec0a206d96c17105f", "bike_id": "d9b8422feaa896eec0a206d96c17105f", "fusion_lat": 0.0, "is_reserved": 0, "lat": 38.911136666666664, "fusion_lon": 0.0, "is_disabled": 0}, {"rental_uris": {"android": "https://dc.lft.to/lastmile_qr_scan", "ios": "https://dc.lft.to/lastmile_qr_scan"}, "type": "electric_scooter", "lon": -76.94240966666666, "name": "d253fab6e6b0ed7987906c77bdd4b950", "bike_id": "d253fab6e6b0ed7987906c77bdd4b950", "fusion_lat": 0.0, "is_reserved": 0, "lat": 38.89688683333333, "fusion_lon": 0.0, "is_disabled": 0}, {"rental_uris": {"android": "https://dc.lft.to/lastmile_qr_scan", "ios": "https://dc.lft.to/lastmile_qr_scan"}, "type": "electric_bike", "lon": -77.051061, "name": "08ac227564b095470448fa9fdc94c5dc", "bike_id": "08ac227564b095470448fa9fdc94c5dc", "fusion_lat": 0.0, "is_reserved": 0, "lat": 38.945611, "fusion_lon": 0.0, "is_disabled": 0}, {"rental_uris": {"android": "https://dc.lft.to/lastmile_qr_scan", "ios": "https://dc.lft.to/lastmile_qr_scan"}, "type": "electric_scooter", "lon": -77.02116116666667, "name": "58736cd949484b156537f75db563879c", "bike_id": "58736cd949484b156537f75db563879c", "fusion_lat": 0.0, "is_reserved": 0, "lat": 38.93017533333333, "fusion_lon": 0.0, "is_disabled": 0}, {"rental_uris": {"android": "https://dc.lft.to/lastmile_qr_scan", "ios": "https://dc.lft.to/lastmile_qr_scan"}, "type": "electric_scooter", "lon": -77.02969183333333, "name": "92fb2b12ffa02688294792f73d775397", "bike_id": "92fb2b12ffa02688294792f73d775397", "fusion_lat": 0.0, "is_reserved": 0, "lat": 38.90661083333333, "fusion_lon": 0.0, "is_disabled": 0}, {"rental_uris": {"android": "https://dc.lft.to/lastmile_qr_scan", "ios": "https://dc.lft.to/lastmile_qr_scan"}, "type": "electric_scooter", "lon": -77.03878166666667, "name": "ac7f28c7d5b58732d35a59676a3a4788", "bike_id": "ac7f28c7d5b58732d35a59676a3a4788", "fusion_lat": 0.0, "is_reserved": 0, "lat": 38.934333333333335, "fusion_lon": 0.0, "is_disabled": 0}, {"rental_uris": {"android": "https://dc.lft.to/lastmile_qr_scan", "ios": "https://dc.lft.to/lastmile_qr_scan"}, "type": "electric_bike", "lon": -77.10739666666667, "name": "01d3d62e2ab3a6783d3aa4f9eb64c027", "bike_id": "01d3d62e2ab3a6783d3aa4f9eb64c027", "fusion_lat": 0.0, "is_reserved": 0, "lat": 38.85544316666667, "fusion_lon": 0.0, "is_disabled": 0}, {"rental_uris": {"android": "https://dc.lft.to/lastmile_qr_scan", "ios": "https://dc.lft.to/lastmile_qr_scan"}, "type": "electric_scooter", "lon": -77.050136, "name": "00fd329c803952d2e11d91732dff5987", "bike_id": "00fd329c803952d2e11d91732dff5987", "fusion_lat": 0.0, "is_reserved": 0, "lat": 38.90768216666667, "fusion_lon": 0.0, "is_disabled": 0}, {"rental_uris": {"android": "https://dc.lft.to/lastmile_qr_scan", "ios": "https://dc.lft.to/lastmile_qr_scan"}, "type": "electric_scooter", "lon": -77.04496633333333, "name": "6f2c6304365272ab70bf1a3b33ee20aa", "bike_id": "6f2c6304365272ab70bf1a3b33ee20aa", "fusion_lat": 0.0, "is_reserved": 0, "lat": 38.9185185, "fusion_lon": 0.0, "is_disabled": 0}, {"rental_uris": {"android": "https://dc.lft.to/lastmile_qr_scan", "ios": "https://dc.lft.to/lastmile_qr_scan"}, "type": "electric_bike", "lon": -76.9581, "name": "e2778391dc0eb4f1eaf9dc17c8672b08", "bike_id": "e2778391dc0eb4f1eaf9dc17c8672b08", "fusion_lat": 0.0, "is_reserved": 0, "lat": 38.98050966666667, "fusion_lon": 0.0, "is_disabled": 0}, {"rental_uris": {"android": "https://dc.lft.to/lastmile_qr_scan", "ios": "https://dc.lft.to/lastmile_qr_scan"}, "type": "electric_scooter", "lon": -76.993654, "name": "996f14e15fa9785a39adc1ee6a244ff3", "bike_id": "996f14e15fa9785a39adc1ee6a244ff3", "fusion_lat": 0.0, "is_reserved": 0, "lat": 38.92844516666667, "fusion_lon": 0.0, "is_disabled": 0}, {"rental_uris": {"android": "https://dc.lft.to/lastmile_qr_scan", "ios": "https://dc.lft.to/lastmile_qr_scan"}, "type": "electric_scooter", "lon": -77.05881233333334, "name": "cd3ff3a28572286c9878569d13fb3102", "bike_id": "cd3ff3a28572286c9878569d13fb3102", "fusion_lat": 0.0, "is_reserved": 0, "lat": 38.936371, "fusion_lon": 0.0, "is_disabled": 0}, {"rental_uris": {"android": "https://dc.lft.to/lastmile_qr_scan", "ios": "https://dc.lft.to/lastmile_qr_scan"}, "type": "electric_scooter", "lon": -76.99404783333334, "name": "ac103ef37e25f4f4cde5d8a699ebfcf0", "bike_id": "ac103ef37e25f4f4cde5d8a699ebfcf0", "fusion_lat": 0.0, "is_reserved": 0, "lat": 38.92274483333333, "fusion_lon": 0.0, "is_disabled": 0}, {"rental_uris": {"android": "https://dc.lft.to/lastmile_qr_scan", "ios": "https://dc.lft.to/lastmile_qr_scan"}, "type": "electric_scooter", "lon": -76.99004, "name": "b594881418bf370f4e1cf0c0f5c16b9d", "bike_id": "b594881418bf370f4e1cf0c0f5c16b9d", "fusion_lat": 0.0, "is_reserved": 0, "lat": 38.865081333333336, "fusion_lon": 0.0, "is_disabled": 0}, {"rental_uris": {"android": "https://dc.lft.to/lastmile_qr_scan", "ios": "https://dc.lft.to/lastmile_qr_scan"}, "type": "electric_scooter", "lon": -76.990805, "name": "b7f65381138793d3bf37f2c9dc1bf285", "bike_id": "b7f65381138793d3bf37f2c9dc1bf285", "fusion_lat": 0.0, "is_reserved": 0, "lat": 38.860502333333336, "fusion_lon": 0.0, "is_disabled": 0}, {"rental_uris": {"android": "https://dc.lft.to/lastmile_qr_scan", "ios": "https://dc.lft.to/lastmile_qr_scan"}, "type": "electric_scooter", "lon": -77.02281, "name": "080a7d2fd92252bf008197d766b297cc", "bike_id": "080a7d2fd92252bf008197d766b297cc", "fusion_lat": 0.0, "is_reserved": 0, "lat": 38.9095785, "fusion_lon": 0.0, "is_disabled": 0}, {"rental_uris": {"android": "https://dc.lft.to/lastmile_qr_scan", "ios": "https://dc.lft.to/lastmile_qr_scan"}, "type": "electric_scooter", "lon": -76.99942616666667, "name": "332a5129d48e670835c61d8292078d10", "bike_id": "332a5129d48e670835c61d8292078d10", "fusion_lat": 0.0, "is_reserved": 0, "lat": 38.84324516666667, "fusion_lon": 0.0, "is_disabled": 0}, {"rental_uris": {"android": "https://dc.lft.to/lastmile_qr_scan", "ios": "https://dc.lft.to/lastmile_qr_scan"}, "type": "electric_scooter", "lon": -77.04347116666666, "name": "95145c3e2099da12d2c5bfced5da6dce", "bike_id": "95145c3e2099da12d2c5bfced5da6dce", "fusion_lat": 0.0, "is_reserved": 0, "lat": 38.90866466666667, "fusion_lon": 0.0, "is_disabled": 0}, {"rental_uris": {"android": "https://dc.lft.to/lastmile_qr_scan", "ios": "https://dc.lft.to/lastmile_qr_scan"}, "type": "electric_scooter", "lon": -77.01996116666666, "name": "8b73df23b595ead4551ecf28f29f976e", "bike_id": "8b73df23b595ead4551ecf28f29f976e", "fusion_lat": 0.0, "is_reserved": 0, "lat": 38.96642583333333, "fusion_lon": 0.0, "is_disabled": 0}, {"rental_uris": {"android": "https://dc.lft.to/lastmile_qr_scan", "ios": "https://dc.lft.to/lastmile_qr_scan"}, "type": "electric_scooter", "lon": -77.04653516666667, "name": "8e09993f4b49a78598650aef922ed941", "bike_id": "8e09993f4b49a78598650aef922ed941", "fusion_lat": 0.0, "is_reserved": 0, "lat": 38.900123, "fusion_lon": 0.0, "is_disabled": 0}, {"rental_uris": {"android": "https://dc.lft.to/lastmile_qr_scan", "ios": "https://dc.lft.to/lastmile_qr_scan"}, "type": "electric_scooter", "lon": -77.02710066666667, "name": "c9a3c3fd311c5fb87201995b1862902a", "bike_id": "c9a3c3fd311c5fb87201995b1862902a", "fusion_lat": 0.0, "is_reserved": 0, "lat": 38.904804666666664, "fusion_lon": 0.0, "is_disabled": 0}, {"rental_uris": {"android": "https://dc.lft.to/lastmile_qr_scan", "ios": "https://dc.lft.to/lastmile_qr_scan"}, "type": "electric_scooter", "lon": -77.04997333333333, "name": "de2677184f8b7a6698e849a3f6dc7a51", "bike_id": "de2677184f8b7a6698e849a3f6dc7a51", "fusion_lat": 0.0, "is_reserved": 0, "lat": 38.905285, "fusion_lon": 0.0, "is_disabled": 0}, {"rental_uris": {"android": "https://dc.lft.to/lastmile_qr_scan", "ios": "https://dc.lft.to/lastmile_qr_scan"}, "type": "electric_scooter", "lon": -77.07186633333333, "name": "c6aa3cd53fe4d25d9a106b2452754327", "bike_id": "c6aa3cd53fe4d25d9a106b2452754327", "fusion_lat": 0.0, "is_reserved": 0, "lat": 38.92104533333333, "fusion_lon": 0.0, "is_disabled": 0}, {"rental_uris": {"android": "https://dc.lft.to/lastmile_qr_scan", "ios": "https://dc.lft.to/lastmile_qr_scan"}, "type": "electric_scooter", "lon": -77.03642683333334, "name": "c845ed5b99ea3b39e8b508e00b8a68d7", "bike_id": "c845ed5b99ea3b39e8b508e00b8a68d7", "fusion_lat": 0.0, "is_reserved": 0, "lat": 38.9130545, "fusion_lon": 0.0, "is_disabled": 0}, {"rental_uris": {"android": "https://dc.lft.to/lastmile_qr_scan", "ios": "https://dc.lft.to/lastmile_qr_scan"}, "type": "electric_scooter", "lon": -76.9732675, "name": "f04eca4a8b12252a6dcdd6b8888a542a", "bike_id": "f04eca4a8b12252a6dcdd6b8888a542a", "fusion_lat": 0.0, "is_reserved": 0, "lat": 38.90486966666667, "fusion_lon": 0.0, "is_disabled": 0}, {"rental_uris": {"android": "https://dc.lft.to/lastmile_qr_scan", "ios": "https://dc.lft.to/lastmile_qr_scan"}, "type": "electric_scooter", "lon": -76.98684166666666, "name": "f30ea685dbce042ff169b2720804e5f6", "bike_id": "f30ea685dbce042ff169b2720804e5f6", "fusion_lat": 0.0, "is_reserved": 0, "lat": 38.90498816666667, "fusion_lon": 0.0, "is_disabled": 0}, {"rental_uris": {"android": "https://dc.lft.to/lastmile_qr_scan", "ios": "https://dc.lft.to/lastmile_qr_scan"}, "type": "electric_scooter", "lon": -77.027216, "name": "00625212ab32a7b1466ecfe7f6a38290", "bike_id": "00625212ab32a7b1466ecfe7f6a38290", "fusion_lat": 0.0, "is_reserved": 0, "lat": 38.95138466666667, "fusion_lon": 0.0, "is_disabled": 0}, {"rental_uris": {"android": "https://dc.lft.to/lastmile_qr_scan", "ios": "https://dc.lft.to/lastmile_qr_scan"}, "type": "electric_bike", "lon": -77.020001, "name": "2847a09e66230078a1aef2b7cc5441fe", "bike_id": "2847a09e66230078a1aef2b7cc5441fe", "fusion_lat": 0.0, "is_reserved": 0, "lat": 38.960235, "fusion_lon": 0.0, "is_disabled": 0}, {"rental_uris": {"android": "https://dc.lft.to/lastmile_qr_scan", "ios": "https://dc.lft.to/lastmile_qr_scan"}, "type": "electric_scooter", "lon": -77.005928, "name": "d95379c2505f07aa6dc6ae82e49c2a85", "bike_id": "d95379c2505f07aa6dc6ae82e49c2a85", "fusion_lat": 0.0, "is_reserved": 0, "lat": 38.90560683333333, "fusion_lon": 0.0, "is_disabled": 0}, {"rental_uris": {"android": "https://dc.lft.to/lastmile_qr_scan", "ios": "https://dc.lft.to/lastmile_qr_scan"}, "type": "electric_scooter", "lon": -76.99726133333333, "name": "904e2b0f0c64f3effd88699c945000fb", "bike_id": "904e2b0f0c64f3effd88699c945000fb", "fusion_lat": 0.0, "is_reserved": 0, "lat": 38.911154, "fusion_lon": 0.0, "is_disabled": 0}, {"rental_uris": {"android": "https://dc.lft.to/lastmile_qr_scan", "ios": "https://dc.lft.to/lastmile_qr_scan"}, "type": "electric_scooter", "lon": -77.0634525, "name": "bde4927b81c23b649e6456eaace8a00b", "bike_id": "bde4927b81c23b649e6456eaace8a00b", "fusion_lat": 0.0, "is_reserved": 0, "lat": 38.913379, "fusion_lon": 0.0, "is_disabled": 0}, {"rental_uris": {"android": "https://dc.lft.to/lastmile_qr_scan", "ios": "https://dc.lft.to/lastmile_qr_scan"}, "type": "electric_scooter", "lon": -77.03884433333333, "name": "7ac05d07663450b71ef00ead82f1d541", "bike_id": "7ac05d07663450b71ef00ead82f1d541", "fusion_lat": 0.0, "is_reserved": 0, "lat": 38.92223583333333, "fusion_lon": 0.0, "is_disabled": 0}, {"rental_uris": {"android": "https://dc.lft.to/lastmile_qr_scan", "ios": "https://dc.lft.to/lastmile_qr_scan"}, "type": "electric_scooter", "lon": -77.01631916666666, "name": "6a19c62333d37e7e1f4860e21ee294aa", "bike_id": "6a19c62333d37e7e1f4860e21ee294aa", "fusion_lat": 0.0, "is_reserved": 0, "lat": 38.8831325, "fusion_lon": 0.0, "is_disabled": 0}, {"rental_uris": {"android": "https://dc.lft.to/lastmile_qr_scan", "ios": "https://dc.lft.to/lastmile_qr_scan"}, "type": "electric_bike", "lon": -77.35306666666666, "name": "2d798b710fcd7a134f132be828247dc2", "bike_id": "2d798b710fcd7a134f132be828247dc2", "fusion_lat": 0.0, "is_reserved": 0, "lat": 38.95004983333333, "fusion_lon": 0.0, "is_disabled": 0}, {"rental_uris": {"android": "https://dc.lft.to/lastmile_qr_scan", "ios": "https://dc.lft.to/lastmile_qr_scan"}, "type": "electric_scooter", "lon": -77.0299875, "name": "bfff1d2d70243036bf4c9e2d476a7631", "bike_id": "bfff1d2d70243036bf4c9e2d476a7631", "fusion_lat": 0.0, "is_reserved": 0, "lat": 38.927996666666665, "fusion_lon": 0.0, "is_disabled": 0}, {"rental_uris": {"android": "https://dc.lft.to/lastmile_qr_scan", "ios": "https://dc.lft.to/lastmile_qr_scan"}, "type": "electric_bike", "lon": -76.98744616666667, "name": "e1c0f66d74b3681198a9e99f2c054b6d", "bike_id": "e1c0f66d74b3681198a9e99f2c054b6d", "fusion_lat": 0.0, "is_reserved": 0, "lat": 38.857928, "fusion_lon": 0.0, "is_disabled": 0}, {"rental_uris": {"android": "https://dc.lft.to/lastmile_qr_scan", "ios": "https://dc.lft.to/lastmile_qr_scan"}, "type": "electric_scooter", "lon": -77.02963833333334, "name": "ef768fc4f64c11de8aaa2f6e6811d856", "bike_id": "ef768fc4f64c11de8aaa2f6e6811d856", "fusion_lat": 0.0, "is_reserved": 0, "lat": 38.892218666666665, "fusion_lon": 0.0, "is_disabled": 0}, {"rental_uris": {"android": "https://dc.lft.to/lastmile_qr_scan", "ios": "https://dc.lft.to/lastmile_qr_scan"}, "type": "electric_bike", "lon": -76.980926, "name": "5e5bcc83d77b67e312d0e7c1ec5d418e", "bike_id": "5e5bcc83d77b67e312d0e7c1ec5d418e", "fusion_lat": 0.0, "is_reserved": 0, "lat": 38.95356366666667, "fusion_lon": 0.0, "is_disabled": 0}, {"rental_uris": {"android": "https://dc.lft.to/lastmile_qr_scan", "ios": "https://dc.lft.to/lastmile_qr_scan"}, "type": "electric_scooter", "lon": -77.03869933333333, "name": "81eba8cba784f01a16fb0ca906ccd0e0", "bike_id": "81eba8cba784f01a16fb0ca906ccd0e0", "fusion_lat": 0.0, "is_reserved": 0, "lat": 38.93243916666667, "fusion_lon": 0.0, "is_disabled": 0}, {"rental_uris": {"android": "https://dc.lft.to/lastmile_qr_scan", "ios": "https://dc.lft.to/lastmile_qr_scan"}, "type": "electric_scooter", "lon": -77.017313, "name": "b3d1dd57e9e1826c0bb5d336be2fb553", "bike_id": "b3d1dd57e9e1826c0bb5d336be2fb553", "fusion_lat": 0.0, "is_reserved": 0, "lat": 38.94207183333333, "fusion_lon": 0.0, "is_disabled": 0}, {"rental_uris": {"android": "https://dc.lft.to/lastmile_qr_scan", "ios": "https://dc.lft.to/lastmile_qr_scan"}, "type": "electric_scooter", "lon": -77.04808266666667, "name": "b2744bf896c2daae3ecf1fd8c88d0fd7", "bike_id": "b2744bf896c2daae3ecf1fd8c88d0fd7", "fusion_lat": 0.0, "is_reserved": 0, "lat": 38.919201666666666, "fusion_lon": 0.0, "is_disabled": 0}, {"rental_uris": {"android": "https://dc.lft.to/lastmile_qr_scan", "ios": "https://dc.lft.to/lastmile_qr_scan"}, "type": "electric_scooter", "lon": -77.02614766666666, "name": "e58d489b1850ead01b98e9addc4bcc11", "bike_id": "e58d489b1850ead01b98e9addc4bcc11", "fusion_lat": 0.0, "is_reserved": 0, "lat": 38.885956166666666, "fusion_lon": 0.0, "is_disabled": 0}, {"rental_uris": {"android": "https://dc.lft.to/lastmile_qr_scan", "ios": "https://dc.lft.to/lastmile_qr_scan"}, "type": "electric_scooter", "lon": -77.02167816666666, "name": "c627228e6ce53ed9e60f3db00a250a1c", "bike_id": "c627228e6ce53ed9e60f3db00a250a1c", "fusion_lat": 0.0, "is_reserved": 0, "lat": 38.89730466666666, "fusion_lon": 0.0, "is_disabled": 0}, {"rental_uris": {"android": "https://dc.lft.to/lastmile_qr_scan", "ios": "https://dc.lft.to/lastmile_qr_scan"}, "type": "electric_scooter", "lon": -77.03348616666666, "name": "02d4eb36169fb56ff04e8619e7ddb7d5", "bike_id": "02d4eb36169fb56ff04e8619e7ddb7d5", "fusion_lat": 0.0, "is_reserved": 0, "lat": 38.9222975, "fusion_lon": 0.0, "is_disabled": 0}, {"rental_uris": {"android": "https://dc.lft.to/lastmile_qr_scan", "ios": "https://dc.lft.to/lastmile_qr_scan"}, "type": "electric_scooter", "lon": -77.00922516666667, "name": "41fa7c20f346327ca12a4a304438167e", "bike_id": "41fa7c20f346327ca12a4a304438167e", "fusion_lat": 0.0, "is_reserved": 0, "lat": 38.896434666666664, "fusion_lon": 0.0, "is_disabled": 0}, {"rental_uris": {"android": "https://dc.lft.to/lastmile_qr_scan", "ios": "https://dc.lft.to/lastmile_qr_scan"}, "type": "electric_scooter", "lon": -77.02235866666666, "name": "749860e4524f03030503d2e3464505ce", "bike_id": "749860e4524f03030503d2e3464505ce", "fusion_lat": 0.0, "is_reserved": 0, "lat": 38.915673, "fusion_lon": 0.0, "is_disabled": 0}, {"rental_uris": {"android": "https://dc.lft.to/lastmile_qr_scan", "ios": "https://dc.lft.to/lastmile_qr_scan"}, "type": "electric_scooter", "lon": -77.03284633333334, "name": "80cf7116cfbf69b6342718bedb8b5c9c", "bike_id": "80cf7116cfbf69b6342718bedb8b5c9c", "fusion_lat": 0.0, "is_reserved": 0, "lat": 38.920617166666666, "fusion_lon": 0.0, "is_disabled": 0}, {"rental_uris": {"android": "https://dc.lft.to/lastmile_qr_scan", "ios": "https://dc.lft.to/lastmile_qr_scan"}, "type": "electric_bike", "lon": -77.12625733333333, "name": "1c3e222585bf8e5f4784926a0939a12e", "bike_id": "1c3e222585bf8e5f4784926a0939a12e", "fusion_lat": 0.0, "is_reserved": 0, "lat": 39.0581365, "fusion_lon": 0.0, "is_disabled": 0}, {"rental_uris": {"android": "https://dc.lft.to/lastmile_qr_scan", "ios": "https://dc.lft.to/lastmile_qr_scan"}, "type": "electric_scooter", "lon": -77.02092016666667, "name": "0e44cc96e2da9da061f0f6cbb7aba9c7", "bike_id": "0e44cc96e2da9da061f0f6cbb7aba9c7", "fusion_lat": 0.0, "is_reserved": 0, "lat": 38.910093333333336, "fusion_lon": 0.0, "is_disabled": 0}, {"rental_uris": {"android": "https://dc.lft.to/lastmile_qr_scan", "ios": "https://dc.lft.to/lastmile_qr_scan"}, "type": "electric_bike", "lon": -77.016534, "name": "a7b91f38af81c337a982a471181fed1e", "bike_id": "a7b91f38af81c337a982a471181fed1e", "fusion_lat": 0.0, "is_reserved": 0, "lat": 38.88120283333333, "fusion_lon": 0.0, "is_disabled": 0}, {"rental_uris": {"android": "https://dc.lft.to/lastmile_qr_scan", "ios": "https://dc.lft.to/lastmile_qr_scan"}, "type": "electric_scooter", "lon": -77.052975, "name": "4987db4afb5dd14e3de8ca0d8a9ca3f5", "bike_id": "4987db4afb5dd14e3de8ca0d8a9ca3f5", "fusion_lat": 0.0, "is_reserved": 0, "lat": 38.8988235, "fusion_lon": 0.0, "is_disabled": 0}, {"rental_uris": {"android": "https://dc.lft.to/lastmile_qr_scan", "ios": "https://dc.lft.to/lastmile_qr_scan"}, "type": "electric_bike", "lon": -76.9800215, "name": "fcc12bc1c718f3b28031b7e305860818", "bike_id": "fcc12bc1c718f3b28031b7e305860818", "fusion_lat": 0.0, "is_reserved": 0, "lat": 38.902362333333336, "fusion_lon": 0.0, "is_disabled": 0}, {"rental_uris": {"android": "https://dc.lft.to/lastmile_qr_scan", "ios": "https://dc.lft.to/lastmile_qr_scan"}, "type": "electric_scooter", "lon": -76.99686716666666, "name": "141e2541371533c616edb683a10d93b3", "bike_id": "141e2541371533c616edb683a10d93b3", "fusion_lat": 0.0, "is_reserved": 0, "lat": 38.876627166666665, "fusion_lon": 0.0, "is_disabled": 0}, {"rental_uris": {"android": "https://dc.lft.to/lastmile_qr_scan", "ios": "https://dc.lft.to/lastmile_qr_scan"}, "type": "electric_scooter", "lon": -77.03880683333334, "name": "bc5dd0114114998d31f974499f73be39", "bike_id": "bc5dd0114114998d31f974499f73be39", "fusion_lat": 0.0, "is_reserved": 0, "lat": 38.93367583333333, "fusion_lon": 0.0, "is_disabled": 0}, {"rental_uris": {"android": "https://dc.lft.to/lastmile_qr_scan", "ios": "https://dc.lft.to/lastmile_qr_scan"}, "type": "electric_scooter", "lon": -77.00789933333333, "name": "fe413cc4da0241f31615dc458b55dac3", "bike_id": "fe413cc4da0241f31615dc458b55dac3", "fusion_lat": 0.0, "is_reserved": 0, "lat": 38.878630666666666, "fusion_lon": 0.0, "is_disabled": 0}, {"rental_uris": {"android": "https://dc.lft.to/lastmile_qr_scan", "ios": "https://dc.lft.to/lastmile_qr_scan"}, "type": "electric_scooter", "lon": -76.9378915, "name": "e62ee4b2a52dea3a345816bbe1ee4dd9", "bike_id": "e62ee4b2a52dea3a345816bbe1ee4dd9", "fusion_lat": 0.0, "is_reserved": 0, "lat": 38.899759833333334, "fusion_lon": 0.0, "is_disabled": 0}, {"rental_uris": {"android": "https://dc.lft.to/lastmile_qr_scan", "ios": "https://dc.lft.to/lastmile_qr_scan"}, "type": "electric_scooter", "lon": -76.990272, "name": "11247dcb025fba1823fdc5239ab54b27", "bike_id": "11247dcb025fba1823fdc5239ab54b27", "fusion_lat": 0.0, "is_reserved": 0, "lat": 38.864073166666664, "fusion_lon": 0.0, "is_disabled": 0}, {"rental_uris": {"android": "https://dc.lft.to/lastmile_qr_scan", "ios": "https://dc.lft.to/lastmile_qr_scan"}, "type": "electric_scooter", "lon": -76.990246, "name": "b8ece59a0d80bad1bb3a0cb151b002a6", "bike_id": "b8ece59a0d80bad1bb3a0cb151b002a6", "fusion_lat": 0.0, "is_reserved": 0, "lat": 38.90156966666667, "fusion_lon": 0.0, "is_disabled": 0}, {"rental_uris": {"android": "https://dc.lft.to/lastmile_qr_scan", "ios": "https://dc.lft.to/lastmile_qr_scan"}, "type": "electric_scooter", "lon": -77.0707855, "name": "df9abc6be1dfe5cb98bfbf7538a96798", "bike_id": "df9abc6be1dfe5cb98bfbf7538a96798", "fusion_lat": 0.0, "is_reserved": 0, "lat": 38.93908033333334, "fusion_lon": 0.0, "is_disabled": 0}, {"rental_uris": {"android": "https://dc.lft.to/lastmile_qr_scan", "ios": "https://dc.lft.to/lastmile_qr_scan"}, "type": "electric_bike", "lon": -76.93191233333333, "name": "2e4f6c07b5e8546856be92840cec9274", "bike_id": "2e4f6c07b5e8546856be92840cec9274", "fusion_lat": 0.0, "is_reserved": 0, "lat": 38.89852716666667, "fusion_lon": 0.0, "is_disabled": 0}, {"rental_uris": {"android": "https://dc.lft.to/lastmile_qr_scan", "ios": "https://dc.lft.to/lastmile_qr_scan"}, "type": "electric_scooter", "lon": -77.02653533333333, "name": "a1adceb78909a7e4444ac104e0328c96", "bike_id": "a1adceb78909a7e4444ac104e0328c96", "fusion_lat": 0.0, "is_reserved": 0, "lat": 38.90254383333333, "fusion_lon": 0.0, "is_disabled": 0}, {"rental_uris": {"android": "https://dc.lft.to/lastmile_qr_scan", "ios": "https://dc.lft.to/lastmile_qr_scan"}, "type": "electric_scooter", "lon": -77.03484516666667, "name": "e5d2998809aa733c87660470db315009", "bike_id": "e5d2998809aa733c87660470db315009", "fusion_lat": 0.0, "is_reserved": 0, "lat": 38.92484533333333, "fusion_lon": 0.0, "is_disabled": 0}, {"rental_uris": {"android": "https://dc.lft.to/lastmile_qr_scan", "ios": "https://dc.lft.to/lastmile_qr_scan"}, "type": "electric_bike", "lon": -77.06950066666667, "name": "655f614a617b82d3cf514c01ca9a8173", "bike_id": "655f614a617b82d3cf514c01ca9a8173", "fusion_lat": 0.0, "is_reserved": 0, "lat": 38.9904515, "fusion_lon": 0.0, "is_disabled": 0}, {"rental_uris": {"android": "https://dc.lft.to/lastmile_qr_scan", "ios": "https://dc.lft.to/lastmile_qr_scan"}, "type": "electric_scooter", "lon": -76.98243983333333, "name": "df40d763cfc511ed02d27121a391c2c4", "bike_id": "df40d763cfc511ed02d27121a391c2c4", "fusion_lat": 0.0, "is_reserved": 0, "lat": 38.903119833333335, "fusion_lon": 0.0, "is_disabled": 0}, {"rental_uris": {"android": "https://dc.lft.to/lastmile_qr_scan", "ios": "https://dc.lft.to/lastmile_qr_scan"}, "type": "electric_scooter", "lon": -77.02509266666667, "name": "c237b681c825672e1ceaaf0968194a34", "bike_id": "c237b681c825672e1ceaaf0968194a34", "fusion_lat": 0.0, "is_reserved": 0, "lat": 38.926413833333335, "fusion_lon": 0.0, "is_disabled": 0}, {"rental_uris": {"android": "https://dc.lft.to/lastmile_qr_scan", "ios": "https://dc.lft.to/lastmile_qr_scan"}, "type": "electric_scooter", "lon": -77.01699916666666, "name": "ca39e05a35dfe3cab423552499b3415c", "bike_id": "ca39e05a35dfe3cab423552499b3415c", "fusion_lat": 0.0, "is_reserved": 0, "lat": 38.883418166666665, "fusion_lon": 0.0, "is_disabled": 0}, {"rental_uris": {"android": "https://dc.lft.to/lastmile_qr_scan", "ios": "https://dc.lft.to/lastmile_qr_scan"}, "type": "electric_scooter", "lon": -77.03821066666667, "name": "dd844e58f164573ffdc76ddd05ea151d", "bike_id": "dd844e58f164573ffdc76ddd05ea151d", "fusion_lat": 0.0, "is_reserved": 0, "lat": 38.9032865, "fusion_lon": 0.0, "is_disabled": 0}, {"rental_uris": {"android": "https://dc.lft.to/lastmile_qr_scan", "ios": "https://dc.lft.to/lastmile_qr_scan"}, "type": "electric_scooter", "lon": -76.99031033333333, "name": "436af1038b6ae9c50631b734987b53bb", "bike_id": "436af1038b6ae9c50631b734987b53bb", "fusion_lat": 0.0, "is_reserved": 0, "lat": 38.88874233333333, "fusion_lon": 0.0, "is_disabled": 0}, {"rental_uris": {"android": "https://dc.lft.to/lastmile_qr_scan", "ios": "https://dc.lft.to/lastmile_qr_scan"}, "type": "electric_scooter", "lon": -77.03443366666667, "name": "928b8e0dd0bee69040a8dca5e27012ba", "bike_id": "928b8e0dd0bee69040a8dca5e27012ba", "fusion_lat": 0.0, "is_reserved": 0, "lat": 38.92867783333333, "fusion_lon": 0.0, "is_disabled": 0}, {"rental_uris": {"android": "https://dc.lft.to/lastmile_qr_scan", "ios": "https://dc.lft.to/lastmile_qr_scan"}, "type": "electric_scooter", "lon": -77.02889066666667, "name": "ce0c326c1e0dbf9b57f77c009c9ebd24", "bike_id": "ce0c326c1e0dbf9b57f77c009c9ebd24", "fusion_lat": 0.0, "is_reserved": 0, "lat": 38.9036695, "fusion_lon": 0.0, "is_disabled": 0}, {"rental_uris": {"android": "https://dc.lft.to/lastmile_qr_scan", "ios": "https://dc.lft.to/lastmile_qr_scan"}, "type": "electric_scooter", "lon": -77.01958766666667, "name": "cbd3292c148901b0c8aa6b817de7535a", "bike_id": "cbd3292c148901b0c8aa6b817de7535a", "fusion_lat": 0.0, "is_reserved": 0, "lat": 38.87642233333333, "fusion_lon": 0.0, "is_disabled": 0}, {"rental_uris": {"android": "https://dc.lft.to/lastmile_qr_scan", "ios": "https://dc.lft.to/lastmile_qr_scan"}, "type": "electric_scooter", "lon": -77.03902916666667, "name": "153f333907ddc6be932d6e47347ff0eb", "bike_id": "153f333907ddc6be932d6e47347ff0eb", "fusion_lat": 0.0, "is_reserved": 0, "lat": 38.922342, "fusion_lon": 0.0, "is_disabled": 0}, {"rental_uris": {"android": "https://dc.lft.to/lastmile_qr_scan", "ios": "https://dc.lft.to/lastmile_qr_scan"}, "type": "electric_scooter", "lon": -76.9960835, "name": "aee1e47a4984dd97e23c6ab51e3809bf", "bike_id": "aee1e47a4984dd97e23c6ab51e3809bf", "fusion_lat": 0.0, "is_reserved": 0, "lat": 38.90336333333333, "fusion_lon": 0.0, "is_disabled": 0}, {"rental_uris": {"android": "https://dc.lft.to/lastmile_qr_scan", "ios": "https://dc.lft.to/lastmile_qr_scan"}, "type": "electric_scooter", "lon": -76.99086433333333, "name": "63805143428ae988fffba70cd25ac1c7", "bike_id": "63805143428ae988fffba70cd25ac1c7", "fusion_lat": 0.0, "is_reserved": 0, "lat": 38.8624125, "fusion_lon": 0.0, "is_disabled": 0}, {"rental_uris": {"android": "https://dc.lft.to/lastmile_qr_scan", "ios": "https://dc.lft.to/lastmile_qr_scan"}, "type": "electric_scooter", "lon": -76.98726933333333, "name": "9589aa55192f6f1354d7e6945576982c", "bike_id": "9589aa55192f6f1354d7e6945576982c", "fusion_lat": 0.0, "is_reserved": 0, "lat": 38.867190666666666, "fusion_lon": 0.0, "is_disabled": 0}, {"rental_uris": {"android": "https://dc.lft.to/lastmile_qr_scan", "ios": "https://dc.lft.to/lastmile_qr_scan"}, "type": "electric_scooter", "lon": -77.02485533333333, "name": "dcc44c48137a2d8ae2e3737c43535e56", "bike_id": "dcc44c48137a2d8ae2e3737c43535e56", "fusion_lat": 0.0, "is_reserved": 0, "lat": 38.93284666666667, "fusion_lon": 0.0, "is_disabled": 0}, {"rental_uris": {"android": "https://dc.lft.to/lastmile_qr_scan", "ios": "https://dc.lft.to/lastmile_qr_scan"}, "type": "electric_scooter", "lon": -77.04348966666667, "name": "2d6ae3670cdfcba86d83d5d2a704f89a", "bike_id": "2d6ae3670cdfcba86d83d5d2a704f89a", "fusion_lat": 0.0, "is_reserved": 0, "lat": 38.921913, "fusion_lon": 0.0, "is_disabled": 0}, {"rental_uris": {"android": "https://dc.lft.to/lastmile_qr_scan", "ios": "https://dc.lft.to/lastmile_qr_scan"}, "type": "electric_scooter", "lon": -77.04994733333334, "name": "3fff117103246465decb875c06134827", "bike_id": "3fff117103246465decb875c06134827", "fusion_lat": 0.0, "is_reserved": 0, "lat": 38.9052655, "fusion_lon": 0.0, "is_disabled": 0}, {"rental_uris": {"android": "https://dc.lft.to/lastmile_qr_scan", "ios": "https://dc.lft.to/lastmile_qr_scan"}, "type": "electric_scooter", "lon": -77.01629016666666, "name": "c8f0c9a6fa2c65a98a3dc665570106b8", "bike_id": "c8f0c9a6fa2c65a98a3dc665570106b8", "fusion_lat": 0.0, "is_reserved": 0, "lat": 38.8763995, "fusion_lon": 0.0, "is_disabled": 0}, {"rental_uris": {"android": "https://dc.lft.to/lastmile_qr_scan", "ios": "https://dc.lft.to/lastmile_qr_scan"}, "type": "electric_scooter", "lon": -77.03840266666667, "name": "f95fd6ee03e09ba287e9b5dd43ba7aaf", "bike_id": "f95fd6ee03e09ba287e9b5dd43ba7aaf", "fusion_lat": 0.0, "is_reserved": 0, "lat": 38.91218933333333, "fusion_lon": 0.0, "is_disabled": 0}, {"rental_uris": {"android": "https://dc.lft.to/lastmile_qr_scan", "ios": "https://dc.lft.to/lastmile_qr_scan"}, "type": "electric_scooter", "lon": -76.94983366666666, "name": "73e67ef6449915a13928f99e62394a17", "bike_id": "73e67ef6449915a13928f99e62394a17", "fusion_lat": 0.0, "is_reserved": 0, "lat": 38.894381, "fusion_lon": 0.0, "is_disabled": 0}, {"rental_uris": {"android": "https://dc.lft.to/lastmile_qr_scan", "ios": "https://dc.lft.to/lastmile_qr_scan"}, "type": "electric_scooter", "lon": -77.02975483333333, "name": "bd3ec3ba24bb729c6a966c523e644853", "bike_id": "bd3ec3ba24bb729c6a966c523e644853", "fusion_lat": 0.0, "is_reserved": 0, "lat": 38.925396, "fusion_lon": 0.0, "is_disabled": 0}, {"rental_uris": {"android": "https://dc.lft.to/lastmile_qr_scan", "ios": "https://dc.lft.to/lastmile_qr_scan"}, "type": "electric_scooter", "lon": -76.99840616666667, "name": "39404f83cf5c946e20512c6156417fb7", "bike_id": "39404f83cf5c946e20512c6156417fb7", "fusion_lat": 0.0, "is_reserved": 0, "lat": 38.953747166666666, "fusion_lon": 0.0, "is_disabled": 0}, {"rental_uris": {"android": "https://dc.lft.to/lastmile_qr_scan", "ios": "https://dc.lft.to/lastmile_qr_scan"}, "type": "electric_scooter", "lon": -77.06838566666667, "name": "56ebbb488991fed3b5dbc4a7eb91ed97", "bike_id": "56ebbb488991fed3b5dbc4a7eb91ed97", "fusion_lat": 0.0, "is_reserved": 0, "lat": 38.9521285, "fusion_lon": 0.0, "is_disabled": 0}, {"rental_uris": {"android": "https://dc.lft.to/lastmile_qr_scan", "ios": "https://dc.lft.to/lastmile_qr_scan"}, "type": "electric_scooter", "lon": -77.04383333333334, "name": "86113f26c4fcfdf181cd597688f852f2", "bike_id": "86113f26c4fcfdf181cd597688f852f2", "fusion_lat": 0.0, "is_reserved": 0, "lat": 38.920689, "fusion_lon": 0.0, "is_disabled": 0}, {"rental_uris": {"android": "https://dc.lft.to/lastmile_qr_scan", "ios": "https://dc.lft.to/lastmile_qr_scan"}, "type": "electric_scooter", "lon": -77.0119095, "name": "a65a74abccd2b5c6b62b0fe4386ca689", "bike_id": "a65a74abccd2b5c6b62b0fe4386ca689", "fusion_lat": 0.0, "is_reserved": 0, "lat": 38.89657866666667, "fusion_lon": 0.0, "is_disabled": 0}, {"rental_uris": {"android": "https://dc.lft.to/lastmile_qr_scan", "ios": "https://dc.lft.to/lastmile_qr_scan"}, "type": "electric_scooter", "lon": -77.02355016666667, "name": "0f5203ccb08e585e5344172958b2fa7a", "bike_id": "0f5203ccb08e585e5344172958b2fa7a", "fusion_lat": 0.0, "is_reserved": 0, "lat": 38.92509033333333, "fusion_lon": 0.0, "is_disabled": 0}, {"rental_uris": {"android": "https://dc.lft.to/lastmile_qr_scan", "ios": "https://dc.lft.to/lastmile_qr_scan"}, "type": "electric_scooter", "lon": -77.04350033333333, "name": "075a1020cffcb2fd18e1187beee7a370", "bike_id": "075a1020cffcb2fd18e1187beee7a370", "fusion_lat": 0.0, "is_reserved": 0, "lat": 38.93132466666667, "fusion_lon": 0.0, "is_disabled": 0}, {"rental_uris": {"android": "https://dc.lft.to/lastmile_qr_scan", "ios": "https://dc.lft.to/lastmile_qr_scan"}, "type": "electric_scooter", "lon": -76.991359, "name": "c749c895e62686363e9b8fe9a79a630d", "bike_id": "c749c895e62686363e9b8fe9a79a630d", "fusion_lat": 0.0, "is_reserved": 0, "lat": 38.89734216666667, "fusion_lon": 0.0, "is_disabled": 0}, {"rental_uris": {"android": "https://dc.lft.to/lastmile_qr_scan", "ios": "https://dc.lft.to/lastmile_qr_scan"}, "type": "electric_scooter", "lon": -77.01376383333333, "name": "73b68711eba548df49ced0b7d5884cb7", "bike_id": "73b68711eba548df49ced0b7d5884cb7", "fusion_lat": 0.0, "is_reserved": 0, "lat": 38.915114833333334, "fusion_lon": 0.0, "is_disabled": 0}, {"rental_uris": {"android": "https://dc.lft.to/lastmile_qr_scan", "ios": "https://dc.lft.to/lastmile_qr_scan"}, "type": "electric_bike", "lon": -77.02371866666667, "name": "044dc4774e2d52ec31a52a1ff90d1e32", "bike_id": "044dc4774e2d52ec31a52a1ff90d1e32", "fusion_lat": 0.0, "is_reserved": 0, "lat": 38.95300066666667, "fusion_lon": 0.0, "is_disabled": 0}, {"rental_uris": {"android": "https://dc.lft.to/lastmile_qr_scan", "ios": "https://dc.lft.to/lastmile_qr_scan"}, "type": "electric_scooter", "lon": -77.00340666666666, "name": "ff890dd01d8e7598d4946746cb9eab6c", "bike_id": "ff890dd01d8e7598d4946746cb9eab6c", "fusion_lat": 0.0, "is_reserved": 0, "lat": 38.922747333333334, "fusion_lon": 0.0, "is_disabled": 0}, {"rental_uris": {"android": "https://dc.lft.to/lastmile_qr_scan", "ios": "https://dc.lft.to/lastmile_qr_scan"}, "type": "electric_scooter", "lon": -77.04122266666667, "name": "492bfa66f79c198b26b07091bd9bfedf", "bike_id": "492bfa66f79c198b26b07091bd9bfedf", "fusion_lat": 0.0, "is_reserved": 0, "lat": 38.92137683333333, "fusion_lon": 0.0, "is_disabled": 0}, {"rental_uris": {"android": "https://dc.lft.to/lastmile_qr_scan", "ios": "https://dc.lft.to/lastmile_qr_scan"}, "type": "electric_scooter", "lon": -77.06571233333334, "name": "4ab32a151913f58be1cda549ba427558", "bike_id": "4ab32a151913f58be1cda549ba427558", "fusion_lat": 0.0, "is_reserved": 0, "lat": 38.9051825, "fusion_lon": 0.0, "is_disabled": 0}, {"rental_uris": {"android": "https://dc.lft.to/lastmile_qr_scan", "ios": "https://dc.lft.to/lastmile_qr_scan"}, "type": "electric_scooter", "lon": -77.03212333333333, "name": "e5ca17bcd9b53bffe2659d5ddef72231", "bike_id": "e5ca17bcd9b53bffe2659d5ddef72231", "fusion_lat": 0.0, "is_reserved": 0, "lat": 38.916273, "fusion_lon": 0.0, "is_disabled": 0}, {"rental_uris": {"android": "https://dc.lft.to/lastmile_qr_scan", "ios": "https://dc.lft.to/lastmile_qr_scan"}, "type": "electric_bike", "lon": -76.90958716666667, "name": "37a662cb7f91ce608fe3bbb5ffc74600", "bike_id": "37a662cb7f91ce608fe3bbb5ffc74600", "fusion_lat": 0.0, "is_reserved": 0, "lat": 38.85431783333333, "fusion_lon": 0.0, "is_disabled": 0}, {"rental_uris": {"android": "https://dc.lft.to/lastmile_qr_scan", "ios": "https://dc.lft.to/lastmile_qr_scan"}, "type": "electric_scooter", "lon": -77.06780716666667, "name": "f13886841823b6b84b6b9d696b1a575d", "bike_id": "f13886841823b6b84b6b9d696b1a575d", "fusion_lat": 0.0, "is_reserved": 0, "lat": 38.905231666666666, "fusion_lon": 0.0, "is_disabled": 0}, {"rental_uris": {"android": "https://dc.lft.to/lastmile_qr_scan", "ios": "https://dc.lft.to/lastmile_qr_scan"}, "type": "electric_scooter", "lon": -77.04179116666667, "name": "a64f436a8a244bc9d86586d98404523f", "bike_id": "a64f436a8a244bc9d86586d98404523f", "fusion_lat": 0.0, "is_reserved": 0, "lat": 38.91264316666667, "fusion_lon": 0.0, "is_disabled": 0}, {"rental_uris": {"android": "https://dc.lft.to/lastmile_qr_scan", "ios": "https://dc.lft.to/lastmile_qr_scan"}, "type": "electric_scooter", "lon": -76.93753333333333, "name": "0f4a4f5368f6f2f80b1bb67aa0556566", "bike_id": "0f4a4f5368f6f2f80b1bb67aa0556566", "fusion_lat": 0.0, "is_reserved": 0, "lat": 38.8903835, "fusion_lon": 0.0, "is_disabled": 0}, {"rental_uris": {"android": "https://dc.lft.to/lastmile_qr_scan", "ios": "https://dc.lft.to/lastmile_qr_scan"}, "type": "electric_scooter", "lon": -77.0259975, "name": "6736ca4d137bf6384201b6e9f1c534fe", "bike_id": "6736ca4d137bf6384201b6e9f1c534fe", "fusion_lat": 0.0, "is_reserved": 0, "lat": 38.904911166666665, "fusion_lon": 0.0, "is_disabled": 0}, {"rental_uris": {"android": "https://dc.lft.to/lastmile_qr_scan", "ios": "https://dc.lft.to/lastmile_qr_scan"}, "type": "electric_scooter", "lon": -77.03633216666667, "name": "7489af311210dcee083b97d95821a286", "bike_id": "7489af311210dcee083b97d95821a286", "fusion_lat": 0.0, "is_reserved": 0, "lat": 38.93276683333333, "fusion_lon": 0.0, "is_disabled": 0}, {"rental_uris": {"android": "https://dc.lft.to/lastmile_qr_scan", "ios": "https://dc.lft.to/lastmile_qr_scan"}, "type": "electric_scooter", "lon": -77.04840016666667, "name": "829d0294d82158d3f0b0b5977042f78c", "bike_id": "829d0294d82158d3f0b0b5977042f78c", "fusion_lat": 0.0, "is_reserved": 0, "lat": 38.90483733333333, "fusion_lon": 0.0, "is_disabled": 0}, {"rental_uris": {"android": "https://dc.lft.to/lastmile_qr_scan", "ios": "https://dc.lft.to/lastmile_qr_scan"}, "type": "electric_scooter", "lon": -77.07138766666667, "name": "01e7dc88294a4120ab38197b8ace1fef", "bike_id": "01e7dc88294a4120ab38197b8ace1fef", "fusion_lat": 0.0, "is_reserved": 0, "lat": 38.9382835, "fusion_lon": 0.0, "is_disabled": 0}, {"rental_uris": {"android": "https://dc.lft.to/lastmile_qr_scan", "ios": "https://dc.lft.to/lastmile_qr_scan"}, "type": "electric_scooter", "lon": -77.005887, "name": "1d9bea7706d12624d8b563a216e522dc", "bike_id": "1d9bea7706d12624d8b563a216e522dc", "fusion_lat": 0.0, "is_reserved": 0, "lat": 38.9155905, "fusion_lon": 0.0, "is_disabled": 0}, {"rental_uris": {"android": "https://dc.lft.to/lastmile_qr_scan", "ios": "https://dc.lft.to/lastmile_qr_scan"}, "type": "electric_scooter", "lon": -77.02693666666667, "name": "43170bd30bf86ceb8704103b98f9e9c9", "bike_id": "43170bd30bf86ceb8704103b98f9e9c9", "fusion_lat": 0.0, "is_reserved": 0, "lat": 38.9068695, "fusion_lon": 0.0, "is_disabled": 0}, {"rental_uris": {"android": "https://dc.lft.to/lastmile_qr_scan", "ios": "https://dc.lft.to/lastmile_qr_scan"}, "type": "electric_bike", "lon": -77.124996, "name": "aab140db4b5f053b499e783a07aa6f10", "bike_id": "aab140db4b5f053b499e783a07aa6f10", "fusion_lat": 0.0, "is_reserved": 0, "lat": 39.02416816666667, "fusion_lon": 0.0, "is_disabled": 0}, {"rental_uris": {"android": "https://dc.lft.to/lastmile_qr_scan", "ios": "https://dc.lft.to/lastmile_qr_scan"}, "type": "electric_scooter", "lon": -76.93838633333333, "name": "0ba914e51ee7d0623ba7c499798d3412", "bike_id": "0ba914e51ee7d0623ba7c499798d3412", "fusion_lat": 0.0, "is_reserved": 0, "lat": 38.890171, "fusion_lon": 0.0, "is_disabled": 0}, {"rental_uris": {"android": "https://dc.lft.to/lastmile_qr_scan", "ios": "https://dc.lft.to/lastmile_qr_scan"}, "type": "electric_scooter", "lon": -77.02407016666666, "name": "fb812734fa2548d8616aba0996ec29c4", "bike_id": "fb812734fa2548d8616aba0996ec29c4", "fusion_lat": 0.0, "is_reserved": 0, "lat": 38.9209045, "fusion_lon": 0.0, "is_disabled": 0}, {"rental_uris": {"android": "https://dc.lft.to/lastmile_qr_scan", "ios": "https://dc.lft.to/lastmile_qr_scan"}, "type": "electric_scooter", "lon": -77.02344233333334, "name": "2dda6d52142878b2d75304e4ad019db7", "bike_id": "2dda6d52142878b2d75304e4ad019db7", "fusion_lat": 0.0, "is_reserved": 0, "lat": 38.92987933333333, "fusion_lon": 0.0, "is_disabled": 0}, {"rental_uris": {"android": "https://dc.lft.to/lastmile_qr_scan", "ios": "https://dc.lft.to/lastmile_qr_scan"}, "type": "electric_scooter", "lon": -77.07862066666667, "name": "1816ece8fed0dde8c213348182eced8b", "bike_id": "1816ece8fed0dde8c213348182eced8b", "fusion_lat": 0.0, "is_reserved": 0, "lat": 38.9191455, "fusion_lon": 0.0, "is_disabled": 0}, {"rental_uris": {"android": "https://dc.lft.to/lastmile_qr_scan", "ios": "https://dc.lft.to/lastmile_qr_scan"}, "type": "electric_scooter", "lon": -77.04292883333333, "name": "b24d2792fe28d164a25501498c32fcae", "bike_id": "b24d2792fe28d164a25501498c32fcae", "fusion_lat": 0.0, "is_reserved": 0, "lat": 38.926677166666664, "fusion_lon": 0.0, "is_disabled": 0}, {"rental_uris": {"android": "https://dc.lft.to/lastmile_qr_scan", "ios": "https://dc.lft.to/lastmile_qr_scan"}, "type": "electric_scooter", "lon": -76.98343016666666, "name": "91ee0574e842efcb228d8829b40cb70d", "bike_id": "91ee0574e842efcb228d8829b40cb70d", "fusion_lat": 0.0, "is_reserved": 0, "lat": 38.864718333333336, "fusion_lon": 0.0, "is_disabled": 0}, {"rental_uris": {"android": "https://dc.lft.to/lastmile_qr_scan", "ios": "https://dc.lft.to/lastmile_qr_scan"}, "type": "electric_scooter", "lon": -77.0234065, "name": "a52e670b46ce95977daeb9b7d3e4ba9a", "bike_id": "a52e670b46ce95977daeb9b7d3e4ba9a", "fusion_lat": 0.0, "is_reserved": 0, "lat": 38.96210133333334, "fusion_lon": 0.0, "is_disabled": 0}, {"rental_uris": {"android": "https://dc.lft.to/lastmile_qr_scan", "ios": "https://dc.lft.to/lastmile_qr_scan"}, "type": "electric_scooter", "lon": -77.0354685, "name": "b1ddd50da1a41c9f6529b569fe817c7f", "bike_id": "b1ddd50da1a41c9f6529b569fe817c7f", "fusion_lat": 0.0, "is_reserved": 0, "lat": 38.903773, "fusion_lon": 0.0, "is_disabled": 0}, {"rental_uris": {"android": "https://dc.lft.to/lastmile_qr_scan", "ios": "https://dc.lft.to/lastmile_qr_scan"}, "type": "electric_scooter", "lon": -77.04356383333334, "name": "ac5338d26219f59ae67525c964871135", "bike_id": "ac5338d26219f59ae67525c964871135", "fusion_lat": 0.0, "is_reserved": 0, "lat": 38.92133183333333, "fusion_lon": 0.0, "is_disabled": 0}, {"rental_uris": {"android": "https://dc.lft.to/lastmile_qr_scan", "ios": "https://dc.lft.to/lastmile_qr_scan"}, "type": "electric_bike", "lon": -77.0066455, "name": "15d3502d392019701cf57bb06b896fb9", "bike_id": "15d3502d392019701cf57bb06b896fb9", "fusion_lat": 0.0, "is_reserved": 0, "lat": 38.94502966666667, "fusion_lon": 0.0, "is_disabled": 0}, {"rental_uris": {"android": "https://dc.lft.to/lastmile_qr_scan", "ios": "https://dc.lft.to/lastmile_qr_scan"}, "type": "electric_scooter", "lon": -77.02959933333334, "name": "f0f1c4143b974e5b7ac5ded72ea81110", "bike_id": "f0f1c4143b974e5b7ac5ded72ea81110", "fusion_lat": 0.0, "is_reserved": 0, "lat": 38.923179, "fusion_lon": 0.0, "is_disabled": 0}, {"rental_uris": {"android": "https://dc.lft.to/lastmile_qr_scan", "ios": "https://dc.lft.to/lastmile_qr_scan"}, "type": "electric_scooter", "lon": -76.99079083333334, "name": "770e36863291ea501619dc082cc4f618", "bike_id": "770e36863291ea501619dc082cc4f618", "fusion_lat": 0.0, "is_reserved": 0, "lat": 38.900196666666666, "fusion_lon": 0.0, "is_disabled": 0}, {"rental_uris": {"android": "https://dc.lft.to/lastmile_qr_scan", "ios": "https://dc.lft.to/lastmile_qr_scan"},