{"data": {"bikes": [{"rental_uris": {"ios": "https://dc.lft.to/lastmile_qr_scan", "android": "https://dc.lft.to/lastmile_qr_scan"}, "fusion_lat": 0.0, "name": "bfbee5331dd119c756173d8cb11d1910", "bike_id": "bfbee5331dd119c756173d8cb11d1910", "is_disabled": 0, "type": "electric_scooter", "lat": 38.890412, "lon": -76.93757383333333, "is_reserved": 0, "fusion_lon": 0.0}, {"rental_uris": {"ios": "https://dc.lft.to/lastmile_qr_scan", "android": "https://dc.lft.to/lastmile_qr_scan"}, "fusion_lat": 0.0, "name": "d3356bd065fde72883d9a90cd0c93da5", "bike_id": "d3356bd065fde72883d9a90cd0c93da5", "is_disabled": 0, "type": "electric_scooter", "lat": 38.844256, "lon": -76.99782133333333, "is_reserved": 0, "fusion_lon": 0.0}, {"rental_uris": {"ios": "https://dc.lft.to/lastmile_qr_scan", "android": "https://dc.lft.to/lastmile_qr_scan"}, "fusion_lat": 0.0, "name": "4e8314ffed403c3c86aa0022d6f25412", "bike_id": "4e8314ffed403c3c86aa0022d6f25412", "is_disabled": 0, "type": "electric_bike", "lat": 38.857076, "lon": -76.97103583333333, "is_reserved": 0, "fusion_lon": 0.0}, {"rental_uris": {"ios": "https://dc.lft.to/lastmile_qr_scan", "android": "https://dc.lft.to/lastmile_qr_scan"}, "fusion_lat": 0.0, "name": "9f5c624c898b22b41ae602d36afea784", "bike_id": "9f5c624c898b22b41ae602d36afea784", "is_disabled": 0, "type": "electric_scooter", "lat": 38.902214666666666, "lon": -77.0512005, "is_reserved": 0, "fusion_lon": 0.0}, {"rental_uris": {"ios": "https://dc.lft.to/lastmile_qr_scan", "android": "https://dc.lft.to/lastmile_qr_scan"}, "fusion_lat": 0.0, "name": "7a02e57071fc0aa64edb074f8e700499", "bike_id": "7a02e57071fc0aa64edb074f8e700499", "is_disabled": 0, "type": "electric_scooter", "lat": 38.916683166666665, "lon": -77.02327783333334, "is_reserved": 0, "fusion_lon": 0.0}, {"rental_uris": {"ios": "https://dc.lft.to/lastmile_qr_scan", "android": "https://dc.lft.to/lastmile_qr_scan"}, "fusion_lat": 0.0, "name": "6598bb9da16058455d2dc479c717077e", "bike_id": "6598bb9da16058455d2dc479c717077e", "is_disabled": 0, "type": "electric_scooter", "lat": 38.961371666666665, "lon": -77.0223645, "is_reserved": 0, "fusion_lon": 0.0}, {"rental_uris": {"ios": "https://dc.lft.to/lastmile_qr_scan", "android": "https://dc.lft.to/lastmile_qr_scan"}, "fusion_lat": 0.0, "name": "b8e1e3fa53af3880dd35fb5c75932c39", "bike_id": "b8e1e3fa53af3880dd35fb5c75932c39", "is_disabled": 0, "type": "electric_scooter", "lat": 38.89843583333333, "lon": -76.94639366666667, "is_reserved": 0, "fusion_lon": 0.0}, {"rental_uris": {"ios": "https://dc.lft.to/lastmile_qr_scan", "android": "https://dc.lft.to/lastmile_qr_scan"}, "fusion_lat": 0.0, "name": "728ca6f0a7029d449f5987afb2163575", "bike_id": "728ca6f0a7029d449f5987afb2163575", "is_disabled": 0, "type": "electric_scooter", "lat": 38.88428666666667, "lon": -76.95759233333334, "is_reserved": 0, "fusion_lon": 0.0}, {"rental_uris": {"ios": "https://dc.lft.to/lastmile_qr_scan", "android": "https://dc.lft.to/lastmile_qr_scan"}, "fusion_lat": 0.0, "name": "3e60d9c2c54672fb2dcb06a85ac4a605", "bike_id": "3e60d9c2c54672fb2dcb06a85ac4a605", "is_disabled": 0, "type": "electric_bike", "lat": 38.86172116666667, "lon": -77.0509175, "is_reserved": 0, "fusion_lon": 0.0}, {"rental_uris": {"ios": "https://dc.lft.to/lastmile_qr_scan", "android": "https://dc.lft.to/lastmile_qr_scan"}, "fusion_lat": 0.0, "name": "ef60d638d8fe723c615c50b48eb0b116", "bike_id": "ef60d638d8fe723c615c50b48eb0b116", "is_disabled": 0, "type": "electric_scooter", "lat": 38.84426633333333, "lon": -76.99779683333334, "is_reserved": 0, "fusion_lon": 0.0}, {"rental_uris": {"ios": "https://dc.lft.to/lastmile_qr_scan", "android": "https://dc.lft.to/lastmile_qr_scan"}, "fusion_lat": 0.0, "name": "c116024acaff3b31236d2c9387b78546", "bike_id": "c116024acaff3b31236d2c9387b78546", "is_disabled": 0, "type": "electric_scooter", "lat": 38.908525166666664, "lon": -77.04444016666666, "is_reserved": 0, "fusion_lon": 0.0}, {"rental_uris": {"ios": "https://dc.lft.to/lastmile_qr_scan", "android": "https://dc.lft.to/lastmile_qr_scan"}, "fusion_lat": 0.0, "name": "09c28785c4e9406cc8dde4684fecf9e1", "bike_id": "09c28785c4e9406cc8dde4684fecf9e1", "is_disabled": 0, "type": "electric_scooter", "lat": 38.89230233333333, "lon": -77.033803, "is_reserved": 0, "fusion_lon": 0.0}, {"rental_uris": {"ios": "https://dc.lft.to/lastmile_qr_scan", "android": "https://dc.lft.to/lastmile_qr_scan"}, "fusion_lat": 0.0, "name": "4ddddeb7d15962b88935d8cc8f81d7b7", "bike_id": "4ddddeb7d15962b88935d8cc8f81d7b7", "is_disabled": 0, "type": "electric_scooter", "lat": 38.92238483333333, "lon": -77.04270266666667, "is_reserved": 0, "fusion_lon": 0.0}, {"rental_uris": {"ios": "https://dc.lft.to/lastmile_qr_scan", "android": "https://dc.lft.to/lastmile_qr_scan"}, "fusion_lat": 0.0, "name": "fb22ab427c9688457160f0689c49e514", "bike_id": "fb22ab427c9688457160f0689c49e514", "is_disabled": 0, "type": "electric_bike", "lat": 38.87141283333333, "lon": -76.93704883333334, "is_reserved": 0, "fusion_lon": 0.0}, {"rental_uris": {"ios": "https://dc.lft.to/lastmile_qr_scan", "android": "https://dc.lft.to/lastmile_qr_scan"}, "fusion_lat": 0.0, "name": "8f0acd4e2ebcb9673c1cb78befab289c", "bike_id": "8f0acd4e2ebcb9673c1cb78befab289c", "is_disabled": 0, "type": "electric_scooter", "lat": 38.9224825, "lon": -77.03010016666667, "is_reserved": 0, "fusion_lon": 0.0}, {"rental_uris": {"ios": "https://dc.lft.to/lastmile_qr_scan", "android": "https://dc.lft.to/lastmile_qr_scan"}, "fusion_lat": 0.0, "name": "25930c2a923534d7a0d1c3a5527b4674", "bike_id": "25930c2a923534d7a0d1c3a5527b4674", "is_disabled": 0, "type": "electric_scooter", "lat": 38.92365816666667, "lon": -77.01885716666666, "is_reserved": 0, "fusion_lon": 0.0}, {"rental_uris": {"ios": "https://dc.lft.to/lastmile_qr_scan", "android": "https://dc.lft.to/lastmile_qr_scan"}, "fusion_lat": 0.0, "name": "5a6fcc6fee7d189b3a2cdce53aea4835", "bike_id": "5a6fcc6fee7d189b3a2cdce53aea4835", "is_disabled": 0, "type": "electric_scooter", "lat": 38.918850666666664, "lon": -77.02189383333334, "is_reserved": 0, "fusion_lon": 0.0}, {"rental_uris": {"ios": "https://dc.lft.to/lastmile_qr_scan", "android": "https://dc.lft.to/lastmile_qr_scan"}, "fusion_lat": 0.0, "name": "451c16484d1d3bf2f835b33fc58de2ea", "bike_id": "451c16484d1d3bf2f835b33fc58de2ea", "is_disabled": 0, "type": "electric_bike", "lat": 38.80676616666667, "lon": -77.081239, "is_reserved": 0, "fusion_lon": 0.0}, {"rental_uris": {"ios": "https://dc.lft.to/lastmile_qr_scan", "android": "https://dc.lft.to/lastmile_qr_scan"}, "fusion_lat": 0.0, "name": "73f759640bf6a9200bfca99ac5285337", "bike_id": "73f759640bf6a9200bfca99ac5285337", "is_disabled": 0, "type": "electric_scooter", "lat": 38.91107016666667, "lon": -77.04357616666667, "is_reserved": 0, "fusion_lon": 0.0}, {"rental_uris": {"ios": "https://dc.lft.to/lastmile_qr_scan", "android": "https://dc.lft.to/lastmile_qr_scan"}, "fusion_lat": 0.0, "name": "66d1e4f1fd19dfc1e1a85f0a47140861", "bike_id": "66d1e4f1fd19dfc1e1a85f0a47140861", "is_disabled": 0, "type": "electric_scooter", "lat": 38.924374666666665, "lon": -77.0400955, "is_reserved": 0, "fusion_lon": 0.0}, {"rental_uris": {"ios": "https://dc.lft.to/lastmile_qr_scan", "android": "https://dc.lft.to/lastmile_qr_scan"}, "fusion_lat": 0.0, "name": "a3a343f8d714a3bb642c97d526866304", "bike_id": "a3a343f8d714a3bb642c97d526866304", "is_disabled": 0, "type": "electric_scooter", "lat": 38.9010275, "lon": -76.98010233333333, "is_reserved": 0, "fusion_lon": 0.0}, {"rental_uris": {"ios": "https://dc.lft.to/lastmile_qr_scan", "android": "https://dc.lft.to/lastmile_qr_scan"}, "fusion_lat": 0.0, "name": "17a85eadf738d4a0e96c194683da0c0f", "bike_id": "17a85eadf738d4a0e96c194683da0c0f", "is_disabled": 0, "type": "electric_scooter", "lat": 38.89222916666667, "lon": -77.048993, "is_reserved": 0, "fusion_lon": 0.0}, {"rental_uris": {"ios": "https://dc.lft.to/lastmile_qr_scan", "android": "https://dc.lft.to/lastmile_qr_scan"}, "fusion_lat": 0.0, "name": "3c5b9aed77c7b9c2839ed0e72eef8c75", "bike_id": "3c5b9aed77c7b9c2839ed0e72eef8c75", "is_disabled": 0, "type": "electric_scooter", "lat": 38.8999655, "lon": -77.055715, "is_reserved": 0, "fusion_lon": 0.0}, {"rental_uris": {"ios": "https://dc.lft.to/lastmile_qr_scan", "android": "https://dc.lft.to/lastmile_qr_scan"}, "fusion_lat": 0.0, "name": "f969ec12e2cada104f1386e70a7280e0", "bike_id": "f969ec12e2cada104f1386e70a7280e0", "is_disabled": 0, "type": "electric_scooter", "lat": 38.925652, "lon": -77.0269615, "is_reserved": 0, "fusion_lon": 0.0}, {"rental_uris": {"ios": "https://dc.lft.to/lastmile_qr_scan", "android": "https://dc.lft.to/lastmile_qr_scan"}, "fusion_lat": 0.0, "name": "e60c837f6bc8db0381089a5b77e44924", "bike_id": "e60c837f6bc8db0381089a5b77e44924", "is_disabled": 0, "type": "electric_scooter", "lat": 38.918451166666664, "lon": -77.03208466666666, "is_reserved": 0, "fusion_lon": 0.0}, {"rental_uris": {"ios": "https://dc.lft.to/lastmile_qr_scan", "android": "https://dc.lft.to/lastmile_qr_scan"}, "fusion_lat": 0.0, "name": "ba2606d96b5f1663dd402094f6f33a46", "bike_id": "ba2606d96b5f1663dd402094f6f33a46", "is_disabled": 0, "type": "electric_scooter", "lat": 38.87663533333333, "lon": -77.00464566666666, "is_reserved": 0, "fusion_lon": 0.0}, {"rental_uris": {"ios": "https://dc.lft.to/lastmile_qr_scan", "android": "https://dc.lft.to/lastmile_qr_scan"}, "fusion_lat": 0.0, "name": "9140315500892bc2453be55a7e05e2c0", "bike_id": "9140315500892bc2453be55a7e05e2c0", "is_disabled": 0, "type": "electric_scooter", "lat": 38.926019, "lon": -77.036618, "is_reserved": 0, "fusion_lon": 0.0}, {"rental_uris": {"ios": "https://dc.lft.to/lastmile_qr_scan", "android": "https://dc.lft.to/lastmile_qr_scan"}, "fusion_lat": 0.0, "name": "ce9abd7edd86f8bb5d7e4d6b737baec0", "bike_id": "ce9abd7edd86f8bb5d7e4d6b737baec0", "is_disabled": 0, "type": "electric_scooter", "lat": 38.917815, "lon": -77.02340083333333, "is_reserved": 0, "fusion_lon": 0.0}, {"rental_uris": {"ios": "https://dc.lft.to/lastmile_qr_scan", "android": "https://dc.lft.to/lastmile_qr_scan"}, "fusion_lat": 0.0, "name": "73187fbcf85f83dea8d06cbb519945a2", "bike_id": "73187fbcf85f83dea8d06cbb519945a2", "is_disabled": 0, "type": "electric_scooter", "lat": 38.92468183333333, "lon": -77.05236583333334, "is_reserved": 0, "fusion_lon": 0.0}, {"rental_uris": {"ios": "https://dc.lft.to/lastmile_qr_scan", "android": "https://dc.lft.to/lastmile_qr_scan"}, "fusion_lat": 0.0, "name": "282aa1115e814785914df27a3d3e1583", "bike_id": "282aa1115e814785914df27a3d3e1583", "is_disabled": 0, "type": "electric_scooter", "lat": 38.923604833333336, "lon": -77.05127116666667, "is_reserved": 0, "fusion_lon": 0.0}, {"rental_uris": {"ios": "https://dc.lft.to/lastmile_qr_scan", "android": "https://dc.lft.to/lastmile_qr_scan"}, "fusion_lat": 0.0, "name": "eec22da7f1ef4e2df2121bcda96e521d", "bike_id": "eec22da7f1ef4e2df2121bcda96e521d", "is_disabled": 0, "type": "electric_scooter", "lat": 38.892249166666666, "lon": -77.03215883333333, "is_reserved": 0, "fusion_lon": 0.0}, {"rental_uris": {"ios": "https://dc.lft.to/lastmile_qr_scan", "android": "https://dc.lft.to/lastmile_qr_scan"}, "fusion_lat": 0.0, "name": "41c5416352ecc856703977a18439a72a", "bike_id": "41c5416352ecc856703977a18439a72a", "is_disabled": 0, "type": "electric_scooter", "lat": 38.91687966666667, "lon": -77.02817233333333, "is_reserved": 0, "fusion_lon": 0.0}, {"rental_uris": {"ios": "https://dc.lft.to/lastmile_qr_scan", "android": "https://dc.lft.to/lastmile_qr_scan"}, "fusion_lat": 0.0, "name": "70e6148f033bc4168e408b69c74379a1", "bike_id": "70e6148f033bc4168e408b69c74379a1", "is_disabled": 0, "type": "electric_scooter", "lat": 38.95426066666667, "lon": -77.02768683333333, "is_reserved": 0, "fusion_lon": 0.0}, {"rental_uris": {"ios": "https://dc.lft.to/lastmile_qr_scan", "android": "https://dc.lft.to/lastmile_qr_scan"}, "fusion_lat": 0.0, "name": "fbd1a0dee427ca1a4d432339b8cf5246", "bike_id": "fbd1a0dee427ca1a4d432339b8cf5246", "is_disabled": 0, "type": "electric_scooter", "lat": 38.89725166666667, "lon": -77.02174033333333, "is_reserved": 0, "fusion_lon": 0.0}, {"rental_uris": {"ios": "https://dc.lft.to/lastmile_qr_scan", "android": "https://dc.lft.to/lastmile_qr_scan"}, "fusion_lat": 0.0, "name": "339136eef1f488b80c94fffaff25b59c", "bike_id": "339136eef1f488b80c94fffaff25b59c", "is_disabled": 0, "type": "electric_scooter", "lat": 38.927733, "lon": -77.02850716666667, "is_reserved": 0, "fusion_lon": 0.0}, {"rental_uris": {"ios": "https://dc.lft.to/lastmile_qr_scan", "android": "https://dc.lft.to/lastmile_qr_scan"}, "fusion_lat": 0.0, "name": "c4bfa92949e8de288d6b682ce3e8f715", "bike_id": "c4bfa92949e8de288d6b682ce3e8f715", "is_disabled": 0, "type": "electric_scooter", "lat": 38.90026183333333, "lon": -76.99557216666666, "is_reserved": 0, "fusion_lon": 0.0}, {"rental_uris": {"ios": "https://dc.lft.to/lastmile_qr_scan", "android": "https://dc.lft.to/lastmile_qr_scan"}, "fusion_lat": 0.0, "name": "a59e472a6168139846c419d829db4836", "bike_id": "a59e472a6168139846c419d829db4836", "is_disabled": 0, "type": "electric_scooter", "lat": 38.892204, "lon": -77.0433125, "is_reserved": 0, "fusion_lon": 0.0}, {"rental_uris": {"ios": "https://dc.lft.to/lastmile_qr_scan", "android": "https://dc.lft.to/lastmile_qr_scan"}, "fusion_lat": 0.0, "name": "d15654052399fb391d3900a8aad2138b", "bike_id": "d15654052399fb391d3900a8aad2138b", "is_disabled": 0, "type": "electric_scooter", "lat": 38.90779283333333, "lon": -77.038598, "is_reserved": 0, "fusion_lon": 0.0}, {"rental_uris": {"ios": "https://dc.lft.to/lastmile_qr_scan", "android": "https://dc.lft.to/lastmile_qr_scan"}, "fusion_lat": 0.0, "name": "8eca46b5e09603c6bc57c23f2bd04d62", "bike_id": "8eca46b5e09603c6bc57c23f2bd04d62", "is_disabled": 0, "type": "electric_scooter", "lat": 38.876240333333335, "lon": -76.96523966666666, "is_reserved": 0, "fusion_lon": 0.0}, {"rental_uris": {"ios": "https://dc.lft.to/lastmile_qr_scan", "android": "https://dc.lft.to/lastmile_qr_scan"}, "fusion_lat": 0.0, "name": "26dde96c3ec47a75f7c84448876831e3", "bike_id": "26dde96c3ec47a75f7c84448876831e3", "is_disabled": 0, "type": "electric_scooter", "lat": 38.909842833333336, "lon": -76.99486366666666, "is_reserved": 0, "fusion_lon": 0.0}, {"rental_uris": {"ios": "https://dc.lft.to/lastmile_qr_scan", "android": "https://dc.lft.to/lastmile_qr_scan"}, "fusion_lat": 0.0, "name": "a8b68d33c71fd4d9e93ccf9c1116a30e", "bike_id": "a8b68d33c71fd4d9e93ccf9c1116a30e", "is_disabled": 0, "type": "electric_bike", "lat": 38.932365, "lon": -76.974241, "is_reserved": 0, "fusion_lon": 0.0}, {"rental_uris": {"ios": "https://dc.lft.to/lastmile_qr_scan", "android": "https://dc.lft.to/lastmile_qr_scan"}, "fusion_lat": 0.0, "name": "ba48a21be99d2f2f7d47505bc358a762", "bike_id": "ba48a21be99d2f2f7d47505bc358a762", "is_disabled": 0, "type": "electric_scooter", "lat": 38.935982333333335, "lon": -77.03752083333333, "is_reserved": 0, "fusion_lon": 0.0}, {"rental_uris": {"ios": "https://dc.lft.to/lastmile_qr_scan", "android": "https://dc.lft.to/lastmile_qr_scan"}, "fusion_lat": 0.0, "name": "33787581a7b8ea48202ceee3af65de8e", "bike_id": "33787581a7b8ea48202ceee3af65de8e", "is_disabled": 0, "type": "electric_scooter", "lat": 38.88746116666667, "lon": -77.025758, "is_reserved": 0, "fusion_lon": 0.0}, {"rental_uris": {"ios": "https://dc.lft.to/lastmile_qr_scan", "android": "https://dc.lft.to/lastmile_qr_scan"}, "fusion_lat": 0.0, "name": "dc74bb7bee76af1c7cbed43b0fb45dec", "bike_id": "dc74bb7bee76af1c7cbed43b0fb45dec", "is_disabled": 0, "type": "electric_scooter", "lat": 38.90974166666667, "lon": -77.04873983333333, "is_reserved": 0, "fusion_lon": 0.0}, {"rental_uris": {"ios": "https://dc.lft.to/lastmile_qr_scan", "android": "https://dc.lft.to/lastmile_qr_scan"}, "fusion_lat": 0.0, "name": "d0ebfdbbb9418c6baadf417251ddbf59", "bike_id": "d0ebfdbbb9418c6baadf417251ddbf59", "is_disabled": 0, "type": "electric_scooter", "lat": 38.86241233333333, "lon": -76.99498216666667, "is_reserved": 0, "fusion_lon": 0.0}, {"rental_uris": {"ios": "https://dc.lft.to/lastmile_qr_scan", "android": "https://dc.lft.to/lastmile_qr_scan"}, "fusion_lat": 0.0, "name": "a173f4a70588fdcafdb03a37735d59c2", "bike_id": "a173f4a70588fdcafdb03a37735d59c2", "is_disabled": 0, "type": "electric_scooter", "lat": 38.902622666666666, "lon": -77.0433365, "is_reserved": 0, "fusion_lon": 0.0}, {"rental_uris": {"ios": "https://dc.lft.to/lastmile_qr_scan", "android": "https://dc.lft.to/lastmile_qr_scan"}, "fusion_lat": 0.0, "name": "2b9729878920497e202fbb4e80886f34", "bike_id": "2b9729878920497e202fbb4e80886f34", "is_disabled": 0, "type": "electric_scooter", "lat": 38.8990185, "lon": -76.9336275, "is_reserved": 0, "fusion_lon": 0.0}, {"rental_uris": {"ios": "https://dc.lft.to/lastmile_qr_scan", "android": "https://dc.lft.to/lastmile_qr_scan"}, "fusion_lat": 0.0, "name": "874eb5f73d39daf2f98c8faf230cc7d0", "bike_id": "874eb5f73d39daf2f98c8faf230cc7d0", "is_disabled": 0, "type": "electric_scooter", "lat": 38.863347833333336, "lon": -76.98417616666667, "is_reserved": 0, "fusion_lon": 0.0}, {"rental_uris": {"ios": "https://dc.lft.to/lastmile_qr_scan", "android": "https://dc.lft.to/lastmile_qr_scan"}, "fusion_lat": 0.0, "name": "9b342e6788279da4519e6f7069d55ab6", "bike_id": "9b342e6788279da4519e6f7069d55ab6", "is_disabled": 0, "type": "electric_bike", "lat": 38.86367416666667, "lon": -76.97010183333333, "is_reserved": 0, "fusion_lon": 0.0}, {"rental_uris": {"ios": "https://dc.lft.to/lastmile_qr_scan", "android": "https://dc.lft.to/lastmile_qr_scan"}, "fusion_lat": 0.0, "name": "96e0f4cab4396e8f6569461718d25fcb", "bike_id": "96e0f4cab4396e8f6569461718d25fcb", "is_disabled": 0, "type": "electric_scooter", "lat": 38.91371933333333, "lon": -77.03204533333333, "is_reserved": 0, "fusion_lon": 0.0}, {"rental_uris": {"ios": "https://dc.lft.to/lastmile_qr_scan", "android": "https://dc.lft.to/lastmile_qr_scan"}, "fusion_lat": 0.0, "name": "42fef522ee4263168190a978e6a725ff", "bike_id": "42fef522ee4263168190a978e6a725ff", "is_disabled": 0, "type": "electric_scooter", "lat": 38.9078395, "lon": -77.0386005, "is_reserved": 0, "fusion_lon": 0.0}, {"rental_uris": {"ios": "https://dc.lft.to/lastmile_qr_scan", "android": "https://dc.lft.to/lastmile_qr_scan"}, "fusion_lat": 0.0, "name": "7286fd860015824e9ead2c347815933e", "bike_id": "7286fd860015824e9ead2c347815933e", "is_disabled": 0, "type": "electric_scooter", "lat": 38.910235166666666, "lon": -77.042662, "is_reserved": 0, "fusion_lon": 0.0}, {"rental_uris": {"ios": "https://dc.lft.to/lastmile_qr_scan", "android": "https://dc.lft.to/lastmile_qr_scan"}, "fusion_lat": 0.0, "name": "d8b802d28639effcdc8961cf49821e0d", "bike_id": "d8b802d28639effcdc8961cf49821e0d", "is_disabled": 0, "type": "electric_bike", "lat": 38.82870233333333, "lon": -77.008414, "is_reserved": 0, "fusion_lon": 0.0}, {"rental_uris": {"ios": "https://dc.lft.to/lastmile_qr_scan", "android": "https://dc.lft.to/lastmile_qr_scan"}, "fusion_lat": 0.0, "name": "58bf890712475c610160b36414a70513", "bike_id": "58bf890712475c610160b36414a70513", "is_disabled": 0, "type": "electric_scooter", "lat": 38.88434383333333, "lon": -77.03043716666667, "is_reserved": 0, "fusion_lon": 0.0}, {"rental_uris": {"ios": "https://dc.lft.to/lastmile_qr_scan", "android": "https://dc.lft.to/lastmile_qr_scan"}, "fusion_lat": 0.0, "name": "480b6eb57858d1df7de3ac2978ecc335", "bike_id": "480b6eb57858d1df7de3ac2978ecc335", "is_disabled": 0, "type": "electric_scooter", "lat": 38.90407283333333, "lon": -76.9732865, "is_reserved": 0, "fusion_lon": 0.0}, {"rental_uris": {"ios": "https://dc.lft.to/lastmile_qr_scan", "android": "https://dc.lft.to/lastmile_qr_scan"}, "fusion_lat": 0.0, "name": "02f2421181dc1aa773a2c1d7bd147f93", "bike_id": "02f2421181dc1aa773a2c1d7bd147f93", "is_disabled": 0, "type": "electric_scooter", "lat": 38.8757775, "lon": -77.020777, "is_reserved": 0, "fusion_lon": 0.0}, {"rental_uris": {"ios": "https://dc.lft.to/lastmile_qr_scan", "android": "https://dc.lft.to/lastmile_qr_scan"}, "fusion_lat": 0.0, "name": "351cc92d66119d17dcce5bc09cf0f284", "bike_id": "351cc92d66119d17dcce5bc09cf0f284", "is_disabled": 0, "type": "electric_scooter", "lat": 38.91744033333333, "lon": -77.02401083333334, "is_reserved": 0, "fusion_lon": 0.0}, {"rental_uris": {"ios": "https://dc.lft.to/lastmile_qr_scan", "android": "https://dc.lft.to/lastmile_qr_scan"}, "fusion_lat": 0.0, "name": "0e38dd6e904a7f7b74c91ac33058d007", "bike_id": "0e38dd6e904a7f7b74c91ac33058d007", "is_disabled": 0, "type": "electric_scooter", "lat": 38.903414833333336, "lon": -77.04678666666666, "is_reserved": 0, "fusion_lon": 0.0}, {"rental_uris": {"ios": "https://dc.lft.to/lastmile_qr_scan", "android": "https://dc.lft.to/lastmile_qr_scan"}, "fusion_lat": 0.0, "name": "c253091ce195ef385820541b2bd2ddad", "bike_id": "c253091ce195ef385820541b2bd2ddad", "is_disabled": 0, "type": "electric_scooter", "lat": 38.915672, "lon": -77.03203933333333, "is_reserved": 0, "fusion_lon": 0.0}, {"rental_uris": {"ios": "https://dc.lft.to/lastmile_qr_scan", "android": "https://dc.lft.to/lastmile_qr_scan"}, "fusion_lat": 0.0, "name": "8912523a21e7fac6820a482ad6c420fd", "bike_id": "8912523a21e7fac6820a482ad6c420fd", "is_disabled": 0, "type": "electric_scooter", "lat": 38.90278933333333, "lon": -77.06323166666667, "is_reserved": 0, "fusion_lon": 0.0}, {"rental_uris": {"ios": "https://dc.lft.to/lastmile_qr_scan", "android": "https://dc.lft.to/lastmile_qr_scan"}, "fusion_lat": 0.0, "name": "bbcd4d6c46de059360eee43f79d8137c", "bike_id": "bbcd4d6c46de059360eee43f79d8137c", "is_disabled": 0, "type": "electric_scooter", "lat": 38.893956, "lon": -77.05005366666667, "is_reserved": 0, "fusion_lon": 0.0}, {"rental_uris": {"ios": "https://dc.lft.to/lastmile_qr_scan", "android": "https://dc.lft.to/lastmile_qr_scan"}, "fusion_lat": 0.0, "name": "360b0ca2aab9f655e08b1024227d8972", "bike_id": "360b0ca2aab9f655e08b1024227d8972", "is_disabled": 0, "type": "electric_scooter", "lat": 38.91107483333333, "lon": -77.0383015, "is_reserved": 0, "fusion_lon": 0.0}, {"rental_uris": {"ios": "https://dc.lft.to/lastmile_qr_scan", "android": "https://dc.lft.to/lastmile_qr_scan"}, "fusion_lat": 0.0, "name": "7e8338702ff1391090be263e09281d81", "bike_id": "7e8338702ff1391090be263e09281d81", "is_disabled": 0, "type": "electric_scooter", "lat": 38.91677716666667, "lon": -77.02977233333333, "is_reserved": 0, "fusion_lon": 0.0}, {"rental_uris": {"ios": "https://dc.lft.to/lastmile_qr_scan", "android": "https://dc.lft.to/lastmile_qr_scan"}, "fusion_lat": 0.0, "name": "73747a086cde9dfb09eda6fe4f4e82c7", "bike_id": "73747a086cde9dfb09eda6fe4f4e82c7", "is_disabled": 0, "type": "electric_scooter", "lat": 38.916295166666664, "lon": -77.010786, "is_reserved": 0, "fusion_lon": 0.0}, {"rental_uris": {"ios": "https://dc.lft.to/lastmile_qr_scan", "android": "https://dc.lft.to/lastmile_qr_scan"}, "fusion_lat": 0.0, "name": "87257fb24569c087df6af77aa0bcc762", "bike_id": "87257fb24569c087df6af77aa0bcc762", "is_disabled": 0, "type": "electric_scooter", "lat": 38.92148566666667, "lon": -77.07299616666667, "is_reserved": 0, "fusion_lon": 0.0}, {"rental_uris": {"ios": "https://dc.lft.to/lastmile_qr_scan", "android": "https://dc.lft.to/lastmile_qr_scan"}, "fusion_lat": 0.0, "name": "3f6e41e4a936b637c13e91e112c69d6e", "bike_id": "3f6e41e4a936b637c13e91e112c69d6e", "is_disabled": 0, "type": "electric_scooter", "lat": 38.85448383333333, "lon": -76.97236983333333, "is_reserved": 0, "fusion_lon": 0.0}, {"rental_uris": {"ios": "https://dc.lft.to/lastmile_qr_scan", "android": "https://dc.lft.to/lastmile_qr_scan"}, "fusion_lat": 0.0, "name": "9c80304e2a89835c1232a35a29f7f5d6", "bike_id": "9c80304e2a89835c1232a35a29f7f5d6", "is_disabled": 0, "type": "electric_bike", "lat": 39.03048033333334, "lon": -77.09484683333334, "is_reserved": 0, "fusion_lon": 0.0}, {"rental_uris": {"ios": "https://dc.lft.to/lastmile_qr_scan", "android": "https://dc.lft.to/lastmile_qr_scan"}, "fusion_lat": 0.0, "name": "10c8f32388046684791e3212e8725b35", "bike_id": "10c8f32388046684791e3212e8725b35", "is_disabled": 0, "type": "electric_scooter", "lat": 38.87790666666667, "lon": -77.00128983333333, "is_reserved": 0, "fusion_lon": 0.0}, {"rental_uris": {"ios": "https://dc.lft.to/lastmile_qr_scan", "android": "https://dc.lft.to/lastmile_qr_scan"}, "fusion_lat": 0.0, "name": "2da6b7e4e15ecc637b26fe353b04274e", "bike_id": "2da6b7e4e15ecc637b26fe353b04274e", "is_disabled": 0, "type": "electric_scooter", "lat": 38.903065, "lon": -77.04176083333333, "is_reserved": 0, "fusion_lon": 0.0}, {"rental_uris": {"ios": "https://dc.lft.to/lastmile_qr_scan", "android": "https://dc.lft.to/lastmile_qr_scan"}, "fusion_lat": 0.0, "name": "4f0dfa31126fef4f99390a55ba9c4617", "bike_id": "4f0dfa31126fef4f99390a55ba9c4617", "is_disabled": 0, "type": "electric_scooter", "lat": 38.90579733333333, "lon": -77.000551, "is_reserved": 0, "fusion_lon": 0.0}, {"rental_uris": {"ios": "https://dc.lft.to/lastmile_qr_scan", "android": "https://dc.lft.to/lastmile_qr_scan"}, "fusion_lat": 0.0, "name": "a072f38e8737afaed60ac5b850a50889", "bike_id": "a072f38e8737afaed60ac5b850a50889", "is_disabled": 0, "type": "electric_scooter", "lat": 38.913447166666664, "lon": -77.04884116666666, "is_reserved": 0, "fusion_lon": 0.0}, {"rental_uris": {"ios": "https://dc.lft.to/lastmile_qr_scan", "android": "https://dc.lft.to/lastmile_qr_scan"}, "fusion_lat": 0.0, "name": "3f20fc1bc0f5342e348a3b840918f925", "bike_id": "3f20fc1bc0f5342e348a3b840918f925", "is_disabled": 0, "type": "electric_bike", "lat": 38.94513, "lon": -77.00675466666667, "is_reserved": 0, "fusion_lon": 0.0}, {"rental_uris": {"ios": "https://dc.lft.to/lastmile_qr_scan", "android": "https://dc.lft.to/lastmile_qr_scan"}, "fusion_lat": 0.0, "name": "5525dc6fe88bfe652af88871381188bc", "bike_id": "5525dc6fe88bfe652af88871381188bc", "is_disabled": 0, "type": "electric_scooter", "lat": 38.8717935, "lon": -77.0060905, "is_reserved": 0, "fusion_lon": 0.0}, {"rental_uris": {"ios": "https://dc.lft.to/lastmile_qr_scan", "android": "https://dc.lft.to/lastmile_qr_scan"}, "fusion_lat": 0.0, "name": "29ea2426278ae0824c0ca4ee261875f4", "bike_id": "29ea2426278ae0824c0ca4ee261875f4", "is_disabled": 0, "type": "electric_scooter", "lat": 38.8675115, "lon": -77.03859316666667, "is_reserved": 0, "fusion_lon": 0.0}, {"rental_uris": {"ios": "https://dc.lft.to/lastmile_qr_scan", "android": "https://dc.lft.to/lastmile_qr_scan"}, "fusion_lat": 0.0, "name": "6307b65cf799835697365901f21a8fc1", "bike_id": "6307b65cf799835697365901f21a8fc1", "is_disabled": 0, "type": "electric_bike", "lat": 38.8824565, "lon": -76.96264333333333, "is_reserved": 0, "fusion_lon": 0.0}, {"rental_uris": {"ios": "https://dc.lft.to/lastmile_qr_scan", "android": "https://dc.lft.to/lastmile_qr_scan"}, "fusion_lat": 0.0, "name": "587b53d1f384649beed7c0d146852ddc", "bike_id": "587b53d1f384649beed7c0d146852ddc", "is_disabled": 0, "type": "electric_scooter", "lat": 38.917070333333335, "lon": -77.03192466666667, "is_reserved": 0, "fusion_lon": 0.0}, {"rental_uris": {"ios": "https://dc.lft.to/lastmile_qr_scan", "android": "https://dc.lft.to/lastmile_qr_scan"}, "fusion_lat": 0.0, "name": "1661225433861dbd87e2a85d3cdcba4c", "bike_id": "1661225433861dbd87e2a85d3cdcba4c", "is_disabled": 0, "type": "electric_scooter", "lat": 38.9125585, "lon": -77.04445433333333, "is_reserved": 0, "fusion_lon": 0.0}, {"rental_uris": {"ios": "https://dc.lft.to/lastmile_qr_scan", "android": "https://dc.lft.to/lastmile_qr_scan"}, "fusion_lat": 0.0, "name": "735f5f41c498b9e9cad3da3ad20e7b20", "bike_id": "735f5f41c498b9e9cad3da3ad20e7b20", "is_disabled": 0, "type": "electric_scooter", "lat": 38.903969000000004, "lon": -77.022039, "is_reserved": 0, "fusion_lon": 0.0}, {"rental_uris": {"ios": "https://dc.lft.to/lastmile_qr_scan", "android": "https://dc.lft.to/lastmile_qr_scan"}, "fusion_lat": 0.0, "name": "3583f72e529802f8f59d9eaefbb7af92", "bike_id": "3583f72e529802f8f59d9eaefbb7af92", "is_disabled": 0, "type": "electric_scooter", "lat": 38.90726766666667, "lon": -77.03430433333334, "is_reserved": 0, "fusion_lon": 0.0}, {"rental_uris": {"ios": "https://dc.lft.to/lastmile_qr_scan", "android": "https://dc.lft.to/lastmile_qr_scan"}, "fusion_lat": 0.0, "name": "c5400fee610f713eaf0d4f2e7e5a98d8", "bike_id": "c5400fee610f713eaf0d4f2e7e5a98d8", "is_disabled": 0, "type": "electric_scooter", "lat": 38.91249416666667, "lon": -77.02229816666667, "is_reserved": 0, "fusion_lon": 0.0}, {"rental_uris": {"ios": "https://dc.lft.to/lastmile_qr_scan", "android": "https://dc.lft.to/lastmile_qr_scan"}, "fusion_lat": 0.0, "name": "be11f7fd51b05163fd8b9a6cb8826ab2", "bike_id": "be11f7fd51b05163fd8b9a6cb8826ab2", "is_disabled": 0, "type": "electric_scooter", "lat": 38.90743833333333, "lon": -76.98338333333334, "is_reserved": 0, "fusion_lon": 0.0}, {"rental_uris": {"ios": "https://dc.lft.to/lastmile_qr_scan", "android": "https://dc.lft.to/lastmile_qr_scan"}, "fusion_lat": 0.0, "name": "1a4f630b972024f9d26bc341155cb10d", "bike_id": "1a4f630b972024f9d26bc341155cb10d", "is_disabled": 0, "type": "electric_bike", "lat": 38.870720666666664, "lon": -76.97836616666666, "is_reserved": 0, "fusion_lon": 0.0}, {"rental_uris": {"ios": "https://dc.lft.to/lastmile_qr_scan", "android": "https://dc.lft.to/lastmile_qr_scan"}, "fusion_lat": 0.0, "name": "239e0fb290afc44ee7a32f00ef70c946", "bike_id": "239e0fb290afc44ee7a32f00ef70c946", "is_disabled": 0, "type": "electric_scooter", "lat": 38.9037125, "lon": -77.03203883333333, "is_reserved": 0, "fusion_lon": 0.0}, {"rental_uris": {"ios": "https://dc.lft.to/lastmile_qr_scan", "android": "https://dc.lft.to/lastmile_qr_scan"}, "fusion_lat": 0.0, "name": "644f84eb783352816a1885fe1e64b036", "bike_id": "644f84eb783352816a1885fe1e64b036", "is_disabled": 0, "type": "electric_scooter", "lat": 38.910696, "lon": -77.04390216666667, "is_reserved": 0, "fusion_lon": 0.0}, {"rental_uris": {"ios": "https://dc.lft.to/lastmile_qr_scan", "android": "https://dc.lft.to/lastmile_qr_scan"}, "fusion_lat": 0.0, "name": "d325fe4b249b0c61f61cdf0a84818bc4", "bike_id": "d325fe4b249b0c61f61cdf0a84818bc4", "is_disabled": 0, "type": "electric_bike", "lat": 38.9547945, "lon": -76.99015783333333, "is_reserved": 0, "fusion_lon": 0.0}, {"rental_uris": {"ios": "https://dc.lft.to/lastmile_qr_scan", "android": "https://dc.lft.to/lastmile_qr_scan"}, "fusion_lat": 0.0, "name": "27e9fe1eda908261e3de8a2d4684e24d", "bike_id": "27e9fe1eda908261e3de8a2d4684e24d", "is_disabled": 0, "type": "electric_bike", "lat": 38.893931333333335, "lon": -76.94803916666666, "is_reserved": 0, "fusion_lon": 0.0}, {"rental_uris": {"ios": "https://dc.lft.to/lastmile_qr_scan", "android": "https://dc.lft.to/lastmile_qr_scan"}, "fusion_lat": 0.0, "name": "c4f8e70a7298107b3e848b0c36f3219f", "bike_id": "c4f8e70a7298107b3e848b0c36f3219f", "is_disabled": 0, "type": "electric_scooter", "lat": 38.88720433333334, "lon": -76.99617483333333, "is_reserved": 0, "fusion_lon": 0.0}, {"rental_uris": {"ios": "https://dc.lft.to/lastmile_qr_scan", "android": "https://dc.lft.to/lastmile_qr_scan"}, "fusion_lat": 0.0, "name": "b4e3fd127c59505bb9389a90807e86ef", "bike_id": "b4e3fd127c59505bb9389a90807e86ef", "is_disabled": 0, "type": "electric_scooter", "lat": 38.91813633333334, "lon": -77.0325685, "is_reserved": 0, "fusion_lon": 0.0}, {"rental_uris": {"ios": "https://dc.lft.to/lastmile_qr_scan", "android": "https://dc.lft.to/lastmile_qr_scan"}, "fusion_lat": 0.0, "name": "7e75d9920eb44ebd3ff2851c768f3c40", "bike_id": "7e75d9920eb44ebd3ff2851c768f3c40", "is_disabled": 0, "type": "electric_scooter", "lat": 38.915627666666666, "lon": -77.01177116666666, "is_reserved": 0, "fusion_lon": 0.0}, {"rental_uris": {"ios": "https://dc.lft.to/lastmile_qr_scan", "android": "https://dc.lft.to/lastmile_qr_scan"}, "fusion_lat": 0.0, "name": "88f90a5654f826874c647d322fae476c", "bike_id": "88f90a5654f826874c647d322fae476c", "is_disabled": 0, "type": "electric_scooter", "lat": 38.92954616666667, "lon": -76.99088183333333, "is_reserved": 0, "fusion_lon": 0.0}, {"rental_uris": {"ios": "https://dc.lft.to/lastmile_qr_scan", "android": "https://dc.lft.to/lastmile_qr_scan"}, "fusion_lat": 0.0, "name": "5fccfe6be9a56544bf044da59b1338e9", "bike_id": "5fccfe6be9a56544bf044da59b1338e9", "is_disabled": 0, "type": "electric_scooter", "lat": 38.89844683333333, "lon": -76.94637033333333, "is_reserved": 0, "fusion_lon": 0.0}, {"rental_uris": {"ios": "https://dc.lft.to/lastmile_qr_scan", "android": "https://dc.lft.to/lastmile_qr_scan"}, "fusion_lat": 0.0, "name": "81ff77bc41737ab17ca9b450fb6420ca", "bike_id": "81ff77bc41737ab17ca9b450fb6420ca", "is_disabled": 0, "type": "electric_scooter", "lat": 38.90971916666667, "lon": -76.99604683333334, "is_reserved": 0, "fusion_lon": 0.0}, {"rental_uris": {"ios": "https://dc.lft.to/lastmile_qr_scan", "android": "https://dc.lft.to/lastmile_qr_scan"}, "fusion_lat": 0.0, "name": "fcfaf81ea189e23bd9db499c30c27df5", "bike_id": "fcfaf81ea189e23bd9db499c30c27df5", "is_disabled": 0, "type": "electric_scooter", "lat": 38.92060516666667, "lon": -77.04193233333334, "is_reserved": 0, "fusion_lon": 0.0}, {"rental_uris": {"ios": "https://dc.lft.to/lastmile_qr_scan", "android": "https://dc.lft.to/lastmile_qr_scan"}, "fusion_lat": 0.0, "name": "4387546b176281064caec2d4fb745b74", "bike_id": "4387546b176281064caec2d4fb745b74", "is_disabled": 0, "type": "electric_scooter", "lat": 38.91113416666666, "lon": -77.01713716666667, "is_reserved": 0, "fusion_lon": 0.0}, {"rental_uris": {"ios": "https://dc.lft.to/lastmile_qr_scan", "android": "https://dc.lft.to/lastmile_qr_scan"}, "fusion_lat": 0.0, "name": "8f9b7636d903ca9886fcedb26a67f395", "bike_id": "8f9b7636d903ca9886fcedb26a67f395", "is_disabled": 0, "type": "electric_scooter", "lat": 38.90570116666667, "lon": -77.043654, "is_reserved": 0, "fusion_lon": 0.0}, {"rental_uris": {"ios": "https://dc.lft.to/lastmile_qr_scan", "android": "https://dc.lft.to/lastmile_qr_scan"}, "fusion_lat": 0.0, "name": "a260e1343ce31f40026c9ae313ac3343", "bike_id": "a260e1343ce31f40026c9ae313ac3343", "is_disabled": 0, "type": "electric_scooter", "lat": 38.9104875, "lon": -77.048297, "is_reserved": 0, "fusion_lon": 0.0}, {"rental_uris": {"ios": "https://dc.lft.to/lastmile_qr_scan", "android": "https://dc.lft.to/lastmile_qr_scan"}, "fusion_lat": 0.0, "name": "828e0082d00e350989e6962a062a5d79", "bike_id": "828e0082d00e350989e6962a062a5d79", "is_disabled": 0, "type": "electric_scooter", "lat": 38.918072, "lon": -77.02498066666666, "is_reserved": 0, "fusion_lon": 0.0}, {"rental_uris": {"ios": "https://dc.lft.to/lastmile_qr_scan", "android": "https://dc.lft.to/lastmile_qr_scan"}, "fusion_lat": 0.0, "name": "95ee5d31c85ea54226e3af9c04aaa41d", "bike_id": "95ee5d31c85ea54226e3af9c04aaa41d", "is_disabled": 0, "type": "electric_scooter", "lat": 38.9168625, "lon": -77.03208683333334, "is_reserved": 0, "fusion_lon": 0.0}, {"rental_uris": {"ios": "https://dc.lft.to/lastmile_qr_scan", "android": "https://dc.lft.to/lastmile_qr_scan"}, "fusion_lat": 0.0, "name": "36d4067777e8765c3b51cc0adf32952f", "bike_id": "36d4067777e8765c3b51cc0adf32952f", "is_disabled": 0, "type": "electric_scooter", "lat": 38.9081885, "lon": -77.03944716666666, "is_reserved": 0, "fusion_lon": 0.0}, {"rental_uris": {"ios": "https://dc.lft.to/lastmile_qr_scan", "android": "https://dc.lft.to/lastmile_qr_scan"}, "fusion_lat": 0.0, "name": "ca0b51b0fa96dd0cd6ab0771033407d0", "bike_id": "ca0b51b0fa96dd0cd6ab0771033407d0", "is_disabled": 0, "type": "electric_scooter", "lat": 38.89221233333333, "lon": -77.0433385, "is_reserved": 0, "fusion_lon": 0.0}, {"rental_uris": {"ios": "https://dc.lft.to/lastmile_qr_scan", "android": "https://dc.lft.to/lastmile_qr_scan"}, "fusion_lat": 0.0, "name": "50668e7fdaaccee1c8b600845f4a9344", "bike_id": "50668e7fdaaccee1c8b600845f4a9344", "is_disabled": 0, "type": "electric_scooter", "lat": 38.90949633333334, "lon": -77.03210383333334, "is_reserved": 0, "fusion_lon": 0.0}, {"rental_uris": {"ios": "https://dc.lft.to/lastmile_qr_scan", "android": "https://dc.lft.to/lastmile_qr_scan"}, "fusion_lat": 0.0, "name": "b3f7c09c4c3d5cffb5514385e0c91c21", "bike_id": "b3f7c09c4c3d5cffb5514385e0c91c21", "is_disabled": 0, "type": "electric_scooter", "lat": 38.933555, "lon": -77.08578, "is_reserved": 0, "fusion_lon": 0.0}, {"rental_uris": {"ios": "https://dc.lft.to/lastmile_qr_scan", "android": "https://dc.lft.to/lastmile_qr_scan"}, "fusion_lat": 0.0, "name": "e70f2a5d5e009ef181d7b9c3bbd04893", "bike_id": "e70f2a5d5e009ef181d7b9c3bbd04893", "is_disabled": 0, "type": "electric_scooter", "lat": 38.937721, "lon": -77.03262566666666, "is_reserved": 0, "fusion_lon": 0.0}, {"rental_uris": {"ios": "https://dc.lft.to/lastmile_qr_scan", "android": "https://dc.lft.to/lastmile_qr_scan"}, "fusion_lat": 0.0, "name": "c1f2fde987c29b9b1645e09ff33d3653", "bike_id": "c1f2fde987c29b9b1645e09ff33d3653", "is_disabled": 0, "type": "electric_scooter", "lat": 38.96160716666667, "lon": -77.02790333333333, "is_reserved": 0, "fusion_lon": 0.0}, {"rental_uris": {"ios": "https://dc.lft.to/lastmile_qr_scan", "android": "https://dc.lft.to/lastmile_qr_scan"}, "fusion_lat": 0.0, "name": "b59b2e719c9bc04c2fba1928c484bf9a", "bike_id": "b59b2e719c9bc04c2fba1928c484bf9a", "is_disabled": 0, "type": "electric_scooter", "lat": 38.9370875, "lon": -77.036396, "is_reserved": 0, "fusion_lon": 0.0}, {"rental_uris": {"ios": "https://dc.lft.to/lastmile_qr_scan", "android": "https://dc.lft.to/lastmile_qr_scan"}, "fusion_lat": 0.0, "name": "9cdff2e87f17be7f4d64ad6435bb67c9", "bike_id": "9cdff2e87f17be7f4d64ad6435bb67c9", "is_disabled": 0, "type": "electric_scooter", "lat": 38.93510916666666, "lon": -77.0327335, "is_reserved": 0, "fusion_lon": 0.0}, {"rental_uris": {"ios": "https://dc.lft.to/lastmile_qr_scan", "android": "https://dc.lft.to/lastmile_qr_scan"}, "fusion_lat": 0.0, "name": "43e46a95294c4c8c748d63ae304e9b9c", "bike_id": "43e46a95294c4c8c748d63ae304e9b9c", "is_disabled": 0, "type": "electric_scooter", "lat": 38.918167, "lon": -77.03171816666666, "is_reserved": 0, "fusion_lon": 0.0}, {"rental_uris": {"ios": "https://dc.lft.to/lastmile_qr_scan", "android": "https://dc.lft.to/lastmile_qr_scan"}, "fusion_lat": 0.0, "name": "f3962d30ef658556fc09948fa7e32043", "bike_id": "f3962d30ef658556fc09948fa7e32043", "is_disabled": 0, "type": "electric_scooter", "lat": 38.900329, "lon": -76.99386333333334, "is_reserved": 0, "fusion_lon": 0.0}, {"rental_uris": {"ios": "https://dc.lft.to/lastmile_qr_scan", "android": "https://dc.lft.to/lastmile_qr_scan"}, "fusion_lat": 0.0, "name": "8508c346630785a215b243b9de4df389", "bike_id": "8508c346630785a215b243b9de4df389", "is_disabled": 0, "type": "electric_scooter", "lat": 38.89231183333333, "lon": -77.02801116666667, "is_reserved": 0, "fusion_lon": 0.0}, {"rental_uris": {"ios": "https://dc.lft.to/lastmile_qr_scan", "android": "https://dc.lft.to/lastmile_qr_scan"}, "fusion_lat": 0.0, "name": "ecf754d001c2f343642214ef4fbae5d8", "bike_id": "ecf754d001c2f343642214ef4fbae5d8", "is_disabled": 0, "type": "electric_scooter", "lat": 38.893486833333334, "lon": -77.04142616666667, "is_reserved": 0, "fusion_lon": 0.0}, {"rental_uris": {"ios": "https://dc.lft.to/lastmile_qr_scan", "android": "https://dc.lft.to/lastmile_qr_scan"}, "fusion_lat": 0.0, "name": "5db2bec48cdf39e36efb518affc0a10f", "bike_id": "5db2bec48cdf39e36efb518affc0a10f", "is_disabled": 0, "type": "electric_scooter", "lat": 38.84429766666667, "lon": -76.99709116666666, "is_reserved": 0, "fusion_lon": 0.0}, {"rental_uris": {"ios": "https://dc.lft.to/lastmile_qr_scan", "android": "https://dc.lft.to/lastmile_qr_scan"}, "fusion_lat": 0.0, "name": "dd3e00b686a6c72b8f41ce24e10d09f4", "bike_id": "dd3e00b686a6c72b8f41ce24e10d09f4", "is_disabled": 0, "type": "electric_scooter", "lat": 38.9015285, "lon": -77.04362666666667, "is_reserved": 0, "fusion_lon": 0.0}, {"rental_uris": {"ios": "https://dc.lft.to/lastmile_qr_scan", "android": "https://dc.lft.to/lastmile_qr_scan"}, "fusion_lat": 0.0, "name": "2d29b400fb4c2213f6bd3581e21889c3", "bike_id": "2d29b400fb4c2213f6bd3581e21889c3", "is_disabled": 0, "type": "electric_scooter", "lat": 38.9060535, "lon": -77.00603733333334, "is_reserved": 0, "fusion_lon": 0.0}, {"rental_uris": {"ios": "https://dc.lft.to/lastmile_qr_scan", "android": "https://dc.lft.to/lastmile_qr_scan"}, "fusion_lat": 0.0, "name": "9de16f7479618539294fecc76040f171", "bike_id": "9de16f7479618539294fecc76040f171", "is_disabled": 0, "type": "electric_scooter", "lat": 38.91786716666667, "lon": -77.0362815, "is_reserved": 0, "fusion_lon": 0.0}, {"rental_uris": {"ios": "https://dc.lft.to/lastmile_qr_scan", "android": "https://dc.lft.to/lastmile_qr_scan"}, "fusion_lat": 0.0, "name": "b1977b9aa86938056211821dcb04c303", "bike_id": "b1977b9aa86938056211821dcb04c303", "is_disabled": 0, "type": "electric_scooter", "lat": 38.92104416666667, "lon": -77.04379233333333, "is_reserved": 0, "fusion_lon": 0.0}, {"rental_uris": {"ios": "https://dc.lft.to/lastmile_qr_scan", "android": "https://dc.lft.to/lastmile_qr_scan"}, "fusion_lat": 0.0, "name": "de4042be1764d7422d0664ed191576a1", "bike_id": "de4042be1764d7422d0664ed191576a1", "is_disabled": 0, "type": "electric_scooter", "lat": 38.88738566666667, "lon": -77.01535333333334, "is_reserved": 0, "fusion_lon": 0.0}, {"rental_uris": {"ios": "https://dc.lft.to/lastmile_qr_scan", "android": "https://dc.lft.to/lastmile_qr_scan"}, "fusion_lat": 0.0, "name": "6da5adcf11759c95c3d6775de7ef4031", "bike_id": "6da5adcf11759c95c3d6775de7ef4031", "is_disabled": 0, "type": "electric_scooter", "lat": 38.8977215, "lon": -77.03175783333333, "is_reserved": 0, "fusion_lon": 0.0}, {"rental_uris": {"ios": "https://dc.lft.to/lastmile_qr_scan", "android": "https://dc.lft.to/lastmile_qr_scan"}, "fusion_lat": 0.0, "name": "f5acb2fb36deaf6d5774d9e84ec3a021", "bike_id": "f5acb2fb36deaf6d5774d9e84ec3a021", "is_disabled": 0, "type": "electric_scooter", "lat": 38.88399666666667, "lon": -77.01540083333333, "is_reserved": 0, "fusion_lon": 0.0}, {"rental_uris": {"ios": "https://dc.lft.to/lastmile_qr_scan", "android": "https://dc.lft.to/lastmile_qr_scan"}, "fusion_lat": 0.0, "name": "e649fb547267f3ec8437fb0e2d969848", "bike_id": "e649fb547267f3ec8437fb0e2d969848", "is_disabled": 0, "type": "electric_bike", "lat": 38.8699645, "lon": -77.0657125, "is_reserved": 0, "fusion_lon": 0.0}, {"rental_uris": {"ios": "https://dc.lft.to/lastmile_qr_scan", "android": "https://dc.lft.to/lastmile_qr_scan"}, "fusion_lat": 0.0, "name": "9ee29ec66bf4fa54612b01f497cfacd6", "bike_id": "9ee29ec66bf4fa54612b01f497cfacd6", "is_disabled": 0, "type": "electric_scooter", "lat": 38.92584466666667, "lon": -77.03987033333334, "is_reserved": 0, "fusion_lon": 0.0}, {"rental_uris": {"ios": "https://dc.lft.to/lastmile_qr_scan", "android": "https://dc.lft.to/lastmile_qr_scan"}, "fusion_lat": 0.0, "name": "14ddad6192508cf7c6c3860d5a6eadb9", "bike_id": "14ddad6192508cf7c6c3860d5a6eadb9", "is_disabled": 0, "type": "electric_scooter", "lat": 38.92135833333333, "lon": -77.036634, "is_reserved": 0, "fusion_lon": 0.0}, {"rental_uris": {"ios": "https://dc.lft.to/lastmile_qr_scan", "android": "https://dc.lft.to/lastmile_qr_scan"}, "fusion_lat": 0.0, "name": "70fe1a071400bfce34ed07726c082614", "bike_id": "70fe1a071400bfce34ed07726c082614", "is_disabled": 0, "type": "electric_scooter", "lat": 38.90112116666667, "lon": -77.02617516666666, "is_reserved": 0, "fusion_lon": 0.0}, {"rental_uris": {"ios": "https://dc.lft.to/lastmile_qr_scan", "android": "https://dc.lft.to/lastmile_qr_scan"}, "fusion_lat": 0.0, "name": "0d68d34c6a9ccc2dbe6ce74db4d93990", "bike_id": "0d68d34c6a9ccc2dbe6ce74db4d93990", "is_disabled": 0, "type": "electric_scooter", "lat": 38.862550666666664, "lon": -76.99518783333333, "is_reserved": 0, "fusion_lon": 0.0}, {"rental_uris": {"ios": "https://dc.lft.to/lastmile_qr_scan", "android": "https://dc.lft.to/lastmile_qr_scan"}, "fusion_lat": 0.0, "name": "bbe287b9a01c42996f15ee5feea78f4e", "bike_id": "bbe287b9a01c42996f15ee5feea78f4e", "is_disabled": 0, "type": "electric_scooter", "lat": 38.9026115, "lon": -77.026459, "is_reserved": 0, "fusion_lon": 0.0}, {"rental_uris": {"ios": "https://dc.lft.to/lastmile_qr_scan", "android": "https://dc.lft.to/lastmile_qr_scan"}, "fusion_lat": 0.0, "name": "a003a28a8504c909b082716258739bcc", "bike_id": "a003a28a8504c909b082716258739bcc", "is_disabled": 0, "type": "electric_scooter", "lat": 38.91708933333334, "lon": -77.04123016666667, "is_reserved": 0, "fusion_lon": 0.0}, {"rental_uris": {"ios": "https://dc.lft.to/lastmile_qr_scan", "android": "https://dc.lft.to/lastmile_qr_scan"}, "fusion_lat": 0.0, "name": "03c1e387bb143ec9bf5c4f513f94194e", "bike_id": "03c1e387bb143ec9bf5c4f513f94194e", "is_disabled": 0, "type": "electric_scooter", "lat": 38.89986116666667, "lon": -77.03182333333334, "is_reserved": 0, "fusion_lon": 0.0}, {"rental_uris": {"ios": "https://dc.lft.to/lastmile_qr_scan", "android": "https://dc.lft.to/lastmile_qr_scan"}, "fusion_lat": 0.0, "name": "31549146d75bf8609e3740db34725967", "bike_id": "31549146d75bf8609e3740db34725967", "is_disabled": 0, "type": "electric_scooter", "lat": 38.90343633333333, "lon": -77.03842816666666, "is_reserved": 0, "fusion_lon": 0.0}, {"rental_uris": {"ios": "https://dc.lft.to/lastmile_qr_scan", "android": "https://dc.lft.to/lastmile_qr_scan"}, "fusion_lat": 0.0, "name": "1d6c6b01cc97fb9d4c55bf4b13a0b63a", "bike_id": "1d6c6b01cc97fb9d4c55bf4b13a0b63a", "is_disabled": 0, "type": "electric_scooter", "lat": 38.903385166666666, "lon": -77.04226466666667, "is_reserved": 0, "fusion_lon": 0.0}, {"rental_uris": {"ios": "https://dc.lft.to/lastmile_qr_scan", "android": "https://dc.lft.to/lastmile_qr_scan"}, "fusion_lat": 0.0, "name": "2275d807bf123eb2083fbba7748dd03f", "bike_id": "2275d807bf123eb2083fbba7748dd03f", "is_disabled": 0, "type": "electric_scooter", "lat": 38.89231366666667, "lon": -77.0318435, "is_reserved": 0, "fusion_lon": 0.0}, {"rental_uris": {"ios": "https://dc.lft.to/lastmile_qr_scan", "android": "https://dc.lft.to/lastmile_qr_scan"}, "fusion_lat": 0.0, "name": "57adbea53ec88ff25e9955ee3cc1c825", "bike_id": "57adbea53ec88ff25e9955ee3cc1c825", "is_disabled": 0, "type": "electric_scooter", "lat": 38.910626666666666, "lon": -77.061943, "is_reserved": 0, "fusion_lon": 0.0}, {"rental_uris": {"ios": "https://dc.lft.to/lastmile_qr_scan", "android": "https://dc.lft.to/lastmile_qr_scan"}, "fusion_lat": 0.0, "name": "bcb02922fed3e96b6409c4c7cbb3f30d", "bike_id": "bcb02922fed3e96b6409c4c7cbb3f30d", "is_disabled": 0, "type": "electric_scooter", "lat": 38.86729833333333, "lon": -76.98662033333333, "is_reserved": 0, "fusion_lon": 0.0}, {"rental_uris": {"ios": "https://dc.lft.to/lastmile_qr_scan", "android": "https://dc.lft.to/lastmile_qr_scan"}, "fusion_lat": 0.0, "name": "46a5170e07614cd10709a869323c4f63", "bike_id": "46a5170e07614cd10709a869323c4f63", "is_disabled": 0, "type": "electric_scooter", "lat": 38.915464666666665, "lon": -77.0385985, "is_reserved": 0, "fusion_lon": 0.0}, {"rental_uris": {"ios": "https://dc.lft.to/lastmile_qr_scan", "android": "https://dc.lft.to/lastmile_qr_scan"}, "fusion_lat": 0.0, "name": "7cb18f7004e5c97af57666dd36db272f", "bike_id": "7cb18f7004e5c97af57666dd36db272f", "is_disabled": 0, "type": "electric_scooter", "lat": 38.90543366666667, "lon": -77.04557133333333, "is_reserved": 0, "fusion_lon": 0.0}, {"rental_uris": {"ios": "https://dc.lft.to/lastmile_qr_scan", "android": "https://dc.lft.to/lastmile_qr_scan"}, "fusion_lat": 0.0, "name": "f997c64bf1f210955c2b217d6824a24d", "bike_id": "f997c64bf1f210955c2b217d6824a24d", "is_disabled": 0, "type": "electric_scooter", "lat": 38.8624145, "lon": -76.99498233333334, "is_reserved": 0, "fusion_lon": 0.0}, {"rental_uris": {"ios": "https://dc.lft.to/lastmile_qr_scan", "android": "https://dc.lft.to/lastmile_qr_scan"}, "fusion_lat": 0.0, "name": "19a4cbdd259289c8464eca80f87a4418", "bike_id": "19a4cbdd259289c8464eca80f87a4418", "is_disabled": 0, "type": "electric_scooter", "lat": 38.8921905, "lon": -77.03163816666667, "is_reserved": 0, "fusion_lon": 0.0}, {"rental_uris": {"ios": "https://dc.lft.to/lastmile_qr_scan", "android": "https://dc.lft.to/lastmile_qr_scan"}, "fusion_lat": 0.0, "name": "3ef69eb6bc518dd6180c62b6edcc5fe1", "bike_id": "3ef69eb6bc518dd6180c62b6edcc5fe1", "is_disabled": 0, "type": "electric_scooter", "lat": 38.9236225, "lon": -77.05131533333333, "is_reserved": 0, "fusion_lon": 0.0}, {"rental_uris": {"ios": "https://dc.lft.to/lastmile_qr_scan", "android": "https://dc.lft.to/lastmile_qr_scan"}, "fusion_lat": 0.0, "name": "cfe8b5faa7923bf18f0791621fe925dc", "bike_id": "cfe8b5faa7923bf18f0791621fe925dc", "is_disabled": 0, "type": "electric_scooter", "lat": 38.91555916666667, "lon": -77.039404, "is_reserved": 0, "fusion_lon": 0.0}, {"rental_uris": {"ios": "https://dc.lft.to/lastmile_qr_scan", "android": "https://dc.lft.to/lastmile_qr_scan"}, "fusion_lat": 0.0, "name": "cc8d81ebc13515ea33e8ab6b6034334c", "bike_id": "cc8d81ebc13515ea33e8ab6b6034334c", "is_disabled": 0, "type": "electric_scooter", "lat": 38.911084333333335, "lon": -77.03174733333333, "is_reserved": 0, "fusion_lon": 0.0}, {"rental_uris": {"ios": "https://dc.lft.to/lastmile_qr_scan", "android": "https://dc.lft.to/lastmile_qr_scan"}, "fusion_lat": 0.0, "name": "e6f06a242c19a646f9dbcb1dd2e67bee", "bike_id": "e6f06a242c19a646f9dbcb1dd2e67bee", "is_disabled": 0, "type": "electric_scooter", "lat": 38.89914383333333, "lon": -77.04052616666667, "is_reserved": 0, "fusion_lon": 0.0}, {"rental_uris": {"ios": "https://dc.lft.to/lastmile_qr_scan", "android": "https://dc.lft.to/lastmile_qr_scan"}, "fusion_lat": 0.0, "name": "77039a163a02816201526be554865e5d", "bike_id": "77039a163a02816201526be554865e5d", "is_disabled": 0, "type": "electric_scooter", "lat": 38.917202333333336, "lon": -77.03658533333333, "is_reserved": 0, "fusion_lon": 0.0}, {"rental_uris": {"ios": "https://dc.lft.to/lastmile_qr_scan", "android": "https://dc.lft.to/lastmile_qr_scan"}, "fusion_lat": 0.0, "name": "5157ddd3e64308c656093b7d08d4e4b5", "bike_id": "5157ddd3e64308c656093b7d08d4e4b5", "is_disabled": 0, "type": "electric_scooter", "lat": 38.903699833333334, "lon": -77.03204366666667, "is_reserved": 0, "fusion_lon": 0.0}, {"rental_uris": {"ios": "https://dc.lft.to/lastmile_qr_scan", "android": "https://dc.lft.to/lastmile_qr_scan"}, "fusion_lat": 0.0, "name": "8ccc24cbb02397ac4ce4a690c5e3a9cf", "bike_id": "8ccc24cbb02397ac4ce4a690c5e3a9cf", "is_disabled": 0, "type": "electric_scooter", "lat": 38.90281866666667, "lon": -77.03677616666667, "is_reserved": 0, "fusion_lon": 0.0}, {"rental_uris": {"ios": "https://dc.lft.to/lastmile_qr_scan", "android": "https://dc.lft.to/lastmile_qr_scan"}, "fusion_lat": 0.0, "name": "cdc40c30f85eb501d72c67ced06bb947", "bike_id": "cdc40c30f85eb501d72c67ced06bb947", "is_disabled": 0, "type": "electric_scooter", "lat": 38.88742666666667, "lon": -77.00339616666666, "is_reserved": 0, "fusion_lon": 0.0}, {"rental_uris": {"ios": "https://dc.lft.to/lastmile_qr_scan", "android": "https://dc.lft.to/lastmile_qr_scan"}, "fusion_lat": 0.0, "name": "331d14cd346ab33e7202b4a1c1656219", "bike_id": "331d14cd346ab33e7202b4a1c1656219", "is_disabled": 0, "type": "electric_scooter", "lat": 38.924921166666664, "lon": -77.07347483333334, "is_reserved": 0, "fusion_lon": 0.0}, {"rental_uris": {"ios": "https://dc.lft.to/lastmile_qr_scan", "android": "https://dc.lft.to/lastmile_qr_scan"}, "fusion_lat": 0.0, "name": "b24c7b5dd711a35a0422f8e9addeb09a", "bike_id": "b24c7b5dd711a35a0422f8e9addeb09a", "is_disabled": 0, "type": "electric_scooter", "lat": 38.95183133333333, "lon": -77.02725683333334, "is_reserved": 0, "fusion_lon": 0.0}, {"rental_uris": {"ios": "https://dc.lft.to/lastmile_qr_scan", "android": "https://dc.lft.to/lastmile_qr_scan"}, "fusion_lat": 0.0, "name": "11dfae52353d18007fedf3fcb5fcd00a", "bike_id": "11dfae52353d18007fedf3fcb5fcd00a", "is_disabled": 0, "type": "electric_scooter", "lat": 38.91327483333333, "lon": -77.03192366666667, "is_reserved": 0, "fusion_lon": 0.0}, {"rental_uris": {"ios": "https://dc.lft.to/lastmile_qr_scan", "android": "https://dc.lft.to/lastmile_qr_scan"}, "fusion_lat": 0.0, "name": "ad37b4f6c6f35d62515c87d00cb0aa11", "bike_id": "ad37b4f6c6f35d62515c87d00cb0aa11", "is_disabled": 0, "type": "electric_scooter", "lat": 38.899973, "lon": -77.0403035, "is_reserved": 0, "fusion_lon": 0.0}, {"rental_uris": {"ios": "https://dc.lft.to/lastmile_qr_scan", "android": "https://dc.lft.to/lastmile_qr_scan"}, "fusion_lat": 0.0, "name": "6a03dc006886ff65aefa93bb95813537", "bike_id": "6a03dc006886ff65aefa93bb95813537", "is_disabled": 0, "type": "electric_scooter", "lat": 38.905688, "lon": -77.03441233333334, "is_reserved": 0, "fusion_lon": 0.0}, {"rental_uris": {"ios": "https://dc.lft.to/lastmile_qr_scan", "android": "https://dc.lft.to/lastmile_qr_scan"}, "fusion_lat": 0.0, "name": "b4b8719dab922b80e9a19044a09c8e51", "bike_id": "b4b8719dab922b80e9a19044a09c8e51", "is_disabled": 0, "type": "electric_scooter", "lat": 38.93306316666666, "lon": -77.02469316666667, "is_reserved": 0, "fusion_lon": 0.0}, {"rental_uris": {"ios": "https://dc.lft.to/lastmile_qr_scan", "android": "https://dc.lft.to/lastmile_qr_scan"}, "fusion_lat": 0.0, "name": "56ac202f9fc5999b43a9737239eb5467", "bike_id": "56ac202f9fc5999b43a9737239eb5467", "is_disabled": 0, "type": "electric_bike", "lat": 38.8428715, "lon": -77.04495466666667, "is_reserved": 0, "fusion_lon": 0.0}, {"rental_uris": {"ios": "https://dc.lft.to/lastmile_qr_scan", "android": "https://dc.lft.to/lastmile_qr_scan"}, "fusion_lat": 0.0, "name": "e5633d50d2f185a8441defec219b6a33", "bike_id": "e5633d50d2f185a8441defec219b6a33", "is_disabled": 0, "type": "electric_scooter", "lat": 38.92608766666667, "lon": -77.03954866666666, "is_reserved": 0, "fusion_lon": 0.0}, {"rental_uris": {"ios": "https://dc.lft.to/lastmile_qr_scan", "android": "https://dc.lft.to/lastmile_qr_scan"}, "fusion_lat": 0.0, "name": "72c9166b3183aad1a62d1b50f44002e8", "bike_id": "72c9166b3183aad1a62d1b50f44002e8", "is_disabled": 0, "type": "electric_scooter", "lat": 38.912629833333334, "lon": -77.04441016666667, "is_reserved": 0, "fusion_lon": 0.0}, {"rental_uris": {"ios": "https://dc.lft.to/lastmile_qr_scan", "android": "https://dc.lft.to/lastmile_qr_scan"}, "fusion_lat": 0.0, "name": "2e86390323011c61d30315c805ebb380", "bike_id": "2e86390323011c61d30315c805ebb380", "is_disabled": 0, "type": "electric_scooter", "lat": 38.9507455, "lon": -77.03103016666667, "is_reserved": 0, "fusion_lon": 0.0}, {"rental_uris": {"ios": "https://dc.lft.to/lastmile_qr_scan", "android": "https://dc.lft.to/lastmile_qr_scan"}, "fusion_lat": 0.0, "name": "3e782ebd823694554bec75b41f9f6c0d", "bike_id": "3e782ebd823694554bec75b41f9f6c0d", "is_disabled": 0, "type": "electric_scooter", "lat": 38.898636333333336, "lon": -77.03970716666667, "is_reserved": 0, "fusion_lon": 0.0}, {"rental_uris": {"ios": "https://dc.lft.to/lastmile_qr_scan", "android": "https://dc.lft.to/lastmile_qr_scan"}, "fusion_lat": 0.0, "name": "6a2ee932b5d53a1f7a0d3c0ceccb1ea6", "bike_id": "6a2ee932b5d53a1f7a0d3c0ceccb1ea6", "is_disabled": 0, "type": "electric_scooter", "lat": 38.89221, "lon": -77.02221533333334, "is_reserved": 0, "fusion_lon": 0.0}, {"rental_uris": {"ios": "https://dc.lft.to/lastmile_qr_scan", "android": "https://dc.lft.to/lastmile_qr_scan"}, "fusion_lat": 0.0, "name": "8fc2543f7632330db8e551fe2d02e7ed", "bike_id": "8fc2543f7632330db8e551fe2d02e7ed", "is_disabled": 0, "type": "electric_scooter", "lat": 38.934856333333336, "lon": -77.07275816666667, "is_reserved": 0, "fusion_lon": 0.0}, {"rental_uris": {"ios": "https://dc.lft.to/lastmile_qr_scan", "android": "https://dc.lft.to/lastmile_qr_scan"}, "fusion_lat": 0.0, "name": "7823e80fcb82c506b53e62034934026a", "bike_id": "7823e80fcb82c506b53e62034934026a", "is_disabled": 0, "type": "electric_scooter", "lat": 38.90026866666667, "lon": -76.997686, "is_reserved": 0, "fusion_lon": 0.0}, {"rental_uris": {"ios": "https://dc.lft.to/lastmile_qr_scan", "android": "https://dc.lft.to/lastmile_qr_scan"}, "fusion_lat": 0.0, "name": "00cb2d9f5b4793bf1842e22eaee9edd6", "bike_id": "00cb2d9f5b4793bf1842e22eaee9edd6", "is_disabled": 0, "type": "electric_scooter", "lat": 38.90150716666667, "lon": -77.04391833333334, "is_reserved": 0, "fusion_lon": 0.0}, {"rental_uris": {"ios": "https://dc.lft.to/lastmile_qr_scan", "android": "https://dc.lft.to/lastmile_qr_scan"}, "fusion_lat": 0.0, "name": "08bfdceee8eaa23d60c13e0c8f0da1f3", "bike_id": "08bfdceee8eaa23d60c13e0c8f0da1f3", "is_disabled": 0, "type": "electric_scooter", "lat": 38.925902, "lon": -77.02140266666666, "is_reserved": 0, "fusion_lon": 0.0}, {"rental_uris": {"ios": "https://dc.lft.to/lastmile_qr_scan", "android": "https://dc.lft.to/lastmile_qr_scan"}, "fusion_lat": 0.0, "name": "42c481fb4f854069866c96b91f1acae2", "bike_id": "42c481fb4f854069866c96b91f1acae2", "is_disabled": 0, "type": "electric_bike", "lat": 38.893521166666666, "lon": -77.18743466666666, "is_reserved": 0, "fusion_lon": 0.0}, {"rental_uris": {"ios": "https://dc.lft.to/lastmile_qr_scan", "android": "https://dc.lft.to/lastmile_qr_scan"}, "fusion_lat": 0.0, "name": "149b5e6e88736ce06949a5e21c9c6c81", "bike_id": "149b5e6e88736ce06949a5e21c9c6c81", "is_disabled": 0, "type": "electric_scooter", "lat": 38.91723666666667, "lon": -77.03664266666667, "is_reserved": 0, "fusion_lon": 0.0}, {"rental_uris": {"ios": "https://dc.lft.to/lastmile_qr_scan", "android": "https://dc.lft.to/lastmile_qr_scan"}, "fusion_lat": 0.0, "name": "0d7422357fec12146057ddc0ba5f2080", "bike_id": "0d7422357fec12146057ddc0ba5f2080", "is_disabled": 0, "type": "electric_scooter", "lat": 38.914102, "lon": -77.0260925, "is_reserved": 0, "fusion_lon": 0.0}, {"rental_uris": {"ios": "https://dc.lft.to/lastmile_qr_scan", "android": "https://dc.lft.to/lastmile_qr_scan"}, "fusion_lat": 0.0, "name": "9366fd4d049bc316decff868838dddda", "bike_id": "9366fd4d049bc316decff868838dddda", "is_disabled": 0, "type": "electric_scooter", "lat": 38.932442333333334, "lon": -77.03855683333333, "is_reserved": 0, "fusion_lon": 0.0}, {"rental_uris": {"ios": "https://dc.lft.to/lastmile_qr_scan", "android": "https://dc.lft.to/lastmile_qr_scan"}, "fusion_lat": 0.0, "name": "230bdb04d00702ae46c52ea33bcdba32", "bike_id": "230bdb04d00702ae46c52ea33bcdba32", "is_disabled": 0, "type": "electric_scooter", "lat": 38.915543166666666, "lon": -77.03866366666666, "is_reserved": 0, "fusion_lon": 0.0}, {"rental_uris": {"ios": "https://dc.lft.to/lastmile_qr_scan", "android": "https://dc.lft.to/lastmile_qr_scan"}, "fusion_lat": 0.0, "name": "4da664067b8be98f175a4dfa39b2d317", "bike_id": "4da664067b8be98f175a4dfa39b2d317", "is_disabled": 0, "type": "electric_scooter", "lat": 38.89930866666667, "lon": -77.03291983333334, "is_reserved": 0, "fusion_lon": 0.0}, {"rental_uris": {"ios": "https://dc.lft.to/lastmile_qr_scan", "android": "https://dc.lft.to/lastmile_qr_scan"}, "fusion_lat": 0.0, "name": "35f1b2675acbf2a9b2cc36829b4f6848", "bike_id": "35f1b2675acbf2a9b2cc36829b4f6848", "is_disabled": 0, "type": "electric_scooter", "lat": 38.881487666666665, "lon": -77.01292816666667, "is_reserved": 0, "fusion_lon": 0.0}, {"rental_uris": {"ios": "https://dc.lft.to/lastmile_qr_scan", "android": "https://dc.lft.to/lastmile_qr_scan"}, "fusion_lat": 0.0, "name": "1a3edd5faf23587bd10fcef9e4b393e3", "bike_id": "1a3edd5faf23587bd10fcef9e4b393e3", "is_disabled": 0, "type": "electric_bike", "lat": 39.0156985, "lon": -77.044202, "is_reserved": 0, "fusion_lon": 0.0}, {"rental_uris": {"ios": "https://dc.lft.to/lastmile_qr_scan", "android": "https://dc.lft.to/lastmile_qr_scan"}, "fusion_lat": 0.0, "name": "b808dc21b6946423ae398c30f5d41ca9", "bike_id": "b808dc21b6946423ae398c30f5d41ca9", "is_disabled": 0, "type": "electric_scooter", "lat": 38.9177015, "lon": -77.02332583333333, "is_reserved": 0, "fusion_lon": 0.0}, {"rental_uris": {"ios": "https://dc.lft.to/lastmile_qr_scan", "android": "https://dc.lft.to/lastmile_qr_scan"}, "fusion_lat": 0.0, "name": "6e9a92e3fb16fa1c6a1a252d5337823b", "bike_id": "6e9a92e3fb16fa1c6a1a252d5337823b", "is_disabled": 0, "type": "electric_scooter", "lat": 38.9002945, "lon": -77.03217916666667, "is_reserved": 0, "fusion_lon": 0.0}, {"rental_uris": {"ios": "https://dc.lft.to/lastmile_qr_scan", "android": "https://dc.lft.to/lastmile_qr_scan"}, "fusion_lat": 0.0, "name": "142c28ea5824190f62e583a8fa35b0c9", "bike_id": "142c28ea5824190f62e583a8fa35b0c9", "is_disabled": 0, "type": "electric_scooter", "lat": 38.899454, "lon": -77.027015, "is_reserved": 0, "fusion_lon": 0.0}, {"rental_uris": {"ios": "https://dc.lft.to/lastmile_qr_scan", "android": "https://dc.lft.to/lastmile_qr_scan"}, "fusion_lat": 0.0, "name": "f1721c4d08933c4dcbc2982bfeb81a42", "bike_id": "f1721c4d08933c4dcbc2982bfeb81a42", "is_disabled": 0, "type": "electric_scooter", "lat": 38.916933666666665, "lon": -77.02692533333334, "is_reserved": 0, "fusion_lon": 0.0}, {"rental_uris": {"ios": "https://dc.lft.to/lastmile_qr_scan", "android": "https://dc.lft.to/lastmile_qr_scan"}, "fusion_lat": 0.0, "name": "7f433c412c3cd8b5591e528612dfdc3a", "bike_id": "7f433c412c3cd8b5591e528612dfdc3a", "is_disabled": 0, "type": "electric_scooter", "lat": 38.91813366666667, "lon": -77.02721883333334, "is_reserved": 0, "fusion_lon": 0.0}, {"rental_uris": {"ios": "https://dc.lft.to/lastmile_qr_scan", "android": "https://dc.lft.to/lastmile_qr_scan"}, "fusion_lat": 0.0, "name": "ea0adfd693e03dba842ad8b60183fe63", "bike_id": "ea0adfd693e03dba842ad8b60183fe63", "is_disabled": 0, "type": "electric_scooter", "lat": 38.8984405, "lon": -76.9463625, "is_reserved": 0, "fusion_lon": 0.0}, {"rental_uris": {"ios": "https://dc.lft.to/lastmile_qr_scan", "android": "https://dc.lft.to/lastmile_qr_scan"}, "fusion_lat": 0.0, "name": "fe147c9c177882722deb598f0aedb923", "bike_id": "fe147c9c177882722deb598f0aedb923", "is_disabled": 0, "type": "electric_scooter", "lat": 38.91806533333333, "lon": -77.0402955, "is_reserved": 0, "fusion_lon": 0.0}, {"rental_uris": {"ios": "https://dc.lft.to/lastmile_qr_scan", "android": "https://dc.lft.to/lastmile_qr_scan"}, "fusion_lat": 0.0, "name": "f9d4e4a2863e5633ca55a3801f7f4613", "bike_id": "f9d4e4a2863e5633ca55a3801f7f4613", "is_disabled": 0, "type": "electric_scooter", "lat": 38.915377666666664, "lon": -77.04478883333333, "is_reserved": 0, "fusion_lon": 0.0}, {"rental_uris": {"ios": "https://dc.lft.to/lastmile_qr_scan", "android": "https://dc.lft.to/lastmile_qr_scan"}, "fusion_lat": 0.0, "name": "1902f2c529c954a65b9b3f47de2ce668", "bike_id": "1902f2c529c954a65b9b3f47de2ce668", "is_disabled": 0, "type": "electric_bike", "lat": 38.9128005, "lon": -77.07826666666666, "is_reserved": 0, "fusion_lon": 0.0}, {"rental_uris": {"ios": "https://dc.lft.to/lastmile_qr_scan", "android": "https://dc.lft.to/lastmile_qr_scan"}, "fusion_lat": 0.0, "name": "38f28dd6b48602e36022983853695860", "bike_id": "38f28dd6b48602e36022983853695860", "is_disabled": 0, "type": "electric_scooter", "lat": 38.892202, "lon": -77.04368866666667, "is_reserved": 0, "fusion_lon": 0.0}, {"rental_uris": {"ios": "https://dc.lft.to/lastmile_qr_scan", "android": "https://dc.lft.to/lastmile_qr_scan"}, "fusion_lat": 0.0, "name": "06d65fbfc7c7e7be3c9e0934807c5406", "bike_id": "06d65fbfc7c7e7be3c9e0934807c5406", "is_disabled": 0, "type": "electric_scooter", "lat": 38.96129283333333, "lon": -77.027965, "is_reserved": 0, "fusion_lon": 0.0}, {"rental_uris": {"ios": "https://dc.lft.to/lastmile_qr_scan", "android": "https://dc.lft.to/lastmile_qr_scan"}, "fusion_lat": 0.0, "name": "8d05a3b71169d1d1f646fea2ac72662f", "bike_id": "8d05a3b71169d1d1f646fea2ac72662f", "is_disabled": 0, "type": "electric_scooter", "lat": 38.900915, "lon": -77.0209195, "is_reserved": 0, "fusion_lon": 0.0}, {"rental_uris": {"ios": "https://dc.lft.to/lastmile_qr_scan", "android": "https://dc.lft.to/lastmile_qr_scan"}, "fusion_lat": 0.0, "name": "97d026fdd1b30e40b74ebacb9501154a", "bike_id": "97d026fdd1b30e40b74ebacb9501154a", "is_disabled": 0, "type": "electric_scooter", "lat": 38.90783583333333, "lon": -77.04233333333333, "is_reserved": 0, "fusion_lon": 0.0}, {"rental_uris": {"ios": "https://dc.lft.to/lastmile_qr_scan", "android": "https://dc.lft.to/lastmile_qr_scan"}, "fusion_lat": 0.0, "name": "aa336ccdd5c2c19c64c702fb553cd6a8", "bike_id": "aa336ccdd5c2c19c64c702fb553cd6a8", "is_disabled": 0, "type": "electric_scooter", "lat": 38.911112, "lon": -77.03083116666667, "is_reserved": 0, "fusion_lon": 0.0}, {"rental_uris": {"ios": "https://dc.lft.to/lastmile_qr_scan", "android": "https://dc.lft.to/lastmile_qr_scan"}, "fusion_lat": 0.0, "name": "fff1a6ea390ab2b055bb2f967e1f69d2", "bike_id": "fff1a6ea390ab2b055bb2f967e1f69d2", "is_disabled": 0, "type": "electric_scooter", "lat": 38.89225183333333, "lon": -77.033428, "is_reserved": 0, "fusion_lon": 0.0}, {"rental_uris": {"ios": "https://dc.lft.to/lastmile_qr_scan", "android": "https://dc.lft.to/lastmile_qr_scan"}, "fusion_lat": 0.0, "name": "a114c169bfce29e1e4dd90cff6b2de1d", "bike_id": "a114c169bfce29e1e4dd90cff6b2de1d", "is_disabled": 0, "type": "electric_scooter", "lat": 38.94959083333333, "lon": -77.027273, "is_reserved": 0, "fusion_lon": 0.0}, {"rental_uris": {"ios": "https://dc.lft.to/lastmile_qr_scan", "android": "https://dc.lft.to/lastmile_qr_scan"}, "fusion_lat": 0.0, "name": "1a29ab5df69f4ae68396de687925c80d", "bike_id": "1a29ab5df69f4ae68396de687925c80d", "is_disabled": 0, "type": "electric_scooter", "lat": 38.8922365, "lon": -77.01376283333333, "is_reserved": 0, "fusion_lon": 0.0}, {"rental_uris": {"ios": "https://dc.lft.to/lastmile_qr_scan", "android": "https://dc.lft.to/lastmile_qr_scan"}, "fusion_lat": 0.0, "name": "f86628c744858d9f1cc0fb37f2bc4f28", "bike_id": "f86628c744858d9f1cc0fb37f2bc4f28", "is_disabled": 0, "type": "electric_scooter", "lat": 38.9155765, "lon": -77.03867433333333, "is_reserved": 0, "fusion_lon": 0.0}, {"rental_uris": {"ios": "https://dc.lft.to/lastmile_qr_scan", "android": "https://dc.lft.to/lastmile_qr_scan"}, "fusion_lat": 0.0, "name": "e84978d2fa1a86c16a388f99dc76df8c", "bike_id": "e84978d2fa1a86c16a388f99dc76df8c", "is_disabled": 0, "type": "electric_scooter", "lat": 38.951654, "lon": -77.02752166666667, "is_reserved": 0, "fusion_lon": 0.0}, {"rental_uris": {"ios": "https://dc.lft.to/lastmile_qr_scan", "android": "https://dc.lft.to/lastmile_qr_scan"}, "fusion_lat": 0.0, "name": "ec353cb9f10124ca4dcceaac2b491ee2", "bike_id": "ec353cb9f10124ca4dcceaac2b491ee2", "is_disabled": 0, "type": "electric_scooter", "lat": 38.91700216666667, "lon": -77.03730633333333, "is_reserved": 0, "fusion_lon": 0.0}, {"rental_uris": {"ios": "https://dc.lft.to/lastmile_qr_scan", "android": "https://dc.lft.to/lastmile_qr_scan"}, "fusion_lat": 0.0, "name": "ddb7e12e4e842590ef9c54feb35f3f59", "bike_id": "ddb7e12e4e842590ef9c54feb35f3f59", "is_disabled": 0, "type": "electric_scooter", "lat": 38.907369833333334, "lon": -77.02717016666666, "is_reserved": 0, "fusion_lon": 0.0}, {"rental_uris": {"ios": "https://dc.lft.to/lastmile_qr_scan", "android": "https://dc.lft.to/lastmile_qr_scan"}, "fusion_lat": 0.0, "name": "d18ae45d25beac74f652d4281664e84a", "bike_id": "d18ae45d25beac74f652d4281664e84a", "is_disabled": 0, "type": "electric_scooter", "lat": 38.912257833333335, "lon": -77.04119533333333, "is_reserved": 0, "fusion_lon": 0.0}, {"rental_uris": {"ios": "https://dc.lft.to/lastmile_qr_scan", "android": "https://dc.lft.to/lastmile_qr_scan"}, "fusion_lat": 0.0, "name": "ae29db7c732050a0ab26ab8135d9842a", "bike_id": "ae29db7c732050a0ab26ab8135d9842a", "is_disabled": 0, "type": "electric_scooter", "lat": 38.892299666666666, "lon": -77.02803066666667, "is_reserved": 0, "fusion_lon": 0.0}, {"rental_uris": {"ios": "https://dc.lft.to/lastmile_qr_scan", "android": "https://dc.lft.to/lastmile_qr_scan"}, "fusion_lat": 0.0, "name": "b51a103740f8b074fdea2674fdedcc44", "bike_id": "b51a103740f8b074fdea2674fdedcc44", "is_disabled": 0, "type": "electric_scooter", "lat": 38.89913333333333, "lon": -77.0333665, "is_reserved": 0, "fusion_lon": 0.0}, {"rental_uris": {"ios": "https://dc.lft.to/lastmile_qr_scan", "android": "https://dc.lft.to/lastmile_qr_scan"}, "fusion_lat": 0.0, "name": "b817120eb2e049200ec829643db0b7b2", "bike_id": "b817120eb2e049200ec829643db0b7b2", "is_disabled": 0, "type": "electric_scooter", "lat": 38.915657, "lon": -77.02006883333334, "is_reserved": 0, "fusion_lon": 0.0}, {"rental_uris": {"ios": "https://dc.lft.to/lastmile_qr_scan", "android": "https://dc.lft.to/lastmile_qr_scan"}, "fusion_lat": 0.0, "name": "75af42eda60c808ab69c0ba71c9d2cdd", "bike_id": "75af42eda60c808ab69c0ba71c9d2cdd", "is_disabled": 0, "type": "electric_scooter", "lat": 38.8407975, "lon": -76.98923466666666, "is_reserved": 0, "fusion_lon": 0.0}, {"rental_uris": {"ios": "https://dc.lft.to/lastmile_qr_scan", "android": "https://dc.lft.to/lastmile_qr_scan"}, "fusion_lat": 0.0, "name": "1d9a6c6ccdd8f566937df48e6dffe4d1", "bike_id": "1d9a6c6ccdd8f566937df48e6dffe4d1", "is_disabled": 0, "type": "electric_scooter", "lat": 38.8922225, "lon": -77.04330816666666, "is_reserved": 0, "fusion_lon": 0.0}, {"rental_uris": {"ios": "https://dc.lft.to/lastmile_qr_scan", "android": "https://dc.lft.to/lastmile_qr_scan"}, "fusion_lat": 0.0, "name": "3175c0e1a48a38beda692fb52ec880c9", "bike_id": "3175c0e1a48a38beda692fb52ec880c9", "is_disabled": 0, "type": "electric_scooter", "lat": 38.912721, "lon": -77.02221516666667, "is_reserved": 0, "fusion_lon": 0.0}, {"rental_uris": {"ios": "https://dc.lft.to/lastmile_qr_scan", "android": "https://dc.lft.to/lastmile_qr_scan"}, "fusion_lat": 0.0, "name": "4f517b2128cd7d8a8ffb77bdbda77360", "bike_id": "4f517b2128cd7d8a8ffb77bdbda77360", "is_disabled": 0, "type": "electric_scooter", "lat": 38.897053, "lon": -77.027652, "is_reserved": 0, "fusion_lon": 0.0}, {"rental_uris": {"ios": "https://dc.lft.to/lastmile_qr_scan", "android": "https://dc.lft.to/lastmile_qr_scan"}, "fusion_lat": 0.0, "name": "90be4b997d97b25e3aa97c1cab732ce5", "bike_id": "90be4b997d97b25e3aa97c1cab732ce5", "is_disabled": 0, "type": "electric_scooter", "lat": 38.9190075, "lon": -77.02480733333333, "is_reserved": 0, "fusion_lon": 0.0}, {"rental_uris": {"ios": "https://dc.lft.to/lastmile_qr_scan", "android": "https://dc.lft.to/lastmile_qr_scan"}, "fusion_lat": 0.0, "name": "04bae8db30c7e494ebe498282e400642", "bike_id": "04bae8db30c7e494ebe498282e400642", "is_disabled": 0, "type": "electric_scooter", "lat": 38.907265333333335, "lon": -77.02767533333333, "is_reserved": 0, "fusion_lon": 0.0}, {"rental_uris": {"ios": "https://dc.lft.to/lastmile_qr_scan", "android": "https://dc.lft.to/lastmile_qr_scan"}, "fusion_lat": 0.0, "name": "7c2b44dd7b908c0dcc0753d9a9c49f64", "bike_id": "7c2b44dd7b908c0dcc0753d9a9c49f64", "is_disabled": 0, "type": "electric_bike", "lat": 38.95185766666667, "lon": -76.93545333333333, "is_reserved": 0, "fusion_lon": 0.0}, {"rental_uris": {"ios": "https://dc.lft.to/lastmile_qr_scan", "android": "https://dc.lft.to/lastmile_qr_scan"}, "fusion_lat": 0.0, "name": "faf705ea8619f630feedddec1254930f", "bike_id": "faf705ea8619f630feedddec1254930f", "is_disabled": 0, "type": "electric_scooter", "lat": 38.896259, "lon": -77.0220795, "is_reserved": 0, "fusion_lon": 0.0}, {"rental_uris": {"ios": "https://dc.lft.to/lastmile_qr_scan", "android": "https://dc.lft.to/lastmile_qr_scan"}, "fusion_lat": 0.0, "name": "4bb9c8329a29c5ac4b6c1e4bf119fa81", "bike_id": "4bb9c8329a29c5ac4b6c1e4bf119fa81", "is_disabled": 0, "type": "electric_scooter", "lat": 38.90919366666667, "lon": -77.08027816666667, "is_reserved": 0, "fusion_lon": 0.0}, {"rental_uris": {"ios": "https://dc.lft.to/lastmile_qr_scan", "android": "https://dc.lft.to/lastmile_qr_scan"}, "fusion_lat": 0.0, "name": "f7ef63b2143827f3a967b4db4b5bb9fe", "bike_id": "f7ef63b2143827f3a967b4db4b5bb9fe", "is_disabled": 0, "type": "electric_scooter", "lat": 38.946267666666664, "lon": -77.01848933333333, "is_reserved": 0, "fusion_lon": 0.0}, {"rental_uris": {"ios": "https://dc.lft.to/lastmile_qr_scan", "android": "https://dc.lft.to/lastmile_qr_scan"}, "fusion_lat": 0.0, "name": "a0490e1a7b31ee315c6edcbb8b64184a", "bike_id": "a0490e1a7b31ee315c6edcbb8b64184a", "is_disabled": 0, "type": "electric_scooter", "lat": 38.892158333333334, "lon": -77.03141433333333, "is_reserved": 0, "fusion_lon": 0.0}, {"rental_uris": {"ios": "https://dc.lft.to/lastmile_qr_scan", "android": "https://dc.lft.to/lastmile_qr_scan"}, "fusion_lat": 0.0, "name": "26a7b3d4603ab287edce1746dd9222f1", "bike_id": "26a7b3d4603ab287edce1746dd9222f1", "is_disabled": 0, "type": "electric_scooter", "lat": 38.91825216666667, "lon": -77.04516733333334, "is_reserved": 0, "fusion_lon": 0.0}, {"rental_uris": {"ios": "https://dc.lft.to/lastmile_qr_scan", "android": "https://dc.lft.to/lastmile_qr_scan"}, "fusion_lat": 0.0, "name": "4dbd262071cd1d8f0ae9bb37450db082", "bike_id": "4dbd262071cd1d8f0ae9bb37450db082", "is_disabled": 0, "type": "electric_scooter", "lat": 38.907306, "lon": -77.0276285, "is_reserved": 0, "fusion_lon": 0.0}, {"rental_uris": {"ios": "https://dc.lft.to/lastmile_qr_scan", "android": "https://dc.lft.to/lastmile_qr_scan"}, "fusion_lat": 0.0, "name": "adb3d2559dafc4deb096d71c6e31d01e", "bike_id": "adb3d2559dafc4deb096d71c6e31d01e", "is_disabled": 0, "type": "electric_scooter", "lat": 38.883718, "lon": -76.995183, "is_reserved": 0, "fusion_lon": 0.0}, {"rental_uris": {"ios": "https://dc.lft.to/lastmile_qr_scan", "android": "https://dc.lft.to/lastmile_qr_scan"}, "fusion_lat": 0.0, "name": "be786be6114ed4f722e12e22a734c898", "bike_id": "be786be6114ed4f722e12e22a734c898", "is_disabled": 0, "type": "electric_scooter", "lat": 38.94467316666667, "lon": -77.02344883333333, "is_reserved": 0, "fusion_lon": 0.0}, {"rental_uris": {"ios": "https://dc.lft.to/lastmile_qr_scan", "android": "https://dc.lft.to/lastmile_qr_scan"}, "fusion_lat": 0.0, "name": "0959a426a492a1b12dc1dd37a9cd2e81", "bike_id": "0959a426a492a1b12dc1dd37a9cd2e81", "is_disabled": 0, "type": "electric_bike", "lat": 38.85395283333333, "lon": -77.12486166666666, "is_reserved": 0, "fusion_lon": 0.0}, {"rental_uris": {"ios": "https://dc.lft.to/lastmile_qr_scan", "android": "https://dc.lft.to/lastmile_qr_scan"}, "fusion_lat": 0.0, "name": "558ad0a89915046a0a98d18d5fc2171d", "bike_id": "558ad0a89915046a0a98d18d5fc2171d", "is_disabled": 0, "type": "electric_scooter", "lat": 38.89577516666667, "lon": -76.98182066666666, "is_reserved": 0, "fusion_lon": 0.0}, {"rental_uris": {"ios": "https://dc.lft.to/lastmile_qr_scan", "android": "https://dc.lft.to/lastmile_qr_scan"}, "fusion_lat": 0.0, "name": "94cb06ab80be4eb10b5751bba3c24f16", "bike_id": "94cb06ab80be4eb10b5751bba3c24f16", "is_disabled": 0, "type": "electric_bike", "lat": 38.84014033333333, "lon": -76.97529833333333, "is_reserved": 0, "fusion_lon": 0.0}, {"rental_uris": {"ios": "https://dc.lft.to/lastmile_qr_scan", "android": "https://dc.lft.to/lastmile_qr_scan"}, "fusion_lat": 0.0, "name": "26e4c977b8bb7f05f5f186a0577f96ab", "bike_id": "26e4c977b8bb7f05f5f186a0577f96ab", "is_disabled": 0, "type": "electric_bike", "lat": 38.9058025, "lon": -77.07167533333333, "is_reserved": 0, "fusion_lon": 0.0}, {"rental_uris": {"ios": "https://dc.lft.to/lastmile_qr_scan", "android": "https://dc.lft.to/lastmile_qr_scan"}, "fusion_lat": 0.0, "name": "4fdeea366f6034cae4bf8655703e081e", "bike_id": "4fdeea366f6034cae4bf8655703e081e", "is_disabled": 0, "type": "electric_scooter", "lat": 38.896256666666666, "lon": -77.03181866666667, "is_reserved": 0, "fusion_lon": 0.0}, {"rental_uris": {"ios": "https://dc.lft.to/lastmile_qr_scan", "android": "https://dc.lft.to/lastmile_qr_scan"}, "fusion_lat": 0.0, "name": "e572102dfba932c6e2ef0333580016d5", "bike_id": "e572102dfba932c6e2ef0333580016d5", "is_disabled": 0, "type": "electric_scooter", "lat": 38.906697666666666, "lon": -77.02713116666666, "is_reserved": 0, "fusion_lon": 0.0}, {"rental_uris": {"ios": "https://dc.lft.to/lastmile_qr_scan", "android": "https://dc.lft.to/lastmile_qr_scan"}, "fusion_lat": 0.0, "name": "36d4c3480f7603c6b9642dd828a06cf8", "bike_id": "36d4c3480f7603c6b9642dd828a06cf8", "is_disabled": 0, "type": "electric_scooter", "lat": 38.897120666666666, "lon": -77.0469575, "is_reserved": 0, "fusion_lon": 0.0}, {"rental_uris": {"ios": "https://dc.lft.to/lastmile_qr_scan", "android": "https://dc.lft.to/lastmile_qr_scan"}, "fusion_lat": 0.0, "name": "5967f381aa1e12c0fa399e55e6895541", "bike_id": "5967f381aa1e12c0fa399e55e6895541", "is_disabled": 0, "type": "electric_scooter", "lat": 38.91731633333333, "lon": -77.03203083333334, "is_reserved": 0, "fusion_lon": 0.0}, {"rental_uris": {"ios": "https://dc.lft.to/lastmile_qr_scan", "android": "https://dc.lft.to/lastmile_qr_scan"}, "fusion_lat": 0.0, "name": "e237fe568d58802c4da473a05ea06117", "bike_id": "e237fe568d58802c4da473a05ea06117", "is_disabled": 0, "type": "electric_scooter", "lat": 38.93117316666667, "lon": -77.02086383333334, "is_reserved": 0, "fusion_lon": 0.0}, {"rental_uris": {"ios": "https://dc.lft.to/lastmile_qr_scan", "android": "https://dc.lft.to/lastmile_qr_scan"}, "fusion_lat": 0.0, "name": "4af89365fcc9d6f2ea2c803954c05365", "bike_id": "4af89365fcc9d6f2ea2c803954c05365", "is_disabled": 0, "type": "electric_scooter", "lat": 38.9168015, "lon": -77.03690533333334, "is_reserved": 0, "fusion_lon": 0.0}, {"rental_uris": {"ios": "https://dc.lft.to/lastmile_qr_scan", "android": "https://dc.lft.to/lastmile_qr_scan"}, "fusion_lat": 0.0, "name": "bcfaf8f5aeb4e35e767c43e93fb520eb", "bike_id": "bcfaf8f5aeb4e35e767c43e93fb520eb", "is_disabled": 0, "type": "electric_scooter", "lat": 38.92220533333333, "lon": -77.04243366666667, "is_reserved": 0, "fusion_lon": 0.0}, {"rental_uris": {"ios": "https://dc.lft.to/lastmile_qr_scan", "android": "https://dc.lft.to/lastmile_qr_scan"}, "fusion_lat": 0.0, "name": "da3f924ef5d3f9c6d2b1ec5742f3b415", "bike_id": "da3f924ef5d3f9c6d2b1ec5742f3b415", "is_disabled": 0, "type": "electric_scooter", "lat": 38.86718066666667, "lon": -76.98727966666667, "is_reserved": 0, "fusion_lon": 0.0}, {"rental_uris": {"ios": "https://dc.lft.to/lastmile_qr_scan", "android": "https://dc.lft.to/lastmile_qr_scan"}, "fusion_lat": 0.0, "name": "8bd98bb7015083ab1c1b8f6402a53679", "bike_id": "8bd98bb7015083ab1c1b8f6402a53679", "is_disabled": 0, "type": "electric_scooter", "lat": 38.9216265, "lon": -77.03238566666667, "is_reserved": 0, "fusion_lon": 0.0}, {"rental_uris": {"ios": "https://dc.lft.to/lastmile_qr_scan", "android": "https://dc.lft.to/lastmile_qr_scan"}, "fusion_lat": 0.0, "name": "a831f81f591e3155f83dcd7a38a9ef0e", "bike_id": "a831f81f591e3155f83dcd7a38a9ef0e", "is_disabled": 0, "type": "electric_scooter", "lat": 38.92509883333334, "lon": -77.02362033333333, "is_reserved": 0, "fusion_lon": 0.0}, {"rental_uris": {"ios": "https://dc.lft.to/lastmile_qr_scan", "android": "https://dc.lft.to/lastmile_qr_scan"}, "fusion_lat": 0.0, "name": "9dbc39b0f3946ac81cd79ea3ab9c5c3c", "bike_id": "9dbc39b0f3946ac81cd79ea3ab9c5c3c", "is_disabled": 0, "type": "electric_scooter", "lat": 38.897764, "lon": -77.03189, "is_reserved": 0, "fusion_lon": 0.0}, {"rental_uris": {"ios": "https://dc.lft.to/lastmile_qr_scan", "android": "https://dc.lft.to/lastmile_qr_scan"}, "fusion_lat": 0.0, "name": "85e7b8f8a50bdcafc1255bb1dc90b673", "bike_id": "85e7b8f8a50bdcafc1255bb1dc90b673", "is_disabled": 0, "type": "electric_scooter", "lat": 38.920541666666665, "lon": -77.04192783333333, "is_reserved": 0, "fusion_lon": 0.0}, {"rental_uris": {"ios": "https://dc.lft.to/lastmile_qr_scan", "android": "https://dc.lft.to/lastmile_qr_scan"}, "fusion_lat": 0.0, "name": "268720958e77407ab6fe1f5c2ba94412", "bike_id": "268720958e77407ab6fe1f5c2ba94412", "is_disabled": 0, "type": "electric_scooter", "lat": 38.90254616666667, "lon": -77.0438985, "is_reserved": 0, "fusion_lon": 0.0}, {"rental_uris": {"ios": "https://dc.lft.to/lastmile_qr_scan", "android": "https://dc.lft.to/lastmile_qr_scan"}, "fusion_lat": 0.0, "name": "88f81be9ba34286fff829ef2440a4513", "bike_id": "88f81be9ba34286fff829ef2440a4513", "is_disabled": 0, "type": "electric_scooter", "lat": 38.914173, "lon": -77.01886983333333, "is_reserved": 0, "fusion_lon": 0.0}, {"rental_uris": {"ios": "https://dc.lft.to/lastmile_qr_scan", "android": "https://dc.lft.to/lastmile_qr_scan"}, "fusion_lat": 0.0, "name": "46eb1faf9306397d0f907ce89fea8e5c", "bike_id": "46eb1faf9306397d0f907ce89fea8e5c", "is_disabled": 0, "type": "electric_scooter", "lat": 38.90791216666667, "lon": -76.9972555, "is_reserved": 0, "fusion_lon": 0.0}, {"rental_uris": {"ios": "https://dc.lft.to/lastmile_qr_scan", "android": "https://dc.lft.to/lastmile_qr_scan"}, "fusion_lat": 0.0, "name": "caf34470335ff3c1f196f22cc0671824", "bike_id": "caf34470335ff3c1f196f22cc0671824", "is_disabled": 0, "type": "electric_scooter", "lat": 38.892204, "lon": -77.02230683333333, "is_reserved": 0, "fusion_lon": 0.0}, {"rental_uris": {"ios": "https://dc.lft.to/lastmile_qr_scan", "android": "https://dc.lft.to/lastmile_qr_scan"}, "fusion_lat": 0.0, "name": "a27b967fc0844199274cb5f901861058", "bike_id": "a27b967fc0844199274cb5f901861058", "is_disabled": 0, "type": "electric_scooter", "lat": 38.911255833333335, "lon": -77.03793183333333, "is_reserved": 0, "fusion_lon": 0.0}, {"rental_uris": {"ios": "https://dc.lft.to/lastmile_qr_scan", "android": "https://dc.lft.to/lastmile_qr_scan"}, "fusion_lat": 0.0, "name": "99781ef760559c0e292b6919e94f22b4", "bike_id": "99781ef760559c0e292b6919e94f22b4", "is_disabled": 0, "type": "electric_scooter", "lat": 38.88090533333333, "lon": -76.98394966666666, "is_reserved": 0, "fusion_lon": 0.0}, {"rental_uris": {"ios": "https://dc.lft.to/lastmile_qr_scan", "android": "https://dc.lft.to/lastmile_qr_scan"}, "fusion_lat": 0.0, "name": "e949b01e4e912d43011e0638456c0675", "bike_id": "e949b01e4e912d43011e0638456c0675", "is_disabled": 0, "type": "electric_scooter", "lat": 38.9194015, "lon": -77.04561016666666, "is_reserved": 0, "fusion_lon": 0.0}, {"rental_uris": {"ios": "https://dc.lft.to/lastmile_qr_scan", "android": "https://dc.lft.to/lastmile_qr_scan"}, "fusion_lat": 0.0, "name": "b982ade29a99c581d163d0a26c8f4292", "bike_id": "b982ade29a99c581d163d0a26c8f4292", "is_disabled": 0, "type": "electric_scooter", "lat": 38.8968865, "lon": -77.00498616666667, "is_reserved": 0, "fusion_lon": 0.0}, {"rental_uris": {"ios": "https://dc.lft.to/lastmile_qr_scan", "android": "https://dc.lft.to/lastmile_qr_scan"}, "fusion_lat": 0.0, "name": "59f95ac4296705d1b58eac28a8de26eb", "bike_id": "59f95ac4296705d1b58eac28a8de26eb", "is_disabled": 0, "type": "electric_scooter", "lat": 38.917675833333334, "lon": -77.03640433333334, "is_reserved": 0, "fusion_lon": 0.0}, {"rental_uris": {"ios": "https://dc.lft.to/lastmile_qr_scan", "android": "https://dc.lft.to/lastmile_qr_scan"}, "fusion_lat": 0.0, "name": "dde47329c1b5b1df6ef7152653db2a8f", "bike_id": "dde47329c1b5b1df6ef7152653db2a8f", "is_disabled": 0, "type": "electric_scooter", "lat": 38.90157216666667, "lon": -77.02605666666666, "is_reserved": 0, "fusion_lon": 0.0}, {"rental_uris": {"ios": "https://dc.lft.to/lastmile_qr_scan", "android": "https://dc.lft.to/lastmile_qr_scan"}, "fusion_lat": 0.0, "name": "21f0b22bd3204ef1deb92eec7b60f1f6", "bike_id": "21f0b22bd3204ef1deb92eec7b60f1f6", "is_disabled": 0, "type": "electric_bike", "lat": 39.05631233333333, "lon": -77.1253015, "is_reserved": 0, "fusion_lon": 0.0}, {"rental_uris": {"ios": "https://dc.lft.to/lastmile_qr_scan", "android": "https://dc.lft.to/lastmile_qr_scan"}, "fusion_lat": 0.0, "name": "3b141f83b16e2f05353ac132aa6ac661", "bike_id": "3b141f83b16e2f05353ac132aa6ac661", "is_disabled": 0, "type": "electric_scooter", "lat": 38.8873705, "lon": -77.01534916666667, "is_reserved": 0, "fusion_lon": 0.0}, {"rental_uris": {"ios": "https://dc.lft.to/lastmile_qr_scan", "android": "https://dc.lft.to/lastmile_qr_scan"}, "fusion_lat": 0.0, "name": "a31c277eae2497b390742565af52f728", "bike_id": "a31c277eae2497b390742565af52f728", "is_disabled": 0, "type": "electric_scooter", "lat": 38.918654, "lon": -77.03183216666666, "is_reserved": 0, "fusion_lon": 0.0}, {"rental_uris": {"ios": "https://dc.lft.to/lastmile_qr_scan", "android": "https://dc.lft.to/lastmile_qr_scan"}, "fusion_lat": 0.0, "name": "36b12236416172c3912ea3a1e11a42d5", "bike_id": "36b12236416172c3912ea3a1e11a42d5", "is_disabled": 0, "type": "electric_scooter", "lat": 38.9031635, "lon": -77.043411, "is_reserved": 0, "fusion_lon": 0.0}, {"rental_uris": {"ios": "https://dc.lft.to/lastmile_qr_scan", "android": "https://dc.lft.to/lastmile_qr_scan"}, "fusion_lat": 0.0, "name": "cf86b66b7df77c96371b3fc7c0fb8ba3", "bike_id": "cf86b66b7df77c96371b3fc7c0fb8ba3", "is_disabled": 0, "type": "electric_scooter", "lat": 38.89826866666667, "lon": -76.94657316666667, "is_reserved": 0, "fusion_lon": 0.0}, {"rental_uris": {"ios": "https://dc.lft.to/lastmile_qr_scan", "android": "https://dc.lft.to/lastmile_qr_scan"}, "fusion_lat": 0.0, "name": "372ec7cb798c2d44b3ce643b0710a2b0", "bike_id": "372ec7cb798c2d44b3ce643b0710a2b0", "is_disabled": 0, "type": "electric_scooter", "lat": 38.8668895, "lon": -76.98533733333333, "is_reserved": 0, "fusion_lon": 0.0}, {"rental_uris": {"ios": "https://dc.lft.to/lastmile_qr_scan", "android": "https://dc.lft.to/lastmile_qr_scan"}, "fusion_lat": 0.0, "name": "486df6592219ab0175765ed639ab5f98", "bike_id": "486df6592219ab0175765ed639ab5f98", "is_disabled": 0, "type": "electric_scooter", "lat": 38.9240305, "lon": -77.02544783333333, "is_reserved": 0, "fusion_lon": 0.0}, {"rental_uris": {"ios": "https://dc.lft.to/lastmile_qr_scan", "android": "https://dc.lft.to/lastmile_qr_scan"}, "fusion_lat": 0.0, "name": "adee5d765264f633cbb42274e06f7c67", "bike_id": "adee5d765264f633cbb42274e06f7c67", "is_disabled": 0, "type": "electric_scooter", "lat": 38.90279066666667, "lon": -77.03844366666667, "is_reserved": 0, "fusion_lon": 0.0}, {"rental_uris": {"ios": "https://dc.lft.to/lastmile_qr_scan", "android": "https://dc.lft.to/lastmile_qr_scan"}, "fusion_lat": 0.0, "name": "58a577e0ed6acfc2d22856324342e680", "bike_id": "58a577e0ed6acfc2d22856324342e680", "is_disabled": 0, "type": "electric_scooter", "lat": 38.9104995, "lon": -77.05581883333333, "is_reserved": 0, "fusion_lon": 0.0}, {"rental_uris": {"ios": "https://dc.lft.to/lastmile_qr_scan", "android": "https://dc.lft.to/lastmile_qr_scan"}, "fusion_lat": 0.0, "name": "a5afea442bc897de671865951c8cc374", "bike_id": "a5afea442bc897de671865951c8cc374", "is_disabled": 0, "type": "electric_scooter", "lat": 38.9236245, "lon": -77.05132083333334, "is_reserved": 0, "fusion_lon": 0.0}, {"rental_uris": {"ios": "https://dc.lft.to/lastmile_qr_scan", "android": "https://dc.lft.to/lastmile_qr_scan"}, "fusion_lat": 0.0, "name": "d9adf3825a1c909bd328da8b253d26a1", "bike_id": "d9adf3825a1c909bd328da8b253d26a1", "is_disabled": 0, "type": "electric_scooter", "lat": 38.912543666666664, "lon": -77.02212866666666, "is_reserved": 0, "fusion_lon": 0.0}, {"rental_uris": {"ios": "https://dc.lft.to/lastmile_qr_scan", "android": "https://dc.lft.to/lastmile_qr_scan"}, "fusion_lat": 0.0, "name": "43dfd7848e730d0d62e0bf44bc8b7836", "bike_id": "43dfd7848e730d0d62e0bf44bc8b7836", "is_disabled": 0, "type": "electric_scooter", "lat": 38.908657, "lon": -77.04586733333333, "is_reserved": 0, "fusion_lon": 0.0}, {"rental_uris": {"ios": "https://dc.lft.to/lastmile_qr_scan", "android": "https://dc.lft.to/lastmile_qr_scan"}, "fusion_lat": 0.0, "name": "4298da9288d807dc0718334ebdd0f3af", "bike_id": "4298da9288d807dc0718334ebdd0f3af", "is_disabled": 0, "type": "electric_scooter", "lat": 38.931471333333334, "lon": -77.0335695, "is_reserved": 0, "fusion_lon": 0.0}, {"rental_uris": {"ios": "https://dc.lft.to/lastmile_qr_scan", "android": "https://dc.lft.to/lastmile_qr_scan"}, "fusion_lat": 0.0, "name": "763f4bb6b638d30bc8fda7898017281f", "bike_id": "763f4bb6b638d30bc8fda7898017281f", "is_disabled": 0, "type": "electric_scooter", "lat": 38.90017816666666, "lon": -76.99826916666666, "is_reserved": 0, "fusion_lon": 0.0}, {"rental_uris": {"ios": "https://dc.lft.to/lastmile_qr_scan", "android": "https://dc.lft.to/lastmile_qr_scan"}, "fusion_lat": 0.0, "name": "8fbc02c09a9d69a41e442ca950935f24", "bike_id": "8fbc02c09a9d69a41e442ca950935f24", "is_disabled": 0, "type": "electric_scooter", "lat": 38.90332516666667, "lon": -76.97594, "is_reserved": 0, "fusion_lon": 0.0}, {"rental_uris": {"ios": "https://dc.lft.to/lastmile_qr_scan", "android": "https://dc.lft.to/lastmile_qr_scan"}, "fusion_lat": 0.0, "name": "194d7b5a9fc93b4056058fa0c5e0ab29", "bike_id": "194d7b5a9fc93b4056058fa0c5e0ab29", "is_disabled": 0, "type": "electric_scooter", "lat": 38.918491, "lon": -77.03446483333333, "is_reserved": 0, "fusion_lon": 0.0}, {"rental_uris": {"ios": "https://dc.lft.to/lastmile_qr_scan", "android": "https://dc.lft.to/lastmile_qr_scan"}, "fusion_lat": 0.0, "name": "d2a12f7e1ffa5049a2a33ac50abfb0d3", "bike_id": "d2a12f7e1ffa5049a2a33ac50abfb0d3", "is_disabled": 0, "type": "electric_scooter", "lat": 38.9062205, "lon": -77.03635233333334, "is_reserved": 0, "fusion_lon": 0.0}, {"rental_uris": {"ios": "https://dc.lft.to/lastmile_qr_scan", "android": "https://dc.lft.to/lastmile_qr_scan"}, "fusion_lat": 0.0, "name": "a9aed2b76ddc073ca85b6bd487861c5f", "bike_id": "a9aed2b76ddc073ca85b6bd487861c5f", "is_disabled": 0, "type": "electric_scooter", "lat": 38.9062255, "lon": -77.02383366666666, "is_reserved": 0, "fusion_lon": 0.0}, {"rental_uris": {"ios": "https://dc.lft.to/lastmile_qr_scan", "android": "https://dc.lft.to/lastmile_qr_scan"}, "fusion_lat": 0.0, "name": "1faea747ff8e0beb1a5762781ce08753", "bike_id": "1faea747ff8e0beb1a5762781ce08753", "is_disabled": 0, "type": "electric_scooter", "lat": 38.9106625, "lon": -77.026397, "is_reserved": 0, "fusion_lon": 0.0}, {"rental_uris": {"ios": "https://dc.lft.to/lastmile_qr_scan", "android": "https://dc.lft.to/lastmile_qr_scan"}, "fusion_lat": 0.0, "name": "322f5c4e8f17dc2c12036b3102409c10", "bike_id": "322f5c4e8f17dc2c12036b3102409c10", "is_disabled": 0, "type": "electric_scooter", "lat": 38.918539333333335, "lon": -77.040406, "is_reserved": 0, "fusion_lon": 0.0}, {"rental_uris": {"ios": "https://dc.lft.to/lastmile_qr_scan", "android": "https://dc.lft.to/lastmile_qr_scan"}, "fusion_lat": 0.0, "name": "cd6930e6ee8323ad48e186166e51beaf", "bike_id": "cd6930e6ee8323ad48e186166e51beaf", "is_disabled": 0, "type": "electric_scooter", "lat": 38.915530833333335, "lon": -77.02211616666666, "is_reserved": 0, "fusion_lon": 0.0}, {"rental_uris": {"ios": "https://dc.lft.to/lastmile_qr_scan", "android": "https://dc.lft.to/lastmile_qr_scan"}, "fusion_lat": 0.0, "name": "96a6e9cfcb5dbd1f08172e382c4d7f31", "bike_id": "96a6e9cfcb5dbd1f08172e382c4d7f31", "is_disabled": 0, "type": "electric_scooter", "lat": 38.93094816666667, "lon": -77.02793083333333, "is_reserved": 0, "fusion_lon": 0.0}, {"rental_uris": {"ios": "https://dc.lft.to/lastmile_qr_scan", "android": "https://dc.lft.to/lastmile_qr_scan"}, "fusion_lat": 0.0, "name": "6822eb16932601f7f8e88c4d3ae8bc65", "bike_id": "6822eb16932601f7f8e88c4d3ae8bc65", "is_disabled": 0, "type": "electric_scooter", "lat": 38.909586166666664, "lon": -77.03477733333334, "is_reserved": 0, "fusion_lon": 0.0}, {"rental_uris": {"ios": "https://dc.lft.to/lastmile_qr_scan", "android": "https://dc.lft.to/lastmile_qr_scan"}, "fusion_lat": 0.0, "name": "5f974cdfa81a5d8ec6dfc8d22a677c10", "bike_id": "5f974cdfa81a5d8ec6dfc8d22a677c10", "is_disabled": 0, "type": "electric_scooter", "lat": 38.939690666666664, "lon": -77.0325845, "is_reserved": 0, "fusion_lon": 0.0}, {"rental_uris": {"ios": "https://dc.lft.to/lastmile_qr_scan", "android": "https://dc.lft.to/lastmile_qr_scan"}, "fusion_lat": 0.0, "name": "16e031b781527e9ec5e6b256b34f7baa", "bike_id": "16e031b781527e9ec5e6b256b34f7baa", "is_disabled": 0, "type": "electric_scooter", "lat": 38.877208333333336, "lon": -77.01763, "is_reserved": 0, "fusion_lon": 0.0}, {"rental_uris": {"ios": "https://dc.lft.to/lastmile_qr_scan", "android": "https://dc.lft.to/lastmile_qr_scan"}, "fusion_lat": 0.0, "name": "21d2d1082be49e77356c1e602b88d036", "bike_id": "21d2d1082be49e77356c1e602b88d036", "is_disabled": 0, "type": "electric_scooter", "lat": 38.861109666666664, "lon": -76.98375966666667, "is_reserved": 0, "fusion_lon": 0.0}, {"rental_uris": {"ios": "https://dc.lft.to/lastmile_qr_scan", "android": "https://dc.lft.to/lastmile_qr_scan"}, "fusion_lat": 0.0, "name": "456f1b28306a5a0ccd90fae34713ce99", "bike_id": "456f1b28306a5a0ccd90fae34713ce99", "is_disabled": 0, "type": "electric_scooter", "lat": 38.91662316666667, "lon": -77.0220615, "is_reserved": 0, "fusion_lon": 0.0}, {"rental_uris": {"ios": "https://dc.lft.to/lastmile_qr_scan", "android": "https://dc.lft.to/lastmile_qr_scan"}, "fusion_lat": 0.0, "name": "9770d54de060121b8b0c0d642754f539", "bike_id": "9770d54de060121b8b0c0d642754f539", "is_disabled": 0, "type": "electric_scooter", "lat": 38.92236, "lon": -77.04357233333333, "is_reserved": 0, "fusion_lon": 0.0}, {"rental_uris": {"ios": "https://dc.lft.to/lastmile_qr_scan", "android": "https://dc.lft.to/lastmile_qr_scan"}, "fusion_lat": 0.0, "name": "26ac729094aae7759f66a11b97d4ed9c", "bike_id": "26ac729094aae7759f66a11b97d4ed9c", "is_disabled": 0, "type": "electric_scooter", "lat": 38.90245516666667, "lon": -77.04355183333334, "is_reserved": 0, "fusion_lon": 0.0}, {"rental_uris": {"ios": "https://dc.lft.to/lastmile_qr_scan", "android": "https://dc.lft.to/lastmile_qr_scan"}, "fusion_lat": 0.0, "name": "580d146023b4f3bcd282841b9d630ad7", "bike_id": "580d146023b4f3bcd282841b9d630ad7", "is_disabled": 0, "type": "electric_scooter", "lat": 38.884023666666664, "lon": -77.01776833333334, "is_reserved": 0, "fusion_lon": 0.0}, {"rental_uris": {"ios": "https://dc.lft.to/lastmile_qr_scan", "android": "https://dc.lft.to/lastmile_qr_scan"}, "fusion_lat": 0.0, "name": "dd5cd83f5e4058ba91bb46ecf9a94731", "bike_id": "dd5cd83f5e4058ba91bb46ecf9a94731", "is_disabled": 0, "type": "electric_scooter", "lat": 38.90256883333333, "lon": -77.034455, "is_reserved": 0, "fusion_lon": 0.0}, {"rental_uris": {"ios": "https://dc.lft.to/lastmile_qr_scan", "android": "https://dc.lft.to/lastmile_qr_scan"}, "fusion_lat": 0.0, "name": "42f52747b2050b6ce3f42a57ef591b82", "bike_id": "42f52747b2050b6ce3f42a57ef591b82", "is_disabled": 0, "type": "electric_bike", "lat": 38.967045, "lon": -76.97522483333333, "is_reserved": 0, "fusion_lon": 0.0}, {"rental_uris": {"ios": "https://dc.lft.to/lastmile_qr_scan", "android": "https://dc.lft.to/lastmile_qr_scan"}, "fusion_lat": 0.0, "name": "02c12712e01fb3ff6908827a9e56eacc", "bike_id": "02c12712e01fb3ff6908827a9e56eacc", "is_disabled": 0, "type": "electric_bike", "lat": 38.802294333333336, "lon": -77.07917033333334, "is_reserved": 0, "fusion_lon": 0.0}, {"rental_uris": {"ios": "https://dc.lft.to/lastmile_qr_scan", "android": "https://dc.lft.to/lastmile_qr_scan"}, "fusion_lat": 0.0, "name": "2b8cb011b00e5f12e4ff1e975db84f5b", "bike_id": "2b8cb011b00e5f12e4ff1e975db84f5b", "is_disabled": 0, "type": "electric_scooter", "lat": 38.9244235, "lon": -77.040335, "is_reserved": 0, "fusion_lon": 0.0}, {"rental_uris": {"ios": "https://dc.lft.to/lastmile_qr_scan", "android": "https://dc.lft.to/lastmile_qr_scan"}, "fusion_lat": 0.0, "name": "7ccd0cb134029c5400bd3926c844ea6e", "bike_id": "7ccd0cb134029c5400bd3926c844ea6e", "is_disabled": 0, "type": "electric_scooter", "lat": 38.905396333333336, "lon": -77.0417075, "is_reserved": 0, "fusion_lon": 0.0}, {"rental_uris": {"ios": "https://dc.lft.to/lastmile_qr_scan", "android": "https://dc.lft.to/lastmile_qr_scan"}, "fusion_lat": 0.0, "name": "a3bc69f40ef8135e676533082deefc71", "bike_id": "a3bc69f40ef8135e676533082deefc71", "is_disabled": 0, "type": "electric_scooter", "lat": 38.863674333333336, "lon": -76.99035433333333, "is_reserved": 0, "fusion_lon": 0.0}, {"rental_uris": {"ios": "https://dc.lft.to/lastmile_qr_scan", "android": "https://dc.lft.to/lastmile_qr_scan"}, "fusion_lat": 0.0, "name": "f4dac6c3557bf3aa5b402e94dc16bb78", "bike_id": "f4dac6c3557bf3aa5b402e94dc16bb78", "is_disabled": 0, "type": "electric_scooter", "lat": 38.91951816666667, "lon": -76.96980016666667, "is_reserved": 0, "fusion_lon": 0.0}, {"rental_uris": {"ios": "https://dc.lft.to/lastmile_qr_scan", "android": "https://dc.lft.to/lastmile_qr_scan"}, "fusion_lat": 0.0, "name": "0bf7e2c23f24631ca10efd69a263112a", "bike_id": "0bf7e2c23f24631ca10efd69a263112a", "is_disabled": 0, "type": "electric_scooter", "lat": 38.918512166666666, "lon": -77.00921133333334, "is_reserved": 0, "fusion_lon": 0.0}, {"rental_uris": {"ios": "https://dc.lft.to/lastmile_qr_scan", "android": "https://dc.lft.to/lastmile_qr_scan"}, "fusion_lat": 0.0, "name": "4f52cc8d66193649293ad2d22137a0db", "bike_id": "4f52cc8d66193649293ad2d22137a0db", "is_disabled": 0, "type": "electric_bike", "lat": 38.85511866666667, "lon": -76.98429966666667, "is_reserved": 0, "fusion_lon": 0.0}, {"rental_uris": {"ios": "https://dc.lft.to/lastmile_qr_scan", "android": "https://dc.lft.to/lastmile_qr_scan"}, "fusion_lat": 0.0, "name": "70c028ca01555848ba7eb6b3f8b90ed0", "bike_id": "70c028ca01555848ba7eb6b3f8b90ed0", "is_disabled": 0, "type": "electric_scooter", "lat": 38.930566, "lon": -77.02328633333333, "is_reserved": 0, "fusion_lon": 0.0}, {"rental_uris": {"ios": "https://dc.lft.to/lastmile_qr_scan", "android": "https://dc.lft.to/lastmile_qr_scan"}, "fusion_lat": 0.0, "name": "263aa0a15870b20d10113e8ef881d423", "bike_id": "263aa0a15870b20d10113e8ef881d423", "is_disabled": 0, "type": "electric_scooter", "lat": 38.89014433333333, "lon": -76.93735166666667, "is_reserved": 0, "fusion_lon": 0.0}, {"rental_uris": {"ios": "https://dc.lft.to/lastmile_qr_scan", "android": "https://dc.lft.to/lastmile_qr_scan"}, "fusion_lat": 0.0, "name": "6dfafc99defa22abc322fc593fe9c6f2", "bike_id": "6dfafc99defa22abc322fc593fe9c6f2", "is_disabled": 0, "type": "electric_scooter", "lat": 38.94075483333334, "lon": -77.0290625, "is_reserved": 0, "fusion_lon": 0.0}, {"rental_uris": {"ios": "https://dc.lft.to/lastmile_qr_scan", "android": "https://dc.lft.to/lastmile_qr_scan"}, "fusion_lat": 0.0, "name": "a07f690df76e87dd2cfb9018b336b85d", "bike_id": "a07f690df76e87dd2cfb9018b336b85d", "is_disabled": 0, "type": "electric_scooter", "lat": 38.914244833333335, "lon": -77.03209416666667, "is_reserved": 0, "fusion_lon": 0.0}, {"rental_uris": {"ios": "https://dc.lft.to/lastmile_qr_scan", "android": "https://dc.lft.to/lastmile_qr_scan"}, "fusion_lat": 0.0, "name": "c52f978893be48b2b679063bbd9b70ea", "bike_id": "c52f978893be48b2b679063bbd9b70ea", "is_disabled": 0, "type": "electric_scooter", "lat": 38.911319666666664, "lon": -77.02201666666667, "is_reserved": 0, "fusion_lon": 0.0}, {"rental_uris": {"ios": "https://dc.lft.to/lastmile_qr_scan", "android": "https://dc.lft.to/lastmile_qr_scan"}, "fusion_lat": 0.0, "name": "072ed8ecf4553930a9958e77b9afd8a0", "bike_id": "072ed8ecf4553930a9958e77b9afd8a0", "is_disabled": 0, "type": "electric_scooter", "lat": 38.871798, "lon": -77.00610983333333, "is_reserved": 0, "fusion_lon": 0.0}, {"rental_uris": {"ios": "https://dc.lft.to/lastmile_qr_scan", "android": "https://dc.lft.to/lastmile_qr_scan"}, "fusion_lat": 0.0, "name": "f7631fd0a5798b0ac602af412125251b", "bike_id": "f7631fd0a5798b0ac602af412125251b", "is_disabled": 0, "type": "electric_scooter", "lat": 38.91707016666667, "lon": -77.04682983333333, "is_reserved": 0, "fusion_lon": 0.0}, {"rental_uris": {"ios": "https://dc.lft.to/lastmile_qr_scan", "android": "https://dc.lft.to/lastmile_qr_scan"}, "fusion_lat": 0.0, "name": "47f9f3de875cf48647d4087319cdc767", "bike_id": "47f9f3de875cf48647d4087319cdc767", "is_disabled": 0, "type": "electric_scooter", "lat": 38.90257966666667, "lon": -77.04376816666667, "is_reserved": 0, "fusion_lon": 0.0}, {"rental_uris": {"ios": "https://dc.lft.to/lastmile_qr_scan", "android": "https://dc.lft.to/lastmile_qr_scan"}, "fusion_lat": 0.0, "name": "03a82324994d269c096b9d49bee1c553", "bike_id": "03a82324994d269c096b9d49bee1c553", "is_disabled": 0, "type": "electric_scooter", "lat": 38.961644, "lon": -77.0278755, "is_reserved": 0, "fusion_lon": 0.0}, {"rental_uris": {"ios": "https://dc.lft.to/lastmile_qr_scan", "android": "https://dc.lft.to/lastmile_qr_scan"}, "fusion_lat": 0.0, "name": "451527160571424ca72e379c109a7bc3", "bike_id": "451527160571424ca72e379c109a7bc3", "is_disabled": 0, "type": "electric_scooter", "lat": 38.887179, "lon": -77.017783, "is_reserved": 0, "fusion_lon": 0.0},