{"data": {"bikes": [{"fusion_lat": 0.0, "name": "d710687bda0c3654f7c3e99a35e5d3df", "is_disabled": 0, "rental_uris": {"android": "https://dc.lft.to/lastmile_qr_scan", "ios": "https://dc.lft.to/lastmile_qr_scan"}, "fusion_lon": 0.0, "lat": 38.8775165, "bike_id": "d710687bda0c3654f7c3e99a35e5d3df", "type": "electric_scooter", "is_reserved": 0, "lon": -77.00605316666666}, {"fusion_lat": 0.0, "name": "5ab099b72be02071502f7a70099f1b6b", "is_disabled": 0, "rental_uris": {"android": "https://dc.lft.to/lastmile_qr_scan", "ios": "https://dc.lft.to/lastmile_qr_scan"}, "fusion_lon": 0.0, "lat": 38.922965833333336, "bike_id": "5ab099b72be02071502f7a70099f1b6b", "type": "electric_bike", "is_reserved": 0, "lon": -76.99382433333334}, {"fusion_lat": 0.0, "name": "52caa2921661ca72d387d31c7943bf7a", "is_disabled": 0, "rental_uris": {"android": "https://dc.lft.to/lastmile_qr_scan", "ios": "https://dc.lft.to/lastmile_qr_scan"}, "fusion_lon": 0.0, "lat": 38.9023385, "bike_id": "52caa2921661ca72d387d31c7943bf7a", "type": "electric_scooter", "is_reserved": 0, "lon": -77.03642416666666}, {"fusion_lat": 0.0, "name": "cb75af01b3f3a249c5698781d10c4c6f", "is_disabled": 0, "rental_uris": {"android": "https://dc.lft.to/lastmile_qr_scan", "ios": "https://dc.lft.to/lastmile_qr_scan"}, "fusion_lon": 0.0, "lat": 38.90907633333333, "bike_id": "cb75af01b3f3a249c5698781d10c4c6f", "type": "electric_scooter", "is_reserved": 0, "lon": -77.0421275}, {"fusion_lat": 0.0, "name": "ed988b73d3a7e432ee6b10f1a90de839", "is_disabled": 0, "rental_uris": {"android": "https://dc.lft.to/lastmile_qr_scan", "ios": "https://dc.lft.to/lastmile_qr_scan"}, "fusion_lon": 0.0, "lat": 38.93826333333333, "bike_id": "ed988b73d3a7e432ee6b10f1a90de839", "type": "electric_scooter", "is_reserved": 0, "lon": -76.99186733333333}, {"fusion_lat": 0.0, "name": "2114df7f47ac9ad951b9025e0ba09b4d", "is_disabled": 0, "rental_uris": {"android": "https://dc.lft.to/lastmile_qr_scan", "ios": "https://dc.lft.to/lastmile_qr_scan"}, "fusion_lon": 0.0, "lat": 38.92281166666667, "bike_id": "2114df7f47ac9ad951b9025e0ba09b4d", "type": "electric_scooter", "is_reserved": 0, "lon": -77.07300533333333}, {"fusion_lat": 0.0, "name": "08f855f494a5655a7a3525c02849b7c3", "is_disabled": 0, "rental_uris": {"android": "https://dc.lft.to/lastmile_qr_scan", "ios": "https://dc.lft.to/lastmile_qr_scan"}, "fusion_lon": 0.0, "lat": 38.9326025, "bike_id": "08f855f494a5655a7a3525c02849b7c3", "type": "electric_scooter", "is_reserved": 0, "lon": -77.03457633333333}, {"fusion_lat": 0.0, "name": "68298361e477c8ff1b1700f6ed1aceaa", "is_disabled": 0, "rental_uris": {"android": "https://dc.lft.to/lastmile_qr_scan", "ios": "https://dc.lft.to/lastmile_qr_scan"}, "fusion_lon": 0.0, "lat": 38.89340883333333, "bike_id": "68298361e477c8ff1b1700f6ed1aceaa", "type": "electric_scooter", "is_reserved": 0, "lon": -76.9915855}, {"fusion_lat": 0.0, "name": "1885f5bd9d48cb470d6fee256ecf77d0", "is_disabled": 0, "rental_uris": {"android": "https://dc.lft.to/lastmile_qr_scan", "ios": "https://dc.lft.to/lastmile_qr_scan"}, "fusion_lon": 0.0, "lat": 38.9231225, "bike_id": "1885f5bd9d48cb470d6fee256ecf77d0", "type": "electric_scooter", "is_reserved": 0, "lon": -77.046197}, {"fusion_lat": 0.0, "name": "3f1be622c4d81f4eeab0b807c94b6288", "is_disabled": 0, "rental_uris": {"android": "https://dc.lft.to/lastmile_qr_scan", "ios": "https://dc.lft.to/lastmile_qr_scan"}, "fusion_lon": 0.0, "lat": 38.900591, "bike_id": "3f1be622c4d81f4eeab0b807c94b6288", "type": "electric_scooter", "is_reserved": 0, "lon": -77.02200133333334}, {"fusion_lat": 0.0, "name": "0075180ee68fac29d05369fc8be29b66", "is_disabled": 0, "rental_uris": {"android": "https://dc.lft.to/lastmile_qr_scan", "ios": "https://dc.lft.to/lastmile_qr_scan"}, "fusion_lon": 0.0, "lat": 38.877484, "bike_id": "0075180ee68fac29d05369fc8be29b66", "type": "electric_scooter", "is_reserved": 0, "lon": -77.0035885}, {"fusion_lat": 0.0, "name": "e5a791083413ac413de337e7dcbdf5c5", "is_disabled": 0, "rental_uris": {"android": "https://dc.lft.to/lastmile_qr_scan", "ios": "https://dc.lft.to/lastmile_qr_scan"}, "fusion_lon": 0.0, "lat": 38.897352833333336, "bike_id": "e5a791083413ac413de337e7dcbdf5c5", "type": "electric_scooter", "is_reserved": 0, "lon": -76.94718683333333}, {"fusion_lat": 0.0, "name": "9fe4c344e91fb835d765bc26cb727495", "is_disabled": 0, "rental_uris": {"android": "https://dc.lft.to/lastmile_qr_scan", "ios": "https://dc.lft.to/lastmile_qr_scan"}, "fusion_lon": 0.0, "lat": 38.90720833333334, "bike_id": "9fe4c344e91fb835d765bc26cb727495", "type": "electric_scooter", "is_reserved": 0, "lon": -77.02505233333333}, {"fusion_lat": 0.0, "name": "8987c36dcc7f76b5183452c83c054d3d", "is_disabled": 0, "rental_uris": {"android": "https://dc.lft.to/lastmile_qr_scan", "ios": "https://dc.lft.to/lastmile_qr_scan"}, "fusion_lon": 0.0, "lat": 38.916481, "bike_id": "8987c36dcc7f76b5183452c83c054d3d", "type": "electric_scooter", "is_reserved": 0, "lon": -77.045816}, {"fusion_lat": 0.0, "name": "c2305d8a3b4eac1c2fed34d5e4d18087", "is_disabled": 0, "rental_uris": {"android": "https://dc.lft.to/lastmile_qr_scan", "ios": "https://dc.lft.to/lastmile_qr_scan"}, "fusion_lon": 0.0, "lat": 38.874505666666664, "bike_id": "c2305d8a3b4eac1c2fed34d5e4d18087", "type": "electric_scooter", "is_reserved": 0, "lon": -77.018783}, {"fusion_lat": 0.0, "name": "6e9a599337be53c7e0ca3bc85cc8ad83", "is_disabled": 0, "rental_uris": {"android": "https://dc.lft.to/lastmile_qr_scan", "ios": "https://dc.lft.to/lastmile_qr_scan"}, "fusion_lon": 0.0, "lat": 38.9197695, "bike_id": "6e9a599337be53c7e0ca3bc85cc8ad83", "type": "electric_scooter", "is_reserved": 0, "lon": -77.04152683333334}, {"fusion_lat": 0.0, "name": "d28d42a4873f10396c7175ec1f2335e6", "is_disabled": 0, "rental_uris": {"android": "https://dc.lft.to/lastmile_qr_scan", "ios": "https://dc.lft.to/lastmile_qr_scan"}, "fusion_lon": 0.0, "lat": 38.92067933333333, "bike_id": "d28d42a4873f10396c7175ec1f2335e6", "type": "electric_scooter", "is_reserved": 0, "lon": -77.04248166666666}, {"fusion_lat": 0.0, "name": "9a3f306e61a6f94c1a71c7036b25f461", "is_disabled": 0, "rental_uris": {"android": "https://dc.lft.to/lastmile_qr_scan", "ios": "https://dc.lft.to/lastmile_qr_scan"}, "fusion_lon": 0.0, "lat": 38.888838166666666, "bike_id": "9a3f306e61a6f94c1a71c7036b25f461", "type": "electric_scooter", "is_reserved": 0, "lon": -77.02839216666666}, {"fusion_lat": 0.0, "name": "0229f364b980dbafc84469d6708aea9f", "is_disabled": 0, "rental_uris": {"android": "https://dc.lft.to/lastmile_qr_scan", "ios": "https://dc.lft.to/lastmile_qr_scan"}, "fusion_lon": 0.0, "lat": 38.91077216666667, "bike_id": "0229f364b980dbafc84469d6708aea9f", "type": "electric_scooter", "is_reserved": 0, "lon": -77.06544666666667}, {"fusion_lat": 0.0, "name": "6595cf88dbd59d09e236a7a58d6d989a", "is_disabled": 0, "rental_uris": {"android": "https://dc.lft.to/lastmile_qr_scan", "ios": "https://dc.lft.to/lastmile_qr_scan"}, "fusion_lon": 0.0, "lat": 38.916228, "bike_id": "6595cf88dbd59d09e236a7a58d6d989a", "type": "electric_scooter", "is_reserved": 0, "lon": -77.00347366666666}, {"fusion_lat": 0.0, "name": "44c331b26085a6d22e2c261cc3d75e44", "is_disabled": 0, "rental_uris": {"android": "https://dc.lft.to/lastmile_qr_scan", "ios": "https://dc.lft.to/lastmile_qr_scan"}, "fusion_lon": 0.0, "lat": 38.902617666666664, "bike_id": "44c331b26085a6d22e2c261cc3d75e44", "type": "electric_scooter", "is_reserved": 0, "lon": -76.99605933333333}, {"fusion_lat": 0.0, "name": "e46db383327d7b757ffd5b69b41051bb", "is_disabled": 0, "rental_uris": {"android": "https://dc.lft.to/lastmile_qr_scan", "ios": "https://dc.lft.to/lastmile_qr_scan"}, "fusion_lon": 0.0, "lat": 38.927239166666666, "bike_id": "e46db383327d7b757ffd5b69b41051bb", "type": "electric_scooter", "is_reserved": 0, "lon": -77.03156716666666}, {"fusion_lat": 0.0, "name": "3e059d665922adc660cf128ff649ca26", "is_disabled": 0, "rental_uris": {"android": "https://dc.lft.to/lastmile_qr_scan", "ios": "https://dc.lft.to/lastmile_qr_scan"}, "fusion_lon": 0.0, "lat": 38.94092033333333, "bike_id": "3e059d665922adc660cf128ff649ca26", "type": "electric_scooter", "is_reserved": 0, "lon": -77.0231525}, {"fusion_lat": 0.0, "name": "4069575d70ef4979cdf526bb37d64cdb", "is_disabled": 0, "rental_uris": {"android": "https://dc.lft.to/lastmile_qr_scan", "ios": "https://dc.lft.to/lastmile_qr_scan"}, "fusion_lon": 0.0, "lat": 38.9125175, "bike_id": "4069575d70ef4979cdf526bb37d64cdb", "type": "electric_scooter", "is_reserved": 0, "lon": -77.03798333333333}, {"fusion_lat": 0.0, "name": "3b2314ddb11751de1abdcafec5e35c74", "is_disabled": 0, "rental_uris": {"android": "https://dc.lft.to/lastmile_qr_scan", "ios": "https://dc.lft.to/lastmile_qr_scan"}, "fusion_lon": 0.0, "lat": 38.911186, "bike_id": "3b2314ddb11751de1abdcafec5e35c74", "type": "electric_bike", "is_reserved": 0, "lon": -77.0026035}, {"fusion_lat": 0.0, "name": "8e353dda4248477d0defc043a26a4ef5", "is_disabled": 0, "rental_uris": {"android": "https://dc.lft.to/lastmile_qr_scan", "ios": "https://dc.lft.to/lastmile_qr_scan"}, "fusion_lon": 0.0, "lat": 38.932807, "bike_id": "8e353dda4248477d0defc043a26a4ef5", "type": "electric_scooter", "is_reserved": 0, "lon": -77.04088533333334}, {"fusion_lat": 0.0, "name": "ca2a87c736e41f3cd4f1e009019ff833", "is_disabled": 0, "rental_uris": {"android": "https://dc.lft.to/lastmile_qr_scan", "ios": "https://dc.lft.to/lastmile_qr_scan"}, "fusion_lon": 0.0, "lat": 38.92561933333333, "bike_id": "ca2a87c736e41f3cd4f1e009019ff833", "type": "electric_scooter", "is_reserved": 0, "lon": -77.03557616666667}, {"fusion_lat": 0.0, "name": "1562ac5f261d92fc403eedb56c60f54f", "is_disabled": 0, "rental_uris": {"android": "https://dc.lft.to/lastmile_qr_scan", "ios": "https://dc.lft.to/lastmile_qr_scan"}, "fusion_lon": 0.0, "lat": 38.90269583333333, "bike_id": "1562ac5f261d92fc403eedb56c60f54f", "type": "electric_scooter", "is_reserved": 0, "lon": -77.05334533333334}, {"fusion_lat": 0.0, "name": "26c1646d068bf6fefad9387ee9776806", "is_disabled": 0, "rental_uris": {"android": "https://dc.lft.to/lastmile_qr_scan", "ios": "https://dc.lft.to/lastmile_qr_scan"}, "fusion_lon": 0.0, "lat": 38.95509583333333, "bike_id": "26c1646d068bf6fefad9387ee9776806", "type": "electric_scooter", "is_reserved": 0, "lon": -77.0283735}, {"fusion_lat": 0.0, "name": "ddb241fa5cc32d94e87396516b321837", "is_disabled": 0, "rental_uris": {"android": "https://dc.lft.to/lastmile_qr_scan", "ios": "https://dc.lft.to/lastmile_qr_scan"}, "fusion_lon": 0.0, "lat": 38.937615, "bike_id": "ddb241fa5cc32d94e87396516b321837", "type": "electric_bike", "is_reserved": 0, "lon": -76.95823}, {"fusion_lat": 0.0, "name": "1f94ea83d748fbcdb8f930930b8058ad", "is_disabled": 0, "rental_uris": {"android": "https://dc.lft.to/lastmile_qr_scan", "ios": "https://dc.lft.to/lastmile_qr_scan"}, "fusion_lon": 0.0, "lat": 38.92841216666667, "bike_id": "1f94ea83d748fbcdb8f930930b8058ad", "type": "electric_scooter", "is_reserved": 0, "lon": -76.99341766666667}, {"fusion_lat": 0.0, "name": "d36f6aeb39ccfb0ff9bc8a3eb29ca9df", "is_disabled": 0, "rental_uris": {"android": "https://dc.lft.to/lastmile_qr_scan", "ios": "https://dc.lft.to/lastmile_qr_scan"}, "fusion_lon": 0.0, "lat": 38.89015666666667, "bike_id": "d36f6aeb39ccfb0ff9bc8a3eb29ca9df", "type": "electric_scooter", "is_reserved": 0, "lon": -76.93732216666666}, {"fusion_lat": 0.0, "name": "a2e1a83fd11bb934e22e00e3db683251", "is_disabled": 0, "rental_uris": {"android": "https://dc.lft.to/lastmile_qr_scan", "ios": "https://dc.lft.to/lastmile_qr_scan"}, "fusion_lon": 0.0, "lat": 38.93245266666667, "bike_id": "a2e1a83fd11bb934e22e00e3db683251", "type": "electric_scooter", "is_reserved": 0, "lon": -77.03850366666667}, {"fusion_lat": 0.0, "name": "6c107eb43a652c539caef2c9fc6cf3d6", "is_disabled": 0, "rental_uris": {"android": "https://dc.lft.to/lastmile_qr_scan", "ios": "https://dc.lft.to/lastmile_qr_scan"}, "fusion_lon": 0.0, "lat": 38.905151000000004, "bike_id": "6c107eb43a652c539caef2c9fc6cf3d6", "type": "electric_scooter", "is_reserved": 0, "lon": -77.03178183333333}, {"fusion_lat": 0.0, "name": "3daf04e78f93f936f83b6a3d5dbf5701", "is_disabled": 0, "rental_uris": {"android": "https://dc.lft.to/lastmile_qr_scan", "ios": "https://dc.lft.to/lastmile_qr_scan"}, "fusion_lon": 0.0, "lat": 38.90760516666667, "bike_id": "3daf04e78f93f936f83b6a3d5dbf5701", "type": "electric_scooter", "is_reserved": 0, "lon": -77.00038783333333}, {"fusion_lat": 0.0, "name": "77dfd99195778ecd6ced831c84284460", "is_disabled": 0, "rental_uris": {"android": "https://dc.lft.to/lastmile_qr_scan", "ios": "https://dc.lft.to/lastmile_qr_scan"}, "fusion_lon": 0.0, "lat": 38.91634916666667, "bike_id": "77dfd99195778ecd6ced831c84284460", "type": "electric_scooter", "is_reserved": 0, "lon": -77.01071966666666}, {"fusion_lat": 0.0, "name": "df29dea4924cf48e7b0bcd5719a5424a", "is_disabled": 0, "rental_uris": {"android": "https://dc.lft.to/lastmile_qr_scan", "ios": "https://dc.lft.to/lastmile_qr_scan"}, "fusion_lon": 0.0, "lat": 38.92771616666667, "bike_id": "df29dea4924cf48e7b0bcd5719a5424a", "type": "electric_scooter", "is_reserved": 0, "lon": -77.02743983333333}, {"fusion_lat": 0.0, "name": "6b62f3cbb736dd560ceb5c3b17065a44", "is_disabled": 0, "rental_uris": {"android": "https://dc.lft.to/lastmile_qr_scan", "ios": "https://dc.lft.to/lastmile_qr_scan"}, "fusion_lon": 0.0, "lat": 38.91252383333333, "bike_id": "6b62f3cbb736dd560ceb5c3b17065a44", "type": "electric_scooter", "is_reserved": 0, "lon": -77.03868466666667}, {"fusion_lat": 0.0, "name": "47c8c421f8b3587f915ef5d2c93058f4", "is_disabled": 0, "rental_uris": {"android": "https://dc.lft.to/lastmile_qr_scan", "ios": "https://dc.lft.to/lastmile_qr_scan"}, "fusion_lon": 0.0, "lat": 38.9255245, "bike_id": "47c8c421f8b3587f915ef5d2c93058f4", "type": "electric_scooter", "is_reserved": 0, "lon": -77.03334816666667}, {"fusion_lat": 0.0, "name": "0d21b535257ff7d2f5b16485ec2de6c9", "is_disabled": 0, "rental_uris": {"android": "https://dc.lft.to/lastmile_qr_scan", "ios": "https://dc.lft.to/lastmile_qr_scan"}, "fusion_lon": 0.0, "lat": 38.914375666666665, "bike_id": "0d21b535257ff7d2f5b16485ec2de6c9", "type": "electric_scooter", "is_reserved": 0, "lon": -77.01224866666666}, {"fusion_lat": 0.0, "name": "ccb6d7cb7a430d868298a82ad381c651", "is_disabled": 0, "rental_uris": {"android": "https://dc.lft.to/lastmile_qr_scan", "ios": "https://dc.lft.to/lastmile_qr_scan"}, "fusion_lon": 0.0, "lat": 38.853581, "bike_id": "ccb6d7cb7a430d868298a82ad381c651", "type": "electric_bike", "is_reserved": 0, "lon": -77.1346725}, {"fusion_lat": 0.0, "name": "355b73e370d24d1761e2b51f6e14a8ac", "is_disabled": 0, "rental_uris": {"android": "https://dc.lft.to/lastmile_qr_scan", "ios": "https://dc.lft.to/lastmile_qr_scan"}, "fusion_lon": 0.0, "lat": 38.84755116666667, "bike_id": "355b73e370d24d1761e2b51f6e14a8ac", "type": "electric_scooter", "is_reserved": 0, "lon": -76.99501}, {"fusion_lat": 0.0, "name": "5318076795b50fdd05e8b8255f52d3e3", "is_disabled": 0, "rental_uris": {"android": "https://dc.lft.to/lastmile_qr_scan", "ios": "https://dc.lft.to/lastmile_qr_scan"}, "fusion_lon": 0.0, "lat": 38.92468783333333, "bike_id": "5318076795b50fdd05e8b8255f52d3e3", "type": "electric_scooter", "is_reserved": 0, "lon": -77.035333}, {"fusion_lat": 0.0, "name": "272f0b0f6bc4c11b42b7a9160e3aec75", "is_disabled": 0, "rental_uris": {"android": "https://dc.lft.to/lastmile_qr_scan", "ios": "https://dc.lft.to/lastmile_qr_scan"}, "fusion_lon": 0.0, "lat": 38.87508233333333, "bike_id": "272f0b0f6bc4c11b42b7a9160e3aec75", "type": "electric_scooter", "is_reserved": 0, "lon": -77.00028383333333}, {"fusion_lat": 0.0, "name": "a277632adccf254f4f8c94e9863e5b6f", "is_disabled": 0, "rental_uris": {"android": "https://dc.lft.to/lastmile_qr_scan", "ios": "https://dc.lft.to/lastmile_qr_scan"}, "fusion_lon": 0.0, "lat": 38.920573833333336, "bike_id": "a277632adccf254f4f8c94e9863e5b6f", "type": "electric_scooter", "is_reserved": 0, "lon": -76.99885833333333}, {"fusion_lat": 0.0, "name": "e6d851610bdc3346b4f008dc93707aed", "is_disabled": 0, "rental_uris": {"android": "https://dc.lft.to/lastmile_qr_scan", "ios": "https://dc.lft.to/lastmile_qr_scan"}, "fusion_lon": 0.0, "lat": 38.92602016666667, "bike_id": "e6d851610bdc3346b4f008dc93707aed", "type": "electric_scooter", "is_reserved": 0, "lon": -77.03744283333333}, {"fusion_lat": 0.0, "name": "0d9d4f6bd1f8630ff79dbe3380640279", "is_disabled": 0, "rental_uris": {"android": "https://dc.lft.to/lastmile_qr_scan", "ios": "https://dc.lft.to/lastmile_qr_scan"}, "fusion_lon": 0.0, "lat": 38.911411333333334, "bike_id": "0d9d4f6bd1f8630ff79dbe3380640279", "type": "electric_scooter", "is_reserved": 0, "lon": -77.0240505}, {"fusion_lat": 0.0, "name": "e26ce7fcbccb2fbdf200c0c9036f0c78", "is_disabled": 0, "rental_uris": {"android": "https://dc.lft.to/lastmile_qr_scan", "ios": "https://dc.lft.to/lastmile_qr_scan"}, "fusion_lon": 0.0, "lat": 38.94066516666667, "bike_id": "e26ce7fcbccb2fbdf200c0c9036f0c78", "type": "electric_bike", "is_reserved": 0, "lon": -76.99459183333333}, {"fusion_lat": 0.0, "name": "ee35120be13967ab6b9438dd3f7aebba", "is_disabled": 0, "rental_uris": {"android": "https://dc.lft.to/lastmile_qr_scan", "ios": "https://dc.lft.to/lastmile_qr_scan"}, "fusion_lon": 0.0, "lat": 38.874640166666666, "bike_id": "ee35120be13967ab6b9438dd3f7aebba", "type": "electric_scooter", "is_reserved": 0, "lon": -77.00562816666667}, {"fusion_lat": 0.0, "name": "c15cee5ec1a3343dafd9cb2262a92246", "is_disabled": 0, "rental_uris": {"android": "https://dc.lft.to/lastmile_qr_scan", "ios": "https://dc.lft.to/lastmile_qr_scan"}, "fusion_lon": 0.0, "lat": 38.93460283333334, "bike_id": "c15cee5ec1a3343dafd9cb2262a92246", "type": "electric_scooter", "is_reserved": 0, "lon": -77.04115083333333}, {"fusion_lat": 0.0, "name": "7c4f3631fc1a3ad425b1ca9e1b39b111", "is_disabled": 0, "rental_uris": {"android": "https://dc.lft.to/lastmile_qr_scan", "ios": "https://dc.lft.to/lastmile_qr_scan"}, "fusion_lon": 0.0, "lat": 38.887356, "bike_id": "7c4f3631fc1a3ad425b1ca9e1b39b111", "type": "electric_scooter", "is_reserved": 0, "lon": -77.0034925}, {"fusion_lat": 0.0, "name": "100246cfa6c0dd80760fdee0ef1597fb", "is_disabled": 0, "rental_uris": {"android": "https://dc.lft.to/lastmile_qr_scan", "ios": "https://dc.lft.to/lastmile_qr_scan"}, "fusion_lon": 0.0, "lat": 38.903325833333334, "bike_id": "100246cfa6c0dd80760fdee0ef1597fb", "type": "electric_scooter", "is_reserved": 0, "lon": -77.01189083333334}, {"fusion_lat": 0.0, "name": "9d379e32aeaccd051807b5cb86330fb3", "is_disabled": 0, "rental_uris": {"android": "https://dc.lft.to/lastmile_qr_scan", "ios": "https://dc.lft.to/lastmile_qr_scan"}, "fusion_lon": 0.0, "lat": 38.91620733333333, "bike_id": "9d379e32aeaccd051807b5cb86330fb3", "type": "electric_scooter", "is_reserved": 0, "lon": -77.01348633333333}, {"fusion_lat": 0.0, "name": "67abe77cfb3aaa4ae4157086cc2c49a5", "is_disabled": 0, "rental_uris": {"android": "https://dc.lft.to/lastmile_qr_scan", "ios": "https://dc.lft.to/lastmile_qr_scan"}, "fusion_lon": 0.0, "lat": 38.906633166666666, "bike_id": "67abe77cfb3aaa4ae4157086cc2c49a5", "type": "electric_scooter", "is_reserved": 0, "lon": -77.03859683333333}, {"fusion_lat": 0.0, "name": "095cf5d4df3996b20c91f7549efdb147", "is_disabled": 0, "rental_uris": {"android": "https://dc.lft.to/lastmile_qr_scan", "ios": "https://dc.lft.to/lastmile_qr_scan"}, "fusion_lon": 0.0, "lat": 38.90717266666667, "bike_id": "095cf5d4df3996b20c91f7549efdb147", "type": "electric_scooter", "is_reserved": 0, "lon": -77.04815483333333}, {"fusion_lat": 0.0, "name": "cd978d1a268d4df48849ed7b70d4aece", "is_disabled": 0, "rental_uris": {"android": "https://dc.lft.to/lastmile_qr_scan", "ios": "https://dc.lft.to/lastmile_qr_scan"}, "fusion_lon": 0.0, "lat": 38.93146866666667, "bike_id": "cd978d1a268d4df48849ed7b70d4aece", "type": "electric_scooter", "is_reserved": 0, "lon": -77.07848966666667}, {"fusion_lat": 0.0, "name": "e2b88925883680b6ea7066cd4933ad6a", "is_disabled": 0, "rental_uris": {"android": "https://dc.lft.to/lastmile_qr_scan", "ios": "https://dc.lft.to/lastmile_qr_scan"}, "fusion_lon": 0.0, "lat": 38.92333716666667, "bike_id": "e2b88925883680b6ea7066cd4933ad6a", "type": "electric_scooter", "is_reserved": 0, "lon": -77.0207955}, {"fusion_lat": 0.0, "name": "cef7ab94fefa5e627d39876da645f9d0", "is_disabled": 0, "rental_uris": {"android": "https://dc.lft.to/lastmile_qr_scan", "ios": "https://dc.lft.to/lastmile_qr_scan"}, "fusion_lon": 0.0, "lat": 38.92521033333333, "bike_id": "cef7ab94fefa5e627d39876da645f9d0", "type": "electric_scooter", "is_reserved": 0, "lon": -77.02962733333334}, {"fusion_lat": 0.0, "name": "677c7a5d4f09c418ad4cb8d02551231b", "is_disabled": 0, "rental_uris": {"android": "https://dc.lft.to/lastmile_qr_scan", "ios": "https://dc.lft.to/lastmile_qr_scan"}, "fusion_lon": 0.0, "lat": 38.9110615, "bike_id": "677c7a5d4f09c418ad4cb8d02551231b", "type": "electric_scooter", "is_reserved": 0, "lon": -77.01152333333333}, {"fusion_lat": 0.0, "name": "24efeb03f4a72a45e493b11b6a048fb3", "is_disabled": 0, "rental_uris": {"android": "https://dc.lft.to/lastmile_qr_scan", "ios": "https://dc.lft.to/lastmile_qr_scan"}, "fusion_lon": 0.0, "lat": 38.89833733333333, "bike_id": "24efeb03f4a72a45e493b11b6a048fb3", "type": "electric_scooter", "is_reserved": 0, "lon": -77.0298385}, {"fusion_lat": 0.0, "name": "02307d0665f55bd565e45df5cf0fea61", "is_disabled": 0, "rental_uris": {"android": "https://dc.lft.to/lastmile_qr_scan", "ios": "https://dc.lft.to/lastmile_qr_scan"}, "fusion_lon": 0.0, "lat": 38.871806166666666, "bike_id": "02307d0665f55bd565e45df5cf0fea61", "type": "electric_scooter", "is_reserved": 0, "lon": -77.00919666666667}, {"fusion_lat": 0.0, "name": "69950ff36aac71484f77a21bf4372c5c", "is_disabled": 0, "rental_uris": {"android": "https://dc.lft.to/lastmile_qr_scan", "ios": "https://dc.lft.to/lastmile_qr_scan"}, "fusion_lon": 0.0, "lat": 38.918896333333336, "bike_id": "69950ff36aac71484f77a21bf4372c5c", "type": "electric_scooter", "is_reserved": 0, "lon": -77.03486316666667}, {"fusion_lat": 0.0, "name": "899238e4cc7eda648c84acfd1b0acb57", "is_disabled": 0, "rental_uris": {"android": "https://dc.lft.to/lastmile_qr_scan", "ios": "https://dc.lft.to/lastmile_qr_scan"}, "fusion_lon": 0.0, "lat": 38.928743833333336, "bike_id": "899238e4cc7eda648c84acfd1b0acb57", "type": "electric_scooter", "is_reserved": 0, "lon": -77.02733916666666}, {"fusion_lat": 0.0, "name": "403162128ed67b21b04bc540337542c6", "is_disabled": 0, "rental_uris": {"android": "https://dc.lft.to/lastmile_qr_scan", "ios": "https://dc.lft.to/lastmile_qr_scan"}, "fusion_lon": 0.0, "lat": 38.904573666666664, "bike_id": "403162128ed67b21b04bc540337542c6", "type": "electric_scooter", "is_reserved": 0, "lon": -77.05332433333334}, {"fusion_lat": 0.0, "name": "7ab4b03c02dc01e75579b048e3cfb6bb", "is_disabled": 0, "rental_uris": {"android": "https://dc.lft.to/lastmile_qr_scan", "ios": "https://dc.lft.to/lastmile_qr_scan"}, "fusion_lon": 0.0, "lat": 38.96674483333334, "bike_id": "7ab4b03c02dc01e75579b048e3cfb6bb", "type": "electric_bike", "is_reserved": 0, "lon": -77.02167816666666}, {"fusion_lat": 0.0, "name": "4ca5f8273fcc86ca668029235c094880", "is_disabled": 0, "rental_uris": {"android": "https://dc.lft.to/lastmile_qr_scan", "ios": "https://dc.lft.to/lastmile_qr_scan"}, "fusion_lon": 0.0, "lat": 38.8824175, "bike_id": "4ca5f8273fcc86ca668029235c094880", "type": "electric_scooter", "is_reserved": 0, "lon": -77.00359366666666}, {"fusion_lat": 0.0, "name": "d98c100c7204e9c277956202fc791ea3", "is_disabled": 0, "rental_uris": {"android": "https://dc.lft.to/lastmile_qr_scan", "ios": "https://dc.lft.to/lastmile_qr_scan"}, "fusion_lon": 0.0, "lat": 38.92213666666667, "bike_id": "d98c100c7204e9c277956202fc791ea3", "type": "electric_scooter", "is_reserved": 0, "lon": -77.02020516666667}, {"fusion_lat": 0.0, "name": "b8e2ce9033ecf0b2f63c72a305fd86c8", "is_disabled": 0, "rental_uris": {"android": "https://dc.lft.to/lastmile_qr_scan", "ios": "https://dc.lft.to/lastmile_qr_scan"}, "fusion_lon": 0.0, "lat": 38.8948835, "bike_id": "b8e2ce9033ecf0b2f63c72a305fd86c8", "type": "electric_scooter", "is_reserved": 0, "lon": -77.01109733333334}, {"fusion_lat": 0.0, "name": "cde0fe0f12869cbfccddf2db64968d89", "is_disabled": 0, "rental_uris": {"android": "https://dc.lft.to/lastmile_qr_scan", "ios": "https://dc.lft.to/lastmile_qr_scan"}, "fusion_lon": 0.0, "lat": 38.9207, "bike_id": "cde0fe0f12869cbfccddf2db64968d89", "type": "electric_scooter", "is_reserved": 0, "lon": -77.02279566666667}, {"fusion_lat": 0.0, "name": "dab4f17b628bcd8fe533e3dcfbcb88cf", "is_disabled": 0, "rental_uris": {"android": "https://dc.lft.to/lastmile_qr_scan", "ios": "https://dc.lft.to/lastmile_qr_scan"}, "fusion_lon": 0.0, "lat": 38.93177133333333, "bike_id": "dab4f17b628bcd8fe533e3dcfbcb88cf", "type": "electric_scooter", "is_reserved": 0, "lon": -77.04294283333333}, {"fusion_lat": 0.0, "name": "98e752f4a9cc988b684d62b6553e2a3a", "is_disabled": 0, "rental_uris": {"android": "https://dc.lft.to/lastmile_qr_scan", "ios": "https://dc.lft.to/lastmile_qr_scan"}, "fusion_lon": 0.0, "lat": 38.88721183333333, "bike_id": "98e752f4a9cc988b684d62b6553e2a3a", "type": "electric_scooter", "is_reserved": 0, "lon": -77.025833}, {"fusion_lat": 0.0, "name": "7ca28ac597195a89eb06caa02f238905", "is_disabled": 0, "rental_uris": {"android": "https://dc.lft.to/lastmile_qr_scan", "ios": "https://dc.lft.to/lastmile_qr_scan"}, "fusion_lon": 0.0, "lat": 38.89015583333333, "bike_id": "7ca28ac597195a89eb06caa02f238905", "type": "electric_scooter", "is_reserved": 0, "lon": -76.93734416666666}, {"fusion_lat": 0.0, "name": "a69e7ee83f5bce7248c88335d4edc02b", "is_disabled": 0, "rental_uris": {"android": "https://dc.lft.to/lastmile_qr_scan", "ios": "https://dc.lft.to/lastmile_qr_scan"}, "fusion_lon": 0.0, "lat": 38.946289166666666, "bike_id": "a69e7ee83f5bce7248c88335d4edc02b", "type": "electric_scooter", "is_reserved": 0, "lon": -77.01845016666667}, {"fusion_lat": 0.0, "name": "a2a181c0d64fb969687d642a9eb7c053", "is_disabled": 0, "rental_uris": {"android": "https://dc.lft.to/lastmile_qr_scan", "ios": "https://dc.lft.to/lastmile_qr_scan"}, "fusion_lon": 0.0, "lat": 38.900606833333335, "bike_id": "a2a181c0d64fb969687d642a9eb7c053", "type": "electric_scooter", "is_reserved": 0, "lon": -77.0022055}, {"fusion_lat": 0.0, "name": "7b27e798ddee6954e2f4bdc71fdd3a98", "is_disabled": 0, "rental_uris": {"android": "https://dc.lft.to/lastmile_qr_scan", "ios": "https://dc.lft.to/lastmile_qr_scan"}, "fusion_lon": 0.0, "lat": 38.8029455, "bike_id": "7b27e798ddee6954e2f4bdc71fdd3a98", "type": "electric_bike", "is_reserved": 0, "lon": -77.05941216666666}, {"fusion_lat": 0.0, "name": "47b2851a5570d1af2c2f890c53ef97af", "is_disabled": 0, "rental_uris": {"android": "https://dc.lft.to/lastmile_qr_scan", "ios": "https://dc.lft.to/lastmile_qr_scan"}, "fusion_lon": 0.0, "lat": 38.927321166666665, "bike_id": "47b2851a5570d1af2c2f890c53ef97af", "type": "electric_scooter", "is_reserved": 0, "lon": -77.052626}, {"fusion_lat": 0.0, "name": "8917f6efc7ddf664be1e03110846ce0a", "is_disabled": 0, "rental_uris": {"android": "https://dc.lft.to/lastmile_qr_scan", "ios": "https://dc.lft.to/lastmile_qr_scan"}, "fusion_lon": 0.0, "lat": 38.9200995, "bike_id": "8917f6efc7ddf664be1e03110846ce0a", "type": "electric_scooter", "is_reserved": 0, "lon": -77.0388325}, {"fusion_lat": 0.0, "name": "d217f7c679f641f3f53f31bbe775a596", "is_disabled": 0, "rental_uris": {"android": "https://dc.lft.to/lastmile_qr_scan", "ios": "https://dc.lft.to/lastmile_qr_scan"}, "fusion_lon": 0.0, "lat": 38.904228833333335, "bike_id": "d217f7c679f641f3f53f31bbe775a596", "type": "electric_scooter", "is_reserved": 0, "lon": -77.05129983333333}, {"fusion_lat": 0.0, "name": "8ef10df5e9f8b9c9f9a30dec40da5b52", "is_disabled": 0, "rental_uris": {"android": "https://dc.lft.to/lastmile_qr_scan", "ios": "https://dc.lft.to/lastmile_qr_scan"}, "fusion_lon": 0.0, "lat": 38.923787, "bike_id": "8ef10df5e9f8b9c9f9a30dec40da5b52", "type": "electric_scooter", "is_reserved": 0, "lon": -77.0446785}, {"fusion_lat": 0.0, "name": "bbfd4ed4342b87eb09850f874b7fdab1", "is_disabled": 0, "rental_uris": {"android": "https://dc.lft.to/lastmile_qr_scan", "ios": "https://dc.lft.to/lastmile_qr_scan"}, "fusion_lon": 0.0, "lat": 38.9038285, "bike_id": "bbfd4ed4342b87eb09850f874b7fdab1", "type": "electric_scooter", "is_reserved": 0, "lon": -76.97613216666667}, {"fusion_lat": 0.0, "name": "6fd7fb921b9f7daa59c9c9d4689c2bfc", "is_disabled": 0, "rental_uris": {"android": "https://dc.lft.to/lastmile_qr_scan", "ios": "https://dc.lft.to/lastmile_qr_scan"}, "fusion_lon": 0.0, "lat": 38.8924115, "bike_id": "6fd7fb921b9f7daa59c9c9d4689c2bfc", "type": "electric_scooter", "is_reserved": 0, "lon": -77.0436115}, {"fusion_lat": 0.0, "name": "facef7a1cb63d3f1c89167779452f2e4", "is_disabled": 0, "rental_uris": {"android": "https://dc.lft.to/lastmile_qr_scan", "ios": "https://dc.lft.to/lastmile_qr_scan"}, "fusion_lon": 0.0, "lat": 38.963947833333336, "bike_id": "facef7a1cb63d3f1c89167779452f2e4", "type": "electric_scooter", "is_reserved": 0, "lon": -77.02591933333333}, {"fusion_lat": 0.0, "name": "91800358126f95877cc9dd2d58fa2973", "is_disabled": 0, "rental_uris": {"android": "https://dc.lft.to/lastmile_qr_scan", "ios": "https://dc.lft.to/lastmile_qr_scan"}, "fusion_lon": 0.0, "lat": 38.88185466666667, "bike_id": "91800358126f95877cc9dd2d58fa2973", "type": "electric_scooter", "is_reserved": 0, "lon": -77.00352233333334}, {"fusion_lat": 0.0, "name": "ee6cd5bfae3f3ba89a89154810bdc5b9", "is_disabled": 0, "rental_uris": {"android": "https://dc.lft.to/lastmile_qr_scan", "ios": "https://dc.lft.to/lastmile_qr_scan"}, "fusion_lon": 0.0, "lat": 38.93250316666666, "bike_id": "ee6cd5bfae3f3ba89a89154810bdc5b9", "type": "electric_scooter", "is_reserved": 0, "lon": -77.0327205}, {"fusion_lat": 0.0, "name": "46cb7877355b19e4b0a9dc048872fb3b", "is_disabled": 0, "rental_uris": {"android": "https://dc.lft.to/lastmile_qr_scan", "ios": "https://dc.lft.to/lastmile_qr_scan"}, "fusion_lon": 0.0, "lat": 38.90028616666667, "bike_id": "46cb7877355b19e4b0a9dc048872fb3b", "type": "electric_scooter", "is_reserved": 0, "lon": -77.01173166666666}, {"fusion_lat": 0.0, "name": "e91cb79293f46af75ad3191ea85e2c1c", "is_disabled": 0, "rental_uris": {"android": "https://dc.lft.to/lastmile_qr_scan", "ios": "https://dc.lft.to/lastmile_qr_scan"}, "fusion_lon": 0.0, "lat": 38.87981666666667, "bike_id": "e91cb79293f46af75ad3191ea85e2c1c", "type": "electric_scooter", "is_reserved": 0, "lon": -77.0060805}, {"fusion_lat": 0.0, "name": "f909c7640cc2ecf910e65e1af5e43576", "is_disabled": 0, "rental_uris": {"android": "https://dc.lft.to/lastmile_qr_scan", "ios": "https://dc.lft.to/lastmile_qr_scan"}, "fusion_lon": 0.0, "lat": 38.9210305, "bike_id": "f909c7640cc2ecf910e65e1af5e43576", "type": "electric_scooter", "is_reserved": 0, "lon": -77.031787}, {"fusion_lat": 0.0, "name": "3888ac99053706fa7b3f78eccc4c7730", "is_disabled": 0, "rental_uris": {"android": "https://dc.lft.to/lastmile_qr_scan", "ios": "https://dc.lft.to/lastmile_qr_scan"}, "fusion_lon": 0.0, "lat": 38.922865, "bike_id": "3888ac99053706fa7b3f78eccc4c7730", "type": "electric_scooter", "is_reserved": 0, "lon": -77.03660166666667}, {"fusion_lat": 0.0, "name": "8c8e3ab66c0be69f2b4da4a2e375870d", "is_disabled": 0, "rental_uris": {"android": "https://dc.lft.to/lastmile_qr_scan", "ios": "https://dc.lft.to/lastmile_qr_scan"}, "fusion_lon": 0.0, "lat": 38.9204995, "bike_id": "8c8e3ab66c0be69f2b4da4a2e375870d", "type": "electric_scooter", "is_reserved": 0, "lon": -77.03467683333334}, {"fusion_lat": 0.0, "name": "4b13ff4f9d891fa55cc1cc9991019f26", "is_disabled": 0, "rental_uris": {"android": "https://dc.lft.to/lastmile_qr_scan", "ios": "https://dc.lft.to/lastmile_qr_scan"}, "fusion_lon": 0.0, "lat": 38.92430616666667, "bike_id": "4b13ff4f9d891fa55cc1cc9991019f26", "type": "electric_scooter", "is_reserved": 0, "lon": -77.03550616666666}, {"fusion_lat": 0.0, "name": "88b66f5a57e14932a0e1415c312c6876", "is_disabled": 0, "rental_uris": {"android": "https://dc.lft.to/lastmile_qr_scan", "ios": "https://dc.lft.to/lastmile_qr_scan"}, "fusion_lon": 0.0, "lat": 38.973690833333336, "bike_id": "88b66f5a57e14932a0e1415c312c6876", "type": "electric_scooter", "is_reserved": 0, "lon": -77.02432716666667}, {"fusion_lat": 0.0, "name": "644f34cd890d67a971868325d5e1d63a", "is_disabled": 0, "rental_uris": {"android": "https://dc.lft.to/lastmile_qr_scan", "ios": "https://dc.lft.to/lastmile_qr_scan"}, "fusion_lon": 0.0, "lat": 38.9062575, "bike_id": "644f34cd890d67a971868325d5e1d63a", "type": "electric_scooter", "is_reserved": 0, "lon": -77.02602166666667}, {"fusion_lat": 0.0, "name": "35a7e9a9c3c8a34ff4ea00918ab3003e", "is_disabled": 0, "rental_uris": {"android": "https://dc.lft.to/lastmile_qr_scan", "ios": "https://dc.lft.to/lastmile_qr_scan"}, "fusion_lon": 0.0, "lat": 38.903921, "bike_id": "35a7e9a9c3c8a34ff4ea00918ab3003e", "type": "electric_scooter", "is_reserved": 0, "lon": -77.06143233333333}, {"fusion_lat": 0.0, "name": "8b007ed3eb9bede6c41ead2600ad8792", "is_disabled": 0, "rental_uris": {"android": "https://dc.lft.to/lastmile_qr_scan", "ios": "https://dc.lft.to/lastmile_qr_scan"}, "fusion_lon": 0.0, "lat": 38.900628833333336, "bike_id": "8b007ed3eb9bede6c41ead2600ad8792", "type": "electric_scooter", "is_reserved": 0, "lon": -76.93384416666666}, {"fusion_lat": 0.0, "name": "7ca6e853c4a4410988759ce378717bd0", "is_disabled": 0, "rental_uris": {"android": "https://dc.lft.to/lastmile_qr_scan", "ios": "https://dc.lft.to/lastmile_qr_scan"}, "fusion_lon": 0.0, "lat": 38.923755166666666, "bike_id": "7ca6e853c4a4410988759ce378717bd0", "type": "electric_scooter", "is_reserved": 0, "lon": -77.05252333333334}, {"fusion_lat": 0.0, "name": "dc4ae16ab993bf6136ab23fa1ab9a15d", "is_disabled": 0, "rental_uris": {"android": "https://dc.lft.to/lastmile_qr_scan", "ios": "https://dc.lft.to/lastmile_qr_scan"}, "fusion_lon": 0.0, "lat": 38.8983275, "bike_id": "dc4ae16ab993bf6136ab23fa1ab9a15d", "type": "electric_scooter", "is_reserved": 0, "lon": -76.94634766666667}, {"fusion_lat": 0.0, "name": "fdfa537ea4b5e2c59fb83af069e9b35f", "is_disabled": 0, "rental_uris": {"android": "https://dc.lft.to/lastmile_qr_scan", "ios": "https://dc.lft.to/lastmile_qr_scan"}, "fusion_lon": 0.0, "lat": 38.905545000000004, "bike_id": "fdfa537ea4b5e2c59fb83af069e9b35f", "type": "electric_scooter", "is_reserved": 0, "lon": -77.0055755}, {"fusion_lat": 0.0, "name": "1b5684b9dbb2f77145f43ca82e07c8c7", "is_disabled": 0, "rental_uris": {"android": "https://dc.lft.to/lastmile_qr_scan", "ios": "https://dc.lft.to/lastmile_qr_scan"}, "fusion_lon": 0.0, "lat": 38.8953005, "bike_id": "1b5684b9dbb2f77145f43ca82e07c8c7", "type": "electric_scooter", "is_reserved": 0, "lon": -76.948961}, {"fusion_lat": 0.0, "name": "5fc2bd0218ac4bbd5d5956c3a8a51be8", "is_disabled": 0, "rental_uris": {"android": "https://dc.lft.to/lastmile_qr_scan", "ios": "https://dc.lft.to/lastmile_qr_scan"}, "fusion_lon": 0.0, "lat": 38.908999666666666, "bike_id": "5fc2bd0218ac4bbd5d5956c3a8a51be8", "type": "electric_scooter", "is_reserved": 0, "lon": -77.042765}, {"fusion_lat": 0.0, "name": "2d43cdf9a3e46a029cd568eedd028280", "is_disabled": 0, "rental_uris": {"android": "https://dc.lft.to/lastmile_qr_scan", "ios": "https://dc.lft.to/lastmile_qr_scan"}, "fusion_lon": 0.0, "lat": 38.92859083333333, "bike_id": "2d43cdf9a3e46a029cd568eedd028280", "type": "electric_scooter", "is_reserved": 0, "lon": -77.03397433333333}, {"fusion_lat": 0.0, "name": "753ae655af1bbe0db93a1598745a3041", "is_disabled": 0, "rental_uris": {"android": "https://dc.lft.to/lastmile_qr_scan", "ios": "https://dc.lft.to/lastmile_qr_scan"}, "fusion_lon": 0.0, "lat": 38.9347655, "bike_id": "753ae655af1bbe0db93a1598745a3041", "type": "electric_scooter", "is_reserved": 0, "lon": -77.07349966666666}, {"fusion_lat": 0.0, "name": "a2a8f73c427b27955c59a38b87ddde35", "is_disabled": 0, "rental_uris": {"android": "https://dc.lft.to/lastmile_qr_scan", "ios": "https://dc.lft.to/lastmile_qr_scan"}, "fusion_lon": 0.0, "lat": 38.905311833333336, "bike_id": "a2a8f73c427b27955c59a38b87ddde35", "type": "electric_bike", "is_reserved": 0, "lon": -76.99806883333333}, {"fusion_lat": 0.0, "name": "1238a85f7489672adcf4cf363112a69f", "is_disabled": 0, "rental_uris": {"android": "https://dc.lft.to/lastmile_qr_scan", "ios": "https://dc.lft.to/lastmile_qr_scan"}, "fusion_lon": 0.0, "lat": 38.895661833333335, "bike_id": "1238a85f7489672adcf4cf363112a69f", "type": "electric_bike", "is_reserved": 0, "lon": -77.12736116666666}, {"fusion_lat": 0.0, "name": "a36bf9a0823f9995b5047baebd9ee0e0", "is_disabled": 0, "rental_uris": {"android": "https://dc.lft.to/lastmile_qr_scan", "ios": "https://dc.lft.to/lastmile_qr_scan"}, "fusion_lon": 0.0, "lat": 38.9095765, "bike_id": "a36bf9a0823f9995b5047baebd9ee0e0", "type": "electric_scooter", "is_reserved": 0, "lon": -77.04609933333333}, {"fusion_lat": 0.0, "name": "6e88ae00354db21be7643bf596aea497", "is_disabled": 0, "rental_uris": {"android": "https://dc.lft.to/lastmile_qr_scan", "ios": "https://dc.lft.to/lastmile_qr_scan"}, "fusion_lon": 0.0, "lat": 38.9300545, "bike_id": "6e88ae00354db21be7643bf596aea497", "type": "electric_bike", "is_reserved": 0, "lon": -77.01617433333334}, {"fusion_lat": 0.0, "name": "0d757de04499d78ac3305144f7f3c355", "is_disabled": 0, "rental_uris": {"android": "https://dc.lft.to/lastmile_qr_scan", "ios": "https://dc.lft.to/lastmile_qr_scan"}, "fusion_lon": 0.0, "lat": 38.92251566666667, "bike_id": "0d757de04499d78ac3305144f7f3c355", "type": "electric_scooter", "is_reserved": 0, "lon": -77.03079733333334}, {"fusion_lat": 0.0, "name": "853cc6bd83314f1a632e52a04c5f85ce", "is_disabled": 0, "rental_uris": {"android": "https://dc.lft.to/lastmile_qr_scan", "ios": "https://dc.lft.to/lastmile_qr_scan"}, "fusion_lon": 0.0, "lat": 38.91504366666667, "bike_id": "853cc6bd83314f1a632e52a04c5f85ce", "type": "electric_scooter", "is_reserved": 0, "lon": -77.03264383333334}, {"fusion_lat": 0.0, "name": "9fed7cd565c9218b42bd59091e914915", "is_disabled": 0, "rental_uris": {"android": "https://dc.lft.to/lastmile_qr_scan", "ios": "https://dc.lft.to/lastmile_qr_scan"}, "fusion_lon": 0.0, "lat": 38.932408833333334, "bike_id": "9fed7cd565c9218b42bd59091e914915", "type": "electric_scooter", "is_reserved": 0, "lon": -77.03408633333333}, {"fusion_lat": 0.0, "name": "3a8ddbfc1b348456a1d0e63e87bfee36", "is_disabled": 0, "rental_uris": {"android": "https://dc.lft.to/lastmile_qr_scan", "ios": "https://dc.lft.to/lastmile_qr_scan"}, "fusion_lon": 0.0, "lat": 38.89729116666667, "bike_id": "3a8ddbfc1b348456a1d0e63e87bfee36", "type": "electric_scooter", "is_reserved": 0, "lon": -76.94702566666666}, {"fusion_lat": 0.0, "name": "630c3d699145d25c51a85392fe1340ee", "is_disabled": 0, "rental_uris": {"android": "https://dc.lft.to/lastmile_qr_scan", "ios": "https://dc.lft.to/lastmile_qr_scan"}, "fusion_lon": 0.0, "lat": 38.9607015, "bike_id": "630c3d699145d25c51a85392fe1340ee", "type": "electric_scooter", "is_reserved": 0, "lon": -77.00094783333333}, {"fusion_lat": 0.0, "name": "583490c6d7b024dc112eae929b54a9ed", "is_disabled": 0, "rental_uris": {"android": "https://dc.lft.to/lastmile_qr_scan", "ios": "https://dc.lft.to/lastmile_qr_scan"}, "fusion_lon": 0.0, "lat": 38.90799966666667, "bike_id": "583490c6d7b024dc112eae929b54a9ed", "type": "electric_scooter", "is_reserved": 0, "lon": -77.0018995}, {"fusion_lat": 0.0, "name": "21147ce7160165a012714e84965db509", "is_disabled": 0, "rental_uris": {"android": "https://dc.lft.to/lastmile_qr_scan", "ios": "https://dc.lft.to/lastmile_qr_scan"}, "fusion_lon": 0.0, "lat": 38.8629185, "bike_id": "21147ce7160165a012714e84965db509", "type": "electric_bike", "is_reserved": 0, "lon": -77.06365416666667}, {"fusion_lat": 0.0, "name": "cb2eefee7f83a12342f9537363740185", "is_disabled": 0, "rental_uris": {"android": "https://dc.lft.to/lastmile_qr_scan", "ios": "https://dc.lft.to/lastmile_qr_scan"}, "fusion_lon": 0.0, "lat": 38.9042435, "bike_id": "cb2eefee7f83a12342f9537363740185", "type": "electric_scooter", "is_reserved": 0, "lon": -77.04848116666666}, {"fusion_lat": 0.0, "name": "88bddb3618eb48ee6379befc6d3a767e", "is_disabled": 0, "rental_uris": {"android": "https://dc.lft.to/lastmile_qr_scan", "ios": "https://dc.lft.to/lastmile_qr_scan"}, "fusion_lon": 0.0, "lat": 38.88479183333333, "bike_id": "88bddb3618eb48ee6379befc6d3a767e", "type": "electric_scooter", "is_reserved": 0, "lon": -77.02367816666667}, {"fusion_lat": 0.0, "name": "33c1a5df6b63efdd977853671012d58c", "is_disabled": 0, "rental_uris": {"android": "https://dc.lft.to/lastmile_qr_scan", "ios": "https://dc.lft.to/lastmile_qr_scan"}, "fusion_lon": 0.0, "lat": 38.9059255, "bike_id": "33c1a5df6b63efdd977853671012d58c", "type": "electric_scooter", "is_reserved": 0, "lon": -77.03987766666667}, {"fusion_lat": 0.0, "name": "e9c4e69000faacb53a47f857ae86ab6c", "is_disabled": 0, "rental_uris": {"android": "https://dc.lft.to/lastmile_qr_scan", "ios": "https://dc.lft.to/lastmile_qr_scan"}, "fusion_lon": 0.0, "lat": 38.900145, "bike_id": "e9c4e69000faacb53a47f857ae86ab6c", "type": "electric_scooter", "is_reserved": 0, "lon": -76.98814383333334}, {"fusion_lat": 0.0, "name": "99930c6bd6c6a31848cf70e374bef010", "is_disabled": 0, "rental_uris": {"android": "https://dc.lft.to/lastmile_qr_scan", "ios": "https://dc.lft.to/lastmile_qr_scan"}, "fusion_lon": 0.0, "lat": 38.920193833333336, "bike_id": "99930c6bd6c6a31848cf70e374bef010", "type": "electric_scooter", "is_reserved": 0, "lon": -77.01312133333333}, {"fusion_lat": 0.0, "name": "782a3cdb8fb11a76ca98a34b7e78f91b", "is_disabled": 0, "rental_uris": {"android": "https://dc.lft.to/lastmile_qr_scan", "ios": "https://dc.lft.to/lastmile_qr_scan"}, "fusion_lon": 0.0, "lat": 38.8771035, "bike_id": "782a3cdb8fb11a76ca98a34b7e78f91b", "type": "electric_scooter", "is_reserved": 0, "lon": -76.99383683333333}, {"fusion_lat": 0.0, "name": "31bb99555b812a916d33143993cb5b0b", "is_disabled": 0, "rental_uris": {"android": "https://dc.lft.to/lastmile_qr_scan", "ios": "https://dc.lft.to/lastmile_qr_scan"}, "fusion_lon": 0.0, "lat": 38.904321833333334, "bike_id": "31bb99555b812a916d33143993cb5b0b", "type": "electric_scooter", "is_reserved": 0, "lon": -77.02591233333334}, {"fusion_lat": 0.0, "name": "46f6c8e3b24ff78801f76cb7fc2102b7", "is_disabled": 0, "rental_uris": {"android": "https://dc.lft.to/lastmile_qr_scan", "ios": "https://dc.lft.to/lastmile_qr_scan"}, "fusion_lon": 0.0, "lat": 38.8987605, "bike_id": "46f6c8e3b24ff78801f76cb7fc2102b7", "type": "electric_scooter", "is_reserved": 0, "lon": -76.9318185}, {"fusion_lat": 0.0, "name": "97dd0245a8b1677da48e1448f4b082e3", "is_disabled": 0, "rental_uris": {"android": "https://dc.lft.to/lastmile_qr_scan", "ios": "https://dc.lft.to/lastmile_qr_scan"}, "fusion_lon": 0.0, "lat": 38.9297235, "bike_id": "97dd0245a8b1677da48e1448f4b082e3", "type": "electric_scooter", "is_reserved": 0, "lon": -77.0279535}, {"fusion_lat": 0.0, "name": "a11ca3c9c4b870b807ea94c9f6b720f6", "is_disabled": 0, "rental_uris": {"android": "https://dc.lft.to/lastmile_qr_scan", "ios": "https://dc.lft.to/lastmile_qr_scan"}, "fusion_lon": 0.0, "lat": 38.893300833333335, "bike_id": "a11ca3c9c4b870b807ea94c9f6b720f6", "type": "electric_scooter", "is_reserved": 0, "lon": -77.03183416666667}, {"fusion_lat": 0.0, "name": "1cd5a8d77fa393888e67530c4c421348", "is_disabled": 0, "rental_uris": {"android": "https://dc.lft.to/lastmile_qr_scan", "ios": "https://dc.lft.to/lastmile_qr_scan"}, "fusion_lon": 0.0, "lat": 38.89221783333333, "bike_id": "1cd5a8d77fa393888e67530c4c421348", "type": "electric_scooter", "is_reserved": 0, "lon": -77.04864183333333}, {"fusion_lat": 0.0, "name": "16833019d3468fec7279f9d54713d2ef", "is_disabled": 0, "rental_uris": {"android": "https://dc.lft.to/lastmile_qr_scan", "ios": "https://dc.lft.to/lastmile_qr_scan"}, "fusion_lon": 0.0, "lat": 38.876667166666664, "bike_id": "16833019d3468fec7279f9d54713d2ef", "type": "electric_scooter", "is_reserved": 0, "lon": -77.01757316666666}, {"fusion_lat": 0.0, "name": "65d5d92e06ddf4dcf4afd051faf6444f", "is_disabled": 0, "rental_uris": {"android": "https://dc.lft.to/lastmile_qr_scan", "ios": "https://dc.lft.to/lastmile_qr_scan"}, "fusion_lon": 0.0, "lat": 38.9233475, "bike_id": "65d5d92e06ddf4dcf4afd051faf6444f", "type": "electric_scooter", "is_reserved": 0, "lon": -77.0361325}, {"fusion_lat": 0.0, "name": "32dc73eed4bb80cf62499a93e61f7b83", "is_disabled": 0, "rental_uris": {"android": "https://dc.lft.to/lastmile_qr_scan", "ios": "https://dc.lft.to/lastmile_qr_scan"}, "fusion_lon": 0.0, "lat": 38.92356066666667, "bike_id": "32dc73eed4bb80cf62499a93e61f7b83", "type": "electric_scooter", "is_reserved": 0, "lon": -77.03373983333333}, {"fusion_lat": 0.0, "name": "d38bf92d7592c6d933e56798c96a5f74", "is_disabled": 0, "rental_uris": {"android": "https://dc.lft.to/lastmile_qr_scan", "ios": "https://dc.lft.to/lastmile_qr_scan"}, "fusion_lon": 0.0, "lat": 38.898935333333334, "bike_id": "d38bf92d7592c6d933e56798c96a5f74", "type": "electric_scooter", "is_reserved": 0, "lon": -76.98064866666667}, {"fusion_lat": 0.0, "name": "d9424a64038ccff17543f60867dccd8c", "is_disabled": 0, "rental_uris": {"android": "https://dc.lft.to/lastmile_qr_scan", "ios": "https://dc.lft.to/lastmile_qr_scan"}, "fusion_lon": 0.0, "lat": 38.898546, "bike_id": "d9424a64038ccff17543f60867dccd8c", "type": "electric_scooter", "is_reserved": 0, "lon": -77.03923533333334}, {"fusion_lat": 0.0, "name": "718dfd0c159c7586c512d61be1c60491", "is_disabled": 0, "rental_uris": {"android": "https://dc.lft.to/lastmile_qr_scan", "ios": "https://dc.lft.to/lastmile_qr_scan"}, "fusion_lon": 0.0, "lat": 38.89995616666667, "bike_id": "718dfd0c159c7586c512d61be1c60491", "type": "electric_scooter", "is_reserved": 0, "lon": -77.02299566666667}, {"fusion_lat": 0.0, "name": "7fc35c50bd38d395f7c9f35f3b31b9a3", "is_disabled": 0, "rental_uris": {"android": "https://dc.lft.to/lastmile_qr_scan", "ios": "https://dc.lft.to/lastmile_qr_scan"}, "fusion_lon": 0.0, "lat": 38.898292166666664, "bike_id": "7fc35c50bd38d395f7c9f35f3b31b9a3", "type": "electric_scooter", "is_reserved": 0, "lon": -77.00740766666667}, {"fusion_lat": 0.0, "name": "2c81a1e5c56d5212edc6351a47b1a529", "is_disabled": 0, "rental_uris": {"android": "https://dc.lft.to/lastmile_qr_scan", "ios": "https://dc.lft.to/lastmile_qr_scan"}, "fusion_lon": 0.0, "lat": 38.876594833333336, "bike_id": "2c81a1e5c56d5212edc6351a47b1a529", "type": "electric_scooter", "is_reserved": 0, "lon": -77.00066866666667}, {"fusion_lat": 0.0, "name": "676be9f5c03e40b39d2380ffe1649bbe", "is_disabled": 0, "rental_uris": {"android": "https://dc.lft.to/lastmile_qr_scan", "ios": "https://dc.lft.to/lastmile_qr_scan"}, "fusion_lon": 0.0, "lat": 39.07054566666667, "bike_id": "676be9f5c03e40b39d2380ffe1649bbe", "type": "electric_bike", "is_reserved": 0, "lon": -77.11479766666666}, {"fusion_lat": 0.0, "name": "4dfed4bbc82aae9f56b78b1faa2eb51b", "is_disabled": 0, "rental_uris": {"android": "https://dc.lft.to/lastmile_qr_scan", "ios": "https://dc.lft.to/lastmile_qr_scan"}, "fusion_lon": 0.0, "lat": 38.90388083333333, "bike_id": "4dfed4bbc82aae9f56b78b1faa2eb51b", "type": "electric_scooter", "is_reserved": 0, "lon": -77.01763666666666}, {"fusion_lat": 0.0, "name": "f09072182dcc3ffa119262cba5141b49", "is_disabled": 0, "rental_uris": {"android": "https://dc.lft.to/lastmile_qr_scan", "ios": "https://dc.lft.to/lastmile_qr_scan"}, "fusion_lon": 0.0, "lat": 38.90123416666667, "bike_id": "f09072182dcc3ffa119262cba5141b49", "type": "electric_scooter", "is_reserved": 0, "lon": -77.02293216666666}, {"fusion_lat": 0.0, "name": "fe9d1b5282c1a7779840ffb647fee3db", "is_disabled": 0, "rental_uris": {"android": "https://dc.lft.to/lastmile_qr_scan", "ios": "https://dc.lft.to/lastmile_qr_scan"}, "fusion_lon": 0.0, "lat": 38.878030333333335, "bike_id": "fe9d1b5282c1a7779840ffb647fee3db", "type": "electric_scooter", "is_reserved": 0, "lon": -77.017625}, {"fusion_lat": 0.0, "name": "8cbf170c0559f3ba75b9ad226b6d0ca2", "is_disabled": 0, "rental_uris": {"android": "https://dc.lft.to/lastmile_qr_scan", "ios": "https://dc.lft.to/lastmile_qr_scan"}, "fusion_lon": 0.0, "lat": 38.91652083333334, "bike_id": "8cbf170c0559f3ba75b9ad226b6d0ca2", "type": "electric_scooter", "is_reserved": 0, "lon": -77.00952883333333}, {"fusion_lat": 0.0, "name": "2a10798e5f6c4f24fa83d96903ccb81b", "is_disabled": 0, "rental_uris": {"android": "https://dc.lft.to/lastmile_qr_scan", "ios": "https://dc.lft.to/lastmile_qr_scan"}, "fusion_lon": 0.0, "lat": 38.905372, "bike_id": "2a10798e5f6c4f24fa83d96903ccb81b", "type": "electric_scooter", "is_reserved": 0, "lon": -76.98197116666667}, {"fusion_lat": 0.0, "name": "017019719c6ba116c4fe9aeb3ab60941", "is_disabled": 0, "rental_uris": {"android": "https://dc.lft.to/lastmile_qr_scan", "ios": "https://dc.lft.to/lastmile_qr_scan"}, "fusion_lon": 0.0, "lat": 38.90784133333333, "bike_id": "017019719c6ba116c4fe9aeb3ab60941", "type": "electric_scooter", "is_reserved": 0, "lon": -77.03860216666666}, {"fusion_lat": 0.0, "name": "1a82b4c245b8067ea77124dfa4223449", "is_disabled": 0, "rental_uris": {"android": "https://dc.lft.to/lastmile_qr_scan", "ios": "https://dc.lft.to/lastmile_qr_scan"}, "fusion_lon": 0.0, "lat": 38.917747166666665, "bike_id": "1a82b4c245b8067ea77124dfa4223449", "type": "electric_scooter", "is_reserved": 0, "lon": -77.02309216666667}, {"fusion_lat": 0.0, "name": "6da47c6491b05cef5818cb5501b2431d", "is_disabled": 0, "rental_uris": {"android": "https://dc.lft.to/lastmile_qr_scan", "ios": "https://dc.lft.to/lastmile_qr_scan"}, "fusion_lon": 0.0, "lat": 38.8651675, "bike_id": "6da47c6491b05cef5818cb5501b2431d", "type": "electric_bike", "is_reserved": 0, "lon": -77.12936666666667}, {"fusion_lat": 0.0, "name": "b4de2d4cca3aa854f68351e7469226af", "is_disabled": 0, "rental_uris": {"android": "https://dc.lft.to/lastmile_qr_scan", "ios": "https://dc.lft.to/lastmile_qr_scan"}, "fusion_lon": 0.0, "lat": 38.91699416666667, "bike_id": "b4de2d4cca3aa854f68351e7469226af", "type": "electric_scooter", "is_reserved": 0, "lon": -77.0307495}, {"fusion_lat": 0.0, "name": "f2448cb0244b37cb6b33fcd290ca7fbd", "is_disabled": 0, "rental_uris": {"android": "https://dc.lft.to/lastmile_qr_scan", "ios": "https://dc.lft.to/lastmile_qr_scan"}, "fusion_lon": 0.0, "lat": 38.9126825, "bike_id": "f2448cb0244b37cb6b33fcd290ca7fbd", "type": "electric_scooter", "is_reserved": 0, "lon": -77.03872666666666}, {"fusion_lat": 0.0, "name": "70aa01541502c34ac7a3aa6fe7d933c8", "is_disabled": 0, "rental_uris": {"android": "https://dc.lft.to/lastmile_qr_scan", "ios": "https://dc.lft.to/lastmile_qr_scan"}, "fusion_lon": 0.0, "lat": 38.90264916666667, "bike_id": "70aa01541502c34ac7a3aa6fe7d933c8", "type": "electric_scooter", "is_reserved": 0, "lon": -77.01752566666667}, {"fusion_lat": 0.0, "name": "fe50658c9fcdebac4fb74220070e8dde", "is_disabled": 0, "rental_uris": {"android": "https://dc.lft.to/lastmile_qr_scan", "ios": "https://dc.lft.to/lastmile_qr_scan"}, "fusion_lon": 0.0, "lat": 38.92202133333333, "bike_id": "fe50658c9fcdebac4fb74220070e8dde", "type": "electric_scooter", "is_reserved": 0, "lon": -77.02346516666667}, {"fusion_lat": 0.0, "name": "f0eb40f33d8878e75a4e848723916cdd", "is_disabled": 0, "rental_uris": {"android": "https://dc.lft.to/lastmile_qr_scan", "ios": "https://dc.lft.to/lastmile_qr_scan"}, "fusion_lon": 0.0, "lat": 38.90505016666667, "bike_id": "f0eb40f33d8878e75a4e848723916cdd", "type": "electric_scooter", "is_reserved": 0, "lon": -77.02689416666666}, {"fusion_lat": 0.0, "name": "7859f5c0d9a020eb716e3275dd5dc053", "is_disabled": 0, "rental_uris": {"android": "https://dc.lft.to/lastmile_qr_scan", "ios": "https://dc.lft.to/lastmile_qr_scan"}, "fusion_lon": 0.0, "lat": 38.91415, "bike_id": "7859f5c0d9a020eb716e3275dd5dc053", "type": "electric_scooter", "is_reserved": 0, "lon": -77.0424645}, {"fusion_lat": 0.0, "name": "824b09b48d4904f9dd41645a9d59a48a", "is_disabled": 0, "rental_uris": {"android": "https://dc.lft.to/lastmile_qr_scan", "ios": "https://dc.lft.to/lastmile_qr_scan"}, "fusion_lon": 0.0, "lat": 38.965998666666664, "bike_id": "824b09b48d4904f9dd41645a9d59a48a", "type": "electric_bike", "is_reserved": 0, "lon": -77.02804066666667}, {"fusion_lat": 0.0, "name": "fc64505f4f1b10c982f9db114d13cd97", "is_disabled": 0, "rental_uris": {"android": "https://dc.lft.to/lastmile_qr_scan", "ios": "https://dc.lft.to/lastmile_qr_scan"}, "fusion_lon": 0.0, "lat": 38.8883375, "bike_id": "fc64505f4f1b10c982f9db114d13cd97", "type": "electric_scooter", "is_reserved": 0, "lon": -77.04903516666667}, {"fusion_lat": 0.0, "name": "b3ba1837bc9fe9bd81fb4c9f306cfd17", "is_disabled": 0, "rental_uris": {"android": "https://dc.lft.to/lastmile_qr_scan", "ios": "https://dc.lft.to/lastmile_qr_scan"}, "fusion_lon": 0.0, "lat": 38.922439833333335, "bike_id": "b3ba1837bc9fe9bd81fb4c9f306cfd17", "type": "electric_scooter", "is_reserved": 0, "lon": -77.02237666666667}, {"fusion_lat": 0.0, "name": "3f0666473477021240e7829052bd9a97", "is_disabled": 0, "rental_uris": {"android": "https://dc.lft.to/lastmile_qr_scan", "ios": "https://dc.lft.to/lastmile_qr_scan"}, "fusion_lon": 0.0, "lat": 38.87817066666667, "bike_id": "3f0666473477021240e7829052bd9a97", "type": "electric_scooter", "is_reserved": 0, "lon": -77.00128}, {"fusion_lat": 0.0, "name": "9e588c8b7a4a724aadf75a78df26386c", "is_disabled": 0, "rental_uris": {"android": "https://dc.lft.to/lastmile_qr_scan", "ios": "https://dc.lft.to/lastmile_qr_scan"}, "fusion_lon": 0.0, "lat": 38.849133, "bike_id": "9e588c8b7a4a724aadf75a78df26386c", "type": "electric_bike", "is_reserved": 0, "lon": -77.0997995}, {"fusion_lat": 0.0, "name": "76049a551873022a7d5018a40921b8eb", "is_disabled": 0, "rental_uris": {"android": "https://dc.lft.to/lastmile_qr_scan", "ios": "https://dc.lft.to/lastmile_qr_scan"}, "fusion_lon": 0.0, "lat": 38.928079833333335, "bike_id": "76049a551873022a7d5018a40921b8eb", "type": "electric_scooter", "is_reserved": 0, "lon": -77.04356966666667}, {"fusion_lat": 0.0, "name": "d565a20f9e2a50da392c1e920d27abf4", "is_disabled": 0, "rental_uris": {"android": "https://dc.lft.to/lastmile_qr_scan", "ios": "https://dc.lft.to/lastmile_qr_scan"}, "fusion_lon": 0.0, "lat": 38.906653, "bike_id": "d565a20f9e2a50da392c1e920d27abf4", "type": "electric_scooter", "is_reserved": 0, "lon": -77.038632}, {"fusion_lat": 0.0, "name": "6d377cd39554c038ca5c18affb0c2709", "is_disabled": 0, "rental_uris": {"android": "https://dc.lft.to/lastmile_qr_scan", "ios": "https://dc.lft.to/lastmile_qr_scan"}, "fusion_lon": 0.0, "lat": 38.89105833333333, "bike_id": "6d377cd39554c038ca5c18affb0c2709", "type": "electric_scooter", "is_reserved": 0, "lon": -76.98357983333334}, {"fusion_lat": 0.0, "name": "3dfa49c0423494f081cda4bcf700a2b3", "is_disabled": 0, "rental_uris": {"android": "https://dc.lft.to/lastmile_qr_scan", "ios": "https://dc.lft.to/lastmile_qr_scan"}, "fusion_lon": 0.0, "lat": 38.91662183333333, "bike_id": "3dfa49c0423494f081cda4bcf700a2b3", "type": "electric_scooter", "is_reserved": 0, "lon": -77.0385325}, {"fusion_lat": 0.0, "name": "0a619e4debe4c89304766f382ecbbd77", "is_disabled": 0, "rental_uris": {"android": "https://dc.lft.to/lastmile_qr_scan", "ios": "https://dc.lft.to/lastmile_qr_scan"}, "fusion_lon": 0.0, "lat": 38.96927733333333, "bike_id": "0a619e4debe4c89304766f382ecbbd77", "type": "electric_bike", "is_reserved": 0, "lon": -77.02615866666666}, {"fusion_lat": 0.0, "name": "58aea09fe29f9559a518f57ff8d302aa", "is_disabled": 0, "rental_uris": {"android": "https://dc.lft.to/lastmile_qr_scan", "ios": "https://dc.lft.to/lastmile_qr_scan"}, "fusion_lon": 0.0, "lat": 38.865186333333334, "bike_id": "58aea09fe29f9559a518f57ff8d302aa", "type": "electric_bike", "is_reserved": 0, "lon": -76.9733585}, {"fusion_lat": 0.0, "name": "c071b305c5d4ea3a96f8fcf3cf9c1eba", "is_disabled": 0, "rental_uris": {"android": "https://dc.lft.to/lastmile_qr_scan", "ios": "https://dc.lft.to/lastmile_qr_scan"}, "fusion_lon": 0.0, "lat": 38.90456183333333, "bike_id": "c071b305c5d4ea3a96f8fcf3cf9c1eba", "type": "electric_scooter", "is_reserved": 0, "lon": -77.00161083333333}, {"fusion_lat": 0.0, "name": "31c3c3c813187cf0aa500531921094c4", "is_disabled": 0, "rental_uris": {"android": "https://dc.lft.to/lastmile_qr_scan", "ios": "https://dc.lft.to/lastmile_qr_scan"}, "fusion_lon": 0.0, "lat": 38.913142666666666, "bike_id": "31c3c3c813187cf0aa500531921094c4", "type": "electric_scooter", "is_reserved": 0, "lon": -77.01444}, {"fusion_lat": 0.0, "name": "4cd747efac62bb504aa0b4ceadc01d90", "is_disabled": 0, "rental_uris": {"android": "https://dc.lft.to/lastmile_qr_scan", "ios": "https://dc.lft.to/lastmile_qr_scan"}, "fusion_lon": 0.0, "lat": 38.940801, "bike_id": "4cd747efac62bb504aa0b4ceadc01d90", "type": "electric_scooter", "is_reserved": 0, "lon": -77.02393466666666}, {"fusion_lat": 0.0, "name": "65a42a5125af0498d8b54be81e4b7e7c", "is_disabled": 0, "rental_uris": {"android": "https://dc.lft.to/lastmile_qr_scan", "ios": "https://dc.lft.to/lastmile_qr_scan"}, "fusion_lon": 0.0, "lat": 38.92610716666667, "bike_id": "65a42a5125af0498d8b54be81e4b7e7c", "type": "electric_scooter", "is_reserved": 0, "lon": -77.039592}, {"fusion_lat": 0.0, "name": "650312e2b0e028ce9cdb851368b9132a", "is_disabled": 0, "rental_uris": {"android": "https://dc.lft.to/lastmile_qr_scan", "ios": "https://dc.lft.to/lastmile_qr_scan"}, "fusion_lon": 0.0, "lat": 38.901373166666666, "bike_id": "650312e2b0e028ce9cdb851368b9132a", "type": "electric_scooter", "is_reserved": 0, "lon": -77.034658}, {"fusion_lat": 0.0, "name": "d869efe723bb108713d68db3c7361712", "is_disabled": 0, "rental_uris": {"android": "https://dc.lft.to/lastmile_qr_scan", "ios": "https://dc.lft.to/lastmile_qr_scan"}, "fusion_lon": 0.0, "lat": 38.928067166666665, "bike_id": "d869efe723bb108713d68db3c7361712", "type": "electric_scooter", "is_reserved": 0, "lon": -77.04361183333333}, {"fusion_lat": 0.0, "name": "c9617dcf80fc1649a82ebe117d4dceef", "is_disabled": 0, "rental_uris": {"android": "https://dc.lft.to/lastmile_qr_scan", "ios": "https://dc.lft.to/lastmile_qr_scan"}, "fusion_lon": 0.0, "lat": 38.87740216666667, "bike_id": "c9617dcf80fc1649a82ebe117d4dceef", "type": "electric_scooter", "is_reserved": 0, "lon": -76.99669183333333}, {"fusion_lat": 0.0, "name": "d843e1b0c368b60963cfcf6a8b1e2ddd", "is_disabled": 0, "rental_uris": {"android": "https://dc.lft.to/lastmile_qr_scan", "ios": "https://dc.lft.to/lastmile_qr_scan"}, "fusion_lon": 0.0, "lat": 38.88538966666667, "bike_id": "d843e1b0c368b60963cfcf6a8b1e2ddd", "type": "electric_scooter", "is_reserved": 0, "lon": -77.00064916666666}, {"fusion_lat": 0.0, "name": "ebbf270f29de8098b583d2ea95090020", "is_disabled": 0, "rental_uris": {"android": "https://dc.lft.to/lastmile_qr_scan", "ios": "https://dc.lft.to/lastmile_qr_scan"}, "fusion_lon": 0.0, "lat": 38.885383, "bike_id": "ebbf270f29de8098b583d2ea95090020", "type": "electric_scooter", "is_reserved": 0, "lon": -77.00064866666666}, {"fusion_lat": 0.0, "name": "fec6d261ce8cdd3bf2b117e2c8aa2506", "is_disabled": 0, "rental_uris": {"android": "https://dc.lft.to/lastmile_qr_scan", "ios": "https://dc.lft.to/lastmile_qr_scan"}, "fusion_lon": 0.0, "lat": 38.889878833333334, "bike_id": "fec6d261ce8cdd3bf2b117e2c8aa2506", "type": "electric_scooter", "is_reserved": 0, "lon": -77.0033155}, {"fusion_lat": 0.0, "name": "965fab6238d1c8422e4a176dd660c73f", "is_disabled": 0, "rental_uris": {"android": "https://dc.lft.to/lastmile_qr_scan", "ios": "https://dc.lft.to/lastmile_qr_scan"}, "fusion_lon": 0.0, "lat": 38.8965705, "bike_id": "965fab6238d1c8422e4a176dd660c73f", "type": "electric_scooter", "is_reserved": 0, "lon": -77.02460366666666}, {"fusion_lat": 0.0, "name": "7f6c798987405a3e421c40fdfa736e8f", "is_disabled": 0, "rental_uris": {"android": "https://dc.lft.to/lastmile_qr_scan", "ios": "https://dc.lft.to/lastmile_qr_scan"}, "fusion_lon": 0.0, "lat": 38.911032666666664, "bike_id": "7f6c798987405a3e421c40fdfa736e8f", "type": "electric_scooter", "is_reserved": 0, "lon": -77.0734835}, {"fusion_lat": 0.0, "name": "d2361cf2ff3976702f1f611b0d39cf5a", "is_disabled": 0, "rental_uris": {"android": "https://dc.lft.to/lastmile_qr_scan", "ios": "https://dc.lft.to/lastmile_qr_scan"}, "fusion_lon": 0.0, "lat": 38.908314833333336, "bike_id": "d2361cf2ff3976702f1f611b0d39cf5a", "type": "electric_scooter", "is_reserved": 0, "lon": -77.03651716666667}, {"fusion_lat": 0.0, "name": "e11a115b33fe30587aa4fc0fadef63b3", "is_disabled": 0, "rental_uris": {"android": "https://dc.lft.to/lastmile_qr_scan", "ios": "https://dc.lft.to/lastmile_qr_scan"}, "fusion_lon": 0.0, "lat": 38.876217833333335, "bike_id": "e11a115b33fe30587aa4fc0fadef63b3", "type": "electric_scooter", "is_reserved": 0, "lon": -77.00824066666667}, {"fusion_lat": 0.0, "name": "42893956c6cbad4abb2a5ff017ed5e0e", "is_disabled": 0, "rental_uris": {"android": "https://dc.lft.to/lastmile_qr_scan", "ios": "https://dc.lft.to/lastmile_qr_scan"}, "fusion_lon": 0.0, "lat": 38.899524666666665, "bike_id": "42893956c6cbad4abb2a5ff017ed5e0e", "type": "electric_scooter", "is_reserved": 0, "lon": -77.0570335}, {"fusion_lat": 0.0, "name": "a3062bb1ae7531ae232d61d2e4c232a9", "is_disabled": 0, "rental_uris": {"android": "https://dc.lft.to/lastmile_qr_scan", "ios": "https://dc.lft.to/lastmile_qr_scan"}, "fusion_lon": 0.0, "lat": 38.88387566666667, "bike_id": "a3062bb1ae7531ae232d61d2e4c232a9", "type": "electric_scooter", "is_reserved": 0, "lon": -77.0258665}, {"fusion_lat": 0.0, "name": "53e2183fb05e26ea5c2cdb332b157f14", "is_disabled": 0, "rental_uris": {"android": "https://dc.lft.to/lastmile_qr_scan", "ios": "https://dc.lft.to/lastmile_qr_scan"}, "fusion_lon": 0.0, "lat": 38.92350183333333, "bike_id": "53e2183fb05e26ea5c2cdb332b157f14", "type": "electric_scooter", "is_reserved": 0, "lon": -77.0390685}, {"fusion_lat": 0.0, "name": "89dd040020c6817c978597f26f12a68e", "is_disabled": 0, "rental_uris": {"android": "https://dc.lft.to/lastmile_qr_scan", "ios": "https://dc.lft.to/lastmile_qr_scan"}, "fusion_lon": 0.0, "lat": 38.922532333333336, "bike_id": "89dd040020c6817c978597f26f12a68e", "type": "electric_scooter", "is_reserved": 0, "lon": -77.0198065}, {"fusion_lat": 0.0, "name": "5c29fe5d83310ee2e9892bb5e67f2f82", "is_disabled": 0, "rental_uris": {"android": "https://dc.lft.to/lastmile_qr_scan", "ios": "https://dc.lft.to/lastmile_qr_scan"}, "fusion_lon": 0.0, "lat": 38.9012485, "bike_id": "5c29fe5d83310ee2e9892bb5e67f2f82", "type": "electric_scooter", "is_reserved": 0, "lon": -77.01816716666667}, {"fusion_lat": 0.0, "name": "663e83e69c6506eb39d12c8b36542f33", "is_disabled": 0, "rental_uris": {"android": "https://dc.lft.to/lastmile_qr_scan", "ios": "https://dc.lft.to/lastmile_qr_scan"}, "fusion_lon": 0.0, "lat": 38.92208216666667, "bike_id": "663e83e69c6506eb39d12c8b36542f33", "type": "electric_bike", "is_reserved": 0, "lon": -77.081969}, {"fusion_lat": 0.0, "name": "1aa41f40b9b5d5aa5463fea8a0fa3360", "is_disabled": 0, "rental_uris": {"android": "https://dc.lft.to/lastmile_qr_scan", "ios": "https://dc.lft.to/lastmile_qr_scan"}, "fusion_lon": 0.0, "lat": 38.905908, "bike_id": "1aa41f40b9b5d5aa5463fea8a0fa3360", "type": "electric_scooter", "is_reserved": 0, "lon": -77.01612233333333}, {"fusion_lat": 0.0, "name": "406e667acb7e08bc45d029bc2e0c155d", "is_disabled": 0, "rental_uris": {"android": "https://dc.lft.to/lastmile_qr_scan", "ios": "https://dc.lft.to/lastmile_qr_scan"}, "fusion_lon": 0.0, "lat": 38.904738, "bike_id": "406e667acb7e08bc45d029bc2e0c155d", "type": "electric_scooter", "is_reserved": 0, "lon": -76.952019}, {"fusion_lat": 0.0, "name": "bc7f9aa98a1f4e7ace8530f826a43acc", "is_disabled": 0, "rental_uris": {"android": "https://dc.lft.to/lastmile_qr_scan", "ios": "https://dc.lft.to/lastmile_qr_scan"}, "fusion_lon": 0.0, "lat": 38.90642416666667, "bike_id": "bc7f9aa98a1f4e7ace8530f826a43acc", "type": "electric_scooter", "is_reserved": 0, "lon": -77.02708283333334}, {"fusion_lat": 0.0, "name": "819e808c0723a5dd2e212253e3c2afed", "is_disabled": 0, "rental_uris": {"android": "https://dc.lft.to/lastmile_qr_scan", "ios": "https://dc.lft.to/lastmile_qr_scan"}, "fusion_lon": 0.0, "lat": 38.909582, "bike_id": "819e808c0723a5dd2e212253e3c2afed", "type": "electric_scooter", "is_reserved": 0, "lon": -77.02306433333334}, {"fusion_lat": 0.0, "name": "34124001eb1b9d125da1e3631e7dc79b", "is_disabled": 0, "rental_uris": {"android": "https://dc.lft.to/lastmile_qr_scan", "ios": "https://dc.lft.to/lastmile_qr_scan"}, "fusion_lon": 0.0, "lat": 38.89307483333333, "bike_id": "34124001eb1b9d125da1e3631e7dc79b", "type": "electric_scooter", "is_reserved": 0, "lon": -77.02597183333333}, {"fusion_lat": 0.0, "name": "933185d31682dce18dad55a934f4d8b2", "is_disabled": 0, "rental_uris": {"android": "https://dc.lft.to/lastmile_qr_scan", "ios": "https://dc.lft.to/lastmile_qr_scan"}, "fusion_lon": 0.0, "lat": 38.90108033333333, "bike_id": "933185d31682dce18dad55a934f4d8b2", "type": "electric_scooter", "is_reserved": 0, "lon": -77.05895633333333}, {"fusion_lat": 0.0, "name": "aed38e0ff1f8e001924a516c5025c0c7", "is_disabled": 0, "rental_uris": {"android": "https://dc.lft.to/lastmile_qr_scan", "ios": "https://dc.lft.to/lastmile_qr_scan"}, "fusion_lon": 0.0, "lat": 38.90722433333333, "bike_id": "aed38e0ff1f8e001924a516c5025c0c7", "type": "electric_scooter", "is_reserved": 0, "lon": -77.040794}, {"fusion_lat": 0.0, "name": "8a23b5d6e4753c84b1942633830f1db8", "is_disabled": 0, "rental_uris": {"android": "https://dc.lft.to/lastmile_qr_scan", "ios": "https://dc.lft.to/lastmile_qr_scan"}, "fusion_lon": 0.0, "lat": 38.93588166666667, "bike_id": "8a23b5d6e4753c84b1942633830f1db8", "type": "electric_bike", "is_reserved": 0, "lon": -77.024106}, {"fusion_lat": 0.0, "name": "8984d04f34870399d0f5db82ae98abcc", "is_disabled": 0, "rental_uris": {"android": "https://dc.lft.to/lastmile_qr_scan", "ios": "https://dc.lft.to/lastmile_qr_scan"}, "fusion_lon": 0.0, "lat": 38.90273233333333, "bike_id": "8984d04f34870399d0f5db82ae98abcc", "type": "electric_scooter", "is_reserved": 0, "lon": -77.01755966666667}, {"fusion_lat": 0.0, "name": "9a4f1f39f3db79f68c90c184240e917c", "is_disabled": 0, "rental_uris": {"android": "https://dc.lft.to/lastmile_qr_scan", "ios": "https://dc.lft.to/lastmile_qr_scan"}, "fusion_lon": 0.0, "lat": 38.92400833333333, "bike_id": "9a4f1f39f3db79f68c90c184240e917c", "type": "electric_scooter", "is_reserved": 0, "lon": -77.02556783333333}, {"fusion_lat": 0.0, "name": "f70d54b874bb5c87defe7cb306e59cc3", "is_disabled": 0, "rental_uris": {"android": "https://dc.lft.to/lastmile_qr_scan", "ios": "https://dc.lft.to/lastmile_qr_scan"}, "fusion_lon": 0.0, "lat": 38.89526333333333, "bike_id": "f70d54b874bb5c87defe7cb306e59cc3", "type": "electric_scooter", "is_reserved": 0, "lon": -76.93412333333333}, {"fusion_lat": 0.0, "name": "3a6676100e228e41909747c036943ffe", "is_disabled": 0, "rental_uris": {"android": "https://dc.lft.to/lastmile_qr_scan", "ios": "https://dc.lft.to/lastmile_qr_scan"}, "fusion_lon": 0.0, "lat": 38.9057415, "bike_id": "3a6676100e228e41909747c036943ffe", "type": "electric_scooter", "is_reserved": 0, "lon": -77.02983416666666}, {"fusion_lat": 0.0, "name": "e33a6ab9b0ad514f8340ffcb85bb8e4e", "is_disabled": 0, "rental_uris": {"android": "https://dc.lft.to/lastmile_qr_scan", "ios": "https://dc.lft.to/lastmile_qr_scan"}, "fusion_lon": 0.0, "lat": 38.9126895, "bike_id": "e33a6ab9b0ad514f8340ffcb85bb8e4e", "type": "electric_scooter", "is_reserved": 0, "lon": -77.01931566666667}, {"fusion_lat": 0.0, "name": "14f7f143dace1ee4442c6f6101357c7f", "is_disabled": 0, "rental_uris": {"android": "https://dc.lft.to/lastmile_qr_scan", "ios": "https://dc.lft.to/lastmile_qr_scan"}, "fusion_lon": 0.0, "lat": 38.90761966666667, "bike_id": "14f7f143dace1ee4442c6f6101357c7f", "type": "electric_scooter", "is_reserved": 0, "lon": -77.03581716666666}, {"fusion_lat": 0.0, "name": "881aa61010e726304ea12bffda38638a", "is_disabled": 0, "rental_uris": {"android": "https://dc.lft.to/lastmile_qr_scan", "ios": "https://dc.lft.to/lastmile_qr_scan"}, "fusion_lon": 0.0, "lat": 38.87894766666667, "bike_id": "881aa61010e726304ea12bffda38638a", "type": "electric_scooter", "is_reserved": 0, "lon": -77.01365233333334}, {"fusion_lat": 0.0, "name": "a40a69afd3ff8623fd8efd52b5b8c288", "is_disabled": 0, "rental_uris": {"android": "https://dc.lft.to/lastmile_qr_scan", "ios": "https://dc.lft.to/lastmile_qr_scan"}, "fusion_lon": 0.0, "lat": 38.901100166666666, "bike_id": "a40a69afd3ff8623fd8efd52b5b8c288", "type": "electric_scooter", "is_reserved": 0, "lon": -76.9742655}, {"fusion_lat": 0.0, "name": "d188585dc55564996051f7233d230785", "is_disabled": 0, "rental_uris": {"android": "https://dc.lft.to/lastmile_qr_scan", "ios": "https://dc.lft.to/lastmile_qr_scan"}, "fusion_lon": 0.0, "lat": 38.9045555, "bike_id": "d188585dc55564996051f7233d230785", "type": "electric_scooter", "is_reserved": 0, "lon": -77.0586425}, {"fusion_lat": 0.0, "name": "d58a8131b3e06e6d848a074a5e49e39c", "is_disabled": 0, "rental_uris": {"android": "https://dc.lft.to/lastmile_qr_scan", "ios": "https://dc.lft.to/lastmile_qr_scan"}, "fusion_lon": 0.0, "lat": 38.90014866666667, "bike_id": "d58a8131b3e06e6d848a074a5e49e39c", "type": "electric_scooter", "is_reserved": 0, "lon": -77.003328}, {"fusion_lat": 0.0, "name": "fb477d9521c2d9781fcf29a64c8f88a3", "is_disabled": 0, "rental_uris": {"android": "https://dc.lft.to/lastmile_qr_scan", "ios": "https://dc.lft.to/lastmile_qr_scan"}, "fusion_lon": 0.0, "lat": 38.91815166666667, "bike_id": "fb477d9521c2d9781fcf29a64c8f88a3", "type": "electric_scooter", "is_reserved": 0, "lon": -77.02474016666666}, {"fusion_lat": 0.0, "name": "9261f5db65574ced57492f5a53c669a1", "is_disabled": 0, "rental_uris": {"android": "https://dc.lft.to/lastmile_qr_scan", "ios": "https://dc.lft.to/lastmile_qr_scan"}, "fusion_lon": 0.0, "lat": 38.907773, "bike_id": "9261f5db65574ced57492f5a53c669a1", "type": "electric_scooter", "is_reserved": 0, "lon": -77.04255516666667}, {"fusion_lat": 0.0, "name": "b77da8370cd95a553349751a37ac3d3e", "is_disabled": 0, "rental_uris": {"android": "https://dc.lft.to/lastmile_qr_scan", "ios": "https://dc.lft.to/lastmile_qr_scan"}, "fusion_lon": 0.0, "lat": 38.926129333333336, "bike_id": "b77da8370cd95a553349751a37ac3d3e", "type": "electric_scooter", "is_reserved": 0, "lon": -77.07568266666667}, {"fusion_lat": 0.0, "name": "0edbb398fea38142a1b9eb987437843b", "is_disabled": 0, "rental_uris": {"android": "https://dc.lft.to/lastmile_qr_scan", "ios": "https://dc.lft.to/lastmile_qr_scan"}, "fusion_lon": 0.0, "lat": 38.91608083333333, "bike_id": "0edbb398fea38142a1b9eb987437843b", "type": "electric_scooter", "is_reserved": 0, "lon": -77.045538}, {"fusion_lat": 0.0, "name": "dd61bd4dfc3d6a357a02ecd4c6b09a8b", "is_disabled": 0, "rental_uris": {"android": "https://dc.lft.to/lastmile_qr_scan", "ios": "https://dc.lft.to/lastmile_qr_scan"}, "fusion_lon": 0.0, "lat": 38.89651416666667, "bike_id": "dd61bd4dfc3d6a357a02ecd4c6b09a8b", "type": "electric_scooter", "is_reserved": 0, "lon": -77.01165733333333}, {"fusion_lat": 0.0, "name": "16565cd583c0db5243b4a9ad94151c68", "is_disabled": 0, "rental_uris": {"android": "https://dc.lft.to/lastmile_qr_scan", "ios": "https://dc.lft.to/lastmile_qr_scan"}, "fusion_lon": 0.0, "lat": 38.871314, "bike_id": "16565cd583c0db5243b4a9ad94151c68", "type": "electric_scooter", "is_reserved": 0, "lon": -77.01221516666666}, {"fusion_lat": 0.0, "name": "bf59da3289507c8e1be2d239aca4f487", "is_disabled": 0, "rental_uris": {"android": "https://dc.lft.to/lastmile_qr_scan", "ios": "https://dc.lft.to/lastmile_qr_scan"}, "fusion_lon": 0.0, "lat": 38.91557533333334, "bike_id": "bf59da3289507c8e1be2d239aca4f487", "type": "electric_scooter", "is_reserved": 0, "lon": -77.03860033333333}, {"fusion_lat": 0.0, "name": "36d5c6911c3435e801acd177bc3761c9", "is_disabled": 0, "rental_uris": {"android": "https://dc.lft.to/lastmile_qr_scan", "ios": "https://dc.lft.to/lastmile_qr_scan"}, "fusion_lon": 0.0, "lat": 38.928132166666664, "bike_id": "36d5c6911c3435e801acd177bc3761c9", "type": "electric_scooter", "is_reserved": 0, "lon": -77.04363183333334}, {"fusion_lat": 0.0, "name": "faa732e2640deef272ce25f127f3dfda", "is_disabled": 0, "rental_uris": {"android": "https://dc.lft.to/lastmile_qr_scan", "ios": "https://dc.lft.to/lastmile_qr_scan"}, "fusion_lon": 0.0, "lat": 38.898185833333336, "bike_id": "faa732e2640deef272ce25f127f3dfda", "type": "electric_scooter", "is_reserved": 0, "lon": -77.05019233333333}, {"fusion_lat": 0.0, "name": "275229228a9bf9b1be205f106a51694f", "is_disabled": 0, "rental_uris": {"android": "https://dc.lft.to/lastmile_qr_scan", "ios": "https://dc.lft.to/lastmile_qr_scan"}, "fusion_lon": 0.0, "lat": 38.9440205, "bike_id": "275229228a9bf9b1be205f106a51694f", "type": "electric_scooter", "is_reserved": 0, "lon": -77.03863333333334}, {"fusion_lat": 0.0, "name": "740e2030d234bf0c8b827a1b4df36a42", "is_disabled": 0, "rental_uris": {"android": "https://dc.lft.to/lastmile_qr_scan", "ios": "https://dc.lft.to/lastmile_qr_scan"}, "fusion_lon": 0.0, "lat": 38.92549183333333, "bike_id": "740e2030d234bf0c8b827a1b4df36a42", "type": "electric_scooter", "is_reserved": 0, "lon": -77.03333133333334}, {"fusion_lat": 0.0, "name": "271472c51eb9918f167837200bd9830c", "is_disabled": 0, "rental_uris": {"android": "https://dc.lft.to/lastmile_qr_scan", "ios": "https://dc.lft.to/lastmile_qr_scan"}, "fusion_lon": 0.0, "lat": 38.907145166666666, "bike_id": "271472c51eb9918f167837200bd9830c", "type": "electric_scooter", "is_reserved": 0, "lon": -77.04660216666667}, {"fusion_lat": 0.0, "name": "2d8088583fd5b261d04221ab87b5d0b2", "is_disabled": 0, "rental_uris": {"android": "https://dc.lft.to/lastmile_qr_scan", "ios": "https://dc.lft.to/lastmile_qr_scan"}, "fusion_lon": 0.0, "lat": 38.880199166666664, "bike_id": "2d8088583fd5b261d04221ab87b5d0b2", "type": "electric_scooter", "is_reserved": 0, "lon": -76.93107}, {"fusion_lat": 0.0, "name": "39d7993ccef566beea52dfc911146203", "is_disabled": 0, "rental_uris": {"android": "https://dc.lft.to/lastmile_qr_scan", "ios": "https://dc.lft.to/lastmile_qr_scan"}, "fusion_lon": 0.0, "lat": 38.899156166666664, "bike_id": "39d7993ccef566beea52dfc911146203", "type": "electric_scooter", "is_reserved": 0, "lon": -76.94553}, {"fusion_lat": 0.0, "name": "0bd90d388037fa1749892400ef7153f5", "is_disabled": 0, "rental_uris": {"android": "https://dc.lft.to/lastmile_qr_scan", "ios": "https://dc.lft.to/lastmile_qr_scan"}, "fusion_lon": 0.0, "lat": 38.82461683333333, "bike_id": "0bd90d388037fa1749892400ef7153f5", "type": "electric_bike", "is_reserved": 0, "lon": -77.00794383333333}, {"fusion_lat": 0.0, "name": "04c8e17a62f34f7ca4b0f50c7884f8e8", "is_disabled": 0, "rental_uris": {"android": "https://dc.lft.to/lastmile_qr_scan", "ios": "https://dc.lft.to/lastmile_qr_scan"}, "fusion_lon": 0.0, "lat": 38.92962283333333, "bike_id": "04c8e17a62f34f7ca4b0f50c7884f8e8", "type": "electric_scooter", "is_reserved": 0, "lon": -77.01967083333334}, {"fusion_lat": 0.0, "name": "5055da469cfb18274aa77a9f6ac5fbd9", "is_disabled": 0, "rental_uris": {"android": "https://dc.lft.to/lastmile_qr_scan", "ios": "https://dc.lft.to/lastmile_qr_scan"}, "fusion_lon": 0.0, "lat": 38.89224216666667, "bike_id": "5055da469cfb18274aa77a9f6ac5fbd9", "type": "electric_scooter", "is_reserved": 0, "lon": -77.03218433333333}, {"fusion_lat": 0.0, "name": "c9fa4072895c20cf8407d1f4a3bec611", "is_disabled": 0, "rental_uris": {"android": "https://dc.lft.to/lastmile_qr_scan", "ios": "https://dc.lft.to/lastmile_qr_scan"}, "fusion_lon": 0.0, "lat": 38.9108175, "bike_id": "c9fa4072895c20cf8407d1f4a3bec611", "type": "electric_scooter", "is_reserved": 0, "lon": -77.06501633333333}, {"fusion_lat": 0.0, "name": "30e506ae6e41640eb41f0dcff24c60fe", "is_disabled": 0, "rental_uris": {"android": "https://dc.lft.to/lastmile_qr_scan", "ios": "https://dc.lft.to/lastmile_qr_scan"}, "fusion_lon": 0.0, "lat": 38.887657833333336, "bike_id": "30e506ae6e41640eb41f0dcff24c60fe", "type": "electric_scooter", "is_reserved": 0, "lon": -76.9775225}, {"fusion_lat": 0.0, "name": "4084654d142e95ad836dc467f9f69da2", "is_disabled": 0, "rental_uris": {"android": "https://dc.lft.to/lastmile_qr_scan", "ios": "https://dc.lft.to/lastmile_qr_scan"}, "fusion_lon": 0.0, "lat": 38.84299016666667, "bike_id": "4084654d142e95ad836dc467f9f69da2", "type": "electric_bike", "is_reserved": 0, "lon": -77.10866366666667}, {"fusion_lat": 0.0, "name": "7dca39ed30c0a2a47d39bc2b15da136a", "is_disabled": 0, "rental_uris": {"android": "https://dc.lft.to/lastmile_qr_scan", "ios": "https://dc.lft.to/lastmile_qr_scan"}, "fusion_lon": 0.0, "lat": 38.892256, "bike_id": "7dca39ed30c0a2a47d39bc2b15da136a", "type": "electric_scooter", "is_reserved": 0, "lon": -77.02407}, {"fusion_lat": 0.0, "name": "c2db94e38f945ba2eed5c4c22ec9b692", "is_disabled": 0, "rental_uris": {"android": "https://dc.lft.to/lastmile_qr_scan", "ios": "https://dc.lft.to/lastmile_qr_scan"}, "fusion_lon": 0.0, "lat": 38.90731183333333, "bike_id": "c2db94e38f945ba2eed5c4c22ec9b692", "type": "electric_scooter", "is_reserved": 0, "lon": -77.031785}, {"fusion_lat": 0.0, "name": "fce8c90c763cdf01986640dbc03d73be", "is_disabled": 0, "rental_uris": {"android": "https://dc.lft.to/lastmile_qr_scan", "ios": "https://dc.lft.to/lastmile_qr_scan"}, "fusion_lon": 0.0, "lat": 38.914048333333334, "bike_id": "fce8c90c763cdf01986640dbc03d73be", "type": "electric_scooter", "is_reserved": 0, "lon": -77.00838833333333}, {"fusion_lat": 0.0, "name": "fdc672c8414231916e207b60e8cce65b", "is_disabled": 0, "rental_uris": {"android": "https://dc.lft.to/lastmile_qr_scan", "ios": "https://dc.lft.to/lastmile_qr_scan"}, "fusion_lon": 0.0, "lat": 38.909460833333334, "bike_id": "fdc672c8414231916e207b60e8cce65b", "type": "electric_scooter", "is_reserved": 0, "lon": -77.0486705}, {"fusion_lat": 0.0, "name": "197180f038db054434c9006ad0556b9a", "is_disabled": 0, "rental_uris": {"android": "https://dc.lft.to/lastmile_qr_scan", "ios": "https://dc.lft.to/lastmile_qr_scan"}, "fusion_lon": 0.0, "lat": 38.90456666666667, "bike_id": "197180f038db054434c9006ad0556b9a", "type": "electric_scooter", "is_reserved": 0, "lon": -77.00703616666667}, {"fusion_lat": 0.0, "name": "b8ecfa1e2ac00b38b87f55c14715cb82", "is_disabled": 0, "rental_uris": {"android": "https://dc.lft.to/lastmile_qr_scan", "ios": "https://dc.lft.to/lastmile_qr_scan"}, "fusion_lon": 0.0, "lat": 38.90686766666666, "bike_id": "b8ecfa1e2ac00b38b87f55c14715cb82", "type": "electric_scooter", "is_reserved": 0, "lon": -77.01012633333333}, {"fusion_lat": 0.0, "name": "0bc38dc4458258e502a3e3c9babab12d", "is_disabled": 0, "rental_uris": {"android": "https://dc.lft.to/lastmile_qr_scan", "ios": "https://dc.lft.to/lastmile_qr_scan"}, "fusion_lon": 0.0, "lat": 38.89731783333333, "bike_id": "0bc38dc4458258e502a3e3c9babab12d", "type": "electric_scooter", "is_reserved": 0, "lon": -76.991376}, {"fusion_lat": 0.0, "name": "0dc5fa78fbec5a5fbaa306921ba2eca3", "is_disabled": 0, "rental_uris": {"android": "https://dc.lft.to/lastmile_qr_scan", "ios": "https://dc.lft.to/lastmile_qr_scan"}, "fusion_lon": 0.0, "lat": 38.92335166666667, "bike_id": "0dc5fa78fbec5a5fbaa306921ba2eca3", "type": "electric_scooter", "is_reserved": 0, "lon": -77.052975}, {"fusion_lat": 0.0, "name": "e782b6227d5e7ec7682e2ae21979fdb3", "is_disabled": 0, "rental_uris": {"android": "https://dc.lft.to/lastmile_qr_scan", "ios": "https://dc.lft.to/lastmile_qr_scan"}, "fusion_lon": 0.0, "lat": 38.950857, "bike_id": "e782b6227d5e7ec7682e2ae21979fdb3", "type": "electric_bike", "is_reserved": 0, "lon": -77.01226833333334}, {"fusion_lat": 0.0, "name": "25a0ccfb1e2932f9511534d61580af1c", "is_disabled": 0, "rental_uris": {"android": "https://dc.lft.to/lastmile_qr_scan", "ios": "https://dc.lft.to/lastmile_qr_scan"}, "fusion_lon": 0.0, "lat": 38.90867166666666, "bike_id": "25a0ccfb1e2932f9511534d61580af1c", "type": "electric_scooter", "is_reserved": 0, "lon": -77.0233225}, {"fusion_lat": 0.0, "name": "25d34c8c406609fe00ea9db851016bec", "is_disabled": 0, "rental_uris": {"android": "https://dc.lft.to/lastmile_qr_scan", "ios": "https://dc.lft.to/lastmile_qr_scan"}, "fusion_lon": 0.0, "lat": 38.902271999999996, "bike_id": "25d34c8c406609fe00ea9db851016bec", "type": "electric_scooter", "is_reserved": 0, "lon": -77.03472966666666}, {"fusion_lat": 0.0, "name": "0c775800f726c6c1b20722fb106b6d7b", "is_disabled": 0, "rental_uris": {"android": "https://dc.lft.to/lastmile_qr_scan", "ios": "https://dc.lft.to/lastmile_qr_scan"}, "fusion_lon": 0.0, "lat": 38.918312666666665, "bike_id": "0c775800f726c6c1b20722fb106b6d7b", "type": "electric_scooter", "is_reserved": 0, "lon": -77.04511016666666}, {"fusion_lat": 0.0, "name": "00f6bba5083acf5fe3c564e84e3a5612", "is_disabled": 0, "rental_uris": {"android": "https://dc.lft.to/lastmile_qr_scan", "ios": "https://dc.lft.to/lastmile_qr_scan"}, "fusion_lon": 0.0, "lat": 38.9205665, "bike_id": "00f6bba5083acf5fe3c564e84e3a5612", "type": "electric_scooter", "is_reserved": 0, "lon": -77.02376833333334}, {"fusion_lat": 0.0, "name": "36b8715cb789e2a3af1b4f0484704c65", "is_disabled": 0, "rental_uris": {"android": "https://dc.lft.to/lastmile_qr_scan", "ios": "https://dc.lft.to/lastmile_qr_scan"}, "fusion_lon": 0.0, "lat": 38.90032933333333, "bike_id": "36b8715cb789e2a3af1b4f0484704c65", "type": "electric_scooter", "is_reserved": 0, "lon": -76.99870033333333}, {"fusion_lat": 0.0, "name": "f0db270fa7fcc6671d46960df5dcab5b", "is_disabled": 0, "rental_uris": {"android": "https://dc.lft.to/lastmile_qr_scan", "ios": "https://dc.lft.to/lastmile_qr_scan"}, "fusion_lon": 0.0, "lat": 38.91556533333333, "bike_id": "f0db270fa7fcc6671d46960df5dcab5b", "type": "electric_scooter", "is_reserved": 0, "lon": -77.038665}, {"fusion_lat": 0.0, "name": "651145b2555c8b4382fab127e0d95358", "is_disabled": 0, "rental_uris": {"android": "https://dc.lft.to/lastmile_qr_scan", "ios": "https://dc.lft.to/lastmile_qr_scan"}, "fusion_lon": 0.0, "lat": 38.9237755, "bike_id": "651145b2555c8b4382fab127e0d95358", "type": "electric_scooter", "is_reserved": 0, "lon": -77.0313045}, {"fusion_lat": 0.0, "name": "be5a532e693ef035aa39c6072408370b", "is_disabled": 0, "rental_uris": {"android": "https://dc.lft.to/lastmile_qr_scan", "ios": "https://dc.lft.to/lastmile_qr_scan"}, "fusion_lon": 0.0, "lat": 38.881818, "bike_id": "be5a532e693ef035aa39c6072408370b", "type": "electric_bike", "is_reserved": 0, "lon": -77.08636666666666}, {"fusion_lat": 0.0, "name": "5ba50471224183121422a76343225cdb", "is_disabled": 0, "rental_uris": {"android": "https://dc.lft.to/lastmile_qr_scan", "ios": "https://dc.lft.to/lastmile_qr_scan"}, "fusion_lon": 0.0, "lat": 38.895466666666664, "bike_id": "5ba50471224183121422a76343225cdb", "type": "electric_scooter", "is_reserved": 0, "lon": -76.98336033333334}, {"fusion_lat": 0.0, "name": "a7eca82daca212cb8a4ed08d152a1210", "is_disabled": 0, "rental_uris": {"android": "https://dc.lft.to/lastmile_qr_scan", "ios": "https://dc.lft.to/lastmile_qr_scan"}, "fusion_lon": 0.0, "lat": 38.921014666666665, "bike_id": "a7eca82daca212cb8a4ed08d152a1210", "type": "electric_scooter", "is_reserved": 0, "lon": -77.02510566666666}, {"fusion_lat": 0.0, "name": "cd12cc4f1da2f000e8e2b3b76722c1cb", "is_disabled": 0, "rental_uris": {"android": "https://dc.lft.to/lastmile_qr_scan", "ios": "https://dc.lft.to/lastmile_qr_scan"}, "fusion_lon": 0.0, "lat": 38.90254983333333, "bike_id": "cd12cc4f1da2f000e8e2b3b76722c1cb", "type": "electric_scooter", "is_reserved": 0, "lon": -77.063145}, {"fusion_lat": 0.0, "name": "5013396247d89e9773ec0c66775820ec", "is_disabled": 0, "rental_uris": {"android": "https://dc.lft.to/lastmile_qr_scan", "ios": "https://dc.lft.to/lastmile_qr_scan"}, "fusion_lon": 0.0, "lat": 38.9189875, "bike_id": "5013396247d89e9773ec0c66775820ec", "type": "electric_scooter", "is_reserved": 0, "lon": -77.00047566666667}, {"fusion_lat": 0.0, "name": "c48d7a5a5d8d4dcdc529afbf301a12b7", "is_disabled": 0, "rental_uris": {"android": "https://dc.lft.to/lastmile_qr_scan", "ios": "https://dc.lft.to/lastmile_qr_scan"}, "fusion_lon": 0.0, "lat": 38.9666675, "bike_id": "c48d7a5a5d8d4dcdc529afbf301a12b7", "type": "electric_scooter", "is_reserved": 0, "lon": -77.025498}, {"fusion_lat": 0.0, "name": "eda183502d136c80fb8d374b1332f135", "is_disabled": 0, "rental_uris": {"android": "https://dc.lft.to/lastmile_qr_scan", "ios": "https://dc.lft.to/lastmile_qr_scan"}, "fusion_lon": 0.0, "lat": 38.88992116666667, "bike_id": "eda183502d136c80fb8d374b1332f135", "type": "electric_scooter", "is_reserved": 0, "lon": -76.99249716666667}, {"fusion_lat": 0.0, "name": "329a14ef290697aea9e8106cbad4361c", "is_disabled": 0, "rental_uris": {"android": "https://dc.lft.to/lastmile_qr_scan", "ios": "https://dc.lft.to/lastmile_qr_scan"}, "fusion_lon": 0.0, "lat": 38.8814305, "bike_id": "329a14ef290697aea9e8106cbad4361c", "type": "electric_scooter", "is_reserved": 0, "lon": -76.99507816666667}, {"fusion_lat": 0.0, "name": "576011ccc5bd88fddedb6d420fcede3c", "is_disabled": 0, "rental_uris": {"android": "https://dc.lft.to/lastmile_qr_scan", "ios": "https://dc.lft.to/lastmile_qr_scan"}, "fusion_lon": 0.0, "lat": 38.905533, "bike_id": "576011ccc5bd88fddedb6d420fcede3c", "type": "electric_scooter", "is_reserved": 0, "lon": -77.04651983333333}, {"fusion_lat": 0.0, "name": "5cf5cdacd57ecd15e17517685b8452fa", "is_disabled": 0, "rental_uris": {"android": "https://dc.lft.to/lastmile_qr_scan", "ios": "https://dc.lft.to/lastmile_qr_scan"}, "fusion_lon": 0.0, "lat": 38.92059716666667, "bike_id": "5cf5cdacd57ecd15e17517685b8452fa", "type": "electric_scooter", "is_reserved": 0, "lon": -77.04566633333333}, {"fusion_lat": 0.0, "name": "a37d119f1e7dc20ebb93a2002d4d10ba", "is_disabled": 0, "rental_uris": {"android": "https://dc.lft.to/lastmile_qr_scan", "ios": "https://dc.lft.to/lastmile_qr_scan"}, "fusion_lon": 0.0, "lat": 38.9134145, "bike_id": "a37d119f1e7dc20ebb93a2002d4d10ba", "type": "electric_scooter", "is_reserved": 0, "lon": -77.04871316666667}, {"fusion_lat": 0.0, "name": "6d5c6e9a43aedfdd03c3b158504d80eb", "is_disabled": 0, "rental_uris": {"android": "https://dc.lft.to/lastmile_qr_scan", "ios": "https://dc.lft.to/lastmile_qr_scan"}, "fusion_lon": 0.0, "lat": 38.92332733333333, "bike_id": "6d5c6e9a43aedfdd03c3b158504d80eb", "type": "electric_scooter", "is_reserved": 0, "lon": -77.0361545}, {"fusion_lat": 0.0, "name": "55af1674a5c76ed70c4fff37e917e066", "is_disabled": 0, "rental_uris": {"android": "https://dc.lft.to/lastmile_qr_scan", "ios": "https://dc.lft.to/lastmile_qr_scan"}, "fusion_lon": 0.0, "lat": 38.8947335, "bike_id": "55af1674a5c76ed70c4fff37e917e066", "type": "electric_scooter", "is_reserved": 0, "lon": -77.01765733333333}, {"fusion_lat": 0.0, "name": "17ad3103814063d7b7f751b9b2933c5c", "is_disabled": 0, "rental_uris": {"android": "https://dc.lft.to/lastmile_qr_scan", "ios": "https://dc.lft.to/lastmile_qr_scan"}, "fusion_lon": 0.0, "lat": 38.91253533333333, "bike_id": "17ad3103814063d7b7f751b9b2933c5c", "type": "electric_scooter", "is_reserved": 0, "lon": -77.04919683333334}, {"fusion_lat": 0.0, "name": "cb256c9af3f3c4972c87bcdd51428fe5", "is_disabled": 0, "rental_uris": {"android": "https://dc.lft.to/lastmile_qr_scan", "ios": "https://dc.lft.to/lastmile_qr_scan"}, "fusion_lon": 0.0, "lat": 38.9075535, "bike_id": "cb256c9af3f3c4972c87bcdd51428fe5", "type": "electric_scooter", "is_reserved": 0, "lon": -77.03571433333333}, {"fusion_lat": 0.0, "name": "7d7f7fb4b32c2da86a616aed339ed13b", "is_disabled": 0, "rental_uris": {"android": "https://dc.lft.to/lastmile_qr_scan", "ios": "https://dc.lft.to/lastmile_qr_scan"}, "fusion_lon": 0.0, "lat": 38.931512833333336, "bike_id": "7d7f7fb4b32c2da86a616aed339ed13b", "type": "electric_scooter", "is_reserved": 0, "lon": -77.02146966666666}, {"fusion_lat": 0.0, "name": "b69544f4734825410a4a261e0b8cd13b", "is_disabled": 0, "rental_uris": {"android": "https://dc.lft.to/lastmile_qr_scan", "ios": "https://dc.lft.to/lastmile_qr_scan"}, "fusion_lon": 0.0, "lat": 38.926453333333335, "bike_id": "b69544f4734825410a4a261e0b8cd13b", "type": "electric_scooter", "is_reserved": 0, "lon": -77.0413335}, {"fusion_lat": 0.0, "name": "aed0b7e4b38a738a8866da4876f86463", "is_disabled": 0, "rental_uris": {"android": "https://dc.lft.to/lastmile_qr_scan", "ios": "https://dc.lft.to/lastmile_qr_scan"}, "fusion_lon": 0.0, "lat": 38.902394666666666, "bike_id": "aed0b7e4b38a738a8866da4876f86463", "type": "electric_scooter", "is_reserved": 0, "lon": -77.00201566666667}, {"fusion_lat": 0.0, "name": "326f5a2dd10140d64dbf35beab350752", "is_disabled": 0, "rental_uris": {"android": "https://dc.lft.to/lastmile_qr_scan", "ios": "https://dc.lft.to/lastmile_qr_scan"}, "fusion_lon": 0.0, "lat": 38.923013, "bike_id": "326f5a2dd10140d64dbf35beab350752", "type": "electric_scooter", "is_reserved": 0, "lon": -77.04208566666667}, {"fusion_lat": 0.0, "name": "b1d4c3de4ea53b628b551ff3ba79de02", "is_disabled": 0, "rental_uris": {"android": "https://dc.lft.to/lastmile_qr_scan", "ios": "https://dc.lft.to/lastmile_qr_scan"}, "fusion_lon": 0.0, "lat": 38.9353505, "bike_id": "b1d4c3de4ea53b628b551ff3ba79de02", "type": "electric_scooter", "is_reserved": 0, "lon": -77.02346533333333}, {"fusion_lat": 0.0, "name": "d4e4c2ef2d99548552788d9a0c70b496", "is_disabled": 0, "rental_uris": {"android": "https://dc.lft.to/lastmile_qr_scan", "ios": "https://dc.lft.to/lastmile_qr_scan"}, "fusion_lon": 0.0, "lat": 38.873745, "bike_id": "d4e4c2ef2d99548552788d9a0c70b496", "type": "electric_scooter", "is_reserved": 0, "lon": -77.00065283333333}, {"fusion_lat": 0.0, "name": "21d9b8fc79173e96877ce241b945667f", "is_disabled": 0, "rental_uris": {"android": "https://dc.lft.to/lastmile_qr_scan", "ios": "https://dc.lft.to/lastmile_qr_scan"}, "fusion_lon": 0.0, "lat": 38.891731666666665, "bike_id": "21d9b8fc79173e96877ce241b945667f", "type": "electric_scooter", "is_reserved": 0, "lon": -76.99947133333333}, {"fusion_lat": 0.0, "name": "2bf4cb1dbf6efc27e72ecad7fc9e393f", "is_disabled": 0, "rental_uris": {"android": "https://dc.lft.to/lastmile_qr_scan", "ios": "https://dc.lft.to/lastmile_qr_scan"}, "fusion_lon": 0.0, "lat": 38.892226666666666, "bike_id": "2bf4cb1dbf6efc27e72ecad7fc9e393f", "type": "electric_scooter", "is_reserved": 0, "lon": -77.0480295}, {"fusion_lat": 0.0, "name": "7d0cb2b7d49a262fc1128e3465d90e04", "is_disabled": 0, "rental_uris": {"android": "https://dc.lft.to/lastmile_qr_scan", "ios": "https://dc.lft.to/lastmile_qr_scan"}, "fusion_lon": 0.0, "lat": 38.898532, "bike_id": "7d0cb2b7d49a262fc1128e3465d90e04", "type": "electric_scooter", "is_reserved": 0, "lon": -76.95042983333333}, {"fusion_lat": 0.0, "name": "fa1755797a6fbe59d7e20eedb2d79b8c", "is_disabled": 0, "rental_uris": {"android": "https://dc.lft.to/lastmile_qr_scan", "ios": "https://dc.lft.to/lastmile_qr_scan"}, "fusion_lon": 0.0, "lat": 38.911054, "bike_id": "fa1755797a6fbe59d7e20eedb2d79b8c", "type": "electric_scooter", "is_reserved": 0, "lon": -77.04199883333334}, {"fusion_lat": 0.0, "name": "b276217ae549b31cf16c7694cb19860e", "is_disabled": 0, "rental_uris": {"android": "https://dc.lft.to/lastmile_qr_scan", "ios": "https://dc.lft.to/lastmile_qr_scan"}, "fusion_lon": 0.0, "lat": 38.92175816666666, "bike_id": "b276217ae549b31cf16c7694cb19860e", "type": "electric_scooter", "is_reserved": 0, "lon": -77.03839083333334}, {"fusion_lat": 0.0, "name": "aae5cffb1802996abb7da51ec5c30699", "is_disabled": 0, "rental_uris": {"android": "https://dc.lft.to/lastmile_qr_scan", "ios": "https://dc.lft.to/lastmile_qr_scan"}, "fusion_lon": 0.0, "lat": 38.90097866666667, "bike_id": "aae5cffb1802996abb7da51ec5c30699", "type": "electric_scooter", "is_reserved": 0, "lon": -77.024296}, {"fusion_lat": 0.0, "name": "20011e8bec96846eaf4ebc73983e4d33", "is_disabled": 0, "rental_uris": {"android": "https://dc.lft.to/lastmile_qr_scan", "ios": "https://dc.lft.to/lastmile_qr_scan"}, "fusion_lon": 0.0, "lat": 38.936037666666664, "bike_id": "20011e8bec96846eaf4ebc73983e4d33", "type": "electric_scooter", "is_reserved": 0, "lon": -77.03523016666666}, {"fusion_lat": 0.0, "name": "e4eaa3ff7ef6291644e2fe5164ae3283", "is_disabled": 0, "rental_uris": {"android": "https://dc.lft.to/lastmile_qr_scan", "ios": "https://dc.lft.to/lastmile_qr_scan"}, "fusion_lon": 0.0, "lat": 38.923159166666665, "bike_id": "e4eaa3ff7ef6291644e2fe5164ae3283", "type": "electric_scooter", "is_reserved": 0, "lon": -77.04412383333333}, {"fusion_lat": 0.0, "name": "8e7100b03baed05a58413ab211bf594d", "is_disabled": 0, "rental_uris": {"android": "https://dc.lft.to/lastmile_qr_scan", "ios": "https://dc.lft.to/lastmile_qr_scan"}, "fusion_lon": 0.0, "lat": 38.92786916666667, "bike_id": "8e7100b03baed05a58413ab211bf594d", "type": "electric_scooter", "is_reserved": 0, "lon": -77.02252933333334}, {"fusion_lat": 0.0, "name": "9bbd0b83dfbffcd8c0dcffe99d379bce", "is_disabled": 0, "rental_uris": {"android": "https://dc.lft.to/lastmile_qr_scan", "ios": "https://dc.lft.to/lastmile_qr_scan"}, "fusion_lon": 0.0, "lat": 38.875343, "bike_id": "9bbd0b83dfbffcd8c0dcffe99d379bce", "type": "electric_scooter", "is_reserved": 0, "lon": -77.00508366666666}, {"fusion_lat": 0.0, "name": "45b207c6eaaf2e1d52ecbeda66baad84", "is_disabled": 0, "rental_uris": {"android": "https://dc.lft.to/lastmile_qr_scan", "ios": "https://dc.lft.to/lastmile_qr_scan"}, "fusion_lon": 0.0, "lat": 38.90598283333333, "bike_id": "45b207c6eaaf2e1d52ecbeda66baad84", "type": "electric_scooter", "is_reserved": 0, "lon": -77.062941}, {"fusion_lat": 0.0, "name": "667b9116ef5bef9cd8f13de970eca085", "is_disabled": 0, "rental_uris": {"android": "https://dc.lft.to/lastmile_qr_scan", "ios": "https://dc.lft.to/lastmile_qr_scan"}, "fusion_lon": 0.0, "lat": 38.927526666666665, "bike_id": "667b9116ef5bef9cd8f13de970eca085", "type": "electric_scooter", "is_reserved": 0, "lon": -77.02423066666667}, {"fusion_lat": 0.0, "name": "8123c524fa61cb9da5db5a4a6ce55cb3", "is_disabled": 0, "rental_uris": {"android": "https://dc.lft.to/lastmile_qr_scan", "ios": "https://dc.lft.to/lastmile_qr_scan"}, "fusion_lon": 0.0, "lat": 38.90065883333333, "bike_id": "8123c524fa61cb9da5db5a4a6ce55cb3", "type": "electric_scooter", "is_reserved": 0, "lon": -76.92744283333333}, {"fusion_lat": 0.0, "name": "bf6594bf1dd7acf3c9af3febac2c86f7", "is_disabled": 0, "rental_uris": {"android": "https://dc.lft.to/lastmile_qr_scan", "ios": "https://dc.lft.to/lastmile_qr_scan"}, "fusion_lon": 0.0, "lat": 38.89653466666667, "bike_id": "bf6594bf1dd7acf3c9af3febac2c86f7", "type": "electric_scooter", "is_reserved": 0, "lon": -77.05092516666667}, {"fusion_lat": 0.0, "name": "f0bba0399ca365ecbba6627b59a6ed1f", "is_disabled": 0, "rental_uris": {"android": "https://dc.lft.to/lastmile_qr_scan", "ios": "https://dc.lft.to/lastmile_qr_scan"}, "fusion_lon": 0.0, "lat": 38.89547116666667, "bike_id": "f0bba0399ca365ecbba6627b59a6ed1f", "type": "electric_scooter", "is_reserved": 0, "lon": -76.94948016666666}, {"fusion_lat": 0.0, "name": "e2add44f633e971575614fb9d5be814a", "is_disabled": 0, "rental_uris": {"android": "https://dc.lft.to/lastmile_qr_scan", "ios": "https://dc.lft.to/lastmile_qr_scan"}, "fusion_lon": 0.0, "lat": 38.876635, "bike_id": "e2add44f633e971575614fb9d5be814a", "type": "electric_scooter", "is_reserved": 0, "lon": -76.99624966666667}, {"fusion_lat": 0.0, "name": "4d6005f92546ceb524ae4f8fc3367ce6", "is_disabled": 0, "rental_uris": {"android": "https://dc.lft.to/lastmile_qr_scan", "ios": "https://dc.lft.to/lastmile_qr_scan"}, "fusion_lon": 0.0, "lat": 38.8748335, "bike_id": "4d6005f92546ceb524ae4f8fc3367ce6", "type": "electric_scooter", "is_reserved": 0, "lon": -77.00119383333333}, {"fusion_lat": 0.0, "name": "bc0ea88814a9c60f36e8d9602cb337aa", "is_disabled": 0, "rental_uris": {"android": "https://dc.lft.to/lastmile_qr_scan", "ios": "https://dc.lft.to/lastmile_qr_scan"}, "fusion_lon": 0.0, "lat": 38.87389916666667, "bike_id": "bc0ea88814a9c60f36e8d9602cb337aa", "type": "electric_scooter", "is_reserved": 0, "lon": -77.0003945}, {"fusion_lat": 0.0, "name": "23097cea701e1f8dab6ea9d0036ca60d", "is_disabled": 0, "rental_uris": {"android": "https://dc.lft.to/lastmile_qr_scan", "ios": "https://dc.lft.to/lastmile_qr_scan"}, "fusion_lon": 0.0, "lat": 38.95731833333333, "bike_id": "23097cea701e1f8dab6ea9d0036ca60d", "type": "electric_scooter", "is_reserved": 0, "lon": -77.02403366666667}, {"fusion_lat": 0.0, "name": "e1415001be4cb6bfcbb8abbcf986cbff", "is_disabled": 0, "rental_uris": {"android": "https://dc.lft.to/lastmile_qr_scan", "ios": "https://dc.lft.to/lastmile_qr_scan"}, "fusion_lon": 0.0, "lat": 38.915959666666666, "bike_id": "e1415001be4cb6bfcbb8abbcf986cbff", "type": "electric_scooter", "is_reserved": 0, "lon": -77.045502}, {"fusion_lat": 0.0, "name": "b6f3bd2ab6295475b4439fef0a6ab196", "is_disabled": 0, "rental_uris": {"android": "https://dc.lft.to/lastmile_qr_scan", "ios": "https://dc.lft.to/lastmile_qr_scan"}, "fusion_lon": 0.0, "lat": 38.909803833333335, "bike_id": "b6f3bd2ab6295475b4439fef0a6ab196", "type": "electric_scooter", "is_reserved": 0, "lon": -77.03255383333334}, {"fusion_lat": 0.0, "name": "1d9ecaf2158d94398467c4c212f7b597", "is_disabled": 0, "rental_uris": {"android": "https://dc.lft.to/lastmile_qr_scan", "ios": "https://dc.lft.to/lastmile_qr_scan"}, "fusion_lon": 0.0, "lat": 38.91486333333334, "bike_id": "1d9ecaf2158d94398467c4c212f7b597", "type": "electric_scooter", "is_reserved": 0, "lon": -77.04280833333333}, {"fusion_lat": 0.0, "name": "905205ea7a195d1be650ee1798148996", "is_disabled": 0, "rental_uris": {"android": "https://dc.lft.to/lastmile_qr_scan", "ios": "https://dc.lft.to/lastmile_qr_scan"}, "fusion_lon": 0.0, "lat": 38.8988815, "bike_id": "905205ea7a195d1be650ee1798148996", "type": "electric_scooter", "is_reserved": 0, "lon": -77.00149516666667}, {"fusion_lat": 0.0, "name": "65b1ce44ef5dbd77b1b4d19722089a4f", "is_disabled": 0, "rental_uris": {"android": "https://dc.lft.to/lastmile_qr_scan", "ios": "https://dc.lft.to/lastmile_qr_scan"}, "fusion_lon": 0.0, "lat": 38.893544166666665, "bike_id": "65b1ce44ef5dbd77b1b4d19722089a4f", "type": "electric_scooter", "is_reserved": 0, "lon": -76.9865485}, {"fusion_lat": 0.0, "name": "b6d4252df948466b5160052e24b8ae4e", "is_disabled": 0, "rental_uris": {"android": "https://dc.lft.to/lastmile_qr_scan", "ios": "https://dc.lft.to/lastmile_qr_scan"}, "fusion_lon": 0.0, "lat": 38.92024466666667, "bike_id": "b6d4252df948466b5160052e24b8ae4e", "type": "electric_scooter", "is_reserved": 0, "lon": -77.02713383333334}, {"fusion_lat": 0.0, "name": "cf3cc2b2c57e88da910f1e2c6156e806", "is_disabled": 0, "rental_uris": {"android": "https://dc.lft.to/lastmile_qr_scan", "ios": "https://dc.lft.to/lastmile_qr_scan"}, "fusion_lon": 0.0, "lat": 38.93187566666667, "bike_id": "cf3cc2b2c57e88da910f1e2c6156e806", "type": "electric_scooter", "is_reserved": 0, "lon": -77.03292016666667}, {"fusion_lat": 0.0, "name": "b7b7b64856bb087ffbbd1e3f40867f24", "is_disabled": 0, "rental_uris": {"android": "https://dc.lft.to/lastmile_qr_scan", "ios": "https://dc.lft.to/lastmile_qr_scan"}, "fusion_lon": 0.0, "lat": 38.90911033333333, "bike_id": "b7b7b64856bb087ffbbd1e3f40867f24", "type": "electric_scooter", "is_reserved": 0, "lon": -77.04406516666667}, {"fusion_lat": 0.0, "name": "1d121a7b884e45283f5c1d13581a66b6", "is_disabled": 0, "rental_uris": {"android": "https://dc.lft.to/lastmile_qr_scan", "ios": "https://dc.lft.to/lastmile_qr_scan"}, "fusion_lon": 0.0, "lat": 38.90909516666667, "bike_id": "1d121a7b884e45283f5c1d13581a66b6", "type": "electric_scooter", "is_reserved": 0, "lon": -77.02613583333333}, {"fusion_lat": 0.0, "name": "bf96d448c1d7ab3cbf5e6727f3786a7d", "is_disabled": 0, "rental_uris": {"android": "https://dc.lft.to/lastmile_qr_scan", "ios": "https://dc.lft.to/lastmile_qr_scan"}, "fusion_lon": 0.0, "lat": 38.934125333333334, "bike_id": "bf96d448c1d7ab3cbf5e6727f3786a7d", "type": "electric_scooter", "is_reserved": 0, "lon": -77.021987}, {"fusion_lat": 0.0, "name": "06cc1ea05b68f780bbad2e03d60491d9", "is_disabled": 0, "rental_uris": {"android": "https://dc.lft.to/lastmile_qr_scan", "ios": "https://dc.lft.to/lastmile_qr_scan"},