{"data": {"bikes": [{"is_disabled": 0, "fusion_lon": 0.0, "fusion_lat": 0.0, "lat": 38.875773, "type": "electric_scooter", "lon": -77.02082816666666, "bike_id": "d88d7a2331d5e6abeb2859215089d7bd", "rental_uris": {"android": "https://dc.lft.to/lastmile_qr_scan", "ios": "https://dc.lft.to/lastmile_qr_scan"}, "name": "d88d7a2331d5e6abeb2859215089d7bd", "is_reserved": 0}, {"is_disabled": 0, "fusion_lon": 0.0, "fusion_lat": 0.0, "lat": 38.903615, "type": "electric_scooter", "lon": -77.01107066666667, "bike_id": "e64c41a91363b771df06f5003fe2c053", "rental_uris": {"android": "https://dc.lft.to/lastmile_qr_scan", "ios": "https://dc.lft.to/lastmile_qr_scan"}, "name": "e64c41a91363b771df06f5003fe2c053", "is_reserved": 0}, {"is_disabled": 0, "fusion_lon": 0.0, "fusion_lat": 0.0, "lat": 38.8985065, "type": "electric_scooter", "lon": -77.02176916666667, "bike_id": "37ae14e3859416dfe15d59b6db83735f", "rental_uris": {"android": "https://dc.lft.to/lastmile_qr_scan", "ios": "https://dc.lft.to/lastmile_qr_scan"}, "name": "37ae14e3859416dfe15d59b6db83735f", "is_reserved": 0}, {"is_disabled": 0, "fusion_lon": 0.0, "fusion_lat": 0.0, "lat": 38.9095695, "type": "electric_scooter", "lon": -77.02715933333333, "bike_id": "bb9eb670ff2ddf7263380a12083c0304", "rental_uris": {"android": "https://dc.lft.to/lastmile_qr_scan", "ios": "https://dc.lft.to/lastmile_qr_scan"}, "name": "bb9eb670ff2ddf7263380a12083c0304", "is_reserved": 0}, {"is_disabled": 0, "fusion_lon": 0.0, "fusion_lat": 0.0, "lat": 38.996768833333334, "type": "electric_bike", "lon": -76.99140816666667, "bike_id": "00617c0fc37237bdc7879c2c0f2cc2a8", "rental_uris": {"android": "https://dc.lft.to/lastmile_qr_scan", "ios": "https://dc.lft.to/lastmile_qr_scan"}, "name": "00617c0fc37237bdc7879c2c0f2cc2a8", "is_reserved": 0}, {"is_disabled": 0, "fusion_lon": 0.0, "fusion_lat": 0.0, "lat": 38.90208783333333, "type": "electric_scooter", "lon": -77.04776833333334, "bike_id": "b405cd048e7bb72fa43ed0890506b467", "rental_uris": {"android": "https://dc.lft.to/lastmile_qr_scan", "ios": "https://dc.lft.to/lastmile_qr_scan"}, "name": "b405cd048e7bb72fa43ed0890506b467", "is_reserved": 0}, {"is_disabled": 0, "fusion_lon": 0.0, "fusion_lat": 0.0, "lat": 38.9171725, "type": "electric_scooter", "lon": -77.029033, "bike_id": "94b698793bcf2d2fab33b70ce778d372", "rental_uris": {"android": "https://dc.lft.to/lastmile_qr_scan", "ios": "https://dc.lft.to/lastmile_qr_scan"}, "name": "94b698793bcf2d2fab33b70ce778d372", "is_reserved": 0}, {"is_disabled": 0, "fusion_lon": 0.0, "fusion_lat": 0.0, "lat": 38.91681283333333, "type": "electric_scooter", "lon": -77.01574883333333, "bike_id": "db1cc2848e5d4ce85cd58f7a9ab66938", "rental_uris": {"android": "https://dc.lft.to/lastmile_qr_scan", "ios": "https://dc.lft.to/lastmile_qr_scan"}, "name": "db1cc2848e5d4ce85cd58f7a9ab66938", "is_reserved": 0}, {"is_disabled": 0, "fusion_lon": 0.0, "fusion_lat": 0.0, "lat": 38.9126165, "type": "electric_scooter", "lon": -77.02226433333334, "bike_id": "5f1b970278075fcfc31e187ddefb280c", "rental_uris": {"android": "https://dc.lft.to/lastmile_qr_scan", "ios": "https://dc.lft.to/lastmile_qr_scan"}, "name": "5f1b970278075fcfc31e187ddefb280c", "is_reserved": 0}, {"is_disabled": 0, "fusion_lon": 0.0, "fusion_lat": 0.0, "lat": 38.905926666666666, "type": "electric_scooter", "lon": -77.02389483333333, "bike_id": "5911ec4387e397728fe3c8672eef30f4", "rental_uris": {"android": "https://dc.lft.to/lastmile_qr_scan", "ios": "https://dc.lft.to/lastmile_qr_scan"}, "name": "5911ec4387e397728fe3c8672eef30f4", "is_reserved": 0}, {"is_disabled": 0, "fusion_lon": 0.0, "fusion_lat": 0.0, "lat": 38.884309333333334, "type": "electric_scooter", "lon": -76.954149, "bike_id": "1bb2e752a1cc1e102196b7e27a39741e", "rental_uris": {"android": "https://dc.lft.to/lastmile_qr_scan", "ios": "https://dc.lft.to/lastmile_qr_scan"}, "name": "1bb2e752a1cc1e102196b7e27a39741e", "is_reserved": 0}, {"is_disabled": 0, "fusion_lon": 0.0, "fusion_lat": 0.0, "lat": 38.866758833333336, "type": "electric_scooter", "lon": -76.9888515, "bike_id": "5f6512c74c45256ebfdd7426f7c8e1f2", "rental_uris": {"android": "https://dc.lft.to/lastmile_qr_scan", "ios": "https://dc.lft.to/lastmile_qr_scan"}, "name": "5f6512c74c45256ebfdd7426f7c8e1f2", "is_reserved": 0}, {"is_disabled": 0, "fusion_lon": 0.0, "fusion_lat": 0.0, "lat": 38.917984, "type": "electric_scooter", "lon": -77.0346595, "bike_id": "512ee30f6bbae175023f1d57d14a53f5", "rental_uris": {"android": "https://dc.lft.to/lastmile_qr_scan", "ios": "https://dc.lft.to/lastmile_qr_scan"}, "name": "512ee30f6bbae175023f1d57d14a53f5", "is_reserved": 0}, {"is_disabled": 0, "fusion_lon": 0.0, "fusion_lat": 0.0, "lat": 38.91337766666667, "type": "electric_scooter", "lon": -77.03268316666667, "bike_id": "0cde471a2f3233c1ab1c02b2baee7f96", "rental_uris": {"android": "https://dc.lft.to/lastmile_qr_scan", "ios": "https://dc.lft.to/lastmile_qr_scan"}, "name": "0cde471a2f3233c1ab1c02b2baee7f96", "is_reserved": 0}, {"is_disabled": 0, "fusion_lon": 0.0, "fusion_lat": 0.0, "lat": 38.89210166666667, "type": "electric_scooter", "lon": -76.9880695, "bike_id": "1c9efe477e565a97aa096d7153b087fe", "rental_uris": {"android": "https://dc.lft.to/lastmile_qr_scan", "ios": "https://dc.lft.to/lastmile_qr_scan"}, "name": "1c9efe477e565a97aa096d7153b087fe", "is_reserved": 0}, {"is_disabled": 0, "fusion_lon": 0.0, "fusion_lat": 0.0, "lat": 38.93191733333333, "type": "electric_scooter", "lon": -77.02836733333334, "bike_id": "2dbe47bbb3eb8e3d59732dead871fb6a", "rental_uris": {"android": "https://dc.lft.to/lastmile_qr_scan", "ios": "https://dc.lft.to/lastmile_qr_scan"}, "name": "2dbe47bbb3eb8e3d59732dead871fb6a", "is_reserved": 0}, {"is_disabled": 0, "fusion_lon": 0.0, "fusion_lat": 0.0, "lat": 38.86508166666667, "type": "electric_scooter", "lon": -76.9900755, "bike_id": "b6154d557d4391922b8454248e7a7b0c", "rental_uris": {"android": "https://dc.lft.to/lastmile_qr_scan", "ios": "https://dc.lft.to/lastmile_qr_scan"}, "name": "b6154d557d4391922b8454248e7a7b0c", "is_reserved": 0}, {"is_disabled": 0, "fusion_lon": 0.0, "fusion_lat": 0.0, "lat": 38.89823783333333, "type": "electric_scooter", "lon": -77.03350383333333, "bike_id": "019b33ebd0985cd9f9b0e754d766495d", "rental_uris": {"android": "https://dc.lft.to/lastmile_qr_scan", "ios": "https://dc.lft.to/lastmile_qr_scan"}, "name": "019b33ebd0985cd9f9b0e754d766495d", "is_reserved": 0}, {"is_disabled": 0, "fusion_lon": 0.0, "fusion_lat": 0.0, "lat": 38.905424333333336, "type": "electric_scooter", "lon": -77.04889816666666, "bike_id": "a3a3f620a4092b7e4388a1b12f150219", "rental_uris": {"android": "https://dc.lft.to/lastmile_qr_scan", "ios": "https://dc.lft.to/lastmile_qr_scan"}, "name": "a3a3f620a4092b7e4388a1b12f150219", "is_reserved": 0}, {"is_disabled": 0, "fusion_lon": 0.0, "fusion_lat": 0.0, "lat": 38.91422566666667, "type": "electric_scooter", "lon": -77.0390955, "bike_id": "05613ee9adb1ac064a4af0a9b05aba2f", "rental_uris": {"android": "https://dc.lft.to/lastmile_qr_scan", "ios": "https://dc.lft.to/lastmile_qr_scan"}, "name": "05613ee9adb1ac064a4af0a9b05aba2f", "is_reserved": 0}, {"is_disabled": 0, "fusion_lon": 0.0, "fusion_lat": 0.0, "lat": 38.91480683333333, "type": "electric_scooter", "lon": -77.03470516666667, "bike_id": "c3074f647665a728c63dd69119cfdfb0", "rental_uris": {"android": "https://dc.lft.to/lastmile_qr_scan", "ios": "https://dc.lft.to/lastmile_qr_scan"}, "name": "c3074f647665a728c63dd69119cfdfb0", "is_reserved": 0}, {"is_disabled": 0, "fusion_lon": 0.0, "fusion_lat": 0.0, "lat": 39.08844933333334, "type": "electric_bike", "lon": -77.17795933333333, "bike_id": "a891408c83e494b672df7ef786874776", "rental_uris": {"android": "https://dc.lft.to/lastmile_qr_scan", "ios": "https://dc.lft.to/lastmile_qr_scan"}, "name": "a891408c83e494b672df7ef786874776", "is_reserved": 0}, {"is_disabled": 0, "fusion_lon": 0.0, "fusion_lat": 0.0, "lat": 38.90673183333333, "type": "electric_scooter", "lon": -77.00907533333333, "bike_id": "9a7abd2a5ad6681812e670e272345093", "rental_uris": {"android": "https://dc.lft.to/lastmile_qr_scan", "ios": "https://dc.lft.to/lastmile_qr_scan"}, "name": "9a7abd2a5ad6681812e670e272345093", "is_reserved": 0}, {"is_disabled": 0, "fusion_lon": 0.0, "fusion_lat": 0.0, "lat": 38.908786666666664, "type": "electric_scooter", "lon": -77.02685783333334, "bike_id": "72ab2f0f037d46da316df68045fd1e3a", "rental_uris": {"android": "https://dc.lft.to/lastmile_qr_scan", "ios": "https://dc.lft.to/lastmile_qr_scan"}, "name": "72ab2f0f037d46da316df68045fd1e3a", "is_reserved": 0}, {"is_disabled": 0, "fusion_lon": 0.0, "fusion_lat": 0.0, "lat": 38.911738, "type": "electric_scooter", "lon": -77.02690533333333, "bike_id": "6bdd5082c873eb5c3fde546a39d67dcb", "rental_uris": {"android": "https://dc.lft.to/lastmile_qr_scan", "ios": "https://dc.lft.to/lastmile_qr_scan"}, "name": "6bdd5082c873eb5c3fde546a39d67dcb", "is_reserved": 0}, {"is_disabled": 0, "fusion_lon": 0.0, "fusion_lat": 0.0, "lat": 38.907883, "type": "electric_scooter", "lon": -77.002126, "bike_id": "b293b1491ea8cab893b5ab067e944493", "rental_uris": {"android": "https://dc.lft.to/lastmile_qr_scan", "ios": "https://dc.lft.to/lastmile_qr_scan"}, "name": "b293b1491ea8cab893b5ab067e944493", "is_reserved": 0}, {"is_disabled": 0, "fusion_lon": 0.0, "fusion_lat": 0.0, "lat": 38.9306125, "type": "electric_scooter", "lon": -77.02977716666666, "bike_id": "4a5131ab81af860d0d88386a640733be", "rental_uris": {"android": "https://dc.lft.to/lastmile_qr_scan", "ios": "https://dc.lft.to/lastmile_qr_scan"}, "name": "4a5131ab81af860d0d88386a640733be", "is_reserved": 0}, {"is_disabled": 0, "fusion_lon": 0.0, "fusion_lat": 0.0, "lat": 38.92313766666667, "type": "electric_scooter", "lon": -77.03919216666667, "bike_id": "6625571570653670f0ef7558645d04ad", "rental_uris": {"android": "https://dc.lft.to/lastmile_qr_scan", "ios": "https://dc.lft.to/lastmile_qr_scan"}, "name": "6625571570653670f0ef7558645d04ad", "is_reserved": 0}, {"is_disabled": 0, "fusion_lon": 0.0, "fusion_lat": 0.0, "lat": 38.92366533333333, "type": "electric_bike", "lon": -77.05126183333333, "bike_id": "9bfbfc8b27e5168834baca80f45cce13", "rental_uris": {"android": "https://dc.lft.to/lastmile_qr_scan", "ios": "https://dc.lft.to/lastmile_qr_scan"}, "name": "9bfbfc8b27e5168834baca80f45cce13", "is_reserved": 0}, {"is_disabled": 0, "fusion_lon": 0.0, "fusion_lat": 0.0, "lat": 38.942033333333335, "type": "electric_scooter", "lon": -77.01831133333333, "bike_id": "ed25ad129f5aef2fc1c4151355752d79", "rental_uris": {"android": "https://dc.lft.to/lastmile_qr_scan", "ios": "https://dc.lft.to/lastmile_qr_scan"}, "name": "ed25ad129f5aef2fc1c4151355752d79", "is_reserved": 0}, {"is_disabled": 0, "fusion_lon": 0.0, "fusion_lat": 0.0, "lat": 38.9058855, "type": "electric_scooter", "lon": -77.0026885, "bike_id": "4cfb1a05ecf6e9582486f5f9a8d02603", "rental_uris": {"android": "https://dc.lft.to/lastmile_qr_scan", "ios": "https://dc.lft.to/lastmile_qr_scan"}, "name": "4cfb1a05ecf6e9582486f5f9a8d02603", "is_reserved": 0}, {"is_disabled": 0, "fusion_lon": 0.0, "fusion_lat": 0.0, "lat": 38.89504866666667, "type": "electric_scooter", "lon": -76.9487875, "bike_id": "8a1fe925c6ee7e1ea71b84ee69e1d018", "rental_uris": {"android": "https://dc.lft.to/lastmile_qr_scan", "ios": "https://dc.lft.to/lastmile_qr_scan"}, "name": "8a1fe925c6ee7e1ea71b84ee69e1d018", "is_reserved": 0}, {"is_disabled": 0, "fusion_lon": 0.0, "fusion_lat": 0.0, "lat": 38.925127, "type": "electric_scooter", "lon": -77.02361133333333, "bike_id": "59a918139d2e5afc1a888afc864a4b13", "rental_uris": {"android": "https://dc.lft.to/lastmile_qr_scan", "ios": "https://dc.lft.to/lastmile_qr_scan"}, "name": "59a918139d2e5afc1a888afc864a4b13", "is_reserved": 0}, {"is_disabled": 0, "fusion_lon": 0.0, "fusion_lat": 0.0, "lat": 38.9001605, "type": "electric_scooter", "lon": -76.99873233333334, "bike_id": "8cb1b6f4648a77d4c518bb053fb1d04f", "rental_uris": {"android": "https://dc.lft.to/lastmile_qr_scan", "ios": "https://dc.lft.to/lastmile_qr_scan"}, "name": "8cb1b6f4648a77d4c518bb053fb1d04f", "is_reserved": 0}, {"is_disabled": 0, "fusion_lon": 0.0, "fusion_lat": 0.0, "lat": 38.904887, "type": "electric_scooter", "lon": -77.001296, "bike_id": "19c0ad161f0b1d09a59cc56f93700aa8", "rental_uris": {"android": "https://dc.lft.to/lastmile_qr_scan", "ios": "https://dc.lft.to/lastmile_qr_scan"}, "name": "19c0ad161f0b1d09a59cc56f93700aa8", "is_reserved": 0}, {"is_disabled": 0, "fusion_lon": 0.0, "fusion_lat": 0.0, "lat": 38.8953875, "type": "electric_scooter", "lon": -77.04128, "bike_id": "7911fc9a29017092e24a23fdc7e88c63", "rental_uris": {"android": "https://dc.lft.to/lastmile_qr_scan", "ios": "https://dc.lft.to/lastmile_qr_scan"}, "name": "7911fc9a29017092e24a23fdc7e88c63", "is_reserved": 0}, {"is_disabled": 0, "fusion_lon": 0.0, "fusion_lat": 0.0, "lat": 38.89833333333333, "type": "electric_scooter", "lon": -76.946341, "bike_id": "a34ffeb4fca8423044ccd794f7580fce", "rental_uris": {"android": "https://dc.lft.to/lastmile_qr_scan", "ios": "https://dc.lft.to/lastmile_qr_scan"}, "name": "a34ffeb4fca8423044ccd794f7580fce", "is_reserved": 0}, {"is_disabled": 0, "fusion_lon": 0.0, "fusion_lat": 0.0, "lat": 38.916311666666665, "type": "electric_scooter", "lon": -77.04030416666667, "bike_id": "c72d7e9ea701764b769b5aef66d7ce1b", "rental_uris": {"android": "https://dc.lft.to/lastmile_qr_scan", "ios": "https://dc.lft.to/lastmile_qr_scan"}, "name": "c72d7e9ea701764b769b5aef66d7ce1b", "is_reserved": 0}, {"is_disabled": 0, "fusion_lon": 0.0, "fusion_lat": 0.0, "lat": 38.911257666666664, "type": "electric_scooter", "lon": -77.05933166666667, "bike_id": "c7992a0838c4c30c1f4ab92c5ef80d40", "rental_uris": {"android": "https://dc.lft.to/lastmile_qr_scan", "ios": "https://dc.lft.to/lastmile_qr_scan"}, "name": "c7992a0838c4c30c1f4ab92c5ef80d40", "is_reserved": 0}, {"is_disabled": 0, "fusion_lon": 0.0, "fusion_lat": 0.0, "lat": 38.9275625, "type": "electric_scooter", "lon": -77.032896, "bike_id": "d098d936a8ad1a6ec8f4532b4c4d7853", "rental_uris": {"android": "https://dc.lft.to/lastmile_qr_scan", "ios": "https://dc.lft.to/lastmile_qr_scan"}, "name": "d098d936a8ad1a6ec8f4532b4c4d7853", "is_reserved": 0}, {"is_disabled": 0, "fusion_lon": 0.0, "fusion_lat": 0.0, "lat": 38.903820833333334, "type": "electric_scooter", "lon": -77.048721, "bike_id": "4bae1d176d8321c2083144dde8272666", "rental_uris": {"android": "https://dc.lft.to/lastmile_qr_scan", "ios": "https://dc.lft.to/lastmile_qr_scan"}, "name": "4bae1d176d8321c2083144dde8272666", "is_reserved": 0}, {"is_disabled": 0, "fusion_lon": 0.0, "fusion_lat": 0.0, "lat": 38.914311166666664, "type": "electric_scooter", "lon": -77.031832, "bike_id": "51a822dfca18a55172e1c2b6d0fd5b87", "rental_uris": {"android": "https://dc.lft.to/lastmile_qr_scan", "ios": "https://dc.lft.to/lastmile_qr_scan"}, "name": "51a822dfca18a55172e1c2b6d0fd5b87", "is_reserved": 0}, {"is_disabled": 0, "fusion_lon": 0.0, "fusion_lat": 0.0, "lat": 38.92524816666667, "type": "electric_scooter", "lon": -77.04422433333333, "bike_id": "33abc6d4a1d30fd243460e771c61e6f5", "rental_uris": {"android": "https://dc.lft.to/lastmile_qr_scan", "ios": "https://dc.lft.to/lastmile_qr_scan"}, "name": "33abc6d4a1d30fd243460e771c61e6f5", "is_reserved": 0}, {"is_disabled": 0, "fusion_lon": 0.0, "fusion_lat": 0.0, "lat": 38.905349333333334, "type": "electric_scooter", "lon": -77.0509645, "bike_id": "7b03153645ab2dce9fd6995fceca107a", "rental_uris": {"android": "https://dc.lft.to/lastmile_qr_scan", "ios": "https://dc.lft.to/lastmile_qr_scan"}, "name": "7b03153645ab2dce9fd6995fceca107a", "is_reserved": 0}, {"is_disabled": 0, "fusion_lon": 0.0, "fusion_lat": 0.0, "lat": 38.880114, "type": "electric_bike", "lon": -76.91593916666666, "bike_id": "f22f0d98324df2c2723f88114f2b1b42", "rental_uris": {"android": "https://dc.lft.to/lastmile_qr_scan", "ios": "https://dc.lft.to/lastmile_qr_scan"}, "name": "f22f0d98324df2c2723f88114f2b1b42", "is_reserved": 0}, {"is_disabled": 0, "fusion_lon": 0.0, "fusion_lat": 0.0, "lat": 38.88325866666667, "type": "electric_scooter", "lon": -77.01638266666667, "bike_id": "afc03cc00a20e3cf4cd446a755e3f689", "rental_uris": {"android": "https://dc.lft.to/lastmile_qr_scan", "ios": "https://dc.lft.to/lastmile_qr_scan"}, "name": "afc03cc00a20e3cf4cd446a755e3f689", "is_reserved": 0}, {"is_disabled": 0, "fusion_lon": 0.0, "fusion_lat": 0.0, "lat": 38.994562333333334, "type": "electric_bike", "lon": -76.90816216666667, "bike_id": "e0f4b9908a9167ec388afeebb30f93fc", "rental_uris": {"android": "https://dc.lft.to/lastmile_qr_scan", "ios": "https://dc.lft.to/lastmile_qr_scan"}, "name": "e0f4b9908a9167ec388afeebb30f93fc", "is_reserved": 0}, {"is_disabled": 0, "fusion_lon": 0.0, "fusion_lat": 0.0, "lat": 38.901426666666666, "type": "electric_scooter", "lon": -76.95182616666666, "bike_id": "f45ba2f7565505ec11d54fc59c97f103", "rental_uris": {"android": "https://dc.lft.to/lastmile_qr_scan", "ios": "https://dc.lft.to/lastmile_qr_scan"}, "name": "f45ba2f7565505ec11d54fc59c97f103", "is_reserved": 0}, {"is_disabled": 0, "fusion_lon": 0.0, "fusion_lat": 0.0, "lat": 38.91473583333333, "type": "electric_scooter", "lon": -77.02800983333333, "bike_id": "67745bb32e1d36d2d5ce82631598b3b7", "rental_uris": {"android": "https://dc.lft.to/lastmile_qr_scan", "ios": "https://dc.lft.to/lastmile_qr_scan"}, "name": "67745bb32e1d36d2d5ce82631598b3b7", "is_reserved": 0}, {"is_disabled": 0, "fusion_lon": 0.0, "fusion_lat": 0.0, "lat": 38.903372, "type": "electric_scooter", "lon": -76.97586933333334, "bike_id": "db3fce4bdb37e598525faca9d18526e8", "rental_uris": {"android": "https://dc.lft.to/lastmile_qr_scan", "ios": "https://dc.lft.to/lastmile_qr_scan"}, "name": "db3fce4bdb37e598525faca9d18526e8", "is_reserved": 0}, {"is_disabled": 0, "fusion_lon": 0.0, "fusion_lat": 0.0, "lat": 38.90138433333333, "type": "electric_scooter", "lon": -77.03338333333333, "bike_id": "78f4eda672d05caa1d7923a7d9cd4454", "rental_uris": {"android": "https://dc.lft.to/lastmile_qr_scan", "ios": "https://dc.lft.to/lastmile_qr_scan"}, "name": "78f4eda672d05caa1d7923a7d9cd4454", "is_reserved": 0}, {"is_disabled": 0, "fusion_lon": 0.0, "fusion_lat": 0.0, "lat": 38.87114316666667, "type": "electric_scooter", "lon": -77.00772133333334, "bike_id": "c551725e1387721d7a75592e9b465826", "rental_uris": {"android": "https://dc.lft.to/lastmile_qr_scan", "ios": "https://dc.lft.to/lastmile_qr_scan"}, "name": "c551725e1387721d7a75592e9b465826", "is_reserved": 0}, {"is_disabled": 0, "fusion_lon": 0.0, "fusion_lat": 0.0, "lat": 38.8999175, "type": "electric_scooter", "lon": -77.02188766666667, "bike_id": "7d998c49b2c180d9c8a7477edb11909c", "rental_uris": {"android": "https://dc.lft.to/lastmile_qr_scan", "ios": "https://dc.lft.to/lastmile_qr_scan"}, "name": "7d998c49b2c180d9c8a7477edb11909c", "is_reserved": 0}, {"is_disabled": 0, "fusion_lon": 0.0, "fusion_lat": 0.0, "lat": 38.870674, "type": "electric_scooter", "lon": -76.979859, "bike_id": "5e28718df568f7199416ed060756d608", "rental_uris": {"android": "https://dc.lft.to/lastmile_qr_scan", "ios": "https://dc.lft.to/lastmile_qr_scan"}, "name": "5e28718df568f7199416ed060756d608", "is_reserved": 0}, {"is_disabled": 0, "fusion_lon": 0.0, "fusion_lat": 0.0, "lat": 38.917103833333336, "type": "electric_scooter", "lon": -77.04089266666666, "bike_id": "77270e8957ee27c5a95eb37e15ff300e", "rental_uris": {"android": "https://dc.lft.to/lastmile_qr_scan", "ios": "https://dc.lft.to/lastmile_qr_scan"}, "name": "77270e8957ee27c5a95eb37e15ff300e", "is_reserved": 0}, {"is_disabled": 0, "fusion_lon": 0.0, "fusion_lat": 0.0, "lat": 38.940447666666664, "type": "electric_scooter", "lon": -77.0678085, "bike_id": "f8e63af151297a707e3dbc9cdbd5b187", "rental_uris": {"android": "https://dc.lft.to/lastmile_qr_scan", "ios": "https://dc.lft.to/lastmile_qr_scan"}, "name": "f8e63af151297a707e3dbc9cdbd5b187", "is_reserved": 0}, {"is_disabled": 0, "fusion_lon": 0.0, "fusion_lat": 0.0, "lat": 38.913856333333335, "type": "electric_scooter", "lon": -77.01702316666666, "bike_id": "fa5e6b89cab33f13dcfd411a75dfe9d7", "rental_uris": {"android": "https://dc.lft.to/lastmile_qr_scan", "ios": "https://dc.lft.to/lastmile_qr_scan"}, "name": "fa5e6b89cab33f13dcfd411a75dfe9d7", "is_reserved": 0}, {"is_disabled": 0, "fusion_lon": 0.0, "fusion_lat": 0.0, "lat": 38.90847933333333, "type": "electric_scooter", "lon": -77.0344445, "bike_id": "eadf57020c69b995cd776dcfae39cebe", "rental_uris": {"android": "https://dc.lft.to/lastmile_qr_scan", "ios": "https://dc.lft.to/lastmile_qr_scan"}, "name": "eadf57020c69b995cd776dcfae39cebe", "is_reserved": 0}, {"is_disabled": 0, "fusion_lon": 0.0, "fusion_lat": 0.0, "lat": 38.917103166666664, "type": "electric_scooter", "lon": -77.02290833333333, "bike_id": "a4bd683758e0ef7526e587a3ae54f738", "rental_uris": {"android": "https://dc.lft.to/lastmile_qr_scan", "ios": "https://dc.lft.to/lastmile_qr_scan"}, "name": "a4bd683758e0ef7526e587a3ae54f738", "is_reserved": 0}, {"is_disabled": 0, "fusion_lon": 0.0, "fusion_lat": 0.0, "lat": 38.91805083333333, "type": "electric_scooter", "lon": -77.0268425, "bike_id": "c79d7cc6262a790cb82b9ac120993344", "rental_uris": {"android": "https://dc.lft.to/lastmile_qr_scan", "ios": "https://dc.lft.to/lastmile_qr_scan"}, "name": "c79d7cc6262a790cb82b9ac120993344", "is_reserved": 0}, {"is_disabled": 0, "fusion_lon": 0.0, "fusion_lat": 0.0, "lat": 38.874592666666665, "type": "electric_scooter", "lon": -77.00503933333333, "bike_id": "96b1a6b0117eda5a0192659c6e8f4e6a", "rental_uris": {"android": "https://dc.lft.to/lastmile_qr_scan", "ios": "https://dc.lft.to/lastmile_qr_scan"}, "name": "96b1a6b0117eda5a0192659c6e8f4e6a", "is_reserved": 0}, {"is_disabled": 0, "fusion_lon": 0.0, "fusion_lat": 0.0, "lat": 38.903963166666664, "type": "electric_scooter", "lon": -77.02810066666666, "bike_id": "2ecf3365efe8114a8f955be937341053", "rental_uris": {"android": "https://dc.lft.to/lastmile_qr_scan", "ios": "https://dc.lft.to/lastmile_qr_scan"}, "name": "2ecf3365efe8114a8f955be937341053", "is_reserved": 0}, {"is_disabled": 0, "fusion_lon": 0.0, "fusion_lat": 0.0, "lat": 38.94508883333334, "type": "electric_bike", "lon": -77.0066995, "bike_id": "bba523a2890d19fa059ee09574103469", "rental_uris": {"android": "https://dc.lft.to/lastmile_qr_scan", "ios": "https://dc.lft.to/lastmile_qr_scan"}, "name": "bba523a2890d19fa059ee09574103469", "is_reserved": 0}, {"is_disabled": 0, "fusion_lon": 0.0, "fusion_lat": 0.0, "lat": 38.900272, "type": "electric_scooter", "lon": -77.03322866666667, "bike_id": "8944c8cf5801df2de3f278f45b6afe5f", "rental_uris": {"android": "https://dc.lft.to/lastmile_qr_scan", "ios": "https://dc.lft.to/lastmile_qr_scan"}, "name": "8944c8cf5801df2de3f278f45b6afe5f", "is_reserved": 0}, {"is_disabled": 0, "fusion_lon": 0.0, "fusion_lat": 0.0, "lat": 38.89851066666667, "type": "electric_scooter", "lon": -76.990348, "bike_id": "dec5e3731047310fbdf01302ab486dda", "rental_uris": {"android": "https://dc.lft.to/lastmile_qr_scan", "ios": "https://dc.lft.to/lastmile_qr_scan"}, "name": "dec5e3731047310fbdf01302ab486dda", "is_reserved": 0}, {"is_disabled": 0, "fusion_lon": 0.0, "fusion_lat": 0.0, "lat": 38.906594, "type": "electric_scooter", "lon": -77.04321533333334, "bike_id": "be42137d90c1fe479741da17c84480c3", "rental_uris": {"android": "https://dc.lft.to/lastmile_qr_scan", "ios": "https://dc.lft.to/lastmile_qr_scan"}, "name": "be42137d90c1fe479741da17c84480c3", "is_reserved": 0}, {"is_disabled": 0, "fusion_lon": 0.0, "fusion_lat": 0.0, "lat": 38.90728083333333, "type": "electric_scooter", "lon": -77.034614, "bike_id": "3aa8badefa00e46e87f474a7b809d96f", "rental_uris": {"android": "https://dc.lft.to/lastmile_qr_scan", "ios": "https://dc.lft.to/lastmile_qr_scan"}, "name": "3aa8badefa00e46e87f474a7b809d96f", "is_reserved": 0}, {"is_disabled": 0, "fusion_lon": 0.0, "fusion_lat": 0.0, "lat": 38.867170333333334, "type": "electric_scooter", "lon": -76.98729133333333, "bike_id": "cd987102a0943e1030301a57978ab553", "rental_uris": {"android": "https://dc.lft.to/lastmile_qr_scan", "ios": "https://dc.lft.to/lastmile_qr_scan"}, "name": "cd987102a0943e1030301a57978ab553", "is_reserved": 0}, {"is_disabled": 0, "fusion_lon": 0.0, "fusion_lat": 0.0, "lat": 38.925726833333336, "type": "electric_scooter", "lon": -77.03754166666667, "bike_id": "982756759f5ac8f2e2de48973a91c7fc", "rental_uris": {"android": "https://dc.lft.to/lastmile_qr_scan", "ios": "https://dc.lft.to/lastmile_qr_scan"}, "name": "982756759f5ac8f2e2de48973a91c7fc", "is_reserved": 0}, {"is_disabled": 0, "fusion_lon": 0.0, "fusion_lat": 0.0, "lat": 38.91277516666667, "type": "electric_scooter", "lon": -77.03855483333334, "bike_id": "e9380903b85f7b04f5ab6936fff44ff2", "rental_uris": {"android": "https://dc.lft.to/lastmile_qr_scan", "ios": "https://dc.lft.to/lastmile_qr_scan"}, "name": "e9380903b85f7b04f5ab6936fff44ff2", "is_reserved": 0}, {"is_disabled": 0, "fusion_lon": 0.0, "fusion_lat": 0.0, "lat": 38.893337333333335, "type": "electric_scooter", "lon": -77.05026566666666, "bike_id": "bfcbc2111acbf84044b8381b7b85dc71", "rental_uris": {"android": "https://dc.lft.to/lastmile_qr_scan", "ios": "https://dc.lft.to/lastmile_qr_scan"}, "name": "bfcbc2111acbf84044b8381b7b85dc71", "is_reserved": 0}, {"is_disabled": 0, "fusion_lon": 0.0, "fusion_lat": 0.0, "lat": 38.89834716666667, "type": "electric_scooter", "lon": -76.9463385, "bike_id": "38b39814b0b0a15f28aece5886ed8f13", "rental_uris": {"android": "https://dc.lft.to/lastmile_qr_scan", "ios": "https://dc.lft.to/lastmile_qr_scan"}, "name": "38b39814b0b0a15f28aece5886ed8f13", "is_reserved": 0}, {"is_disabled": 0, "fusion_lon": 0.0, "fusion_lat": 0.0, "lat": 38.866998333333335, "type": "electric_scooter", "lon": -76.987141, "bike_id": "4839b72ab53ae29b4d503f9335970d08", "rental_uris": {"android": "https://dc.lft.to/lastmile_qr_scan", "ios": "https://dc.lft.to/lastmile_qr_scan"}, "name": "4839b72ab53ae29b4d503f9335970d08", "is_reserved": 0}, {"is_disabled": 0, "fusion_lon": 0.0, "fusion_lat": 0.0, "lat": 38.94109433333333, "type": "electric_scooter", "lon": -77.06139383333333, "bike_id": "7f92b5621090401c9bdce6ef6069e961", "rental_uris": {"android": "https://dc.lft.to/lastmile_qr_scan", "ios": "https://dc.lft.to/lastmile_qr_scan"}, "name": "7f92b5621090401c9bdce6ef6069e961", "is_reserved": 0}, {"is_disabled": 0, "fusion_lon": 0.0, "fusion_lat": 0.0, "lat": 38.91270866666667, "type": "electric_scooter", "lon": -77.02225083333333, "bike_id": "d07e03d9c5448aa72498cdcbc005f6a5", "rental_uris": {"android": "https://dc.lft.to/lastmile_qr_scan", "ios": "https://dc.lft.to/lastmile_qr_scan"}, "name": "d07e03d9c5448aa72498cdcbc005f6a5", "is_reserved": 0}, {"is_disabled": 0, "fusion_lon": 0.0, "fusion_lat": 0.0, "lat": 38.92975033333333, "type": "electric_scooter", "lon": -77.02827466666666, "bike_id": "2f8209e705c60fc3a046d4703d6b5d21", "rental_uris": {"android": "https://dc.lft.to/lastmile_qr_scan", "ios": "https://dc.lft.to/lastmile_qr_scan"}, "name": "2f8209e705c60fc3a046d4703d6b5d21", "is_reserved": 0}, {"is_disabled": 0, "fusion_lon": 0.0, "fusion_lat": 0.0, "lat": 38.904324833333334, "type": "electric_scooter", "lon": -77.026043, "bike_id": "9adc6d4417b8dc8fbf4d1d99a5679ac5", "rental_uris": {"android": "https://dc.lft.to/lastmile_qr_scan", "ios": "https://dc.lft.to/lastmile_qr_scan"}, "name": "9adc6d4417b8dc8fbf4d1d99a5679ac5", "is_reserved": 0}, {"is_disabled": 0, "fusion_lon": 0.0, "fusion_lat": 0.0, "lat": 38.917692, "type": "electric_scooter", "lon": -77.03432283333333, "bike_id": "bbbce95e1a06c1eaf15febe26da35891", "rental_uris": {"android": "https://dc.lft.to/lastmile_qr_scan", "ios": "https://dc.lft.to/lastmile_qr_scan"}, "name": "bbbce95e1a06c1eaf15febe26da35891", "is_reserved": 0}, {"is_disabled": 0, "fusion_lon": 0.0, "fusion_lat": 0.0, "lat": 38.85806066666667, "type": "electric_scooter", "lon": -76.98656966666667, "bike_id": "a700f1ac3b6f97e910f11b852be2f692", "rental_uris": {"android": "https://dc.lft.to/lastmile_qr_scan", "ios": "https://dc.lft.to/lastmile_qr_scan"}, "name": "a700f1ac3b6f97e910f11b852be2f692", "is_reserved": 0}, {"is_disabled": 0, "fusion_lon": 0.0, "fusion_lat": 0.0, "lat": 38.910340833333336, "type": "electric_scooter", "lon": -77.040042, "bike_id": "6b9146ce458ab423120b5117e59a6f92", "rental_uris": {"android": "https://dc.lft.to/lastmile_qr_scan", "ios": "https://dc.lft.to/lastmile_qr_scan"}, "name": "6b9146ce458ab423120b5117e59a6f92", "is_reserved": 0}, {"is_disabled": 0, "fusion_lon": 0.0, "fusion_lat": 0.0, "lat": 38.90492233333333, "type": "electric_scooter", "lon": -77.02995, "bike_id": "9fadd5593718eebf32fa2dc1dbde4c70", "rental_uris": {"android": "https://dc.lft.to/lastmile_qr_scan", "ios": "https://dc.lft.to/lastmile_qr_scan"}, "name": "9fadd5593718eebf32fa2dc1dbde4c70", "is_reserved": 0}, {"is_disabled": 0, "fusion_lon": 0.0, "fusion_lat": 0.0, "lat": 38.913183333333336, "type": "electric_scooter", "lon": -76.98654883333333, "bike_id": "5802c2271b2b7eadc8ef4b056ae10f61", "rental_uris": {"android": "https://dc.lft.to/lastmile_qr_scan", "ios": "https://dc.lft.to/lastmile_qr_scan"}, "name": "5802c2271b2b7eadc8ef4b056ae10f61", "is_reserved": 0}, {"is_disabled": 0, "fusion_lon": 0.0, "fusion_lat": 0.0, "lat": 38.91117333333333, "type": "electric_scooter", "lon": -77.03830533333333, "bike_id": "37acd7a76152bf31662287d4df370c97", "rental_uris": {"android": "https://dc.lft.to/lastmile_qr_scan", "ios": "https://dc.lft.to/lastmile_qr_scan"}, "name": "37acd7a76152bf31662287d4df370c97", "is_reserved": 0}, {"is_disabled": 0, "fusion_lon": 0.0, "fusion_lat": 0.0, "lat": 38.9420505, "type": "electric_scooter", "lon": -77.02590233333333, "bike_id": "5f5ade551a8962a7fea75360c52c0d48", "rental_uris": {"android": "https://dc.lft.to/lastmile_qr_scan", "ios": "https://dc.lft.to/lastmile_qr_scan"}, "name": "5f5ade551a8962a7fea75360c52c0d48", "is_reserved": 0}, {"is_disabled": 0, "fusion_lon": 0.0, "fusion_lat": 0.0, "lat": 38.917404166666664, "type": "electric_scooter", "lon": -77.0364085, "bike_id": "52ea9bef103ddeb687759a6ebf42c761", "rental_uris": {"android": "https://dc.lft.to/lastmile_qr_scan", "ios": "https://dc.lft.to/lastmile_qr_scan"}, "name": "52ea9bef103ddeb687759a6ebf42c761", "is_reserved": 0}, {"is_disabled": 0, "fusion_lon": 0.0, "fusion_lat": 0.0, "lat": 38.92751883333333, "type": "electric_scooter", "lon": -77.01620766666667, "bike_id": "15edbd80916a8ff34f65322aa4ca6a80", "rental_uris": {"android": "https://dc.lft.to/lastmile_qr_scan", "ios": "https://dc.lft.to/lastmile_qr_scan"}, "name": "15edbd80916a8ff34f65322aa4ca6a80", "is_reserved": 0}, {"is_disabled": 0, "fusion_lon": 0.0, "fusion_lat": 0.0, "lat": 38.89980833333333, "type": "electric_scooter", "lon": -77.0527795, "bike_id": "69f0188f5ab4e21903d619f176784f07", "rental_uris": {"android": "https://dc.lft.to/lastmile_qr_scan", "ios": "https://dc.lft.to/lastmile_qr_scan"}, "name": "69f0188f5ab4e21903d619f176784f07", "is_reserved": 0}, {"is_disabled": 0, "fusion_lon": 0.0, "fusion_lat": 0.0, "lat": 38.902396, "type": "electric_scooter", "lon": -77.00199766666667, "bike_id": "1023489c5428adc325e5c47efadabee2", "rental_uris": {"android": "https://dc.lft.to/lastmile_qr_scan", "ios": "https://dc.lft.to/lastmile_qr_scan"}, "name": "1023489c5428adc325e5c47efadabee2", "is_reserved": 0}, {"is_disabled": 0, "fusion_lon": 0.0, "fusion_lat": 0.0, "lat": 38.90049333333333, "type": "electric_scooter", "lon": -77.00072983333334, "bike_id": "03117cc2ae9f9c4ed0d73c0bc5d7c8c9", "rental_uris": {"android": "https://dc.lft.to/lastmile_qr_scan", "ios": "https://dc.lft.to/lastmile_qr_scan"}, "name": "03117cc2ae9f9c4ed0d73c0bc5d7c8c9", "is_reserved": 0}, {"is_disabled": 0, "fusion_lon": 0.0, "fusion_lat": 0.0, "lat": 38.898484833333335, "type": "electric_scooter", "lon": -76.9463305, "bike_id": "8e2ca2444698d11338f899a1f6718453", "rental_uris": {"android": "https://dc.lft.to/lastmile_qr_scan", "ios": "https://dc.lft.to/lastmile_qr_scan"}, "name": "8e2ca2444698d11338f899a1f6718453", "is_reserved": 0}, {"is_disabled": 0, "fusion_lon": 0.0, "fusion_lat": 0.0, "lat": 38.91213616666667, "type": "electric_scooter", "lon": -77.0319275, "bike_id": "8359fed767d2016ef940f345c4e5887b", "rental_uris": {"android": "https://dc.lft.to/lastmile_qr_scan", "ios": "https://dc.lft.to/lastmile_qr_scan"}, "name": "8359fed767d2016ef940f345c4e5887b", "is_reserved": 0}, {"is_disabled": 0, "fusion_lon": 0.0, "fusion_lat": 0.0, "lat": 38.901707333333334, "type": "electric_scooter", "lon": -77.02216983333334, "bike_id": "b68ddd314adf7b7be19f22ab5920d06a", "rental_uris": {"android": "https://dc.lft.to/lastmile_qr_scan", "ios": "https://dc.lft.to/lastmile_qr_scan"}, "name": "b68ddd314adf7b7be19f22ab5920d06a", "is_reserved": 0}, {"is_disabled": 0, "fusion_lon": 0.0, "fusion_lat": 0.0, "lat": 38.893002, "type": "electric_scooter", "lon": -77.012146, "bike_id": "eb255d19a3bf7e778676be5696ad8c07", "rental_uris": {"android": "https://dc.lft.to/lastmile_qr_scan", "ios": "https://dc.lft.to/lastmile_qr_scan"}, "name": "eb255d19a3bf7e778676be5696ad8c07", "is_reserved": 0}, {"is_disabled": 0, "fusion_lon": 0.0, "fusion_lat": 0.0, "lat": 38.9199915, "type": "electric_scooter", "lon": -77.02418183333333, "bike_id": "27f34202cc751505a2c2a2f925e2a2b0", "rental_uris": {"android": "https://dc.lft.to/lastmile_qr_scan", "ios": "https://dc.lft.to/lastmile_qr_scan"}, "name": "27f34202cc751505a2c2a2f925e2a2b0", "is_reserved": 0}, {"is_disabled": 0, "fusion_lon": 0.0, "fusion_lat": 0.0, "lat": 38.92110516666666, "type": "electric_scooter", "lon": -77.03053983333334, "bike_id": "7eb8a6a31fa7d1d67351ea45dd739c72", "rental_uris": {"android": "https://dc.lft.to/lastmile_qr_scan", "ios": "https://dc.lft.to/lastmile_qr_scan"}, "name": "7eb8a6a31fa7d1d67351ea45dd739c72", "is_reserved": 0}, {"is_disabled": 0, "fusion_lon": 0.0, "fusion_lat": 0.0, "lat": 38.92117066666667, "type": "electric_scooter", "lon": -77.0468695, "bike_id": "dea8b2bbf1962fb5eb00c5432d54a1c9", "rental_uris": {"android": "https://dc.lft.to/lastmile_qr_scan", "ios": "https://dc.lft.to/lastmile_qr_scan"}, "name": "dea8b2bbf1962fb5eb00c5432d54a1c9", "is_reserved": 0}, {"is_disabled": 0, "fusion_lon": 0.0, "fusion_lat": 0.0, "lat": 38.902405, "type": "electric_scooter", "lon": -77.0020615, "bike_id": "e18058939e588d13db99325158c81c97", "rental_uris": {"android": "https://dc.lft.to/lastmile_qr_scan", "ios": "https://dc.lft.to/lastmile_qr_scan"}, "name": "e18058939e588d13db99325158c81c97", "is_reserved": 0}, {"is_disabled": 0, "fusion_lon": 0.0, "fusion_lat": 0.0, "lat": 38.910965833333336, "type": "electric_scooter", "lon": -77.038619, "bike_id": "aca86064d10614bc73e0c506e7470676", "rental_uris": {"android": "https://dc.lft.to/lastmile_qr_scan", "ios": "https://dc.lft.to/lastmile_qr_scan"}, "name": "aca86064d10614bc73e0c506e7470676", "is_reserved": 0}, {"is_disabled": 0, "fusion_lon": 0.0, "fusion_lat": 0.0, "lat": 38.87640866666667, "type": "electric_scooter", "lon": -77.01579433333333, "bike_id": "a7e50c1283982b53281999b2746faef5", "rental_uris": {"android": "https://dc.lft.to/lastmile_qr_scan", "ios": "https://dc.lft.to/lastmile_qr_scan"}, "name": "a7e50c1283982b53281999b2746faef5", "is_reserved": 0}, {"is_disabled": 0, "fusion_lon": 0.0, "fusion_lat": 0.0, "lat": 38.908176833333336, "type": "electric_scooter", "lon": -77.0415175, "bike_id": "4c038e8eb39e9a46ad0b8ffb3e459102", "rental_uris": {"android": "https://dc.lft.to/lastmile_qr_scan", "ios": "https://dc.lft.to/lastmile_qr_scan"}, "name": "4c038e8eb39e9a46ad0b8ffb3e459102", "is_reserved": 0}, {"is_disabled": 0, "fusion_lon": 0.0, "fusion_lat": 0.0, "lat": 38.93154416666667, "type": "electric_scooter", "lon": -77.03452466666667, "bike_id": "c26bf543f856b5ef1cd68353ca3e0916", "rental_uris": {"android": "https://dc.lft.to/lastmile_qr_scan", "ios": "https://dc.lft.to/lastmile_qr_scan"}, "name": "c26bf543f856b5ef1cd68353ca3e0916", "is_reserved": 0}, {"is_disabled": 0, "fusion_lon": 0.0, "fusion_lat": 0.0, "lat": 38.953109, "type": "electric_scooter", "lon": -77.03599983333334, "bike_id": "9d3b64c56822b76b39844e0d773cd9bf", "rental_uris": {"android": "https://dc.lft.to/lastmile_qr_scan", "ios": "https://dc.lft.to/lastmile_qr_scan"}, "name": "9d3b64c56822b76b39844e0d773cd9bf", "is_reserved": 0}, {"is_disabled": 0, "fusion_lon": 0.0, "fusion_lat": 0.0, "lat": 38.903969333333336, "type": "electric_scooter", "lon": -77.02802033333333, "bike_id": "10bb8c82e5486d6e7c7f6d42b0914201", "rental_uris": {"android": "https://dc.lft.to/lastmile_qr_scan", "ios": "https://dc.lft.to/lastmile_qr_scan"}, "name": "10bb8c82e5486d6e7c7f6d42b0914201", "is_reserved": 0}, {"is_disabled": 0, "fusion_lon": 0.0, "fusion_lat": 0.0, "lat": 38.91915133333333, "type": "electric_scooter", "lon": -77.021361, "bike_id": "565bb53101b0d7bfff0ad50d1012a4fd", "rental_uris": {"android": "https://dc.lft.to/lastmile_qr_scan", "ios": "https://dc.lft.to/lastmile_qr_scan"}, "name": "565bb53101b0d7bfff0ad50d1012a4fd", "is_reserved": 0}, {"is_disabled": 0, "fusion_lon": 0.0, "fusion_lat": 0.0, "lat": 38.8997715, "type": "electric_scooter", "lon": -77.04612783333333, "bike_id": "699b1f0bf1210398babf6ac981b3c23c", "rental_uris": {"android": "https://dc.lft.to/lastmile_qr_scan", "ios": "https://dc.lft.to/lastmile_qr_scan"}, "name": "699b1f0bf1210398babf6ac981b3c23c", "is_reserved": 0}, {"is_disabled": 0, "fusion_lon": 0.0, "fusion_lat": 0.0, "lat": 39.095936, "type": "electric_bike", "lon": -77.14780716666667, "bike_id": "9d03165a97a0cd6ec50a51a88d9e0ddd", "rental_uris": {"android": "https://dc.lft.to/lastmile_qr_scan", "ios": "https://dc.lft.to/lastmile_qr_scan"}, "name": "9d03165a97a0cd6ec50a51a88d9e0ddd", "is_reserved": 0}, {"is_disabled": 0, "fusion_lon": 0.0, "fusion_lat": 0.0, "lat": 38.860405166666666, "type": "electric_scooter", "lon": -76.99680166666667, "bike_id": "f78e0b572062059e1361ef310eaec2b5", "rental_uris": {"android": "https://dc.lft.to/lastmile_qr_scan", "ios": "https://dc.lft.to/lastmile_qr_scan"}, "name": "f78e0b572062059e1361ef310eaec2b5", "is_reserved": 0}, {"is_disabled": 0, "fusion_lon": 0.0, "fusion_lat": 0.0, "lat": 38.89973666666667, "type": "electric_scooter", "lon": -77.0320585, "bike_id": "4c6081eed89bedff906a41678aacee15", "rental_uris": {"android": "https://dc.lft.to/lastmile_qr_scan", "ios": "https://dc.lft.to/lastmile_qr_scan"}, "name": "4c6081eed89bedff906a41678aacee15", "is_reserved": 0}, {"is_disabled": 0, "fusion_lon": 0.0, "fusion_lat": 0.0, "lat": 38.999352333333334, "type": "electric_bike", "lon": -77.00122066666667, "bike_id": "e3379bbc1969812ad925880ef7dededa", "rental_uris": {"android": "https://dc.lft.to/lastmile_qr_scan", "ios": "https://dc.lft.to/lastmile_qr_scan"}, "name": "e3379bbc1969812ad925880ef7dededa", "is_reserved": 0}, {"is_disabled": 0, "fusion_lon": 0.0, "fusion_lat": 0.0, "lat": 38.855839, "type": "electric_bike", "lon": -77.10724133333333, "bike_id": "b6a2fff3b37059fa58c933921d5fab04", "rental_uris": {"android": "https://dc.lft.to/lastmile_qr_scan", "ios": "https://dc.lft.to/lastmile_qr_scan"}, "name": "b6a2fff3b37059fa58c933921d5fab04", "is_reserved": 0}, {"is_disabled": 0, "fusion_lon": 0.0, "fusion_lat": 0.0, "lat": 38.89510683333334, "type": "electric_scooter", "lon": -76.9487835, "bike_id": "b750692b30c51946375b34f93e76af06", "rental_uris": {"android": "https://dc.lft.to/lastmile_qr_scan", "ios": "https://dc.lft.to/lastmile_qr_scan"}, "name": "b750692b30c51946375b34f93e76af06", "is_reserved": 0}, {"is_disabled": 0, "fusion_lon": 0.0, "fusion_lat": 0.0, "lat": 38.89921, "type": "electric_scooter", "lon": -76.93338833333334, "bike_id": "6bf3a06533792a5a4007ef228873faed", "rental_uris": {"android": "https://dc.lft.to/lastmile_qr_scan", "ios": "https://dc.lft.to/lastmile_qr_scan"}, "name": "6bf3a06533792a5a4007ef228873faed", "is_reserved": 0}, {"is_disabled": 0, "fusion_lon": 0.0, "fusion_lat": 0.0, "lat": 38.91551966666667, "type": "electric_scooter", "lon": -77.01233, "bike_id": "297c7effd416949b19338c5ec3431b75", "rental_uris": {"android": "https://dc.lft.to/lastmile_qr_scan", "ios": "https://dc.lft.to/lastmile_qr_scan"}, "name": "297c7effd416949b19338c5ec3431b75", "is_reserved": 0}, {"is_disabled": 0, "fusion_lon": 0.0, "fusion_lat": 0.0, "lat": 38.89223033333333, "type": "electric_scooter", "lon": -77.022645, "bike_id": "7fd6242cb536a147a9495287ba49808b", "rental_uris": {"android": "https://dc.lft.to/lastmile_qr_scan", "ios": "https://dc.lft.to/lastmile_qr_scan"}, "name": "7fd6242cb536a147a9495287ba49808b", "is_reserved": 0}, {"is_disabled": 0, "fusion_lon": 0.0, "fusion_lat": 0.0, "lat": 38.90242283333333, "type": "electric_scooter", "lon": -77.002087, "bike_id": "40f90d800caf9d5a33ebea181b4e4cea", "rental_uris": {"android": "https://dc.lft.to/lastmile_qr_scan", "ios": "https://dc.lft.to/lastmile_qr_scan"}, "name": "40f90d800caf9d5a33ebea181b4e4cea", "is_reserved": 0}, {"is_disabled": 0, "fusion_lon": 0.0, "fusion_lat": 0.0, "lat": 38.84197133333333, "type": "electric_bike", "lon": -77.077492, "bike_id": "4f05acf959a9686eb7e71f3a4e81b4b5", "rental_uris": {"android": "https://dc.lft.to/lastmile_qr_scan", "ios": "https://dc.lft.to/lastmile_qr_scan"}, "name": "4f05acf959a9686eb7e71f3a4e81b4b5", "is_reserved": 0}, {"is_disabled": 0, "fusion_lon": 0.0, "fusion_lat": 0.0, "lat": 38.915960166666665, "type": "electric_scooter", "lon": -77.04684466666667, "bike_id": "52c003f90a56dcaaff1fc66750b70e32", "rental_uris": {"android": "https://dc.lft.to/lastmile_qr_scan", "ios": "https://dc.lft.to/lastmile_qr_scan"}, "name": "52c003f90a56dcaaff1fc66750b70e32", "is_reserved": 0}, {"is_disabled": 0, "fusion_lon": 0.0, "fusion_lat": 0.0, "lat": 38.8974065, "type": "electric_scooter", "lon": -77.04809783333333, "bike_id": "12597722a7c5df91011156f19ad163bd", "rental_uris": {"android": "https://dc.lft.to/lastmile_qr_scan", "ios": "https://dc.lft.to/lastmile_qr_scan"}, "name": "12597722a7c5df91011156f19ad163bd", "is_reserved": 0}, {"is_disabled": 0, "fusion_lon": 0.0, "fusion_lat": 0.0, "lat": 38.9500395, "type": "electric_bike", "lon": -77.35311233333333, "bike_id": "710f7434bb694e3b66d08f9c4da9b5c5", "rental_uris": {"android": "https://dc.lft.to/lastmile_qr_scan", "ios": "https://dc.lft.to/lastmile_qr_scan"}, "name": "710f7434bb694e3b66d08f9c4da9b5c5", "is_reserved": 0}, {"is_disabled": 0, "fusion_lon": 0.0, "fusion_lat": 0.0, "lat": 38.89861116666667, "type": "electric_scooter", "lon": -77.01628966666667, "bike_id": "089c606a1b3fcadb2a3d95dae6ed3f2a", "rental_uris": {"android": "https://dc.lft.to/lastmile_qr_scan", "ios": "https://dc.lft.to/lastmile_qr_scan"}, "name": "089c606a1b3fcadb2a3d95dae6ed3f2a", "is_reserved": 0}, {"is_disabled": 0, "fusion_lon": 0.0, "fusion_lat": 0.0, "lat": 38.9098235, "type": "electric_scooter", "lon": -77.03829533333334, "bike_id": "c57d459d92166d1fca64ae2c2816e04d", "rental_uris": {"android": "https://dc.lft.to/lastmile_qr_scan", "ios": "https://dc.lft.to/lastmile_qr_scan"}, "name": "c57d459d92166d1fca64ae2c2816e04d", "is_reserved": 0}, {"is_disabled": 0, "fusion_lon": 0.0, "fusion_lat": 0.0, "lat": 38.907049666666666, "type": "electric_scooter", "lon": -76.98691233333334, "bike_id": "8e25ee3878c87652d2efab367fc68616", "rental_uris": {"android": "https://dc.lft.to/lastmile_qr_scan", "ios": "https://dc.lft.to/lastmile_qr_scan"}, "name": "8e25ee3878c87652d2efab367fc68616", "is_reserved": 0}, {"is_disabled": 0, "fusion_lon": 0.0, "fusion_lat": 0.0, "lat": 38.8635685, "type": "electric_scooter", "lon": -76.99052916666666, "bike_id": "7335299da71778b8dbeb42ddb863ea07", "rental_uris": {"android": "https://dc.lft.to/lastmile_qr_scan", "ios": "https://dc.lft.to/lastmile_qr_scan"}, "name": "7335299da71778b8dbeb42ddb863ea07", "is_reserved": 0}, {"is_disabled": 0, "fusion_lon": 0.0, "fusion_lat": 0.0, "lat": 38.91041383333334, "type": "electric_scooter", "lon": -77.03379083333333, "bike_id": "6fd66825c0791adae2918dcf512ebb45", "rental_uris": {"android": "https://dc.lft.to/lastmile_qr_scan", "ios": "https://dc.lft.to/lastmile_qr_scan"}, "name": "6fd66825c0791adae2918dcf512ebb45", "is_reserved": 0}, {"is_disabled": 0, "fusion_lon": 0.0, "fusion_lat": 0.0, "lat": 38.894899833333334, "type": "electric_scooter", "lon": -76.9941185, "bike_id": "99a8a7393cd0a18b753264fa529ddc37", "rental_uris": {"android": "https://dc.lft.to/lastmile_qr_scan", "ios": "https://dc.lft.to/lastmile_qr_scan"}, "name": "99a8a7393cd0a18b753264fa529ddc37", "is_reserved": 0}, {"is_disabled": 0, "fusion_lon": 0.0, "fusion_lat": 0.0, "lat": 38.8999465, "type": "electric_scooter", "lon": -77.02002683333333, "bike_id": "bc0e8b5758afcadd5b49b02d1290bbe2", "rental_uris": {"android": "https://dc.lft.to/lastmile_qr_scan", "ios": "https://dc.lft.to/lastmile_qr_scan"}, "name": "bc0e8b5758afcadd5b49b02d1290bbe2", "is_reserved": 0}, {"is_disabled": 0, "fusion_lon": 0.0, "fusion_lat": 0.0, "lat": 38.8995765, "type": "electric_scooter", "lon": -77.0478915, "bike_id": "4c07a89abaf99230cc8eb6a6435a53b1", "rental_uris": {"android": "https://dc.lft.to/lastmile_qr_scan", "ios": "https://dc.lft.to/lastmile_qr_scan"}, "name": "4c07a89abaf99230cc8eb6a6435a53b1", "is_reserved": 0}, {"is_disabled": 0, "fusion_lon": 0.0, "fusion_lat": 0.0, "lat": 38.9073215, "type": "electric_scooter", "lon": -77.023673, "bike_id": "5cca27969fbb2964181769d35c7b33f9", "rental_uris": {"android": "https://dc.lft.to/lastmile_qr_scan", "ios": "https://dc.lft.to/lastmile_qr_scan"}, "name": "5cca27969fbb2964181769d35c7b33f9", "is_reserved": 0}, {"is_disabled": 0, "fusion_lon": 0.0, "fusion_lat": 0.0, "lat": 38.919707333333335, "type": "electric_scooter", "lon": -77.031796, "bike_id": "107a3bb7a9299329b4bfaf0eeeb8900d", "rental_uris": {"android": "https://dc.lft.to/lastmile_qr_scan", "ios": "https://dc.lft.to/lastmile_qr_scan"}, "name": "107a3bb7a9299329b4bfaf0eeeb8900d", "is_reserved": 0}, {"is_disabled": 0, "fusion_lon": 0.0, "fusion_lat": 0.0, "lat": 38.918289333333334, "type": "electric_scooter", "lon": -77.0120755, "bike_id": "25245819423ef4bc4d7ca08abc8746e3", "rental_uris": {"android": "https://dc.lft.to/lastmile_qr_scan", "ios": "https://dc.lft.to/lastmile_qr_scan"}, "name": "25245819423ef4bc4d7ca08abc8746e3", "is_reserved": 0}, {"is_disabled": 0, "fusion_lon": 0.0, "fusion_lat": 0.0, "lat": 38.901283, "type": "electric_scooter", "lon": -77.01781666666666, "bike_id": "adf88da949878342b31b1b04b9480633", "rental_uris": {"android": "https://dc.lft.to/lastmile_qr_scan", "ios": "https://dc.lft.to/lastmile_qr_scan"}, "name": "adf88da949878342b31b1b04b9480633", "is_reserved": 0}, {"is_disabled": 0, "fusion_lon": 0.0, "fusion_lat": 0.0, "lat": 38.84515366666667, "type": "electric_bike", "lon": -77.07798933333333, "bike_id": "3e2e31c52529cfce0b559ce721e9461e", "rental_uris": {"android": "https://dc.lft.to/lastmile_qr_scan", "ios": "https://dc.lft.to/lastmile_qr_scan"}, "name": "3e2e31c52529cfce0b559ce721e9461e", "is_reserved": 0}, {"is_disabled": 0, "fusion_lon": 0.0, "fusion_lat": 0.0, "lat": 38.90839483333333, "type": "electric_scooter", "lon": -76.9970185, "bike_id": "9332bce89f379ea23967e2b37fce8962", "rental_uris": {"android": "https://dc.lft.to/lastmile_qr_scan", "ios": "https://dc.lft.to/lastmile_qr_scan"}, "name": "9332bce89f379ea23967e2b37fce8962", "is_reserved": 0}, {"is_disabled": 0, "fusion_lon": 0.0, "fusion_lat": 0.0, "lat": 38.924719, "type": "electric_scooter", "lon": -77.0298135, "bike_id": "14df3ef1ebd900b8ffb12389a316a2b9", "rental_uris": {"android": "https://dc.lft.to/lastmile_qr_scan", "ios": "https://dc.lft.to/lastmile_qr_scan"}, "name": "14df3ef1ebd900b8ffb12389a316a2b9", "is_reserved": 0}, {"is_disabled": 0, "fusion_lon": 0.0, "fusion_lat": 0.0, "lat": 38.920539166666664, "type": "electric_scooter", "lon": -77.026097, "bike_id": "3750a03e8df6ac32e44ae7ccace443bf", "rental_uris": {"android": "https://dc.lft.to/lastmile_qr_scan", "ios": "https://dc.lft.to/lastmile_qr_scan"}, "name": "3750a03e8df6ac32e44ae7ccace443bf", "is_reserved": 0}, {"is_disabled": 0, "fusion_lon": 0.0, "fusion_lat": 0.0, "lat": 38.9036675, "type": "electric_scooter", "lon": -77.06260816666666, "bike_id": "839fdc7db7aec9d09ee113803c144593", "rental_uris": {"android": "https://dc.lft.to/lastmile_qr_scan", "ios": "https://dc.lft.to/lastmile_qr_scan"}, "name": "839fdc7db7aec9d09ee113803c144593", "is_reserved": 0}, {"is_disabled": 0, "fusion_lon": 0.0, "fusion_lat": 0.0, "lat": 38.91860483333333, "type": "electric_scooter", "lon": -77.04178333333333, "bike_id": "ade3db4ee3bc825eda1c00de7638cd4a", "rental_uris": {"android": "https://dc.lft.to/lastmile_qr_scan", "ios": "https://dc.lft.to/lastmile_qr_scan"}, "name": "ade3db4ee3bc825eda1c00de7638cd4a", "is_reserved": 0}, {"is_disabled": 0, "fusion_lon": 0.0, "fusion_lat": 0.0, "lat": 38.91186233333333, "type": "electric_scooter", "lon": -77.0391725, "bike_id": "71d4b79c79568a5e0ab7b7c6315fb1c4", "rental_uris": {"android": "https://dc.lft.to/lastmile_qr_scan", "ios": "https://dc.lft.to/lastmile_qr_scan"}, "name": "71d4b79c79568a5e0ab7b7c6315fb1c4", "is_reserved": 0}, {"is_disabled": 0, "fusion_lon": 0.0, "fusion_lat": 0.0, "lat": 38.9107095, "type": "electric_scooter", "lon": -77.04161233333333, "bike_id": "6857b5ef8ef395feeb25aef2de09ab4c", "rental_uris": {"android": "https://dc.lft.to/lastmile_qr_scan", "ios": "https://dc.lft.to/lastmile_qr_scan"}, "name": "6857b5ef8ef395feeb25aef2de09ab4c", "is_reserved": 0}, {"is_disabled": 0, "fusion_lon": 0.0, "fusion_lat": 0.0, "lat": 38.881232, "type": "electric_scooter", "lon": -76.99606233333333, "bike_id": "92214767508b01aa93cef1b442c14896", "rental_uris": {"android": "https://dc.lft.to/lastmile_qr_scan", "ios": "https://dc.lft.to/lastmile_qr_scan"}, "name": "92214767508b01aa93cef1b442c14896", "is_reserved": 0}, {"is_disabled": 0, "fusion_lon": 0.0, "fusion_lat": 0.0, "lat": 38.9054435, "type": "electric_scooter", "lon": -77.05393083333334, "bike_id": "a8cf69d6684e6e7f910bbc27db253e6d", "rental_uris": {"android": "https://dc.lft.to/lastmile_qr_scan", "ios": "https://dc.lft.to/lastmile_qr_scan"}, "name": "a8cf69d6684e6e7f910bbc27db253e6d", "is_reserved": 0}, {"is_disabled": 0, "fusion_lon": 0.0, "fusion_lat": 0.0, "lat": 38.91194083333333, "type": "electric_scooter", "lon": -77.04176533333333, "bike_id": "658bfbed204ab916a63674ddca453383", "rental_uris": {"android": "https://dc.lft.to/lastmile_qr_scan", "ios": "https://dc.lft.to/lastmile_qr_scan"}, "name": "658bfbed204ab916a63674ddca453383", "is_reserved": 0}, {"is_disabled": 0, "fusion_lon": 0.0, "fusion_lat": 0.0, "lat": 38.931529166666664, "type": "electric_scooter", "lon": -77.04053616666667, "bike_id": "ac8d5ece2d7b6b26d73aaabc150befe6", "rental_uris": {"android": "https://dc.lft.to/lastmile_qr_scan", "ios": "https://dc.lft.to/lastmile_qr_scan"}, "name": "ac8d5ece2d7b6b26d73aaabc150befe6", "is_reserved": 0}, {"is_disabled": 0, "fusion_lon": 0.0, "fusion_lat": 0.0, "lat": 38.8650895, "type": "electric_scooter", "lon": -76.99005333333334, "bike_id": "9579efac2708b3192db09c88b23c8094", "rental_uris": {"android": "https://dc.lft.to/lastmile_qr_scan", "ios": "https://dc.lft.to/lastmile_qr_scan"}, "name": "9579efac2708b3192db09c88b23c8094", "is_reserved": 0}, {"is_disabled": 0, "fusion_lon": 0.0, "fusion_lat": 0.0, "lat": 38.92062266666667, "type": "electric_scooter", "lon": -77.0469795, "bike_id": "37bc915bd7429d770a08fd1feb5dc759", "rental_uris": {"android": "https://dc.lft.to/lastmile_qr_scan", "ios": "https://dc.lft.to/lastmile_qr_scan"}, "name": "37bc915bd7429d770a08fd1feb5dc759", "is_reserved": 0}, {"is_disabled": 0, "fusion_lon": 0.0, "fusion_lat": 0.0, "lat": 38.89398216666667, "type": "electric_scooter", "lon": -76.94995716666666, "bike_id": "84a0d4e984cd136bc167ecb198f6a436", "rental_uris": {"android": "https://dc.lft.to/lastmile_qr_scan", "ios": "https://dc.lft.to/lastmile_qr_scan"}, "name": "84a0d4e984cd136bc167ecb198f6a436", "is_reserved": 0}, {"is_disabled": 0, "fusion_lon": 0.0, "fusion_lat": 0.0, "lat": 38.86545266666667, "type": "electric_scooter", "lon": -76.98710283333334, "bike_id": "838ba7e2b0f65960f16a12a2dff3829c", "rental_uris": {"android": "https://dc.lft.to/lastmile_qr_scan", "ios": "https://dc.lft.to/lastmile_qr_scan"}, "name": "838ba7e2b0f65960f16a12a2dff3829c", "is_reserved": 0}, {"is_disabled": 0, "fusion_lon": 0.0, "fusion_lat": 0.0, "lat": 38.96759816666667, "type": "electric_bike", "lon": -77.0915705, "bike_id": "380494bd2b9a7a2ac45659f5dd8d17c6", "rental_uris": {"android": "https://dc.lft.to/lastmile_qr_scan", "ios": "https://dc.lft.to/lastmile_qr_scan"}, "name": "380494bd2b9a7a2ac45659f5dd8d17c6", "is_reserved": 0}, {"is_disabled": 0, "fusion_lon": 0.0, "fusion_lat": 0.0, "lat": 38.91266016666667, "type": "electric_scooter", "lon": -77.04777466666667, "bike_id": "bacc79a100935bf9ee4380c7166d023b", "rental_uris": {"android": "https://dc.lft.to/lastmile_qr_scan", "ios": "https://dc.lft.to/lastmile_qr_scan"}, "name": "bacc79a100935bf9ee4380c7166d023b", "is_reserved": 0}, {"is_disabled": 0, "fusion_lon": 0.0, "fusion_lat": 0.0, "lat": 38.92823083333333, "type": "electric_scooter", "lon": -77.0225575, "bike_id": "4d0c6e950b7c8a2d9e449ff5bb0cea96", "rental_uris": {"android": "https://dc.lft.to/lastmile_qr_scan", "ios": "https://dc.lft.to/lastmile_qr_scan"}, "name": "4d0c6e950b7c8a2d9e449ff5bb0cea96", "is_reserved": 0}, {"is_disabled": 0, "fusion_lon": 0.0, "fusion_lat": 0.0, "lat": 38.912655666666666, "type": "electric_scooter", "lon": -77.01695116666667, "bike_id": "5925fa82186133e97710d3866cd331f1", "rental_uris": {"android": "https://dc.lft.to/lastmile_qr_scan", "ios": "https://dc.lft.to/lastmile_qr_scan"}, "name": "5925fa82186133e97710d3866cd331f1", "is_reserved": 0}, {"is_disabled": 0, "fusion_lon": 0.0, "fusion_lat": 0.0, "lat": 38.901528666666664, "type": "electric_scooter", "lon": -77.01199083333333, "bike_id": "0b5926728470463c60fe3322d96749b1", "rental_uris": {"android": "https://dc.lft.to/lastmile_qr_scan", "ios": "https://dc.lft.to/lastmile_qr_scan"}, "name": "0b5926728470463c60fe3322d96749b1", "is_reserved": 0}, {"is_disabled": 0, "fusion_lon": 0.0, "fusion_lat": 0.0, "lat": 38.895315333333336, "type": "electric_scooter", "lon": -77.02951316666666, "bike_id": "74be5dfa851754f231e6b81afa44fb16", "rental_uris": {"android": "https://dc.lft.to/lastmile_qr_scan", "ios": "https://dc.lft.to/lastmile_qr_scan"}, "name": "74be5dfa851754f231e6b81afa44fb16", "is_reserved": 0}, {"is_disabled": 0, "fusion_lon": 0.0, "fusion_lat": 0.0, "lat": 38.998873333333336, "type": "electric_bike", "lon": -77.02867566666667, "bike_id": "c98c58f99f6f045ee27e955ec9a834a2", "rental_uris": {"android": "https://dc.lft.to/lastmile_qr_scan", "ios": "https://dc.lft.to/lastmile_qr_scan"}, "name": "c98c58f99f6f045ee27e955ec9a834a2", "is_reserved": 0}, {"is_disabled": 0, "fusion_lon": 0.0, "fusion_lat": 0.0, "lat": 38.907178333333334, "type": "electric_scooter", "lon": -77.0467395, "bike_id": "b98d5e0b097aacbc6ad60b2c6990e579", "rental_uris": {"android": "https://dc.lft.to/lastmile_qr_scan", "ios": "https://dc.lft.to/lastmile_qr_scan"}, "name": "b98d5e0b097aacbc6ad60b2c6990e579", "is_reserved": 0}, {"is_disabled": 0, "fusion_lon": 0.0, "fusion_lat": 0.0, "lat": 38.888916, "type": "electric_scooter", "lon": -77.0155, "bike_id": "71fda9bd6485ab1ceb911a97d5039f2e", "rental_uris": {"android": "https://dc.lft.to/lastmile_qr_scan", "ios": "https://dc.lft.to/lastmile_qr_scan"}, "name": "71fda9bd6485ab1ceb911a97d5039f2e", "is_reserved": 0}, {"is_disabled": 0, "fusion_lon": 0.0, "fusion_lat": 0.0, "lat": 38.89227433333333, "type": "electric_scooter", "lon": -77.04654983333333, "bike_id": "e1cbbb42144428f845d4c6db03f6f4e4", "rental_uris": {"android": "https://dc.lft.to/lastmile_qr_scan", "ios": "https://dc.lft.to/lastmile_qr_scan"}, "name": "e1cbbb42144428f845d4c6db03f6f4e4", "is_reserved": 0}, {"is_disabled": 0, "fusion_lon": 0.0, "fusion_lat": 0.0, "lat": 38.858093, "type": "electric_scooter", "lon": -76.98653733333333, "bike_id": "6b9533af386fedbd3153c7051d994a4f", "rental_uris": {"android": "https://dc.lft.to/lastmile_qr_scan", "ios": "https://dc.lft.to/lastmile_qr_scan"}, "name": "6b9533af386fedbd3153c7051d994a4f", "is_reserved": 0}, {"is_disabled": 0, "fusion_lon": 0.0, "fusion_lat": 0.0, "lat": 38.92484316666667, "type": "electric_scooter", "lon": -77.05202183333333, "bike_id": "f40eca51fb7d4dec01bda43f226e0d31", "rental_uris": {"android": "https://dc.lft.to/lastmile_qr_scan", "ios": "https://dc.lft.to/lastmile_qr_scan"}, "name": "f40eca51fb7d4dec01bda43f226e0d31", "is_reserved": 0}, {"is_disabled": 0, "fusion_lon": 0.0, "fusion_lat": 0.0, "lat": 38.9129985, "type": "electric_bike", "lon": -77.02169233333333, "bike_id": "0a6885a4d35b5227bb1745b4e642e4c7", "rental_uris": {"android": "https://dc.lft.to/lastmile_qr_scan", "ios": "https://dc.lft.to/lastmile_qr_scan"}, "name": "0a6885a4d35b5227bb1745b4e642e4c7", "is_reserved": 0}, {"is_disabled": 0, "fusion_lon": 0.0, "fusion_lat": 0.0, "lat": 38.898786, "type": "electric_scooter", "lon": -76.93186466666667, "bike_id": "e059e518e9484d684f242eed0011cd8f", "rental_uris": {"android": "https://dc.lft.to/lastmile_qr_scan", "ios": "https://dc.lft.to/lastmile_qr_scan"}, "name": "e059e518e9484d684f242eed0011cd8f", "is_reserved": 0}, {"is_disabled": 0, "fusion_lon": 0.0, "fusion_lat": 0.0, "lat": 38.89846683333333, "type": "electric_scooter", "lon": -76.946348, "bike_id": "c33acd7b3c617d734b56270076db02a0", "rental_uris": {"android": "https://dc.lft.to/lastmile_qr_scan", "ios": "https://dc.lft.to/lastmile_qr_scan"}, "name": "c33acd7b3c617d734b56270076db02a0", "is_reserved": 0}, {"is_disabled": 0, "fusion_lon": 0.0, "fusion_lat": 0.0, "lat": 38.9211305, "type": "electric_scooter", "lon": -77.0422635, "bike_id": "377d05dcc8b78c6198b34fa708491357", "rental_uris": {"android": "https://dc.lft.to/lastmile_qr_scan", "ios": "https://dc.lft.to/lastmile_qr_scan"}, "name": "377d05dcc8b78c6198b34fa708491357", "is_reserved": 0}, {"is_disabled": 0, "fusion_lon": 0.0, "fusion_lat": 0.0, "lat": 38.905679, "type": "electric_scooter", "lon": -77.00486066666667, "bike_id": "6a4917c3f39aa3071038dcd8fe807baa", "rental_uris": {"android": "https://dc.lft.to/lastmile_qr_scan", "ios": "https://dc.lft.to/lastmile_qr_scan"}, "name": "6a4917c3f39aa3071038dcd8fe807baa", "is_reserved": 0}, {"is_disabled": 0, "fusion_lon": 0.0, "fusion_lat": 0.0, "lat": 38.877374333333336, "type": "electric_scooter", "lon": -77.000585, "bike_id": "8bc8bc54e9fd58986bb323cca5beb01e", "rental_uris": {"android": "https://dc.lft.to/lastmile_qr_scan", "ios": "https://dc.lft.to/lastmile_qr_scan"}, "name": "8bc8bc54e9fd58986bb323cca5beb01e", "is_reserved": 0}, {"is_disabled": 0, "fusion_lon": 0.0, "fusion_lat": 0.0, "lat": 38.9158845, "type": "electric_scooter", "lon": -77.01995483333333, "bike_id": "728997f5f075c25861b16546fef3ff14", "rental_uris": {"android": "https://dc.lft.to/lastmile_qr_scan", "ios": "https://dc.lft.to/lastmile_qr_scan"}, "name": "728997f5f075c25861b16546fef3ff14", "is_reserved": 0}, {"is_disabled": 0, "fusion_lon": 0.0, "fusion_lat": 0.0, "lat": 38.9127215, "type": "electric_scooter", "lon": -77.041486, "bike_id": "f71e0b124d73fb2fc048f1bb43bb46c7", "rental_uris": {"android": "https://dc.lft.to/lastmile_qr_scan", "ios": "https://dc.lft.to/lastmile_qr_scan"}, "name": "f71e0b124d73fb2fc048f1bb43bb46c7", "is_reserved": 0}, {"is_disabled": 0, "fusion_lon": 0.0, "fusion_lat": 0.0, "lat": 38.9200595, "type": "electric_scooter", "lon": -77.031975, "bike_id": "92b5dc06acfb1db1d17680135f656e92", "rental_uris": {"android": "https://dc.lft.to/lastmile_qr_scan", "ios": "https://dc.lft.to/lastmile_qr_scan"}, "name": "92b5dc06acfb1db1d17680135f656e92", "is_reserved": 0}, {"is_disabled": 0, "fusion_lon": 0.0, "fusion_lat": 0.0, "lat": 38.918722833333334, "type": "electric_scooter", "lon": -77.044867, "bike_id": "ade40b7e6f2cc643bc100f9496c88927", "rental_uris": {"android": "https://dc.lft.to/lastmile_qr_scan", "ios": "https://dc.lft.to/lastmile_qr_scan"}, "name": "ade40b7e6f2cc643bc100f9496c88927", "is_reserved": 0}, {"is_disabled": 0, "fusion_lon": 0.0, "fusion_lat": 0.0, "lat": 38.909573, "type": "electric_scooter", "lon": -77.045259, "bike_id": "b5dda43d7183b9c6eec992d317635cab", "rental_uris": {"android": "https://dc.lft.to/lastmile_qr_scan", "ios": "https://dc.lft.to/lastmile_qr_scan"}, "name": "b5dda43d7183b9c6eec992d317635cab", "is_reserved": 0}, {"is_disabled": 0, "fusion_lon": 0.0, "fusion_lat": 0.0, "lat": 38.902815833333335, "type": "electric_scooter", "lon": -77.02426516666667, "bike_id": "9577799846743266e04f96428a5a7e2a", "rental_uris": {"android": "https://dc.lft.to/lastmile_qr_scan", "ios": "https://dc.lft.to/lastmile_qr_scan"}, "name": "9577799846743266e04f96428a5a7e2a", "is_reserved": 0}, {"is_disabled": 0, "fusion_lon": 0.0, "fusion_lat": 0.0, "lat": 38.9178535, "type": "electric_scooter", "lon": -77.0230935, "bike_id": "41e8127845774dcfad9a62b46d300394", "rental_uris": {"android": "https://dc.lft.to/lastmile_qr_scan", "ios": "https://dc.lft.to/lastmile_qr_scan"}, "name": "41e8127845774dcfad9a62b46d300394", "is_reserved": 0}, {"is_disabled": 0, "fusion_lon": 0.0, "fusion_lat": 0.0, "lat": 38.90527633333333, "type": "electric_scooter", "lon": -77.05091533333334, "bike_id": "b0d2f3d745fd99c4af84289ef4b79cec", "rental_uris": {"android": "https://dc.lft.to/lastmile_qr_scan", "ios": "https://dc.lft.to/lastmile_qr_scan"}, "name": "b0d2f3d745fd99c4af84289ef4b79cec", "is_reserved": 0}, {"is_disabled": 0, "fusion_lon": 0.0, "fusion_lat": 0.0, "lat": 38.980275666666664, "type": "electric_bike", "lon": -76.92915083333334, "bike_id": "284c4073de7d94672bb4e983b631fcf4", "rental_uris": {"android": "https://dc.lft.to/lastmile_qr_scan", "ios": "https://dc.lft.to/lastmile_qr_scan"}, "name": "284c4073de7d94672bb4e983b631fcf4", "is_reserved": 0}, {"is_disabled": 0, "fusion_lon": 0.0, "fusion_lat": 0.0, "lat": 38.8955675, "type": "electric_scooter", "lon": -77.00408283333333, "bike_id": "36f2392bfd2d164b23d564fd276c712e", "rental_uris": {"android": "https://dc.lft.to/lastmile_qr_scan", "ios": "https://dc.lft.to/lastmile_qr_scan"}, "name": "36f2392bfd2d164b23d564fd276c712e", "is_reserved": 0}, {"is_disabled": 0, "fusion_lon": 0.0, "fusion_lat": 0.0, "lat": 38.956013666666664, "type": "electric_scooter", "lon": -77.00980716666666, "bike_id": "1b0c8149005aca9ee9e748c59c3613dd", "rental_uris": {"android": "https://dc.lft.to/lastmile_qr_scan", "ios": "https://dc.lft.to/lastmile_qr_scan"}, "name": "1b0c8149005aca9ee9e748c59c3613dd", "is_reserved": 0}, {"is_disabled": 0, "fusion_lon": 0.0, "fusion_lat": 0.0, "lat": 38.918361833333336, "type": "electric_scooter", "lon": -77.03514983333334, "bike_id": "c0cc7b3d862112ec3d2cb7998aeb9911", "rental_uris": {"android": "https://dc.lft.to/lastmile_qr_scan", "ios": "https://dc.lft.to/lastmile_qr_scan"}, "name": "c0cc7b3d862112ec3d2cb7998aeb9911", "is_reserved": 0}, {"is_disabled": 0, "fusion_lon": 0.0, "fusion_lat": 0.0, "lat": 38.86358833333333, "type": "electric_scooter", "lon": -76.99073, "bike_id": "ea6c957abdd1ee4fc5438ea1a627c2b6", "rental_uris": {"android": "https://dc.lft.to/lastmile_qr_scan", "ios": "https://dc.lft.to/lastmile_qr_scan"}, "name": "ea6c957abdd1ee4fc5438ea1a627c2b6", "is_reserved": 0}, {"is_disabled": 0, "fusion_lon": 0.0, "fusion_lat": 0.0, "lat": 38.912175500000004, "type": "electric_scooter", "lon": -77.03194583333334, "bike_id": "3d494a8ab94b76c326df43701167c26f", "rental_uris": {"android": "https://dc.lft.to/lastmile_qr_scan", "ios": "https://dc.lft.to/lastmile_qr_scan"}, "name": "3d494a8ab94b76c326df43701167c26f", "is_reserved": 0}, {"is_disabled": 0, "fusion_lon": 0.0, "fusion_lat": 0.0, "lat": 38.915475, "type": "electric_scooter", "lon": -77.03855166666666, "bike_id": "a1ed9525f941c593fbb01b3a398d9128", "rental_uris": {"android": "https://dc.lft.to/lastmile_qr_scan", "ios": "https://dc.lft.to/lastmile_qr_scan"}, "name": "a1ed9525f941c593fbb01b3a398d9128", "is_reserved": 0}, {"is_disabled": 0, "fusion_lon": 0.0, "fusion_lat": 0.0, "lat": 38.94574866666667, "type": "electric_bike", "lon": -76.960295, "bike_id": "73519c3fa9c4960544fb3aa49997e615", "rental_uris": {"android": "https://dc.lft.to/lastmile_qr_scan", "ios": "https://dc.lft.to/lastmile_qr_scan"}, "name": "73519c3fa9c4960544fb3aa49997e615", "is_reserved": 0}, {"is_disabled": 0, "fusion_lon": 0.0, "fusion_lat": 0.0, "lat": 38.926050333333336, "type": "electric_scooter", "lon": -77.02155733333333, "bike_id": "f3f11e98c92ac5b004509bdf584ffe02", "rental_uris": {"android": "https://dc.lft.to/lastmile_qr_scan", "ios": "https://dc.lft.to/lastmile_qr_scan"}, "name": "f3f11e98c92ac5b004509bdf584ffe02", "is_reserved": 0}, {"is_disabled": 0, "fusion_lon": 0.0, "fusion_lat": 0.0, "lat": 38.902527, "type": "electric_scooter", "lon": -76.94621866666667, "bike_id": "ed67ddf0d8bead0262903450fe92d2f1", "rental_uris": {"android": "https://dc.lft.to/lastmile_qr_scan", "ios": "https://dc.lft.to/lastmile_qr_scan"}, "name": "ed67ddf0d8bead0262903450fe92d2f1", "is_reserved": 0}, {"is_disabled": 0, "fusion_lon": 0.0, "fusion_lat": 0.0, "lat": 38.9621415, "type": "electric_scooter", "lon": -77.028044, "bike_id": "b36ed99057c02d27329a23c628777e4f", "rental_uris": {"android": "https://dc.lft.to/lastmile_qr_scan", "ios": "https://dc.lft.to/lastmile_qr_scan"}, "name": "b36ed99057c02d27329a23c628777e4f", "is_reserved": 0}, {"is_disabled": 0, "fusion_lon": 0.0, "fusion_lat": 0.0, "lat": 38.990650333333335, "type": "electric_bike", "lon": -77.10026916666666, "bike_id": "712678b1cd7856e7e40f04ce3454b526", "rental_uris": {"android": "https://dc.lft.to/lastmile_qr_scan", "ios": "https://dc.lft.to/lastmile_qr_scan"}, "name": "712678b1cd7856e7e40f04ce3454b526", "is_reserved": 0}, {"is_disabled": 0, "fusion_lon": 0.0, "fusion_lat": 0.0, "lat": 38.928436166666664, "type": "electric_scooter", "lon": -77.01420433333334, "bike_id": "61ee463dc481bcc6cde39317221c0b27", "rental_uris": {"android": "https://dc.lft.to/lastmile_qr_scan", "ios": "https://dc.lft.to/lastmile_qr_scan"}, "name": "61ee463dc481bcc6cde39317221c0b27", "is_reserved": 0}, {"is_disabled": 0, "fusion_lon": 0.0, "fusion_lat": 0.0, "lat": 38.9111975, "type": "electric_scooter", "lon": -77.03749883333333, "bike_id": "11dd24309e9fb0091d02430496095468", "rental_uris": {"android": "https://dc.lft.to/lastmile_qr_scan", "ios": "https://dc.lft.to/lastmile_qr_scan"}, "name": "11dd24309e9fb0091d02430496095468", "is_reserved": 0}, {"is_disabled": 0, "fusion_lon": 0.0, "fusion_lat": 0.0, "lat": 38.90240133333333, "type": "electric_scooter", "lon": -77.06265433333333, "bike_id": "50e254786008b226b3cf7e74513d47e7", "rental_uris": {"android": "https://dc.lft.to/lastmile_qr_scan", "ios": "https://dc.lft.to/lastmile_qr_scan"}, "name": "50e254786008b226b3cf7e74513d47e7", "is_reserved": 0}, {"is_disabled": 0, "fusion_lon": 0.0, "fusion_lat": 0.0, "lat": 38.918474, "type": "electric_scooter", "lon": -77.03209583333333, "bike_id": "00fcaac6e100a72e839198872d473fb3", "rental_uris": {"android": "https://dc.lft.to/lastmile_qr_scan", "ios": "https://dc.lft.to/lastmile_qr_scan"}, "name": "00fcaac6e100a72e839198872d473fb3", "is_reserved": 0}, {"is_disabled": 0, "fusion_lon": 0.0, "fusion_lat": 0.0, "lat": 38.92590233333333, "type": "electric_scooter", "lon": -77.02557533333334, "bike_id": "fb167680001cbed1ad3d9af4fde1c41f", "rental_uris": {"android": "https://dc.lft.to/lastmile_qr_scan", "ios": "https://dc.lft.to/lastmile_qr_scan"}, "name": "fb167680001cbed1ad3d9af4fde1c41f", "is_reserved": 0}, {"is_disabled": 0, "fusion_lon": 0.0, "fusion_lat": 0.0, "lat": 38.876606333333335, "type": "electric_scooter", "lon": -77.01739566666667, "bike_id": "f58ded015054ea5023a6e9e68af5be35", "rental_uris": {"android": "https://dc.lft.to/lastmile_qr_scan", "ios": "https://dc.lft.to/lastmile_qr_scan"}, "name": "f58ded015054ea5023a6e9e68af5be35", "is_reserved": 0}, {"is_disabled": 0, "fusion_lon": 0.0, "fusion_lat": 0.0, "lat": 38.912381, "type": "electric_scooter", "lon": -77.04869766666667, "bike_id": "fde227632ebb604cf2f0925361b72655", "rental_uris": {"android": "https://dc.lft.to/lastmile_qr_scan", "ios": "https://dc.lft.to/lastmile_qr_scan"}, "name": "fde227632ebb604cf2f0925361b72655", "is_reserved": 0}, {"is_disabled": 0, "fusion_lon": 0.0, "fusion_lat": 0.0, "lat": 38.911384166666664, "type": "electric_scooter", "lon": -77.021995, "bike_id": "38878556ce4cd8fc23207789a9c0f8b2", "rental_uris": {"android": "https://dc.lft.to/lastmile_qr_scan", "ios": "https://dc.lft.to/lastmile_qr_scan"}, "name": "38878556ce4cd8fc23207789a9c0f8b2", "is_reserved": 0}, {"is_disabled": 0, "fusion_lon": 0.0, "fusion_lat": 0.0, "lat": 38.9909055, "type": "electric_bike", "lon": -76.8749255, "bike_id": "c558f2d5c8f28c8885009363b62e826c", "rental_uris": {"android": "https://dc.lft.to/lastmile_qr_scan", "ios": "https://dc.lft.to/lastmile_qr_scan"}, "name": "c558f2d5c8f28c8885009363b62e826c", "is_reserved": 0}, {"is_disabled": 0, "fusion_lon": 0.0, "fusion_lat": 0.0, "lat": 38.87494983333333, "type": "electric_bike", "lon": -77.04902133333333, "bike_id": "9ac3e9b217a5a0b8d8c9c50a3a4c023f", "rental_uris": {"android": "https://dc.lft.to/lastmile_qr_scan", "ios": "https://dc.lft.to/lastmile_qr_scan"}, "name": "9ac3e9b217a5a0b8d8c9c50a3a4c023f", "is_reserved": 0}, {"is_disabled": 0, "fusion_lon": 0.0, "fusion_lat": 0.0, "lat": 38.904314166666666, "type": "electric_scooter", "lon": -77.02573, "bike_id": "8fe36c66697000102362a4fe6497e3a5", "rental_uris": {"android": "https://dc.lft.to/lastmile_qr_scan", "ios": "https://dc.lft.to/lastmile_qr_scan"}, "name": "8fe36c66697000102362a4fe6497e3a5", "is_reserved": 0}, {"is_disabled": 0, "fusion_lon": 0.0, "fusion_lat": 0.0, "lat": 38.905751, "type": "electric_scooter", "lon": -77.0237875, "bike_id": "f9a5ca5bf133863a8d814b2ea178b1cd", "rental_uris": {"android": "https://dc.lft.to/lastmile_qr_scan", "ios": "https://dc.lft.to/lastmile_qr_scan"}, "name": "f9a5ca5bf133863a8d814b2ea178b1cd", "is_reserved": 0}, {"is_disabled": 0, "fusion_lon": 0.0, "fusion_lat": 0.0, "lat": 38.90025416666667, "type": "electric_scooter", "lon": -77.011828, "bike_id": "30d30f3cb20cea8dc9974939af7ed316", "rental_uris": {"android": "https://dc.lft.to/lastmile_qr_scan", "ios": "https://dc.lft.to/lastmile_qr_scan"}, "name": "30d30f3cb20cea8dc9974939af7ed316", "is_reserved": 0}, {"is_disabled": 0, "fusion_lon": 0.0, "fusion_lat": 0.0, "lat": 38.880207, "type": "electric_scooter", "lon": -76.931143, "bike_id": "df5de686d716dd52b43ee307fecd332b", "rental_uris": {"android": "https://dc.lft.to/lastmile_qr_scan", "ios": "https://dc.lft.to/lastmile_qr_scan"}, "name": "df5de686d716dd52b43ee307fecd332b", "is_reserved": 0}, {"is_disabled": 0, "fusion_lon": 0.0, "fusion_lat": 0.0, "lat": 38.915424333333334, "type": "electric_scooter", "lon": -77.03211816666666, "bike_id": "00a9f3424ee4b2f143f9d2194942bc6e", "rental_uris": {"android": "https://dc.lft.to/lastmile_qr_scan", "ios": "https://dc.lft.to/lastmile_qr_scan"}, "name": "00a9f3424ee4b2f143f9d2194942bc6e", "is_reserved": 0}, {"is_disabled": 0, "fusion_lon": 0.0, "fusion_lat": 0.0, "lat": 38.9203755, "type": "electric_scooter", "lon": -77.02586, "bike_id": "47ce94075726e8672b6d1d63d1757331", "rental_uris": {"android": "https://dc.lft.to/lastmile_qr_scan", "ios": "https://dc.lft.to/lastmile_qr_scan"}, "name": "47ce94075726e8672b6d1d63d1757331", "is_reserved": 0}, {"is_disabled": 0, "fusion_lon": 0.0, "fusion_lat": 0.0, "lat": 38.895282, "type": "electric_scooter", "lon": -77.028373, "bike_id": "d85a11ece1b0570c3795e625d34b793f", "rental_uris": {"android": "https://dc.lft.to/lastmile_qr_scan", "ios": "https://dc.lft.to/lastmile_qr_scan"}, "name": "d85a11ece1b0570c3795e625d34b793f", "is_reserved": 0}, {"is_disabled": 0, "fusion_lon": 0.0, "fusion_lat": 0.0, "lat": 38.853315, "type": "electric_scooter", "lon": -76.96596266666667, "bike_id": "4b9d6521e4fcd92fb4bc43a83c9c8937", "rental_uris": {"android": "https://dc.lft.to/lastmile_qr_scan", "ios": "https://dc.lft.to/lastmile_qr_scan"}, "name": "4b9d6521e4fcd92fb4bc43a83c9c8937", "is_reserved": 0}, {"is_disabled": 0, "fusion_lon": 0.0, "fusion_lat": 0.0, "lat": 38.988287666666665, "type": "electric_bike", "lon": -76.98742566666667, "bike_id": "230456656ea19e106f1effc7a15e97e6", "rental_uris": {"android": "https://dc.lft.to/lastmile_qr_scan", "ios": "https://dc.lft.to/lastmile_qr_scan"}, "name": "230456656ea19e106f1effc7a15e97e6", "is_reserved": 0}, {"is_disabled": 0, "fusion_lon": 0.0, "fusion_lat": 0.0, "lat": 38.906447666666665, "type": "electric_scooter", "lon": -77.02930866666667, "bike_id": "91a820df42e805fd8f27fb89f8432615", "rental_uris": {"android": "https://dc.lft.to/lastmile_qr_scan", "ios": "https://dc.lft.to/lastmile_qr_scan"}, "name": "91a820df42e805fd8f27fb89f8432615", "is_reserved": 0}, {"is_disabled": 0, "fusion_lon": 0.0, "fusion_lat": 0.0, "lat": 38.862503333333336, "type": "electric_scooter", "lon": -76.995297, "bike_id": "48ed24b41dc1193ac7bdf70e284d6699", "rental_uris": {"android": "https://dc.lft.to/lastmile_qr_scan", "ios": "https://dc.lft.to/lastmile_qr_scan"}, "name": "48ed24b41dc1193ac7bdf70e284d6699", "is_reserved": 0}, {"is_disabled": 0, "fusion_lon": 0.0, "fusion_lat": 0.0, "lat": 38.88513866666667, "type": "electric_scooter", "lon": -76.99848016666667, "bike_id": "a3e10b4ead6f16f8a814c068b4565086", "rental_uris": {"android": "https://dc.lft.to/lastmile_qr_scan", "ios": "https://dc.lft.to/lastmile_qr_scan"}, "name": "a3e10b4ead6f16f8a814c068b4565086", "is_reserved": 0}, {"is_disabled": 0, "fusion_lon": 0.0, "fusion_lat": 0.0, "lat": 38.9168, "type": "electric_scooter", "lon": -77.029784, "bike_id": "bf3e322e8c3028e1a5e6b0352369541e", "rental_uris": {"android": "https://dc.lft.to/lastmile_qr_scan", "ios": "https://dc.lft.to/lastmile_qr_scan"}, "name": "bf3e322e8c3028e1a5e6b0352369541e", "is_reserved": 0}, {"is_disabled": 0, "fusion_lon": 0.0, "fusion_lat": 0.0, "lat": 38.90250433333333, "type": "electric_scooter", "lon": -76.989658, "bike_id": "23b889ebc3301a829c472d0414194eaa", "rental_uris": {"android": "https://dc.lft.to/lastmile_qr_scan", "ios": "https://dc.lft.to/lastmile_qr_scan"}, "name": "23b889ebc3301a829c472d0414194eaa", "is_reserved": 0}, {"is_disabled": 0, "fusion_lon": 0.0, "fusion_lat": 0.0, "lat": 38.88613316666667, "type": "electric_scooter", "lon": -76.99504233333333, "bike_id": "5b082f526ae3ed3d565cdfb9e33e9142", "rental_uris": {"android": "https://dc.lft.to/lastmile_qr_scan", "ios": "https://dc.lft.to/lastmile_qr_scan"}, "name": "5b082f526ae3ed3d565cdfb9e33e9142", "is_reserved": 0}, {"is_disabled": 0, "fusion_lon": 0.0, "fusion_lat": 0.0, "lat": 38.91714966666667, "type": "electric_scooter", "lon": -77.03859916666667, "bike_id": "a246c9b899249356c1541c3c4047e517", "rental_uris": {"android": "https://dc.lft.to/lastmile_qr_scan", "ios": "https://dc.lft.to/lastmile_qr_scan"}, "name": "a246c9b899249356c1541c3c4047e517", "is_reserved": 0}, {"is_disabled": 0, "fusion_lon": 0.0, "fusion_lat": 0.0, "lat": 38.8428745, "type": "electric_scooter", "lon": -76.99967016666666, "bike_id": "128df142373a59bb27ba3ea0dba76b43", "rental_uris": {"android": "https://dc.lft.to/lastmile_qr_scan", "ios": "https://dc.lft.to/lastmile_qr_scan"}, "name": "128df142373a59bb27ba3ea0dba76b43", "is_reserved": 0}, {"is_disabled": 0, "fusion_lon": 0.0, "fusion_lat": 0.0, "lat": 38.935038, "type": "electric_bike", "lon": -76.94954516666667, "bike_id": "5a65b8c8933abddc72a28f51df9c0d01", "rental_uris": {"android": "https://dc.lft.to/lastmile_qr_scan", "ios": "https://dc.lft.to/lastmile_qr_scan"}, "name": "5a65b8c8933abddc72a28f51df9c0d01", "is_reserved": 0}, {"is_disabled": 0, "fusion_lon": 0.0, "fusion_lat": 0.0, "lat": 39.10005116666667, "type": "electric_bike", "lon": -77.18650316666667, "bike_id": "866a8c40d6708d2e33e3051bb23dc70c", "rental_uris": {"android": "https://dc.lft.to/lastmile_qr_scan", "ios": "https://dc.lft.to/lastmile_qr_scan"}, "name": "866a8c40d6708d2e33e3051bb23dc70c", "is_reserved": 0}, {"is_disabled": 0, "fusion_lon": 0.0, "fusion_lat": 0.0, "lat": 38.91570266666667, "type": "electric_scooter", "lon": -77.04173583333333, "bike_id": "e1ba586ee633b11f2e4a6ac4fd773e4e", "rental_uris": {"android": "https://dc.lft.to/lastmile_qr_scan", "ios": "https://dc.lft.to/lastmile_qr_scan"}, "name": "e1ba586ee633b11f2e4a6ac4fd773e4e", "is_reserved": 0}, {"is_disabled": 0, "fusion_lon": 0.0, "fusion_lat": 0.0, "lat": 38.905700833333334, "type": "electric_scooter", "lon": -77.02614133333333, "bike_id": "38e1198ff08c067d16f5d2650bdc032c", "rental_uris": {"android": "https://dc.lft.to/lastmile_qr_scan", "ios": "https://dc.lft.to/lastmile_qr_scan"}, "name": "38e1198ff08c067d16f5d2650bdc032c", "is_reserved": 0}, {"is_disabled": 0, "fusion_lon": 0.0, "fusion_lat": 0.0, "lat": 38.916526, "type": "electric_scooter", "lon": -77.02273333333333, "bike_id": "b6e9eff3b082d8d875780e380295cd99", "rental_uris": {"android": "https://dc.lft.to/lastmile_qr_scan", "ios": "https://dc.lft.to/lastmile_qr_scan"}, "name": "b6e9eff3b082d8d875780e380295cd99", "is_reserved": 0}, {"is_disabled": 0, "fusion_lon": 0.0, "fusion_lat": 0.0, "lat": 38.838125, "type": "electric_scooter", "lon": -77.00428833333334, "bike_id": "72a008ef3ee55779be3e762c84d1e044", "rental_uris": {"android": "https://dc.lft.to/lastmile_qr_scan", "ios": "https://dc.lft.to/lastmile_qr_scan"}, "name": "72a008ef3ee55779be3e762c84d1e044", "is_reserved": 0}, {"is_disabled": 0, "fusion_lon": 0.0, "fusion_lat": 0.0, "lat": 38.882069333333334, "type": "electric_bike", "lon": -77.107658, "bike_id": "340e826f4ad11f069a667a9b530d25fe", "rental_uris": {"android": "https://dc.lft.to/lastmile_qr_scan", "ios": "https://dc.lft.to/lastmile_qr_scan"}, "name": "340e826f4ad11f069a667a9b530d25fe", "is_reserved": 0}, {"is_disabled": 0, "fusion_lon": 0.0, "fusion_lat": 0.0, "lat": 38.89995, "type": "electric_scooter", "lon": -76.92228166666666, "bike_id": "454755b24661966f4766e1512a204dcd", "rental_uris": {"android": "https://dc.lft.to/lastmile_qr_scan", "ios": "https://dc.lft.to/lastmile_qr_scan"}, "name": "454755b24661966f4766e1512a204dcd", "is_reserved": 0}, {"is_disabled": 0, "fusion_lon": 0.0, "fusion_lat": 0.0, "lat": 38.9181145, "type": "electric_scooter", "lon": -77.01017316666666, "bike_id": "d4cd8db14583be7072ff3fb0f7ba155c", "rental_uris": {"android": "https://dc.lft.to/lastmile_qr_scan", "ios": "https://dc.lft.to/lastmile_qr_scan"}, "name": "d4cd8db14583be7072ff3fb0f7ba155c", "is_reserved": 0}, {"is_disabled": 0, "fusion_lon": 0.0, "fusion_lat": 0.0, "lat": 38.910470333333336, "type": "electric_scooter", "lon": -77.04351816666667, "bike_id": "4d4035308458873847910c857040b5b4", "rental_uris": {"android": "https://dc.lft.to/lastmile_qr_scan", "ios": "https://dc.lft.to/lastmile_qr_scan"}, "name": "4d4035308458873847910c857040b5b4", "is_reserved": 0}, {"is_disabled": 0, "fusion_lon": 0.0, "fusion_lat": 0.0, "lat": 38.8520285, "type": "electric_bike", "lon": -77.1013255, "bike_id": "a502c582b5e3b7541d5cc698b343d3c1", "rental_uris": {"android": "https://dc.lft.to/lastmile_qr_scan", "ios": "https://dc.lft.to/lastmile_qr_scan"}, "name": "a502c582b5e3b7541d5cc698b343d3c1", "is_reserved": 0}, {"is_disabled": 0, "fusion_lon": 0.0, "fusion_lat": 0.0, "lat": 38.925776666666664, "type": "electric_scooter", "lon": -76.994954, "bike_id": "0818c6807ddfb29680a42cffb1f1b1b6", "rental_uris": {"android": "https://dc.lft.to/lastmile_qr_scan", "ios": "https://dc.lft.to/lastmile_qr_scan"}, "name": "0818c6807ddfb29680a42cffb1f1b1b6", "is_reserved": 0}, {"is_disabled": 0, "fusion_lon": 0.0, "fusion_lat": 0.0, "lat": 38.902488, "type": "electric_scooter", "lon": -77.0193855, "bike_id": "e25da1a16212b05a6daa824e2cfbb3cf", "rental_uris": {"android": "https://dc.lft.to/lastmile_qr_scan", "ios": "https://dc.lft.to/lastmile_qr_scan"}, "name": "e25da1a16212b05a6daa824e2cfbb3cf", "is_reserved": 0}, {"is_disabled": 0, "fusion_lon": 0.0, "fusion_lat": 0.0, "lat": 38.91801433333333, "type": "electric_scooter", "lon": -77.0403655, "bike_id": "94a8a792caf68c995064b6ee9d1a3681", "rental_uris": {"android": "https://dc.lft.to/lastmile_qr_scan", "ios": "https://dc.lft.to/lastmile_qr_scan"}, "name": "94a8a792caf68c995064b6ee9d1a3681", "is_reserved": 0}, {"is_disabled": 0, "fusion_lon": 0.0, "fusion_lat": 0.0, "lat": 38.929735, "type": "electric_scooter", "lon": -77.02798633333333, "bike_id": "79d136cdd35b11148a9e440cf80e1321", "rental_uris": {"android": "https://dc.lft.to/lastmile_qr_scan", "ios": "https://dc.lft.to/lastmile_qr_scan"}, "name": "79d136cdd35b11148a9e440cf80e1321", "is_reserved": 0}, {"is_disabled": 0, "fusion_lon": 0.0, "fusion_lat": 0.0, "lat": 38.92289233333333, "type": "electric_scooter", "lon": -77.0296305, "bike_id": "a29467ae8e9ecca4705b97854efc52e4", "rental_uris": {"android": "https://dc.lft.to/lastmile_qr_scan", "ios": "https://dc.lft.to/lastmile_qr_scan"}, "name": "a29467ae8e9ecca4705b97854efc52e4", "is_reserved": 0}, {"is_disabled": 0, "fusion_lon": 0.0, "fusion_lat": 0.0, "lat": 38.926567666666664, "type": "electric_scooter", "lon": -77.03717483333334, "bike_id": "2e3b7768e3d8cf0437ff995f6b1ef37e", "rental_uris": {"android": "https://dc.lft.to/lastmile_qr_scan", "ios": "https://dc.lft.to/lastmile_qr_scan"}, "name": "2e3b7768e3d8cf0437ff995f6b1ef37e", "is_reserved": 0}, {"is_disabled": 0, "fusion_lon": 0.0, "fusion_lat": 0.0, "lat": 38.93973283333333, "type": "electric_bike", "lon": -77.36099966666667, "bike_id": "90e271a0d089e56572d06b3cc06a9523", "rental_uris": {"android": "https://dc.lft.to/lastmile_qr_scan", "ios": "https://dc.lft.to/lastmile_qr_scan"}, "name": "90e271a0d089e56572d06b3cc06a9523", "is_reserved": 0}, {"is_disabled": 0, "fusion_lon": 0.0, "fusion_lat": 0.0, "lat": 38.92469633333333, "type": "electric_scooter", "lon": -77.0786605, "bike_id": "9171e6f622fca700735ad0f338e18392", "rental_uris": {"android": "https://dc.lft.to/lastmile_qr_scan", "ios": "https://dc.lft.to/lastmile_qr_scan"}, "name": "9171e6f622fca700735ad0f338e18392", "is_reserved": 0}, {"is_disabled": 0, "fusion_lon": 0.0, "fusion_lat": 0.0, "lat": 38.905833666666666, "type": "electric_scooter", "lon": -77.023939, "bike_id": "5a5439bc8e02312a29efe7b337c17654", "rental_uris": {"android": "https://dc.lft.to/lastmile_qr_scan", "ios": "https://dc.lft.to/lastmile_qr_scan"}, "name": "5a5439bc8e02312a29efe7b337c17654", "is_reserved": 0}, {"is_disabled": 0, "fusion_lon": 0.0, "fusion_lat": 0.0, "lat": 38.877616, "type": "electric_bike", "lon": -76.97990383333334, "bike_id": "dde40a074abaac28cadded2d37465d11", "rental_uris": {"android": "https://dc.lft.to/lastmile_qr_scan", "ios": "https://dc.lft.to/lastmile_qr_scan"}, "name": "dde40a074abaac28cadded2d37465d11", "is_reserved": 0}, {"is_disabled": 0, "fusion_lon": 0.0, "fusion_lat": 0.0, "lat": 38.925931, "type": "electric_scooter", "lon": -77.02529066666666, "bike_id": "0abf7cabd90c9296f3a3ac88ccfa9ace", "rental_uris": {"android": "https://dc.lft.to/lastmile_qr_scan", "ios": "https://dc.lft.to/lastmile_qr_scan"}, "name": "0abf7cabd90c9296f3a3ac88ccfa9ace", "is_reserved": 0}, {"is_disabled": 0, "fusion_lon": 0.0, "fusion_lat": 0.0, "lat": 38.9024305, "type": "electric_scooter", "lon": -77.0150885, "bike_id": "7619adeeeea87b9fe0e95e1ea13a4ece", "rental_uris": {"android": "https://dc.lft.to/lastmile_qr_scan", "ios": "https://dc.lft.to/lastmile_qr_scan"}, "name": "7619adeeeea87b9fe0e95e1ea13a4ece", "is_reserved": 0}, {"is_disabled": 0, "fusion_lon": 0.0, "fusion_lat": 0.0, "lat": 38.925742166666666, "type": "electric_scooter", "lon": -77.08053766666667, "bike_id": "a86b74099c8658bf963951b79db15a65", "rental_uris": {"android": "https://dc.lft.to/lastmile_qr_scan", "ios": "https://dc.lft.to/lastmile_qr_scan"}, "name": "a86b74099c8658bf963951b79db15a65", "is_reserved": 0}, {"is_disabled": 0, "fusion_lon": 0.0, "fusion_lat": 0.0, "lat": 38.91212433333333, "type": "electric_scooter", "lon": -77.03842083333333, "bike_id": "7149cfd97a0cb468305811fa946bbc9c", "rental_uris": {"android": "https://dc.lft.to/lastmile_qr_scan", "ios": "https://dc.lft.to/lastmile_qr_scan"}, "name": "7149cfd97a0cb468305811fa946bbc9c", "is_reserved": 0}, {"is_disabled": 0, "fusion_lon": 0.0, "fusion_lat": 0.0, "lat": 38.91459916666667, "type": "electric_scooter", "lon": -76.98451116666666, "bike_id": "30dd53d906567b603e58b397fa5b196a", "rental_uris": {"android": "https://dc.lft.to/lastmile_qr_scan", "ios": "https://dc.lft.to/lastmile_qr_scan"}, "name": "30dd53d906567b603e58b397fa5b196a", "is_reserved": 0}, {"is_disabled": 0, "fusion_lon": 0.0, "fusion_lat": 0.0, "lat": 38.885953, "type": "electric_scooter", "lon": -77.01766016666667, "bike_id": "6a730469b26cd3b621fbe5ca6202a505", "rental_uris": {"android": "https://dc.lft.to/lastmile_qr_scan", "ios": "https://dc.lft.to/lastmile_qr_scan"}, "name": "6a730469b26cd3b621fbe5ca6202a505", "is_reserved": 0}, {"is_disabled": 0, "fusion_lon": 0.0, "fusion_lat": 0.0, "lat": 38.89831316666667, "type": "electric_scooter", "lon": -77.03191666666666, "bike_id": "9f595877804ac74ad3c3a61c08b060ba", "rental_uris": {"android": "https://dc.lft.to/lastmile_qr_scan", "ios": "https://dc.lft.to/lastmile_qr_scan"}, "name": "9f595877804ac74ad3c3a61c08b060ba", "is_reserved": 0}, {"is_disabled": 0, "fusion_lon": 0.0, "fusion_lat": 0.0, "lat": 38.92153716666667, "type": "electric_scooter", "lon": -77.0386685, "bike_id": "b2971ea3726a5581b2418c6f64752c63", "rental_uris": {"android": "https://dc.lft.to/lastmile_qr_scan", "ios": "https://dc.lft.to/lastmile_qr_scan"}, "name": "b2971ea3726a5581b2418c6f64752c63", "is_reserved": 0}, {"is_disabled": 0, "fusion_lon": 0.0, "fusion_lat": 0.0, "lat": 38.93111, "type": "electric_scooter", "lon": -77.012477, "bike_id": "e82f5eebce836f9991e73475ffff2d68", "rental_uris": {"android": "https://dc.lft.to/lastmile_qr_scan", "ios": "https://dc.lft.to/lastmile_qr_scan"}, "name": "e82f5eebce836f9991e73475ffff2d68", "is_reserved": 0}, {"is_disabled": 0, "fusion_lon": 0.0, "fusion_lat": 0.0, "lat": 38.94754866666667, "type": "electric_scooter", "lon": -77.02980966666667, "bike_id": "227c5035d3eb0df78a6f6fc707636f16", "rental_uris": {"android": "https://dc.lft.to/lastmile_qr_scan", "ios": "https://dc.lft.to/lastmile_qr_scan"}, "name": "227c5035d3eb0df78a6f6fc707636f16", "is_reserved": 0}, {"is_disabled": 0, "fusion_lon": 0.0, "fusion_lat": 0.0, "lat": 38.90976583333333, "type": "electric_scooter", "lon": -77.04060983333333, "bike_id": "e67dbc290b93097516e8ff8f87477f19", "rental_uris": {"android": "https://dc.lft.to/lastmile_qr_scan", "ios": "https://dc.lft.to/lastmile_qr_scan"}, "name": "e67dbc290b93097516e8ff8f87477f19", "is_reserved": 0}, {"is_disabled": 0, "fusion_lon": 0.0, "fusion_lat": 0.0, "lat": 38.926514833333336, "type": "electric_scooter", "lon": -77.03714483333333, "bike_id": "a707911365d15cbc67d771aa02b2f0f9", "rental_uris": {"android": "https://dc.lft.to/lastmile_qr_scan", "ios": "https://dc.lft.to/lastmile_qr_scan"}, "name": "a707911365d15cbc67d771aa02b2f0f9", "is_reserved": 0}, {"is_disabled": 0, "fusion_lon": 0.0, "fusion_lat": 0.0, "lat": 38.904133, "type": "electric_scooter", "lon": -77.043629, "bike_id": "c9b1ddece1b1574b9ab99ca444a8f879", "rental_uris": {"android": "https://dc.lft.to/lastmile_qr_scan", "ios": "https://dc.lft.to/lastmile_qr_scan"}, "name": "c9b1ddece1b1574b9ab99ca444a8f879", "is_reserved": 0}, {"is_disabled": 0, "fusion_lon": 0.0, "fusion_lat": 0.0, "lat": 38.86364916666667, "type": "electric_scooter", "lon": -76.99053766666667, "bike_id": "770111a9c52eda06edb5c592ed0def38", "rental_uris": {"android": "https://dc.lft.to/lastmile_qr_scan", "ios": "https://dc.lft.to/lastmile_qr_scan"}, "name": "770111a9c52eda06edb5c592ed0def38", "is_reserved": 0}, {"is_disabled": 0, "fusion_lon": 0.0, "fusion_lat": 0.0, "lat": 38.901705, "type": "electric_scooter", "lon": -77.01835333333334, "bike_id": "42fb5d12026aa04edb5df5c0d7739a23", "rental_uris": {"android": "https://dc.lft.to/lastmile_qr_scan", "ios": "https://dc.lft.to/lastmile_qr_scan"}, "name": "42fb5d12026aa04edb5df5c0d7739a23", "is_reserved": 0}, {"is_disabled": 0, "fusion_lon": 0.0, "fusion_lat": 0.0, "lat": 38.89686233333333, "type": "electric_scooter", "lon": -76.93530666666666, "bike_id": "69177fe0aac3e730afbd807fe40c7810", "rental_uris": {"android": "https://dc.lft.to/lastmile_qr_scan", "ios": "https://dc.lft.to/lastmile_qr_scan"}, "name": "69177fe0aac3e730afbd807fe40c7810", "is_reserved": 0}, {"is_disabled": 0, "fusion_lon": 0.0, "fusion_lat": 0.0, "lat": 38.924166166666666, "type": "electric_scooter", "lon": -77.02007016666667, "bike_id": "5e309f616e2eaef38fea9a959c9d04e7", "rental_uris": {"android": "https://dc.lft.to/lastmile_qr_scan", "ios": "https://dc.lft.to/lastmile_qr_scan"}, "name": "5e309f616e2eaef38fea9a959c9d04e7", "is_reserved": 0}, {"is_disabled": 0, "fusion_lon": 0.0, "fusion_lat": 0.0, "lat": 38.915942666666666, "type": "electric_scooter", "lon": -77.04167966666667, "bike_id": "842c94ecee7bc354bd02f3e8298261af", "rental_uris": {"android": "https://dc.lft.to/lastmile_qr_scan", "ios": "https://dc.lft.to/lastmile_qr_scan"}, "name": "842c94ecee7bc354bd02f3e8298261af", "is_reserved": 0}, {"is_disabled": 0, "fusion_lon": 0.0, "fusion_lat": 0.0, "lat": 38.89729283333333, "type": "electric_scooter", "lon": -77.04670466666667, "bike_id": "3d8292fcde081dc038751d7a6eef0472", "rental_uris": {"android": "https://dc.lft.to/lastmile_qr_scan", "ios": "https://dc.lft.to/lastmile_qr_scan"}, "name": "3d8292fcde081dc038751d7a6eef0472", "is_reserved": 0}, {"is_disabled": 0, "fusion_lon": 0.0, "fusion_lat": 0.0, "lat": 38.905749, "type": "electric_scooter", "lon": -77.0058265, "bike_id": "fbddf333f8c490503fa381961fe24838", "rental_uris": {"android": "https://dc.lft.to/lastmile_qr_scan", "ios": "https://dc.lft.to/lastmile_qr_scan"}, "name": "fbddf333f8c490503fa381961fe24838", "is_reserved": 0}, {"is_disabled": 0, "fusion_lon": 0.0, "fusion_lat": 0.0, "lat": 38.9173855, "type": "electric_scooter", "lon": -77.03640633333333, "bike_id": "4c05714a18e44964b1d8add1219590aa", "rental_uris": {"android": "https://dc.lft.to/lastmile_qr_scan", "ios": "https://dc.lft.to/lastmile_qr_scan"}, "name": "4c05714a18e44964b1d8add1219590aa", "is_reserved": 0}, {"is_disabled": 0, "fusion_lon": 0.0, "fusion_lat": 0.0, "lat": 38.9003045, "type": "electric_scooter", "lon": -77.0337215, "bike_id": "3f2a9d64513cdbdeddbe6344e4b15e79", "rental_uris": {"android": "https://dc.lft.to/lastmile_qr_scan", "ios": "https://dc.lft.to/lastmile_qr_scan"}, "name": "3f2a9d64513cdbdeddbe6344e4b15e79", "is_reserved": 0}, {"is_disabled": 0, "fusion_lon": 0.0, "fusion_lat": 0.0, "lat": 38.8977275, "type": "electric_scooter", "lon": -77.05008866666667, "bike_id": "800dff0a8ffc15d7d4f8d37d4e941c93", "rental_uris": {"android": "https://dc.lft.to/lastmile_qr_scan", "ios": "https://dc.lft.to/lastmile_qr_scan"}, "name": "800dff0a8ffc15d7d4f8d37d4e941c93", "is_reserved": 0}, {"is_disabled": 0, "fusion_lon": 0.0, "fusion_lat": 0.0, "lat": 38.916973166666665, "type": "electric_scooter", "lon": -77.03211516666667, "bike_id": "ddf49afddb8b47c7831dde441c50827a", "rental_uris": {"android": "https://dc.lft.to/lastmile_qr_scan", "ios": "https://dc.lft.to/lastmile_qr_scan"}, "name": "ddf49afddb8b47c7831dde441c50827a", "is_reserved": 0}, {"is_disabled": 0, "fusion_lon": 0.0, "fusion_lat": 0.0, "lat": 38.866739833333334, "type": "electric_scooter", "lon": -76.98881483333334, "bike_id": "700fb47617a4a213cbd1ed0f5bea5488", "rental_uris": {"android": "https://dc.lft.to/lastmile_qr_scan", "ios": "https://dc.lft.to/lastmile_qr_scan"}, "name": "700fb47617a4a213cbd1ed0f5bea5488", "is_reserved": 0}, {"is_disabled": 0, "fusion_lon": 0.0, "fusion_lat": 0.0, "lat": 38.878900333333334, "type": "electric_scooter", "lon": -77.00794883333333, "bike_id": "7c1f26c9cafc331f47d02e5d79e25ef1", "rental_uris": {"android": "https://dc.lft.to/lastmile_qr_scan", "ios": "https://dc.lft.to/lastmile_qr_scan"}, "name": "7c1f26c9cafc331f47d02e5d79e25ef1", "is_reserved": 0}, {"is_disabled": 0, "fusion_lon": 0.0, "fusion_lat": 0.0, "lat": 38.882516, "type": "electric_scooter", "lon": -77.003488, "bike_id": "4a5adcda3c0a32eb96fe38d0a2e58b8c", "rental_uris": {"android": "https://dc.lft.to/lastmile_qr_scan", "ios": "https://dc.lft.to/lastmile_qr_scan"}, "name": "4a5adcda3c0a32eb96fe38d0a2e58b8c", "is_reserved": 0}, {"is_disabled": 0, "fusion_lon": 0.0, "fusion_lat": 0.0, "lat": 38.963062, "type": "electric_bike", "lon": -77.05760833333333, "bike_id": "90618692cb83750587cc83eb317b42ad", "rental_uris": {"android": "https://dc.lft.to/lastmile_qr_scan", "ios": "https://dc.lft.to/lastmile_qr_scan"}, "name": "90618692cb83750587cc83eb317b42ad", "is_reserved": 0}, {"is_disabled": 0, "fusion_lon": 0.0, "fusion_lat": 0.0, "lat": 38.879248833333335, "type": "electric_scooter", "lon": -77.0005015, "bike_id": "5c455e7fc3b1410277ee7f373b05d649", "rental_uris": {"android": "https://dc.lft.to/lastmile_qr_scan", "ios": "https://dc.lft.to/lastmile_qr_scan"}, "name": "5c455e7fc3b1410277ee7f373b05d649", "is_reserved": 0}, {"is_disabled": 0, "fusion_lon": 0.0, "fusion_lat": 0.0, "lat": 38.922506, "type": "electric_scooter", "lon": -77.030736, "bike_id": "025d394a460a0adb2fed94f2171b5130", "rental_uris": {"android": "https://dc.lft.to/lastmile_qr_scan", "ios": "https://dc.lft.to/lastmile_qr_scan"}, "name": "025d394a460a0adb2fed94f2171b5130", "is_reserved": 0}, {"is_disabled": 0, "fusion_lon": 0.0, "fusion_lat": 0.0, "lat": 38.9049765, "type": "electric_scooter", "lon": -77.02941133333333, "bike_id": "2beabc2bc129fd229f278fc527a7badd", "rental_uris": {"android": "https://dc.lft.to/lastmile_qr_scan", "ios": "https://dc.lft.to/lastmile_qr_scan"}, "name": "2beabc2bc129fd229f278fc527a7badd", "is_reserved": 0}, {"is_disabled": 0, "fusion_lon": 0.0, "fusion_lat": 0.0, "lat": 38.945497333333336, "type": "electric_scooter", "lon": -77.04239716666666, "bike_id": "d25f8bc6e23d4e28e857e559be13c8d4", "rental_uris": {"android": "https://dc.lft.to/lastmile_qr_scan", "ios": "https://dc.lft.to/lastmile_qr_scan"}, "name": "d25f8bc6e23d4e28e857e559be13c8d4", "is_reserved": 0}, {"is_disabled": 0, "fusion_lon": 0.0, "fusion_lat": 0.0, "lat": 38.901469166666665, "type": "electric_scooter", "lon": -77.03063333333333, "bike_id": "a2020e95f1a5c1536a2c271696ed3adc", "rental_uris": {"android": "https://dc.lft.to/lastmile_qr_scan", "ios": "https://dc.lft.to/lastmile_qr_scan"}, "name": "a2020e95f1a5c1536a2c271696ed3adc", "is_reserved": 0}, {"is_disabled": 0, "fusion_lon": 0.0, "fusion_lat": 0.0, "lat": 39.017355333333334, "type": "electric_bike", "lon": -77.0637985, "bike_id": "b146de2b447d813eb53a892c291ad2b6", "rental_uris": {"android": "https://dc.lft.to/lastmile_qr_scan", "ios": "https://dc.lft.to/lastmile_qr_scan"}, "name": "b146de2b447d813eb53a892c291ad2b6", "is_reserved": 0}, {"is_disabled": 0, "fusion_lon": 0.0, "fusion_lat": 0.0, "lat": 38.87393633333333, "type": "electric_scooter", "lon": -77.00193233333333, "bike_id": "bc059061f15ce51c4812ac1e65ad343e", "rental_uris": {"android": "https://dc.lft.to/lastmile_qr_scan", "ios": "https://dc.lft.to/lastmile_qr_scan"}, "name": "bc059061f15ce51c4812ac1e65ad343e", "is_reserved": 0}, {"is_disabled": 0, "fusion_lon": 0.0, "fusion_lat": 0.0, "lat": 38.91189716666667, "type": "electric_scooter", "lon": -77.03139583333333, "bike_id": "a4f2d7811f473ce85093c268d4da890e", "rental_uris": {"android": "https://dc.lft.to/lastmile_qr_scan", "ios": "https://dc.lft.to/lastmile_qr_scan"}, "name": "a4f2d7811f473ce85093c268d4da890e", "is_reserved": 0}, {"is_disabled": 0, "fusion_lon": 0.0, "fusion_lat": 0.0, "lat": 38.90551, "type": "electric_scooter", "lon": -77.0295575, "bike_id": "dc256f6bb43761e6836119a65a9eb317", "rental_uris": {"android": "https://dc.lft.to/lastmile_qr_scan", "ios": "https://dc.lft.to/lastmile_qr_scan"}, "name": "dc256f6bb43761e6836119a65a9eb317", "is_reserved": 0}, {"is_disabled": 0, "fusion_lon": 0.0, "fusion_lat": 0.0, "lat": 38.833545, "type": "electric_bike", "lon": -76.9656115, "bike_id": "85ed19bab02d5800045c81ae53913e9a", "rental_uris": {"android": "https://dc.lft.to/lastmile_qr_scan", "ios": "https://dc.lft.to/lastmile_qr_scan"}, "name": "85ed19bab02d5800045c81ae53913e9a", "is_reserved": 0}, {"is_disabled": 0, "fusion_lon": 0.0, "fusion_lat": 0.0, "lat": 38.918621333333334, "type": "electric_bike", "lon": -76.9609025, "bike_id": "afd747419022c2e109853191f115832c", "rental_uris": {"android": "https://dc.lft.to/lastmile_qr_scan", "ios": "https://dc.lft.to/lastmile_qr_scan"}, "name": "afd747419022c2e109853191f115832c", "is_reserved": 0}, {"is_disabled": 0, "fusion_lon": 0.0, "fusion_lat": 0.0, "lat": 38.95062266666667, "type": "electric_bike", "lon": -76.96735216666667, "bike_id": "185b65c9ad96de95260ee9b771b73254", "rental_uris": {"android": "https://dc.lft.to/lastmile_qr_scan", "ios": "https://dc.lft.to/lastmile_qr_scan"}, "name": "185b65c9ad96de95260ee9b771b73254", "is_reserved": 0}, {"is_disabled": 0, "fusion_lon": 0.0, "fusion_lat": 0.0, "lat": 38.998907833333334, "type": "electric_bike", "lon": -77.028745, "bike_id": "355c3a8ebde0d9283bfa47c3ada386fd", "rental_uris": {"android": "https://dc.lft.to/lastmile_qr_scan", "ios": "https://dc.lft.to/lastmile_qr_scan"}, "name": "355c3a8ebde0d9283bfa47c3ada386fd", "is_reserved": 0}, {"is_disabled": 0, "fusion_lon": 0.0, "fusion_lat": 0.0, "lat": 38.89729166666667, "type": "electric_scooter", "lon": -77.04682033333333, "bike_id": "ba14a788c77e33f80cc7ac35037355f6", "rental_uris": {"android": "https://dc.lft.to/lastmile_qr_scan", "ios": "https://dc.lft.to/lastmile_qr_scan"}, "name": "ba14a788c77e33f80cc7ac35037355f6", "is_reserved": 0}, {"is_disabled": 0, "fusion_lon": 0.0, "fusion_lat": 0.0, "lat": 38.9087025, "type": "electric_scooter", "lon": -77.026875, "bike_id": "5c83ba1886b916591547f0bda5b988e4", "rental_uris": {"android": "https://dc.lft.to/lastmile_qr_scan", "ios": "https://dc.lft.to/lastmile_qr_scan"}, "name": "5c83ba1886b916591547f0bda5b988e4", "is_reserved": 0}, {"is_disabled": 0, "fusion_lon": 0.0, "fusion_lat": 0.0, "lat": 38.899103833333335, "type": "electric_scooter", "lon": -77.039429, "bike_id": "1596f32435d9221e41bcfe0d60bb3fae", "rental_uris": {"android": "https://dc.lft.to/lastmile_qr_scan", "ios": "https://dc.lft.to/lastmile_qr_scan"}, "name": "1596f32435d9221e41bcfe0d60bb3fae", "is_reserved": 0}, {"is_disabled": 0, "fusion_lon": 0.0, "fusion_lat": 0.0, "lat": 38.90839, "type": "electric_scooter", "lon": -77.04323533333333, "bike_id": "64252814d5cf619be4c9190efbeaa31d", "rental_uris": {"android": "https://dc.lft.to/lastmile_qr_scan", "ios": "https://dc.lft.to/lastmile_qr_scan"}, "name": "64252814d5cf619be4c9190efbeaa31d", "is_reserved": 0}, {"is_disabled": 0, "fusion_lon": 0.0, "fusion_lat": 0.0, "lat": 38.95127333333333, "type": "electric_scooter", "lon": -77.01402233333333, "bike_id": "413e7a5afbbf1cc88f7d281d8f423906", "rental_uris": {"android": "https://dc.lft.to/lastmile_qr_scan", "ios": "https://dc.lft.to/lastmile_qr_scan"}, "name": "413e7a5afbbf1cc88f7d281d8f423906", "is_reserved": 0}, {"is_disabled": 0, "fusion_lon": 0.0, "fusion_lat": 0.0, "lat": 38.926165833333336, "type": "electric_scooter", "lon": -77.02162283333334, "bike_id": "9663f0d168879fef16c1fe351f39ee9a", "rental_uris": {"android": "https://dc.lft.to/lastmile_qr_scan", "ios": "https://dc.lft.to/lastmile_qr_scan"}, "name": "9663f0d168879fef16c1fe351f39ee9a", "is_reserved": 0}, {"is_disabled": 0, "fusion_lon": 0.0, "fusion_lat": 0.0, "lat": 38.923339166666665, "type": "electric_scooter", "lon": -77.03666316666667, "bike_id": "443e7ad85ee12e6645b1033ff975bcb4", "rental_uris": {"android": "https://dc.lft.to/lastmile_qr_scan", "ios": "https://dc.lft.to/lastmile_qr_scan"}, "name": "443e7ad85ee12e6645b1033ff975bcb4", "is_reserved": 0}, {"is_disabled": 0, "fusion_lon": 0.0, "fusion_lat": 0.0, "lat": 38.897000166666665, "type": "electric_scooter", "lon": -77.050286, "bike_id": "0872c5c859e57e05384d7aef2c8089f5", "rental_uris": {"android": "https://dc.lft.to/lastmile_qr_scan", "ios": "https://dc.lft.to/lastmile_qr_scan"}, "name": "0872c5c859e57e05384d7aef2c8089f5", "is_reserved": 0}, {"is_disabled": 0, "fusion_lon": 0.0, "fusion_lat": 0.0, "lat": 38.91405533333333, "type": "electric_scooter", "lon": -77.0420995, "bike_id": "2c51de21c3990948772ab8942897dd4b", "rental_uris": {"android": "https://dc.lft.to/lastmile_qr_scan", "ios": "https://dc.lft.to/lastmile_qr_scan"},