{"data": {"bikes": [{"fusion_lat": 0.0, "is_reserved": 0, "is_disabled": 0, "rental_uris": {"android": "https://dc.lft.to/lastmile_qr_scan", "ios": "https://dc.lft.to/lastmile_qr_scan"}, "fusion_lon": 0.0, "lat": 38.9049095, "lon": -77.06787066666666, "type": "electric_scooter", "bike_id": "58150948922cb0378b48c61ad820b06d", "name": "58150948922cb0378b48c61ad820b06d"}, {"fusion_lat": 0.0, "is_reserved": 0, "is_disabled": 0, "rental_uris": {"android": "https://dc.lft.to/lastmile_qr_scan", "ios": "https://dc.lft.to/lastmile_qr_scan"}, "fusion_lon": 0.0, "lat": 38.908242333333334, "lon": -77.03426033333334, "type": "electric_scooter", "bike_id": "5f446f78f1ff69b7b641b067c2ecbb36", "name": "5f446f78f1ff69b7b641b067c2ecbb36"}, {"fusion_lat": 0.0, "is_reserved": 0, "is_disabled": 0, "rental_uris": {"android": "https://dc.lft.to/lastmile_qr_scan", "ios": "https://dc.lft.to/lastmile_qr_scan"}, "fusion_lon": 0.0, "lat": 38.872015166666664, "lon": -77.0061035, "type": "electric_scooter", "bike_id": "2456fa17907b3f12235d0287151dd0ae", "name": "2456fa17907b3f12235d0287151dd0ae"}, {"fusion_lat": 0.0, "is_reserved": 0, "is_disabled": 0, "rental_uris": {"android": "https://dc.lft.to/lastmile_qr_scan", "ios": "https://dc.lft.to/lastmile_qr_scan"}, "fusion_lon": 0.0, "lat": 38.9105465, "lon": -77.01524516666667, "type": "electric_scooter", "bike_id": "ac0c5d8867de16904211bafcffeb2723", "name": "ac0c5d8867de16904211bafcffeb2723"}, {"fusion_lat": 0.0, "is_reserved": 0, "is_disabled": 0, "rental_uris": {"android": "https://dc.lft.to/lastmile_qr_scan", "ios": "https://dc.lft.to/lastmile_qr_scan"}, "fusion_lon": 0.0, "lat": 38.87488716666667, "lon": -77.0012015, "type": "electric_scooter", "bike_id": "29bf8c8944a72b4862e4cd367a7e50bd", "name": "29bf8c8944a72b4862e4cd367a7e50bd"}, {"fusion_lat": 0.0, "is_reserved": 0, "is_disabled": 0, "rental_uris": {"android": "https://dc.lft.to/lastmile_qr_scan", "ios": "https://dc.lft.to/lastmile_qr_scan"}, "fusion_lon": 0.0, "lat": 38.905297, "lon": -77.05229166666666, "type": "electric_scooter", "bike_id": "957810910dfe12f2957b712e1072f4b0", "name": "957810910dfe12f2957b712e1072f4b0"}, {"fusion_lat": 0.0, "is_reserved": 0, "is_disabled": 0, "rental_uris": {"android": "https://dc.lft.to/lastmile_qr_scan", "ios": "https://dc.lft.to/lastmile_qr_scan"}, "fusion_lon": 0.0, "lat": 38.885182666666665, "lon": -77.01584933333334, "type": "electric_scooter", "bike_id": "020f0b44b273ea36bad3a6816906563b", "name": "020f0b44b273ea36bad3a6816906563b"}, {"fusion_lat": 0.0, "is_reserved": 0, "is_disabled": 0, "rental_uris": {"android": "https://dc.lft.to/lastmile_qr_scan", "ios": "https://dc.lft.to/lastmile_qr_scan"}, "fusion_lon": 0.0, "lat": 38.9182935, "lon": -77.0383675, "type": "electric_scooter", "bike_id": "b235bb204c6737f267c94e6d069beba7", "name": "b235bb204c6737f267c94e6d069beba7"}, {"fusion_lat": 0.0, "is_reserved": 0, "is_disabled": 0, "rental_uris": {"android": "https://dc.lft.to/lastmile_qr_scan", "ios": "https://dc.lft.to/lastmile_qr_scan"}, "fusion_lon": 0.0, "lat": 38.90510183333333, "lon": -77.06658083333333, "type": "electric_scooter", "bike_id": "d8dd11b03f301aa2b28141ba33ab79bb", "name": "d8dd11b03f301aa2b28141ba33ab79bb"}, {"fusion_lat": 0.0, "is_reserved": 0, "is_disabled": 0, "rental_uris": {"android": "https://dc.lft.to/lastmile_qr_scan", "ios": "https://dc.lft.to/lastmile_qr_scan"}, "fusion_lon": 0.0, "lat": 38.892354, "lon": -77.04645166666667, "type": "electric_scooter", "bike_id": "5aa681210ee1eab62ac0e9f73303c086", "name": "5aa681210ee1eab62ac0e9f73303c086"}, {"fusion_lat": 0.0, "is_reserved": 0, "is_disabled": 0, "rental_uris": {"android": "https://dc.lft.to/lastmile_qr_scan", "ios": "https://dc.lft.to/lastmile_qr_scan"}, "fusion_lon": 0.0, "lat": 38.956365, "lon": -77.033059, "type": "electric_scooter", "bike_id": "a43505a55a42e61efb5e0c818545cb54", "name": "a43505a55a42e61efb5e0c818545cb54"}, {"fusion_lat": 0.0, "is_reserved": 0, "is_disabled": 0, "rental_uris": {"android": "https://dc.lft.to/lastmile_qr_scan", "ios": "https://dc.lft.to/lastmile_qr_scan"}, "fusion_lon": 0.0, "lat": 38.909608166666665, "lon": -77.04652433333334, "type": "electric_scooter", "bike_id": "558ae8b9f0acc9112bfb71e30359c810", "name": "558ae8b9f0acc9112bfb71e30359c810"}, {"fusion_lat": 0.0, "is_reserved": 0, "is_disabled": 0, "rental_uris": {"android": "https://dc.lft.to/lastmile_qr_scan", "ios": "https://dc.lft.to/lastmile_qr_scan"}, "fusion_lon": 0.0, "lat": 38.923495833333334, "lon": -77.05072683333333, "type": "electric_scooter", "bike_id": "aefddc6b2ed103cf432b30f84bd3120e", "name": "aefddc6b2ed103cf432b30f84bd3120e"}, {"fusion_lat": 0.0, "is_reserved": 0, "is_disabled": 0, "rental_uris": {"android": "https://dc.lft.to/lastmile_qr_scan", "ios": "https://dc.lft.to/lastmile_qr_scan"}, "fusion_lon": 0.0, "lat": 38.9378225, "lon": -77.02439883333334, "type": "electric_scooter", "bike_id": "e3ae761092e1b7c4ba097a7d29c8ffc8", "name": "e3ae761092e1b7c4ba097a7d29c8ffc8"}, {"fusion_lat": 0.0, "is_reserved": 0, "is_disabled": 0, "rental_uris": {"android": "https://dc.lft.to/lastmile_qr_scan", "ios": "https://dc.lft.to/lastmile_qr_scan"}, "fusion_lon": 0.0, "lat": 38.92513533333333, "lon": -77.02150666666667, "type": "electric_scooter", "bike_id": "5eee9f653248f0d8c0b7632df51cf60a", "name": "5eee9f653248f0d8c0b7632df51cf60a"}, {"fusion_lat": 0.0, "is_reserved": 0, "is_disabled": 0, "rental_uris": {"android": "https://dc.lft.to/lastmile_qr_scan", "ios": "https://dc.lft.to/lastmile_qr_scan"}, "fusion_lon": 0.0, "lat": 38.892245333333335, "lon": -77.0464605, "type": "electric_scooter", "bike_id": "0123d6ddb048377b15f10982bd0ab7fe", "name": "0123d6ddb048377b15f10982bd0ab7fe"}, {"fusion_lat": 0.0, "is_reserved": 0, "is_disabled": 0, "rental_uris": {"android": "https://dc.lft.to/lastmile_qr_scan", "ios": "https://dc.lft.to/lastmile_qr_scan"}, "fusion_lon": 0.0, "lat": 38.893593333333335, "lon": -76.94963033333333, "type": "electric_scooter", "bike_id": "97bba07e0400357b289f5a619d6338e5", "name": "97bba07e0400357b289f5a619d6338e5"}, {"fusion_lat": 0.0, "is_reserved": 0, "is_disabled": 0, "rental_uris": {"android": "https://dc.lft.to/lastmile_qr_scan", "ios": "https://dc.lft.to/lastmile_qr_scan"}, "fusion_lon": 0.0, "lat": 38.89668616666667, "lon": -77.0258085, "type": "electric_scooter", "bike_id": "a671cbedecaaf8f63448d486b4d1f73d", "name": "a671cbedecaaf8f63448d486b4d1f73d"}, {"fusion_lat": 0.0, "is_reserved": 0, "is_disabled": 0, "rental_uris": {"android": "https://dc.lft.to/lastmile_qr_scan", "ios": "https://dc.lft.to/lastmile_qr_scan"}, "fusion_lon": 0.0, "lat": 38.905779833333334, "lon": -77.03064083333334, "type": "electric_scooter", "bike_id": "a11b9da5ae9282145e854f2ddb72e959", "name": "a11b9da5ae9282145e854f2ddb72e959"}, {"fusion_lat": 0.0, "is_reserved": 0, "is_disabled": 0, "rental_uris": {"android": "https://dc.lft.to/lastmile_qr_scan", "ios": "https://dc.lft.to/lastmile_qr_scan"}, "fusion_lon": 0.0, "lat": 38.8980505, "lon": -77.03301933333333, "type": "electric_scooter", "bike_id": "1e95980d707d143d6d14dbf86b3cc9e3", "name": "1e95980d707d143d6d14dbf86b3cc9e3"}, {"fusion_lat": 0.0, "is_reserved": 0, "is_disabled": 0, "rental_uris": {"android": "https://dc.lft.to/lastmile_qr_scan", "ios": "https://dc.lft.to/lastmile_qr_scan"}, "fusion_lon": 0.0, "lat": 38.93286766666667, "lon": -77.0397025, "type": "electric_scooter", "bike_id": "193017488f10cae3960af69dfc433da6", "name": "193017488f10cae3960af69dfc433da6"}, {"fusion_lat": 0.0, "is_reserved": 0, "is_disabled": 0, "rental_uris": {"android": "https://dc.lft.to/lastmile_qr_scan", "ios": "https://dc.lft.to/lastmile_qr_scan"}, "fusion_lon": 0.0, "lat": 38.89622133333334, "lon": -76.9985385, "type": "electric_scooter", "bike_id": "5d5d2c87acb745b5b0bfa81bd91922f2", "name": "5d5d2c87acb745b5b0bfa81bd91922f2"}, {"fusion_lat": 0.0, "is_reserved": 0, "is_disabled": 0, "rental_uris": {"android": "https://dc.lft.to/lastmile_qr_scan", "ios": "https://dc.lft.to/lastmile_qr_scan"}, "fusion_lon": 0.0, "lat": 38.928502, "lon": -77.05418333333333, "type": "electric_scooter", "bike_id": "8b7d57906dddd4d8921caf53d1be078a", "name": "8b7d57906dddd4d8921caf53d1be078a"}, {"fusion_lat": 0.0, "is_reserved": 0, "is_disabled": 0, "rental_uris": {"android": "https://dc.lft.to/lastmile_qr_scan", "ios": "https://dc.lft.to/lastmile_qr_scan"}, "fusion_lon": 0.0, "lat": 38.9259395, "lon": -77.03221433333333, "type": "electric_scooter", "bike_id": "83ec2e9b1d102829c7136303d6a7e09a", "name": "83ec2e9b1d102829c7136303d6a7e09a"}, {"fusion_lat": 0.0, "is_reserved": 0, "is_disabled": 0, "rental_uris": {"android": "https://dc.lft.to/lastmile_qr_scan", "ios": "https://dc.lft.to/lastmile_qr_scan"}, "fusion_lon": 0.0, "lat": 38.920219, "lon": -77.03128816666667, "type": "electric_scooter", "bike_id": "c58ce48e43a89f8c0d1e071cb8a4747f", "name": "c58ce48e43a89f8c0d1e071cb8a4747f"}, {"fusion_lat": 0.0, "is_reserved": 0, "is_disabled": 0, "rental_uris": {"android": "https://dc.lft.to/lastmile_qr_scan", "ios": "https://dc.lft.to/lastmile_qr_scan"}, "fusion_lon": 0.0, "lat": 38.89497716666666, "lon": -77.02286183333334, "type": "electric_scooter", "bike_id": "6cc3cf75d7a3f1a0fe0f7f925a8636a1", "name": "6cc3cf75d7a3f1a0fe0f7f925a8636a1"}, {"fusion_lat": 0.0, "is_reserved": 0, "is_disabled": 0, "rental_uris": {"android": "https://dc.lft.to/lastmile_qr_scan", "ios": "https://dc.lft.to/lastmile_qr_scan"}, "fusion_lon": 0.0, "lat": 38.896443166666664, "lon": -77.02665433333334, "type": "electric_scooter", "bike_id": "7fb9dc452540468efca2f7e893180b86", "name": "7fb9dc452540468efca2f7e893180b86"}, {"fusion_lat": 0.0, "is_reserved": 0, "is_disabled": 0, "rental_uris": {"android": "https://dc.lft.to/lastmile_qr_scan", "ios": "https://dc.lft.to/lastmile_qr_scan"}, "fusion_lon": 0.0, "lat": 38.84661216666667, "lon": -76.979304, "type": "electric_bike", "bike_id": "551b982f0f21d10b14ab39e310a23235", "name": "551b982f0f21d10b14ab39e310a23235"}, {"fusion_lat": 0.0, "is_reserved": 0, "is_disabled": 0, "rental_uris": {"android": "https://dc.lft.to/lastmile_qr_scan", "ios": "https://dc.lft.to/lastmile_qr_scan"}, "fusion_lon": 0.0, "lat": 38.869174, "lon": -77.13175733333334, "type": "electric_bike", "bike_id": "de5cbbbea95ef9df844726b50b433fb9", "name": "de5cbbbea95ef9df844726b50b433fb9"}, {"fusion_lat": 0.0, "is_reserved": 0, "is_disabled": 0, "rental_uris": {"android": "https://dc.lft.to/lastmile_qr_scan", "ios": "https://dc.lft.to/lastmile_qr_scan"}, "fusion_lon": 0.0, "lat": 38.9111355, "lon": -77.04840833333333, "type": "electric_scooter", "bike_id": "6c34b49a70b21341d2eadc1b5266d79b", "name": "6c34b49a70b21341d2eadc1b5266d79b"}, {"fusion_lat": 0.0, "is_reserved": 0, "is_disabled": 0, "rental_uris": {"android": "https://dc.lft.to/lastmile_qr_scan", "ios": "https://dc.lft.to/lastmile_qr_scan"}, "fusion_lon": 0.0, "lat": 38.871857166666665, "lon": -77.08406133333334, "type": "electric_bike", "bike_id": "4d26092463a7f4ec00ee39ff48263531", "name": "4d26092463a7f4ec00ee39ff48263531"}, {"fusion_lat": 0.0, "is_reserved": 0, "is_disabled": 0, "rental_uris": {"android": "https://dc.lft.to/lastmile_qr_scan", "ios": "https://dc.lft.to/lastmile_qr_scan"}, "fusion_lon": 0.0, "lat": 38.91553116666667, "lon": -77.03178733333333, "type": "electric_scooter", "bike_id": "5d91ff7a44f826103244467754ef7c4b", "name": "5d91ff7a44f826103244467754ef7c4b"}, {"fusion_lat": 0.0, "is_reserved": 0, "is_disabled": 0, "rental_uris": {"android": "https://dc.lft.to/lastmile_qr_scan", "ios": "https://dc.lft.to/lastmile_qr_scan"}, "fusion_lon": 0.0, "lat": 38.89625733333333, "lon": -77.02802266666667, "type": "electric_scooter", "bike_id": "611c085d832626092e7b0d97b08c53b5", "name": "611c085d832626092e7b0d97b08c53b5"}, {"fusion_lat": 0.0, "is_reserved": 0, "is_disabled": 0, "rental_uris": {"android": "https://dc.lft.to/lastmile_qr_scan", "ios": "https://dc.lft.to/lastmile_qr_scan"}, "fusion_lon": 0.0, "lat": 38.922896, "lon": -77.03662183333333, "type": "electric_scooter", "bike_id": "2bd9f6a0a0d371d4b4f3a266fce5cba7", "name": "2bd9f6a0a0d371d4b4f3a266fce5cba7"}, {"fusion_lat": 0.0, "is_reserved": 0, "is_disabled": 0, "rental_uris": {"android": "https://dc.lft.to/lastmile_qr_scan", "ios": "https://dc.lft.to/lastmile_qr_scan"}, "fusion_lon": 0.0, "lat": 38.88733883333333, "lon": -77.01385333333333, "type": "electric_scooter", "bike_id": "8d1d4d405a01fdaea5f6272923069e5e", "name": "8d1d4d405a01fdaea5f6272923069e5e"}, {"fusion_lat": 0.0, "is_reserved": 0, "is_disabled": 0, "rental_uris": {"android": "https://dc.lft.to/lastmile_qr_scan", "ios": "https://dc.lft.to/lastmile_qr_scan"}, "fusion_lon": 0.0, "lat": 38.92298916666667, "lon": -77.02244383333333, "type": "electric_scooter", "bike_id": "6091436354fbd675f2eade78c4b9a01b", "name": "6091436354fbd675f2eade78c4b9a01b"}, {"fusion_lat": 0.0, "is_reserved": 0, "is_disabled": 0, "rental_uris": {"android": "https://dc.lft.to/lastmile_qr_scan", "ios": "https://dc.lft.to/lastmile_qr_scan"}, "fusion_lon": 0.0, "lat": 38.862679166666666, "lon": -76.99228466666666, "type": "electric_scooter", "bike_id": "d9dc1817d2b7bb52449512e56cf572d8", "name": "d9dc1817d2b7bb52449512e56cf572d8"}, {"fusion_lat": 0.0, "is_reserved": 0, "is_disabled": 0, "rental_uris": {"android": "https://dc.lft.to/lastmile_qr_scan", "ios": "https://dc.lft.to/lastmile_qr_scan"}, "fusion_lon": 0.0, "lat": 38.9417645, "lon": -77.0253525, "type": "electric_scooter", "bike_id": "690bc018efcfe7ce63e7ff3863515292", "name": "690bc018efcfe7ce63e7ff3863515292"}, {"fusion_lat": 0.0, "is_reserved": 0, "is_disabled": 0, "rental_uris": {"android": "https://dc.lft.to/lastmile_qr_scan", "ios": "https://dc.lft.to/lastmile_qr_scan"}, "fusion_lon": 0.0, "lat": 38.94171933333333, "lon": -77.023386, "type": "electric_scooter", "bike_id": "a2d07cfb47df90a5499c6f1b4913780b", "name": "a2d07cfb47df90a5499c6f1b4913780b"}, {"fusion_lat": 0.0, "is_reserved": 0, "is_disabled": 0, "rental_uris": {"android": "https://dc.lft.to/lastmile_qr_scan", "ios": "https://dc.lft.to/lastmile_qr_scan"}, "fusion_lon": 0.0, "lat": 38.92117833333333, "lon": -77.01801983333333, "type": "electric_scooter", "bike_id": "b2f1cf8b02d3ddf9142d22def40bf3cd", "name": "b2f1cf8b02d3ddf9142d22def40bf3cd"}, {"fusion_lat": 0.0, "is_reserved": 0, "is_disabled": 0, "rental_uris": {"android": "https://dc.lft.to/lastmile_qr_scan", "ios": "https://dc.lft.to/lastmile_qr_scan"}, "fusion_lon": 0.0, "lat": 38.91940266666667, "lon": -77.031804, "type": "electric_scooter", "bike_id": "a6cfa6abb45e5fbd771fcaaa4f788857", "name": "a6cfa6abb45e5fbd771fcaaa4f788857"}, {"fusion_lat": 0.0, "is_reserved": 0, "is_disabled": 0, "rental_uris": {"android": "https://dc.lft.to/lastmile_qr_scan", "ios": "https://dc.lft.to/lastmile_qr_scan"}, "fusion_lon": 0.0, "lat": 38.931027666666665, "lon": -76.967251, "type": "electric_scooter", "bike_id": "d5554ddd4a4b5b2b9dd4ba5dab8dfa14", "name": "d5554ddd4a4b5b2b9dd4ba5dab8dfa14"}, {"fusion_lat": 0.0, "is_reserved": 0, "is_disabled": 0, "rental_uris": {"android": "https://dc.lft.to/lastmile_qr_scan", "ios": "https://dc.lft.to/lastmile_qr_scan"}, "fusion_lon": 0.0, "lat": 38.900649333333334, "lon": -77.01368283333333, "type": "electric_scooter", "bike_id": "f8c5fb99e37baf1d6a6bee502dd6c5b1", "name": "f8c5fb99e37baf1d6a6bee502dd6c5b1"}, {"fusion_lat": 0.0, "is_reserved": 0, "is_disabled": 0, "rental_uris": {"android": "https://dc.lft.to/lastmile_qr_scan", "ios": "https://dc.lft.to/lastmile_qr_scan"}, "fusion_lon": 0.0, "lat": 38.904971, "lon": -77.06286666666666, "type": "electric_scooter", "bike_id": "bcd0cf4530c5208598fd07fce1b79fb9", "name": "bcd0cf4530c5208598fd07fce1b79fb9"}, {"fusion_lat": 0.0, "is_reserved": 0, "is_disabled": 0, "rental_uris": {"android": "https://dc.lft.to/lastmile_qr_scan", "ios": "https://dc.lft.to/lastmile_qr_scan"}, "fusion_lon": 0.0, "lat": 38.91897183333333, "lon": -77.04151533333334, "type": "electric_scooter", "bike_id": "ff55735320df76bd3eac0d466890c599", "name": "ff55735320df76bd3eac0d466890c599"}, {"fusion_lat": 0.0, "is_reserved": 0, "is_disabled": 0, "rental_uris": {"android": "https://dc.lft.to/lastmile_qr_scan", "ios": "https://dc.lft.to/lastmile_qr_scan"}, "fusion_lon": 0.0, "lat": 38.917041, "lon": -77.03272816666667, "type": "electric_scooter", "bike_id": "e925fbeabc4434f7fda8aabff437a4b2", "name": "e925fbeabc4434f7fda8aabff437a4b2"}, {"fusion_lat": 0.0, "is_reserved": 0, "is_disabled": 0, "rental_uris": {"android": "https://dc.lft.to/lastmile_qr_scan", "ios": "https://dc.lft.to/lastmile_qr_scan"}, "fusion_lon": 0.0, "lat": 38.93241233333333, "lon": -77.0327745, "type": "electric_scooter", "bike_id": "6285d1ded2cf86c3fb6db3ac87f9552c", "name": "6285d1ded2cf86c3fb6db3ac87f9552c"}, {"fusion_lat": 0.0, "is_reserved": 0, "is_disabled": 0, "rental_uris": {"android": "https://dc.lft.to/lastmile_qr_scan", "ios": "https://dc.lft.to/lastmile_qr_scan"}, "fusion_lon": 0.0, "lat": 38.887475, "lon": -77.02160283333333, "type": "electric_scooter", "bike_id": "df7ed51dbd262cdba05313fa6df59b68", "name": "df7ed51dbd262cdba05313fa6df59b68"}, {"fusion_lat": 0.0, "is_reserved": 0, "is_disabled": 0, "rental_uris": {"android": "https://dc.lft.to/lastmile_qr_scan", "ios": "https://dc.lft.to/lastmile_qr_scan"}, "fusion_lon": 0.0, "lat": 38.915581333333336, "lon": -77.03177566666666, "type": "electric_scooter", "bike_id": "225ff66817770b83f4abecf23e03b771", "name": "225ff66817770b83f4abecf23e03b771"}, {"fusion_lat": 0.0, "is_reserved": 0, "is_disabled": 0, "rental_uris": {"android": "https://dc.lft.to/lastmile_qr_scan", "ios": "https://dc.lft.to/lastmile_qr_scan"}, "fusion_lon": 0.0, "lat": 38.93138016666666, "lon": -77.05608916666667, "type": "electric_scooter", "bike_id": "a7c3e0cd09c20255a9a885b851bceeb6", "name": "a7c3e0cd09c20255a9a885b851bceeb6"}, {"fusion_lat": 0.0, "is_reserved": 0, "is_disabled": 0, "rental_uris": {"android": "https://dc.lft.to/lastmile_qr_scan", "ios": "https://dc.lft.to/lastmile_qr_scan"}, "fusion_lon": 0.0, "lat": 38.90258633333333, "lon": -77.01747133333333, "type": "electric_scooter", "bike_id": "bff65bb71bf6802a05de40789cc5cc06", "name": "bff65bb71bf6802a05de40789cc5cc06"}, {"fusion_lat": 0.0, "is_reserved": 0, "is_disabled": 0, "rental_uris": {"android": "https://dc.lft.to/lastmile_qr_scan", "ios": "https://dc.lft.to/lastmile_qr_scan"}, "fusion_lon": 0.0, "lat": 38.876575333333335, "lon": -77.004437, "type": "electric_scooter", "bike_id": "70b4df60f3b2c1a41fbc5395682ed7fb", "name": "70b4df60f3b2c1a41fbc5395682ed7fb"}, {"fusion_lat": 0.0, "is_reserved": 0, "is_disabled": 0, "rental_uris": {"android": "https://dc.lft.to/lastmile_qr_scan", "ios": "https://dc.lft.to/lastmile_qr_scan"}, "fusion_lon": 0.0, "lat": 38.920292333333336, "lon": -77.0180985, "type": "electric_scooter", "bike_id": "54468a948e0d4bd8705ae233a6a94a4f", "name": "54468a948e0d4bd8705ae233a6a94a4f"}, {"fusion_lat": 0.0, "is_reserved": 0, "is_disabled": 0, "rental_uris": {"android": "https://dc.lft.to/lastmile_qr_scan", "ios": "https://dc.lft.to/lastmile_qr_scan"}, "fusion_lon": 0.0, "lat": 38.9037855, "lon": -77.007611, "type": "electric_scooter", "bike_id": "24fa0fa925a17c76f30354a7370fee09", "name": "24fa0fa925a17c76f30354a7370fee09"}, {"fusion_lat": 0.0, "is_reserved": 0, "is_disabled": 0, "rental_uris": {"android": "https://dc.lft.to/lastmile_qr_scan", "ios": "https://dc.lft.to/lastmile_qr_scan"}, "fusion_lon": 0.0, "lat": 38.89964, "lon": -77.05174616666666, "type": "electric_scooter", "bike_id": "6f776d996fa7f332b4a6a53656988a40", "name": "6f776d996fa7f332b4a6a53656988a40"}, {"fusion_lat": 0.0, "is_reserved": 0, "is_disabled": 0, "rental_uris": {"android": "https://dc.lft.to/lastmile_qr_scan", "ios": "https://dc.lft.to/lastmile_qr_scan"}, "fusion_lon": 0.0, "lat": 38.90062616666667, "lon": -77.05042116666667, "type": "electric_scooter", "bike_id": "bbb80ca2588c33325212e598c54b2a40", "name": "bbb80ca2588c33325212e598c54b2a40"}, {"fusion_lat": 0.0, "is_reserved": 0, "is_disabled": 0, "rental_uris": {"android": "https://dc.lft.to/lastmile_qr_scan", "ios": "https://dc.lft.to/lastmile_qr_scan"}, "fusion_lon": 0.0, "lat": 38.926406166666666, "lon": -77.03784383333333, "type": "electric_scooter", "bike_id": "2e67450495d11ba2fd83efc7870bf206", "name": "2e67450495d11ba2fd83efc7870bf206"}, {"fusion_lat": 0.0, "is_reserved": 0, "is_disabled": 0, "rental_uris": {"android": "https://dc.lft.to/lastmile_qr_scan", "ios": "https://dc.lft.to/lastmile_qr_scan"}, "fusion_lon": 0.0, "lat": 38.89740716666667, "lon": -77.04682783333334, "type": "electric_scooter", "bike_id": "b7e1940c66071f43056373fb812eae2d", "name": "b7e1940c66071f43056373fb812eae2d"}, {"fusion_lat": 0.0, "is_reserved": 0, "is_disabled": 0, "rental_uris": {"android": "https://dc.lft.to/lastmile_qr_scan", "ios": "https://dc.lft.to/lastmile_qr_scan"}, "fusion_lon": 0.0, "lat": 38.922611333333336, "lon": -77.034027, "type": "electric_scooter", "bike_id": "68bd68f1bbb564ff2255794d9d6339d7", "name": "68bd68f1bbb564ff2255794d9d6339d7"}, {"fusion_lat": 0.0, "is_reserved": 0, "is_disabled": 0, "rental_uris": {"android": "https://dc.lft.to/lastmile_qr_scan", "ios": "https://dc.lft.to/lastmile_qr_scan"}, "fusion_lon": 0.0, "lat": 38.916258666666664, "lon": -77.039564, "type": "electric_scooter", "bike_id": "130b6d46ed557a138d09f1be7ca6ab02", "name": "130b6d46ed557a138d09f1be7ca6ab02"}, {"fusion_lat": 0.0, "is_reserved": 0, "is_disabled": 0, "rental_uris": {"android": "https://dc.lft.to/lastmile_qr_scan", "ios": "https://dc.lft.to/lastmile_qr_scan"}, "fusion_lon": 0.0, "lat": 38.92264016666667, "lon": -77.04127, "type": "electric_scooter", "bike_id": "3e9845d8362cdb5c896eb1b30dc945b7", "name": "3e9845d8362cdb5c896eb1b30dc945b7"}, {"fusion_lat": 0.0, "is_reserved": 0, "is_disabled": 0, "rental_uris": {"android": "https://dc.lft.to/lastmile_qr_scan", "ios": "https://dc.lft.to/lastmile_qr_scan"}, "fusion_lon": 0.0, "lat": 38.89614366666667, "lon": -77.044933, "type": "electric_scooter", "bike_id": "5c875fbb5fb56230e3df50625aa39ff9", "name": "5c875fbb5fb56230e3df50625aa39ff9"}, {"fusion_lat": 0.0, "is_reserved": 0, "is_disabled": 0, "rental_uris": {"android": "https://dc.lft.to/lastmile_qr_scan", "ios": "https://dc.lft.to/lastmile_qr_scan"}, "fusion_lon": 0.0, "lat": 38.8926605, "lon": -76.94156, "type": "electric_scooter", "bike_id": "ff679792907a506c8152af69a20f03e8", "name": "ff679792907a506c8152af69a20f03e8"}, {"fusion_lat": 0.0, "is_reserved": 0, "is_disabled": 0, "rental_uris": {"android": "https://dc.lft.to/lastmile_qr_scan", "ios": "https://dc.lft.to/lastmile_qr_scan"}, "fusion_lon": 0.0, "lat": 38.874778666666664, "lon": -77.01069166666667, "type": "electric_scooter", "bike_id": "bff71226398517ec23370d03c1f6c7d8", "name": "bff71226398517ec23370d03c1f6c7d8"}, {"fusion_lat": 0.0, "is_reserved": 0, "is_disabled": 0, "rental_uris": {"android": "https://dc.lft.to/lastmile_qr_scan", "ios": "https://dc.lft.to/lastmile_qr_scan"}, "fusion_lon": 0.0, "lat": 38.86432816666667, "lon": -76.97362, "type": "electric_scooter", "bike_id": "3f66f49fe20530cd08ca41c722f42092", "name": "3f66f49fe20530cd08ca41c722f42092"}, {"fusion_lat": 0.0, "is_reserved": 0, "is_disabled": 0, "rental_uris": {"android": "https://dc.lft.to/lastmile_qr_scan", "ios": "https://dc.lft.to/lastmile_qr_scan"}, "fusion_lon": 0.0, "lat": 38.90272133333333, "lon": -77.03887983333334, "type": "electric_scooter", "bike_id": "ad394364b2f4aa99b96d623396a50c0e", "name": "ad394364b2f4aa99b96d623396a50c0e"}, {"fusion_lat": 0.0, "is_reserved": 0, "is_disabled": 0, "rental_uris": {"android": "https://dc.lft.to/lastmile_qr_scan", "ios": "https://dc.lft.to/lastmile_qr_scan"}, "fusion_lon": 0.0, "lat": 38.892269, "lon": -77.0265015, "type": "electric_scooter", "bike_id": "1f806b7239c7811313fff1e953e85989", "name": "1f806b7239c7811313fff1e953e85989"}, {"fusion_lat": 0.0, "is_reserved": 0, "is_disabled": 0, "rental_uris": {"android": "https://dc.lft.to/lastmile_qr_scan", "ios": "https://dc.lft.to/lastmile_qr_scan"}, "fusion_lon": 0.0, "lat": 38.88436166666666, "lon": -76.95755666666666, "type": "electric_scooter", "bike_id": "6a08111d400feae4cc36848e10b229fb", "name": "6a08111d400feae4cc36848e10b229fb"}, {"fusion_lat": 0.0, "is_reserved": 0, "is_disabled": 0, "rental_uris": {"android": "https://dc.lft.to/lastmile_qr_scan", "ios": "https://dc.lft.to/lastmile_qr_scan"}, "fusion_lon": 0.0, "lat": 38.897782666666664, "lon": -77.03203833333333, "type": "electric_scooter", "bike_id": "4bf3f6ccd7f2dbb8c9eeb9bfdcb0d41b", "name": "4bf3f6ccd7f2dbb8c9eeb9bfdcb0d41b"}, {"fusion_lat": 0.0, "is_reserved": 0, "is_disabled": 0, "rental_uris": {"android": "https://dc.lft.to/lastmile_qr_scan", "ios": "https://dc.lft.to/lastmile_qr_scan"}, "fusion_lon": 0.0, "lat": 38.855082333333335, "lon": -76.984195, "type": "electric_bike", "bike_id": "369b627992a9af30bd7fb77545f6a2e1", "name": "369b627992a9af30bd7fb77545f6a2e1"}, {"fusion_lat": 0.0, "is_reserved": 0, "is_disabled": 0, "rental_uris": {"android": "https://dc.lft.to/lastmile_qr_scan", "ios": "https://dc.lft.to/lastmile_qr_scan"}, "fusion_lon": 0.0, "lat": 38.90602, "lon": -77.04345416666666, "type": "electric_scooter", "bike_id": "1694581a0249c69861cd38914fe0d27e", "name": "1694581a0249c69861cd38914fe0d27e"}, {"fusion_lat": 0.0, "is_reserved": 0, "is_disabled": 0, "rental_uris": {"android": "https://dc.lft.to/lastmile_qr_scan", "ios": "https://dc.lft.to/lastmile_qr_scan"}, "fusion_lon": 0.0, "lat": 38.85796416666667, "lon": -77.09962133333333, "type": "electric_bike", "bike_id": "2a279f0a9285de19a704efb3a35e8ab0", "name": "2a279f0a9285de19a704efb3a35e8ab0"}, {"fusion_lat": 0.0, "is_reserved": 0, "is_disabled": 0, "rental_uris": {"android": "https://dc.lft.to/lastmile_qr_scan", "ios": "https://dc.lft.to/lastmile_qr_scan"}, "fusion_lon": 0.0, "lat": 38.912571, "lon": -77.038651, "type": "electric_scooter", "bike_id": "63182366694efc1bf58f7999245c20db", "name": "63182366694efc1bf58f7999245c20db"}, {"fusion_lat": 0.0, "is_reserved": 0, "is_disabled": 0, "rental_uris": {"android": "https://dc.lft.to/lastmile_qr_scan", "ios": "https://dc.lft.to/lastmile_qr_scan"}, "fusion_lon": 0.0, "lat": 38.89054016666667, "lon": -76.937445, "type": "electric_scooter", "bike_id": "72dbf4c2157a51e48d19ed9aa243ae79", "name": "72dbf4c2157a51e48d19ed9aa243ae79"}, {"fusion_lat": 0.0, "is_reserved": 0, "is_disabled": 0, "rental_uris": {"android": "https://dc.lft.to/lastmile_qr_scan", "ios": "https://dc.lft.to/lastmile_qr_scan"}, "fusion_lon": 0.0, "lat": 38.90811566666667, "lon": -77.034424, "type": "electric_scooter", "bike_id": "e0a0a78dc304985e75ae3e59dd43168f", "name": "e0a0a78dc304985e75ae3e59dd43168f"}, {"fusion_lat": 0.0, "is_reserved": 0, "is_disabled": 0, "rental_uris": {"android": "https://dc.lft.to/lastmile_qr_scan", "ios": "https://dc.lft.to/lastmile_qr_scan"}, "fusion_lon": 0.0, "lat": 38.89459816666667, "lon": -77.04681983333333, "type": "electric_scooter", "bike_id": "cec2fb440b01a209298dd1de38b9c524", "name": "cec2fb440b01a209298dd1de38b9c524"}, {"fusion_lat": 0.0, "is_reserved": 0, "is_disabled": 0, "rental_uris": {"android": "https://dc.lft.to/lastmile_qr_scan", "ios": "https://dc.lft.to/lastmile_qr_scan"}, "fusion_lon": 0.0, "lat": 38.89231566666667, "lon": -77.02806483333333, "type": "electric_scooter", "bike_id": "04546df264d6f8a377dd3249cb86d185", "name": "04546df264d6f8a377dd3249cb86d185"}, {"fusion_lat": 0.0, "is_reserved": 0, "is_disabled": 0, "rental_uris": {"android": "https://dc.lft.to/lastmile_qr_scan", "ios": "https://dc.lft.to/lastmile_qr_scan"}, "fusion_lon": 0.0, "lat": 38.905402333333335, "lon": -77.051727, "type": "electric_scooter", "bike_id": "489d488fe6bc0563c8cc651aecbb1472", "name": "489d488fe6bc0563c8cc651aecbb1472"}, {"fusion_lat": 0.0, "is_reserved": 0, "is_disabled": 0, "rental_uris": {"android": "https://dc.lft.to/lastmile_qr_scan", "ios": "https://dc.lft.to/lastmile_qr_scan"}, "fusion_lon": 0.0, "lat": 38.8975745, "lon": -76.94184366666667, "type": "electric_scooter", "bike_id": "9881e1b9eca343bbf087e2a92d613afa", "name": "9881e1b9eca343bbf087e2a92d613afa"}, {"fusion_lat": 0.0, "is_reserved": 0, "is_disabled": 0, "rental_uris": {"android": "https://dc.lft.to/lastmile_qr_scan", "ios": "https://dc.lft.to/lastmile_qr_scan"}, "fusion_lon": 0.0, "lat": 38.903886666666665, "lon": -77.05322016666666, "type": "electric_scooter", "bike_id": "1c2c2ac1e43fa2a70f595281af510871", "name": "1c2c2ac1e43fa2a70f595281af510871"}, {"fusion_lat": 0.0, "is_reserved": 0, "is_disabled": 0, "rental_uris": {"android": "https://dc.lft.to/lastmile_qr_scan", "ios": "https://dc.lft.to/lastmile_qr_scan"}, "fusion_lon": 0.0, "lat": 38.9090545, "lon": -77.04281933333333, "type": "electric_scooter", "bike_id": "4a1563a83286f528703d7699d50a6884", "name": "4a1563a83286f528703d7699d50a6884"}, {"fusion_lat": 0.0, "is_reserved": 0, "is_disabled": 0, "rental_uris": {"android": "https://dc.lft.to/lastmile_qr_scan", "ios": "https://dc.lft.to/lastmile_qr_scan"}, "fusion_lon": 0.0, "lat": 38.91938716666667, "lon": -76.97112083333333, "type": "electric_bike", "bike_id": "cdbede6beee7c0249442e3673dc2598e", "name": "cdbede6beee7c0249442e3673dc2598e"}, {"fusion_lat": 0.0, "is_reserved": 0, "is_disabled": 0, "rental_uris": {"android": "https://dc.lft.to/lastmile_qr_scan", "ios": "https://dc.lft.to/lastmile_qr_scan"}, "fusion_lon": 0.0, "lat": 38.934280666666666, "lon": -77.02842, "type": "electric_scooter", "bike_id": "5788eb8791e5d4e840deb70d0cbac73a", "name": "5788eb8791e5d4e840deb70d0cbac73a"}, {"fusion_lat": 0.0, "is_reserved": 0, "is_disabled": 0, "rental_uris": {"android": "https://dc.lft.to/lastmile_qr_scan", "ios": "https://dc.lft.to/lastmile_qr_scan"}, "fusion_lon": 0.0, "lat": 38.906495, "lon": -77.0113505, "type": "electric_scooter", "bike_id": "f75d699dc35a681b04f657d5405b42bc", "name": "f75d699dc35a681b04f657d5405b42bc"}, {"fusion_lat": 0.0, "is_reserved": 0, "is_disabled": 0, "rental_uris": {"android": "https://dc.lft.to/lastmile_qr_scan", "ios": "https://dc.lft.to/lastmile_qr_scan"}, "fusion_lon": 0.0, "lat": 38.8922315, "lon": -77.04862533333333, "type": "electric_scooter", "bike_id": "ba29e3a19fef7e85492f06bfedd054ca", "name": "ba29e3a19fef7e85492f06bfedd054ca"}, {"fusion_lat": 0.0, "is_reserved": 0, "is_disabled": 0, "rental_uris": {"android": "https://dc.lft.to/lastmile_qr_scan", "ios": "https://dc.lft.to/lastmile_qr_scan"}, "fusion_lon": 0.0, "lat": 38.92005116666667, "lon": -77.0322345, "type": "electric_scooter", "bike_id": "bf9a1f4a273874be5e0b09c554a6a063", "name": "bf9a1f4a273874be5e0b09c554a6a063"}, {"fusion_lat": 0.0, "is_reserved": 0, "is_disabled": 0, "rental_uris": {"android": "https://dc.lft.to/lastmile_qr_scan", "ios": "https://dc.lft.to/lastmile_qr_scan"}, "fusion_lon": 0.0, "lat": 38.8542115, "lon": -76.909523, "type": "electric_bike", "bike_id": "8b92a744649f47dd9bd6958b78303288", "name": "8b92a744649f47dd9bd6958b78303288"}, {"fusion_lat": 0.0, "is_reserved": 0, "is_disabled": 0, "rental_uris": {"android": "https://dc.lft.to/lastmile_qr_scan", "ios": "https://dc.lft.to/lastmile_qr_scan"}, "fusion_lon": 0.0, "lat": 38.92616783333333, "lon": -77.05691216666666, "type": "electric_scooter", "bike_id": "a06ab960ad395aecdf4b7758cd8d0a80", "name": "a06ab960ad395aecdf4b7758cd8d0a80"}, {"fusion_lat": 0.0, "is_reserved": 0, "is_disabled": 0, "rental_uris": {"android": "https://dc.lft.to/lastmile_qr_scan", "ios": "https://dc.lft.to/lastmile_qr_scan"}, "fusion_lon": 0.0, "lat": 38.886864333333335, "lon": -77.00211983333334, "type": "electric_scooter", "bike_id": "8a0a175ff7458b1a3a6b8a9146a51337", "name": "8a0a175ff7458b1a3a6b8a9146a51337"}, {"fusion_lat": 0.0, "is_reserved": 0, "is_disabled": 0, "rental_uris": {"android": "https://dc.lft.to/lastmile_qr_scan", "ios": "https://dc.lft.to/lastmile_qr_scan"}, "fusion_lon": 0.0, "lat": 38.81052066666667, "lon": -77.08505366666667, "type": "electric_bike", "bike_id": "7e30951d69f278e0bb0e1db289767cc2", "name": "7e30951d69f278e0bb0e1db289767cc2"}, {"fusion_lat": 0.0, "is_reserved": 0, "is_disabled": 0, "rental_uris": {"android": "https://dc.lft.to/lastmile_qr_scan", "ios": "https://dc.lft.to/lastmile_qr_scan"}, "fusion_lon": 0.0, "lat": 38.8442785, "lon": -76.99779066666666, "type": "electric_scooter", "bike_id": "34f5598d76fbdc061e8acc76e94e3505", "name": "34f5598d76fbdc061e8acc76e94e3505"}, {"fusion_lat": 0.0, "is_reserved": 0, "is_disabled": 0, "rental_uris": {"android": "https://dc.lft.to/lastmile_qr_scan", "ios": "https://dc.lft.to/lastmile_qr_scan"}, "fusion_lon": 0.0, "lat": 38.91572816666667, "lon": -77.00981733333333, "type": "electric_scooter", "bike_id": "e5d0a64903cfcbcf90cc760284b0475b", "name": "e5d0a64903cfcbcf90cc760284b0475b"}, {"fusion_lat": 0.0, "is_reserved": 0, "is_disabled": 0, "rental_uris": {"android": "https://dc.lft.to/lastmile_qr_scan", "ios": "https://dc.lft.to/lastmile_qr_scan"}, "fusion_lon": 0.0, "lat": 38.8974335, "lon": -76.99253383333334, "type": "electric_scooter", "bike_id": "4da078806d23dfd786ee8b80f2a2201b", "name": "4da078806d23dfd786ee8b80f2a2201b"}, {"fusion_lat": 0.0, "is_reserved": 0, "is_disabled": 0, "rental_uris": {"android": "https://dc.lft.to/lastmile_qr_scan", "ios": "https://dc.lft.to/lastmile_qr_scan"}, "fusion_lon": 0.0, "lat": 38.91787566666667, "lon": -77.02305816666667, "type": "electric_scooter", "bike_id": "2d00afa081aae842dc085a7e212964b4", "name": "2d00afa081aae842dc085a7e212964b4"}, {"fusion_lat": 0.0, "is_reserved": 0, "is_disabled": 0, "rental_uris": {"android": "https://dc.lft.to/lastmile_qr_scan", "ios": "https://dc.lft.to/lastmile_qr_scan"}, "fusion_lon": 0.0, "lat": 38.90951966666667, "lon": -77.0465395, "type": "electric_scooter", "bike_id": "71eda7e96d493f28cf7f5874ebbd039d", "name": "71eda7e96d493f28cf7f5874ebbd039d"}, {"fusion_lat": 0.0, "is_reserved": 0, "is_disabled": 0, "rental_uris": {"android": "https://dc.lft.to/lastmile_qr_scan", "ios": "https://dc.lft.to/lastmile_qr_scan"}, "fusion_lon": 0.0, "lat": 38.9119125, "lon": -77.06089766666666, "type": "electric_scooter", "bike_id": "80963820fbfb8f2118d192ffbc5e52d1", "name": "80963820fbfb8f2118d192ffbc5e52d1"}, {"fusion_lat": 0.0, "is_reserved": 0, "is_disabled": 0, "rental_uris": {"android": "https://dc.lft.to/lastmile_qr_scan", "ios": "https://dc.lft.to/lastmile_qr_scan"}, "fusion_lon": 0.0, "lat": 38.926703333333336, "lon": -77.05354833333334, "type": "electric_scooter", "bike_id": "ee428085783dea76e6884f369349a68c", "name": "ee428085783dea76e6884f369349a68c"}, {"fusion_lat": 0.0, "is_reserved": 0, "is_disabled": 0, "rental_uris": {"android": "https://dc.lft.to/lastmile_qr_scan", "ios": "https://dc.lft.to/lastmile_qr_scan"}, "fusion_lon": 0.0, "lat": 38.92113, "lon": -77.0420795, "type": "electric_scooter", "bike_id": "1d8b02ec7143e94fe2da1b7c7ed928c1", "name": "1d8b02ec7143e94fe2da1b7c7ed928c1"}, {"fusion_lat": 0.0, "is_reserved": 0, "is_disabled": 0, "rental_uris": {"android": "https://dc.lft.to/lastmile_qr_scan", "ios": "https://dc.lft.to/lastmile_qr_scan"}, "fusion_lon": 0.0, "lat": 38.887616333333334, "lon": -76.95594266666667, "type": "electric_scooter", "bike_id": "d1d9ddecc1cdec346bf3837b425102a5", "name": "d1d9ddecc1cdec346bf3837b425102a5"}, {"fusion_lat": 0.0, "is_reserved": 0, "is_disabled": 0, "rental_uris": {"android": "https://dc.lft.to/lastmile_qr_scan", "ios": "https://dc.lft.to/lastmile_qr_scan"}, "fusion_lon": 0.0, "lat": 38.91808733333333, "lon": -77.04439666666667, "type": "electric_scooter", "bike_id": "a478d31521b9c031ccc5091ed213ec2f", "name": "a478d31521b9c031ccc5091ed213ec2f"}, {"fusion_lat": 0.0, "is_reserved": 0, "is_disabled": 0, "rental_uris": {"android": "https://dc.lft.to/lastmile_qr_scan", "ios": "https://dc.lft.to/lastmile_qr_scan"}, "fusion_lon": 0.0, "lat": 38.909176333333335, "lon": -77.031929, "type": "electric_scooter", "bike_id": "671f37a048244f3a8a7be44c2b8b6c1d", "name": "671f37a048244f3a8a7be44c2b8b6c1d"}, {"fusion_lat": 0.0, "is_reserved": 0, "is_disabled": 0, "rental_uris": {"android": "https://dc.lft.to/lastmile_qr_scan", "ios": "https://dc.lft.to/lastmile_qr_scan"}, "fusion_lon": 0.0, "lat": 38.8871515, "lon": -77.032191, "type": "electric_scooter", "bike_id": "a27051833b987c709eabcedc1c61e353", "name": "a27051833b987c709eabcedc1c61e353"}, {"fusion_lat": 0.0, "is_reserved": 0, "is_disabled": 0, "rental_uris": {"android": "https://dc.lft.to/lastmile_qr_scan", "ios": "https://dc.lft.to/lastmile_qr_scan"}, "fusion_lon": 0.0, "lat": 38.9170645, "lon": -77.0312635, "type": "electric_scooter", "bike_id": "5d620791ace98b7c7cdd01487c69af50", "name": "5d620791ace98b7c7cdd01487c69af50"}, {"fusion_lat": 0.0, "is_reserved": 0, "is_disabled": 0, "rental_uris": {"android": "https://dc.lft.to/lastmile_qr_scan", "ios": "https://dc.lft.to/lastmile_qr_scan"}, "fusion_lon": 0.0, "lat": 38.8616825, "lon": -76.95069616666666, "type": "electric_bike", "bike_id": "67a2d08d5f6503496c69597c1495cd8b", "name": "67a2d08d5f6503496c69597c1495cd8b"}, {"fusion_lat": 0.0, "is_reserved": 0, "is_disabled": 0, "rental_uris": {"android": "https://dc.lft.to/lastmile_qr_scan", "ios": "https://dc.lft.to/lastmile_qr_scan"}, "fusion_lon": 0.0, "lat": 38.9153885, "lon": -77.03176516666667, "type": "electric_scooter", "bike_id": "afb394604938879b2e3e696130aa694b", "name": "afb394604938879b2e3e696130aa694b"}, {"fusion_lat": 0.0, "is_reserved": 0, "is_disabled": 0, "rental_uris": {"android": "https://dc.lft.to/lastmile_qr_scan", "ios": "https://dc.lft.to/lastmile_qr_scan"}, "fusion_lon": 0.0, "lat": 38.9285555, "lon": -77.05427, "type": "electric_scooter", "bike_id": "e41fe0ea89d9f7ddeeaa0f92cb732734", "name": "e41fe0ea89d9f7ddeeaa0f92cb732734"}, {"fusion_lat": 0.0, "is_reserved": 0, "is_disabled": 0, "rental_uris": {"android": "https://dc.lft.to/lastmile_qr_scan", "ios": "https://dc.lft.to/lastmile_qr_scan"}, "fusion_lon": 0.0, "lat": 38.92333716666667, "lon": -77.05675483333333, "type": "electric_scooter", "bike_id": "09afb3f9490096b0121fd7233439557e", "name": "09afb3f9490096b0121fd7233439557e"}, {"fusion_lat": 0.0, "is_reserved": 0, "is_disabled": 0, "rental_uris": {"android": "https://dc.lft.to/lastmile_qr_scan", "ios": "https://dc.lft.to/lastmile_qr_scan"}, "fusion_lon": 0.0, "lat": 38.891987, "lon": -77.02452116666667, "type": "electric_scooter", "bike_id": "2c0ee432dfe95789249593f449becbb7", "name": "2c0ee432dfe95789249593f449becbb7"}, {"fusion_lat": 0.0, "is_reserved": 0, "is_disabled": 0, "rental_uris": {"android": "https://dc.lft.to/lastmile_qr_scan", "ios": "https://dc.lft.to/lastmile_qr_scan"}, "fusion_lon": 0.0, "lat": 38.89222516666667, "lon": -77.048585, "type": "electric_scooter", "bike_id": "46feb554a21a52cf59a5c331e4540655", "name": "46feb554a21a52cf59a5c331e4540655"}, {"fusion_lat": 0.0, "is_reserved": 0, "is_disabled": 0, "rental_uris": {"android": "https://dc.lft.to/lastmile_qr_scan", "ios": "https://dc.lft.to/lastmile_qr_scan"}, "fusion_lon": 0.0, "lat": 38.92446666666667, "lon": -77.0411115, "type": "electric_scooter", "bike_id": "9b48781f2700ba91ddfa400d8dcf55d7", "name": "9b48781f2700ba91ddfa400d8dcf55d7"}, {"fusion_lat": 0.0, "is_reserved": 0, "is_disabled": 0, "rental_uris": {"android": "https://dc.lft.to/lastmile_qr_scan", "ios": "https://dc.lft.to/lastmile_qr_scan"}, "fusion_lon": 0.0, "lat": 38.92151233333333, "lon": -76.969258, "type": "electric_scooter", "bike_id": "6805e9124b6b0e015d6df25d7c43e9b6", "name": "6805e9124b6b0e015d6df25d7c43e9b6"}, {"fusion_lat": 0.0, "is_reserved": 0, "is_disabled": 0, "rental_uris": {"android": "https://dc.lft.to/lastmile_qr_scan", "ios": "https://dc.lft.to/lastmile_qr_scan"}, "fusion_lon": 0.0, "lat": 38.898547, "lon": -76.93186833333333, "type": "electric_bike", "bike_id": "0b384a9327a5cc97456e8809f90bbe3d", "name": "0b384a9327a5cc97456e8809f90bbe3d"}, {"fusion_lat": 0.0, "is_reserved": 0, "is_disabled": 0, "rental_uris": {"android": "https://dc.lft.to/lastmile_qr_scan", "ios": "https://dc.lft.to/lastmile_qr_scan"}, "fusion_lon": 0.0, "lat": 38.92219383333333, "lon": -77.03292066666667, "type": "electric_scooter", "bike_id": "56c7971060e7f3811c6cda84c9229943", "name": "56c7971060e7f3811c6cda84c9229943"}, {"fusion_lat": 0.0, "is_reserved": 0, "is_disabled": 0, "rental_uris": {"android": "https://dc.lft.to/lastmile_qr_scan", "ios": "https://dc.lft.to/lastmile_qr_scan"}, "fusion_lon": 0.0, "lat": 38.91549633333333, "lon": -77.0384455, "type": "electric_scooter", "bike_id": "4913eb231b7f06e36ed37e9beb34cdf5", "name": "4913eb231b7f06e36ed37e9beb34cdf5"}, {"fusion_lat": 0.0, "is_reserved": 0, "is_disabled": 0, "rental_uris": {"android": "https://dc.lft.to/lastmile_qr_scan", "ios": "https://dc.lft.to/lastmile_qr_scan"}, "fusion_lon": 0.0, "lat": 38.9051295, "lon": -77.04337866666667, "type": "electric_scooter", "bike_id": "1b3e0b4b2e9d959d43d821327d06e354", "name": "1b3e0b4b2e9d959d43d821327d06e354"}, {"fusion_lat": 0.0, "is_reserved": 0, "is_disabled": 0, "rental_uris": {"android": "https://dc.lft.to/lastmile_qr_scan", "ios": "https://dc.lft.to/lastmile_qr_scan"}, "fusion_lon": 0.0, "lat": 38.9072865, "lon": -77.04016783333333, "type": "electric_scooter", "bike_id": "1f8b42276f35ebb664b08b78a4c98cda", "name": "1f8b42276f35ebb664b08b78a4c98cda"}, {"fusion_lat": 0.0, "is_reserved": 0, "is_disabled": 0, "rental_uris": {"android": "https://dc.lft.to/lastmile_qr_scan", "ios": "https://dc.lft.to/lastmile_qr_scan"}, "fusion_lon": 0.0, "lat": 38.91564133333333, "lon": -77.03862833333334, "type": "electric_scooter", "bike_id": "bdb945d16db742d86dba5446c122e5b2", "name": "bdb945d16db742d86dba5446c122e5b2"}, {"fusion_lat": 0.0, "is_reserved": 0, "is_disabled": 0, "rental_uris": {"android": "https://dc.lft.to/lastmile_qr_scan", "ios": "https://dc.lft.to/lastmile_qr_scan"}, "fusion_lon": 0.0, "lat": 39.088590833333335, "lon": -77.178392, "type": "electric_bike", "bike_id": "2ee7e9e4e46409b49553f40b74695f01", "name": "2ee7e9e4e46409b49553f40b74695f01"}, {"fusion_lat": 0.0, "is_reserved": 0, "is_disabled": 0, "rental_uris": {"android": "https://dc.lft.to/lastmile_qr_scan", "ios": "https://dc.lft.to/lastmile_qr_scan"}, "fusion_lon": 0.0, "lat": 38.92881666666667, "lon": -77.0270565, "type": "electric_scooter", "bike_id": "e34861f96de2627941aaca943addb981", "name": "e34861f96de2627941aaca943addb981"}, {"fusion_lat": 0.0, "is_reserved": 0, "is_disabled": 0, "rental_uris": {"android": "https://dc.lft.to/lastmile_qr_scan", "ios": "https://dc.lft.to/lastmile_qr_scan"}, "fusion_lon": 0.0, "lat": 38.98366166666667, "lon": -77.02647366666666, "type": "electric_scooter", "bike_id": "51cd439a39530a28e08483f124e60a08", "name": "51cd439a39530a28e08483f124e60a08"}, {"fusion_lat": 0.0, "is_reserved": 0, "is_disabled": 0, "rental_uris": {"android": "https://dc.lft.to/lastmile_qr_scan", "ios": "https://dc.lft.to/lastmile_qr_scan"}, "fusion_lon": 0.0, "lat": 38.928526166666664, "lon": -77.222145, "type": "electric_bike", "bike_id": "32aaa53df2e3a5dc30b08834fa94f36f", "name": "32aaa53df2e3a5dc30b08834fa94f36f"}, {"fusion_lat": 0.0, "is_reserved": 0, "is_disabled": 0, "rental_uris": {"android": "https://dc.lft.to/lastmile_qr_scan", "ios": "https://dc.lft.to/lastmile_qr_scan"}, "fusion_lon": 0.0, "lat": 38.88736466666667, "lon": -77.01392683333333, "type": "electric_scooter", "bike_id": "99a6fd98cc6a2424a50e986dbcdd5513", "name": "99a6fd98cc6a2424a50e986dbcdd5513"}, {"fusion_lat": 0.0, "is_reserved": 0, "is_disabled": 0, "rental_uris": {"android": "https://dc.lft.to/lastmile_qr_scan", "ios": "https://dc.lft.to/lastmile_qr_scan"}, "fusion_lon": 0.0, "lat": 38.99849233333333, "lon": -77.02939883333333, "type": "electric_bike", "bike_id": "9f42a85a440600bb0e29e5ac816307ed", "name": "9f42a85a440600bb0e29e5ac816307ed"}, {"fusion_lat": 0.0, "is_reserved": 0, "is_disabled": 0, "rental_uris": {"android": "https://dc.lft.to/lastmile_qr_scan", "ios": "https://dc.lft.to/lastmile_qr_scan"}, "fusion_lon": 0.0, "lat": 38.87201066666667, "lon": -77.00612166666667, "type": "electric_scooter", "bike_id": "11ad8354eaf5d805be88dbd47b6d2570", "name": "11ad8354eaf5d805be88dbd47b6d2570"}, {"fusion_lat": 0.0, "is_reserved": 0, "is_disabled": 0, "rental_uris": {"android": "https://dc.lft.to/lastmile_qr_scan", "ios": "https://dc.lft.to/lastmile_qr_scan"}, "fusion_lon": 0.0, "lat": 38.928484166666664, "lon": -77.0157385, "type": "electric_scooter", "bike_id": "861908686ac5ff82e068cfd7abbd9549", "name": "861908686ac5ff82e068cfd7abbd9549"}, {"fusion_lat": 0.0, "is_reserved": 0, "is_disabled": 0, "rental_uris": {"android": "https://dc.lft.to/lastmile_qr_scan", "ios": "https://dc.lft.to/lastmile_qr_scan"}, "fusion_lon": 0.0, "lat": 38.905626, "lon": -77.04182983333334, "type": "electric_scooter", "bike_id": "7c9b7263457c0cf547069f9980530d2c", "name": "7c9b7263457c0cf547069f9980530d2c"}, {"fusion_lat": 0.0, "is_reserved": 0, "is_disabled": 0, "rental_uris": {"android": "https://dc.lft.to/lastmile_qr_scan", "ios": "https://dc.lft.to/lastmile_qr_scan"}, "fusion_lon": 0.0, "lat": 38.928497, "lon": -77.0364055, "type": "electric_scooter", "bike_id": "16633aa2f4585859d1370517fa0891c5", "name": "16633aa2f4585859d1370517fa0891c5"}, {"fusion_lat": 0.0, "is_reserved": 0, "is_disabled": 0, "rental_uris": {"android": "https://dc.lft.to/lastmile_qr_scan", "ios": "https://dc.lft.to/lastmile_qr_scan"}, "fusion_lon": 0.0, "lat": 38.915614833333336, "lon": -77.03864766666666, "type": "electric_scooter", "bike_id": "9f1275659f6e5c2d47f9a84184d8d617", "name": "9f1275659f6e5c2d47f9a84184d8d617"}, {"fusion_lat": 0.0, "is_reserved": 0, "is_disabled": 0, "rental_uris": {"android": "https://dc.lft.to/lastmile_qr_scan", "ios": "https://dc.lft.to/lastmile_qr_scan"}, "fusion_lon": 0.0, "lat": 38.93430333333333, "lon": -76.9651, "type": "electric_scooter", "bike_id": "e9959adc1f2f522009c52c243889c370", "name": "e9959adc1f2f522009c52c243889c370"}, {"fusion_lat": 0.0, "is_reserved": 0, "is_disabled": 0, "rental_uris": {"android": "https://dc.lft.to/lastmile_qr_scan", "ios": "https://dc.lft.to/lastmile_qr_scan"}, "fusion_lon": 0.0, "lat": 38.88719666666667, "lon": -77.13305316666667, "type": "electric_bike", "bike_id": "b924b307712295c79f93657ffac5d8c3", "name": "b924b307712295c79f93657ffac5d8c3"}, {"fusion_lat": 0.0, "is_reserved": 0, "is_disabled": 0, "rental_uris": {"android": "https://dc.lft.to/lastmile_qr_scan", "ios": "https://dc.lft.to/lastmile_qr_scan"}, "fusion_lon": 0.0, "lat": 38.885492, "lon": -77.11782266666667, "type": "electric_bike", "bike_id": "b5f961e21da5bf1bc3e6dee7ba16c694", "name": "b5f961e21da5bf1bc3e6dee7ba16c694"}, {"fusion_lat": 0.0, "is_reserved": 0, "is_disabled": 0, "rental_uris": {"android": "https://dc.lft.to/lastmile_qr_scan", "ios": "https://dc.lft.to/lastmile_qr_scan"}, "fusion_lon": 0.0, "lat": 38.88062033333333, "lon": -76.93218566666667, "type": "electric_scooter", "bike_id": "d79becc6575248061943d21d410d64f1", "name": "d79becc6575248061943d21d410d64f1"}, {"fusion_lat": 0.0, "is_reserved": 0, "is_disabled": 0, "rental_uris": {"android": "https://dc.lft.to/lastmile_qr_scan", "ios": "https://dc.lft.to/lastmile_qr_scan"}, "fusion_lon": 0.0, "lat": 38.898484833333335, "lon": -77.03331783333333, "type": "electric_scooter", "bike_id": "e55cd41ae89adfaadf30ff8d407c3fd8", "name": "e55cd41ae89adfaadf30ff8d407c3fd8"}, {"fusion_lat": 0.0, "is_reserved": 0, "is_disabled": 0, "rental_uris": {"android": "https://dc.lft.to/lastmile_qr_scan", "ios": "https://dc.lft.to/lastmile_qr_scan"}, "fusion_lon": 0.0, "lat": 38.91824116666667, "lon": -77.02711466666666, "type": "electric_scooter", "bike_id": "7df60e3a13fed2b0d9245670792da0a0", "name": "7df60e3a13fed2b0d9245670792da0a0"}, {"fusion_lat": 0.0, "is_reserved": 0, "is_disabled": 0, "rental_uris": {"android": "https://dc.lft.to/lastmile_qr_scan", "ios": "https://dc.lft.to/lastmile_qr_scan"}, "fusion_lon": 0.0, "lat": 38.89223483333333, "lon": -77.02135366666667, "type": "electric_scooter", "bike_id": "dde9120ac684e97369b4eb5c29faed6a", "name": "dde9120ac684e97369b4eb5c29faed6a"}, {"fusion_lat": 0.0, "is_reserved": 0, "is_disabled": 0, "rental_uris": {"android": "https://dc.lft.to/lastmile_qr_scan", "ios": "https://dc.lft.to/lastmile_qr_scan"}, "fusion_lon": 0.0, "lat": 38.887753000000004, "lon": -76.97642316666666, "type": "electric_scooter", "bike_id": "5d31bc9dabbe395a9d652e8c0935117c", "name": "5d31bc9dabbe395a9d652e8c0935117c"}, {"fusion_lat": 0.0, "is_reserved": 0, "is_disabled": 0, "rental_uris": {"android": "https://dc.lft.to/lastmile_qr_scan", "ios": "https://dc.lft.to/lastmile_qr_scan"}, "fusion_lon": 0.0, "lat": 38.901805833333334, "lon": -77.0463985, "type": "electric_scooter", "bike_id": "9df53dae0ef8e29a8cf47ae52b28523a", "name": "9df53dae0ef8e29a8cf47ae52b28523a"}, {"fusion_lat": 0.0, "is_reserved": 0, "is_disabled": 0, "rental_uris": {"android": "https://dc.lft.to/lastmile_qr_scan", "ios": "https://dc.lft.to/lastmile_qr_scan"}, "fusion_lon": 0.0, "lat": 38.91029866666667, "lon": -77.0343895, "type": "electric_scooter", "bike_id": "65279b08d7ad856660db73a23996e04e", "name": "65279b08d7ad856660db73a23996e04e"}, {"fusion_lat": 0.0, "is_reserved": 0, "is_disabled": 0, "rental_uris": {"android": "https://dc.lft.to/lastmile_qr_scan", "ios": "https://dc.lft.to/lastmile_qr_scan"}, "fusion_lon": 0.0, "lat": 38.852147333333335, "lon": -77.12951633333333, "type": "electric_bike", "bike_id": "6a06a2d30944aafb5a92da6668c509e2", "name": "6a06a2d30944aafb5a92da6668c509e2"}, {"fusion_lat": 0.0, "is_reserved": 0, "is_disabled": 0, "rental_uris": {"android": "https://dc.lft.to/lastmile_qr_scan", "ios": "https://dc.lft.to/lastmile_qr_scan"}, "fusion_lon": 0.0, "lat": 38.9234935, "lon": -77.01908533333334, "type": "electric_scooter", "bike_id": "7bd2406f59d91ab07c419d0373a39a39", "name": "7bd2406f59d91ab07c419d0373a39a39"}, {"fusion_lat": 0.0, "is_reserved": 0, "is_disabled": 0, "rental_uris": {"android": "https://dc.lft.to/lastmile_qr_scan", "ios": "https://dc.lft.to/lastmile_qr_scan"}, "fusion_lon": 0.0, "lat": 38.86597183333333, "lon": -76.932247, "type": "electric_bike", "bike_id": "6ec4077a4b69f34f9fef345763318702", "name": "6ec4077a4b69f34f9fef345763318702"}, {"fusion_lat": 0.0, "is_reserved": 0, "is_disabled": 0, "rental_uris": {"android": "https://dc.lft.to/lastmile_qr_scan", "ios": "https://dc.lft.to/lastmile_qr_scan"}, "fusion_lon": 0.0, "lat": 38.90859066666667, "lon": -77.0319235, "type": "electric_scooter", "bike_id": "723a872326f3911bc09a81eadf0086b9", "name": "723a872326f3911bc09a81eadf0086b9"}, {"fusion_lat": 0.0, "is_reserved": 0, "is_disabled": 0, "rental_uris": {"android": "https://dc.lft.to/lastmile_qr_scan", "ios": "https://dc.lft.to/lastmile_qr_scan"}, "fusion_lon": 0.0, "lat": 38.911092, "lon": -77.04498683333334, "type": "electric_scooter", "bike_id": "6ffce95871c169952b7220fdb4e84123", "name": "6ffce95871c169952b7220fdb4e84123"}, {"fusion_lat": 0.0, "is_reserved": 0, "is_disabled": 0, "rental_uris": {"android": "https://dc.lft.to/lastmile_qr_scan", "ios": "https://dc.lft.to/lastmile_qr_scan"}, "fusion_lon": 0.0, "lat": 38.9104235, "lon": -77.03450583333333, "type": "electric_scooter", "bike_id": "bc9405e6854420bd8d6f1987610e66e3", "name": "bc9405e6854420bd8d6f1987610e66e3"}, {"fusion_lat": 0.0, "is_reserved": 0, "is_disabled": 0, "rental_uris": {"android": "https://dc.lft.to/lastmile_qr_scan", "ios": "https://dc.lft.to/lastmile_qr_scan"}, "fusion_lon": 0.0, "lat": 38.92129716666667, "lon": -77.01788283333333, "type": "electric_scooter", "bike_id": "4997a47f3ba65616354d8d4c8550aa03", "name": "4997a47f3ba65616354d8d4c8550aa03"}, {"fusion_lat": 0.0, "is_reserved": 0, "is_disabled": 0, "rental_uris": {"android": "https://dc.lft.to/lastmile_qr_scan", "ios": "https://dc.lft.to/lastmile_qr_scan"}, "fusion_lon": 0.0, "lat": 38.9388305, "lon": -77.03287033333334, "type": "electric_scooter", "bike_id": "5301c522cbbb8a59f5b13f74ee88fa03", "name": "5301c522cbbb8a59f5b13f74ee88fa03"}, {"fusion_lat": 0.0, "is_reserved": 0, "is_disabled": 0, "rental_uris": {"android": "https://dc.lft.to/lastmile_qr_scan", "ios": "https://dc.lft.to/lastmile_qr_scan"}, "fusion_lon": 0.0, "lat": 38.900471333333336, "lon": -77.00758916666666, "type": "electric_scooter", "bike_id": "820100080dc49131baf53dd97063251d", "name": "820100080dc49131baf53dd97063251d"}, {"fusion_lat": 0.0, "is_reserved": 0, "is_disabled": 0, "rental_uris": {"android": "https://dc.lft.to/lastmile_qr_scan", "ios": "https://dc.lft.to/lastmile_qr_scan"}, "fusion_lon": 0.0, "lat": 38.921723666666665, "lon": -77.05135383333334, "type": "electric_scooter", "bike_id": "b63f64dcb7f5a80441f9f031ab67c9fd", "name": "b63f64dcb7f5a80441f9f031ab67c9fd"}, {"fusion_lat": 0.0, "is_reserved": 0, "is_disabled": 0, "rental_uris": {"android": "https://dc.lft.to/lastmile_qr_scan", "ios": "https://dc.lft.to/lastmile_qr_scan"}, "fusion_lon": 0.0, "lat": 38.9155265, "lon": -77.03841266666667, "type": "electric_scooter", "bike_id": "9488b07b6d9c228972810bd5bbcc3319", "name": "9488b07b6d9c228972810bd5bbcc3319"}, {"fusion_lat": 0.0, "is_reserved": 0, "is_disabled": 0, "rental_uris": {"android": "https://dc.lft.to/lastmile_qr_scan", "ios": "https://dc.lft.to/lastmile_qr_scan"}, "fusion_lon": 0.0, "lat": 38.98465566666667, "lon": -76.955222, "type": "electric_bike", "bike_id": "98b34e381410cba483ea1eab3e2ee9b4", "name": "98b34e381410cba483ea1eab3e2ee9b4"}, {"fusion_lat": 0.0, "is_reserved": 0, "is_disabled": 0, "rental_uris": {"android": "https://dc.lft.to/lastmile_qr_scan", "ios": "https://dc.lft.to/lastmile_qr_scan"}, "fusion_lon": 0.0, "lat": 38.89364366666667, "lon": -77.0033795, "type": "electric_scooter", "bike_id": "391793323a85ecd61695b9939932a0f3", "name": "391793323a85ecd61695b9939932a0f3"}, {"fusion_lat": 0.0, "is_reserved": 0, "is_disabled": 0, "rental_uris": {"android": "https://dc.lft.to/lastmile_qr_scan", "ios": "https://dc.lft.to/lastmile_qr_scan"}, "fusion_lon": 0.0, "lat": 38.9001655, "lon": -77.04817766666666, "type": "electric_scooter", "bike_id": "02889a7b07daec5388bcf1cb53c97a33", "name": "02889a7b07daec5388bcf1cb53c97a33"}, {"fusion_lat": 0.0, "is_reserved": 0, "is_disabled": 0, "rental_uris": {"android": "https://dc.lft.to/lastmile_qr_scan", "ios": "https://dc.lft.to/lastmile_qr_scan"}, "fusion_lon": 0.0, "lat": 38.98593433333333, "lon": -77.0374715, "type": "electric_bike", "bike_id": "e5a77ce113909b41dc83914f3b1e1c6c", "name": "e5a77ce113909b41dc83914f3b1e1c6c"}, {"fusion_lat": 0.0, "is_reserved": 0, "is_disabled": 0, "rental_uris": {"android": "https://dc.lft.to/lastmile_qr_scan", "ios": "https://dc.lft.to/lastmile_qr_scan"}, "fusion_lon": 0.0, "lat": 38.876880166666666, "lon": -77.01759766666666, "type": "electric_scooter", "bike_id": "87767ab0c1648a736ceb92de31f2a661", "name": "87767ab0c1648a736ceb92de31f2a661"}, {"fusion_lat": 0.0, "is_reserved": 0, "is_disabled": 0, "rental_uris": {"android": "https://dc.lft.to/lastmile_qr_scan", "ios": "https://dc.lft.to/lastmile_qr_scan"}, "fusion_lon": 0.0, "lat": 38.917019333333336, "lon": -77.03336366666667, "type": "electric_scooter", "bike_id": "c3cb2805830cd9f6a085045393305d1d", "name": "c3cb2805830cd9f6a085045393305d1d"}, {"fusion_lat": 0.0, "is_reserved": 0, "is_disabled": 0, "rental_uris": {"android": "https://dc.lft.to/lastmile_qr_scan", "ios": "https://dc.lft.to/lastmile_qr_scan"}, "fusion_lon": 0.0, "lat": 38.883741666666666, "lon": -77.02570383333334, "type": "electric_scooter", "bike_id": "cac983d31d6634304a7dddd2451e60d3", "name": "cac983d31d6634304a7dddd2451e60d3"}, {"fusion_lat": 0.0, "is_reserved": 0, "is_disabled": 0, "rental_uris": {"android": "https://dc.lft.to/lastmile_qr_scan", "ios": "https://dc.lft.to/lastmile_qr_scan"}, "fusion_lon": 0.0, "lat": 38.9033955, "lon": -77.06575916666667, "type": "electric_scooter", "bike_id": "148ac3b178251004b1f73600238b70dd", "name": "148ac3b178251004b1f73600238b70dd"}, {"fusion_lat": 0.0, "is_reserved": 0, "is_disabled": 0, "rental_uris": {"android": "https://dc.lft.to/lastmile_qr_scan", "ios": "https://dc.lft.to/lastmile_qr_scan"}, "fusion_lon": 0.0, "lat": 38.906243, "lon": -77.06271966666667, "type": "electric_scooter", "bike_id": "214068c62548dc7df43e9caa13329ba2", "name": "214068c62548dc7df43e9caa13329ba2"}, {"fusion_lat": 0.0, "is_reserved": 0, "is_disabled": 0, "rental_uris": {"android": "https://dc.lft.to/lastmile_qr_scan", "ios": "https://dc.lft.to/lastmile_qr_scan"}, "fusion_lon": 0.0, "lat": 38.8457495, "lon": -77.09621, "type": "electric_bike", "bike_id": "780c53e2b2a57da29b54aafea21187d6", "name": "780c53e2b2a57da29b54aafea21187d6"}, {"fusion_lat": 0.0, "is_reserved": 0, "is_disabled": 0, "rental_uris": {"android": "https://dc.lft.to/lastmile_qr_scan", "ios": "https://dc.lft.to/lastmile_qr_scan"}, "fusion_lon": 0.0, "lat": 38.909402666666665, "lon": -77.02136066666667, "type": "electric_scooter", "bike_id": "511142fcdf9d2ffe214782761013242d", "name": "511142fcdf9d2ffe214782761013242d"}, {"fusion_lat": 0.0, "is_reserved": 0, "is_disabled": 0, "rental_uris": {"android": "https://dc.lft.to/lastmile_qr_scan", "ios": "https://dc.lft.to/lastmile_qr_scan"}, "fusion_lon": 0.0, "lat": 38.908569, "lon": -77.0329725, "type": "electric_scooter", "bike_id": "8081769f9c44f28ef8cc4ab430fb3fd4", "name": "8081769f9c44f28ef8cc4ab430fb3fd4"}, {"fusion_lat": 0.0, "is_reserved": 0, "is_disabled": 0, "rental_uris": {"android": "https://dc.lft.to/lastmile_qr_scan", "ios": "https://dc.lft.to/lastmile_qr_scan"}, "fusion_lon": 0.0, "lat": 38.90912516666667, "lon": -76.99268466666666, "type": "electric_scooter", "bike_id": "b52c17dd85b3d049ec8374962ff86c6b", "name": "b52c17dd85b3d049ec8374962ff86c6b"}, {"fusion_lat": 0.0, "is_reserved": 0, "is_disabled": 0, "rental_uris": {"android": "https://dc.lft.to/lastmile_qr_scan", "ios": "https://dc.lft.to/lastmile_qr_scan"}, "fusion_lon": 0.0, "lat": 38.91729983333333, "lon": -77.03665116666667, "type": "electric_scooter", "bike_id": "640162ee771e3bdce28ea70ff96ce633", "name": "640162ee771e3bdce28ea70ff96ce633"}, {"fusion_lat": 0.0, "is_reserved": 0, "is_disabled": 0, "rental_uris": {"android": "https://dc.lft.to/lastmile_qr_scan", "ios": "https://dc.lft.to/lastmile_qr_scan"}, "fusion_lon": 0.0, "lat": 38.8982255, "lon": -77.04329116666666, "type": "electric_scooter", "bike_id": "6a6c67ce92a714fa7813ee1a76c22ae4", "name": "6a6c67ce92a714fa7813ee1a76c22ae4"}, {"fusion_lat": 0.0, "is_reserved": 0, "is_disabled": 0, "rental_uris": {"android": "https://dc.lft.to/lastmile_qr_scan", "ios": "https://dc.lft.to/lastmile_qr_scan"}, "fusion_lon": 0.0, "lat": 38.88432, "lon": -76.95757, "type": "electric_bike", "bike_id": "0808f465e4123234e124d279c3bce2e7", "name": "0808f465e4123234e124d279c3bce2e7"}, {"fusion_lat": 0.0, "is_reserved": 0, "is_disabled": 0, "rental_uris": {"android": "https://dc.lft.to/lastmile_qr_scan", "ios": "https://dc.lft.to/lastmile_qr_scan"}, "fusion_lon": 0.0, "lat": 38.91789883333333, "lon": -77.03420833333334, "type": "electric_scooter", "bike_id": "91c5490af63fadc2ecc3a2a9036c80dd", "name": "91c5490af63fadc2ecc3a2a9036c80dd"}, {"fusion_lat": 0.0, "is_reserved": 0, "is_disabled": 0, "rental_uris": {"android": "https://dc.lft.to/lastmile_qr_scan", "ios": "https://dc.lft.to/lastmile_qr_scan"}, "fusion_lon": 0.0, "lat": 38.9214385, "lon": -77.04430033333334, "type": "electric_scooter", "bike_id": "ed474dc7f47162c960769e3ae224a99b", "name": "ed474dc7f47162c960769e3ae224a99b"}, {"fusion_lat": 0.0, "is_reserved": 0, "is_disabled": 0, "rental_uris": {"android": "https://dc.lft.to/lastmile_qr_scan", "ios": "https://dc.lft.to/lastmile_qr_scan"}, "fusion_lon": 0.0, "lat": 38.95788816666666, "lon": -77.02463066666667, "type": "electric_scooter", "bike_id": "f4271da3fee6593ce19d32a9a059483a", "name": "f4271da3fee6593ce19d32a9a059483a"}, {"fusion_lat": 0.0, "is_reserved": 0, "is_disabled": 0, "rental_uris": {"android": "https://dc.lft.to/lastmile_qr_scan", "ios": "https://dc.lft.to/lastmile_qr_scan"}, "fusion_lon": 0.0, "lat": 38.8634765, "lon": -76.99001116666666, "type": "electric_scooter", "bike_id": "b62a144e5d2960d9bd4e3cdd1742e299", "name": "b62a144e5d2960d9bd4e3cdd1742e299"}, {"fusion_lat": 0.0, "is_reserved": 0, "is_disabled": 0, "rental_uris": {"android": "https://dc.lft.to/lastmile_qr_scan", "ios": "https://dc.lft.to/lastmile_qr_scan"}, "fusion_lon": 0.0, "lat": 38.898045, "lon": -77.032833, "type": "electric_scooter", "bike_id": "9313f4c471a7338582438315d5e1f3f6", "name": "9313f4c471a7338582438315d5e1f3f6"}, {"fusion_lat": 0.0, "is_reserved": 0, "is_disabled": 0, "rental_uris": {"android": "https://dc.lft.to/lastmile_qr_scan", "ios": "https://dc.lft.to/lastmile_qr_scan"}, "fusion_lon": 0.0, "lat": 38.84296283333333, "lon": -76.99947316666666, "type": "electric_scooter", "bike_id": "19038848e053ca32d7ab1c97d07b646c", "name": "19038848e053ca32d7ab1c97d07b646c"}, {"fusion_lat": 0.0, "is_reserved": 0, "is_disabled": 0, "rental_uris": {"android": "https://dc.lft.to/lastmile_qr_scan", "ios": "https://dc.lft.to/lastmile_qr_scan"}, "fusion_lon": 0.0, "lat": 38.95556783333333, "lon": -76.93539166666666, "type": "electric_bike", "bike_id": "6ce99d6b35b8d74448d869ae88666f05", "name": "6ce99d6b35b8d74448d869ae88666f05"}, {"fusion_lat": 0.0, "is_reserved": 0, "is_disabled": 0, "rental_uris": {"android": "https://dc.lft.to/lastmile_qr_scan", "ios": "https://dc.lft.to/lastmile_qr_scan"}, "fusion_lon": 0.0, "lat": 38.89915416666667, "lon": -76.933828, "type": "electric_scooter", "bike_id": "180fe1f9cd8044292fc9095f02da8879", "name": "180fe1f9cd8044292fc9095f02da8879"}, {"fusion_lat": 0.0, "is_reserved": 0, "is_disabled": 0, "rental_uris": {"android": "https://dc.lft.to/lastmile_qr_scan", "ios": "https://dc.lft.to/lastmile_qr_scan"}, "fusion_lon": 0.0, "lat": 38.9067615, "lon": -77.03522816666667, "type": "electric_scooter", "bike_id": "30cd46abdcb2ebe7daff4fb26cc4abe1", "name": "30cd46abdcb2ebe7daff4fb26cc4abe1"}, {"fusion_lat": 0.0, "is_reserved": 0, "is_disabled": 0, "rental_uris": {"android": "https://dc.lft.to/lastmile_qr_scan", "ios": "https://dc.lft.to/lastmile_qr_scan"}, "fusion_lon": 0.0, "lat": 38.90336666666666, "lon": -77.06592383333333, "type": "electric_scooter", "bike_id": "e5058b96c9c51ad696a099cef63f545e", "name": "e5058b96c9c51ad696a099cef63f545e"}, {"fusion_lat": 0.0, "is_reserved": 0, "is_disabled": 0, "rental_uris": {"android": "https://dc.lft.to/lastmile_qr_scan", "ios": "https://dc.lft.to/lastmile_qr_scan"}, "fusion_lon": 0.0, "lat": 38.90543983333333, "lon": -77.0475155, "type": "electric_scooter", "bike_id": "7b91c5f6a7b10b391770c7db4db0f967", "name": "7b91c5f6a7b10b391770c7db4db0f967"}, {"fusion_lat": 0.0, "is_reserved": 0, "is_disabled": 0, "rental_uris": {"android": "https://dc.lft.to/lastmile_qr_scan", "ios": "https://dc.lft.to/lastmile_qr_scan"}, "fusion_lon": 0.0, "lat": 38.872402, "lon": -77.01202766666667, "type": "electric_scooter", "bike_id": "12fb7c1ce8abc8cf48d4b7a7caaad8b5", "name": "12fb7c1ce8abc8cf48d4b7a7caaad8b5"}, {"fusion_lat": 0.0, "is_reserved": 0, "is_disabled": 0, "rental_uris": {"android": "https://dc.lft.to/lastmile_qr_scan", "ios": "https://dc.lft.to/lastmile_qr_scan"}, "fusion_lon": 0.0, "lat": 38.90383416666667, "lon": -77.04661033333333, "type": "electric_scooter", "bike_id": "79361811872a38cc084db03f15f6247f", "name": "79361811872a38cc084db03f15f6247f"}, {"fusion_lat": 0.0, "is_reserved": 0, "is_disabled": 0, "rental_uris": {"android": "https://dc.lft.to/lastmile_qr_scan", "ios": "https://dc.lft.to/lastmile_qr_scan"}, "fusion_lon": 0.0, "lat": 38.91700083333333, "lon": -77.036265, "type": "electric_scooter", "bike_id": "1001036933ab926d7b38e973bdcb0aab", "name": "1001036933ab926d7b38e973bdcb0aab"}, {"fusion_lat": 0.0, "is_reserved": 0, "is_disabled": 0, "rental_uris": {"android": "https://dc.lft.to/lastmile_qr_scan", "ios": "https://dc.lft.to/lastmile_qr_scan"}, "fusion_lon": 0.0, "lat": 38.893659, "lon": -77.0033775, "type": "electric_scooter", "bike_id": "ec33de8b76ad7b8179b218ff56d4246d", "name": "ec33de8b76ad7b8179b218ff56d4246d"}, {"fusion_lat": 0.0, "is_reserved": 0, "is_disabled": 0, "rental_uris": {"android": "https://dc.lft.to/lastmile_qr_scan", "ios": "https://dc.lft.to/lastmile_qr_scan"}, "fusion_lon": 0.0, "lat": 38.9073765, "lon": -77.039956, "type": "electric_scooter", "bike_id": "ff6669b6faa6888a7e68d010593aa7c4", "name": "ff6669b6faa6888a7e68d010593aa7c4"}, {"fusion_lat": 0.0, "is_reserved": 0, "is_disabled": 0, "rental_uris": {"android": "https://dc.lft.to/lastmile_qr_scan", "ios": "https://dc.lft.to/lastmile_qr_scan"}, "fusion_lon": 0.0, "lat": 38.9190635, "lon": -77.04108966666666, "type": "electric_scooter", "bike_id": "dbf7b9c0935b227ac4ef78c21939016a", "name": "dbf7b9c0935b227ac4ef78c21939016a"}, {"fusion_lat": 0.0, "is_reserved": 0, "is_disabled": 0, "rental_uris": {"android": "https://dc.lft.to/lastmile_qr_scan", "ios": "https://dc.lft.to/lastmile_qr_scan"}, "fusion_lon": 0.0, "lat": 38.93115816666667, "lon": -77.02402666666667, "type": "electric_scooter", "bike_id": "7d3b6b332b1ed4a410aa3db4e616b68d", "name": "7d3b6b332b1ed4a410aa3db4e616b68d"}, {"fusion_lat": 0.0, "is_reserved": 0, "is_disabled": 0, "rental_uris": {"android": "https://dc.lft.to/lastmile_qr_scan", "ios": "https://dc.lft.to/lastmile_qr_scan"}, "fusion_lon": 0.0, "lat": 38.914219333333335, "lon": -77.03257066666667, "type": "electric_scooter", "bike_id": "7afc8b7df57615d78bc6aeda5b88c301", "name": "7afc8b7df57615d78bc6aeda5b88c301"}, {"fusion_lat": 0.0, "is_reserved": 0, "is_disabled": 0, "rental_uris": {"android": "https://dc.lft.to/lastmile_qr_scan", "ios": "https://dc.lft.to/lastmile_qr_scan"}, "fusion_lon": 0.0, "lat": 38.8962135, "lon": -76.95643666666666, "type": "electric_scooter", "bike_id": "d4d3c83d54f7804d4e98c1cfa425b062", "name": "d4d3c83d54f7804d4e98c1cfa425b062"}, {"fusion_lat": 0.0, "is_reserved": 0, "is_disabled": 0, "rental_uris": {"android": "https://dc.lft.to/lastmile_qr_scan", "ios": "https://dc.lft.to/lastmile_qr_scan"}, "fusion_lon": 0.0, "lat": 38.91626383333333, "lon": -77.03191883333334, "type": "electric_scooter", "bike_id": "1f83f1ba771efeb4de73838e02603c38", "name": "1f83f1ba771efeb4de73838e02603c38"}, {"fusion_lat": 0.0, "is_reserved": 0, "is_disabled": 0, "rental_uris": {"android": "https://dc.lft.to/lastmile_qr_scan", "ios": "https://dc.lft.to/lastmile_qr_scan"}, "fusion_lon": 0.0, "lat": 38.935924166666666, "lon": -77.03512033333334, "type": "electric_scooter", "bike_id": "86a6e05bc6e0cf72845bff4b52e811ea", "name": "86a6e05bc6e0cf72845bff4b52e811ea"}, {"fusion_lat": 0.0, "is_reserved": 0, "is_disabled": 0, "rental_uris": {"android": "https://dc.lft.to/lastmile_qr_scan", "ios": "https://dc.lft.to/lastmile_qr_scan"}, "fusion_lon": 0.0, "lat": 38.896963166666666, "lon": -77.0049215, "type": "electric_scooter", "bike_id": "2119814c0fe28c0174a186868114a1b1", "name": "2119814c0fe28c0174a186868114a1b1"}, {"fusion_lat": 0.0, "is_reserved": 0, "is_disabled": 0, "rental_uris": {"android": "https://dc.lft.to/lastmile_qr_scan", "ios": "https://dc.lft.to/lastmile_qr_scan"}, "fusion_lon": 0.0, "lat": 38.93707233333333, "lon": -77.0211535, "type": "electric_bike", "bike_id": "61b74861f4b3dc48479875cb093f8000", "name": "61b74861f4b3dc48479875cb093f8000"}, {"fusion_lat": 0.0, "is_reserved": 0, "is_disabled": 0, "rental_uris": {"android": "https://dc.lft.to/lastmile_qr_scan", "ios": "https://dc.lft.to/lastmile_qr_scan"}, "fusion_lon": 0.0, "lat": 38.92259133333334, "lon": -77.04140066666666, "type": "electric_scooter", "bike_id": "e1bc1ff2d583f881f46a500002835327", "name": "e1bc1ff2d583f881f46a500002835327"}, {"fusion_lat": 0.0, "is_reserved": 0, "is_disabled": 0, "rental_uris": {"android": "https://dc.lft.to/lastmile_qr_scan", "ios": "https://dc.lft.to/lastmile_qr_scan"}, "fusion_lon": 0.0, "lat": 38.90329033333333, "lon": -76.97294416666666, "type": "electric_scooter", "bike_id": "00e8881bd71ee2859e775fcd5bfa5d2d", "name": "00e8881bd71ee2859e775fcd5bfa5d2d"}, {"fusion_lat": 0.0, "is_reserved": 0, "is_disabled": 0, "rental_uris": {"android": "https://dc.lft.to/lastmile_qr_scan", "ios": "https://dc.lft.to/lastmile_qr_scan"}, "fusion_lon": 0.0, "lat": 38.923093, "lon": -77.04261016666666, "type": "electric_scooter", "bike_id": "8c69a7c4fce7d9f4aa419e122d6ce7e9", "name": "8c69a7c4fce7d9f4aa419e122d6ce7e9"}, {"fusion_lat": 0.0, "is_reserved": 0, "is_disabled": 0, "rental_uris": {"android": "https://dc.lft.to/lastmile_qr_scan", "ios": "https://dc.lft.to/lastmile_qr_scan"}, "fusion_lon": 0.0, "lat": 38.8875185, "lon": -77.020731, "type": "electric_scooter", "bike_id": "bb199b1f5f3a04b70aad98877ff6eabf", "name": "bb199b1f5f3a04b70aad98877ff6eabf"}, {"fusion_lat": 0.0, "is_reserved": 0, "is_disabled": 0, "rental_uris": {"android": "https://dc.lft.to/lastmile_qr_scan", "ios": "https://dc.lft.to/lastmile_qr_scan"}, "fusion_lon": 0.0, "lat": 38.883104, "lon": -77.03161383333334, "type": "electric_bike", "bike_id": "15fd4de8ae1e14b2055ac5233944fbde", "name": "15fd4de8ae1e14b2055ac5233944fbde"}, {"fusion_lat": 0.0, "is_reserved": 0, "is_disabled": 0, "rental_uris": {"android": "https://dc.lft.to/lastmile_qr_scan", "ios": "https://dc.lft.to/lastmile_qr_scan"}, "fusion_lon": 0.0, "lat": 38.90306433333333, "lon": -77.03824583333333, "type": "electric_scooter", "bike_id": "253d210c0e072724db425be970a3590b", "name": "253d210c0e072724db425be970a3590b"}, {"fusion_lat": 0.0, "is_reserved": 0, "is_disabled": 0, "rental_uris": {"android": "https://dc.lft.to/lastmile_qr_scan", "ios": "https://dc.lft.to/lastmile_qr_scan"}, "fusion_lon": 0.0, "lat": 38.95893983333333, "lon": -76.92488333333333, "type": "electric_bike", "bike_id": "1c9fe51ef1c8720b9b4615aeaa9c363a", "name": "1c9fe51ef1c8720b9b4615aeaa9c363a"}, {"fusion_lat": 0.0, "is_reserved": 0, "is_disabled": 0, "rental_uris": {"android": "https://dc.lft.to/lastmile_qr_scan", "ios": "https://dc.lft.to/lastmile_qr_scan"}, "fusion_lon": 0.0, "lat": 38.92542433333333, "lon": -76.98124566666667, "type": "electric_scooter", "bike_id": "e744aa0f797a188d1ec486339f2f234c", "name": "e744aa0f797a188d1ec486339f2f234c"}, {"fusion_lat": 0.0, "is_reserved": 0, "is_disabled": 0, "rental_uris": {"android": "https://dc.lft.to/lastmile_qr_scan", "ios": "https://dc.lft.to/lastmile_qr_scan"}, "fusion_lon": 0.0, "lat": 38.973273666666664, "lon": -77.02146416666666, "type": "electric_bike", "bike_id": "662458d997206018bee4e26593fe4713", "name": "662458d997206018bee4e26593fe4713"}, {"fusion_lat": 0.0, "is_reserved": 0, "is_disabled": 0, "rental_uris": {"android": "https://dc.lft.to/lastmile_qr_scan", "ios": "https://dc.lft.to/lastmile_qr_scan"}, "fusion_lon": 0.0, "lat": 38.89956266666667, "lon": -77.033508, "type": "electric_scooter", "bike_id": "010ab25a45ca217b01d73a22d122fbd1", "name": "010ab25a45ca217b01d73a22d122fbd1"}, {"fusion_lat": 0.0, "is_reserved": 0, "is_disabled": 0, "rental_uris": {"android": "https://dc.lft.to/lastmile_qr_scan", "ios": "https://dc.lft.to/lastmile_qr_scan"}, "fusion_lon": 0.0, "lat": 38.918182333333334, "lon": -77.04164616666667, "type": "electric_scooter", "bike_id": "e4443d8c9bae60e159281a91d71a8d35", "name": "e4443d8c9bae60e159281a91d71a8d35"}, {"fusion_lat": 0.0, "is_reserved": 0, "is_disabled": 0, "rental_uris": {"android": "https://dc.lft.to/lastmile_qr_scan", "ios": "https://dc.lft.to/lastmile_qr_scan"}, "fusion_lon": 0.0, "lat": 38.90032016666667, "lon": -76.999278, "type": "electric_scooter", "bike_id": "023d35696f6a0e3f2a7e3c4e8937252e", "name": "023d35696f6a0e3f2a7e3c4e8937252e"}, {"fusion_lat": 0.0, "is_reserved": 0, "is_disabled": 0, "rental_uris": {"android": "https://dc.lft.to/lastmile_qr_scan", "ios": "https://dc.lft.to/lastmile_qr_scan"}, "fusion_lon": 0.0, "lat": 38.91565116666666, "lon": -77.03866133333334, "type": "electric_scooter", "bike_id": "7cd833e8bc13d294977fe6cc3f5baf9b", "name": "7cd833e8bc13d294977fe6cc3f5baf9b"}, {"fusion_lat": 0.0, "is_reserved": 0, "is_disabled": 0, "rental_uris": {"android": "https://dc.lft.to/lastmile_qr_scan", "ios": "https://dc.lft.to/lastmile_qr_scan"}, "fusion_lon": 0.0, "lat": 38.89369283333333, "lon": -76.94998883333334, "type": "electric_scooter", "bike_id": "1e32e73b6df47d67f9afbe7f1ded6c64", "name": "1e32e73b6df47d67f9afbe7f1ded6c64"}, {"fusion_lat": 0.0, "is_reserved": 0, "is_disabled": 0, "rental_uris": {"android": "https://dc.lft.to/lastmile_qr_scan", "ios": "https://dc.lft.to/lastmile_qr_scan"}, "fusion_lon": 0.0, "lat": 38.905448666666665, "lon": -77.005905, "type": "electric_scooter", "bike_id": "b2857fe2b5f41908a8d83c5141d761a3", "name": "b2857fe2b5f41908a8d83c5141d761a3"}, {"fusion_lat": 0.0, "is_reserved": 0, "is_disabled": 0, "rental_uris": {"android": "https://dc.lft.to/lastmile_qr_scan", "ios": "https://dc.lft.to/lastmile_qr_scan"}, "fusion_lon": 0.0, "lat": 38.952648333333336, "lon": -77.00256983333334, "type": "electric_scooter", "bike_id": "12427a0f5a3bc0df8880a8cef201f020", "name": "12427a0f5a3bc0df8880a8cef201f020"}, {"fusion_lat": 0.0, "is_reserved": 0, "is_disabled": 0, "rental_uris": {"android": "https://dc.lft.to/lastmile_qr_scan", "ios": "https://dc.lft.to/lastmile_qr_scan"}, "fusion_lon": 0.0, "lat": 38.929816833333334, "lon": -77.03188516666667, "type": "electric_scooter", "bike_id": "754ca325b27a0590e2c69dac1c4b949d", "name": "754ca325b27a0590e2c69dac1c4b949d"}, {"fusion_lat": 0.0, "is_reserved": 0, "is_disabled": 0, "rental_uris": {"android": "https://dc.lft.to/lastmile_qr_scan", "ios": "https://dc.lft.to/lastmile_qr_scan"}, "fusion_lon": 0.0, "lat": 38.914127666666666, "lon": -77.03400266666667, "type": "electric_scooter", "bike_id": "4eeafcf90cf3ab03a3e19aa9b74fb8a4", "name": "4eeafcf90cf3ab03a3e19aa9b74fb8a4"}, {"fusion_lat": 0.0, "is_reserved": 0, "is_disabled": 0, "rental_uris": {"android": "https://dc.lft.to/lastmile_qr_scan", "ios": "https://dc.lft.to/lastmile_qr_scan"}, "fusion_lon": 0.0, "lat": 38.911128833333336, "lon": -77.04501666666667, "type": "electric_scooter", "bike_id": "9a44cbf7d795a9cb6ccb3dc0133751a4", "name": "9a44cbf7d795a9cb6ccb3dc0133751a4"}, {"fusion_lat": 0.0, "is_reserved": 0, "is_disabled": 0, "rental_uris": {"android": "https://dc.lft.to/lastmile_qr_scan", "ios": "https://dc.lft.to/lastmile_qr_scan"}, "fusion_lon": 0.0, "lat": 38.906616666666665, "lon": -77.00822816666667, "type": "electric_scooter", "bike_id": "4654b15655e8af76660abba73c969601", "name": "4654b15655e8af76660abba73c969601"}, {"fusion_lat": 0.0, "is_reserved": 0, "is_disabled": 0, "rental_uris": {"android": "https://dc.lft.to/lastmile_qr_scan", "ios": "https://dc.lft.to/lastmile_qr_scan"}, "fusion_lon": 0.0, "lat": 38.907305666666666, "lon": -77.02544, "type": "electric_scooter", "bike_id": "c5be1fedb5243c7f20c6eff9bf6e34c2", "name": "c5be1fedb5243c7f20c6eff9bf6e34c2"}, {"fusion_lat": 0.0, "is_reserved": 0, "is_disabled": 0, "rental_uris": {"android": "https://dc.lft.to/lastmile_qr_scan", "ios": "https://dc.lft.to/lastmile_qr_scan"}, "fusion_lon": 0.0, "lat": 38.88874166666667, "lon": -77.00119683333334, "type": "electric_scooter", "bike_id": "231226f4ca303c7624bde81bfa0c3d95", "name": "231226f4ca303c7624bde81bfa0c3d95"}, {"fusion_lat": 0.0, "is_reserved": 0, "is_disabled": 0, "rental_uris": {"android": "https://dc.lft.to/lastmile_qr_scan", "ios": "https://dc.lft.to/lastmile_qr_scan"}, "fusion_lon": 0.0, "lat": 38.9181765, "lon": -77.04175716666667, "type": "electric_scooter", "bike_id": "e8ea77a25aa0019b4d670e8c26b72862", "name": "e8ea77a25aa0019b4d670e8c26b72862"}, {"fusion_lat": 0.0, "is_reserved": 0, "is_disabled": 0, "rental_uris": {"android": "https://dc.lft.to/lastmile_qr_scan", "ios": "https://dc.lft.to/lastmile_qr_scan"}, "fusion_lon": 0.0, "lat": 38.86662116666667, "lon": -76.989046, "type": "electric_scooter", "bike_id": "5d7d82325beb60cc5dca60abefa2ff08", "name": "5d7d82325beb60cc5dca60abefa2ff08"}, {"fusion_lat": 0.0, "is_reserved": 0, "is_disabled": 0, "rental_uris": {"android": "https://dc.lft.to/lastmile_qr_scan", "ios": "https://dc.lft.to/lastmile_qr_scan"}, "fusion_lon": 0.0, "lat": 38.9036975, "lon": -77.04881666666667, "type": "electric_scooter", "bike_id": "f15ccc0031d81ce1a0a76b208798402d", "name": "f15ccc0031d81ce1a0a76b208798402d"}, {"fusion_lat": 0.0, "is_reserved": 0, "is_disabled": 0, "rental_uris": {"android": "https://dc.lft.to/lastmile_qr_scan", "ios": "https://dc.lft.to/lastmile_qr_scan"}, "fusion_lon": 0.0, "lat": 38.92146416666667, "lon": -77.0241005, "type": "electric_scooter", "bike_id": "e7be2bc8de20578ceb8441c23fbc5bf3", "name": "e7be2bc8de20578ceb8441c23fbc5bf3"}, {"fusion_lat": 0.0, "is_reserved": 0, "is_disabled": 0, "rental_uris": {"android": "https://dc.lft.to/lastmile_qr_scan", "ios": "https://dc.lft.to/lastmile_qr_scan"}, "fusion_lon": 0.0, "lat": 38.904698, "lon": -77.00730683333333, "type": "electric_scooter", "bike_id": "c5c0c7f764253981deb07b9d13dd43f0", "name": "c5c0c7f764253981deb07b9d13dd43f0"}, {"fusion_lat": 0.0, "is_reserved": 0, "is_disabled": 0, "rental_uris": {"android": "https://dc.lft.to/lastmile_qr_scan", "ios": "https://dc.lft.to/lastmile_qr_scan"}, "fusion_lon": 0.0, "lat": 38.922861, "lon": -77.03656883333333, "type": "electric_scooter", "bike_id": "6029ecc328df2c6917c8a5b7e2be2272", "name": "6029ecc328df2c6917c8a5b7e2be2272"}, {"fusion_lat": 0.0, "is_reserved": 0, "is_disabled": 0, "rental_uris": {"android": "https://dc.lft.to/lastmile_qr_scan", "ios": "https://dc.lft.to/lastmile_qr_scan"}, "fusion_lon": 0.0, "lat": 38.918705333333335, "lon": -77.03574766666667, "type": "electric_scooter", "bike_id": "eff169e6a092f5a2a5d72fcb71776c07", "name": "eff169e6a092f5a2a5d72fcb71776c07"}, {"fusion_lat": 0.0, "is_reserved": 0, "is_disabled": 0, "rental_uris": {"android": "https://dc.lft.to/lastmile_qr_scan", "ios": "https://dc.lft.to/lastmile_qr_scan"}, "fusion_lon": 0.0, "lat": 38.907220833333334, "lon": -77.04496883333333, "type": "electric_scooter", "bike_id": "b4656eb8d65ba3232bf91137c3bcb0b9", "name": "b4656eb8d65ba3232bf91137c3bcb0b9"}, {"fusion_lat": 0.0, "is_reserved": 0, "is_disabled": 0, "rental_uris": {"android": "https://dc.lft.to/lastmile_qr_scan", "ios": "https://dc.lft.to/lastmile_qr_scan"}, "fusion_lon": 0.0, "lat": 38.9050935, "lon": -77.04475883333333, "type": "electric_scooter", "bike_id": "724ea3ebf6208a15fe64c0a12bb15de0", "name": "724ea3ebf6208a15fe64c0a12bb15de0"}, {"fusion_lat": 0.0, "is_reserved": 0, "is_disabled": 0, "rental_uris": {"android": "https://dc.lft.to/lastmile_qr_scan", "ios": "https://dc.lft.to/lastmile_qr_scan"}, "fusion_lon": 0.0, "lat": 38.903822166666664, "lon": -77.041316, "type": "electric_scooter", "bike_id": "785378dd471751206102e253da4fb013", "name": "785378dd471751206102e253da4fb013"}, {"fusion_lat": 0.0, "is_reserved": 0, "is_disabled": 0, "rental_uris": {"android": "https://dc.lft.to/lastmile_qr_scan", "ios": "https://dc.lft.to/lastmile_qr_scan"}, "fusion_lon": 0.0, "lat": 38.920145833333336, "lon": -77.0711195, "type": "electric_scooter", "bike_id": "3676d9fbe146f09f5b44c97f0b136051", "name": "3676d9fbe146f09f5b44c97f0b136051"}, {"fusion_lat": 0.0, "is_reserved": 0, "is_disabled": 0, "rental_uris": {"android": "https://dc.lft.to/lastmile_qr_scan", "ios": "https://dc.lft.to/lastmile_qr_scan"}, "fusion_lon": 0.0, "lat": 38.92582916666667, "lon": -77.03933283333333, "type": "electric_scooter", "bike_id": "faf1f930eae0b9f865826688c6157804", "name": "faf1f930eae0b9f865826688c6157804"}, {"fusion_lat": 0.0, "is_reserved": 0, "is_disabled": 0, "rental_uris": {"android": "https://dc.lft.to/lastmile_qr_scan", "ios": "https://dc.lft.to/lastmile_qr_scan"}, "fusion_lon": 0.0, "lat": 38.85648333333334, "lon": -77.112443, "type": "electric_bike", "bike_id": "94eec00b281641eb051a473984f48c38", "name": "94eec00b281641eb051a473984f48c38"}, {"fusion_lat": 0.0, "is_reserved": 0, "is_disabled": 0, "rental_uris": {"android": "https://dc.lft.to/lastmile_qr_scan", "ios": "https://dc.lft.to/lastmile_qr_scan"}, "fusion_lon": 0.0, "lat": 38.90671866666667, "lon": -77.03900666666667, "type": "electric_scooter", "bike_id": "dde8a8641366e7d885fc2389b0c6893b", "name": "dde8a8641366e7d885fc2389b0c6893b"}, {"fusion_lat": 0.0, "is_reserved": 0, "is_disabled": 0, "rental_uris": {"android": "https://dc.lft.to/lastmile_qr_scan", "ios": "https://dc.lft.to/lastmile_qr_scan"}, "fusion_lon": 0.0, "lat": 38.917040166666666, "lon": -77.03880983333333, "type": "electric_scooter", "bike_id": "c9a953a6843658ab50b338b70850b89f", "name": "c9a953a6843658ab50b338b70850b89f"}, {"fusion_lat": 0.0, "is_reserved": 0, "is_disabled": 0, "rental_uris": {"android": "https://dc.lft.to/lastmile_qr_scan", "ios": "https://dc.lft.to/lastmile_qr_scan"}, "fusion_lon": 0.0, "lat": 38.91221866666667, "lon": -77.0119535, "type": "electric_scooter", "bike_id": "654fc32678f41236301c0213eb2e499f", "name": "654fc32678f41236301c0213eb2e499f"}, {"fusion_lat": 0.0, "is_reserved": 0, "is_disabled": 0, "rental_uris": {"android": "https://dc.lft.to/lastmile_qr_scan", "ios": "https://dc.lft.to/lastmile_qr_scan"}, "fusion_lon": 0.0, "lat": 38.92114616666667, "lon": -76.986501, "type": "electric_scooter", "bike_id": "950dac8cb31635a1a96cbc01cd278cb7", "name": "950dac8cb31635a1a96cbc01cd278cb7"}, {"fusion_lat": 0.0, "is_reserved": 0, "is_disabled": 0, "rental_uris": {"android": "https://dc.lft.to/lastmile_qr_scan", "ios": "https://dc.lft.to/lastmile_qr_scan"}, "fusion_lon": 0.0, "lat": 38.914979333333335, "lon": -77.03235766666667, "type": "electric_scooter", "bike_id": "d3a675cdd5ccd199e30eaf284faccf43", "name": "d3a675cdd5ccd199e30eaf284faccf43"}, {"fusion_lat": 0.0, "is_reserved": 0, "is_disabled": 0, "rental_uris": {"android": "https://dc.lft.to/lastmile_qr_scan", "ios": "https://dc.lft.to/lastmile_qr_scan"}, "fusion_lon": 0.0, "lat": 38.8951535, "lon": -77.02741666666667, "type": "electric_scooter", "bike_id": "2e9fd0779cd6534d674ecb6551e7846d", "name": "2e9fd0779cd6534d674ecb6551e7846d"}, {"fusion_lat": 0.0, "is_reserved": 0, "is_disabled": 0, "rental_uris": {"android": "https://dc.lft.to/lastmile_qr_scan", "ios": "https://dc.lft.to/lastmile_qr_scan"}, "fusion_lon": 0.0, "lat": 38.923657, "lon": -77.05128333333333, "type": "electric_scooter", "bike_id": "da092f195cd7625789be77f83ba3f80e", "name": "da092f195cd7625789be77f83ba3f80e"}, {"fusion_lat": 0.0, "is_reserved": 0, "is_disabled": 0, "rental_uris": {"android": "https://dc.lft.to/lastmile_qr_scan", "ios": "https://dc.lft.to/lastmile_qr_scan"}, "fusion_lon": 0.0, "lat": 38.846227166666665, "lon": -77.06936666666667, "type": "electric_bike", "bike_id": "5589888b2c901fe90fe782981750816d", "name": "5589888b2c901fe90fe782981750816d"}, {"fusion_lat": 0.0, "is_reserved": 0, "is_disabled": 0, "rental_uris": {"android": "https://dc.lft.to/lastmile_qr_scan", "ios": "https://dc.lft.to/lastmile_qr_scan"}, "fusion_lon": 0.0, "lat": 38.91841, "lon": -76.96539533333333, "type": "electric_scooter", "bike_id": "c542a34876d3020a8402893e58b2ff03", "name": "c542a34876d3020a8402893e58b2ff03"}, {"fusion_lat": 0.0, "is_reserved": 0, "is_disabled": 0, "rental_uris": {"android": "https://dc.lft.to/lastmile_qr_scan", "ios": "https://dc.lft.to/lastmile_qr_scan"}, "fusion_lon": 0.0, "lat": 38.892757, "lon": -77.05036983333333, "type": "electric_scooter", "bike_id": "b7dcf41f63a54f86506a4cc3f2c6594a", "name": "b7dcf41f63a54f86506a4cc3f2c6594a"}, {"fusion_lat": 0.0, "is_reserved": 0, "is_disabled": 0, "rental_uris": {"android": "https://dc.lft.to/lastmile_qr_scan", "ios": "https://dc.lft.to/lastmile_qr_scan"}, "fusion_lon": 0.0, "lat": 38.866556, "lon": -76.99014366666667, "type": "electric_scooter", "bike_id": "1d474c6baf4ebdc6e91a9c513c6c60ac", "name": "1d474c6baf4ebdc6e91a9c513c6c60ac"}, {"fusion_lat": 0.0, "is_reserved": 0, "is_disabled": 0, "rental_uris": {"android": "https://dc.lft.to/lastmile_qr_scan", "ios": "https://dc.lft.to/lastmile_qr_scan"}, "fusion_lon": 0.0, "lat": 38.89990983333333, "lon": -77.05234966666667, "type": "electric_scooter", "bike_id": "d0ec21dad1f26c0533b8c34f6d1e2e16", "name": "d0ec21dad1f26c0533b8c34f6d1e2e16"}, {"fusion_lat": 0.0, "is_reserved": 0, "is_disabled": 0, "rental_uris": {"android": "https://dc.lft.to/lastmile_qr_scan", "ios": "https://dc.lft.to/lastmile_qr_scan"}, "fusion_lon": 0.0, "lat": 38.90983266666667, "lon": -77.03183016666667, "type": "electric_scooter", "bike_id": "813fadf1acdf5ffe89b470177a4b04fe", "name": "813fadf1acdf5ffe89b470177a4b04fe"}, {"fusion_lat": 0.0, "is_reserved": 0, "is_disabled": 0, "rental_uris": {"android": "https://dc.lft.to/lastmile_qr_scan", "ios": "https://dc.lft.to/lastmile_qr_scan"}, "fusion_lon": 0.0, "lat": 38.92371583333333, "lon": -77.01912183333333, "type": "electric_scooter", "bike_id": "d05706b3fdd5f3fde3952e3be9d3d45f", "name": "d05706b3fdd5f3fde3952e3be9d3d45f"}, {"fusion_lat": 0.0, "is_reserved": 0, "is_disabled": 0, "rental_uris": {"android": "https://dc.lft.to/lastmile_qr_scan", "ios": "https://dc.lft.to/lastmile_qr_scan"}, "fusion_lon": 0.0, "lat": 38.839831, "lon": -77.00566783333333, "type": "electric_bike", "bike_id": "d5d75d9e4cdad6a47decc34c36da1e6b", "name": "d5d75d9e4cdad6a47decc34c36da1e6b"}, {"fusion_lat": 0.0, "is_reserved": 0, "is_disabled": 0, "rental_uris": {"android": "https://dc.lft.to/lastmile_qr_scan", "ios": "https://dc.lft.to/lastmile_qr_scan"}, "fusion_lon": 0.0, "lat": 38.90315583333334, "lon": -77.02883733333333, "type": "electric_scooter", "bike_id": "6f64dec2de32431c34c2a3a1fc04ed63", "name": "6f64dec2de32431c34c2a3a1fc04ed63"}, {"fusion_lat": 0.0, "is_reserved": 0, "is_disabled": 0, "rental_uris": {"android": "https://dc.lft.to/lastmile_qr_scan", "ios": "https://dc.lft.to/lastmile_qr_scan"}, "fusion_lon": 0.0, "lat": 38.915676500000004, "lon": -77.0426255, "type": "electric_scooter", "bike_id": "c7b9c0a62c63a1cce6d0ea75cbc72538", "name": "c7b9c0a62c63a1cce6d0ea75cbc72538"}, {"fusion_lat": 0.0, "is_reserved": 0, "is_disabled": 0, "rental_uris": {"android": "https://dc.lft.to/lastmile_qr_scan", "ios": "https://dc.lft.to/lastmile_qr_scan"}, "fusion_lon": 0.0, "lat": 38.8944715, "lon": -77.0205985, "type": "electric_scooter", "bike_id": "c750dfe47616a0869deb63dc5150cbe3", "name": "c750dfe47616a0869deb63dc5150cbe3"}, {"fusion_lat": 0.0, "is_reserved": 0, "is_disabled": 0, "rental_uris": {"android": "https://dc.lft.to/lastmile_qr_scan", "ios": "https://dc.lft.to/lastmile_qr_scan"}, "fusion_lon": 0.0, "lat": 38.89802566666667, "lon": -76.946612, "type": "electric_scooter", "bike_id": "40aa28b91589470540ff3895798f200e", "name": "40aa28b91589470540ff3895798f200e"}, {"fusion_lat": 0.0, "is_reserved": 0, "is_disabled": 0, "rental_uris": {"android": "https://dc.lft.to/lastmile_qr_scan", "ios": "https://dc.lft.to/lastmile_qr_scan"}, "fusion_lon": 0.0, "lat": 38.8813495, "lon": -76.98089816666666, "type": "electric_bike", "bike_id": "54dbc74e1cc3a06f64f068377b6ee94c", "name": "54dbc74e1cc3a06f64f068377b6ee94c"}, {"fusion_lat": 0.0, "is_reserved": 0, "is_disabled": 0, "rental_uris": {"android": "https://dc.lft.to/lastmile_qr_scan", "ios": "https://dc.lft.to/lastmile_qr_scan"}, "fusion_lon": 0.0, "lat": 38.892315333333336, "lon": -77.02830383333334, "type": "electric_scooter", "bike_id": "7d15bdbacb65fb2f44cc813e19e08e4f", "name": "7d15bdbacb65fb2f44cc813e19e08e4f"}, {"fusion_lat": 0.0, "is_reserved": 0, "is_disabled": 0, "rental_uris": {"android": "https://dc.lft.to/lastmile_qr_scan", "ios": "https://dc.lft.to/lastmile_qr_scan"}, "fusion_lon": 0.0, "lat": 38.863750833333334, "lon": -76.990426, "type": "electric_scooter", "bike_id": "f349c3800d13129c9a5f5b9e061f3e97", "name": "f349c3800d13129c9a5f5b9e061f3e97"}, {"fusion_lat": 0.0, "is_reserved": 0, "is_disabled": 0, "rental_uris": {"android": "https://dc.lft.to/lastmile_qr_scan", "ios": "https://dc.lft.to/lastmile_qr_scan"}, "fusion_lon": 0.0, "lat": 38.91768033333334, "lon": -77.036573, "type": "electric_scooter", "bike_id": "7cf891d5688a19aec8eac4db3676f054", "name": "7cf891d5688a19aec8eac4db3676f054"}, {"fusion_lat": 0.0, "is_reserved": 0, "is_disabled": 0, "rental_uris": {"android": "https://dc.lft.to/lastmile_qr_scan", "ios": "https://dc.lft.to/lastmile_qr_scan"}, "fusion_lon": 0.0, "lat": 38.89966716666667, "lon": -77.05419533333334, "type": "electric_scooter", "bike_id": "23fb9fe4189e377e8e1ec567c10b91ba", "name": "23fb9fe4189e377e8e1ec567c10b91ba"}, {"fusion_lat": 0.0, "is_reserved": 0, "is_disabled": 0, "rental_uris": {"android": "https://dc.lft.to/lastmile_qr_scan", "ios": "https://dc.lft.to/lastmile_qr_scan"}, "fusion_lon": 0.0, "lat": 38.90421083333333, "lon": -77.04493983333333, "type": "electric_scooter", "bike_id": "1ba14cc1889443a9e0e56fd4528ef1bb", "name": "1ba14cc1889443a9e0e56fd4528ef1bb"}, {"fusion_lat": 0.0, "is_reserved": 0, "is_disabled": 0, "rental_uris": {"android": "https://dc.lft.to/lastmile_qr_scan", "ios": "https://dc.lft.to/lastmile_qr_scan"}, "fusion_lon": 0.0, "lat": 38.8752025, "lon": -77.0019475, "type": "electric_scooter", "bike_id": "ffa64d86718bc78d6679017e9be9f98c", "name": "ffa64d86718bc78d6679017e9be9f98c"}, {"fusion_lat": 0.0, "is_reserved": 0, "is_disabled": 0, "rental_uris": {"android": "https://dc.lft.to/lastmile_qr_scan", "ios": "https://dc.lft.to/lastmile_qr_scan"}, "fusion_lon": 0.0, "lat": 38.9262025, "lon": -77.0056095, "type": "electric_scooter", "bike_id": "69c304c3d5e800b2d3c1a26fc180dcf9", "name": "69c304c3d5e800b2d3c1a26fc180dcf9"}, {"fusion_lat": 0.0, "is_reserved": 0, "is_disabled": 0, "rental_uris": {"android": "https://dc.lft.to/lastmile_qr_scan", "ios": "https://dc.lft.to/lastmile_qr_scan"}, "fusion_lon": 0.0, "lat": 38.918821333333334, "lon": -76.97150333333333, "type": "electric_scooter", "bike_id": "70f9c3ce6c0527a6d254dd1e29912f4d", "name": "70f9c3ce6c0527a6d254dd1e29912f4d"}, {"fusion_lat": 0.0, "is_reserved": 0, "is_disabled": 0, "rental_uris": {"android": "https://dc.lft.to/lastmile_qr_scan", "ios": "https://dc.lft.to/lastmile_qr_scan"}, "fusion_lon": 0.0, "lat": 38.88705616666667, "lon": -77.032002, "type": "electric_scooter", "bike_id": "c4b742fff4081a6503e1b7ef1f6ec122", "name": "c4b742fff4081a6503e1b7ef1f6ec122"}, {"fusion_lat": 0.0, "is_reserved": 0, "is_disabled": 0, "rental_uris": {"android": "https://dc.lft.to/lastmile_qr_scan", "ios": "https://dc.lft.to/lastmile_qr_scan"}, "fusion_lon": 0.0, "lat": 38.9126205, "lon": -77.04470766666667, "type": "electric_scooter", "bike_id": "26ce07be13b730f98240ac9a8de9eb22", "name": "26ce07be13b730f98240ac9a8de9eb22"}, {"fusion_lat": 0.0, "is_reserved": 0, "is_disabled": 0, "rental_uris": {"android": "https://dc.lft.to/lastmile_qr_scan", "ios": "https://dc.lft.to/lastmile_qr_scan"}, "fusion_lon": 0.0, "lat": 38.908577333333334, "lon": -77.02453466666667, "type": "electric_scooter", "bike_id": "1e10d4afd0c8d6c97944a6fd6075ee2a", "name": "1e10d4afd0c8d6c97944a6fd6075ee2a"}, {"fusion_lat": 0.0, "is_reserved": 0, "is_disabled": 0, "rental_uris": {"android": "https://dc.lft.to/lastmile_qr_scan", "ios": "https://dc.lft.to/lastmile_qr_scan"}, "fusion_lon": 0.0, "lat": 38.85954183333333, "lon": -76.99100966666667, "type": "electric_scooter", "bike_id": "30964ae8ca4dfa045c4efce30710de27", "name": "30964ae8ca4dfa045c4efce30710de27"}, {"fusion_lat": 0.0, "is_reserved": 0, "is_disabled": 0, "rental_uris": {"android": "https://dc.lft.to/lastmile_qr_scan", "ios": "https://dc.lft.to/lastmile_qr_scan"}, "fusion_lon": 0.0, "lat": 38.918195833333336, "lon": -77.03296883333333, "type": "electric_scooter", "bike_id": "6192d1b023b74bee82d621771a6b0a66", "name": "6192d1b023b74bee82d621771a6b0a66"}, {"fusion_lat": 0.0, "is_reserved": 0, "is_disabled": 0, "rental_uris": {"android": "https://dc.lft.to/lastmile_qr_scan", "ios": "https://dc.lft.to/lastmile_qr_scan"}, "fusion_lon": 0.0, "lat": 38.89872866666666, "lon": -77.0272935, "type": "electric_scooter", "bike_id": "706da694799477b1d97d89cc83db2c6c", "name": "706da694799477b1d97d89cc83db2c6c"}, {"fusion_lat": 0.0, "is_reserved": 0, "is_disabled": 0, "rental_uris": {"android": "https://dc.lft.to/lastmile_qr_scan", "ios": "https://dc.lft.to/lastmile_qr_scan"}, "fusion_lon": 0.0, "lat": 38.9113915, "lon": -77.0467045, "type": "electric_scooter", "bike_id": "25b16f71c7b1b19907ec855ee52beeb4", "name": "25b16f71c7b1b19907ec855ee52beeb4"}, {"fusion_lat": 0.0, "is_reserved": 0, "is_disabled": 0, "rental_uris": {"android": "https://dc.lft.to/lastmile_qr_scan", "ios": "https://dc.lft.to/lastmile_qr_scan"}, "fusion_lon": 0.0, "lat": 38.89222483333333, "lon": -77.04653683333333, "type": "electric_scooter", "bike_id": "96dd924eec93ee7c78b7e55fd15a161a", "name": "96dd924eec93ee7c78b7e55fd15a161a"}, {"fusion_lat": 0.0, "is_reserved": 0, "is_disabled": 0, "rental_uris": {"android": "https://dc.lft.to/lastmile_qr_scan", "ios": "https://dc.lft.to/lastmile_qr_scan"}, "fusion_lon": 0.0, "lat": 38.931972333333334, "lon": -77.03848666666667, "type": "electric_scooter", "bike_id": "e801956f1f67d54f82ed551e32643e0d", "name": "e801956f1f67d54f82ed551e32643e0d"}, {"fusion_lat": 0.0, "is_reserved": 0, "is_disabled": 0, "rental_uris": {"android": "https://dc.lft.to/lastmile_qr_scan", "ios": "https://dc.lft.to/lastmile_qr_scan"}, "fusion_lon": 0.0, "lat": 38.91704983333333, "lon": -77.0461125, "type": "electric_scooter", "bike_id": "d586e5c0825aecf11f2926429d9eaba8", "name": "d586e5c0825aecf11f2926429d9eaba8"}, {"fusion_lat": 0.0, "is_reserved": 0, "is_disabled": 0, "rental_uris": {"android": "https://dc.lft.to/lastmile_qr_scan", "ios": "https://dc.lft.to/lastmile_qr_scan"}, "fusion_lon": 0.0, "lat": 38.8875285, "lon": -77.02573383333333, "type": "electric_scooter", "bike_id": "8a8ff0b10c347fc1cf8cd4f0ae897cae", "name": "8a8ff0b10c347fc1cf8cd4f0ae897cae"}, {"fusion_lat": 0.0, "is_reserved": 0, "is_disabled": 0, "rental_uris": {"android": "https://dc.lft.to/lastmile_qr_scan", "ios": "https://dc.lft.to/lastmile_qr_scan"}, "fusion_lon": 0.0, "lat": 38.917220666666665, "lon": -77.0383735, "type": "electric_scooter", "bike_id": "0bf765dc3d34826a6db620280135209c", "name": "0bf765dc3d34826a6db620280135209c"}, {"fusion_lat": 0.0, "is_reserved": 0, "is_disabled": 0, "rental_uris": {"android": "https://dc.lft.to/lastmile_qr_scan", "ios": "https://dc.lft.to/lastmile_qr_scan"}, "fusion_lon": 0.0, "lat": 38.924756, "lon": -77.02628966666667, "type": "electric_scooter", "bike_id": "1af9e36f6b33294df2afcefe4e37c526", "name": "1af9e36f6b33294df2afcefe4e37c526"}, {"fusion_lat": 0.0, "is_reserved": 0, "is_disabled": 0, "rental_uris": {"android": "https://dc.lft.to/lastmile_qr_scan", "ios": "https://dc.lft.to/lastmile_qr_scan"}, "fusion_lon": 0.0, "lat": 38.93974266666667, "lon": -77.02883183333333, "type": "electric_scooter", "bike_id": "c4af0c4ab0c4e780e6c092b16e7c0e33", "name": "c4af0c4ab0c4e780e6c092b16e7c0e33"}, {"fusion_lat": 0.0, "is_reserved": 0, "is_disabled": 0, "rental_uris": {"android": "https://dc.lft.to/lastmile_qr_scan", "ios": "https://dc.lft.to/lastmile_qr_scan"}, "fusion_lon": 0.0, "lat": 38.904883166666664, "lon": -77.04040683333334, "type": "electric_scooter", "bike_id": "8155fc09d2cd6cec77bfa68c3329bb0a", "name": "8155fc09d2cd6cec77bfa68c3329bb0a"}, {"fusion_lat": 0.0, "is_reserved": 0, "is_disabled": 0, "rental_uris": {"android": "https://dc.lft.to/lastmile_qr_scan", "ios": "https://dc.lft.to/lastmile_qr_scan"}, "fusion_lon": 0.0, "lat": 38.909765166666666, "lon": -77.02177783333333, "type": "electric_scooter", "bike_id": "de71ab675a946957985c76ae581b19ba", "name": "de71ab675a946957985c76ae581b19ba"}, {"fusion_lat": 0.0, "is_reserved": 0, "is_disabled": 0, "rental_uris": {"android": "https://dc.lft.to/lastmile_qr_scan", "ios": "https://dc.lft.to/lastmile_qr_scan"}, "fusion_lon": 0.0, "lat": 38.90557333333334, "lon": -77.00584633333334, "type": "electric_scooter", "bike_id": "c9e6befe727899aabf7b071eece942f1", "name": "c9e6befe727899aabf7b071eece942f1"}, {"fusion_lat": 0.0, "is_reserved": 0, "is_disabled": 0, "rental_uris": {"android": "https://dc.lft.to/lastmile_qr_scan", "ios": "https://dc.lft.to/lastmile_qr_scan"}, "fusion_lon": 0.0, "lat": 38.862133166666666, "lon": -76.99473333333333, "type": "electric_scooter", "bike_id": "e07f06e367d36495c04761b7d4da01c8", "name": "e07f06e367d36495c04761b7d4da01c8"}, {"fusion_lat": 0.0, "is_reserved": 0, "is_disabled": 0, "rental_uris": {"android": "https://dc.lft.to/lastmile_qr_scan", "ios": "https://dc.lft.to/lastmile_qr_scan"}, "fusion_lon": 0.0, "lat": 38.874724, "lon": -77.00932016666667, "type": "electric_scooter", "bike_id": "1c77154d227424c54b1245c3718d1674", "name": "1c77154d227424c54b1245c3718d1674"}, {"fusion_lat": 0.0, "is_reserved": 0, "is_disabled": 0, "rental_uris": {"android": "https://dc.lft.to/lastmile_qr_scan", "ios": "https://dc.lft.to/lastmile_qr_scan"}, "fusion_lon": 0.0, "lat": 38.89802016666667, "lon": -77.00895216666666, "type": "electric_scooter", "bike_id": "222b2c4a027eeff459ef652f35f1b62a", "name": "222b2c4a027eeff459ef652f35f1b62a"}, {"fusion_lat": 0.0, "is_reserved": 0, "is_disabled": 0, "rental_uris": {"android": "https://dc.lft.to/lastmile_qr_scan", "ios": "https://dc.lft.to/lastmile_qr_scan"}, "fusion_lon": 0.0, "lat": 38.92870216666667, "lon": -77.03425116666666, "type": "electric_scooter", "bike_id": "102b6345d1a8841d935111729f805fff", "name": "102b6345d1a8841d935111729f805fff"}, {"fusion_lat": 0.0, "is_reserved": 0, "is_disabled": 0, "rental_uris": {"android": "https://dc.lft.to/lastmile_qr_scan", "ios": "https://dc.lft.to/lastmile_qr_scan"}, "fusion_lon": 0.0, "lat": 38.920654, "lon": -77.02362983333333, "type": "electric_scooter", "bike_id": "97cc233cd036e3f2ab653f4af63c193a", "name": "97cc233cd036e3f2ab653f4af63c193a"}, {"fusion_lat": 0.0, "is_reserved": 0, "is_disabled": 0, "rental_uris": {"android": "https://dc.lft.to/lastmile_qr_scan", "ios": "https://dc.lft.to/lastmile_qr_scan"}, "fusion_lon": 0.0, "lat": 38.880847833333334, "lon": -76.92730383333334, "type": "electric_scooter", "bike_id": "4eb095b409b9dda7ca214c46a54db6b7", "name": "4eb095b409b9dda7ca214c46a54db6b7"}, {"fusion_lat": 0.0, "is_reserved": 0, "is_disabled": 0, "rental_uris": {"android": "https://dc.lft.to/lastmile_qr_scan", "ios": "https://dc.lft.to/lastmile_qr_scan"}, "fusion_lon": 0.0, "lat": 38.92498833333333, "lon": -77.0089145, "type": "electric_scooter", "bike_id": "324da48e81bd7b01224002c85daa6a66", "name": "324da48e81bd7b01224002c85daa6a66"}, {"fusion_lat": 0.0, "is_reserved": 0, "is_disabled": 0, "rental_uris": {"android": "https://dc.lft.to/lastmile_qr_scan", "ios": "https://dc.lft.to/lastmile_qr_scan"}, "fusion_lon": 0.0, "lat": 38.920184, "lon": -77.0322465, "type": "electric_scooter", "bike_id": "62d1c65721619c30e24781e39e566197", "name": "62d1c65721619c30e24781e39e566197"}, {"fusion_lat": 0.0, "is_reserved": 0, "is_disabled": 0, "rental_uris": {"android": "https://dc.lft.to/lastmile_qr_scan", "ios": "https://dc.lft.to/lastmile_qr_scan"}, "fusion_lon": 0.0, "lat": 38.893463, "lon": -77.01204316666667, "type": "electric_scooter", "bike_id": "65f6ea831ca5b41c21c1db27e7371610", "name": "65f6ea831ca5b41c21c1db27e7371610"}, {"fusion_lat": 0.0, "is_reserved": 0, "is_disabled": 0, "rental_uris": {"android": "https://dc.lft.to/lastmile_qr_scan", "ios": "https://dc.lft.to/lastmile_qr_scan"}, "fusion_lon": 0.0, "lat": 38.839425166666665, "lon": -77.07896066666666, "type": "electric_bike", "bike_id": "9e2c50c7e10951850cc8f9bf3ed59212", "name": "9e2c50c7e10951850cc8f9bf3ed59212"}, {"fusion_lat": 0.0, "is_reserved": 0, "is_disabled": 0, "rental_uris": {"android": "https://dc.lft.to/lastmile_qr_scan", "ios": "https://dc.lft.to/lastmile_qr_scan"}, "fusion_lon": 0.0, "lat": 38.9171695, "lon": -77.02492933333333, "type": "electric_scooter", "bike_id": "16a5759590eece375ee64b356f3f7c8c", "name": "16a5759590eece375ee64b356f3f7c8c"}, {"fusion_lat": 0.0, "is_reserved": 0, "is_disabled": 0, "rental_uris": {"android": "https://dc.lft.to/lastmile_qr_scan", "ios": "https://dc.lft.to/lastmile_qr_scan"}, "fusion_lon": 0.0, "lat": 38.893733, "lon": -76.94993983333333, "type": "electric_scooter", "bike_id": "c36396f1af3676e25993c11c66c0b49c", "name": "c36396f1af3676e25993c11c66c0b49c"}, {"fusion_lat": 0.0, "is_reserved": 0, "is_disabled": 0, "rental_uris": {"android": "https://dc.lft.to/lastmile_qr_scan", "ios": "https://dc.lft.to/lastmile_qr_scan"}, "fusion_lon": 0.0, "lat": 38.88882233333333, "lon": -77.0793815, "type": "electric_bike", "bike_id": "38a5477ee8324e0e5b57f37ac8cbeaf0", "name": "38a5477ee8324e0e5b57f37ac8cbeaf0"}, {"fusion_lat": 0.0, "is_reserved": 0, "is_disabled": 0, "rental_uris": {"android": "https://dc.lft.to/lastmile_qr_scan", "ios": "https://dc.lft.to/lastmile_qr_scan"},