{"data": {"bikes": [{"rental_uris": {"android": "https://dc.lft.to/lastmile_qr_scan", "ios": "https://dc.lft.to/lastmile_qr_scan"}, "type": "electric_scooter", "lon": -77.00831983333333, "name": "89a8f4abf5b52280b982f0ce5d6dd848", "bike_id": "89a8f4abf5b52280b982f0ce5d6dd848", "fusion_lat": 0.0, "is_reserved": 0, "lat": 38.876412, "fusion_lon": 0.0, "is_disabled": 0}, {"rental_uris": {"android": "https://dc.lft.to/lastmile_qr_scan", "ios": "https://dc.lft.to/lastmile_qr_scan"}, "type": "electric_scooter", "lon": -76.9847265, "name": "01bd449149070564bfe4040fc9ea6e07", "bike_id": "01bd449149070564bfe4040fc9ea6e07", "fusion_lat": 0.0, "is_reserved": 0, "lat": 38.928940833333336, "fusion_lon": 0.0, "is_disabled": 0}, {"rental_uris": {"android": "https://dc.lft.to/lastmile_qr_scan", "ios": "https://dc.lft.to/lastmile_qr_scan"}, "type": "electric_scooter", "lon": -77.025041, "name": "49de66c4f529403c10f135489397d442", "bike_id": "49de66c4f529403c10f135489397d442", "fusion_lat": 0.0, "is_reserved": 0, "lat": 38.942007, "fusion_lon": 0.0, "is_disabled": 0}, {"rental_uris": {"android": "https://dc.lft.to/lastmile_qr_scan", "ios": "https://dc.lft.to/lastmile_qr_scan"}, "type": "electric_scooter", "lon": -77.04460666666667, "name": "2af42aa7fb2c0fd4317d2dbc9d1c340d", "bike_id": "2af42aa7fb2c0fd4317d2dbc9d1c340d", "fusion_lat": 0.0, "is_reserved": 0, "lat": 38.91119883333333, "fusion_lon": 0.0, "is_disabled": 0}, {"rental_uris": {"android": "https://dc.lft.to/lastmile_qr_scan", "ios": "https://dc.lft.to/lastmile_qr_scan"}, "type": "electric_scooter", "lon": -77.05521166666666, "name": "96fad9ad2281eb3a94429176b5971b19", "bike_id": "96fad9ad2281eb3a94429176b5971b19", "fusion_lat": 0.0, "is_reserved": 0, "lat": 38.92963733333333, "fusion_lon": 0.0, "is_disabled": 0}, {"rental_uris": {"android": "https://dc.lft.to/lastmile_qr_scan", "ios": "https://dc.lft.to/lastmile_qr_scan"}, "type": "electric_scooter", "lon": -77.027626, "name": "0770102b5991dee387ab1b2566da9129", "bike_id": "0770102b5991dee387ab1b2566da9129", "fusion_lat": 0.0, "is_reserved": 0, "lat": 38.9539695, "fusion_lon": 0.0, "is_disabled": 0}, {"rental_uris": {"android": "https://dc.lft.to/lastmile_qr_scan", "ios": "https://dc.lft.to/lastmile_qr_scan"}, "type": "electric_scooter", "lon": -77.03204383333333, "name": "abd9e04b2d84668237eef5a0fdf982b7", "bike_id": "abd9e04b2d84668237eef5a0fdf982b7", "fusion_lat": 0.0, "is_reserved": 0, "lat": 38.9184825, "fusion_lon": 0.0, "is_disabled": 0}, {"rental_uris": {"android": "https://dc.lft.to/lastmile_qr_scan", "ios": "https://dc.lft.to/lastmile_qr_scan"}, "type": "electric_bike", "lon": -77.02904416666667, "name": "a56291f930f00a319d7bbfd0ee20fa93", "bike_id": "a56291f930f00a319d7bbfd0ee20fa93", "fusion_lat": 0.0, "is_reserved": 0, "lat": 38.89196233333333, "fusion_lon": 0.0, "is_disabled": 0}, {"rental_uris": {"android": "https://dc.lft.to/lastmile_qr_scan", "ios": "https://dc.lft.to/lastmile_qr_scan"}, "type": "electric_scooter", "lon": -76.982662, "name": "2ce14b67b2ff1ff187ea375ecda4da74", "bike_id": "2ce14b67b2ff1ff187ea375ecda4da74", "fusion_lat": 0.0, "is_reserved": 0, "lat": 38.86350483333333, "fusion_lon": 0.0, "is_disabled": 0}, {"rental_uris": {"android": "https://dc.lft.to/lastmile_qr_scan", "ios": "https://dc.lft.to/lastmile_qr_scan"}, "type": "electric_scooter", "lon": -76.97615733333333, "name": "92fa8950ce03dc641fe32a26f8fb6d83", "bike_id": "92fa8950ce03dc641fe32a26f8fb6d83", "fusion_lat": 0.0, "is_reserved": 0, "lat": 38.931423, "fusion_lon": 0.0, "is_disabled": 0}, {"rental_uris": {"android": "https://dc.lft.to/lastmile_qr_scan", "ios": "https://dc.lft.to/lastmile_qr_scan"}, "type": "electric_scooter", "lon": -76.98533466666666, "name": "4892202713886b4ec2bf700703a9f719", "bike_id": "4892202713886b4ec2bf700703a9f719", "fusion_lat": 0.0, "is_reserved": 0, "lat": 38.880793, "fusion_lon": 0.0, "is_disabled": 0}, {"rental_uris": {"android": "https://dc.lft.to/lastmile_qr_scan", "ios": "https://dc.lft.to/lastmile_qr_scan"}, "type": "electric_bike", "lon": -76.95472066666666, "name": "175c59e58ea368f747b157cad7bfbe12", "bike_id": "175c59e58ea368f747b157cad7bfbe12", "fusion_lat": 0.0, "is_reserved": 0, "lat": 38.935661, "fusion_lon": 0.0, "is_disabled": 0}, {"rental_uris": {"android": "https://dc.lft.to/lastmile_qr_scan", "ios": "https://dc.lft.to/lastmile_qr_scan"}, "type": "electric_bike", "lon": -76.98881883333334, "name": "c337437a2859e6f41b7d83d4e8a31ff6", "bike_id": "c337437a2859e6f41b7d83d4e8a31ff6", "fusion_lat": 0.0, "is_reserved": 0, "lat": 38.92111166666667, "fusion_lon": 0.0, "is_disabled": 0}, {"rental_uris": {"android": "https://dc.lft.to/lastmile_qr_scan", "ios": "https://dc.lft.to/lastmile_qr_scan"}, "type": "electric_scooter", "lon": -77.00216716666667, "name": "141e5013c3e3f9a2a7e9c5e750e38bf3", "bike_id": "141e5013c3e3f9a2a7e9c5e750e38bf3", "fusion_lat": 0.0, "is_reserved": 0, "lat": 38.90303816666667, "fusion_lon": 0.0, "is_disabled": 0}, {"rental_uris": {"android": "https://dc.lft.to/lastmile_qr_scan", "ios": "https://dc.lft.to/lastmile_qr_scan"}, "type": "electric_scooter", "lon": -77.00513133333334, "name": "3c35f1e5216d20bf5b6799f3a4f957b6", "bike_id": "3c35f1e5216d20bf5b6799f3a4f957b6", "fusion_lat": 0.0, "is_reserved": 0, "lat": 38.92600266666667, "fusion_lon": 0.0, "is_disabled": 0}, {"rental_uris": {"android": "https://dc.lft.to/lastmile_qr_scan", "ios": "https://dc.lft.to/lastmile_qr_scan"}, "type": "electric_scooter", "lon": -77.01822666666666, "name": "ec8620053f0a9d167c4df37472a55534", "bike_id": "ec8620053f0a9d167c4df37472a55534", "fusion_lat": 0.0, "is_reserved": 0, "lat": 38.92213016666667, "fusion_lon": 0.0, "is_disabled": 0}, {"rental_uris": {"android": "https://dc.lft.to/lastmile_qr_scan", "ios": "https://dc.lft.to/lastmile_qr_scan"}, "type": "electric_bike", "lon": -77.12962016666667, "name": "dc27ca12fab32ae8ee9161d80003b0ea", "bike_id": "dc27ca12fab32ae8ee9161d80003b0ea", "fusion_lat": 0.0, "is_reserved": 0, "lat": 38.85219033333333, "fusion_lon": 0.0, "is_disabled": 0}, {"rental_uris": {"android": "https://dc.lft.to/lastmile_qr_scan", "ios": "https://dc.lft.to/lastmile_qr_scan"}, "type": "electric_scooter", "lon": -77.04557816666667, "name": "218c995cff26903f7d60be85aada7725", "bike_id": "218c995cff26903f7d60be85aada7725", "fusion_lat": 0.0, "is_reserved": 0, "lat": 38.908517, "fusion_lon": 0.0, "is_disabled": 0}, {"rental_uris": {"android": "https://dc.lft.to/lastmile_qr_scan", "ios": "https://dc.lft.to/lastmile_qr_scan"}, "type": "electric_scooter", "lon": -77.03431283333333, "name": "8476f3ac52dc86135ae2de1d0593db0d", "bike_id": "8476f3ac52dc86135ae2de1d0593db0d", "fusion_lat": 0.0, "is_reserved": 0, "lat": 38.90548316666667, "fusion_lon": 0.0, "is_disabled": 0}, {"rental_uris": {"android": "https://dc.lft.to/lastmile_qr_scan", "ios": "https://dc.lft.to/lastmile_qr_scan"}, "type": "electric_scooter", "lon": -77.02607266666666, "name": "9e11823f2f7ccab491c04b6fc82a7997", "bike_id": "9e11823f2f7ccab491c04b6fc82a7997", "fusion_lat": 0.0, "is_reserved": 0, "lat": 38.916301, "fusion_lon": 0.0, "is_disabled": 0}, {"rental_uris": {"android": "https://dc.lft.to/lastmile_qr_scan", "ios": "https://dc.lft.to/lastmile_qr_scan"}, "type": "electric_scooter", "lon": -77.02716816666667, "name": "946950e2d5f3174b7d7e30eeed17eabf", "bike_id": "946950e2d5f3174b7d7e30eeed17eabf", "fusion_lat": 0.0, "is_reserved": 0, "lat": 38.922449666666665, "fusion_lon": 0.0, "is_disabled": 0}, {"rental_uris": {"android": "https://dc.lft.to/lastmile_qr_scan", "ios": "https://dc.lft.to/lastmile_qr_scan"}, "type": "electric_scooter", "lon": -77.0058885, "name": "d226e3e6ed8a826324abff08778e2cd2", "bike_id": "d226e3e6ed8a826324abff08778e2cd2", "fusion_lat": 0.0, "is_reserved": 0, "lat": 38.90575716666667, "fusion_lon": 0.0, "is_disabled": 0}, {"rental_uris": {"android": "https://dc.lft.to/lastmile_qr_scan", "ios": "https://dc.lft.to/lastmile_qr_scan"}, "type": "electric_scooter", "lon": -77.00931266666667, "name": "1b05ef2cdb48379dd05c7b0293ec99c5", "bike_id": "1b05ef2cdb48379dd05c7b0293ec99c5", "fusion_lat": 0.0, "is_reserved": 0, "lat": 38.912564, "fusion_lon": 0.0, "is_disabled": 0}, {"rental_uris": {"android": "https://dc.lft.to/lastmile_qr_scan", "ios": "https://dc.lft.to/lastmile_qr_scan"}, "type": "electric_bike", "lon": -76.9323165, "name": "c86ca73967c6f54efabf6160d793a5ed", "bike_id": "c86ca73967c6f54efabf6160d793a5ed", "fusion_lat": 0.0, "is_reserved": 0, "lat": 38.86590433333333, "fusion_lon": 0.0, "is_disabled": 0}, {"rental_uris": {"android": "https://dc.lft.to/lastmile_qr_scan", "ios": "https://dc.lft.to/lastmile_qr_scan"}, "type": "electric_scooter", "lon": -77.07324033333333, "name": "e68b08ac764b2db51d0bb8bcf17287ed", "bike_id": "e68b08ac764b2db51d0bb8bcf17287ed", "fusion_lat": 0.0, "is_reserved": 0, "lat": 38.93355233333333, "fusion_lon": 0.0, "is_disabled": 0}, {"rental_uris": {"android": "https://dc.lft.to/lastmile_qr_scan", "ios": "https://dc.lft.to/lastmile_qr_scan"}, "type": "electric_scooter", "lon": -77.038325, "name": "fed6855a940f24d0d06e4f5ac425f674", "bike_id": "fed6855a940f24d0d06e4f5ac425f674", "fusion_lat": 0.0, "is_reserved": 0, "lat": 38.915487666666664, "fusion_lon": 0.0, "is_disabled": 0}, {"rental_uris": {"android": "https://dc.lft.to/lastmile_qr_scan", "ios": "https://dc.lft.to/lastmile_qr_scan"}, "type": "electric_scooter", "lon": -77.03444483333334, "name": "11896798626e23cc69f0e2973d78da32", "bike_id": "11896798626e23cc69f0e2973d78da32", "fusion_lat": 0.0, "is_reserved": 0, "lat": 38.930893833333336, "fusion_lon": 0.0, "is_disabled": 0}, {"rental_uris": {"android": "https://dc.lft.to/lastmile_qr_scan", "ios": "https://dc.lft.to/lastmile_qr_scan"}, "type": "electric_scooter", "lon": -77.00223916666667, "name": "62735a38a57fa13e2e761dc5c03a87ef", "bike_id": "62735a38a57fa13e2e761dc5c03a87ef", "fusion_lat": 0.0, "is_reserved": 0, "lat": 38.957257, "fusion_lon": 0.0, "is_disabled": 0}, {"rental_uris": {"android": "https://dc.lft.to/lastmile_qr_scan", "ios": "https://dc.lft.to/lastmile_qr_scan"}, "type": "electric_scooter", "lon": -77.092048, "name": "cbf6c6e56d81aa4de3c47cf8f1f67d48", "bike_id": "cbf6c6e56d81aa4de3c47cf8f1f67d48", "fusion_lat": 0.0, "is_reserved": 0, "lat": 38.91711316666667, "fusion_lon": 0.0, "is_disabled": 0}, {"rental_uris": {"android": "https://dc.lft.to/lastmile_qr_scan", "ios": "https://dc.lft.to/lastmile_qr_scan"}, "type": "electric_scooter", "lon": -77.02431166666666, "name": "65b3601d9a3015f55e09282208c4c165", "bike_id": "65b3601d9a3015f55e09282208c4c165", "fusion_lat": 0.0, "is_reserved": 0, "lat": 38.92751766666667, "fusion_lon": 0.0, "is_disabled": 0}, {"rental_uris": {"android": "https://dc.lft.to/lastmile_qr_scan", "ios": "https://dc.lft.to/lastmile_qr_scan"}, "type": "electric_scooter", "lon": -77.02757916666667, "name": "675ce5b41070e8b4e970496cd7a200fa", "bike_id": "675ce5b41070e8b4e970496cd7a200fa", "fusion_lat": 0.0, "is_reserved": 0, "lat": 38.923813833333334, "fusion_lon": 0.0, "is_disabled": 0}, {"rental_uris": {"android": "https://dc.lft.to/lastmile_qr_scan", "ios": "https://dc.lft.to/lastmile_qr_scan"}, "type": "electric_scooter", "lon": -77.05008183333334, "name": "6abe7c6140bc26a1ce089266cd11556b", "bike_id": "6abe7c6140bc26a1ce089266cd11556b", "fusion_lat": 0.0, "is_reserved": 0, "lat": 38.90101216666667, "fusion_lon": 0.0, "is_disabled": 0}, {"rental_uris": {"android": "https://dc.lft.to/lastmile_qr_scan", "ios": "https://dc.lft.to/lastmile_qr_scan"}, "type": "electric_scooter", "lon": -77.03944883333334, "name": "107963ea357d53f9708a925882e6cfb1", "bike_id": "107963ea357d53f9708a925882e6cfb1", "fusion_lat": 0.0, "is_reserved": 0, "lat": 38.904305, "fusion_lon": 0.0, "is_disabled": 0}, {"rental_uris": {"android": "https://dc.lft.to/lastmile_qr_scan", "ios": "https://dc.lft.to/lastmile_qr_scan"}, "type": "electric_scooter", "lon": -77.00451533333333, "name": "10b56bcf7f98d4f8410b1dd8ad4768be", "bike_id": "10b56bcf7f98d4f8410b1dd8ad4768be", "fusion_lat": 0.0, "is_reserved": 0, "lat": 38.92895216666667, "fusion_lon": 0.0, "is_disabled": 0}, {"rental_uris": {"android": "https://dc.lft.to/lastmile_qr_scan", "ios": "https://dc.lft.to/lastmile_qr_scan"}, "type": "electric_scooter", "lon": -77.02235383333333, "name": "a5b1d644794df47d7254a8417a038124", "bike_id": "a5b1d644794df47d7254a8417a038124", "fusion_lat": 0.0, "is_reserved": 0, "lat": 38.9135515, "fusion_lon": 0.0, "is_disabled": 0}, {"rental_uris": {"android": "https://dc.lft.to/lastmile_qr_scan", "ios": "https://dc.lft.to/lastmile_qr_scan"}, "type": "electric_scooter", "lon": -77.04704166666667, "name": "335c813ddf8282b142d23dc70c054d1f", "bike_id": "335c813ddf8282b142d23dc70c054d1f", "fusion_lat": 0.0, "is_reserved": 0, "lat": 38.912564333333336, "fusion_lon": 0.0, "is_disabled": 0}, {"rental_uris": {"android": "https://dc.lft.to/lastmile_qr_scan", "ios": "https://dc.lft.to/lastmile_qr_scan"}, "type": "electric_scooter", "lon": -77.02782583333334, "name": "c931ad1eefedd9bc6429e2c735788dac", "bike_id": "c931ad1eefedd9bc6429e2c735788dac", "fusion_lat": 0.0, "is_reserved": 0, "lat": 38.961492666666665, "fusion_lon": 0.0, "is_disabled": 0}, {"rental_uris": {"android": "https://dc.lft.to/lastmile_qr_scan", "ios": "https://dc.lft.to/lastmile_qr_scan"}, "type": "electric_scooter", "lon": -77.046548, "name": "def794745c9b1851a421698d5f07a43c", "bike_id": "def794745c9b1851a421698d5f07a43c", "fusion_lat": 0.0, "is_reserved": 0, "lat": 38.904988333333336, "fusion_lon": 0.0, "is_disabled": 0}, {"rental_uris": {"android": "https://dc.lft.to/lastmile_qr_scan", "ios": "https://dc.lft.to/lastmile_qr_scan"}, "type": "electric_scooter", "lon": -77.03391166666667, "name": "2a738eb15bfcb739619ff9d69eda8c8f", "bike_id": "2a738eb15bfcb739619ff9d69eda8c8f", "fusion_lat": 0.0, "is_reserved": 0, "lat": 38.9215635, "fusion_lon": 0.0, "is_disabled": 0}, {"rental_uris": {"android": "https://dc.lft.to/lastmile_qr_scan", "ios": "https://dc.lft.to/lastmile_qr_scan"}, "type": "electric_scooter", "lon": -77.03284683333334, "name": "727d6f4d58486fc2e593b989705a6b53", "bike_id": "727d6f4d58486fc2e593b989705a6b53", "fusion_lat": 0.0, "is_reserved": 0, "lat": 38.939865833333336, "fusion_lon": 0.0, "is_disabled": 0}, {"rental_uris": {"android": "https://dc.lft.to/lastmile_qr_scan", "ios": "https://dc.lft.to/lastmile_qr_scan"}, "type": "electric_bike", "lon": -77.00604216666666, "name": "441876f75305e2389c0085584beea8c4", "bike_id": "441876f75305e2389c0085584beea8c4", "fusion_lat": 0.0, "is_reserved": 0, "lat": 38.876350333333335, "fusion_lon": 0.0, "is_disabled": 0}, {"rental_uris": {"android": "https://dc.lft.to/lastmile_qr_scan", "ios": "https://dc.lft.to/lastmile_qr_scan"}, "type": "electric_scooter", "lon": -77.05627083333333, "name": "70e9d828e28b38365b975648ff63343b", "bike_id": "70e9d828e28b38365b975648ff63343b", "fusion_lat": 0.0, "is_reserved": 0, "lat": 38.92414733333333, "fusion_lon": 0.0, "is_disabled": 0}, {"rental_uris": {"android": "https://dc.lft.to/lastmile_qr_scan", "ios": "https://dc.lft.to/lastmile_qr_scan"}, "type": "electric_scooter", "lon": -77.02725883333333, "name": "7ded1a370392ff9786feba00048dc8e0", "bike_id": "7ded1a370392ff9786feba00048dc8e0", "fusion_lat": 0.0, "is_reserved": 0, "lat": 38.933983166666664, "fusion_lon": 0.0, "is_disabled": 0}, {"rental_uris": {"android": "https://dc.lft.to/lastmile_qr_scan", "ios": "https://dc.lft.to/lastmile_qr_scan"}, "type": "electric_scooter", "lon": -77.03218416666667, "name": "f71d71f413ac155a83431a30b9581e7c", "bike_id": "f71d71f413ac155a83431a30b9581e7c", "fusion_lat": 0.0, "is_reserved": 0, "lat": 38.909170333333336, "fusion_lon": 0.0, "is_disabled": 0}, {"rental_uris": {"android": "https://dc.lft.to/lastmile_qr_scan", "ios": "https://dc.lft.to/lastmile_qr_scan"}, "type": "electric_scooter", "lon": -77.02592983333334, "name": "d3f2a182808cd7faea82eaf9e6cf3a4a", "bike_id": "d3f2a182808cd7faea82eaf9e6cf3a4a", "fusion_lat": 0.0, "is_reserved": 0, "lat": 38.90479, "fusion_lon": 0.0, "is_disabled": 0}, {"rental_uris": {"android": "https://dc.lft.to/lastmile_qr_scan", "ios": "https://dc.lft.to/lastmile_qr_scan"}, "type": "electric_scooter", "lon": -77.02578166666666, "name": "f9ac92daf8f3d041520d0d0265cbfcac", "bike_id": "f9ac92daf8f3d041520d0d0265cbfcac", "fusion_lat": 0.0, "is_reserved": 0, "lat": 38.92505383333334, "fusion_lon": 0.0, "is_disabled": 0}, {"rental_uris": {"android": "https://dc.lft.to/lastmile_qr_scan", "ios": "https://dc.lft.to/lastmile_qr_scan"}, "type": "electric_scooter", "lon": -77.060769, "name": "ae422d9a075d576c93c0d1bc0c6fce91", "bike_id": "ae422d9a075d576c93c0d1bc0c6fce91", "fusion_lat": 0.0, "is_reserved": 0, "lat": 38.905275, "fusion_lon": 0.0, "is_disabled": 0}, {"rental_uris": {"android": "https://dc.lft.to/lastmile_qr_scan", "ios": "https://dc.lft.to/lastmile_qr_scan"}, "type": "electric_scooter", "lon": -76.95408583333334, "name": "825995fa012d46625eda6efdc6563a82", "bike_id": "825995fa012d46625eda6efdc6563a82", "fusion_lat": 0.0, "is_reserved": 0, "lat": 38.89157433333333, "fusion_lon": 0.0, "is_disabled": 0}, {"rental_uris": {"android": "https://dc.lft.to/lastmile_qr_scan", "ios": "https://dc.lft.to/lastmile_qr_scan"}, "type": "electric_scooter", "lon": -77.04382683333333, "name": "a0f233e2b704128453fbced41011e897", "bike_id": "a0f233e2b704128453fbced41011e897", "fusion_lat": 0.0, "is_reserved": 0, "lat": 38.90639633333333, "fusion_lon": 0.0, "is_disabled": 0}, {"rental_uris": {"android": "https://dc.lft.to/lastmile_qr_scan", "ios": "https://dc.lft.to/lastmile_qr_scan"}, "type": "electric_scooter", "lon": -77.04009616666667, "name": "61bddbe18e9e1f99356490ae00f87084", "bike_id": "61bddbe18e9e1f99356490ae00f87084", "fusion_lat": 0.0, "is_reserved": 0, "lat": 38.9130315, "fusion_lon": 0.0, "is_disabled": 0}, {"rental_uris": {"android": "https://dc.lft.to/lastmile_qr_scan", "ios": "https://dc.lft.to/lastmile_qr_scan"}, "type": "electric_scooter", "lon": -77.07345683333334, "name": "4a345ea0d5a4dd038cf9aaeca40879d2", "bike_id": "4a345ea0d5a4dd038cf9aaeca40879d2", "fusion_lat": 0.0, "is_reserved": 0, "lat": 38.911007833333336, "fusion_lon": 0.0, "is_disabled": 0}, {"rental_uris": {"android": "https://dc.lft.to/lastmile_qr_scan", "ios": "https://dc.lft.to/lastmile_qr_scan"}, "type": "electric_bike", "lon": -77.233004, "name": "a4af0dc479d0c8ecb9b7a72d801af815", "bike_id": "a4af0dc479d0c8ecb9b7a72d801af815", "fusion_lat": 0.0, "is_reserved": 0, "lat": 38.9251475, "fusion_lon": 0.0, "is_disabled": 0}, {"rental_uris": {"android": "https://dc.lft.to/lastmile_qr_scan", "ios": "https://dc.lft.to/lastmile_qr_scan"}, "type": "electric_scooter", "lon": -77.04807983333333, "name": "29b84ae7e585ea872f2c652d4b6f0e62", "bike_id": "29b84ae7e585ea872f2c652d4b6f0e62", "fusion_lat": 0.0, "is_reserved": 0, "lat": 38.91098, "fusion_lon": 0.0, "is_disabled": 0}, {"rental_uris": {"android": "https://dc.lft.to/lastmile_qr_scan", "ios": "https://dc.lft.to/lastmile_qr_scan"}, "type": "electric_bike", "lon": -76.91658516666666, "name": "610b218cfffe363d829e92ce6fc5d99b", "bike_id": "610b218cfffe363d829e92ce6fc5d99b", "fusion_lat": 0.0, "is_reserved": 0, "lat": 38.868597333333334, "fusion_lon": 0.0, "is_disabled": 0}, {"rental_uris": {"android": "https://dc.lft.to/lastmile_qr_scan", "ios": "https://dc.lft.to/lastmile_qr_scan"}, "type": "electric_scooter", "lon": -76.9425395, "name": "37ad19d155aa7503df6a1fdaa0f9f50e", "bike_id": "37ad19d155aa7503df6a1fdaa0f9f50e", "fusion_lat": 0.0, "is_reserved": 0, "lat": 38.89681316666667, "fusion_lon": 0.0, "is_disabled": 0}, {"rental_uris": {"android": "https://dc.lft.to/lastmile_qr_scan", "ios": "https://dc.lft.to/lastmile_qr_scan"}, "type": "electric_bike", "lon": -77.12268883333333, "name": "d2061ac7369b562e994e15b960c75e0b", "bike_id": "d2061ac7369b562e994e15b960c75e0b", "fusion_lat": 0.0, "is_reserved": 0, "lat": 38.8973065, "fusion_lon": 0.0, "is_disabled": 0}, {"rental_uris": {"android": "https://dc.lft.to/lastmile_qr_scan", "ios": "https://dc.lft.to/lastmile_qr_scan"}, "type": "electric_scooter", "lon": -77.05299683333334, "name": "105b0cc29358acb2dc209e84712f8e42", "bike_id": "105b0cc29358acb2dc209e84712f8e42", "fusion_lat": 0.0, "is_reserved": 0, "lat": 38.898791, "fusion_lon": 0.0, "is_disabled": 0}, {"rental_uris": {"android": "https://dc.lft.to/lastmile_qr_scan", "ios": "https://dc.lft.to/lastmile_qr_scan"}, "type": "electric_bike", "lon": -77.016587, "name": "3f2bbfc7362409372d678d3de684e0fa", "bike_id": "3f2bbfc7362409372d678d3de684e0fa", "fusion_lat": 0.0, "is_reserved": 0, "lat": 38.881189166666665, "fusion_lon": 0.0, "is_disabled": 0}, {"rental_uris": {"android": "https://dc.lft.to/lastmile_qr_scan", "ios": "https://dc.lft.to/lastmile_qr_scan"}, "type": "electric_scooter", "lon": -76.99688133333333, "name": "f0207dde6063da52cec7b0c5b02ddf09", "bike_id": "f0207dde6063da52cec7b0c5b02ddf09", "fusion_lat": 0.0, "is_reserved": 0, "lat": 38.876583333333336, "fusion_lon": 0.0, "is_disabled": 0}, {"rental_uris": {"android": "https://dc.lft.to/lastmile_qr_scan", "ios": "https://dc.lft.to/lastmile_qr_scan"}, "type": "electric_scooter", "lon": -77.0389475, "name": "132238cc07e1988b372e142468ba5173", "bike_id": "132238cc07e1988b372e142468ba5173", "fusion_lat": 0.0, "is_reserved": 0, "lat": 38.93365133333333, "fusion_lon": 0.0, "is_disabled": 0}, {"rental_uris": {"android": "https://dc.lft.to/lastmile_qr_scan", "ios": "https://dc.lft.to/lastmile_qr_scan"}, "type": "electric_scooter", "lon": -77.00811783333333, "name": "7908ef2c1f649d2c9904e90454e506f7", "bike_id": "7908ef2c1f649d2c9904e90454e506f7", "fusion_lat": 0.0, "is_reserved": 0, "lat": 38.878478666666666, "fusion_lon": 0.0, "is_disabled": 0}, {"rental_uris": {"android": "https://dc.lft.to/lastmile_qr_scan", "ios": "https://dc.lft.to/lastmile_qr_scan"}, "type": "electric_bike", "lon": -76.980062, "name": "e1e7f30f19cbbaf80e47effbe96873c8", "bike_id": "e1e7f30f19cbbaf80e47effbe96873c8", "fusion_lat": 0.0, "is_reserved": 0, "lat": 38.90235066666666, "fusion_lon": 0.0, "is_disabled": 0}, {"rental_uris": {"android": "https://dc.lft.to/lastmile_qr_scan", "ios": "https://dc.lft.to/lastmile_qr_scan"}, "type": "electric_scooter", "lon": -77.0209935, "name": "0e15e69251a08711953cd1df8791a9f5", "bike_id": "0e15e69251a08711953cd1df8791a9f5", "fusion_lat": 0.0, "is_reserved": 0, "lat": 38.91008866666667, "fusion_lon": 0.0, "is_disabled": 0}, {"rental_uris": {"android": "https://dc.lft.to/lastmile_qr_scan", "ios": "https://dc.lft.to/lastmile_qr_scan"}, "type": "electric_scooter", "lon": -77.0688885, "name": "e296889bc5928bd33446476f30035373", "bike_id": "e296889bc5928bd33446476f30035373", "fusion_lat": 0.0, "is_reserved": 0, "lat": 38.905197, "fusion_lon": 0.0, "is_disabled": 0}, {"rental_uris": {"android": "https://dc.lft.to/lastmile_qr_scan", "ios": "https://dc.lft.to/lastmile_qr_scan"}, "type": "electric_scooter", "lon": -77.018443, "name": "3cb214f8c04ccc1c94cff24f6ad98b6f", "bike_id": "3cb214f8c04ccc1c94cff24f6ad98b6f", "fusion_lat": 0.0, "is_reserved": 0, "lat": 38.909554, "fusion_lon": 0.0, "is_disabled": 0}, {"rental_uris": {"android": "https://dc.lft.to/lastmile_qr_scan", "ios": "https://dc.lft.to/lastmile_qr_scan"}, "type": "electric_scooter", "lon": -76.9960975, "name": "c83b85af71ed2b0020025dc68ca0f3b0", "bike_id": "c83b85af71ed2b0020025dc68ca0f3b0", "fusion_lat": 0.0, "is_reserved": 0, "lat": 38.8975785, "fusion_lon": 0.0, "is_disabled": 0}, {"rental_uris": {"android": "https://dc.lft.to/lastmile_qr_scan", "ios": "https://dc.lft.to/lastmile_qr_scan"}, "type": "electric_scooter", "lon": -77.02172616666667, "name": "684a797b73e00c2b6c4a2efd8cec659c", "bike_id": "684a797b73e00c2b6c4a2efd8cec659c", "fusion_lat": 0.0, "is_reserved": 0, "lat": 38.88741616666667, "fusion_lon": 0.0, "is_disabled": 0}, {"rental_uris": {"android": "https://dc.lft.to/lastmile_qr_scan", "ios": "https://dc.lft.to/lastmile_qr_scan"}, "type": "electric_scooter", "lon": -77.02206433333333, "name": "04e1200672a14546b56ac3c8fb2c11dd", "bike_id": "04e1200672a14546b56ac3c8fb2c11dd", "fusion_lat": 0.0, "is_reserved": 0, "lat": 38.89620083333333, "fusion_lon": 0.0, "is_disabled": 0}, {"rental_uris": {"android": "https://dc.lft.to/lastmile_qr_scan", "ios": "https://dc.lft.to/lastmile_qr_scan"}, "type": "electric_scooter", "lon": -77.03856783333333, "name": "663c76189656426e2af1e008a70f99c0", "bike_id": "663c76189656426e2af1e008a70f99c0", "fusion_lat": 0.0, "is_reserved": 0, "lat": 38.91537316666667, "fusion_lon": 0.0, "is_disabled": 0}, {"rental_uris": {"android": "https://dc.lft.to/lastmile_qr_scan", "ios": "https://dc.lft.to/lastmile_qr_scan"}, "type": "electric_scooter", "lon": -77.03082266666667, "name": "2fa758b12506eb765f4cd3d022ba841a", "bike_id": "2fa758b12506eb765f4cd3d022ba841a", "fusion_lat": 0.0, "is_reserved": 0, "lat": 38.92726833333333, "fusion_lon": 0.0, "is_disabled": 0}, {"rental_uris": {"android": "https://dc.lft.to/lastmile_qr_scan", "ios": "https://dc.lft.to/lastmile_qr_scan"}, "type": "electric_scooter", "lon": -76.99679983333333, "name": "95c6f850b1c5262a39d179f7a6d21135", "bike_id": "95c6f850b1c5262a39d179f7a6d21135", "fusion_lat": 0.0, "is_reserved": 0, "lat": 38.88696766666666, "fusion_lon": 0.0, "is_disabled": 0}, {"rental_uris": {"android": "https://dc.lft.to/lastmile_qr_scan", "ios": "https://dc.lft.to/lastmile_qr_scan"}, "type": "electric_bike", "lon": -77.00506416666667, "name": "f01e15a6cb8a148511614a095544e865", "bike_id": "f01e15a6cb8a148511614a095544e865", "fusion_lat": 0.0, "is_reserved": 0, "lat": 38.875322, "fusion_lon": 0.0, "is_disabled": 0}, {"rental_uris": {"android": "https://dc.lft.to/lastmile_qr_scan", "ios": "https://dc.lft.to/lastmile_qr_scan"}, "type": "electric_scooter", "lon": -77.02379316666666, "name": "b1ff471dc04e34fdf4c378e35ddae6c9", "bike_id": "b1ff471dc04e34fdf4c378e35ddae6c9", "fusion_lat": 0.0, "is_reserved": 0, "lat": 38.90704816666667, "fusion_lon": 0.0, "is_disabled": 0}, {"rental_uris": {"android": "https://dc.lft.to/lastmile_qr_scan", "ios": "https://dc.lft.to/lastmile_qr_scan"}, "type": "electric_scooter", "lon": -77.04325983333334, "name": "3ae421ea303c314ceecccc64201bff02", "bike_id": "3ae421ea303c314ceecccc64201bff02", "fusion_lat": 0.0, "is_reserved": 0, "lat": 38.892199833333336, "fusion_lon": 0.0, "is_disabled": 0}, {"rental_uris": {"android": "https://dc.lft.to/lastmile_qr_scan", "ios": "https://dc.lft.to/lastmile_qr_scan"}, "type": "electric_scooter", "lon": -77.0378085, "name": "7cf46ae7f02ca7a9d2e10897228c7c6e", "bike_id": "7cf46ae7f02ca7a9d2e10897228c7c6e", "fusion_lat": 0.0, "is_reserved": 0, "lat": 38.9068635, "fusion_lon": 0.0, "is_disabled": 0}, {"rental_uris": {"android": "https://dc.lft.to/lastmile_qr_scan", "ios": "https://dc.lft.to/lastmile_qr_scan"}, "type": "electric_scooter", "lon": -77.06806833333333, "name": "8c46c27f3d0cd40f69fc04851a9310ba", "bike_id": "8c46c27f3d0cd40f69fc04851a9310ba", "fusion_lat": 0.0, "is_reserved": 0, "lat": 38.90515583333333, "fusion_lon": 0.0, "is_disabled": 0}, {"rental_uris": {"android": "https://dc.lft.to/lastmile_qr_scan", "ios": "https://dc.lft.to/lastmile_qr_scan"}, "type": "electric_bike", "lon": -77.11218483333333, "name": "7d0038146375e18c1047585e1cf0b9a6", "bike_id": "7d0038146375e18c1047585e1cf0b9a6", "fusion_lat": 0.0, "is_reserved": 0, "lat": 38.82872533333333, "fusion_lon": 0.0, "is_disabled": 0}, {"rental_uris": {"android": "https://dc.lft.to/lastmile_qr_scan", "ios": "https://dc.lft.to/lastmile_qr_scan"}, "type": "electric_scooter", "lon": -76.931593, "name": "248718d95ab75e6a8350a781d9dcfede", "bike_id": "248718d95ab75e6a8350a781d9dcfede", "fusion_lat": 0.0, "is_reserved": 0, "lat": 38.898785833333335, "fusion_lon": 0.0, "is_disabled": 0}, {"rental_uris": {"android": "https://dc.lft.to/lastmile_qr_scan", "ios": "https://dc.lft.to/lastmile_qr_scan"}, "type": "electric_scooter", "lon": -77.0384715, "name": "e22edf859078b11ccefcac175b4a65dd", "bike_id": "e22edf859078b11ccefcac175b4a65dd", "fusion_lat": 0.0, "is_reserved": 0, "lat": 38.912088833333335, "fusion_lon": 0.0, "is_disabled": 0}, {"rental_uris": {"android": "https://dc.lft.to/lastmile_qr_scan", "ios": "https://dc.lft.to/lastmile_qr_scan"}, "type": "electric_scooter", "lon": -77.00960316666666, "name": "599c953cf6c0667b36bc7a6aef77f3be", "bike_id": "599c953cf6c0667b36bc7a6aef77f3be", "fusion_lat": 0.0, "is_reserved": 0, "lat": 38.921357, "fusion_lon": 0.0, "is_disabled": 0}, {"rental_uris": {"android": "https://dc.lft.to/lastmile_qr_scan", "ios": "https://dc.lft.to/lastmile_qr_scan"}, "type": "electric_scooter", "lon": -76.94217816666666, "name": "16760a7731717c6694d561722d5485ed", "bike_id": "16760a7731717c6694d561722d5485ed", "fusion_lat": 0.0, "is_reserved": 0, "lat": 38.89672516666667, "fusion_lon": 0.0, "is_disabled": 0}, {"rental_uris": {"android": "https://dc.lft.to/lastmile_qr_scan", "ios": "https://dc.lft.to/lastmile_qr_scan"}, "type": "electric_bike", "lon": -76.87496833333333, "name": "39273d5aace707e33e18aa6a539d4cfc", "bike_id": "39273d5aace707e33e18aa6a539d4cfc", "fusion_lat": 0.0, "is_reserved": 0, "lat": 38.99088483333333, "fusion_lon": 0.0, "is_disabled": 0}, {"rental_uris": {"android": "https://dc.lft.to/lastmile_qr_scan", "ios": "https://dc.lft.to/lastmile_qr_scan"}, "type": "electric_scooter", "lon": -77.0159465, "name": "259b20af02ea272c09a0b8b7e8700e9f", "bike_id": "259b20af02ea272c09a0b8b7e8700e9f", "fusion_lat": 0.0, "is_reserved": 0, "lat": 38.876480666666666, "fusion_lon": 0.0, "is_disabled": 0}, {"rental_uris": {"android": "https://dc.lft.to/lastmile_qr_scan", "ios": "https://dc.lft.to/lastmile_qr_scan"}, "type": "electric_scooter", "lon": -77.0006945, "name": "fe97188424f3bd9255bdb1c9100e1265", "bike_id": "fe97188424f3bd9255bdb1c9100e1265", "fusion_lat": 0.0, "is_reserved": 0, "lat": 38.89740466666667, "fusion_lon": 0.0, "is_disabled": 0}, {"rental_uris": {"android": "https://dc.lft.to/lastmile_qr_scan", "ios": "https://dc.lft.to/lastmile_qr_scan"}, "type": "electric_scooter", "lon": -77.0314535, "name": "309a468cac2208e2e4a209409b83e2e3", "bike_id": "309a468cac2208e2e4a209409b83e2e3", "fusion_lat": 0.0, "is_reserved": 0, "lat": 38.887442666666665, "fusion_lon": 0.0, "is_disabled": 0}, {"rental_uris": {"android": "https://dc.lft.to/lastmile_qr_scan", "ios": "https://dc.lft.to/lastmile_qr_scan"}, "type": "electric_scooter", "lon": -77.034735, "name": "c91a383de671948b01620ad8b0b8c6b4", "bike_id": "c91a383de671948b01620ad8b0b8c6b4", "fusion_lat": 0.0, "is_reserved": 0, "lat": 38.90273066666666, "fusion_lon": 0.0, "is_disabled": 0}, {"rental_uris": {"android": "https://dc.lft.to/lastmile_qr_scan", "ios": "https://dc.lft.to/lastmile_qr_scan"}, "type": "electric_bike", "lon": -76.99400333333334, "name": "1105edc45820cf5c0fe42300935e956f", "bike_id": "1105edc45820cf5c0fe42300935e956f", "fusion_lat": 0.0, "is_reserved": 0, "lat": 38.9226555, "fusion_lon": 0.0, "is_disabled": 0}, {"rental_uris": {"android": "https://dc.lft.to/lastmile_qr_scan", "ios": "https://dc.lft.to/lastmile_qr_scan"}, "type": "electric_scooter", "lon": -76.94844716666667, "name": "7203414925ce28769555ac0a3b64d9f4", "bike_id": "7203414925ce28769555ac0a3b64d9f4", "fusion_lat": 0.0, "is_reserved": 0, "lat": 38.89485916666667, "fusion_lon": 0.0, "is_disabled": 0}, {"rental_uris": {"android": "https://dc.lft.to/lastmile_qr_scan", "ios": "https://dc.lft.to/lastmile_qr_scan"}, "type": "electric_scooter", "lon": -77.02397316666666, "name": "61968668a6f0891396361e3aef81fdce", "bike_id": "61968668a6f0891396361e3aef81fdce", "fusion_lat": 0.0, "is_reserved": 0, "lat": 38.893697, "fusion_lon": 0.0, "is_disabled": 0}, {"rental_uris": {"android": "https://dc.lft.to/lastmile_qr_scan", "ios": "https://dc.lft.to/lastmile_qr_scan"}, "type": "electric_scooter", "lon": -77.05518233333333, "name": "5e653bfdd449ea07bd0202014c4ab0c5", "bike_id": "5e653bfdd449ea07bd0202014c4ab0c5", "fusion_lat": 0.0, "is_reserved": 0, "lat": 38.94410283333333, "fusion_lon": 0.0, "is_disabled": 0}, {"rental_uris": {"android": "https://dc.lft.to/lastmile_qr_scan", "ios": "https://dc.lft.to/lastmile_qr_scan"}, "type": "electric_scooter", "lon": -77.03011983333333, "name": "bef6778383b85dd3bc00f33e702a5d75", "bike_id": "bef6778383b85dd3bc00f33e702a5d75", "fusion_lat": 0.0, "is_reserved": 0, "lat": 38.931139, "fusion_lon": 0.0, "is_disabled": 0}, {"rental_uris": {"android": "https://dc.lft.to/lastmile_qr_scan", "ios": "https://dc.lft.to/lastmile_qr_scan"}, "type": "electric_scooter", "lon": -77.04581016666667, "name": "df739d04524d665f5d2af55c1790a9be", "bike_id": "df739d04524d665f5d2af55c1790a9be", "fusion_lat": 0.0, "is_reserved": 0, "lat": 38.921285, "fusion_lon": 0.0, "is_disabled": 0}, {"rental_uris": {"android": "https://dc.lft.to/lastmile_qr_scan", "ios": "https://dc.lft.to/lastmile_qr_scan"}, "type": "electric_scooter", "lon": -77.00108766666666, "name": "8789ef85ec2d45fbf0e148d4ca60570e", "bike_id": "8789ef85ec2d45fbf0e148d4ca60570e", "fusion_lat": 0.0, "is_reserved": 0, "lat": 38.91632933333333, "fusion_lon": 0.0, "is_disabled": 0}, {"rental_uris": {"android": "https://dc.lft.to/lastmile_qr_scan", "ios": "https://dc.lft.to/lastmile_qr_scan"}, "type": "electric_scooter", "lon": -76.948558, "name": "d79f4ca5c8664bb1f99c317077b8629c", "bike_id": "d79f4ca5c8664bb1f99c317077b8629c", "fusion_lat": 0.0, "is_reserved": 0, "lat": 38.88299416666667, "fusion_lon": 0.0, "is_disabled": 0}, {"rental_uris": {"android": "https://dc.lft.to/lastmile_qr_scan", "ios": "https://dc.lft.to/lastmile_qr_scan"}, "type": "electric_scooter", "lon": -76.98607516666667, "name": "2163898d00cbed7a2c624632e9f16a70", "bike_id": "2163898d00cbed7a2c624632e9f16a70", "fusion_lat": 0.0, "is_reserved": 0, "lat": 38.854384833333334, "fusion_lon": 0.0, "is_disabled": 0}, {"rental_uris": {"android": "https://dc.lft.to/lastmile_qr_scan", "ios": "https://dc.lft.to/lastmile_qr_scan"}, "type": "electric_scooter", "lon": -76.98903483333333, "name": "b45fcdb81568073d6660c4b526f137aa", "bike_id": "b45fcdb81568073d6660c4b526f137aa", "fusion_lat": 0.0, "is_reserved": 0, "lat": 38.902214, "fusion_lon": 0.0, "is_disabled": 0}, {"rental_uris": {"android": "https://dc.lft.to/lastmile_qr_scan", "ios": "https://dc.lft.to/lastmile_qr_scan"}, "type": "electric_scooter", "lon": -77.058845, "name": "18ae8c119e26f61e065a693e465de150", "bike_id": "18ae8c119e26f61e065a693e465de150", "fusion_lat": 0.0, "is_reserved": 0, "lat": 38.936366166666666, "fusion_lon": 0.0, "is_disabled": 0}, {"rental_uris": {"android": "https://dc.lft.to/lastmile_qr_scan", "ios": "https://dc.lft.to/lastmile_qr_scan"}, "type": "electric_scooter", "lon": -77.03509066666666, "name": "1426c34b8694acbcd033345ef8ce7af8", "bike_id": "1426c34b8694acbcd033345ef8ce7af8", "fusion_lat": 0.0, "is_reserved": 0, "lat": 38.92626583333333, "fusion_lon": 0.0, "is_disabled": 0}, {"rental_uris": {"android": "https://dc.lft.to/lastmile_qr_scan", "ios": "https://dc.lft.to/lastmile_qr_scan"}, "type": "electric_scooter", "lon": -76.99157883333334, "name": "6159634f43e105475dfa1ed7c0e40c58", "bike_id": "6159634f43e105475dfa1ed7c0e40c58", "fusion_lat": 0.0, "is_reserved": 0, "lat": 38.8791555, "fusion_lon": 0.0, "is_disabled": 0}, {"rental_uris": {"android": "https://dc.lft.to/lastmile_qr_scan", "ios": "https://dc.lft.to/lastmile_qr_scan"}, "type": "electric_scooter", "lon": -77.04704866666667, "name": "ea2419c7850c84ff5ca6139245848d1a", "bike_id": "ea2419c7850c84ff5ca6139245848d1a", "fusion_lat": 0.0, "is_reserved": 0, "lat": 38.9126055, "fusion_lon": 0.0, "is_disabled": 0}, {"rental_uris": {"android": "https://dc.lft.to/lastmile_qr_scan", "ios": "https://dc.lft.to/lastmile_qr_scan"}, "type": "electric_scooter", "lon": -77.02306933333334, "name": "2660e96b238b2af9b7545ab9358291a1", "bike_id": "2660e96b238b2af9b7545ab9358291a1", "fusion_lat": 0.0, "is_reserved": 0, "lat": 38.928818166666666, "fusion_lon": 0.0, "is_disabled": 0}, {"rental_uris": {"android": "https://dc.lft.to/lastmile_qr_scan", "ios": "https://dc.lft.to/lastmile_qr_scan"}, "type": "electric_bike", "lon": -76.93413033333333, "name": "cabfed71a06477d974b7889035622c4b", "bike_id": "cabfed71a06477d974b7889035622c4b", "fusion_lat": 0.0, "is_reserved": 0, "lat": 38.94623816666667, "fusion_lon": 0.0, "is_disabled": 0}, {"rental_uris": {"android": "https://dc.lft.to/lastmile_qr_scan", "ios": "https://dc.lft.to/lastmile_qr_scan"}, "type": "electric_scooter", "lon": -76.97348716666667, "name": "b9c3fe37d1062792365102b395c13cbb", "bike_id": "b9c3fe37d1062792365102b395c13cbb", "fusion_lat": 0.0, "is_reserved": 0, "lat": 38.865104, "fusion_lon": 0.0, "is_disabled": 0}, {"rental_uris": {"android": "https://dc.lft.to/lastmile_qr_scan", "ios": "https://dc.lft.to/lastmile_qr_scan"}, "type": "electric_scooter", "lon": -76.92403283333333, "name": "328bbaa8b1176e0c2e9cb1e77d808e0b", "bike_id": "328bbaa8b1176e0c2e9cb1e77d808e0b", "fusion_lat": 0.0, "is_reserved": 0, "lat": 38.889892333333336, "fusion_lon": 0.0, "is_disabled": 0}, {"rental_uris": {"android": "https://dc.lft.to/lastmile_qr_scan", "ios": "https://dc.lft.to/lastmile_qr_scan"}, "type": "electric_scooter", "lon": -77.027152, "name": "072cb09f2dc9722a47d507a3facaa73d", "bike_id": "072cb09f2dc9722a47d507a3facaa73d", "fusion_lat": 0.0, "is_reserved": 0, "lat": 38.90903866666667, "fusion_lon": 0.0, "is_disabled": 0}, {"rental_uris": {"android": "https://dc.lft.to/lastmile_qr_scan", "ios": "https://dc.lft.to/lastmile_qr_scan"}, "type": "electric_scooter", "lon": -77.0221245, "name": "6eab124738fb96a914d97ce62159fbd1", "bike_id": "6eab124738fb96a914d97ce62159fbd1", "fusion_lat": 0.0, "is_reserved": 0, "lat": 38.905743, "fusion_lon": 0.0, "is_disabled": 0}, {"rental_uris": {"android": "https://dc.lft.to/lastmile_qr_scan", "ios": "https://dc.lft.to/lastmile_qr_scan"}, "type": "electric_scooter", "lon": -77.0296015, "name": "e0cc3ab8c8834afba6e4568afe91d243", "bike_id": "e0cc3ab8c8834afba6e4568afe91d243", "fusion_lat": 0.0, "is_reserved": 0, "lat": 38.89318166666666, "fusion_lon": 0.0, "is_disabled": 0}, {"rental_uris": {"android": "https://dc.lft.to/lastmile_qr_scan", "ios": "https://dc.lft.to/lastmile_qr_scan"}, "type": "electric_scooter", "lon": -77.04227983333334, "name": "d06614220f160083e34dbcce87b0ddb4", "bike_id": "d06614220f160083e34dbcce87b0ddb4", "fusion_lat": 0.0, "is_reserved": 0, "lat": 38.9261755, "fusion_lon": 0.0, "is_disabled": 0}, {"rental_uris": {"android": "https://dc.lft.to/lastmile_qr_scan", "ios": "https://dc.lft.to/lastmile_qr_scan"}, "type": "electric_scooter", "lon": -77.04966633333333, "name": "7b09d2d1f741a92bab0cc4404330f53e", "bike_id": "7b09d2d1f741a92bab0cc4404330f53e", "fusion_lat": 0.0, "is_reserved": 0, "lat": 38.912589833333335, "fusion_lon": 0.0, "is_disabled": 0}, {"rental_uris": {"android": "https://dc.lft.to/lastmile_qr_scan", "ios": "https://dc.lft.to/lastmile_qr_scan"}, "type": "electric_scooter", "lon": -76.99024983333334, "name": "b819cdf23abdc4c0c6f5a11e3298141a", "bike_id": "b819cdf23abdc4c0c6f5a11e3298141a", "fusion_lat": 0.0, "is_reserved": 0, "lat": 38.8640285, "fusion_lon": 0.0, "is_disabled": 0}, {"rental_uris": {"android": "https://dc.lft.to/lastmile_qr_scan", "ios": "https://dc.lft.to/lastmile_qr_scan"}, "type": "electric_scooter", "lon": -76.98781783333334, "name": "0ebb70f02aae32991da5b5012ba52c98", "bike_id": "0ebb70f02aae32991da5b5012ba52c98", "fusion_lat": 0.0, "is_reserved": 0, "lat": 38.900301166666665, "fusion_lon": 0.0, "is_disabled": 0}, {"rental_uris": {"android": "https://dc.lft.to/lastmile_qr_scan", "ios": "https://dc.lft.to/lastmile_qr_scan"}, "type": "electric_scooter", "lon": -77.029862, "name": "67085592bd8d703b4511d3b1585948fb", "bike_id": "67085592bd8d703b4511d3b1585948fb", "fusion_lat": 0.0, "is_reserved": 0, "lat": 38.9375645, "fusion_lon": 0.0, "is_disabled": 0}, {"rental_uris": {"android": "https://dc.lft.to/lastmile_qr_scan", "ios": "https://dc.lft.to/lastmile_qr_scan"}, "type": "electric_scooter", "lon": -77.07269783333334, "name": "81d9ec468d73f163605a5b121c56e318", "bike_id": "81d9ec468d73f163605a5b121c56e318", "fusion_lat": 0.0, "is_reserved": 0, "lat": 38.93478416666667, "fusion_lon": 0.0, "is_disabled": 0}, {"rental_uris": {"android": "https://dc.lft.to/lastmile_qr_scan", "ios": "https://dc.lft.to/lastmile_qr_scan"}, "type": "electric_bike", "lon": -76.9233905, "name": "912485857e6aecb004991c077181492e", "bike_id": "912485857e6aecb004991c077181492e", "fusion_lat": 0.0, "is_reserved": 0, "lat": 38.88789533333333, "fusion_lon": 0.0, "is_disabled": 0}, {"rental_uris": {"android": "https://dc.lft.to/lastmile_qr_scan", "ios": "https://dc.lft.to/lastmile_qr_scan"}, "type": "electric_bike", "lon": -77.02977366666667, "name": "ac2ff13554ebc585fff47b6ae5ad3bce", "bike_id": "ac2ff13554ebc585fff47b6ae5ad3bce", "fusion_lat": 0.0, "is_reserved": 0, "lat": 38.936965, "fusion_lon": 0.0, "is_disabled": 0}, {"rental_uris": {"android": "https://dc.lft.to/lastmile_qr_scan", "ios": "https://dc.lft.to/lastmile_qr_scan"}, "type": "electric_scooter", "lon": -77.03509, "name": "aade833c14ab727a45c55488c10d0117", "bike_id": "aade833c14ab727a45c55488c10d0117", "fusion_lat": 0.0, "is_reserved": 0, "lat": 38.921415333333336, "fusion_lon": 0.0, "is_disabled": 0}, {"rental_uris": {"android": "https://dc.lft.to/lastmile_qr_scan", "ios": "https://dc.lft.to/lastmile_qr_scan"}, "type": "electric_bike", "lon": -77.18298016666667, "name": "c0d506d4ddd04f267c6a87840a072b59", "bike_id": "c0d506d4ddd04f267c6a87840a072b59", "fusion_lat": 0.0, "is_reserved": 0, "lat": 38.883462333333334, "fusion_lon": 0.0, "is_disabled": 0}, {"rental_uris": {"android": "https://dc.lft.to/lastmile_qr_scan", "ios": "https://dc.lft.to/lastmile_qr_scan"}, "type": "electric_scooter", "lon": -76.99023283333334, "name": "03335669bda1eafdc1c358d308af3bcc", "bike_id": "03335669bda1eafdc1c358d308af3bcc", "fusion_lat": 0.0, "is_reserved": 0, "lat": 38.85863166666667, "fusion_lon": 0.0, "is_disabled": 0}, {"rental_uris": {"android": "https://dc.lft.to/lastmile_qr_scan", "ios": "https://dc.lft.to/lastmile_qr_scan"}, "type": "electric_scooter", "lon": -77.02959166666666, "name": "912b1831c523221f528b2a697b18fec4", "bike_id": "912b1831c523221f528b2a697b18fec4", "fusion_lat": 0.0, "is_reserved": 0, "lat": 38.90495966666667, "fusion_lon": 0.0, "is_disabled": 0}, {"rental_uris": {"android": "https://dc.lft.to/lastmile_qr_scan", "ios": "https://dc.lft.to/lastmile_qr_scan"}, "type": "electric_scooter", "lon": -77.0610815, "name": "a787d924cac122eb5dbac188a289b592", "bike_id": "a787d924cac122eb5dbac188a289b592", "fusion_lat": 0.0, "is_reserved": 0, "lat": 38.943178833333334, "fusion_lon": 0.0, "is_disabled": 0}, {"rental_uris": {"android": "https://dc.lft.to/lastmile_qr_scan", "ios": "https://dc.lft.to/lastmile_qr_scan"}, "type": "electric_scooter", "lon": -77.039043, "name": "fd4f99468481e62bbafc7e6955e13eb8", "bike_id": "fd4f99468481e62bbafc7e6955e13eb8", "fusion_lat": 0.0, "is_reserved": 0, "lat": 38.914189666666665, "fusion_lon": 0.0, "is_disabled": 0}, {"rental_uris": {"android": "https://dc.lft.to/lastmile_qr_scan", "ios": "https://dc.lft.to/lastmile_qr_scan"}, "type": "electric_scooter", "lon": -76.93756766666667, "name": "d8b8ef7b96dd7802d45910f3e09585bc", "bike_id": "d8b8ef7b96dd7802d45910f3e09585bc", "fusion_lat": 0.0, "is_reserved": 0, "lat": 38.890504166666666, "fusion_lon": 0.0, "is_disabled": 0}, {"rental_uris": {"android": "https://dc.lft.to/lastmile_qr_scan", "ios": "https://dc.lft.to/lastmile_qr_scan"}, "type": "electric_scooter", "lon": -76.9976645, "name": "cfabbdfa38094cb5e59dbbadcf33c997", "bike_id": "cfabbdfa38094cb5e59dbbadcf33c997", "fusion_lat": 0.0, "is_reserved": 0, "lat": 38.921916833333334, "fusion_lon": 0.0, "is_disabled": 0}, {"rental_uris": {"android": "https://dc.lft.to/lastmile_qr_scan", "ios": "https://dc.lft.to/lastmile_qr_scan"}, "type": "electric_scooter", "lon": -77.03172566666667, "name": "f2365fc62cfa23fe5ad40e50c2d9f22e", "bike_id": "f2365fc62cfa23fe5ad40e50c2d9f22e", "fusion_lat": 0.0, "is_reserved": 0, "lat": 38.90754733333333, "fusion_lon": 0.0, "is_disabled": 0}, {"rental_uris": {"android": "https://dc.lft.to/lastmile_qr_scan", "ios": "https://dc.lft.to/lastmile_qr_scan"}, "type": "electric_scooter", "lon": -77.0322885, "name": "86982929b5503631981b93f60dfca68c", "bike_id": "86982929b5503631981b93f60dfca68c", "fusion_lat": 0.0, "is_reserved": 0, "lat": 38.907580333333335, "fusion_lon": 0.0, "is_disabled": 0}, {"rental_uris": {"android": "https://dc.lft.to/lastmile_qr_scan", "ios": "https://dc.lft.to/lastmile_qr_scan"}, "type": "electric_scooter", "lon": -77.02482883333333, "name": "b399b895028f232d2d76c58fd3cb6e1b", "bike_id": "b399b895028f232d2d76c58fd3cb6e1b", "fusion_lat": 0.0, "is_reserved": 0, "lat": 38.93909, "fusion_lon": 0.0, "is_disabled": 0}, {"rental_uris": {"android": "https://dc.lft.to/lastmile_qr_scan", "ios": "https://dc.lft.to/lastmile_qr_scan"}, "type": "electric_scooter", "lon": -77.040038, "name": "02588baba87c5c22f3b68eedba60eae9", "bike_id": "02588baba87c5c22f3b68eedba60eae9", "fusion_lat": 0.0, "is_reserved": 0, "lat": 38.91802233333333, "fusion_lon": 0.0, "is_disabled": 0}, {"rental_uris": {"android": "https://dc.lft.to/lastmile_qr_scan", "ios": "https://dc.lft.to/lastmile_qr_scan"}, "type": "electric_scooter", "lon": -77.023125, "name": "0c49c8c798bc48e88086ad6c6b29ebf2", "bike_id": "0c49c8c798bc48e88086ad6c6b29ebf2", "fusion_lat": 0.0, "is_reserved": 0, "lat": 38.918164166666664, "fusion_lon": 0.0, "is_disabled": 0}, {"rental_uris": {"android": "https://dc.lft.to/lastmile_qr_scan", "ios": "https://dc.lft.to/lastmile_qr_scan"}, "type": "electric_scooter", "lon": -77.00274, "name": "6c6117b4df6ee526571e4327f17af24e", "bike_id": "6c6117b4df6ee526571e4327f17af24e", "fusion_lat": 0.0, "is_reserved": 0, "lat": 38.9147765, "fusion_lon": 0.0, "is_disabled": 0}, {"rental_uris": {"android": "https://dc.lft.to/lastmile_qr_scan", "ios": "https://dc.lft.to/lastmile_qr_scan"}, "type": "electric_scooter", "lon": -77.061659, "name": "a2777fde9101658e1a833c02889c884d", "bike_id": "a2777fde9101658e1a833c02889c884d", "fusion_lat": 0.0, "is_reserved": 0, "lat": 38.905215166666665, "fusion_lon": 0.0, "is_disabled": 0}, {"rental_uris": {"android": "https://dc.lft.to/lastmile_qr_scan", "ios": "https://dc.lft.to/lastmile_qr_scan"}, "type": "electric_scooter", "lon": -77.025479, "name": "c484611bfff75f861c1af57366d7b96d", "bike_id": "c484611bfff75f861c1af57366d7b96d", "fusion_lat": 0.0, "is_reserved": 0, "lat": 38.892264833333336, "fusion_lon": 0.0, "is_disabled": 0}, {"rental_uris": {"android": "https://dc.lft.to/lastmile_qr_scan", "ios": "https://dc.lft.to/lastmile_qr_scan"}, "type": "electric_scooter", "lon": -76.98499666666666, "name": "1cfca6783e528aacb291e172de0eabbd", "bike_id": "1cfca6783e528aacb291e172de0eabbd", "fusion_lat": 0.0, "is_reserved": 0, "lat": 38.86046783333333, "fusion_lon": 0.0, "is_disabled": 0}, {"rental_uris": {"android": "https://dc.lft.to/lastmile_qr_scan", "ios": "https://dc.lft.to/lastmile_qr_scan"}, "type": "electric_scooter", "lon": -77.021539, "name": "4b48416606c2512f5997f0c0f38ea348", "bike_id": "4b48416606c2512f5997f0c0f38ea348", "fusion_lat": 0.0, "is_reserved": 0, "lat": 38.92602016666667, "fusion_lon": 0.0, "is_disabled": 0}, {"rental_uris": {"android": "https://dc.lft.to/lastmile_qr_scan", "ios": "https://dc.lft.to/lastmile_qr_scan"}, "type": "electric_scooter", "lon": -77.025917, "name": "002104952870e3b2d1468c52bbe8e795", "bike_id": "002104952870e3b2d1468c52bbe8e795", "fusion_lat": 0.0, "is_reserved": 0, "lat": 38.908428, "fusion_lon": 0.0, "is_disabled": 0}, {"rental_uris": {"android": "https://dc.lft.to/lastmile_qr_scan", "ios": "https://dc.lft.to/lastmile_qr_scan"}, "type": "electric_scooter", "lon": -77.020518, "name": "77ee056bb7cf92f451054d5bd5e0f8e7", "bike_id": "77ee056bb7cf92f451054d5bd5e0f8e7", "fusion_lat": 0.0, "is_reserved": 0, "lat": 38.958727333333336, "fusion_lon": 0.0, "is_disabled": 0}, {"rental_uris": {"android": "https://dc.lft.to/lastmile_qr_scan", "ios": "https://dc.lft.to/lastmile_qr_scan"}, "type": "electric_scooter", "lon": -77.0183905, "name": "a0fd4261706d049cf83795655988bf7a", "bike_id": "a0fd4261706d049cf83795655988bf7a", "fusion_lat": 0.0, "is_reserved": 0, "lat": 38.919509, "fusion_lon": 0.0, "is_disabled": 0}, {"rental_uris": {"android": "https://dc.lft.to/lastmile_qr_scan", "ios": "https://dc.lft.to/lastmile_qr_scan"}, "type": "electric_scooter", "lon": -77.0303475, "name": "48fe2a47043a338919a2cf0efbbe32b3", "bike_id": "48fe2a47043a338919a2cf0efbbe32b3", "fusion_lat": 0.0, "is_reserved": 0, "lat": 38.93979066666667, "fusion_lon": 0.0, "is_disabled": 0}, {"rental_uris": {"android": "https://dc.lft.to/lastmile_qr_scan", "ios": "https://dc.lft.to/lastmile_qr_scan"}, "type": "electric_bike", "lon": -77.027816, "name": "d98f798196ad5eb5fc827e2c34dc37cb", "bike_id": "d98f798196ad5eb5fc827e2c34dc37cb", "fusion_lat": 0.0, "is_reserved": 0, "lat": 38.965227166666665, "fusion_lon": 0.0, "is_disabled": 0}, {"rental_uris": {"android": "https://dc.lft.to/lastmile_qr_scan", "ios": "https://dc.lft.to/lastmile_qr_scan"}, "type": "electric_bike", "lon": -76.97219383333334, "name": "2aa99c08cf2d3c3b1d6307485b3a478c", "bike_id": "2aa99c08cf2d3c3b1d6307485b3a478c", "fusion_lat": 0.0, "is_reserved": 0, "lat": 38.844759, "fusion_lon": 0.0, "is_disabled": 0}, {"rental_uris": {"android": "https://dc.lft.to/lastmile_qr_scan", "ios": "https://dc.lft.to/lastmile_qr_scan"}, "type": "electric_scooter", "lon": -77.03841333333334, "name": "6600f1c473195ef0ea594c2f43812495", "bike_id": "6600f1c473195ef0ea594c2f43812495", "fusion_lat": 0.0, "is_reserved": 0, "lat": 38.91556116666667, "fusion_lon": 0.0, "is_disabled": 0}, {"rental_uris": {"android": "https://dc.lft.to/lastmile_qr_scan", "ios": "https://dc.lft.to/lastmile_qr_scan"}, "type": "electric_scooter", "lon": -77.0675595, "name": "2f2ca812d3e99555d5e8e21dc0aca8bb", "bike_id": "2f2ca812d3e99555d5e8e21dc0aca8bb", "fusion_lat": 0.0, "is_reserved": 0, "lat": 38.949706166666665, "fusion_lon": 0.0, "is_disabled": 0}, {"rental_uris": {"android": "https://dc.lft.to/lastmile_qr_scan", "ios": "https://dc.lft.to/lastmile_qr_scan"}, "type": "electric_scooter", "lon": -77.04153933333333, "name": "bfd06953d6bbfff12e58c4e34da04069", "bike_id": "bfd06953d6bbfff12e58c4e34da04069", "fusion_lat": 0.0, "is_reserved": 0, "lat": 38.914173166666664, "fusion_lon": 0.0, "is_disabled": 0}, {"rental_uris": {"android": "https://dc.lft.to/lastmile_qr_scan", "ios": "https://dc.lft.to/lastmile_qr_scan"}, "type": "electric_scooter", "lon": -77.045429, "name": "a0cc1f5ee8c7080cb024f5c8c6dc0c73", "bike_id": "a0cc1f5ee8c7080cb024f5c8c6dc0c73", "fusion_lat": 0.0, "is_reserved": 0, "lat": 38.920479, "fusion_lon": 0.0, "is_disabled": 0}, {"rental_uris": {"android": "https://dc.lft.to/lastmile_qr_scan", "ios": "https://dc.lft.to/lastmile_qr_scan"}, "type": "electric_scooter", "lon": -77.03512366666666, "name": "0da8f938e3c22f8a453a6e4a6ab50890", "bike_id": "0da8f938e3c22f8a453a6e4a6ab50890", "fusion_lat": 0.0, "is_reserved": 0, "lat": 38.92145633333333, "fusion_lon": 0.0, "is_disabled": 0}, {"rental_uris": {"android": "https://dc.lft.to/lastmile_qr_scan", "ios": "https://dc.lft.to/lastmile_qr_scan"}, "type": "electric_scooter", "lon": -77.03208716666667, "name": "f6cb6b2894c3760a4d1b5586b5fd63fb", "bike_id": "f6cb6b2894c3760a4d1b5586b5fd63fb", "fusion_lat": 0.0, "is_reserved": 0, "lat": 38.9396425, "fusion_lon": 0.0, "is_disabled": 0}, {"rental_uris": {"android": "https://dc.lft.to/lastmile_qr_scan", "ios": "https://dc.lft.to/lastmile_qr_scan"}, "type": "electric_scooter", "lon": -77.04173683333333, "name": "20d998dce1559cf1143dda4da34456ce", "bike_id": "20d998dce1559cf1143dda4da34456ce", "fusion_lat": 0.0, "is_reserved": 0, "lat": 38.9134585, "fusion_lon": 0.0, "is_disabled": 0}, {"rental_uris": {"android": "https://dc.lft.to/lastmile_qr_scan", "ios": "https://dc.lft.to/lastmile_qr_scan"}, "type": "electric_scooter", "lon": -77.03685766666666, "name": "b767067acde469bd18915cc8b3f58bbc", "bike_id": "b767067acde469bd18915cc8b3f58bbc", "fusion_lat": 0.0, "is_reserved": 0, "lat": 38.93651083333334, "fusion_lon": 0.0, "is_disabled": 0}, {"rental_uris": {"android": "https://dc.lft.to/lastmile_qr_scan", "ios": "https://dc.lft.to/lastmile_qr_scan"}, "type": "electric_scooter", "lon": -77.0053695, "name": "35fb46ec94913e9a01d239e9e66c1361", "bike_id": "35fb46ec94913e9a01d239e9e66c1361", "fusion_lat": 0.0, "is_reserved": 0, "lat": 38.8781995, "fusion_lon": 0.0, "is_disabled": 0}, {"rental_uris": {"android": "https://dc.lft.to/lastmile_qr_scan", "ios": "https://dc.lft.to/lastmile_qr_scan"}, "type": "electric_scooter", "lon": -77.025485, "name": "2054dbe969a6740de603345ef93111ef", "bike_id": "2054dbe969a6740de603345ef93111ef", "fusion_lat": 0.0, "is_reserved": 0, "lat": 38.90210283333333, "fusion_lon": 0.0, "is_disabled": 0}, {"rental_uris": {"android": "https://dc.lft.to/lastmile_qr_scan", "ios": "https://dc.lft.to/lastmile_qr_scan"}, "type": "electric_scooter", "lon": -77.01925566666667, "name": "2f99c06f64b02fa8d682b540a66f3620", "bike_id": "2f99c06f64b02fa8d682b540a66f3620", "fusion_lat": 0.0, "is_reserved": 0, "lat": 38.935723833333334, "fusion_lon": 0.0, "is_disabled": 0}, {"rental_uris": {"android": "https://dc.lft.to/lastmile_qr_scan", "ios": "https://dc.lft.to/lastmile_qr_scan"}, "type": "electric_scooter", "lon": -76.96430933333333, "name": "8362696678afb8f18a8ed4ea98624b73", "bike_id": "8362696678afb8f18a8ed4ea98624b73", "fusion_lat": 0.0, "is_reserved": 0, "lat": 38.934429, "fusion_lon": 0.0, "is_disabled": 0}, {"rental_uris": {"android": "https://dc.lft.to/lastmile_qr_scan", "ios": "https://dc.lft.to/lastmile_qr_scan"}, "type": "electric_bike", "lon": -77.10991383333334, "name": "baa71dea18252a9be9dc86126b690bbe", "bike_id": "baa71dea18252a9be9dc86126b690bbe", "fusion_lat": 0.0, "is_reserved": 0, "lat": 38.87050683333333, "fusion_lon": 0.0, "is_disabled": 0}, {"rental_uris": {"android": "https://dc.lft.to/lastmile_qr_scan", "ios": "https://dc.lft.to/lastmile_qr_scan"}, "type": "electric_scooter", "lon": -77.03445933333333, "name": "1fa92823f3e43ba596a9b30b9c2cfb01", "bike_id": "1fa92823f3e43ba596a9b30b9c2cfb01", "fusion_lat": 0.0, "is_reserved": 0, "lat": 38.91804666666667, "fusion_lon": 0.0, "is_disabled": 0}, {"rental_uris": {"android": "https://dc.lft.to/lastmile_qr_scan", "ios": "https://dc.lft.to/lastmile_qr_scan"}, "type": "electric_scooter", "lon": -77.04469733333333, "name": "f8611565c93a2d16d41db0e5a32f8fe1", "bike_id": "f8611565c93a2d16d41db0e5a32f8fe1", "fusion_lat": 0.0, "is_reserved": 0, "lat": 38.91880583333333, "fusion_lon": 0.0, "is_disabled": 0}, {"rental_uris": {"android": "https://dc.lft.to/lastmile_qr_scan", "ios": "https://dc.lft.to/lastmile_qr_scan"}, "type": "electric_scooter", "lon": -77.02697116666667, "name": "1a76ee6fea94cecb95d19c7d7e8f6977", "bike_id": "1a76ee6fea94cecb95d19c7d7e8f6977", "fusion_lat": 0.0, "is_reserved": 0, "lat": 38.91819116666667, "fusion_lon": 0.0, "is_disabled": 0}, {"rental_uris": {"android": "https://dc.lft.to/lastmile_qr_scan", "ios": "https://dc.lft.to/lastmile_qr_scan"}, "type": "electric_scooter", "lon": -77.02343433333333, "name": "d943c66bb573b015e4ae90e4607e7435", "bike_id": "d943c66bb573b015e4ae90e4607e7435", "fusion_lat": 0.0, "is_reserved": 0, "lat": 38.96205166666667, "fusion_lon": 0.0, "is_disabled": 0}, {"rental_uris": {"android": "https://dc.lft.to/lastmile_qr_scan", "ios": "https://dc.lft.to/lastmile_qr_scan"}, "type": "electric_scooter", "lon": -77.03424166666667, "name": "755ceddcdc96a65ddd2e0e2298090287", "bike_id": "755ceddcdc96a65ddd2e0e2298090287", "fusion_lat": 0.0, "is_reserved": 0, "lat": 38.9028985, "fusion_lon": 0.0, "is_disabled": 0}, {"rental_uris": {"android": "https://dc.lft.to/lastmile_qr_scan", "ios": "https://dc.lft.to/lastmile_qr_scan"}, "type": "electric_scooter", "lon": -77.04558633333333, "name": "5164718ac99647fedd3564fedd307f67", "bike_id": "5164718ac99647fedd3564fedd307f67", "fusion_lat": 0.0, "is_reserved": 0, "lat": 38.9192935, "fusion_lon": 0.0, "is_disabled": 0}, {"rental_uris": {"android": "https://dc.lft.to/lastmile_qr_scan", "ios": "https://dc.lft.to/lastmile_qr_scan"}, "type": "electric_scooter", "lon": -76.99487766666667, "name": "5f79e67c76ab60b8b81f8f3362c410bf", "bike_id": "5f79e67c76ab60b8b81f8f3362c410bf", "fusion_lat": 0.0, "is_reserved": 0, "lat": 38.87735266666667, "fusion_lon": 0.0, "is_disabled": 0}, {"rental_uris": {"android": "https://dc.lft.to/lastmile_qr_scan", "ios": "https://dc.lft.to/lastmile_qr_scan"}, "type": "electric_scooter", "lon": -76.98990733333333, "name": "93f9c5da006b3e4fcde774801601cd17", "bike_id": "93f9c5da006b3e4fcde774801601cd17", "fusion_lat": 0.0, "is_reserved": 0, "lat": 38.8643905, "fusion_lon": 0.0, "is_disabled": 0}, {"rental_uris": {"android": "https://dc.lft.to/lastmile_qr_scan", "ios": "https://dc.lft.to/lastmile_qr_scan"}, "type": "electric_scooter", "lon": -76.94637483333334, "name": "e8c7efabeb0e912b2f461cbda68362a3", "bike_id": "e8c7efabeb0e912b2f461cbda68362a3", "fusion_lat": 0.0, "is_reserved": 0, "lat": 38.89842433333333, "fusion_lon": 0.0, "is_disabled": 0}, {"rental_uris": {"android": "https://dc.lft.to/lastmile_qr_scan", "ios": "https://dc.lft.to/lastmile_qr_scan"}, "type": "electric_scooter", "lon": -77.0573245, "name": "b8c708efea34cdbbfd486db74a33223d", "bike_id": "b8c708efea34cdbbfd486db74a33223d", "fusion_lat": 0.0, "is_reserved": 0, "lat": 38.933660833333334, "fusion_lon": 0.0, "is_disabled": 0}, {"rental_uris": {"android": "https://dc.lft.to/lastmile_qr_scan", "ios": "https://dc.lft.to/lastmile_qr_scan"}, "type": "electric_scooter", "lon": -77.02154683333333, "name": "bec33667a865895fac7bbc74bbebe737", "bike_id": "bec33667a865895fac7bbc74bbebe737", "fusion_lat": 0.0, "is_reserved": 0, "lat": 38.884954, "fusion_lon": 0.0, "is_disabled": 0}, {"rental_uris": {"android": "https://dc.lft.to/lastmile_qr_scan", "ios": "https://dc.lft.to/lastmile_qr_scan"}, "type": "electric_scooter", "lon": -77.023535, "name": "71ac57926837d17ff0efdf1ebda0bd1a", "bike_id": "71ac57926837d17ff0efdf1ebda0bd1a", "fusion_lat": 0.0, "is_reserved": 0, "lat": 38.89220733333333, "fusion_lon": 0.0, "is_disabled": 0}, {"rental_uris": {"android": "https://dc.lft.to/lastmile_qr_scan", "ios": "https://dc.lft.to/lastmile_qr_scan"}, "type": "electric_scooter", "lon": -77.0199135, "name": "388f8d2cb9b1209b5b8b0a5d3a5f4e25", "bike_id": "388f8d2cb9b1209b5b8b0a5d3a5f4e25", "fusion_lat": 0.0, "is_reserved": 0, "lat": 38.90025516666667, "fusion_lon": 0.0, "is_disabled": 0}, {"rental_uris": {"android": "https://dc.lft.to/lastmile_qr_scan", "ios": "https://dc.lft.to/lastmile_qr_scan"}, "type": "electric_scooter", "lon": -77.0616235, "name": "73ee5466adbad094b55e6bf324306236", "bike_id": "73ee5466adbad094b55e6bf324306236", "fusion_lat": 0.0, "is_reserved": 0, "lat": 38.942177666666666, "fusion_lon": 0.0, "is_disabled": 0}, {"rental_uris": {"android": "https://dc.lft.to/lastmile_qr_scan", "ios": "https://dc.lft.to/lastmile_qr_scan"}, "type": "electric_scooter", "lon": -76.9867795, "name": "f1e19044abbec3d213b3c661d8cad591", "bike_id": "f1e19044abbec3d213b3c661d8cad591", "fusion_lat": 0.0, "is_reserved": 0, "lat": 38.855626, "fusion_lon": 0.0, "is_disabled": 0}, {"rental_uris": {"android": "https://dc.lft.to/lastmile_qr_scan", "ios": "https://dc.lft.to/lastmile_qr_scan"}, "type": "electric_scooter", "lon": -76.98773466666667, "name": "244b1aa2fe26868eb4559554e42350db", "bike_id": "244b1aa2fe26868eb4559554e42350db", "fusion_lat": 0.0, "is_reserved": 0, "lat": 38.911734333333335, "fusion_lon": 0.0, "is_disabled": 0}, {"rental_uris": {"android": "https://dc.lft.to/lastmile_qr_scan", "ios": "https://dc.lft.to/lastmile_qr_scan"}, "type": "electric_scooter", "lon": -77.040064, "name": "dc737ac00f932db27331ff8d341c6e7d", "bike_id": "dc737ac00f932db27331ff8d341c6e7d", "fusion_lat": 0.0, "is_reserved": 0, "lat": 38.91417466666667, "fusion_lon": 0.0, "is_disabled": 0}, {"rental_uris": {"android": "https://dc.lft.to/lastmile_qr_scan", "ios": "https://dc.lft.to/lastmile_qr_scan"}, "type": "electric_scooter", "lon": -77.04350083333334, "name": "36e38e7544d05df1176d01d95f4dcc1d", "bike_id": "36e38e7544d05df1176d01d95f4dcc1d", "fusion_lat": 0.0, "is_reserved": 0, "lat": 38.92146133333333, "fusion_lon": 0.0, "is_disabled": 0}, {"rental_uris": {"android": "https://dc.lft.to/lastmile_qr_scan", "ios": "https://dc.lft.to/lastmile_qr_scan"}, "type": "electric_scooter", "lon": -77.02155533333334, "name": "066380e43f90ae496b03702f05e1f90a", "bike_id": "066380e43f90ae496b03702f05e1f90a", "fusion_lat": 0.0, "is_reserved": 0, "lat": 38.87911183333333, "fusion_lon": 0.0, "is_disabled": 0}, {"rental_uris": {"android": "https://dc.lft.to/lastmile_qr_scan", "ios": "https://dc.lft.to/lastmile_qr_scan"}, "type": "electric_scooter", "lon": -77.02425133333334, "name": "dd84910829a766d34612cf3bbc1de475", "bike_id": "dd84910829a766d34612cf3bbc1de475", "fusion_lat": 0.0, "is_reserved": 0, "lat": 38.88339033333333, "fusion_lon": 0.0, "is_disabled": 0}, {"rental_uris": {"android": "https://dc.lft.to/lastmile_qr_scan", "ios": "https://dc.lft.to/lastmile_qr_scan"}, "type": "electric_scooter", "lon": -77.04176866666667, "name": "0e38191b11992b6e4ebb1732e591d205", "bike_id": "0e38191b11992b6e4ebb1732e591d205", "fusion_lat": 0.0, "is_reserved": 0, "lat": 38.915885, "fusion_lon": 0.0, "is_disabled": 0}, {"rental_uris": {"android": "https://dc.lft.to/lastmile_qr_scan", "ios": "https://dc.lft.to/lastmile_qr_scan"}, "type": "electric_scooter", "lon": -76.994546, "name": "65d9ed9587275005f3fe79e3c028764f", "bike_id": "65d9ed9587275005f3fe79e3c028764f", "fusion_lat": 0.0, "is_reserved": 0, "lat": 38.87660133333333, "fusion_lon": 0.0, "is_disabled": 0}, {"rental_uris": {"android": "https://dc.lft.to/lastmile_qr_scan", "ios": "https://dc.lft.to/lastmile_qr_scan"}, "type": "electric_scooter", "lon": -76.93155333333333, "name": "8213f4bb727d1c849cffc9e428009f0e", "bike_id": "8213f4bb727d1c849cffc9e428009f0e", "fusion_lat": 0.0, "is_reserved": 0, "lat": 38.8987835, "fusion_lon": 0.0, "is_disabled": 0}, {"rental_uris": {"android": "https://dc.lft.to/lastmile_qr_scan", "ios": "https://dc.lft.to/lastmile_qr_scan"}, "type": "electric_bike", "lon": -76.96883266666667, "name": "1783daa1f1710154c610f5d406c4b214", "bike_id": "1783daa1f1710154c610f5d406c4b214", "fusion_lat": 0.0, "is_reserved": 0, "lat": 38.845977833333336, "fusion_lon": 0.0, "is_disabled": 0}, {"rental_uris": {"android": "https://dc.lft.to/lastmile_qr_scan", "ios": "https://dc.lft.to/lastmile_qr_scan"}, "type": "electric_scooter", "lon": -77.03662166666666, "name": "cb61f591079d93d6d9a23c93f147f1af", "bike_id": "cb61f591079d93d6d9a23c93f147f1af", "fusion_lat": 0.0, "is_reserved": 0, "lat": 38.9172365, "fusion_lon": 0.0, "is_disabled": 0}, {"rental_uris": {"android": "https://dc.lft.to/lastmile_qr_scan", "ios": "https://dc.lft.to/lastmile_qr_scan"}, "type": "electric_scooter", "lon": -77.065862, "name": "c615562cccfcf9cc67336201775f328f", "bike_id": "c615562cccfcf9cc67336201775f328f", "fusion_lat": 0.0, "is_reserved": 0, "lat": 38.91365866666666, "fusion_lon": 0.0, "is_disabled": 0}, {"rental_uris": {"android": "https://dc.lft.to/lastmile_qr_scan", "ios": "https://dc.lft.to/lastmile_qr_scan"}, "type": "electric_scooter", "lon": -77.02410166666667, "name": "6fe75db908534c2cd196cefc6c337f39", "bike_id": "6fe75db908534c2cd196cefc6c337f39", "fusion_lat": 0.0, "is_reserved": 0, "lat": 38.9168, "fusion_lon": 0.0, "is_disabled": 0}, {"rental_uris": {"android": "https://dc.lft.to/lastmile_qr_scan", "ios": "https://dc.lft.to/lastmile_qr_scan"}, "type": "electric_bike", "lon": -77.12747266666666, "name": "fd99139241ff6451cf915c1cb520594b", "bike_id": "fd99139241ff6451cf915c1cb520594b", "fusion_lat": 0.0, "is_reserved": 0, "lat": 38.8882505, "fusion_lon": 0.0, "is_disabled": 0}, {"rental_uris": {"android": "https://dc.lft.to/lastmile_qr_scan", "ios": "https://dc.lft.to/lastmile_qr_scan"}, "type": "electric_scooter", "lon": -77.02396, "name": "2d3d79f71a48575b2d940112ca7e3cc0", "bike_id": "2d3d79f71a48575b2d940112ca7e3cc0", "fusion_lat": 0.0, "is_reserved": 0, "lat": 38.887336833333336, "fusion_lon": 0.0, "is_disabled": 0}, {"rental_uris": {"android": "https://dc.lft.to/lastmile_qr_scan", "ios": "https://dc.lft.to/lastmile_qr_scan"}, "type": "electric_scooter", "lon": -76.94120083333334, "name": "64599961e01a9cca5aca3d49ed9a3c33", "bike_id": "64599961e01a9cca5aca3d49ed9a3c33", "fusion_lat": 0.0, "is_reserved": 0, "lat": 38.907898, "fusion_lon": 0.0, "is_disabled": 0}, {"rental_uris": {"android": "https://dc.lft.to/lastmile_qr_scan", "ios": "https://dc.lft.to/lastmile_qr_scan"}, "type": "electric_scooter", "lon": -77.03859366666667, "name": "6cf413ee1ac0ef6bc12a1ee1317002a8", "bike_id": "6cf413ee1ac0ef6bc12a1ee1317002a8", "fusion_lat": 0.0, "is_reserved": 0, "lat": 38.912794166666664, "fusion_lon": 0.0, "is_disabled": 0}, {"rental_uris": {"android": "https://dc.lft.to/lastmile_qr_scan", "ios": "https://dc.lft.to/lastmile_qr_scan"}, "type": "electric_scooter", "lon": -77.00738283333334, "name": "811831004fbf87a8e3d7217088a9ff07", "bike_id": "811831004fbf87a8e3d7217088a9ff07", "fusion_lat": 0.0, "is_reserved": 0, "lat": 38.876483666666665, "fusion_lon": 0.0, "is_disabled": 0}, {"rental_uris": {"android": "https://dc.lft.to/lastmile_qr_scan", "ios": "https://dc.lft.to/lastmile_qr_scan"}, "type": "electric_scooter", "lon": -77.02153016666666, "name": "b96d0323e260b4683bcaed0dd10fece2", "bike_id": "b96d0323e260b4683bcaed0dd10fece2", "fusion_lat": 0.0, "is_reserved": 0, "lat": 38.896260166666664, "fusion_lon": 0.0, "is_disabled": 0}, {"rental_uris": {"android": "https://dc.lft.to/lastmile_qr_scan", "ios": "https://dc.lft.to/lastmile_qr_scan"}, "type": "electric_scooter", "lon": -77.02480016666667, "name": "fbbcf7fb55529fa867ced9c6ec2d50b0", "bike_id": "fbbcf7fb55529fa867ced9c6ec2d50b0", "fusion_lat": 0.0, "is_reserved": 0, "lat": 38.926548333333336, "fusion_lon": 0.0, "is_disabled": 0}, {"rental_uris": {"android": "https://dc.lft.to/lastmile_qr_scan", "ios": "https://dc.lft.to/lastmile_qr_scan"}, "type": "electric_scooter", "lon": -77.02001966666667, "name": "0b9f87d1e60acb1c078c5cc2b3742336", "bike_id": "0b9f87d1e60acb1c078c5cc2b3742336", "fusion_lat": 0.0, "is_reserved": 0, "lat": 38.91331, "fusion_lon": 0.0, "is_disabled": 0}, {"rental_uris": {"android": "https://dc.lft.to/lastmile_qr_scan", "ios": "https://dc.lft.to/lastmile_qr_scan"}, "type": "electric_scooter", "lon": -77.0363845, "name": "01412385a9f5db0d133dbe2e8950f5c2", "bike_id": "01412385a9f5db0d133dbe2e8950f5c2", "fusion_lat": 0.0, "is_reserved": 0, "lat": 38.927384333333336, "fusion_lon": 0.0, "is_disabled": 0}, {"rental_uris": {"android": "https://dc.lft.to/lastmile_qr_scan", "ios": "https://dc.lft.to/lastmile_qr_scan"}, "type": "electric_bike", "lon": -77.00233766666666, "name": "5e260b66bc65c8dfb6c53466e1a13356", "bike_id": "5e260b66bc65c8dfb6c53466e1a13356", "fusion_lat": 0.0, "is_reserved": 0, "lat": 38.957385, "fusion_lon": 0.0, "is_disabled": 0}, {"rental_uris": {"android": "https://dc.lft.to/lastmile_qr_scan", "ios": "https://dc.lft.to/lastmile_qr_scan"}, "type": "electric_scooter", "lon": -77.03834683333334, "name": "f64d0416378c37e514cc666cf611556f", "bike_id": "f64d0416378c37e514cc666cf611556f", "fusion_lat": 0.0, "is_reserved": 0, "lat": 38.90846716666667, "fusion_lon": 0.0, "is_disabled": 0}, {"rental_uris": {"android": "https://dc.lft.to/lastmile_qr_scan", "ios": "https://dc.lft.to/lastmile_qr_scan"}, "type": "electric_scooter", "lon": -77.03233366666667, "name": "bd01d814eeea5c8580957bf4a980a79a", "bike_id": "bd01d814eeea5c8580957bf4a980a79a", "fusion_lat": 0.0, "is_reserved": 0, "lat": 38.929903333333336, "fusion_lon": 0.0, "is_disabled": 0}, {"rental_uris": {"android": "https://dc.lft.to/lastmile_qr_scan", "ios": "https://dc.lft.to/lastmile_qr_scan"}, "type": "electric_scooter", "lon": -76.99021233333333, "name": "0a853dd8ca5b9f9cfd8768e7be224a17", "bike_id": "0a853dd8ca5b9f9cfd8768e7be224a17", "fusion_lat": 0.0, "is_reserved": 0, "lat": 38.899126833333334, "fusion_lon": 0.0, "is_disabled": 0}, {"rental_uris": {"android": "https://dc.lft.to/lastmile_qr_scan", "ios": "https://dc.lft.to/lastmile_qr_scan"}, "type": "electric_scooter", "lon": -76.9755825, "name": "92e07309ca066780d35bb2023190d5a5", "bike_id": "92e07309ca066780d35bb2023190d5a5", "fusion_lat": 0.0, "is_reserved": 0, "lat": 38.904398666666665, "fusion_lon": 0.0, "is_disabled": 0}, {"rental_uris": {"android": "https://dc.lft.to/lastmile_qr_scan", "ios": "https://dc.lft.to/lastmile_qr_scan"}, "type": "electric_scooter", "lon": -77.01823333333333, "name": "9f427ce837ac689b546f209a9359bae4", "bike_id": "9f427ce837ac689b546f209a9359bae4", "fusion_lat": 0.0, "is_reserved": 0, "lat": 38.88612883333333, "fusion_lon": 0.0, "is_disabled": 0}, {"rental_uris": {"android": "https://dc.lft.to/lastmile_qr_scan", "ios": "https://dc.lft.to/lastmile_qr_scan"}, "type": "electric_scooter", "lon": -77.04158233333334, "name": "a84107ad4485b9e38e559664b054b527", "bike_id": "a84107ad4485b9e38e559664b054b527", "fusion_lat": 0.0, "is_reserved": 0, "lat": 38.91928633333333, "fusion_lon": 0.0, "is_disabled": 0}, {"rental_uris": {"android": "https://dc.lft.to/lastmile_qr_scan", "ios": "https://dc.lft.to/lastmile_qr_scan"}, "type": "electric_scooter", "lon": -77.04676766666667, "name": "b5d3902878916d3d85519635bf6d28db", "bike_id": "b5d3902878916d3d85519635bf6d28db", "fusion_lat": 0.0, "is_reserved": 0, "lat": 38.91055, "fusion_lon": 0.0, "is_disabled": 0}, {"rental_uris": {"android": "https://dc.lft.to/lastmile_qr_scan", "ios": "https://dc.lft.to/lastmile_qr_scan"}, "type": "electric_scooter", "lon": -76.97932016666667, "name": "c9d08d038a68db75ce22255b830274df", "bike_id": "c9d08d038a68db75ce22255b830274df", "fusion_lat": 0.0, "is_reserved": 0, "lat": 38.90247633333333, "fusion_lon": 0.0, "is_disabled": 0}, {"rental_uris": {"android": "https://dc.lft.to/lastmile_qr_scan", "ios": "https://dc.lft.to/lastmile_qr_scan"}, "type": "electric_scooter", "lon": -77.02474466666666, "name": "dbefa4ba509e32ff71a4c8872fee3e76", "bike_id": "dbefa4ba509e32ff71a4c8872fee3e76", "fusion_lat": 0.0, "is_reserved": 0, "lat": 38.93620816666667, "fusion_lon": 0.0, "is_disabled": 0}, {"rental_uris": {"android": "https://dc.lft.to/lastmile_qr_scan", "ios": "https://dc.lft.to/lastmile_qr_scan"}, "type": "electric_scooter", "lon": -76.94722283333333, "name": "3aefad9b52ad00b5e3fbbee5809ac3c3", "bike_id": "3aefad9b52ad00b5e3fbbee5809ac3c3", "fusion_lat": 0.0, "is_reserved": 0, "lat": 38.8973525, "fusion_lon": 0.0, "is_disabled": 0}, {"rental_uris": {"android": "https://dc.lft.to/lastmile_qr_scan", "ios": "https://dc.lft.to/lastmile_qr_scan"}, "type": "electric_scooter", "lon": -76.98457666666667, "name": "dd7de7a1e38dae2c4c64faa2afa10f99", "bike_id": "dd7de7a1e38dae2c4c64faa2afa10f99", "fusion_lat": 0.0, "is_reserved": 0, "lat": 38.8801555, "fusion_lon": 0.0, "is_disabled": 0}, {"rental_uris": {"android": "https://dc.lft.to/lastmile_qr_scan", "ios": "https://dc.lft.to/lastmile_qr_scan"}, "type": "electric_bike", "lon": -77.0844175, "name": "25ff2f9e7446cb9a1996d611ebd3fcf1", "bike_id": "25ff2f9e7446cb9a1996d611ebd3fcf1", "fusion_lat": 0.0, "is_reserved": 0, "lat": 38.810265666666666, "fusion_lon": 0.0, "is_disabled": 0}, {"rental_uris": {"android": "https://dc.lft.to/lastmile_qr_scan", "ios": "https://dc.lft.to/lastmile_qr_scan"}, "type": "electric_bike", "lon": -76.975035, "name": "1695ba17866a50c3486a3e9c030718ad", "bike_id": "1695ba17866a50c3486a3e9c030718ad", "fusion_lat": 0.0, "is_reserved": 0, "lat": 38.91932516666667, "fusion_lon": 0.0, "is_disabled": 0}, {"rental_uris": {"android": "https://dc.lft.to/lastmile_qr_scan", "ios": "https://dc.lft.to/lastmile_qr_scan"}, "type": "electric_scooter", "lon": -76.99490583333333, "name": "e7b0b0018617b2d814dc74876a7ea3e2", "bike_id": "e7b0b0018617b2d814dc74876a7ea3e2", "fusion_lat": 0.0, "is_reserved": 0, "lat": 38.86243866666667, "fusion_lon": 0.0, "is_disabled": 0}, {"rental_uris": {"android": "https://dc.lft.to/lastmile_qr_scan", "ios": "https://dc.lft.to/lastmile_qr_scan"}, "type": "electric_scooter", "lon": -77.0320335, "name": "04860c868314263b490d25fd50d23ec4", "bike_id": "04860c868314263b490d25fd50d23ec4", "fusion_lat": 0.0, "is_reserved": 0, "lat": 38.89632366666667, "fusion_lon": 0.0, "is_disabled": 0}, {"rental_uris": {"android": "https://dc.lft.to/lastmile_qr_scan", "ios": "https://dc.lft.to/lastmile_qr_scan"}, "type": "electric_scooter", "lon": -77.00204266666667, "name": "76eaae52e2e12a76bfe4e31f45a7bffb", "bike_id": "76eaae52e2e12a76bfe4e31f45a7bffb", "fusion_lat": 0.0, "is_reserved": 0, "lat": 38.9023795, "fusion_lon": 0.0, "is_disabled": 0}, {"rental_uris": {"android": "https://dc.lft.to/lastmile_qr_scan", "ios": "https://dc.lft.to/lastmile_qr_scan"}, "type": "electric_scooter", "lon": -77.038131, "name": "4660071b010a0ab195346612f9212e17", "bike_id": "4660071b010a0ab195346612f9212e17", "fusion_lat": 0.0, "is_reserved": 0, "lat": 38.91416566666667, "fusion_lon": 0.0, "is_disabled": 0}, {"rental_uris": {"android": "https://dc.lft.to/lastmile_qr_scan", "ios": "https://dc.lft.to/lastmile_qr_scan"}, "type": "electric_scooter", "lon": -77.040231, "name": "bceb01b80c0360c51fdf37dca6b3cc98", "bike_id": "bceb01b80c0360c51fdf37dca6b3cc98", "fusion_lat": 0.0, "is_reserved": 0, "lat": 38.92567283333333, "fusion_lon": 0.0, "is_disabled": 0}, {"rental_uris": {"android": "https://dc.lft.to/lastmile_qr_scan", "ios": "https://dc.lft.to/lastmile_qr_scan"}, "type": "electric_scooter", "lon": -76.98731316666667, "name": "928da9fe0445ec6994f88041e4f6013a", "bike_id": "928da9fe0445ec6994f88041e4f6013a", "fusion_lat": 0.0, "is_reserved": 0, "lat": 38.867087166666664, "fusion_lon": 0.0, "is_disabled": 0}, {"rental_uris": {"android": "https://dc.lft.to/lastmile_qr_scan", "ios": "https://dc.lft.to/lastmile_qr_scan"}, "type": "electric_scooter", "lon": -77.04094866666667, "name": "199a8803bee5d38bb24caf002ab7b157", "bike_id": "199a8803bee5d38bb24caf002ab7b157", "fusion_lat": 0.0, "is_reserved": 0, "lat": 38.907266666666665, "fusion_lon": 0.0, "is_disabled": 0}, {"rental_uris": {"android": "https://dc.lft.to/lastmile_qr_scan", "ios": "https://dc.lft.to/lastmile_qr_scan"}, "type": "electric_scooter", "lon": -77.02668216666666, "name": "752a8d197d6c5937656749b334b64cb1", "bike_id": "752a8d197d6c5937656749b334b64cb1", "fusion_lat": 0.0, "is_reserved": 0, "lat": 38.93101083333333, "fusion_lon": 0.0, "is_disabled": 0}, {"rental_uris": {"android": "https://dc.lft.to/lastmile_qr_scan", "ios": "https://dc.lft.to/lastmile_qr_scan"}, "type": "electric_bike", "lon": -76.97557533333334, "name": "68b0e4cb41068ddfb46709d2a7a536be", "bike_id": "68b0e4cb41068ddfb46709d2a7a536be", "fusion_lat": 0.0, "is_reserved": 0, "lat": 38.90316083333333, "fusion_lon": 0.0, "is_disabled": 0}, {"rental_uris": {"android": "https://dc.lft.to/lastmile_qr_scan", "ios": "https://dc.lft.to/lastmile_qr_scan"}, "type": "electric_scooter", "lon": -77.02901383333334, "name": "3ecd2b8745ca46ed39198bd5fad07c5d", "bike_id": "3ecd2b8745ca46ed39198bd5fad07c5d", "fusion_lat": 0.0, "is_reserved": 0, "lat": 38.958427666666665, "fusion_lon": 0.0, "is_disabled": 0}, {"rental_uris": {"android": "https://dc.lft.to/lastmile_qr_scan", "ios": "https://dc.lft.to/lastmile_qr_scan"}, "type": "electric_scooter", "lon": -77.0256745, "name": "168b1d3da5849dea4cfa08292a834bcc", "bike_id": "168b1d3da5849dea4cfa08292a834bcc", "fusion_lat": 0.0, "is_reserved": 0, "lat": 38.88591733333333, "fusion_lon": 0.0, "is_disabled": 0}, {"rental_uris": {"android": "https://dc.lft.to/lastmile_qr_scan", "ios": "https://dc.lft.to/lastmile_qr_scan"}, "type": "electric_bike", "lon": -77.08822866666667, "name": "da57f42a4bc4d8acc3dd63cb4436f42d", "bike_id": "da57f42a4bc4d8acc3dd63cb4436f42d", "fusion_lat": 0.0, "is_reserved": 0, "lat": 38.90971283333333, "fusion_lon": 0.0, "is_disabled": 0}, {"rental_uris": {"android": "https://dc.lft.to/lastmile_qr_scan", "ios": "https://dc.lft.to/lastmile_qr_scan"}, "type": "electric_scooter", "lon": -77.03876333333334, "name": "3255525171875f9a7be9a674090fd351", "bike_id": "3255525171875f9a7be9a674090fd351", "fusion_lat": 0.0, "is_reserved": 0, "lat": 38.91266866666667, "fusion_lon": 0.0, "is_disabled": 0}, {"rental_uris": {"android": "https://dc.lft.to/lastmile_qr_scan", "ios": "https://dc.lft.to/lastmile_qr_scan"}, "type": "electric_scooter", "lon": -77.02353733333334, "name": "1aaa33f6bc4a569fd4ba6b8fd8520ee3", "bike_id": "1aaa33f6bc4a569fd4ba6b8fd8520ee3", "fusion_lat": 0.0, "is_reserved": 0, "lat": 38.884833666666665, "fusion_lon": 0.0, "is_disabled": 0}, {"rental_uris": {"android": "https://dc.lft.to/lastmile_qr_scan", "ios": "https://dc.lft.to/lastmile_qr_scan"}, "type": "electric_scooter", "lon": -77.05275933333333, "name": "428ea7573c8f48df1f9308363e4d3e16", "bike_id": "428ea7573c8f48df1f9308363e4d3e16", "fusion_lat": 0.0, "is_reserved": 0, "lat": 38.922563333333336, "fusion_lon": 0.0, "is_disabled": 0}, {"rental_uris": {"android": "https://dc.lft.to/lastmile_qr_scan", "ios": "https://dc.lft.to/lastmile_qr_scan"}, "type": "electric_scooter", "lon": -76.94156383333333, "name": "bc8db2835d4f28c319b7c005b3742034", "bike_id": "bc8db2835d4f28c319b7c005b3742034", "fusion_lat": 0.0, "is_reserved": 0, "lat": 38.883629666666664, "fusion_lon": 0.0, "is_disabled": 0}, {"rental_uris": {"android": "https://dc.lft.to/lastmile_qr_scan", "ios": "https://dc.lft.to/lastmile_qr_scan"}, "type": "electric_scooter", "lon": -77.02802583333333, "name": "3fb5ea6fd7211703bb3e259e1f487b52", "bike_id": "3fb5ea6fd7211703bb3e259e1f487b52", "fusion_lat": 0.0, "is_reserved": 0, "lat": 38.919557, "fusion_lon": 0.0, "is_disabled": 0}, {"rental_uris": {"android": "https://dc.lft.to/lastmile_qr_scan", "ios": "https://dc.lft.to/lastmile_qr_scan"}, "type": "electric_scooter", "lon": -77.06039, "name": "c4e51f35f532d5ab57f8f444bd88c198", "bike_id": "c4e51f35f532d5ab57f8f444bd88c198", "fusion_lat": 0.0, "is_reserved": 0, "lat": 38.939260833333336, "fusion_lon": 0.0, "is_disabled": 0}, {"rental_uris": {"android": "https://dc.lft.to/lastmile_qr_scan", "ios": "https://dc.lft.to/lastmile_qr_scan"}, "type": "electric_scooter", "lon": -77.02279383333334, "name": "f6f6ccdc184c25526badbd09afe873e4", "bike_id": "f6f6ccdc184c25526badbd09afe873e4", "fusion_lat": 0.0, "is_reserved": 0, "lat": 38.908809833333336, "fusion_lon": 0.0, "is_disabled": 0}, {"rental_uris": {"android": "https://dc.lft.to/lastmile_qr_scan", "ios": "https://dc.lft.to/lastmile_qr_scan"}, "type": "electric_scooter", "lon": -77.05086516666667, "name": "2767895c369b62d71780ba783bc7214a", "bike_id": "2767895c369b62d71780ba783bc7214a", "fusion_lat": 0.0, "is_reserved": 0, "lat": 38.9245115, "fusion_lon": 0.0, "is_disabled": 0}, {"rental_uris": {"android": "https://dc.lft.to/lastmile_qr_scan", "ios": "https://dc.lft.to/lastmile_qr_scan"}, "type": "electric_scooter", "lon": -77.0216505, "name": "83a66f740582aff225b9373a39847ec7", "bike_id": "83a66f740582aff225b9373a39847ec7", "fusion_lat": 0.0, "is_reserved": 0, "lat": 38.92609, "fusion_lon": 0.0, "is_disabled": 0}, {"rental_uris": {"android": "https://dc.lft.to/lastmile_qr_scan", "ios": "https://dc.lft.to/lastmile_qr_scan"}, "type": "electric_scooter", "lon": -77.05148216666667, "name": "d30ab0fa6ad6700a9a28fe49274f6eb0", "bike_id": "d30ab0fa6ad6700a9a28fe49274f6eb0", "fusion_lat": 0.0, "is_reserved": 0, "lat": 38.904297666666665, "fusion_lon": 0.0, "is_disabled": 0}, {"rental_uris": {"android": "https://dc.lft.to/lastmile_qr_scan", "ios": "https://dc.lft.to/lastmile_qr_scan"}, "type": "electric_scooter", "lon": -77.02939016666667, "name": "ec1b008693ae2a368c66cba4cc4c5180", "bike_id": "ec1b008693ae2a368c66cba4cc4c5180", "fusion_lat": 0.0, "is_reserved": 0, "lat": 38.9170975, "fusion_lon": 0.0, "is_disabled": 0}, {"rental_uris": {"android": "https://dc.lft.to/lastmile_qr_scan", "ios": "https://dc.lft.to/lastmile_qr_scan"}, "type": "electric_scooter", "lon": -77.0299515, "name": "e921a27b1973b313acc500499db6e155", "bike_id": "e921a27b1973b313acc500499db6e155", "fusion_lat": 0.0, "is_reserved": 0, "lat": 38.907335833333335, "fusion_lon": 0.0, "is_disabled": 0}, {"rental_uris": {"android": "https://dc.lft.to/lastmile_qr_scan", "ios": "https://dc.lft.to/lastmile_qr_scan"}, "type": "electric_scooter", "lon": -77.04245266666666, "name": "0373a26cd49cd26772ac3115cae740a8", "bike_id": "0373a26cd49cd26772ac3115cae740a8", "fusion_lat": 0.0, "is_reserved": 0, "lat": 38.9454595, "fusion_lon": 0.0, "is_disabled": 0}, {"rental_uris": {"android": "https://dc.lft.to/lastmile_qr_scan", "ios": "https://dc.lft.to/lastmile_qr_scan"}, "type": "electric_scooter", "lon": -77.03871916666667, "name": "1823e91c8b424cb5e8264a6d29c9c328", "bike_id": "1823e91c8b424cb5e8264a6d29c9c328", "fusion_lat": 0.0, "is_reserved": 0, "lat": 38.912700666666666, "fusion_lon": 0.0, "is_disabled": 0}, {"rental_uris": {"android": "https://dc.lft.to/lastmile_qr_scan", "ios": "https://dc.lft.to/lastmile_qr_scan"}, "type": "electric_scooter", "lon": -77.06391816666667, "name": "a47051f82793c40e11863c2695db97c6", "bike_id": "a47051f82793c40e11863c2695db97c6", "fusion_lat": 0.0, "is_reserved": 0, "lat": 38.9290465, "fusion_lon": 0.0, "is_disabled": 0}, {"rental_uris": {"android": "https://dc.lft.to/lastmile_qr_scan", "ios": "https://dc.lft.to/lastmile_qr_scan"}, "type": "electric_scooter", "lon": -77.00148166666666, "name": "9941f6f6e392d5ccbb650460d411c485", "bike_id": "9941f6f6e392d5ccbb650460d411c485", "fusion_lat": 0.0, "is_reserved": 0, "lat": 38.900255333333334, "fusion_lon": 0.0, "is_disabled": 0}, {"rental_uris": {"android": "https://dc.lft.to/lastmile_qr_scan", "ios": "https://dc.lft.to/lastmile_qr_scan"}, "type": "electric_scooter", "lon": -77.03208916666667, "name": "e05ab826854170e326c93ca306dcf502", "bike_id": "e05ab826854170e326c93ca306dcf502", "fusion_lat": 0.0, "is_reserved": 0, "lat": 38.91341966666667, "fusion_lon": 0.0, "is_disabled": 0}, {"rental_uris": {"android": "https://dc.lft.to/lastmile_qr_scan", "ios": "https://dc.lft.to/lastmile_qr_scan"}, "type": "electric_scooter", "lon": -76.94118516666667, "name": "c2435cc6b9f4d79c1c425f52191b938b", "bike_id": "c2435cc6b9f4d79c1c425f52191b938b", "fusion_lat": 0.0, "is_reserved": 0, "lat": 38.90792666666667, "fusion_lon": 0.0, "is_disabled": 0}, {"rental_uris": {"android": "https://dc.lft.to/lastmile_qr_scan", "ios": "https://dc.lft.to/lastmile_qr_scan"}, "type": "electric_scooter", "lon": -77.04576616666667, "name": "cebf5138998faef56d99cf51b8d51608", "bike_id": "cebf5138998faef56d99cf51b8d51608", "fusion_lat": 0.0, "is_reserved": 0, "lat": 38.921336833333335, "fusion_lon": 0.0, "is_disabled": 0}, {"rental_uris": {"android": "https://dc.lft.to/lastmile_qr_scan", "ios": "https://dc.lft.to/lastmile_qr_scan"}, "type": "electric_bike", "lon": -77.09525683333334, "name": "aea2968834113f04dc6faff580d2c8cb", "bike_id": "aea2968834113f04dc6faff580d2c8cb", "fusion_lat": 0.0, "is_reserved": 0, "lat": 38.83810583333333, "fusion_lon": 0.0, "is_disabled": 0}, {"rental_uris": {"android": "https://dc.lft.to/lastmile_qr_scan", "ios": "https://dc.lft.to/lastmile_qr_scan"}, "type": "electric_scooter", "lon": -77.0543915, "name": "8affd10325edec6d09c700995e536eee", "bike_id": "8affd10325edec6d09c700995e536eee", "fusion_lat": 0.0, "is_reserved": 0, "lat": 38.9285235, "fusion_lon": 0.0, "is_disabled": 0}, {"rental_uris": {"android": "https://dc.lft.to/lastmile_qr_scan", "ios": "https://dc.lft.to/lastmile_qr_scan"}, "type": "electric_scooter", "lon": -77.05440583333333, "name": "0d33dfe53c061a65e48abdaa2f678774", "bike_id": "0d33dfe53c061a65e48abdaa2f678774", "fusion_lat": 0.0, "is_reserved": 0, "lat": 38.928506166666665, "fusion_lon": 0.0, "is_disabled": 0}, {"rental_uris": {"android": "https://dc.lft.to/lastmile_qr_scan", "ios": "https://dc.lft.to/lastmile_qr_scan"}, "type": "electric_scooter", "lon": -77.02179233333334, "name": "2c395efab5b567b4acec0fe6b0f34a70", "bike_id": "2c395efab5b567b4acec0fe6b0f34a70", "fusion_lat": 0.0, "is_reserved": 0, "lat": 38.943122833333334, "fusion_lon": 0.0, "is_disabled": 0}, {"rental_uris": {"android": "https://dc.lft.to/lastmile_qr_scan", "ios": "https://dc.lft.to/lastmile_qr_scan"}, "type": "electric_scooter", "lon": -77.05289883333333, "name": "0c0d7275692c9505f17dec5585f6754e", "bike_id": "0c0d7275692c9505f17dec5585f6754e", "fusion_lat": 0.0, "is_reserved": 0, "lat": 38.910525, "fusion_lon": 0.0, "is_disabled": 0}, {"rental_uris": {"android": "https://dc.lft.to/lastmile_qr_scan", "ios": "https://dc.lft.to/lastmile_qr_scan"}, "type": "electric_scooter", "lon": -76.99550116666667, "name": "f628d0bf14d2c4e17524b1cea6c00033", "bike_id": "f628d0bf14d2c4e17524b1cea6c00033", "fusion_lat": 0.0, "is_reserved": 0, "lat": 38.88421366666667, "fusion_lon": 0.0, "is_disabled": 0}, {"rental_uris": {"android": "https://dc.lft.to/lastmile_qr_scan", "ios": "https://dc.lft.to/lastmile_qr_scan"}, "type": "electric_scooter", "lon": -77.03647133333334, "name": "96dd5df5a8aaa22b9cfea3f7e4b3b11b", "bike_id": "96dd5df5a8aaa22b9cfea3f7e4b3b11b", "fusion_lat": 0.0, "is_reserved": 0, "lat": 38.90264583333333, "fusion_lon": 0.0, "is_disabled": 0}, {"rental_uris": {"android": "https://dc.lft.to/lastmile_qr_scan", "ios": "https://dc.lft.to/lastmile_qr_scan"}, "type": "electric_scooter", "lon": -77.03467016666667, "name": "ec1c7bbb3d2051f70f38b98581d90112", "bike_id": "ec1c7bbb3d2051f70f38b98581d90112", "fusion_lat": 0.0, "is_reserved": 0, "lat": 38.914658833333334, "fusion_lon": 0.0, "is_disabled": 0}, {"rental_uris": {"android": "https://dc.lft.to/lastmile_qr_scan", "ios": "https://dc.lft.to/lastmile_qr_scan"}, "type": "electric_scooter", "lon": -76.98853066666666, "name": "8621867fbfda658244e4f19d60613bb1", "bike_id": "8621867fbfda658244e4f19d60613bb1", "fusion_lat": 0.0, "is_reserved": 0, "lat": 38.900284, "fusion_lon": 0.0, "is_disabled": 0}, {"rental_uris": {"android": "https://dc.lft.to/lastmile_qr_scan", "ios": "https://dc.lft.to/lastmile_qr_scan"}, "type": "electric_scooter", "lon": -77.04209866666666, "name": "7de6776796cc8e549c4dfaeb7bf8c366", "bike_id": "7de6776796cc8e549c4dfaeb7bf8c366", "fusion_lat": 0.0, "is_reserved": 0, "lat": 38.921304, "fusion_lon": 0.0, "is_disabled": 0}, {"rental_uris": {"android": "https://dc.lft.to/lastmile_qr_scan", "ios": "https://dc.lft.to/lastmile_qr_scan"}, "type": "electric_scooter", "lon": -76.9963275, "name": "1a6be05b59bc7a4e0993e9f09acc19c2", "bike_id": "1a6be05b59bc7a4e0993e9f09acc19c2", "fusion_lat": 0.0, "is_reserved": 0, "lat": 38.84620616666667, "fusion_lon": 0.0, "is_disabled": 0}, {"rental_uris": {"android": "https://dc.lft.to/lastmile_qr_scan", "ios": "https://dc.lft.to/lastmile_qr_scan"}, "type": "electric_bike", "lon": -77.02493583333333, "name": "119a46c889f4aeb040b700f690cabc0a", "bike_id": "119a46c889f4aeb040b700f690cabc0a", "fusion_lat": 0.0, "is_reserved": 0, "lat": 38.973681, "fusion_lon": 0.0, "is_disabled": 0}, {"rental_uris": {"android": "https://dc.lft.to/lastmile_qr_scan", "ios": "https://dc.lft.to/lastmile_qr_scan"}, "type": "electric_scooter", "lon": -77.024811, "name": "394f7bfb687c258c59abeae3926c86ed", "bike_id": "394f7bfb687c258c59abeae3926c86ed", "fusion_lat": 0.0, "is_reserved": 0, "lat": 38.938798, "fusion_lon": 0.0, "is_disabled": 0}, {"rental_uris": {"android": "https://dc.lft.to/lastmile_qr_scan", "ios": "https://dc.lft.to/lastmile_qr_scan"}, "type": "electric_scooter", "lon": -76.9901615, "name": "65223483db4903092f444c6f195bc727", "bike_id": "65223483db4903092f444c6f195bc727", "fusion_lat": 0.0, "is_reserved": 0, "lat": 38.861137666666664, "fusion_lon": 0.0, "is_disabled": 0}, {"rental_uris": {"android": "https://dc.lft.to/lastmile_qr_scan", "ios": "https://dc.lft.to/lastmile_qr_scan"}, "type": "electric_scooter", "lon": -77.06290166666666, "name": "92f1d4eb25c180109837ff332d2a6228", "bike_id": "92f1d4eb25c180109837ff332d2a6228", "fusion_lat": 0.0, "is_reserved": 0, "lat": 38.90455166666667, "fusion_lon": 0.0, "is_disabled": 0}, {"rental_uris": {"android": "https://dc.lft.to/lastmile_qr_scan", "ios": "https://dc.lft.to/lastmile_qr_scan"}, "type": "electric_scooter", "lon": -77.01396983333333, "name": "8afed7bb271ef08529b6cceff0eacd01", "bike_id": "8afed7bb271ef08529b6cceff0eacd01", "fusion_lat": 0.0, "is_reserved": 0, "lat": 38.919523166666664, "fusion_lon": 0.0, "is_disabled": 0}, {"rental_uris": {"android": "https://dc.lft.to/lastmile_qr_scan", "ios": "https://dc.lft.to/lastmile_qr_scan"}, "type": "electric_scooter", "lon": -77.01892283333333, "name": "d95f3a6c92021017e532d94bd45477d3", "bike_id": "d95f3a6c92021017e532d94bd45477d3", "fusion_lat": 0.0, "is_reserved": 0, "lat": 38.909449, "fusion_lon": 0.0, "is_disabled": 0}, {"rental_uris": {"android": "https://dc.lft.to/lastmile_qr_scan", "ios": "https://dc.lft.to/lastmile_qr_scan"}, "type": "electric_scooter", "lon": -77.07109416666667, "name": "7400b097647e2a10b6e78eb9049c7cc1", "bike_id": "7400b097647e2a10b6e78eb9049c7cc1", "fusion_lat": 0.0, "is_reserved": 0, "lat": 38.91974283333333, "fusion_lon": 0.0, "is_disabled": 0}, {"rental_uris": {"android": "https://dc.lft.to/lastmile_qr_scan", "ios": "https://dc.lft.to/lastmile_qr_scan"}, "type": "electric_scooter", "lon": -76.96718433333334, "name": "39ae99045a7731d0f1b338b6cd36f2de", "bike_id": "39ae99045a7731d0f1b338b6cd36f2de", "fusion_lat": 0.0, "is_reserved": 0, "lat": 38.869523, "fusion_lon": 0.0, "is_disabled": 0}, {"rental_uris": {"android": "https://dc.lft.to/lastmile_qr_scan", "ios": "https://dc.lft.to/lastmile_qr_scan"}, "type": "electric_scooter", "lon": -77.03907716666667, "name": "dfd5625e50b8c9ba02382e69bfd37724", "bike_id": "dfd5625e50b8c9ba02382e69bfd37724", "fusion_lat": 0.0, "is_reserved": 0, "lat": 38.91419366666667, "fusion_lon": 0.0, "is_disabled": 0}, {"rental_uris": {"android": "https://dc.lft.to/lastmile_qr_scan", "ios": "https://dc.lft.to/lastmile_qr_scan"}, "type": "electric_scooter", "lon": -76.94924683333333, "name": "c108cc8990b896eb3c6c4290d6fc0cde", "bike_id": "c108cc8990b896eb3c6c4290d6fc0cde", "fusion_lat": 0.0, "is_reserved": 0, "lat": 38.884790333333335, "fusion_lon": 0.0, "is_disabled": 0}, {"rental_uris": {"android": "https://dc.lft.to/lastmile_qr_scan", "ios": "https://dc.lft.to/lastmile_qr_scan"}, "type": "electric_scooter", "lon": -77.02959366666667, "name": "5ed54f4a2b0677ef15b63c25cd8dbadd", "bike_id": "5ed54f4a2b0677ef15b63c25cd8dbadd", "fusion_lat": 0.0, "is_reserved": 0, "lat": 38.9055355, "fusion_lon": 0.0, "is_disabled": 0}, {"rental_uris": {"android": "https://dc.lft.to/lastmile_qr_scan", "ios": "https://dc.lft.to/lastmile_qr_scan"}, "type": "electric_scooter", "lon": -77.038885, "name": "e030327063912f468f6c7c2872e009d7", "bike_id": "e030327063912f468f6c7c2872e009d7", "fusion_lat": 0.0, "is_reserved": 0, "lat": 38.932651666666665, "fusion_lon": 0.0, "is_disabled": 0}, {"rental_uris": {"android": "https://dc.lft.to/lastmile_qr_scan", "ios": "https://dc.lft.to/lastmile_qr_scan"}, "type": "electric_scooter", "lon": -77.032513, "name": "6a3734020698663903022f6c8f360b28", "bike_id": "6a3734020698663903022f6c8f360b28", "fusion_lat": 0.0, "is_reserved": 0, "lat": 38.92840983333333, "fusion_lon": 0.0, "is_disabled": 0}, {"rental_uris": {"android": "https://dc.lft.to/lastmile_qr_scan", "ios": "https://dc.lft.to/lastmile_qr_scan"}, "type": "electric_scooter", "lon": -77.02477766666667, "name": "a2f5e26dfa7360b69aa9be0b2dac9625", "bike_id": "a2f5e26dfa7360b69aa9be0b2dac9625", "fusion_lat": 0.0, "is_reserved": 0, "lat": 38.93877333333333, "fusion_lon": 0.0, "is_disabled": 0}, {"rental_uris": {"android": "https://dc.lft.to/lastmile_qr_scan", "ios": "https://dc.lft.to/lastmile_qr_scan"}, "type": "electric_scooter", "lon": -76.98566933333333, "name": "d2bd277a45eef52a101f4c1e64211642", "bike_id": "d2bd277a45eef52a101f4c1e64211642", "fusion_lat": 0.0, "is_reserved": 0, "lat": 38.855852166666665, "fusion_lon": 0.0, "is_disabled": 0}, {"rental_uris": {"android": "https://dc.lft.to/lastmile_qr_scan", "ios": "https://dc.lft.to/lastmile_qr_scan"}, "type": "electric_scooter", "lon": -77.07363766666667, "name": "3adfb7b2da0703d12a5a17ee72e6f70a", "bike_id": "3adfb7b2da0703d12a5a17ee72e6f70a", "fusion_lat": 0.0, "is_reserved": 0, "lat": 38.943234, "fusion_lon": 0.0, "is_disabled": 0}, {"rental_uris": {"android": "https://dc.lft.to/lastmile_qr_scan", "ios": "https://dc.lft.to/lastmile_qr_scan"}, "type": "electric_scooter", "lon": -77.03848666666667, "name": "9b80ff055317eac29654a569496fd240", "bike_id": "9b80ff055317eac29654a569496fd240", "fusion_lat": 0.0, "is_reserved": 0, "lat": 38.911678333333334, "fusion_lon": 0.0, "is_disabled": 0}, {"rental_uris": {"android": "https://dc.lft.to/lastmile_qr_scan", "ios": "https://dc.lft.to/lastmile_qr_scan"}, "type": "electric_scooter", "lon": -77.0174595, "name": "cf11249e33c00eeeaa57c53ab5ceb830", "bike_id": "cf11249e33c00eeeaa57c53ab5ceb830", "fusion_lat": 0.0, "is_reserved": 0, "lat": 38.902066, "fusion_lon": 0.0, "is_disabled": 0}, {"rental_uris": {"android": "https://dc.lft.to/lastmile_qr_scan", "ios": "https://dc.lft.to/lastmile_qr_scan"}, "type": "electric_scooter", "lon": -76.993853, "name": "3c82d9bd1c416d3ab6a36231133b659b", "bike_id": "3c82d9bd1c416d3ab6a36231133b659b", "fusion_lat": 0.0, "is_reserved": 0, "lat": 38.92397233333333, "fusion_lon": 0.0, "is_disabled": 0}, {"rental_uris": {"android": "https://dc.lft.to/lastmile_qr_scan", "ios": "https://dc.lft.to/lastmile_qr_scan"}, "type": "electric_scooter", "lon": -77.00600716666666, "name": "2eb0c6cebc595f38f0ae1f9a00f9e86b", "bike_id": "2eb0c6cebc595f38f0ae1f9a00f9e86b", "fusion_lat": 0.0, "is_reserved": 0, "lat": 38.90559583333334, "fusion_lon": 0.0, "is_disabled": 0}, {"rental_uris": {"android": "https://dc.lft.to/lastmile_qr_scan", "ios": "https://dc.lft.to/lastmile_qr_scan"}, "type": "electric_scooter", "lon": -77.00758883333333, "name": "ec40172e2dd6164938cd794b4d3f1a66", "bike_id": "ec40172e2dd6164938cd794b4d3f1a66", "fusion_lat": 0.0, "is_reserved": 0, "lat": 38.91026683333333, "fusion_lon": 0.0, "is_disabled": 0}, {"rental_uris": {"android": "https://dc.lft.to/lastmile_qr_scan", "ios": "https://dc.lft.to/lastmile_qr_scan"}, "type": "electric_scooter", "lon": -77.0347615, "name": "e4aff7d00f4fae4b3376921dbda659ab", "bike_id": "e4aff7d00f4fae4b3376921dbda659ab", "fusion_lat": 0.0, "is_reserved": 0, "lat": 38.908919166666664, "fusion_lon": 0.0, "is_disabled": 0}, {"rental_uris": {"android": "https://dc.lft.to/lastmile_qr_scan", "ios": "https://dc.lft.to/lastmile_qr_scan"}, "type": "electric_bike", "lon": -77.00863433333333, "name": "0e49b2ef239e89ea69139970245b2593", "bike_id": "0e49b2ef239e89ea69139970245b2593", "fusion_lat": 0.0, "is_reserved": 0, "lat": 38.827281666666664, "fusion_lon": 0.0, "is_disabled": 0}, {"rental_uris": {"android": "https://dc.lft.to/lastmile_qr_scan", "ios": "https://dc.lft.to/lastmile_qr_scan"}, "type": "electric_scooter", "lon": -76.96489483333333, "name": "33a8d7e1198ed9d0a24cdcdb3f15460c", "bike_id": "33a8d7e1198ed9d0a24cdcdb3f15460c", "fusion_lat": 0.0, "is_reserved": 0, "lat": 38.875503, "fusion_lon": 0.0, "is_disabled": 0}, {"rental_uris": {"android": "https://dc.lft.to/lastmile_qr_scan", "ios": "https://dc.lft.to/lastmile_qr_scan"}, "type": "electric_scooter", "lon": -77.0171865, "name": "71bef512bc50fab21382c602b6308a85", "bike_id": "71bef512bc50fab21382c602b6308a85", "fusion_lat": 0.0, "is_reserved": 0, "lat": 38.879389333333336, "fusion_lon": 0.0, "is_disabled": 0}, {"rental_uris": {"android": "https://dc.lft.to/lastmile_qr_scan", "ios": "https://dc.lft.to/lastmile_qr_scan"}, "type": "electric_scooter", "lon": -76.98619333333333, "name": "7c5e7859abfe6d850c63568e4c78c7b4", "bike_id": "7c5e7859abfe6d850c63568e4c78c7b4", "fusion_lat": 0.0, "is_reserved": 0, "lat": 38.9058205, "fusion_lon": 0.0, "is_disabled": 0}, {"rental_uris": {"android": "https://dc.lft.to/lastmile_qr_scan", "ios": "https://dc.lft.to/lastmile_qr_scan"}, "type": "electric_scooter", "lon": -77.07271466666667, "name": "f36075b9586f32c1405e1398e10e7675", "bike_id": "f36075b9586f32c1405e1398e10e7675", "fusion_lat": 0.0, "is_reserved": 0, "lat": 38.93481666666667, "fusion_lon": 0.0, "is_disabled": 0}, {"rental_uris": {"android": "https://dc.lft.to/lastmile_qr_scan", "ios": "https://dc.lft.to/lastmile_qr_scan"}, "type": "electric_scooter", "lon": -77.03838866666666, "name": "5e3e99fcd4a43255bb280acfd5c79c3c", "bike_id": "5e3e99fcd4a43255bb280acfd5c79c3c", "fusion_lat": 0.0, "is_reserved": 0, "lat": 38.931013166666666, "fusion_lon": 0.0, "is_disabled": 0}, {"rental_uris": {"android": "https://dc.lft.to/lastmile_qr_scan", "ios": "https://dc.lft.to/lastmile_qr_scan"}, "type": "electric_scooter", "lon": -77.02006716666666, "name": "2dc707ef54b00e8a7fe908f9fc89c08d", "bike_id": "2dc707ef54b00e8a7fe908f9fc89c08d", "fusion_lat": 0.0, "is_reserved": 0, "lat": 38.879363166666664, "fusion_lon": 0.0, "is_disabled": 0}, {"rental_uris": {"android": "https://dc.lft.to/lastmile_qr_scan", "ios": "https://dc.lft.to/lastmile_qr_scan"}, "type": "electric_scooter", "lon": -77.03454033333334, "name": "02af09dc94171b3c8f7603aded44c257", "bike_id": "02af09dc94171b3c8f7603aded44c257", "fusion_lat": 0.0, "is_reserved": 0, "lat": 38.905783666666665, "fusion_lon": 0.0, "is_disabled": 0}, {"rental_uris": {"android": "https://dc.lft.to/lastmile_qr_scan", "ios": "https://dc.lft.to/lastmile_qr_scan"}, "type": "electric_scooter", "lon": -77.03439066666667, "name": "51373aa7ee8b30fce7509831f0925402", "bike_id": "51373aa7ee8b30fce7509831f0925402", "fusion_lat": 0.0, "is_reserved": 0, "lat": 38.918036, "fusion_lon": 0.0, "is_disabled": 0}, {"rental_uris": {"android": "https://dc.lft.to/lastmile_qr_scan", "ios": "https://dc.lft.to/lastmile_qr_scan"}, "type": "electric_bike", "lon": -76.9975895, "name": "f562ed8d1943afc954382683b3fbe99a", "bike_id": "f562ed8d1943afc954382683b3fbe99a", "fusion_lat": 0.0, "is_reserved": 0, "lat": 39.00591633333333, "fusion_lon": 0.0, "is_disabled": 0}, {"rental_uris": {"android": "https://dc.lft.to/lastmile_qr_scan", "ios": "https://dc.lft.to/lastmile_qr_scan"}, "type": "electric_scooter", "lon": -76.99730133333334, "name": "0df5852dcee5243774fd01fe66fb831a", "bike_id": "0df5852dcee5243774fd01fe66fb831a", "fusion_lat": 0.0, "is_reserved": 0, "lat": 38.907892833333335, "fusion_lon": 0.0, "is_disabled": 0}, {"rental_uris": {"android": "https://dc.lft.to/lastmile_qr_scan", "ios": "https://dc.lft.to/lastmile_qr_scan"}, "type": "electric_bike", "lon": -77.11429883333334, "name": "ac21b7263387d562eb73963d08064e78", "bike_id": "ac21b7263387d562eb73963d08064e78", "fusion_lat": 0.0, "is_reserved": 0, "lat": 38.85245916666667, "fusion_lon": 0.0, "is_disabled": 0}, {"rental_uris": {"android": "https://dc.lft.to/lastmile_qr_scan", "ios": "https://dc.lft.to/lastmile_qr_scan"}, "type": "electric_scooter", "lon": -76.997798, "name": "a5e692ec573fa741a2b74e1a722385f3", "bike_id": "a5e692ec573fa741a2b74e1a722385f3", "fusion_lat": 0.0, "is_reserved": 0, "lat": 38.922892166666664, "fusion_lon": 0.0, "is_disabled": 0}, {"rental_uris": {"android": "https://dc.lft.to/lastmile_qr_scan", "ios": "https://dc.lft.to/lastmile_qr_scan"}, "type": "electric_scooter", "lon": -76.99492833333333, "name": "a445cbb9abfb8edf2f23a8f093e02ed3", "bike_id": "a445cbb9abfb8edf2f23a8f093e02ed3", "fusion_lat": 0.0, "is_reserved": 0, "lat": 38.862411, "fusion_lon": 0.0, "is_disabled": 0}, {"rental_uris": {"android": "https://dc.lft.to/lastmile_qr_scan", "ios": "https://dc.lft.to/lastmile_qr_scan"}, "type": "electric_scooter", "lon": -76.98138216666666, "name": "5c46b5662def4900bd0d230a35498747", "bike_id": "5c46b5662def4900bd0d230a35498747", "fusion_lat": 0.0, "is_reserved": 0, "lat": 38.884175666666664, "fusion_lon": 0.0, "is_disabled": 0}, {"rental_uris": {"android": "https://dc.lft.to/lastmile_qr_scan", "ios": "https://dc.lft.to/lastmile_qr_scan"}, "type": "electric_scooter", "lon": -77.0203925, "name": "2709b83824607b0b08be538df2976978", "bike_id": "2709b83824607b0b08be538df2976978", "fusion_lat": 0.0, "is_reserved": 0, "lat": 38.892680666666664, "fusion_lon": 0.0, "is_disabled": 0},