{"data": {"bikes": [{"rental_uris": {"ios": "https://dc.lft.to/lastmile_qr_scan", "android": "https://dc.lft.to/lastmile_qr_scan"}, "type": "electric_scooter", "name": "8874cb756d8768e4c711f7802635c5dd", "is_reserved": 0, "lon": -77.07406633333333, "is_disabled": 0, "fusion_lat": 0.0, "lat": 38.93749566666666, "bike_id": "8874cb756d8768e4c711f7802635c5dd", "fusion_lon": 0.0}, {"rental_uris": {"ios": "https://dc.lft.to/lastmile_qr_scan", "android": "https://dc.lft.to/lastmile_qr_scan"}, "type": "electric_bike", "name": "a1ff854185afddbf4c47922eebfed1e0", "is_reserved": 0, "lon": -76.9506645, "is_disabled": 0, "fusion_lat": 0.0, "lat": 39.085037166666666, "bike_id": "a1ff854185afddbf4c47922eebfed1e0", "fusion_lon": 0.0}, {"rental_uris": {"ios": "https://dc.lft.to/lastmile_qr_scan", "android": "https://dc.lft.to/lastmile_qr_scan"}, "type": "electric_scooter", "name": "412baf1316c4c69108424eba5c616fc2", "is_reserved": 0, "lon": -77.01999016666667, "is_disabled": 0, "fusion_lat": 0.0, "lat": 38.930611166666665, "bike_id": "412baf1316c4c69108424eba5c616fc2", "fusion_lon": 0.0}, {"rental_uris": {"ios": "https://dc.lft.to/lastmile_qr_scan", "android": "https://dc.lft.to/lastmile_qr_scan"}, "type": "electric_scooter", "name": "6d28af36b5f85a59dc9e345c3e16a103", "is_reserved": 0, "lon": -77.0021325, "is_disabled": 0, "fusion_lat": 0.0, "lat": 38.90035266666667, "bike_id": "6d28af36b5f85a59dc9e345c3e16a103", "fusion_lon": 0.0}, {"rental_uris": {"ios": "https://dc.lft.to/lastmile_qr_scan", "android": "https://dc.lft.to/lastmile_qr_scan"}, "type": "electric_scooter", "name": "8d33b48c23e1626f3271e7067184eb7f", "is_reserved": 0, "lon": -77.0155785, "is_disabled": 0, "fusion_lat": 0.0, "lat": 38.88319283333333, "bike_id": "8d33b48c23e1626f3271e7067184eb7f", "fusion_lon": 0.0}, {"rental_uris": {"ios": "https://dc.lft.to/lastmile_qr_scan", "android": "https://dc.lft.to/lastmile_qr_scan"}, "type": "electric_scooter", "name": "afdd643a08ce844476cdb722e2a674dc", "is_reserved": 0, "lon": -77.02359383333334, "is_disabled": 0, "fusion_lat": 0.0, "lat": 38.945251999999996, "bike_id": "afdd643a08ce844476cdb722e2a674dc", "fusion_lon": 0.0}, {"rental_uris": {"ios": "https://dc.lft.to/lastmile_qr_scan", "android": "https://dc.lft.to/lastmile_qr_scan"}, "type": "electric_scooter", "name": "a1ba6957bcc252b9e56d7ca780aa7c6a", "is_reserved": 0, "lon": -77.02953516666666, "is_disabled": 0, "fusion_lat": 0.0, "lat": 38.917138, "bike_id": "a1ba6957bcc252b9e56d7ca780aa7c6a", "fusion_lon": 0.0}, {"rental_uris": {"ios": "https://dc.lft.to/lastmile_qr_scan", "android": "https://dc.lft.to/lastmile_qr_scan"}, "type": "electric_scooter", "name": "ea5e795384f1bdde476c9211bb7223a0", "is_reserved": 0, "lon": -76.981909, "is_disabled": 0, "fusion_lat": 0.0, "lat": 38.905824333333335, "bike_id": "ea5e795384f1bdde476c9211bb7223a0", "fusion_lon": 0.0}, {"rental_uris": {"ios": "https://dc.lft.to/lastmile_qr_scan", "android": "https://dc.lft.to/lastmile_qr_scan"}, "type": "electric_scooter", "name": "eceae397e48ac240e240a816c6abad9d", "is_reserved": 0, "lon": -77.00031, "is_disabled": 0, "fusion_lat": 0.0, "lat": 38.9076655, "bike_id": "eceae397e48ac240e240a816c6abad9d", "fusion_lon": 0.0}, {"rental_uris": {"ios": "https://dc.lft.to/lastmile_qr_scan", "android": "https://dc.lft.to/lastmile_qr_scan"}, "type": "electric_scooter", "name": "7252fc98e2048a2dfb097138ece103e3", "is_reserved": 0, "lon": -77.0313725, "is_disabled": 0, "fusion_lat": 0.0, "lat": 38.923785333333335, "bike_id": "7252fc98e2048a2dfb097138ece103e3", "fusion_lon": 0.0}, {"rental_uris": {"ios": "https://dc.lft.to/lastmile_qr_scan", "android": "https://dc.lft.to/lastmile_qr_scan"}, "type": "electric_scooter", "name": "abfc10c32ca93e3c7c2239c9eccaf36e", "is_reserved": 0, "lon": -77.03188583333333, "is_disabled": 0, "fusion_lat": 0.0, "lat": 38.913525, "bike_id": "abfc10c32ca93e3c7c2239c9eccaf36e", "fusion_lon": 0.0}, {"rental_uris": {"ios": "https://dc.lft.to/lastmile_qr_scan", "android": "https://dc.lft.to/lastmile_qr_scan"}, "type": "electric_scooter", "name": "68efb679993d11de75a0832cc2b03342", "is_reserved": 0, "lon": -77.031874, "is_disabled": 0, "fusion_lat": 0.0, "lat": 38.89353966666667, "bike_id": "68efb679993d11de75a0832cc2b03342", "fusion_lon": 0.0}, {"rental_uris": {"ios": "https://dc.lft.to/lastmile_qr_scan", "android": "https://dc.lft.to/lastmile_qr_scan"}, "type": "electric_scooter", "name": "f8c55cc2f5cb6c02abf3a4202ffa307c", "is_reserved": 0, "lon": -76.99141833333333, "is_disabled": 0, "fusion_lat": 0.0, "lat": 38.843050166666664, "bike_id": "f8c55cc2f5cb6c02abf3a4202ffa307c", "fusion_lon": 0.0}, {"rental_uris": {"ios": "https://dc.lft.to/lastmile_qr_scan", "android": "https://dc.lft.to/lastmile_qr_scan"}, "type": "electric_scooter", "name": "02a2a58ee21b5ad2d733c2e8b4382eaa", "is_reserved": 0, "lon": -76.99480683333333, "is_disabled": 0, "fusion_lat": 0.0, "lat": 38.862163333333335, "bike_id": "02a2a58ee21b5ad2d733c2e8b4382eaa", "fusion_lon": 0.0}, {"rental_uris": {"ios": "https://dc.lft.to/lastmile_qr_scan", "android": "https://dc.lft.to/lastmile_qr_scan"}, "type": "electric_scooter", "name": "ea6a1b69effe87c6f264e71bd5c02e59", "is_reserved": 0, "lon": -77.04673316666667, "is_disabled": 0, "fusion_lat": 0.0, "lat": 38.909506, "bike_id": "ea6a1b69effe87c6f264e71bd5c02e59", "fusion_lon": 0.0}, {"rental_uris": {"ios": "https://dc.lft.to/lastmile_qr_scan", "android": "https://dc.lft.to/lastmile_qr_scan"}, "type": "electric_scooter", "name": "45ed276aa460ec85124bfcbf458e6a61", "is_reserved": 0, "lon": -77.02153333333334, "is_disabled": 0, "fusion_lat": 0.0, "lat": 38.887458333333335, "bike_id": "45ed276aa460ec85124bfcbf458e6a61", "fusion_lon": 0.0}, {"rental_uris": {"ios": "https://dc.lft.to/lastmile_qr_scan", "android": "https://dc.lft.to/lastmile_qr_scan"}, "type": "electric_scooter", "name": "b0db1b1c869835d128ea8855c5c3e5b4", "is_reserved": 0, "lon": -77.02476416666667, "is_disabled": 0, "fusion_lat": 0.0, "lat": 38.918171666666666, "bike_id": "b0db1b1c869835d128ea8855c5c3e5b4", "fusion_lon": 0.0}, {"rental_uris": {"ios": "https://dc.lft.to/lastmile_qr_scan", "android": "https://dc.lft.to/lastmile_qr_scan"}, "type": "electric_scooter", "name": "9a8aa0c3940e865a4c8c843342629a59", "is_reserved": 0, "lon": -77.02108783333334, "is_disabled": 0, "fusion_lat": 0.0, "lat": 38.90605766666667, "bike_id": "9a8aa0c3940e865a4c8c843342629a59", "fusion_lon": 0.0}, {"rental_uris": {"ios": "https://dc.lft.to/lastmile_qr_scan", "android": "https://dc.lft.to/lastmile_qr_scan"}, "type": "electric_scooter", "name": "6e8709f7a806665d8b87213d1d7693a4", "is_reserved": 0, "lon": -76.993213, "is_disabled": 0, "fusion_lat": 0.0, "lat": 38.92014666666667, "bike_id": "6e8709f7a806665d8b87213d1d7693a4", "fusion_lon": 0.0}, {"rental_uris": {"ios": "https://dc.lft.to/lastmile_qr_scan", "android": "https://dc.lft.to/lastmile_qr_scan"}, "type": "electric_scooter", "name": "8e9a047043e8a0bcbaf41dd60b44b2a9", "is_reserved": 0, "lon": -77.0290825, "is_disabled": 0, "fusion_lat": 0.0, "lat": 38.93683033333333, "bike_id": "8e9a047043e8a0bcbaf41dd60b44b2a9", "fusion_lon": 0.0}, {"rental_uris": {"ios": "https://dc.lft.to/lastmile_qr_scan", "android": "https://dc.lft.to/lastmile_qr_scan"}, "type": "electric_scooter", "name": "6b265795ef65e367697d9ab3b23a6714", "is_reserved": 0, "lon": -77.03149166666667, "is_disabled": 0, "fusion_lat": 0.0, "lat": 38.909708, "bike_id": "6b265795ef65e367697d9ab3b23a6714", "fusion_lon": 0.0}, {"rental_uris": {"ios": "https://dc.lft.to/lastmile_qr_scan", "android": "https://dc.lft.to/lastmile_qr_scan"}, "type": "electric_scooter", "name": "610a091428ba6292aa8e2cd3d2e3ed8d", "is_reserved": 0, "lon": -76.99629433333334, "is_disabled": 0, "fusion_lat": 0.0, "lat": 38.900647166666666, "bike_id": "610a091428ba6292aa8e2cd3d2e3ed8d", "fusion_lon": 0.0}, {"rental_uris": {"ios": "https://dc.lft.to/lastmile_qr_scan", "android": "https://dc.lft.to/lastmile_qr_scan"}, "type": "electric_scooter", "name": "409551ab25d0043e6d54d65a96cbfe77", "is_reserved": 0, "lon": -77.03261883333333, "is_disabled": 0, "fusion_lat": 0.0, "lat": 38.90492916666667, "bike_id": "409551ab25d0043e6d54d65a96cbfe77", "fusion_lon": 0.0}, {"rental_uris": {"ios": "https://dc.lft.to/lastmile_qr_scan", "android": "https://dc.lft.to/lastmile_qr_scan"}, "type": "electric_scooter", "name": "adcaede165c983234ae845e7d68112b6", "is_reserved": 0, "lon": -77.03028533333334, "is_disabled": 0, "fusion_lat": 0.0, "lat": 38.878515166666666, "bike_id": "adcaede165c983234ae845e7d68112b6", "fusion_lon": 0.0}, {"rental_uris": {"ios": "https://dc.lft.to/lastmile_qr_scan", "android": "https://dc.lft.to/lastmile_qr_scan"}, "type": "electric_scooter", "name": "9115e168c09f5c5c7f65b76c230935a5", "is_reserved": 0, "lon": -77.03171716666667, "is_disabled": 0, "fusion_lat": 0.0, "lat": 38.9156445, "bike_id": "9115e168c09f5c5c7f65b76c230935a5", "fusion_lon": 0.0}, {"rental_uris": {"ios": "https://dc.lft.to/lastmile_qr_scan", "android": "https://dc.lft.to/lastmile_qr_scan"}, "type": "electric_scooter", "name": "330e915fdec1b2208d59e2baff3dc0f3", "is_reserved": 0, "lon": -77.03861583333334, "is_disabled": 0, "fusion_lat": 0.0, "lat": 38.91693633333333, "bike_id": "330e915fdec1b2208d59e2baff3dc0f3", "fusion_lon": 0.0}, {"rental_uris": {"ios": "https://dc.lft.to/lastmile_qr_scan", "android": "https://dc.lft.to/lastmile_qr_scan"}, "type": "electric_scooter", "name": "0eb31797ce08fd4e20031caa6fe44fc1", "is_reserved": 0, "lon": -77.057597, "is_disabled": 0, "fusion_lat": 0.0, "lat": 38.925118833333336, "bike_id": "0eb31797ce08fd4e20031caa6fe44fc1", "fusion_lon": 0.0}, {"rental_uris": {"ios": "https://dc.lft.to/lastmile_qr_scan", "android": "https://dc.lft.to/lastmile_qr_scan"}, "type": "electric_scooter", "name": "3aa9d3d70af44eb63987959ad545b97a", "is_reserved": 0, "lon": -77.02327233333334, "is_disabled": 0, "fusion_lat": 0.0, "lat": 38.89663616666667, "bike_id": "3aa9d3d70af44eb63987959ad545b97a", "fusion_lon": 0.0}, {"rental_uris": {"ios": "https://dc.lft.to/lastmile_qr_scan", "android": "https://dc.lft.to/lastmile_qr_scan"}, "type": "electric_bike", "name": "fcc39ab59158b97e4b68587e77d9dbdf", "is_reserved": 0, "lon": -76.99542016666666, "is_disabled": 0, "fusion_lat": 0.0, "lat": 38.8621725, "bike_id": "fcc39ab59158b97e4b68587e77d9dbdf", "fusion_lon": 0.0}, {"rental_uris": {"ios": "https://dc.lft.to/lastmile_qr_scan", "android": "https://dc.lft.to/lastmile_qr_scan"}, "type": "electric_bike", "name": "9cd74870ea3ceb2a452053ecf9c9061b", "is_reserved": 0, "lon": -76.90744816666667, "is_disabled": 0, "fusion_lat": 0.0, "lat": 38.89620566666667, "bike_id": "9cd74870ea3ceb2a452053ecf9c9061b", "fusion_lon": 0.0}, {"rental_uris": {"ios": "https://dc.lft.to/lastmile_qr_scan", "android": "https://dc.lft.to/lastmile_qr_scan"}, "type": "electric_bike", "name": "d352304c4321150787397bd7f3910b01", "is_reserved": 0, "lon": -77.02985433333333, "is_disabled": 0, "fusion_lat": 0.0, "lat": 38.93498133333333, "bike_id": "d352304c4321150787397bd7f3910b01", "fusion_lon": 0.0}, {"rental_uris": {"ios": "https://dc.lft.to/lastmile_qr_scan", "android": "https://dc.lft.to/lastmile_qr_scan"}, "type": "electric_scooter", "name": "686852d6c8abe297e8dca1e5ad114f20", "is_reserved": 0, "lon": -77.02451366666666, "is_disabled": 0, "fusion_lat": 0.0, "lat": 38.937516333333335, "bike_id": "686852d6c8abe297e8dca1e5ad114f20", "fusion_lon": 0.0}, {"rental_uris": {"ios": "https://dc.lft.to/lastmile_qr_scan", "android": "https://dc.lft.to/lastmile_qr_scan"}, "type": "electric_scooter", "name": "75415775cd630d56d536e198f8bd5393", "is_reserved": 0, "lon": -77.033384, "is_disabled": 0, "fusion_lat": 0.0, "lat": 38.9304845, "bike_id": "75415775cd630d56d536e198f8bd5393", "fusion_lon": 0.0}, {"rental_uris": {"ios": "https://dc.lft.to/lastmile_qr_scan", "android": "https://dc.lft.to/lastmile_qr_scan"}, "type": "electric_scooter", "name": "94ab167b0baa188f1de3fb2e1e21bb06", "is_reserved": 0, "lon": -77.0239715, "is_disabled": 0, "fusion_lat": 0.0, "lat": 38.903476833333336, "bike_id": "94ab167b0baa188f1de3fb2e1e21bb06", "fusion_lon": 0.0}, {"rental_uris": {"ios": "https://dc.lft.to/lastmile_qr_scan", "android": "https://dc.lft.to/lastmile_qr_scan"}, "type": "electric_bike", "name": "a2f1aceb8c49ba4a71f787b5c663a944", "is_reserved": 0, "lon": -76.98635433333334, "is_disabled": 0, "fusion_lat": 0.0, "lat": 38.936891, "bike_id": "a2f1aceb8c49ba4a71f787b5c663a944", "fusion_lon": 0.0}, {"rental_uris": {"ios": "https://dc.lft.to/lastmile_qr_scan", "android": "https://dc.lft.to/lastmile_qr_scan"}, "type": "electric_scooter", "name": "c85100f341b5ed6abf21a689a772fdaa", "is_reserved": 0, "lon": -76.98331, "is_disabled": 0, "fusion_lat": 0.0, "lat": 38.9009615, "bike_id": "c85100f341b5ed6abf21a689a772fdaa", "fusion_lon": 0.0}, {"rental_uris": {"ios": "https://dc.lft.to/lastmile_qr_scan", "android": "https://dc.lft.to/lastmile_qr_scan"}, "type": "electric_scooter", "name": "e1b9fd971be5d0a2c0ee31fe064422a4", "is_reserved": 0, "lon": -77.03222916666667, "is_disabled": 0, "fusion_lat": 0.0, "lat": 38.925153333333334, "bike_id": "e1b9fd971be5d0a2c0ee31fe064422a4", "fusion_lon": 0.0}, {"rental_uris": {"ios": "https://dc.lft.to/lastmile_qr_scan", "android": "https://dc.lft.to/lastmile_qr_scan"}, "type": "electric_scooter", "name": "36cb0b26717aca45081bd2d55821b2c8", "is_reserved": 0, "lon": -77.06134066666667, "is_disabled": 0, "fusion_lat": 0.0, "lat": 38.943299, "bike_id": "36cb0b26717aca45081bd2d55821b2c8", "fusion_lon": 0.0}, {"rental_uris": {"ios": "https://dc.lft.to/lastmile_qr_scan", "android": "https://dc.lft.to/lastmile_qr_scan"}, "type": "electric_scooter", "name": "6463749f7caaa0fab8430eae1e55c3ae", "is_reserved": 0, "lon": -77.01109416666667, "is_disabled": 0, "fusion_lat": 0.0, "lat": 38.9097675, "bike_id": "6463749f7caaa0fab8430eae1e55c3ae", "fusion_lon": 0.0}, {"rental_uris": {"ios": "https://dc.lft.to/lastmile_qr_scan", "android": "https://dc.lft.to/lastmile_qr_scan"}, "type": "electric_scooter", "name": "b5281d775dad0dd084a3fca8f831b582", "is_reserved": 0, "lon": -77.0201235, "is_disabled": 0, "fusion_lat": 0.0, "lat": 38.899066833333336, "bike_id": "b5281d775dad0dd084a3fca8f831b582", "fusion_lon": 0.0}, {"rental_uris": {"ios": "https://dc.lft.to/lastmile_qr_scan", "android": "https://dc.lft.to/lastmile_qr_scan"}, "type": "electric_scooter", "name": "21c8f44b22613cf472b3f0df5cfe9e33", "is_reserved": 0, "lon": -77.00054266666666, "is_disabled": 0, "fusion_lat": 0.0, "lat": 38.90014516666667, "bike_id": "21c8f44b22613cf472b3f0df5cfe9e33", "fusion_lon": 0.0}, {"rental_uris": {"ios": "https://dc.lft.to/lastmile_qr_scan", "android": "https://dc.lft.to/lastmile_qr_scan"}, "type": "electric_scooter", "name": "530a43dfb2acc26f0f9d7a24ca4e7f05", "is_reserved": 0, "lon": -77.0436305, "is_disabled": 0, "fusion_lat": 0.0, "lat": 38.89221766666667, "bike_id": "530a43dfb2acc26f0f9d7a24ca4e7f05", "fusion_lon": 0.0}, {"rental_uris": {"ios": "https://dc.lft.to/lastmile_qr_scan", "android": "https://dc.lft.to/lastmile_qr_scan"}, "type": "electric_scooter", "name": "c20203b03494f13ea0ec5d433078574f", "is_reserved": 0, "lon": -77.02477566666667, "is_disabled": 0, "fusion_lat": 0.0, "lat": 38.918213333333334, "bike_id": "c20203b03494f13ea0ec5d433078574f", "fusion_lon": 0.0}, {"rental_uris": {"ios": "https://dc.lft.to/lastmile_qr_scan", "android": "https://dc.lft.to/lastmile_qr_scan"}, "type": "electric_scooter", "name": "b0d2a9b6b600cf3cc0b9100029380a06", "is_reserved": 0, "lon": -77.04805616666667, "is_disabled": 0, "fusion_lat": 0.0, "lat": 38.89962033333333, "bike_id": "b0d2a9b6b600cf3cc0b9100029380a06", "fusion_lon": 0.0}, {"rental_uris": {"ios": "https://dc.lft.to/lastmile_qr_scan", "android": "https://dc.lft.to/lastmile_qr_scan"}, "type": "electric_scooter", "name": "f5041c5c9f9962e3af7b666af16df1ae", "is_reserved": 0, "lon": -77.04831183333333, "is_disabled": 0, "fusion_lat": 0.0, "lat": 38.91923833333333, "bike_id": "f5041c5c9f9962e3af7b666af16df1ae", "fusion_lon": 0.0}, {"rental_uris": {"ios": "https://dc.lft.to/lastmile_qr_scan", "android": "https://dc.lft.to/lastmile_qr_scan"}, "type": "electric_scooter", "name": "f4dd6551875b8c5aa437279c661c34f0", "is_reserved": 0, "lon": -77.013749, "is_disabled": 0, "fusion_lat": 0.0, "lat": 38.899247333333335, "bike_id": "f4dd6551875b8c5aa437279c661c34f0", "fusion_lon": 0.0}, {"rental_uris": {"ios": "https://dc.lft.to/lastmile_qr_scan", "android": "https://dc.lft.to/lastmile_qr_scan"}, "type": "electric_scooter", "name": "3f90a0c884f211a8951b797d086001eb", "is_reserved": 0, "lon": -77.01924316666667, "is_disabled": 0, "fusion_lat": 0.0, "lat": 38.9286895, "bike_id": "3f90a0c884f211a8951b797d086001eb", "fusion_lon": 0.0}, {"rental_uris": {"ios": "https://dc.lft.to/lastmile_qr_scan", "android": "https://dc.lft.to/lastmile_qr_scan"}, "type": "electric_bike", "name": "037868fb46a2b812545b089a7960049e", "is_reserved": 0, "lon": -77.00682116666667, "is_disabled": 0, "fusion_lat": 0.0, "lat": 38.9451065, "bike_id": "037868fb46a2b812545b089a7960049e", "fusion_lon": 0.0}, {"rental_uris": {"ios": "https://dc.lft.to/lastmile_qr_scan", "android": "https://dc.lft.to/lastmile_qr_scan"}, "type": "electric_scooter", "name": "bac823d6e6bd05418444a0ddf9e73775", "is_reserved": 0, "lon": -77.0316785, "is_disabled": 0, "fusion_lat": 0.0, "lat": 38.9593605, "bike_id": "bac823d6e6bd05418444a0ddf9e73775", "fusion_lon": 0.0}, {"rental_uris": {"ios": "https://dc.lft.to/lastmile_qr_scan", "android": "https://dc.lft.to/lastmile_qr_scan"}, "type": "electric_scooter", "name": "40f1043691223db9cc3191155c719204", "is_reserved": 0, "lon": -77.0338065, "is_disabled": 0, "fusion_lat": 0.0, "lat": 38.89970533333333, "bike_id": "40f1043691223db9cc3191155c719204", "fusion_lon": 0.0}, {"rental_uris": {"ios": "https://dc.lft.to/lastmile_qr_scan", "android": "https://dc.lft.to/lastmile_qr_scan"}, "type": "electric_scooter", "name": "af63c32b9c117856a72a78a4359441ec", "is_reserved": 0, "lon": -77.0406125, "is_disabled": 0, "fusion_lat": 0.0, "lat": 38.91770983333333, "bike_id": "af63c32b9c117856a72a78a4359441ec", "fusion_lon": 0.0}, {"rental_uris": {"ios": "https://dc.lft.to/lastmile_qr_scan", "android": "https://dc.lft.to/lastmile_qr_scan"}, "type": "electric_scooter", "name": "321e62b7f5e70f8fb46aa03714aeb1f2", "is_reserved": 0, "lon": -77.03277883333334, "is_disabled": 0, "fusion_lat": 0.0, "lat": 38.91992033333333, "bike_id": "321e62b7f5e70f8fb46aa03714aeb1f2", "fusion_lon": 0.0}, {"rental_uris": {"ios": "https://dc.lft.to/lastmile_qr_scan", "android": "https://dc.lft.to/lastmile_qr_scan"}, "type": "electric_scooter", "name": "9eacc505dba72da7a2eac3c59e7b7b68", "is_reserved": 0, "lon": -77.01846, "is_disabled": 0, "fusion_lat": 0.0, "lat": 38.909617, "bike_id": "9eacc505dba72da7a2eac3c59e7b7b68", "fusion_lon": 0.0}, {"rental_uris": {"ios": "https://dc.lft.to/lastmile_qr_scan", "android": "https://dc.lft.to/lastmile_qr_scan"}, "type": "electric_scooter", "name": "2835ed8af5639c93463b29a925553b1d", "is_reserved": 0, "lon": -77.03963233333333, "is_disabled": 0, "fusion_lat": 0.0, "lat": 38.89251816666667, "bike_id": "2835ed8af5639c93463b29a925553b1d", "fusion_lon": 0.0}, {"rental_uris": {"ios": "https://dc.lft.to/lastmile_qr_scan", "android": "https://dc.lft.to/lastmile_qr_scan"}, "type": "electric_scooter", "name": "b37f568965fb137d5404ec4ed0324712", "is_reserved": 0, "lon": -77.038559, "is_disabled": 0, "fusion_lat": 0.0, "lat": 38.91666416666666, "bike_id": "b37f568965fb137d5404ec4ed0324712", "fusion_lon": 0.0}, {"rental_uris": {"ios": "https://dc.lft.to/lastmile_qr_scan", "android": "https://dc.lft.to/lastmile_qr_scan"}, "type": "electric_scooter", "name": "ccd66792f67ad6c5e8ccba3bf8775a93", "is_reserved": 0, "lon": -77.05912383333333, "is_disabled": 0, "fusion_lat": 0.0, "lat": 38.902746, "bike_id": "ccd66792f67ad6c5e8ccba3bf8775a93", "fusion_lon": 0.0}, {"rental_uris": {"ios": "https://dc.lft.to/lastmile_qr_scan", "android": "https://dc.lft.to/lastmile_qr_scan"}, "type": "electric_scooter", "name": "37ef3dea0cad8884fadd6702c21bedd5", "is_reserved": 0, "lon": -77.05640416666667, "is_disabled": 0, "fusion_lat": 0.0, "lat": 38.9360465, "bike_id": "37ef3dea0cad8884fadd6702c21bedd5", "fusion_lon": 0.0}, {"rental_uris": {"ios": "https://dc.lft.to/lastmile_qr_scan", "android": "https://dc.lft.to/lastmile_qr_scan"}, "type": "electric_scooter", "name": "5d1e27ae259dee0d38563749f9323a45", "is_reserved": 0, "lon": -77.078673, "is_disabled": 0, "fusion_lat": 0.0, "lat": 38.924638, "bike_id": "5d1e27ae259dee0d38563749f9323a45", "fusion_lon": 0.0}, {"rental_uris": {"ios": "https://dc.lft.to/lastmile_qr_scan", "android": "https://dc.lft.to/lastmile_qr_scan"}, "type": "electric_scooter", "name": "ef0226e53179126286353137da4d3dc7", "is_reserved": 0, "lon": -77.03630816666667, "is_disabled": 0, "fusion_lat": 0.0, "lat": 38.92596316666667, "bike_id": "ef0226e53179126286353137da4d3dc7", "fusion_lon": 0.0}, {"rental_uris": {"ios": "https://dc.lft.to/lastmile_qr_scan", "android": "https://dc.lft.to/lastmile_qr_scan"}, "type": "electric_bike", "name": "b7113db0c7110148077786752d925286", "is_reserved": 0, "lon": -77.12643866666667, "is_disabled": 0, "fusion_lat": 0.0, "lat": 38.819100166666665, "bike_id": "b7113db0c7110148077786752d925286", "fusion_lon": 0.0}, {"rental_uris": {"ios": "https://dc.lft.to/lastmile_qr_scan", "android": "https://dc.lft.to/lastmile_qr_scan"}, "type": "electric_scooter", "name": "b1a3f311a56943b6aeb170e6d36af14b", "is_reserved": 0, "lon": -76.92659366666666, "is_disabled": 0, "fusion_lat": 0.0, "lat": 38.88239016666667, "bike_id": "b1a3f311a56943b6aeb170e6d36af14b", "fusion_lon": 0.0}, {"rental_uris": {"ios": "https://dc.lft.to/lastmile_qr_scan", "android": "https://dc.lft.to/lastmile_qr_scan"}, "type": "electric_scooter", "name": "304fa960f16db960df457f544fe98292", "is_reserved": 0, "lon": -77.04154966666667, "is_disabled": 0, "fusion_lat": 0.0, "lat": 38.90168033333333, "bike_id": "304fa960f16db960df457f544fe98292", "fusion_lon": 0.0}, {"rental_uris": {"ios": "https://dc.lft.to/lastmile_qr_scan", "android": "https://dc.lft.to/lastmile_qr_scan"}, "type": "electric_scooter", "name": "1a9ca716347afc5e08f5dc6b286aa247", "is_reserved": 0, "lon": -77.04827516666667, "is_disabled": 0, "fusion_lat": 0.0, "lat": 38.90081816666667, "bike_id": "1a9ca716347afc5e08f5dc6b286aa247", "fusion_lon": 0.0}, {"rental_uris": {"ios": "https://dc.lft.to/lastmile_qr_scan", "android": "https://dc.lft.to/lastmile_qr_scan"}, "type": "electric_scooter", "name": "6eb48457c2d4df1e700d3ac0e1dff365", "is_reserved": 0, "lon": -77.03184666666667, "is_disabled": 0, "fusion_lat": 0.0, "lat": 38.90517766666667, "bike_id": "6eb48457c2d4df1e700d3ac0e1dff365", "fusion_lon": 0.0}, {"rental_uris": {"ios": "https://dc.lft.to/lastmile_qr_scan", "android": "https://dc.lft.to/lastmile_qr_scan"}, "type": "electric_bike", "name": "4fdb5896d1946398f2a27bc6e6b39da2", "is_reserved": 0, "lon": -76.9899345, "is_disabled": 0, "fusion_lat": 0.0, "lat": 38.92448233333333, "bike_id": "4fdb5896d1946398f2a27bc6e6b39da2", "fusion_lon": 0.0}, {"rental_uris": {"ios": "https://dc.lft.to/lastmile_qr_scan", "android": "https://dc.lft.to/lastmile_qr_scan"}, "type": "electric_scooter", "name": "1025b97183c9e334f694a93f9a8dc749", "is_reserved": 0, "lon": -77.044996, "is_disabled": 0, "fusion_lat": 0.0, "lat": 38.9141215, "bike_id": "1025b97183c9e334f694a93f9a8dc749", "fusion_lon": 0.0}, {"rental_uris": {"ios": "https://dc.lft.to/lastmile_qr_scan", "android": "https://dc.lft.to/lastmile_qr_scan"}, "type": "electric_scooter", "name": "095dcc4ac7570e8d673a12b82b7178f4", "is_reserved": 0, "lon": -77.0202365, "is_disabled": 0, "fusion_lat": 0.0, "lat": 38.924428666666664, "bike_id": "095dcc4ac7570e8d673a12b82b7178f4", "fusion_lon": 0.0}, {"rental_uris": {"ios": "https://dc.lft.to/lastmile_qr_scan", "android": "https://dc.lft.to/lastmile_qr_scan"}, "type": "electric_scooter", "name": "973237fc4cf33cb5cb4eecb91045d518", "is_reserved": 0, "lon": -77.00877666666666, "is_disabled": 0, "fusion_lat": 0.0, "lat": 38.91178433333333, "bike_id": "973237fc4cf33cb5cb4eecb91045d518", "fusion_lon": 0.0}, {"rental_uris": {"ios": "https://dc.lft.to/lastmile_qr_scan", "android": "https://dc.lft.to/lastmile_qr_scan"}, "type": "electric_scooter", "name": "978caee82d85b192e81c5cb7754d7190", "is_reserved": 0, "lon": -76.9981385, "is_disabled": 0, "fusion_lat": 0.0, "lat": 38.9056325, "bike_id": "978caee82d85b192e81c5cb7754d7190", "fusion_lon": 0.0}, {"rental_uris": {"ios": "https://dc.lft.to/lastmile_qr_scan", "android": "https://dc.lft.to/lastmile_qr_scan"}, "type": "electric_scooter", "name": "f05d8b89c7d64cd099e5a1252c60a27f", "is_reserved": 0, "lon": -77.03028033333334, "is_disabled": 0, "fusion_lat": 0.0, "lat": 38.87848116666667, "bike_id": "f05d8b89c7d64cd099e5a1252c60a27f", "fusion_lon": 0.0}, {"rental_uris": {"ios": "https://dc.lft.to/lastmile_qr_scan", "android": "https://dc.lft.to/lastmile_qr_scan"}, "type": "electric_scooter", "name": "43674d99cd273d5f8ddc213413b9a978", "is_reserved": 0, "lon": -77.0503965, "is_disabled": 0, "fusion_lat": 0.0, "lat": 38.915748666666666, "bike_id": "43674d99cd273d5f8ddc213413b9a978", "fusion_lon": 0.0}, {"rental_uris": {"ios": "https://dc.lft.to/lastmile_qr_scan", "android": "https://dc.lft.to/lastmile_qr_scan"}, "type": "electric_bike", "name": "322d3eee22417ebddc55bf31d6c0fec8", "is_reserved": 0, "lon": -77.02828166666667, "is_disabled": 0, "fusion_lat": 0.0, "lat": 38.96556366666667, "bike_id": "322d3eee22417ebddc55bf31d6c0fec8", "fusion_lon": 0.0}, {"rental_uris": {"ios": "https://dc.lft.to/lastmile_qr_scan", "android": "https://dc.lft.to/lastmile_qr_scan"}, "type": "electric_scooter", "name": "fc1ce15a454336245df7c602f0c22bf7", "is_reserved": 0, "lon": -77.03193583333334, "is_disabled": 0, "fusion_lat": 0.0, "lat": 38.91394233333333, "bike_id": "fc1ce15a454336245df7c602f0c22bf7", "fusion_lon": 0.0}, {"rental_uris": {"ios": "https://dc.lft.to/lastmile_qr_scan", "android": "https://dc.lft.to/lastmile_qr_scan"}, "type": "electric_scooter", "name": "b8af32b59ff0a3fd83bee97ba9502189", "is_reserved": 0, "lon": -77.02837983333333, "is_disabled": 0, "fusion_lat": 0.0, "lat": 38.881899, "bike_id": "b8af32b59ff0a3fd83bee97ba9502189", "fusion_lon": 0.0}, {"rental_uris": {"ios": "https://dc.lft.to/lastmile_qr_scan", "android": "https://dc.lft.to/lastmile_qr_scan"}, "type": "electric_scooter", "name": "f0d49fa547edb9e5530391da14d5b162", "is_reserved": 0, "lon": -76.9901235, "is_disabled": 0, "fusion_lat": 0.0, "lat": 38.90401983333334, "bike_id": "f0d49fa547edb9e5530391da14d5b162", "fusion_lon": 0.0}, {"rental_uris": {"ios": "https://dc.lft.to/lastmile_qr_scan", "android": "https://dc.lft.to/lastmile_qr_scan"}, "type": "electric_scooter", "name": "94928cd7f572773ceb59f2024b69d675", "is_reserved": 0, "lon": -77.052041, "is_disabled": 0, "fusion_lat": 0.0, "lat": 38.924631833333336, "bike_id": "94928cd7f572773ceb59f2024b69d675", "fusion_lon": 0.0}, {"rental_uris": {"ios": "https://dc.lft.to/lastmile_qr_scan", "android": "https://dc.lft.to/lastmile_qr_scan"}, "type": "electric_scooter", "name": "b71f36814e39b6f52ee1a90460e646fd", "is_reserved": 0, "lon": -77.02375116666667, "is_disabled": 0, "fusion_lat": 0.0, "lat": 38.902180666666666, "bike_id": "b71f36814e39b6f52ee1a90460e646fd", "fusion_lon": 0.0}, {"rental_uris": {"ios": "https://dc.lft.to/lastmile_qr_scan", "android": "https://dc.lft.to/lastmile_qr_scan"}, "type": "electric_scooter", "name": "6827f56ff2003f0fc56acc875dd40c6f", "is_reserved": 0, "lon": -77.04175583333334, "is_disabled": 0, "fusion_lat": 0.0, "lat": 38.917034, "bike_id": "6827f56ff2003f0fc56acc875dd40c6f", "fusion_lon": 0.0}, {"rental_uris": {"ios": "https://dc.lft.to/lastmile_qr_scan", "android": "https://dc.lft.to/lastmile_qr_scan"}, "type": "electric_bike", "name": "d4fd1bc0b9e1305d337d81fa639d4880", "is_reserved": 0, "lon": -77.0724545, "is_disabled": 0, "fusion_lat": 0.0, "lat": 38.81364283333333, "bike_id": "d4fd1bc0b9e1305d337d81fa639d4880", "fusion_lon": 0.0}, {"rental_uris": {"ios": "https://dc.lft.to/lastmile_qr_scan", "android": "https://dc.lft.to/lastmile_qr_scan"}, "type": "electric_scooter", "name": "04c3a6e5cb2b8a57751b0f59f7c73c98", "is_reserved": 0, "lon": -77.021055, "is_disabled": 0, "fusion_lat": 0.0, "lat": 38.89618816666667, "bike_id": "04c3a6e5cb2b8a57751b0f59f7c73c98", "fusion_lon": 0.0}, {"rental_uris": {"ios": "https://dc.lft.to/lastmile_qr_scan", "android": "https://dc.lft.to/lastmile_qr_scan"}, "type": "electric_scooter", "name": "83cb49c3ddce07bc277be8722604658f", "is_reserved": 0, "lon": -77.03383066666666, "is_disabled": 0, "fusion_lat": 0.0, "lat": 38.91269416666667, "bike_id": "83cb49c3ddce07bc277be8722604658f", "fusion_lon": 0.0}, {"rental_uris": {"ios": "https://dc.lft.to/lastmile_qr_scan", "android": "https://dc.lft.to/lastmile_qr_scan"}, "type": "electric_scooter", "name": "6ffb450d9cc9fa64884a7b6c6ebdb67a", "is_reserved": 0, "lon": -77.02629116666667, "is_disabled": 0, "fusion_lat": 0.0, "lat": 38.938645333333334, "bike_id": "6ffb450d9cc9fa64884a7b6c6ebdb67a", "fusion_lon": 0.0}, {"rental_uris": {"ios": "https://dc.lft.to/lastmile_qr_scan", "android": "https://dc.lft.to/lastmile_qr_scan"}, "type": "electric_scooter", "name": "78c1dfd04029b36855eacdab411088ff", "is_reserved": 0, "lon": -76.99943716666667, "is_disabled": 0, "fusion_lat": 0.0, "lat": 38.87832316666667, "bike_id": "78c1dfd04029b36855eacdab411088ff", "fusion_lon": 0.0}, {"rental_uris": {"ios": "https://dc.lft.to/lastmile_qr_scan", "android": "https://dc.lft.to/lastmile_qr_scan"}, "type": "electric_scooter", "name": "04aa9e19bfc0ebd9225b9098c4dfddf5", "is_reserved": 0, "lon": -77.0456335, "is_disabled": 0, "fusion_lat": 0.0, "lat": 38.90378283333333, "bike_id": "04aa9e19bfc0ebd9225b9098c4dfddf5", "fusion_lon": 0.0}, {"rental_uris": {"ios": "https://dc.lft.to/lastmile_qr_scan", "android": "https://dc.lft.to/lastmile_qr_scan"}, "type": "electric_scooter", "name": "97fff8b73e533e83432e482d9585e98e", "is_reserved": 0, "lon": -77.0666165, "is_disabled": 0, "fusion_lat": 0.0, "lat": 38.94959683333333, "bike_id": "97fff8b73e533e83432e482d9585e98e", "fusion_lon": 0.0}, {"rental_uris": {"ios": "https://dc.lft.to/lastmile_qr_scan", "android": "https://dc.lft.to/lastmile_qr_scan"}, "type": "electric_scooter", "name": "ae1fe05ca162a7efbf6fd123abc9e737", "is_reserved": 0, "lon": -77.03288466666666, "is_disabled": 0, "fusion_lat": 0.0, "lat": 38.93257583333333, "bike_id": "ae1fe05ca162a7efbf6fd123abc9e737", "fusion_lon": 0.0}, {"rental_uris": {"ios": "https://dc.lft.to/lastmile_qr_scan", "android": "https://dc.lft.to/lastmile_qr_scan"}, "type": "electric_scooter", "name": "65bef48a5c95c09718b7f91a94e6d1e2", "is_reserved": 0, "lon": -76.9963335, "is_disabled": 0, "fusion_lat": 0.0, "lat": 38.87740933333333, "bike_id": "65bef48a5c95c09718b7f91a94e6d1e2", "fusion_lon": 0.0}, {"rental_uris": {"ios": "https://dc.lft.to/lastmile_qr_scan", "android": "https://dc.lft.to/lastmile_qr_scan"}, "type": "electric_bike", "name": "ada793db50c67c6cd2632dc6fdb1bd99", "is_reserved": 0, "lon": -77.12903066666667, "is_disabled": 0, "fusion_lat": 0.0, "lat": 38.906073166666665, "bike_id": "ada793db50c67c6cd2632dc6fdb1bd99", "fusion_lon": 0.0}, {"rental_uris": {"ios": "https://dc.lft.to/lastmile_qr_scan", "android": "https://dc.lft.to/lastmile_qr_scan"}, "type": "electric_scooter", "name": "17628df95cc6a1c9305d86bef624e344", "is_reserved": 0, "lon": -77.01990166666667, "is_disabled": 0, "fusion_lat": 0.0, "lat": 38.899853, "bike_id": "17628df95cc6a1c9305d86bef624e344", "fusion_lon": 0.0}, {"rental_uris": {"ios": "https://dc.lft.to/lastmile_qr_scan", "android": "https://dc.lft.to/lastmile_qr_scan"}, "type": "electric_scooter", "name": "1bf46745bd7cecfedff4ecdf043deff5", "is_reserved": 0, "lon": -77.00923416666667, "is_disabled": 0, "fusion_lat": 0.0, "lat": 38.87455633333333, "bike_id": "1bf46745bd7cecfedff4ecdf043deff5", "fusion_lon": 0.0}, {"rental_uris": {"ios": "https://dc.lft.to/lastmile_qr_scan", "android": "https://dc.lft.to/lastmile_qr_scan"}, "type": "electric_scooter", "name": "3274891e42d2c9ef7acc6d156d17a53a", "is_reserved": 0, "lon": -76.986225, "is_disabled": 0, "fusion_lat": 0.0, "lat": 38.90736616666667, "bike_id": "3274891e42d2c9ef7acc6d156d17a53a", "fusion_lon": 0.0}, {"rental_uris": {"ios": "https://dc.lft.to/lastmile_qr_scan", "android": "https://dc.lft.to/lastmile_qr_scan"}, "type": "electric_scooter", "name": "0e4ba59dad591e6a9add3f7597be07c1", "is_reserved": 0, "lon": -77.02708333333334, "is_disabled": 0, "fusion_lat": 0.0, "lat": 38.909025666666665, "bike_id": "0e4ba59dad591e6a9add3f7597be07c1", "fusion_lon": 0.0}, {"rental_uris": {"ios": "https://dc.lft.to/lastmile_qr_scan", "android": "https://dc.lft.to/lastmile_qr_scan"}, "type": "electric_scooter", "name": "d9a783797d3dc4ec605c077da069fb4a", "is_reserved": 0, "lon": -77.04971433333333, "is_disabled": 0, "fusion_lat": 0.0, "lat": 38.90307933333333, "bike_id": "d9a783797d3dc4ec605c077da069fb4a", "fusion_lon": 0.0}, {"rental_uris": {"ios": "https://dc.lft.to/lastmile_qr_scan", "android": "https://dc.lft.to/lastmile_qr_scan"}, "type": "electric_scooter", "name": "8a438a2785e9da2284a53c63c967b97e", "is_reserved": 0, "lon": -76.9914675, "is_disabled": 0, "fusion_lat": 0.0, "lat": 38.87337466666666, "bike_id": "8a438a2785e9da2284a53c63c967b97e", "fusion_lon": 0.0}, {"rental_uris": {"ios": "https://dc.lft.to/lastmile_qr_scan", "android": "https://dc.lft.to/lastmile_qr_scan"}, "type": "electric_bike", "name": "7c1cc98365a3406bd5597bd1241f93a5", "is_reserved": 0, "lon": -76.9688825, "is_disabled": 0, "fusion_lat": 0.0, "lat": 38.869873166666665, "bike_id": "7c1cc98365a3406bd5597bd1241f93a5", "fusion_lon": 0.0}, {"rental_uris": {"ios": "https://dc.lft.to/lastmile_qr_scan", "android": "https://dc.lft.to/lastmile_qr_scan"}, "type": "electric_scooter", "name": "0f98568cbc3e392a900d5afda1493d04", "is_reserved": 0, "lon": -77.03378983333333, "is_disabled": 0, "fusion_lat": 0.0, "lat": 38.92056866666667, "bike_id": "0f98568cbc3e392a900d5afda1493d04", "fusion_lon": 0.0}, {"rental_uris": {"ios": "https://dc.lft.to/lastmile_qr_scan", "android": "https://dc.lft.to/lastmile_qr_scan"}, "type": "electric_scooter", "name": "626d1b439289f85436fe15ba5bfb7e1e", "is_reserved": 0, "lon": -77.040035, "is_disabled": 0, "fusion_lat": 0.0, "lat": 38.93429966666667, "bike_id": "626d1b439289f85436fe15ba5bfb7e1e", "fusion_lon": 0.0}, {"rental_uris": {"ios": "https://dc.lft.to/lastmile_qr_scan", "android": "https://dc.lft.to/lastmile_qr_scan"}, "type": "electric_scooter", "name": "22f2f1e2b2bd39350ccaa812eb43bf8a", "is_reserved": 0, "lon": -77.01373333333333, "is_disabled": 0, "fusion_lat": 0.0, "lat": 38.91276033333333, "bike_id": "22f2f1e2b2bd39350ccaa812eb43bf8a", "fusion_lon": 0.0}, {"rental_uris": {"ios": "https://dc.lft.to/lastmile_qr_scan", "android": "https://dc.lft.to/lastmile_qr_scan"}, "type": "electric_bike", "name": "6371cf83df0e75892d9b7838eeff9d0e", "is_reserved": 0, "lon": -77.09632283333333, "is_disabled": 0, "fusion_lat": 0.0, "lat": 38.952509166666665, "bike_id": "6371cf83df0e75892d9b7838eeff9d0e", "fusion_lon": 0.0}, {"rental_uris": {"ios": "https://dc.lft.to/lastmile_qr_scan", "android": "https://dc.lft.to/lastmile_qr_scan"}, "type": "electric_bike", "name": "6cf02b63b874510573171792c576ec07", "is_reserved": 0, "lon": -77.12742983333334, "is_disabled": 0, "fusion_lat": 0.0, "lat": 38.895683, "bike_id": "6cf02b63b874510573171792c576ec07", "fusion_lon": 0.0}, {"rental_uris": {"ios": "https://dc.lft.to/lastmile_qr_scan", "android": "https://dc.lft.to/lastmile_qr_scan"}, "type": "electric_bike", "name": "c3e64fa81d82c0b0f308a45927c95cd7", "is_reserved": 0, "lon": -77.03880016666666, "is_disabled": 0, "fusion_lat": 0.0, "lat": 39.02625033333333, "bike_id": "c3e64fa81d82c0b0f308a45927c95cd7", "fusion_lon": 0.0}, {"rental_uris": {"ios": "https://dc.lft.to/lastmile_qr_scan", "android": "https://dc.lft.to/lastmile_qr_scan"}, "type": "electric_scooter", "name": "2fc2130be2ce350c1557ee715d4bbac3", "is_reserved": 0, "lon": -77.023839, "is_disabled": 0, "fusion_lat": 0.0, "lat": 38.8920375, "bike_id": "2fc2130be2ce350c1557ee715d4bbac3", "fusion_lon": 0.0}, {"rental_uris": {"ios": "https://dc.lft.to/lastmile_qr_scan", "android": "https://dc.lft.to/lastmile_qr_scan"}, "type": "electric_scooter", "name": "165215a08810a8592cf8656564be3e40", "is_reserved": 0, "lon": -77.01155366666667, "is_disabled": 0, "fusion_lat": 0.0, "lat": 38.896666, "bike_id": "165215a08810a8592cf8656564be3e40", "fusion_lon": 0.0}, {"rental_uris": {"ios": "https://dc.lft.to/lastmile_qr_scan", "android": "https://dc.lft.to/lastmile_qr_scan"}, "type": "electric_scooter", "name": "3280bbbc55d5de418f8a1fdeefe1a6cb", "is_reserved": 0, "lon": -76.9318635, "is_disabled": 0, "fusion_lat": 0.0, "lat": 38.89877166666667, "bike_id": "3280bbbc55d5de418f8a1fdeefe1a6cb", "fusion_lon": 0.0}, {"rental_uris": {"ios": "https://dc.lft.to/lastmile_qr_scan", "android": "https://dc.lft.to/lastmile_qr_scan"}, "type": "electric_scooter", "name": "f47aaab3f72dc98974fd80677547a086", "is_reserved": 0, "lon": -76.98995783333334, "is_disabled": 0, "fusion_lat": 0.0, "lat": 38.8642705, "bike_id": "f47aaab3f72dc98974fd80677547a086", "fusion_lon": 0.0}, {"rental_uris": {"ios": "https://dc.lft.to/lastmile_qr_scan", "android": "https://dc.lft.to/lastmile_qr_scan"}, "type": "electric_scooter", "name": "ad4141e889b52caba4b9d27b848e6e80", "is_reserved": 0, "lon": -77.02858266666667, "is_disabled": 0, "fusion_lat": 0.0, "lat": 38.912694, "bike_id": "ad4141e889b52caba4b9d27b848e6e80", "fusion_lon": 0.0}, {"rental_uris": {"ios": "https://dc.lft.to/lastmile_qr_scan", "android": "https://dc.lft.to/lastmile_qr_scan"}, "type": "electric_bike", "name": "047c2ba0749780f9c7dc0d4c152caf5c", "is_reserved": 0, "lon": -76.94153566666667, "is_disabled": 0, "fusion_lat": 0.0, "lat": 38.8902245, "bike_id": "047c2ba0749780f9c7dc0d4c152caf5c", "fusion_lon": 0.0}, {"rental_uris": {"ios": "https://dc.lft.to/lastmile_qr_scan", "android": "https://dc.lft.to/lastmile_qr_scan"}, "type": "electric_scooter", "name": "3510caba038c25f0a980fa6dbe3b7dd0", "is_reserved": 0, "lon": -77.01505916666666, "is_disabled": 0, "fusion_lat": 0.0, "lat": 38.926696666666665, "bike_id": "3510caba038c25f0a980fa6dbe3b7dd0", "fusion_lon": 0.0}, {"rental_uris": {"ios": "https://dc.lft.to/lastmile_qr_scan", "android": "https://dc.lft.to/lastmile_qr_scan"}, "type": "electric_scooter", "name": "33d8c3939c434fc92b65e0fe31f67a23", "is_reserved": 0, "lon": -77.00189533333334, "is_disabled": 0, "fusion_lat": 0.0, "lat": 38.911982333333334, "bike_id": "33d8c3939c434fc92b65e0fe31f67a23", "fusion_lon": 0.0}, {"rental_uris": {"ios": "https://dc.lft.to/lastmile_qr_scan", "android": "https://dc.lft.to/lastmile_qr_scan"}, "type": "electric_scooter", "name": "ade73e40c1e26ab510a6d48e25d6ceda", "is_reserved": 0, "lon": -77.02156016666666, "is_disabled": 0, "fusion_lat": 0.0, "lat": 38.924626333333336, "bike_id": "ade73e40c1e26ab510a6d48e25d6ceda", "fusion_lon": 0.0}, {"rental_uris": {"ios": "https://dc.lft.to/lastmile_qr_scan", "android": "https://dc.lft.to/lastmile_qr_scan"}, "type": "electric_bike", "name": "3d108396ee6f15d9a10087b90bb092eb", "is_reserved": 0, "lon": -77.1294065, "is_disabled": 0, "fusion_lat": 0.0, "lat": 38.865882166666665, "bike_id": "3d108396ee6f15d9a10087b90bb092eb", "fusion_lon": 0.0}, {"rental_uris": {"ios": "https://dc.lft.to/lastmile_qr_scan", "android": "https://dc.lft.to/lastmile_qr_scan"}, "type": "electric_scooter", "name": "28009757f5a33dd1c933fa7a9b3d58ff", "is_reserved": 0, "lon": -77.0296635, "is_disabled": 0, "fusion_lat": 0.0, "lat": 38.92321866666666, "bike_id": "28009757f5a33dd1c933fa7a9b3d58ff", "fusion_lon": 0.0}, {"rental_uris": {"ios": "https://dc.lft.to/lastmile_qr_scan", "android": "https://dc.lft.to/lastmile_qr_scan"}, "type": "electric_scooter", "name": "9c4e91211864a270322e3afd9c565db4", "is_reserved": 0, "lon": -77.03831383333333, "is_disabled": 0, "fusion_lat": 0.0, "lat": 38.96265733333333, "bike_id": "9c4e91211864a270322e3afd9c565db4", "fusion_lon": 0.0}, {"rental_uris": {"ios": "https://dc.lft.to/lastmile_qr_scan", "android": "https://dc.lft.to/lastmile_qr_scan"}, "type": "electric_scooter", "name": "4ddd7fcc8231299ed5fbc120e1032ddb", "is_reserved": 0, "lon": -77.03116883333334, "is_disabled": 0, "fusion_lat": 0.0, "lat": 38.91914216666667, "bike_id": "4ddd7fcc8231299ed5fbc120e1032ddb", "fusion_lon": 0.0}, {"rental_uris": {"ios": "https://dc.lft.to/lastmile_qr_scan", "android": "https://dc.lft.to/lastmile_qr_scan"}, "type": "electric_scooter", "name": "f1174954e3d3eb412e9c5cbf23d128d8", "is_reserved": 0, "lon": -77.00046566666667, "is_disabled": 0, "fusion_lat": 0.0, "lat": 38.874424, "bike_id": "f1174954e3d3eb412e9c5cbf23d128d8", "fusion_lon": 0.0}, {"rental_uris": {"ios": "https://dc.lft.to/lastmile_qr_scan", "android": "https://dc.lft.to/lastmile_qr_scan"}, "type": "electric_scooter", "name": "58b08b78966a99ae9ade24e1af3c54fb", "is_reserved": 0, "lon": -77.068706, "is_disabled": 0, "fusion_lat": 0.0, "lat": 38.952767, "bike_id": "58b08b78966a99ae9ade24e1af3c54fb", "fusion_lon": 0.0}, {"rental_uris": {"ios": "https://dc.lft.to/lastmile_qr_scan", "android": "https://dc.lft.to/lastmile_qr_scan"}, "type": "electric_scooter", "name": "6727d9456c001c1b3920679b864d94ef", "is_reserved": 0, "lon": -77.07089533333334, "is_disabled": 0, "fusion_lat": 0.0, "lat": 38.893914, "bike_id": "6727d9456c001c1b3920679b864d94ef", "fusion_lon": 0.0}, {"rental_uris": {"ios": "https://dc.lft.to/lastmile_qr_scan", "android": "https://dc.lft.to/lastmile_qr_scan"}, "type": "electric_scooter", "name": "6302cb992b0c3eca3fc81172fd8bd7bf", "is_reserved": 0, "lon": -76.931939, "is_disabled": 0, "fusion_lat": 0.0, "lat": 38.898809166666666, "bike_id": "6302cb992b0c3eca3fc81172fd8bd7bf", "fusion_lon": 0.0}, {"rental_uris": {"ios": "https://dc.lft.to/lastmile_qr_scan", "android": "https://dc.lft.to/lastmile_qr_scan"}, "type": "electric_scooter", "name": "d155aaebf3c6576dc511fd9254010fcd", "is_reserved": 0, "lon": -77.03237083333333, "is_disabled": 0, "fusion_lat": 0.0, "lat": 38.9006575, "bike_id": "d155aaebf3c6576dc511fd9254010fcd", "fusion_lon": 0.0}, {"rental_uris": {"ios": "https://dc.lft.to/lastmile_qr_scan", "android": "https://dc.lft.to/lastmile_qr_scan"}, "type": "electric_scooter", "name": "57e234ce5f2645561cd603ffc3301200", "is_reserved": 0, "lon": -77.038196, "is_disabled": 0, "fusion_lat": 0.0, "lat": 38.914333, "bike_id": "57e234ce5f2645561cd603ffc3301200", "fusion_lon": 0.0}, {"rental_uris": {"ios": "https://dc.lft.to/lastmile_qr_scan", "android": "https://dc.lft.to/lastmile_qr_scan"}, "type": "electric_scooter", "name": "379986b6cea3d1aac6816d8e51fcf84a", "is_reserved": 0, "lon": -77.0320635, "is_disabled": 0, "fusion_lat": 0.0, "lat": 38.915785, "bike_id": "379986b6cea3d1aac6816d8e51fcf84a", "fusion_lon": 0.0}, {"rental_uris": {"ios": "https://dc.lft.to/lastmile_qr_scan", "android": "https://dc.lft.to/lastmile_qr_scan"}, "type": "electric_scooter", "name": "c5fdd201a724a44c7ac574ffac58a5c7", "is_reserved": 0, "lon": -76.9721665, "is_disabled": 0, "fusion_lat": 0.0, "lat": 38.917205333333335, "bike_id": "c5fdd201a724a44c7ac574ffac58a5c7", "fusion_lon": 0.0}, {"rental_uris": {"ios": "https://dc.lft.to/lastmile_qr_scan", "android": "https://dc.lft.to/lastmile_qr_scan"}, "type": "electric_scooter", "name": "fa58d546afa067a26a5e597c7c2cb251", "is_reserved": 0, "lon": -76.9292565, "is_disabled": 0, "fusion_lat": 0.0, "lat": 38.89209566666667, "bike_id": "fa58d546afa067a26a5e597c7c2cb251", "fusion_lon": 0.0}, {"rental_uris": {"ios": "https://dc.lft.to/lastmile_qr_scan", "android": "https://dc.lft.to/lastmile_qr_scan"}, "type": "electric_bike", "name": "26bdbfab804fe02f64b5bd14a34bdb28", "is_reserved": 0, "lon": -77.09460633333333, "is_disabled": 0, "fusion_lat": 0.0, "lat": 38.80757916666666, "bike_id": "26bdbfab804fe02f64b5bd14a34bdb28", "fusion_lon": 0.0}, {"rental_uris": {"ios": "https://dc.lft.to/lastmile_qr_scan", "android": "https://dc.lft.to/lastmile_qr_scan"}, "type": "electric_scooter", "name": "b33a71ca98a858ac1c08162adbb1f1e9", "is_reserved": 0, "lon": -77.013795, "is_disabled": 0, "fusion_lat": 0.0, "lat": 38.898249166666666, "bike_id": "b33a71ca98a858ac1c08162adbb1f1e9", "fusion_lon": 0.0}, {"rental_uris": {"ios": "https://dc.lft.to/lastmile_qr_scan", "android": "https://dc.lft.to/lastmile_qr_scan"}, "type": "electric_bike", "name": "693501162cb2e1d5ac2feb486d57e5a2", "is_reserved": 0, "lon": -77.07286883333333, "is_disabled": 0, "fusion_lat": 0.0, "lat": 38.91760133333333, "bike_id": "693501162cb2e1d5ac2feb486d57e5a2", "fusion_lon": 0.0}, {"rental_uris": {"ios": "https://dc.lft.to/lastmile_qr_scan", "android": "https://dc.lft.to/lastmile_qr_scan"}, "type": "electric_scooter", "name": "65387d8fb0ee9dd65eb1a9e266d72e4d", "is_reserved": 0, "lon": -77.01758683333334, "is_disabled": 0, "fusion_lat": 0.0, "lat": 38.877236833333335, "bike_id": "65387d8fb0ee9dd65eb1a9e266d72e4d", "fusion_lon": 0.0}, {"rental_uris": {"ios": "https://dc.lft.to/lastmile_qr_scan", "android": "https://dc.lft.to/lastmile_qr_scan"}, "type": "electric_bike", "name": "ef375aa54cf8a32b4b0b05849a4d1dba", "is_reserved": 0, "lon": -77.08571216666667, "is_disabled": 0, "fusion_lat": 0.0, "lat": 38.874231, "bike_id": "ef375aa54cf8a32b4b0b05849a4d1dba", "fusion_lon": 0.0}, {"rental_uris": {"ios": "https://dc.lft.to/lastmile_qr_scan", "android": "https://dc.lft.to/lastmile_qr_scan"}, "type": "electric_scooter", "name": "054ea293afc7ae94ead7e804f6fd02dd", "is_reserved": 0, "lon": -77.01977483333333, "is_disabled": 0, "fusion_lat": 0.0, "lat": 38.905056, "bike_id": "054ea293afc7ae94ead7e804f6fd02dd", "fusion_lon": 0.0}, {"rental_uris": {"ios": "https://dc.lft.to/lastmile_qr_scan", "android": "https://dc.lft.to/lastmile_qr_scan"}, "type": "electric_scooter", "name": "ff6cd154523ac123f57c3534f453178b", "is_reserved": 0, "lon": -77.044114, "is_disabled": 0, "fusion_lat": 0.0, "lat": 38.895967166666665, "bike_id": "ff6cd154523ac123f57c3534f453178b", "fusion_lon": 0.0}, {"rental_uris": {"ios": "https://dc.lft.to/lastmile_qr_scan", "android": "https://dc.lft.to/lastmile_qr_scan"}, "type": "electric_scooter", "name": "9da56a02b3a26fa10ea067c4e6df9f12", "is_reserved": 0, "lon": -77.0542795, "is_disabled": 0, "fusion_lat": 0.0, "lat": 38.92351883333333, "bike_id": "9da56a02b3a26fa10ea067c4e6df9f12", "fusion_lon": 0.0}, {"rental_uris": {"ios": "https://dc.lft.to/lastmile_qr_scan", "android": "https://dc.lft.to/lastmile_qr_scan"}, "type": "electric_scooter", "name": "944fef1ba8bb1cce5bc317e73d7ea2fb", "is_reserved": 0, "lon": -77.02110083333334, "is_disabled": 0, "fusion_lat": 0.0, "lat": 38.9093875, "bike_id": "944fef1ba8bb1cce5bc317e73d7ea2fb", "fusion_lon": 0.0}, {"rental_uris": {"ios": "https://dc.lft.to/lastmile_qr_scan", "android": "https://dc.lft.to/lastmile_qr_scan"}, "type": "electric_scooter", "name": "f24513deafb4b83a63075d7cce2c70a4", "is_reserved": 0, "lon": -77.03217616666667, "is_disabled": 0, "fusion_lat": 0.0, "lat": 38.91434116666667, "bike_id": "f24513deafb4b83a63075d7cce2c70a4", "fusion_lon": 0.0}, {"rental_uris": {"ios": "https://dc.lft.to/lastmile_qr_scan", "android": "https://dc.lft.to/lastmile_qr_scan"}, "type": "electric_scooter", "name": "397bb9e23a9585db80f4e1b10a53104d", "is_reserved": 0, "lon": -77.02730183333334, "is_disabled": 0, "fusion_lat": 0.0, "lat": 38.903989333333335, "bike_id": "397bb9e23a9585db80f4e1b10a53104d", "fusion_lon": 0.0}, {"rental_uris": {"ios": "https://dc.lft.to/lastmile_qr_scan", "android": "https://dc.lft.to/lastmile_qr_scan"}, "type": "electric_scooter", "name": "012f263a4dc491717793735654c8cd22", "is_reserved": 0, "lon": -77.03019166666667, "is_disabled": 0, "fusion_lat": 0.0, "lat": 38.90898333333333, "bike_id": "012f263a4dc491717793735654c8cd22", "fusion_lon": 0.0}, {"rental_uris": {"ios": "https://dc.lft.to/lastmile_qr_scan", "android": "https://dc.lft.to/lastmile_qr_scan"}, "type": "electric_scooter", "name": "033c121ccb931d22170e64aab6fa0297", "is_reserved": 0, "lon": -77.03667533333333, "is_disabled": 0, "fusion_lat": 0.0, "lat": 38.9212455, "bike_id": "033c121ccb931d22170e64aab6fa0297", "fusion_lon": 0.0}, {"rental_uris": {"ios": "https://dc.lft.to/lastmile_qr_scan", "android": "https://dc.lft.to/lastmile_qr_scan"}, "type": "electric_scooter", "name": "62328d9d863a2cbe0594f08f329b0ddf", "is_reserved": 0, "lon": -76.93394533333333, "is_disabled": 0, "fusion_lat": 0.0, "lat": 38.8991155, "bike_id": "62328d9d863a2cbe0594f08f329b0ddf", "fusion_lon": 0.0}, {"rental_uris": {"ios": "https://dc.lft.to/lastmile_qr_scan", "android": "https://dc.lft.to/lastmile_qr_scan"}, "type": "electric_scooter", "name": "72826e6a7b1e2adb2a62e1d15cee0bea", "is_reserved": 0, "lon": -76.94064283333333, "is_disabled": 0, "fusion_lat": 0.0, "lat": 38.8859055, "bike_id": "72826e6a7b1e2adb2a62e1d15cee0bea", "fusion_lon": 0.0}, {"rental_uris": {"ios": "https://dc.lft.to/lastmile_qr_scan", "android": "https://dc.lft.to/lastmile_qr_scan"}, "type": "electric_scooter", "name": "e3376870e12441ad0666aaf46f091ecd", "is_reserved": 0, "lon": -76.99511066666666, "is_disabled": 0, "fusion_lat": 0.0, "lat": 38.909802666666664, "bike_id": "e3376870e12441ad0666aaf46f091ecd", "fusion_lon": 0.0}, {"rental_uris": {"ios": "https://dc.lft.to/lastmile_qr_scan", "android": "https://dc.lft.to/lastmile_qr_scan"}, "type": "electric_scooter", "name": "b2e6e3523d8a428f30ed55d42338801c", "is_reserved": 0, "lon": -77.038085, "is_disabled": 0, "fusion_lat": 0.0, "lat": 38.9268065, "bike_id": "b2e6e3523d8a428f30ed55d42338801c", "fusion_lon": 0.0}, {"rental_uris": {"ios": "https://dc.lft.to/lastmile_qr_scan", "android": "https://dc.lft.to/lastmile_qr_scan"}, "type": "electric_scooter", "name": "34b589b5cba164d71a6261d3decc4e6a", "is_reserved": 0, "lon": -76.97719016666667, "is_disabled": 0, "fusion_lat": 0.0, "lat": 38.888223333333336, "bike_id": "34b589b5cba164d71a6261d3decc4e6a", "fusion_lon": 0.0}, {"rental_uris": {"ios": "https://dc.lft.to/lastmile_qr_scan", "android": "https://dc.lft.to/lastmile_qr_scan"}, "type": "electric_scooter", "name": "a55e943a680c3b484dee5fd1d29ce606", "is_reserved": 0, "lon": -77.00156583333333, "is_disabled": 0, "fusion_lat": 0.0, "lat": 38.8988945, "bike_id": "a55e943a680c3b484dee5fd1d29ce606", "fusion_lon": 0.0}, {"rental_uris": {"ios": "https://dc.lft.to/lastmile_qr_scan", "android": "https://dc.lft.to/lastmile_qr_scan"}, "type": "electric_scooter", "name": "97e00e7c44e576b0535c75b9f25bea6a", "is_reserved": 0, "lon": -77.01657233333333, "is_disabled": 0, "fusion_lat": 0.0, "lat": 38.94206, "bike_id": "97e00e7c44e576b0535c75b9f25bea6a", "fusion_lon": 0.0}, {"rental_uris": {"ios": "https://dc.lft.to/lastmile_qr_scan", "android": "https://dc.lft.to/lastmile_qr_scan"}, "type": "electric_scooter", "name": "39c3cf41f612d82b06e3b23192eecd58", "is_reserved": 0, "lon": -77.01791416666667, "is_disabled": 0, "fusion_lat": 0.0, "lat": 38.89239333333333, "bike_id": "39c3cf41f612d82b06e3b23192eecd58", "fusion_lon": 0.0}, {"rental_uris": {"ios": "https://dc.lft.to/lastmile_qr_scan", "android": "https://dc.lft.to/lastmile_qr_scan"}, "type": "electric_scooter", "name": "a1da252df9e927107b2eb89e4ee8ef28", "is_reserved": 0, "lon": -77.02405833333333, "is_disabled": 0, "fusion_lat": 0.0, "lat": 38.9309775, "bike_id": "a1da252df9e927107b2eb89e4ee8ef28", "fusion_lon": 0.0}, {"rental_uris": {"ios": "https://dc.lft.to/lastmile_qr_scan", "android": "https://dc.lft.to/lastmile_qr_scan"}, "type": "electric_scooter", "name": "c7e156203257e20adfbf7c93c45bf7f5", "is_reserved": 0, "lon": -77.01751833333333, "is_disabled": 0, "fusion_lat": 0.0, "lat": 38.876848, "bike_id": "c7e156203257e20adfbf7c93c45bf7f5", "fusion_lon": 0.0}, {"rental_uris": {"ios": "https://dc.lft.to/lastmile_qr_scan", "android": "https://dc.lft.to/lastmile_qr_scan"}, "type": "electric_scooter", "name": "1986ea40b7643444e24deb992e65450b", "is_reserved": 0, "lon": -77.0050335, "is_disabled": 0, "fusion_lat": 0.0, "lat": 38.87937983333333, "bike_id": "1986ea40b7643444e24deb992e65450b", "fusion_lon": 0.0}, {"rental_uris": {"ios": "https://dc.lft.to/lastmile_qr_scan", "android": "https://dc.lft.to/lastmile_qr_scan"}, "type": "electric_scooter", "name": "70404fbf1505ade109b7e84eaa80fa52", "is_reserved": 0, "lon": -77.0383585, "is_disabled": 0, "fusion_lat": 0.0, "lat": 38.9119565, "bike_id": "70404fbf1505ade109b7e84eaa80fa52", "fusion_lon": 0.0}, {"rental_uris": {"ios": "https://dc.lft.to/lastmile_qr_scan", "android": "https://dc.lft.to/lastmile_qr_scan"}, "type": "electric_scooter", "name": "75486b5b5864a840c97f62ac2d375f87", "is_reserved": 0, "lon": -77.0189025, "is_disabled": 0, "fusion_lat": 0.0, "lat": 38.913253, "bike_id": "75486b5b5864a840c97f62ac2d375f87", "fusion_lon": 0.0}, {"rental_uris": {"ios": "https://dc.lft.to/lastmile_qr_scan", "android": "https://dc.lft.to/lastmile_qr_scan"}, "type": "electric_scooter", "name": "950ec0e81ca6aa7c8af9331d10325cb7", "is_reserved": 0, "lon": -76.97363383333334, "is_disabled": 0, "fusion_lat": 0.0, "lat": 38.849818, "bike_id": "950ec0e81ca6aa7c8af9331d10325cb7", "fusion_lon": 0.0}, {"rental_uris": {"ios": "https://dc.lft.to/lastmile_qr_scan", "android": "https://dc.lft.to/lastmile_qr_scan"}, "type": "electric_scooter", "name": "982263a34d5c65897d2e579e2bf96fc4", "is_reserved": 0, "lon": -77.0344225, "is_disabled": 0, "fusion_lat": 0.0, "lat": 38.910748, "bike_id": "982263a34d5c65897d2e579e2bf96fc4", "fusion_lon": 0.0}, {"rental_uris": {"ios": "https://dc.lft.to/lastmile_qr_scan", "android": "https://dc.lft.to/lastmile_qr_scan"}, "type": "electric_bike", "name": "3d67f16bc163bd7f9fc8f98b9cfad99a", "is_reserved": 0, "lon": -77.04321183333333, "is_disabled": 0, "fusion_lat": 0.0, "lat": 39.03430783333334, "bike_id": "3d67f16bc163bd7f9fc8f98b9cfad99a", "fusion_lon": 0.0}, {"rental_uris": {"ios": "https://dc.lft.to/lastmile_qr_scan", "android": "https://dc.lft.to/lastmile_qr_scan"}, "type": "electric_bike", "name": "a91e250669d6611693d257fc141427bd", "is_reserved": 0, "lon": -77.1135815, "is_disabled": 0, "fusion_lat": 0.0, "lat": 38.841970833333335, "bike_id": "a91e250669d6611693d257fc141427bd", "fusion_lon": 0.0}, {"rental_uris": {"ios": "https://dc.lft.to/lastmile_qr_scan", "android": "https://dc.lft.to/lastmile_qr_scan"}, "type": "electric_scooter", "name": "3c9b8de3245aed56b181ee56eed63bcb", "is_reserved": 0, "lon": -77.04013566666667, "is_disabled": 0, "fusion_lat": 0.0, "lat": 38.9169255, "bike_id": "3c9b8de3245aed56b181ee56eed63bcb", "fusion_lon": 0.0}, {"rental_uris": {"ios": "https://dc.lft.to/lastmile_qr_scan", "android": "https://dc.lft.to/lastmile_qr_scan"}, "type": "electric_scooter", "name": "9b2d3cb8acd63580dc908a93b8127636", "is_reserved": 0, "lon": -76.996915, "is_disabled": 0, "fusion_lat": 0.0, "lat": 38.90020766666667, "bike_id": "9b2d3cb8acd63580dc908a93b8127636", "fusion_lon": 0.0}, {"rental_uris": {"ios": "https://dc.lft.to/lastmile_qr_scan", "android": "https://dc.lft.to/lastmile_qr_scan"}, "type": "electric_scooter", "name": "1ef8d8a0757a31a7f3a5713ba53b949f", "is_reserved": 0, "lon": -76.99345483333333, "is_disabled": 0, "fusion_lat": 0.0, "lat": 38.8769225, "bike_id": "1ef8d8a0757a31a7f3a5713ba53b949f", "fusion_lon": 0.0}, {"rental_uris": {"ios": "https://dc.lft.to/lastmile_qr_scan", "android": "https://dc.lft.to/lastmile_qr_scan"}, "type": "electric_scooter", "name": "4cd389c0faa40462f9adf0717fcdd05b", "is_reserved": 0, "lon": -77.0745885, "is_disabled": 0, "fusion_lat": 0.0, "lat": 38.93782216666666, "bike_id": "4cd389c0faa40462f9adf0717fcdd05b", "fusion_lon": 0.0}, {"rental_uris": {"ios": "https://dc.lft.to/lastmile_qr_scan", "android": "https://dc.lft.to/lastmile_qr_scan"}, "type": "electric_scooter", "name": "a45ca912e7abbdc1dc2272beb341ed2b", "is_reserved": 0, "lon": -77.00346133333333, "is_disabled": 0, "fusion_lat": 0.0, "lat": 38.87660916666667, "bike_id": "a45ca912e7abbdc1dc2272beb341ed2b", "fusion_lon": 0.0}, {"rental_uris": {"ios": "https://dc.lft.to/lastmile_qr_scan", "android": "https://dc.lft.to/lastmile_qr_scan"}, "type": "electric_scooter", "name": "306a9b2227da8dcff69926d0c4a2381b", "is_reserved": 0, "lon": -77.061507, "is_disabled": 0, "fusion_lat": 0.0, "lat": 38.94321516666667, "bike_id": "306a9b2227da8dcff69926d0c4a2381b", "fusion_lon": 0.0}, {"rental_uris": {"ios": "https://dc.lft.to/lastmile_qr_scan", "android": "https://dc.lft.to/lastmile_qr_scan"}, "type": "electric_scooter", "name": "4cf28beaba0e8fd8ef4bd5d265f81964", "is_reserved": 0, "lon": -76.92999483333334, "is_disabled": 0, "fusion_lat": 0.0, "lat": 38.88995416666667, "bike_id": "4cf28beaba0e8fd8ef4bd5d265f81964", "fusion_lon": 0.0}, {"rental_uris": {"ios": "https://dc.lft.to/lastmile_qr_scan", "android": "https://dc.lft.to/lastmile_qr_scan"}, "type": "electric_scooter", "name": "3a6a594c7d24786d49d64e16140d7cd8", "is_reserved": 0, "lon": -77.06115483333333, "is_disabled": 0, "fusion_lat": 0.0, "lat": 38.9128635, "bike_id": "3a6a594c7d24786d49d64e16140d7cd8", "fusion_lon": 0.0}, {"rental_uris": {"ios": "https://dc.lft.to/lastmile_qr_scan", "android": "https://dc.lft.to/lastmile_qr_scan"}, "type": "electric_scooter", "name": "f26d4b465baa9091ff5c1a298fff77b5", "is_reserved": 0, "lon": -76.99164516666667, "is_disabled": 0, "fusion_lat": 0.0, "lat": 38.900375833333335, "bike_id": "f26d4b465baa9091ff5c1a298fff77b5", "fusion_lon": 0.0}, {"rental_uris": {"ios": "https://dc.lft.to/lastmile_qr_scan", "android": "https://dc.lft.to/lastmile_qr_scan"}, "type": "electric_scooter", "name": "b25350b8e6f908fe049efaf5bad8c719", "is_reserved": 0, "lon": -77.02289866666666, "is_disabled": 0, "fusion_lat": 0.0, "lat": 38.8952345, "bike_id": "b25350b8e6f908fe049efaf5bad8c719", "fusion_lon": 0.0}, {"rental_uris": {"ios": "https://dc.lft.to/lastmile_qr_scan", "android": "https://dc.lft.to/lastmile_qr_scan"}, "type": "electric_scooter", "name": "d313ade658f28dcfc775d93204a24d20", "is_reserved": 0, "lon": -77.01826483333333, "is_disabled": 0, "fusion_lat": 0.0, "lat": 38.909541, "bike_id": "d313ade658f28dcfc775d93204a24d20", "fusion_lon": 0.0}, {"rental_uris": {"ios": "https://dc.lft.to/lastmile_qr_scan", "android": "https://dc.lft.to/lastmile_qr_scan"}, "type": "electric_scooter", "name": "a491b49ddbcebec2bbc57f2b165d8587", "is_reserved": 0, "lon": -77.00560716666666, "is_disabled": 0, "fusion_lat": 0.0, "lat": 38.880462666666666, "bike_id": "a491b49ddbcebec2bbc57f2b165d8587", "fusion_lon": 0.0}, {"rental_uris": {"ios": "https://dc.lft.to/lastmile_qr_scan", "android": "https://dc.lft.to/lastmile_qr_scan"}, "type": "electric_scooter", "name": "163385c396a06a9362670797510cc029", "is_reserved": 0, "lon": -77.01885883333334, "is_disabled": 0, "fusion_lat": 0.0, "lat": 38.897517666666666, "bike_id": "163385c396a06a9362670797510cc029", "fusion_lon": 0.0}, {"rental_uris": {"ios": "https://dc.lft.to/lastmile_qr_scan", "android": "https://dc.lft.to/lastmile_qr_scan"}, "type": "electric_scooter", "name": "ca5456c6c9bbdf3b9d8f159aec362ef7", "is_reserved": 0, "lon": -77.02169683333334, "is_disabled": 0, "fusion_lat": 0.0, "lat": 38.919984666666664, "bike_id": "ca5456c6c9bbdf3b9d8f159aec362ef7", "fusion_lon": 0.0}, {"rental_uris": {"ios": "https://dc.lft.to/lastmile_qr_scan", "android": "https://dc.lft.to/lastmile_qr_scan"}, "type": "electric_scooter", "name": "9fca5b860d9ab5103165987a3b0bcad7", "is_reserved": 0, "lon": -77.04870883333334, "is_disabled": 0, "fusion_lat": 0.0, "lat": 38.906497, "bike_id": "9fca5b860d9ab5103165987a3b0bcad7", "fusion_lon": 0.0}, {"rental_uris": {"ios": "https://dc.lft.to/lastmile_qr_scan", "android": "https://dc.lft.to/lastmile_qr_scan"}, "type": "electric_scooter", "name": "fec346d08032381357bc469d6814171a", "is_reserved": 0, "lon": -77.034525, "is_disabled": 0, "fusion_lat": 0.0, "lat": 38.91032233333333, "bike_id": "fec346d08032381357bc469d6814171a", "fusion_lon": 0.0}, {"rental_uris": {"ios": "https://dc.lft.to/lastmile_qr_scan", "android": "https://dc.lft.to/lastmile_qr_scan"}, "type": "electric_scooter", "name": "a551b723d4e990af11dbf3686c8f6512", "is_reserved": 0, "lon": -77.0183635, "is_disabled": 0, "fusion_lat": 0.0, "lat": 38.921507, "bike_id": "a551b723d4e990af11dbf3686c8f6512", "fusion_lon": 0.0}, {"rental_uris": {"ios": "https://dc.lft.to/lastmile_qr_scan", "android": "https://dc.lft.to/lastmile_qr_scan"}, "type": "electric_scooter", "name": "fd1513c78e84929c800fe0d6c1cfc805", "is_reserved": 0, "lon": -77.05825016666667, "is_disabled": 0, "fusion_lat": 0.0, "lat": 38.929080666666664, "bike_id": "fd1513c78e84929c800fe0d6c1cfc805", "fusion_lon": 0.0}, {"rental_uris": {"ios": "https://dc.lft.to/lastmile_qr_scan", "android": "https://dc.lft.to/lastmile_qr_scan"}, "type": "electric_scooter", "name": "c1ad36afac109c80496fa271c98be571", "is_reserved": 0, "lon": -77.00316366666667, "is_disabled": 0, "fusion_lat": 0.0, "lat": 38.8772185, "bike_id": "c1ad36afac109c80496fa271c98be571", "fusion_lon": 0.0}, {"rental_uris": {"ios": "https://dc.lft.to/lastmile_qr_scan", "android": "https://dc.lft.to/lastmile_qr_scan"}, "type": "electric_scooter", "name": "4ad712189840f80bda37a86f85361b0f", "is_reserved": 0, "lon": -76.992835, "is_disabled": 0, "fusion_lat": 0.0, "lat": 38.902621, "bike_id": "4ad712189840f80bda37a86f85361b0f", "fusion_lon": 0.0}, {"rental_uris": {"ios": "https://dc.lft.to/lastmile_qr_scan", "android": "https://dc.lft.to/lastmile_qr_scan"}, "type": "electric_bike", "name": "2ad55f0208ed471c20d6856a64826931", "is_reserved": 0, "lon": -77.04085633333334, "is_disabled": 0, "fusion_lat": 0.0, "lat": 38.8306535, "bike_id": "2ad55f0208ed471c20d6856a64826931", "fusion_lon": 0.0}, {"rental_uris": {"ios": "https://dc.lft.to/lastmile_qr_scan", "android": "https://dc.lft.to/lastmile_qr_scan"}, "type": "electric_scooter", "name": "75db205c57187e7f8e4431f8aff70f3a", "is_reserved": 0, "lon": -77.01301966666666, "is_disabled": 0, "fusion_lat": 0.0, "lat": 38.877763, "bike_id": "75db205c57187e7f8e4431f8aff70f3a", "fusion_lon": 0.0}, {"rental_uris": {"ios": "https://dc.lft.to/lastmile_qr_scan", "android": "https://dc.lft.to/lastmile_qr_scan"}, "type": "electric_scooter", "name": "29b82dc59d72e56d1dfb4cc09ef08c54", "is_reserved": 0, "lon": -77.01764516666667, "is_disabled": 0, "fusion_lat": 0.0, "lat": 38.9003335, "bike_id": "29b82dc59d72e56d1dfb4cc09ef08c54", "fusion_lon": 0.0}, {"rental_uris": {"ios": "https://dc.lft.to/lastmile_qr_scan", "android": "https://dc.lft.to/lastmile_qr_scan"}, "type": "electric_scooter", "name": "93cb9b61af0ca9830217f90eb565809e", "is_reserved": 0, "lon": -77.02158833333333, "is_disabled": 0, "fusion_lat": 0.0, "lat": 38.9255535, "bike_id": "93cb9b61af0ca9830217f90eb565809e", "fusion_lon": 0.0}, {"rental_uris": {"ios": "https://dc.lft.to/lastmile_qr_scan", "android": "https://dc.lft.to/lastmile_qr_scan"}, "type": "electric_scooter", "name": "37a2e9e03713a70d6e82f23358a255ae", "is_reserved": 0, "lon": -76.99734366666667, "is_disabled": 0, "fusion_lat": 0.0, "lat": 38.84549716666667, "bike_id": "37a2e9e03713a70d6e82f23358a255ae", "fusion_lon": 0.0}, {"rental_uris": {"ios": "https://dc.lft.to/lastmile_qr_scan", "android": "https://dc.lft.to/lastmile_qr_scan"}, "type": "electric_bike", "name": "845665041b690cecdc6bfe282b8d4083", "is_reserved": 0, "lon": -77.13251066666666, "is_disabled": 0, "fusion_lat": 0.0, "lat": 38.8056305, "bike_id": "845665041b690cecdc6bfe282b8d4083", "fusion_lon": 0.0}, {"rental_uris": {"ios": "https://dc.lft.to/lastmile_qr_scan", "android": "https://dc.lft.to/lastmile_qr_scan"}, "type": "electric_scooter", "name": "f8a2f27c00cef4f9c10b31cdf5e3fb0d", "is_reserved": 0, "lon": -77.015404, "is_disabled": 0, "fusion_lat": 0.0, "lat": 38.872717333333334, "bike_id": "f8a2f27c00cef4f9c10b31cdf5e3fb0d", "fusion_lon": 0.0}, {"rental_uris": {"ios": "https://dc.lft.to/lastmile_qr_scan", "android": "https://dc.lft.to/lastmile_qr_scan"}, "type": "electric_scooter", "name": "dfe00bfcbe000c2d1e8ddeff644ef5dd", "is_reserved": 0, "lon": -77.04622366666666, "is_disabled": 0, "fusion_lat": 0.0, "lat": 38.9233025, "bike_id": "dfe00bfcbe000c2d1e8ddeff644ef5dd", "fusion_lon": 0.0}, {"rental_uris": {"ios": "https://dc.lft.to/lastmile_qr_scan", "android": "https://dc.lft.to/lastmile_qr_scan"}, "type": "electric_scooter", "name": "1c812e82327dcb9a95a951d7ed17de68", "is_reserved": 0, "lon": -77.028183, "is_disabled": 0, "fusion_lat": 0.0, "lat": 38.90505066666667, "bike_id": "1c812e82327dcb9a95a951d7ed17de68", "fusion_lon": 0.0}, {"rental_uris": {"ios": "https://dc.lft.to/lastmile_qr_scan", "android": "https://dc.lft.to/lastmile_qr_scan"}, "type": "electric_bike", "name": "8b9780aa265fb177a55131bfa645c79e", "is_reserved": 0, "lon": -76.91814016666666, "is_disabled": 0, "fusion_lat": 0.0, "lat": 39.000036, "bike_id": "8b9780aa265fb177a55131bfa645c79e", "fusion_lon": 0.0}, {"rental_uris": {"ios": "https://dc.lft.to/lastmile_qr_scan", "android": "https://dc.lft.to/lastmile_qr_scan"}, "type": "electric_scooter", "name": "83b8ec3234b578f8d8a0a02d3b180db7", "is_reserved": 0, "lon": -77.02477133333333, "is_disabled": 0, "fusion_lat": 0.0, "lat": 38.918155666666664, "bike_id": "83b8ec3234b578f8d8a0a02d3b180db7", "fusion_lon": 0.0}, {"rental_uris": {"ios": "https://dc.lft.to/lastmile_qr_scan", "android": "https://dc.lft.to/lastmile_qr_scan"}, "type": "electric_scooter", "name": "3dbee404fe858e0cd8dde15112da3c7c", "is_reserved": 0, "lon": -76.99496066666667, "is_disabled": 0, "fusion_lat": 0.0, "lat": 38.882262833333336, "bike_id": "3dbee404fe858e0cd8dde15112da3c7c", "fusion_lon": 0.0}, {"rental_uris": {"ios": "https://dc.lft.to/lastmile_qr_scan", "android": "https://dc.lft.to/lastmile_qr_scan"}, "type": "electric_bike", "name": "a5ee37996624ec96e7b73f273fad1018", "is_reserved": 0, "lon": -76.9784545, "is_disabled": 0, "fusion_lat": 0.0, "lat": 38.8887745, "bike_id": "a5ee37996624ec96e7b73f273fad1018", "fusion_lon": 0.0}, {"rental_uris": {"ios": "https://dc.lft.to/lastmile_qr_scan", "android": "https://dc.lft.to/lastmile_qr_scan"}, "type": "electric_scooter", "name": "634593a5a15d92f2f2f18a3839007601", "is_reserved": 0, "lon": -77.03597766666667, "is_disabled": 0, "fusion_lat": 0.0, "lat": 38.92853683333333, "bike_id": "634593a5a15d92f2f2f18a3839007601", "fusion_lon": 0.0}, {"rental_uris": {"ios": "https://dc.lft.to/lastmile_qr_scan", "android": "https://dc.lft.to/lastmile_qr_scan"}, "type": "electric_scooter", "name": "5cbf38b9b9a6badaf25cfa5a908fead2", "is_reserved": 0, "lon": -77.04359716666667, "is_disabled": 0, "fusion_lat": 0.0, "lat": 38.92249733333333, "bike_id": "5cbf38b9b9a6badaf25cfa5a908fead2", "fusion_lon": 0.0}, {"rental_uris": {"ios": "https://dc.lft.to/lastmile_qr_scan", "android": "https://dc.lft.to/lastmile_qr_scan"}, "type": "electric_scooter", "name": "bd058cb1a097e1e04361dd6f83a94826", "is_reserved": 0, "lon": -77.061714, "is_disabled": 0, "fusion_lat": 0.0, "lat": 38.941240666666666, "bike_id": "bd058cb1a097e1e04361dd6f83a94826", "fusion_lon": 0.0}, {"rental_uris": {"ios": "https://dc.lft.to/lastmile_qr_scan", "android": "https://dc.lft.to/lastmile_qr_scan"}, "type": "electric_scooter", "name": "ca6314f46ed288bdf7cea694799ba463", "is_reserved": 0, "lon": -77.03303333333334, "is_disabled": 0, "fusion_lat": 0.0, "lat": 38.897372833333336, "bike_id": "ca6314f46ed288bdf7cea694799ba463", "fusion_lon": 0.0}, {"rental_uris": {"ios": "https://dc.lft.to/lastmile_qr_scan", "android": "https://dc.lft.to/lastmile_qr_scan"}, "type": "electric_scooter", "name": "2fcd2a6472f7d37e468b57a8fa51dab4", "is_reserved": 0, "lon": -77.064297, "is_disabled": 0, "fusion_lat": 0.0, "lat": 38.935678833333334, "bike_id": "2fcd2a6472f7d37e468b57a8fa51dab4", "fusion_lon": 0.0}, {"rental_uris": {"ios": "https://dc.lft.to/lastmile_qr_scan", "android": "https://dc.lft.to/lastmile_qr_scan"}, "type": "electric_scooter", "name": "523b6e3885038412e4fadbb1fd79d82b", "is_reserved": 0, "lon": -77.03076816666666, "is_disabled": 0, "fusion_lat": 0.0, "lat": 38.898332, "bike_id": "523b6e3885038412e4fadbb1fd79d82b", "fusion_lon": 0.0}, {"rental_uris": {"ios": "https://dc.lft.to/lastmile_qr_scan", "android": "https://dc.lft.to/lastmile_qr_scan"}, "type": "electric_scooter", "name": "8ebbb24b2dbd14540a3ee6fea9112b0a", "is_reserved": 0, "lon": -76.99952583333334, "is_disabled": 0, "fusion_lat": 0.0, "lat": 38.89090083333333, "bike_id": "8ebbb24b2dbd14540a3ee6fea9112b0a", "fusion_lon": 0.0}, {"rental_uris": {"ios": "https://dc.lft.to/lastmile_qr_scan", "android": "https://dc.lft.to/lastmile_qr_scan"}, "type": "electric_scooter", "name": "1e5f1cb0e30b5736895d54be64ae4807", "is_reserved": 0, "lon": -77.0172755, "is_disabled": 0, "fusion_lat": 0.0, "lat": 38.892291, "bike_id": "1e5f1cb0e30b5736895d54be64ae4807", "fusion_lon": 0.0}, {"rental_uris": {"ios": "https://dc.lft.to/lastmile_qr_scan", "android": "https://dc.lft.to/lastmile_qr_scan"}, "type": "electric_scooter", "name": "02250366d359a7a2a6d8733c8ee0d643", "is_reserved": 0, "lon": -77.00158333333333, "is_disabled": 0, "fusion_lat": 0.0, "lat": 38.82132133333333, "bike_id": "02250366d359a7a2a6d8733c8ee0d643", "fusion_lon": 0.0}, {"rental_uris": {"ios": "https://dc.lft.to/lastmile_qr_scan", "android": "https://dc.lft.to/lastmile_qr_scan"}, "type": "electric_bike", "name": "d3162fab3cfb2292ae7d45dff62c55c9", "is_reserved": 0, "lon": -76.95162816666667, "is_disabled": 0, "fusion_lat": 0.0, "lat": 39.084411833333334, "bike_id": "d3162fab3cfb2292ae7d45dff62c55c9", "fusion_lon": 0.0}, {"rental_uris": {"ios": "https://dc.lft.to/lastmile_qr_scan", "android": "https://dc.lft.to/lastmile_qr_scan"}, "type": "electric_bike", "name": "ded5a78709abcda92c452b9987cfb74b", "is_reserved": 0, "lon": -76.97554116666667, "is_disabled": 0, "fusion_lat": 0.0, "lat": 38.904322, "bike_id": "ded5a78709abcda92c452b9987cfb74b", "fusion_lon": 0.0}, {"rental_uris": {"ios": "https://dc.lft.to/lastmile_qr_scan", "android": "https://dc.lft.to/lastmile_qr_scan"}, "type": "electric_bike", "name": "61030b6a147eb23c17ee7498963aca7c", "is_reserved": 0, "lon": -77.07772566666667, "is_disabled": 0, "fusion_lat": 0.0, "lat": 38.93045583333333, "bike_id": "61030b6a147eb23c17ee7498963aca7c", "fusion_lon": 0.0}, {"rental_uris": {"ios": "https://dc.lft.to/lastmile_qr_scan", "android": "https://dc.lft.to/lastmile_qr_scan"}, "type": "electric_scooter", "name": "19582593ec2f53bce6569e63d729ed0d", "is_reserved": 0, "lon": -77.07570883333334, "is_disabled": 0, "fusion_lat": 0.0, "lat": 38.906477333333335, "bike_id": "19582593ec2f53bce6569e63d729ed0d", "fusion_lon": 0.0}, {"rental_uris": {"ios": "https://dc.lft.to/lastmile_qr_scan", "android": "https://dc.lft.to/lastmile_qr_scan"}, "type": "electric_scooter", "name": "b878f83fa43dda1617a3635e9ec2074e", "is_reserved": 0, "lon": -77.02180883333334, "is_disabled": 0, "fusion_lat": 0.0, "lat": 38.92503716666667, "bike_id": "b878f83fa43dda1617a3635e9ec2074e", "fusion_lon": 0.0}, {"rental_uris": {"ios": "https://dc.lft.to/lastmile_qr_scan", "android": "https://dc.lft.to/lastmile_qr_scan"}, "type": "electric_scooter", "name": "9635d958810f3531fe252ad0453c1d05", "is_reserved": 0, "lon": -77.02932316666667, "is_disabled": 0, "fusion_lat": 0.0, "lat": 38.89828933333333, "bike_id": "9635d958810f3531fe252ad0453c1d05", "fusion_lon": 0.0}, {"rental_uris": {"ios": "https://dc.lft.to/lastmile_qr_scan", "android": "https://dc.lft.to/lastmile_qr_scan"}, "type": "electric_scooter", "name": "c3ad8731bed9906fd8c6fab1c5d785a4", "is_reserved": 0, "lon": -77.00747916666667, "is_disabled": 0, "fusion_lat": 0.0, "lat": 38.925332833333336, "bike_id": "c3ad8731bed9906fd8c6fab1c5d785a4", "fusion_lon": 0.0}, {"rental_uris": {"ios": "https://dc.lft.to/lastmile_qr_scan", "android": "https://dc.lft.to/lastmile_qr_scan"}, "type": "electric_scooter", "name": "9d4e826b3cb03b8332c6d9cba48d9250", "is_reserved": 0, "lon": -77.02981766666667, "is_disabled": 0, "fusion_lat": 0.0, "lat": 38.916846166666666, "bike_id": "9d4e826b3cb03b8332c6d9cba48d9250", "fusion_lon": 0.0}, {"rental_uris": {"ios": "https://dc.lft.to/lastmile_qr_scan", "android": "https://dc.lft.to/lastmile_qr_scan"}, "type": "electric_scooter", "name": "8e373a05ce6509a21353fdddd4b9c108", "is_reserved": 0, "lon": -77.0320485, "is_disabled": 0, "fusion_lat": 0.0, "lat": 38.88482116666667, "bike_id": "8e373a05ce6509a21353fdddd4b9c108", "fusion_lon": 0.0}, {"rental_uris": {"ios": "https://dc.lft.to/lastmile_qr_scan", "android": "https://dc.lft.to/lastmile_qr_scan"}, "type": "electric_scooter", "name": "d131d60839c89dae455591926aa673e4", "is_reserved": 0, "lon": -77.0261495, "is_disabled": 0, "fusion_lat": 0.0, "lat": 38.89972383333333, "bike_id": "d131d60839c89dae455591926aa673e4", "fusion_lon": 0.0}, {"rental_uris": {"ios": "https://dc.lft.to/lastmile_qr_scan", "android": "https://dc.lft.to/lastmile_qr_scan"}, "type": "electric_scooter", "name": "b968a781027af881d2f3c535e42ab80c", "is_reserved": 0, "lon": -77.03545033333333, "is_disabled": 0, "fusion_lat": 0.0, "lat": 38.92473533333333, "bike_id": "b968a781027af881d2f3c535e42ab80c", "fusion_lon": 0.0}, {"rental_uris": {"ios": "https://dc.lft.to/lastmile_qr_scan", "android": "https://dc.lft.to/lastmile_qr_scan"}, "type": "electric_scooter", "name": "2d9101ed1cc0b90427a9171609adcb50", "is_reserved": 0, "lon": -76.992357, "is_disabled": 0, "fusion_lat": 0.0, "lat": 38.887536833333336, "bike_id": "2d9101ed1cc0b90427a9171609adcb50", "fusion_lon": 0.0}, {"rental_uris": {"ios": "https://dc.lft.to/lastmile_qr_scan", "android": "https://dc.lft.to/lastmile_qr_scan"}, "type": "electric_scooter", "name": "2c3f379ae4dcd3acfd8ebe5d24011474", "is_reserved": 0, "lon": -77.047639, "is_disabled": 0, "fusion_lat": 0.0, "lat": 38.940957833333336, "bike_id": "2c3f379ae4dcd3acfd8ebe5d24011474", "fusion_lon": 0.0}, {"rental_uris": {"ios": "https://dc.lft.to/lastmile_qr_scan", "android": "https://dc.lft.to/lastmile_qr_scan"}, "type": "electric_scooter", "name": "b9a136a6985b124a3bb60f644830763b", "is_reserved": 0, "lon": -77.0082945, "is_disabled": 0, "fusion_lat": 0.0, "lat": 38.91375033333333, "bike_id": "b9a136a6985b124a3bb60f644830763b", "fusion_lon": 0.0}, {"rental_uris": {"ios": "https://dc.lft.to/lastmile_qr_scan", "android": "https://dc.lft.to/lastmile_qr_scan"}, "type": "electric_scooter", "name": "7abfd741b0cb6d22be11ed86ccaf1d81", "is_reserved": 0, "lon": -77.005235, "is_disabled": 0, "fusion_lat": 0.0, "lat": 38.87920533333333, "bike_id": "7abfd741b0cb6d22be11ed86ccaf1d81", "fusion_lon": 0.0}, {"rental_uris": {"ios": "https://dc.lft.to/lastmile_qr_scan", "android": "https://dc.lft.to/lastmile_qr_scan"}, "type": "electric_bike", "name": "f8546b65ed3a0fbae3b6ec94f65d36c8", "is_reserved": 0, "lon": -76.907418, "is_disabled": 0, "fusion_lat": 0.0, "lat": 38.8962415, "bike_id": "f8546b65ed3a0fbae3b6ec94f65d36c8", "fusion_lon": 0.0}, {"rental_uris": {"ios": "https://dc.lft.to/lastmile_qr_scan", "android": "https://dc.lft.to/lastmile_qr_scan"}, "type": "electric_scooter", "name": "4b6ded34a085a923fbab2cf5b6be15cd", "is_reserved": 0, "lon": -77.005321, "is_disabled": 0, "fusion_lat": 0.0, "lat": 38.874786, "bike_id": "4b6ded34a085a923fbab2cf5b6be15cd", "fusion_lon": 0.0}, {"rental_uris": {"ios": "https://dc.lft.to/lastmile_qr_scan", "android": "https://dc.lft.to/lastmile_qr_scan"}, "type": "electric_scooter", "name": "9a587bd925ff3af1c763f07ed3184480", "is_reserved": 0, "lon": -77.03249433333333, "is_disabled": 0, "fusion_lat": 0.0, "lat": 38.928861833333336, "bike_id": "9a587bd925ff3af1c763f07ed3184480", "fusion_lon": 0.0}, {"rental_uris": {"ios": "https://dc.lft.to/lastmile_qr_scan", "android": "https://dc.lft.to/lastmile_qr_scan"}, "type": "electric_scooter", "name": "acd8f2ea02c239b1d693df0bb0de16e3", "is_reserved": 0, "lon": -77.04888566666666, "is_disabled": 0, "fusion_lat": 0.0, "lat": 38.91612033333333, "bike_id": "acd8f2ea02c239b1d693df0bb0de16e3", "fusion_lon": 0.0}, {"rental_uris": {"ios": "https://dc.lft.to/lastmile_qr_scan", "android": "https://dc.lft.to/lastmile_qr_scan"}, "type": "electric_scooter", "name": "99f7562a6de816ddc2ff3c4275f6c3c4", "is_reserved": 0, "lon": -77.038364, "is_disabled": 0, "fusion_lat": 0.0, "lat": 38.907310333333335, "bike_id": "99f7562a6de816ddc2ff3c4275f6c3c4", "fusion_lon": 0.0}, {"rental_uris": {"ios": "https://dc.lft.to/lastmile_qr_scan", "android": "https://dc.lft.to/lastmile_qr_scan"}, "type": "electric_scooter", "name": "3119b94bdf6a2b13ec5211a278b9ba48", "is_reserved": 0, "lon": -77.02447566666666, "is_disabled": 0, "fusion_lat": 0.0, "lat": 38.92345266666667, "bike_id": "3119b94bdf6a2b13ec5211a278b9ba48", "fusion_lon": 0.0}, {"rental_uris": {"ios": "https://dc.lft.to/lastmile_qr_scan", "android": "https://dc.lft.to/lastmile_qr_scan"}, "type": "electric_scooter", "name": "cd6a5ed3e32c4a7b3874adf3bc97c55a", "is_reserved": 0, "lon": -77.01509883333334, "is_disabled": 0, "fusion_lat": 0.0, "lat": 38.88936983333333, "bike_id": "cd6a5ed3e32c4a7b3874adf3bc97c55a", "fusion_lon": 0.0}, {"rental_uris": {"ios": "https://dc.lft.to/lastmile_qr_scan", "android": "https://dc.lft.to/lastmile_qr_scan"}, "type": "electric_scooter", "name": "06546f409ba9c63f2e38e88b18d850ee", "is_reserved": 0, "lon": -77.01889983333334, "is_disabled": 0, "fusion_lat": 0.0, "lat": 38.897507166666664, "bike_id": "06546f409ba9c63f2e38e88b18d850ee", "fusion_lon": 0.0}, {"rental_uris": {"ios": "https://dc.lft.to/lastmile_qr_scan", "android": "https://dc.lft.to/lastmile_qr_scan"}, "type": "electric_scooter", "name": "0f236b14a0ddfa5b2d2636214c6f14e8", "is_reserved": 0, "lon": -77.01877183333333, "is_disabled": 0, "fusion_lat": 0.0, "lat": 38.93057016666667, "bike_id": "0f236b14a0ddfa5b2d2636214c6f14e8", "fusion_lon": 0.0}, {"rental_uris": {"ios": "https://dc.lft.to/lastmile_qr_scan", "android": "https://dc.lft.to/lastmile_qr_scan"}, "type": "electric_scooter", "name": "bf65c5a35c25ce6d8e35f5fe3f00bdc2", "is_reserved": 0, "lon": -77.038418, "is_disabled": 0, "fusion_lat": 0.0, "lat": 38.9071245, "bike_id": "bf65c5a35c25ce6d8e35f5fe3f00bdc2", "fusion_lon": 0.0}, {"rental_uris": {"ios": "https://dc.lft.to/lastmile_qr_scan", "android": "https://dc.lft.to/lastmile_qr_scan"}, "type": "electric_scooter", "name": "88021f34b9e367e9af2c03573a8ca002", "is_reserved": 0, "lon": -77.11013316666667, "is_disabled": 0, "fusion_lat": 0.0, "lat": 38.877039833333335, "bike_id": "88021f34b9e367e9af2c03573a8ca002", "fusion_lon": 0.0}, {"rental_uris": {"ios": "https://dc.lft.to/lastmile_qr_scan", "android": "https://dc.lft.to/lastmile_qr_scan"}, "type": "electric_scooter", "name": "85c3c372e9ab261cd0c5877cc8855496", "is_reserved": 0, "lon": -77.0281025, "is_disabled": 0, "fusion_lat": 0.0, "lat": 38.91058733333333, "bike_id": "85c3c372e9ab261cd0c5877cc8855496", "fusion_lon": 0.0}, {"rental_uris": {"ios": "https://dc.lft.to/lastmile_qr_scan", "android": "https://dc.lft.to/lastmile_qr_scan"}, "type": "electric_scooter", "name": "5703b368e336a5da65a189aa39ebb172", "is_reserved": 0, "lon": -77.01636233333333, "is_disabled": 0, "fusion_lat": 0.0, "lat": 38.90570133333333, "bike_id": "5703b368e336a5da65a189aa39ebb172", "fusion_lon": 0.0}, {"rental_uris": {"ios": "https://dc.lft.to/lastmile_qr_scan", "android": "https://dc.lft.to/lastmile_qr_scan"}, "type": "electric_scooter", "name": "03a729449fe663351052d0e114f8972b", "is_reserved": 0, "lon": -77.0150805, "is_disabled": 0, "fusion_lat": 0.0, "lat": 38.91057333333333, "bike_id": "03a729449fe663351052d0e114f8972b", "fusion_lon": 0.0}, {"rental_uris": {"ios": "https://dc.lft.to/lastmile_qr_scan", "android": "https://dc.lft.to/lastmile_qr_scan"}, "type": "electric_scooter", "name": "8728fb79c13655db6091bc8e1b84165d", "is_reserved": 0, "lon": -77.01639083333333, "is_disabled": 0, "fusion_lat": 0.0, "lat": 38.92937416666667, "bike_id": "8728fb79c13655db6091bc8e1b84165d", "fusion_lon": 0.0}, {"rental_uris": {"ios": "https://dc.lft.to/lastmile_qr_scan", "android": "https://dc.lft.to/lastmile_qr_scan"}, "type": "electric_scooter", "name": "df043b120441d590b77db3372fd56f71", "is_reserved": 0, "lon": -77.03657816666667, "is_disabled": 0, "fusion_lat": 0.0, "lat": 38.906339833333334, "bike_id": "df043b120441d590b77db3372fd56f71", "fusion_lon": 0.0}, {"rental_uris": {"ios": "https://dc.lft.to/lastmile_qr_scan", "android": "https://dc.lft.to/lastmile_qr_scan"}, "type": "electric_scooter", "name": "dec821f8b39379e6274520b7ddeb69ca", "is_reserved": 0, "lon": -77.0383505, "is_disabled": 0, "fusion_lat": 0.0, "lat": 38.910393, "bike_id": "dec821f8b39379e6274520b7ddeb69ca", "fusion_lon": 0.0}, {"rental_uris": {"ios": "https://dc.lft.to/lastmile_qr_scan", "android": "https://dc.lft.to/lastmile_qr_scan"}, "type": "electric_scooter", "name": "8cdd57997b45309ea2b0ff973067dc4c", "is_reserved": 0, "lon": -77.071383, "is_disabled": 0, "fusion_lat": 0.0, "lat": 38.92625116666667, "bike_id": "8cdd57997b45309ea2b0ff973067dc4c", "fusion_lon": 0.0}, {"rental_uris": {"ios": "https://dc.lft.to/lastmile_qr_scan", "android": "https://dc.lft.to/lastmile_qr_scan"}, "type": "electric_scooter", "name": "84935b075521a8632cdaab0339d3bb89", "is_reserved": 0, "lon": -77.00224316666667, "is_disabled": 0, "fusion_lat": 0.0, "lat": 38.90029033333333, "bike_id": "84935b075521a8632cdaab0339d3bb89", "fusion_lon": 0.0}, {"rental_uris": {"ios": "https://dc.lft.to/lastmile_qr_scan", "android": "https://dc.lft.to/lastmile_qr_scan"}, "type": "electric_scooter", "name": "2134a4e3acfdc09be8e03421c926d769", "is_reserved": 0, "lon": -77.02912433333333, "is_disabled": 0, "fusion_lat": 0.0, "lat": 38.933300833333334, "bike_id": "2134a4e3acfdc09be8e03421c926d769", "fusion_lon": 0.0}, {"rental_uris": {"ios": "https://dc.lft.to/lastmile_qr_scan", "android": "https://dc.lft.to/lastmile_qr_scan"}, "type": "electric_scooter", "name": "aeed2cf86aac740e5427cbd7ee7da5c2", "is_reserved": 0, "lon": -76.9374915, "is_disabled": 0, "fusion_lat": 0.0, "lat": 38.890124, "bike_id": "aeed2cf86aac740e5427cbd7ee7da5c2", "fusion_lon": 0.0}, {"rental_uris": {"ios": "https://dc.lft.to/lastmile_qr_scan", "android": "https://dc.lft.to/lastmile_qr_scan"}, "type": "electric_scooter", "name": "6897248754a47fb17718fe6972781a01", "is_reserved": 0, "lon": -77.03802033333334, "is_disabled": 0, "fusion_lat": 0.0, "lat": 38.930016, "bike_id": "6897248754a47fb17718fe6972781a01", "fusion_lon": 0.0}, {"rental_uris": {"ios": "https://dc.lft.to/lastmile_qr_scan", "android": "https://dc.lft.to/lastmile_qr_scan"}, "type": "electric_scooter", "name": "0502dbc22ea0c9b5ce7ee119fdb06c5f", "is_reserved": 0, "lon": -77.0058695, "is_disabled": 0, "fusion_lat": 0.0, "lat": 38.9026305, "bike_id": "0502dbc22ea0c9b5ce7ee119fdb06c5f", "fusion_lon": 0.0}, {"rental_uris": {"ios": "https://dc.lft.to/lastmile_qr_scan", "android": "https://dc.lft.to/lastmile_qr_scan"}, "type": "electric_bike", "name": "c4a0b3c2ba91733e30520bcbcb4b4d7f", "is_reserved": 0, "lon": -77.08319333333333, "is_disabled": 0, "fusion_lat": 0.0, "lat": 38.85447666666666, "bike_id": "c4a0b3c2ba91733e30520bcbcb4b4d7f", "fusion_lon": 0.0}, {"rental_uris": {"ios": "https://dc.lft.to/lastmile_qr_scan", "android": "https://dc.lft.to/lastmile_qr_scan"}, "type": "electric_scooter", "name": "1d5a9c92dfc26f8bc9a507f23aab9fae", "is_reserved": 0, "lon": -76.997417, "is_disabled": 0, "fusion_lat": 0.0, "lat": 38.920444333333336, "bike_id": "1d5a9c92dfc26f8bc9a507f23aab9fae", "fusion_lon": 0.0}, {"rental_uris": {"ios": "https://dc.lft.to/lastmile_qr_scan", "android": "https://dc.lft.to/lastmile_qr_scan"}, "type": "electric_scooter", "name": "c2d55cb164a545357b7c90ae1b9e3d45", "is_reserved": 0, "lon": -77.03338516666666, "is_disabled": 0, "fusion_lat": 0.0, "lat": 38.93900583333333, "bike_id": "c2d55cb164a545357b7c90ae1b9e3d45", "fusion_lon": 0.0}, {"rental_uris": {"ios": "https://dc.lft.to/lastmile_qr_scan", "android": "https://dc.lft.to/lastmile_qr_scan"}, "type": "electric_scooter", "name": "6ba1df881369366c8341bbcc22fa1747", "is_reserved": 0, "lon": -77.04506983333333, "is_disabled": 0, "fusion_lat": 0.0, "lat": 38.8922635, "bike_id": "6ba1df881369366c8341bbcc22fa1747", "fusion_lon": 0.0}, {"rental_uris": {"ios": "https://dc.lft.to/lastmile_qr_scan", "android": "https://dc.lft.to/lastmile_qr_scan"}, "type": "electric_scooter", "name": "c2da2b9d25ce9d87abacf9be69ab4355", "is_reserved": 0, "lon": -77.0172355, "is_disabled": 0, "fusion_lat": 0.0, "lat": 38.9026585, "bike_id": "c2da2b9d25ce9d87abacf9be69ab4355", "fusion_lon": 0.0}, {"rental_uris": {"ios": "https://dc.lft.to/lastmile_qr_scan", "android": "https://dc.lft.to/lastmile_qr_scan"}, "type": "electric_scooter", "name": "a526f381c7261604a34e678ab9b00bdb", "is_reserved": 0, "lon": -77.040726, "is_disabled": 0, "fusion_lat": 0.0, "lat": 38.91600283333333, "bike_id": "a526f381c7261604a34e678ab9b00bdb", "fusion_lon": 0.0}, {"rental_uris": {"ios": "https://dc.lft.to/lastmile_qr_scan", "android": "https://dc.lft.to/lastmile_qr_scan"}, "type": "electric_bike", "name": "8279d570c07a1a14d6d4058c2211e72d", "is_reserved": 0, "lon": -76.9770375, "is_disabled": 0, "fusion_lat": 0.0, "lat": 38.8221455, "bike_id": "8279d570c07a1a14d6d4058c2211e72d", "fusion_lon": 0.0}, {"rental_uris": {"ios": "https://dc.lft.to/lastmile_qr_scan", "android": "https://dc.lft.to/lastmile_qr_scan"}, "type": "electric_scooter", "name": "a1be2d2df26023db91e1b8dc85b0ca0b", "is_reserved": 0, "lon": -77.03650716666667, "is_disabled": 0, "fusion_lat": 0.0, "lat": 38.91613566666667, "bike_id": "a1be2d2df26023db91e1b8dc85b0ca0b", "fusion_lon": 0.0}, {"rental_uris": {"ios": "https://dc.lft.to/lastmile_qr_scan", "android": "https://dc.lft.to/lastmile_qr_scan"}, "type": "electric_scooter", "name": "5a7971f6c561a651f332f7d9f3fac9c4", "is_reserved": 0, "lon": -76.97723183333333, "is_disabled": 0, "fusion_lat": 0.0, "lat": 38.90058466666667, "bike_id": "5a7971f6c561a651f332f7d9f3fac9c4", "fusion_lon": 0.0}, {"rental_uris": {"ios": "https://dc.lft.to/lastmile_qr_scan", "android": "https://dc.lft.to/lastmile_qr_scan"}, "type": "electric_scooter", "name": "eb3d4f94cd59d16d301a20efd8ddf7bc", "is_reserved": 0, "lon": -77.062845, "is_disabled": 0, "fusion_lat": 0.0, "lat": 38.903180166666665, "bike_id": "eb3d4f94cd59d16d301a20efd8ddf7bc", "fusion_lon": 0.0}, {"rental_uris": {"ios": "https://dc.lft.to/lastmile_qr_scan", "android": "https://dc.lft.to/lastmile_qr_scan"}, "type": "electric_scooter", "name": "a3deee62945be5d6063cb325eaddc10c", "is_reserved": 0, "lon": -76.99034216666666, "is_disabled": 0, "fusion_lat": 0.0, "lat": 38.88879983333333, "bike_id": "a3deee62945be5d6063cb325eaddc10c", "fusion_lon": 0.0}, {"rental_uris": {"ios": "https://dc.lft.to/lastmile_qr_scan", "android": "https://dc.lft.to/lastmile_qr_scan"}, "type": "electric_scooter", "name": "a7776a68c903d153935791dd6cd8df8a", "is_reserved": 0, "lon": -77.02974183333333, "is_disabled": 0, "fusion_lat": 0.0, "lat": 38.9053025, "bike_id": "a7776a68c903d153935791dd6cd8df8a", "fusion_lon": 0.0}, {"rental_uris": {"ios": "https://dc.lft.to/lastmile_qr_scan", "android": "https://dc.lft.to/lastmile_qr_scan"}, "type": "electric_scooter", "name": "11645fdd774ce71ce628fd34836332c5", "is_reserved": 0, "lon": -77.05121933333334, "is_disabled": 0, "fusion_lat": 0.0, "lat": 38.92347633333333, "bike_id": "11645fdd774ce71ce628fd34836332c5", "fusion_lon": 0.0}, {"rental_uris": {"ios": "https://dc.lft.to/lastmile_qr_scan", "android": "https://dc.lft.to/lastmile_qr_scan"}, "type": "electric_bike", "name": "852d15c8aae3165f298625910780216b", "is_reserved": 0, "lon": -77.07662983333333, "is_disabled": 0, "fusion_lat": 0.0, "lat": 38.809814333333335, "bike_id": "852d15c8aae3165f298625910780216b", "fusion_lon": 0.0}, {"rental_uris": {"ios": "https://dc.lft.to/lastmile_qr_scan", "android": "https://dc.lft.to/lastmile_qr_scan"}, "type": "electric_scooter", "name": "ecc4245a77bd002df37119cfcc1502bb", "is_reserved": 0, "lon": -77.0110365, "is_disabled": 0, "fusion_lat": 0.0, "lat": 38.8955415, "bike_id": "ecc4245a77bd002df37119cfcc1502bb", "fusion_lon": 0.0}, {"rental_uris": {"ios": "https://dc.lft.to/lastmile_qr_scan", "android": "https://dc.lft.to/lastmile_qr_scan"}, "type": "electric_scooter", "name": "ea7c125fd61e6ed5d6c38f9da5a611eb", "is_reserved": 0, "lon": -76.941828, "is_disabled": 0, "fusion_lat": 0.0, "lat": 38.897602, "bike_id": "ea7c125fd61e6ed5d6c38f9da5a611eb", "fusion_lon": 0.0}, {"rental_uris": {"ios": "https://dc.lft.to/lastmile_qr_scan", "android": "https://dc.lft.to/lastmile_qr_scan"}, "type": "electric_scooter", "name": "27f0b08ae5c0adb1f34f98eaca4765b5", "is_reserved": 0, "lon": -77.03385566666667, "is_disabled": 0, "fusion_lat": 0.0, "lat": 38.901482666666666, "bike_id": "27f0b08ae5c0adb1f34f98eaca4765b5", "fusion_lon": 0.0}, {"rental_uris": {"ios": "https://dc.lft.to/lastmile_qr_scan", "android": "https://dc.lft.to/lastmile_qr_scan"}, "type": "electric_scooter", "name": "fe23e83fe00dbac0f81c2c1ce575217b", "is_reserved": 0, "lon": -77.03830216666667, "is_disabled": 0, "fusion_lat": 0.0, "lat": 38.90727533333333, "bike_id": "fe23e83fe00dbac0f81c2c1ce575217b", "fusion_lon": 0.0}, {"rental_uris": {"ios": "https://dc.lft.to/lastmile_qr_scan", "android": "https://dc.lft.to/lastmile_qr_scan"}, "type": "electric_bike", "name": "55e351d897f22e9202ea5e068a0d8f4d", "is_reserved": 0, "lon": -77.02073783333333, "is_disabled": 0, "fusion_lat": 0.0, "lat": 38.9644625, "bike_id": "55e351d897f22e9202ea5e068a0d8f4d", "fusion_lon": 0.0}, {"rental_uris": {"ios": "https://dc.lft.to/lastmile_qr_scan", "android": "https://dc.lft.to/lastmile_qr_scan"}, "type": "electric_scooter", "name": "a38f79b626edb1c73a1ee0d2400129d1", "is_reserved": 0, "lon": -77.00134883333334, "is_disabled": 0, "fusion_lat": 0.0, "lat": 38.9076415, "bike_id": "a38f79b626edb1c73a1ee0d2400129d1", "fusion_lon": 0.0}, {"rental_uris": {"ios": "https://dc.lft.to/lastmile_qr_scan", "android": "https://dc.lft.to/lastmile_qr_scan"}, "type": "electric_bike", "name": "6cf60700d01b3fedd254ed33d5a85c2d", "is_reserved": 0, "lon": -77.11429866666667, "is_disabled": 0, "fusion_lat": 0.0, "lat": 38.873255, "bike_id": "6cf60700d01b3fedd254ed33d5a85c2d", "fusion_lon": 0.0}, {"rental_uris": {"ios": "https://dc.lft.to/lastmile_qr_scan", "android": "https://dc.lft.to/lastmile_qr_scan"}, "type": "electric_scooter", "name": "94255ad6988b6080a7f7217ce0ea4233", "is_reserved": 0, "lon": -77.02822533333334, "is_disabled": 0, "fusion_lat": 0.0, "lat": 38.902409166666665, "bike_id": "94255ad6988b6080a7f7217ce0ea4233", "fusion_lon": 0.0}, {"rental_uris": {"ios": "https://dc.lft.to/lastmile_qr_scan", "android": "https://dc.lft.to/lastmile_qr_scan"}, "type": "electric_scooter", "name": "099a8b0809737e7a74cee14dc3c460cb", "is_reserved": 0, "lon": -77.0685195, "is_disabled": 0, "fusion_lat": 0.0, "lat": 38.91744466666667, "bike_id": "099a8b0809737e7a74cee14dc3c460cb", "fusion_lon": 0.0}, {"rental_uris": {"ios": "https://dc.lft.to/lastmile_qr_scan", "android": "https://dc.lft.to/lastmile_qr_scan"}, "type": "electric_scooter", "name": "a7f7391e7fd7130560346ab2b28621b8", "is_reserved": 0, "lon": -76.98339433333334, "is_disabled": 0, "fusion_lat": 0.0, "lat": 38.89546683333333, "bike_id": "a7f7391e7fd7130560346ab2b28621b8", "fusion_lon": 0.0}, {"rental_uris": {"ios": "https://dc.lft.to/lastmile_qr_scan", "android": "https://dc.lft.to/lastmile_qr_scan"}, "type": "electric_scooter", "name": "29716c55c3b9079b5aaf2e62e285d7c4", "is_reserved": 0, "lon": -77.03109316666666, "is_disabled": 0, "fusion_lat": 0.0, "lat": 38.917047, "bike_id": "29716c55c3b9079b5aaf2e62e285d7c4", "fusion_lon": 0.0}, {"rental_uris": {"ios": "https://dc.lft.to/lastmile_qr_scan", "android": "https://dc.lft.to/lastmile_qr_scan"}, "type": "electric_scooter", "name": "f574c554a79ec9bc4a7fa83ff6ea5534", "is_reserved": 0, "lon": -76.98445466666666, "is_disabled": 0, "fusion_lat": 0.0, "lat": 38.91463316666667, "bike_id": "f574c554a79ec9bc4a7fa83ff6ea5534", "fusion_lon": 0.0}, {"rental_uris": {"ios": "https://dc.lft.to/lastmile_qr_scan", "android": "https://dc.lft.to/lastmile_qr_scan"}, "type": "electric_scooter", "name": "e8ec3c1d4e81bbc948f5cb708cd7fb50", "is_reserved": 0, "lon": -77.02305533333333, "is_disabled": 0, "fusion_lat": 0.0, "lat": 38.916101833333336, "bike_id": "e8ec3c1d4e81bbc948f5cb708cd7fb50", "fusion_lon": 0.0}, {"rental_uris": {"ios": "https://dc.lft.to/lastmile_qr_scan", "android": "https://dc.lft.to/lastmile_qr_scan"}, "type": "electric_scooter", "name": "8a7277086e02ba769f5c1459b8e1f210", "is_reserved": 0, "lon": -77.03349683333333, "is_disabled": 0, "fusion_lat": 0.0, "lat": 38.923495833333334, "bike_id": "8a7277086e02ba769f5c1459b8e1f210", "fusion_lon": 0.0}, {"rental_uris": {"ios": "https://dc.lft.to/lastmile_qr_scan", "android": "https://dc.lft.to/lastmile_qr_scan"}, "type": "electric_scooter", "name": "8c247db23674ed8c5ad032f1ddfde863", "is_reserved": 0, "lon": -77.02096916666666, "is_disabled": 0, "fusion_lat": 0.0, "lat": 38.93008833333333, "bike_id": "8c247db23674ed8c5ad032f1ddfde863", "fusion_lon": 0.0}, {"rental_uris": {"ios": "https://dc.lft.to/lastmile_qr_scan", "android": "https://dc.lft.to/lastmile_qr_scan"}, "type": "electric_scooter", "name": "4f9cc6150efd7a22fb1e162c2ba0e382", "is_reserved": 0, "lon": -77.043264, "is_disabled": 0, "fusion_lat": 0.0, "lat": 38.93418666666667, "bike_id": "4f9cc6150efd7a22fb1e162c2ba0e382", "fusion_lon": 0.0}, {"rental_uris": {"ios": "https://dc.lft.to/lastmile_qr_scan", "android": "https://dc.lft.to/lastmile_qr_scan"}, "type": "electric_scooter", "name": "005530456839a29e625093c5318b908f", "is_reserved": 0, "lon": -77.0486505, "is_disabled": 0, "fusion_lat": 0.0, "lat": 38.91263983333333, "bike_id": "005530456839a29e625093c5318b908f", "fusion_lon": 0.0}, {"rental_uris": {"ios": "https://dc.lft.to/lastmile_qr_scan", "android": "https://dc.lft.to/lastmile_qr_scan"}, "type": "electric_scooter", "name": "7dd9c878dcd4293156e6f0705843de65", "is_reserved": 0, "lon": -77.04891483333333, "is_disabled": 0, "fusion_lat": 0.0, "lat": 38.91053733333333, "bike_id": "7dd9c878dcd4293156e6f0705843de65", "fusion_lon": 0.0}, {"rental_uris": {"ios": "https://dc.lft.to/lastmile_qr_scan", "android": "https://dc.lft.to/lastmile_qr_scan"}, "type": "electric_scooter", "name": "cbc7666708371c1b853f71bef575ee7d", "is_reserved": 0, "lon": -77.06386433333333, "is_disabled": 0, "fusion_lat": 0.0, "lat": 38.94504166666667, "bike_id": "cbc7666708371c1b853f71bef575ee7d", "fusion_lon": 0.0}, {"rental_uris": {"ios": "https://dc.lft.to/lastmile_qr_scan", "android": "https://dc.lft.to/lastmile_qr_scan"}, "type": "electric_scooter", "name": "eac1e6b01066cdc03b82826733dc4f42", "is_reserved": 0, "lon": -76.983756, "is_disabled": 0, "fusion_lat": 0.0, "lat": 38.891411833333336, "bike_id": "eac1e6b01066cdc03b82826733dc4f42", "fusion_lon": 0.0}, {"rental_uris": {"ios": "https://dc.lft.to/lastmile_qr_scan", "android": "https://dc.lft.to/lastmile_qr_scan"}, "type": "electric_scooter", "name": "c4042aad79b47f5448d8bc25b43a900a", "is_reserved": 0, "lon": -77.02047916666666, "is_disabled": 0, "fusion_lat": 0.0, "lat": 38.899707666666664, "bike_id": "c4042aad79b47f5448d8bc25b43a900a", "fusion_lon": 0.0}, {"rental_uris": {"ios": "https://dc.lft.to/lastmile_qr_scan", "android": "https://dc.lft.to/lastmile_qr_scan"}, "type": "electric_bike", "name": "7252fbffe1c55e80045a69bf0dcc5f69", "is_reserved": 0, "lon": -76.945589, "is_disabled": 0, "fusion_lat": 0.0, "lat": 38.98301166666667, "bike_id": "7252fbffe1c55e80045a69bf0dcc5f69", "fusion_lon": 0.0}, {"rental_uris": {"ios": "https://dc.lft.to/lastmile_qr_scan", "android": "https://dc.lft.to/lastmile_qr_scan"}, "type": "electric_scooter", "name": "723eca1c000fffbbe6743de214c367c8", "is_reserved": 0, "lon": -77.03209216666667, "is_disabled": 0, "fusion_lat": 0.0, "lat": 38.90715133333333, "bike_id": "723eca1c000fffbbe6743de214c367c8", "fusion_lon": 0.0}, {"rental_uris": {"ios": "https://dc.lft.to/lastmile_qr_scan", "android": "https://dc.lft.to/lastmile_qr_scan"}, "type": "electric_scooter", "name": "00a280107ae9d5cd6f2f7ad57d270988", "is_reserved": 0, "lon": -77.017556, "is_disabled": 0, "fusion_lat": 0.0, "lat": 38.876914666666664, "bike_id": "00a280107ae9d5cd6f2f7ad57d270988", "fusion_lon": 0.0}, {"rental_uris": {"ios": "https://dc.lft.to/lastmile_qr_scan", "android": "https://dc.lft.to/lastmile_qr_scan"}, "type": "electric_scooter", "name": "00f0b0c90b2496f520053131cc2d4021", "is_reserved": 0, "lon": -77.0449675, "is_disabled": 0, "fusion_lat": 0.0, "lat": 38.897526166666665, "bike_id": "00f0b0c90b2496f520053131cc2d4021", "fusion_lon": 0.0}, {"rental_uris": {"ios": "https://dc.lft.to/lastmile_qr_scan", "android": "https://dc.lft.to/lastmile_qr_scan"}, "type": "electric_scooter", "name": "61d629e349821d4353b4f97643b5828d", "is_reserved": 0, "lon": -77.003481, "is_disabled": 0, "fusion_lat": 0.0, "lat": 38.877128166666665, "bike_id": "61d629e349821d4353b4f97643b5828d", "fusion_lon": 0.0}, {"rental_uris": {"ios": "https://dc.lft.to/lastmile_qr_scan", "android": "https://dc.lft.to/lastmile_qr_scan"}, "type": "electric_bike", "name": "2c87f5cf7cc89da62ca6206e36694795", "is_reserved": 0, "lon": -77.00772066666667, "is_disabled": 0, "fusion_lat": 0.0, "lat": 38.997857, "bike_id": "2c87f5cf7cc89da62ca6206e36694795", "fusion_lon": 0.0}, {"rental_uris": {"ios": "https://dc.lft.to/lastmile_qr_scan", "android": "https://dc.lft.to/lastmile_qr_scan"}, "type": "electric_scooter", "name": "d2b7f9ae82caffabec642a03d7de0556", "is_reserved": 0, "lon": -77.00320533333333, "is_disabled": 0, "fusion_lat": 0.0, "lat": 38.91341516666667, "bike_id": "d2b7f9ae82caffabec642a03d7de0556", "fusion_lon": 0.0}, {"rental_uris": {"ios": "https://dc.lft.to/lastmile_qr_scan", "android": "https://dc.lft.to/lastmile_qr_scan"}, "type": "electric_bike", "name": "ed9add2d94061ab025322cf06ef600f4", "is_reserved": 0, "lon": -76.95250483333334, "is_disabled": 0, "fusion_lat": 0.0, "lat": 38.8846525, "bike_id": "ed9add2d94061ab025322cf06ef600f4", "fusion_lon": 0.0}, {"rental_uris": {"ios": "https://dc.lft.to/lastmile_qr_scan", "android": "https://dc.lft.to/lastmile_qr_scan"}, "type": "electric_scooter", "name": "c66ef387a0d49b1ef4d5be476ea2aa64", "is_reserved": 0, "lon": -77.0966565, "is_disabled": 0, "fusion_lat": 0.0, "lat": 38.91764583333333, "bike_id": "c66ef387a0d49b1ef4d5be476ea2aa64", "fusion_lon": 0.0}, {"rental_uris": {"ios": "https://dc.lft.to/lastmile_qr_scan", "android": "https://dc.lft.to/lastmile_qr_scan"}, "type": "electric_scooter", "name": "b724df71d54c3ccfe3e7b7532ad9cd32", "is_reserved": 0, "lon": -77.0347195, "is_disabled": 0, "fusion_lat": 0.0, "lat": 38.908417666666665, "bike_id": "b724df71d54c3ccfe3e7b7532ad9cd32", "fusion_lon": 0.0}, {"rental_uris": {"ios": "https://dc.lft.to/lastmile_qr_scan", "android": "https://dc.lft.to/lastmile_qr_scan"}, "type": "electric_scooter", "name": "dde9dcd59e1c74f7493e02063e74834f", "is_reserved": 0, "lon": -76.99159266666666, "is_disabled": 0, "fusion_lat": 0.0, "lat": 38.888172833333336, "bike_id": "dde9dcd59e1c74f7493e02063e74834f", "fusion_lon": 0.0}, {"rental_uris": {"ios": "https://dc.lft.to/lastmile_qr_scan", "android": "https://dc.lft.to/lastmile_qr_scan"}, "type": "electric_scooter", "name": "ddd464d0e303d9dad3db5ca840322d12", "is_reserved": 0, "lon": -77.00077016666667, "is_disabled": 0, "fusion_lat": 0.0, "lat": 38.874426666666665, "bike_id": "ddd464d0e303d9dad3db5ca840322d12", "fusion_lon": 0.0}, {"rental_uris": {"ios": "https://dc.lft.to/lastmile_qr_scan", "android": "https://dc.lft.to/lastmile_qr_scan"}, "type": "electric_scooter", "name": "e2257bfd9e2d01656a71b8fb14d093e1", "is_reserved": 0, "lon": -76.99386916666667, "is_disabled": 0, "fusion_lat": 0.0, "lat": 38.893401, "bike_id": "e2257bfd9e2d01656a71b8fb14d093e1", "fusion_lon": 0.0}, {"rental_uris": {"ios": "https://dc.lft.to/lastmile_qr_scan", "android": "https://dc.lft.to/lastmile_qr_scan"}, "type": "electric_scooter", "name": "82471fd349e474da9d2cc8835ac6f2dd", "is_reserved": 0, "lon": -77.010243, "is_disabled": 0, "fusion_lat": 0.0, "lat": 38.914094666666664, "bike_id": "82471fd349e474da9d2cc8835ac6f2dd", "fusion_lon": 0.0}, {"rental_uris": {"ios": "https://dc.lft.to/lastmile_qr_scan", "android": "https://dc.lft.to/lastmile_qr_scan"},