{"data": {"bikes": [{"fusion_lat": 0.0, "name": "cace18d842fbda21ff963ab889163cc5", "is_disabled": 0, "rental_uris": {"android": "https://dc.lft.to/lastmile_qr_scan", "ios": "https://dc.lft.to/lastmile_qr_scan"}, "fusion_lon": 0.0, "lat": 38.898735, "bike_id": "cace18d842fbda21ff963ab889163cc5", "type": "electric_scooter", "is_reserved": 0, "lon": -77.02829483333333}, {"fusion_lat": 0.0, "name": "e0f9eb69eedbdc204cea0fd6e8316046", "is_disabled": 0, "rental_uris": {"android": "https://dc.lft.to/lastmile_qr_scan", "ios": "https://dc.lft.to/lastmile_qr_scan"}, "fusion_lon": 0.0, "lat": 38.92401666666667, "bike_id": "e0f9eb69eedbdc204cea0fd6e8316046", "type": "electric_scooter", "is_reserved": 0, "lon": -77.02409366666667}, {"fusion_lat": 0.0, "name": "5b0c04cb1a2e0242a847a02ea10649c4", "is_disabled": 0, "rental_uris": {"android": "https://dc.lft.to/lastmile_qr_scan", "ios": "https://dc.lft.to/lastmile_qr_scan"}, "fusion_lon": 0.0, "lat": 38.90459766666667, "bike_id": "5b0c04cb1a2e0242a847a02ea10649c4", "type": "electric_scooter", "is_reserved": 0, "lon": -77.03357266666667}, {"fusion_lat": 0.0, "name": "fb68c493707662bfe9eca3d854292962", "is_disabled": 0, "rental_uris": {"android": "https://dc.lft.to/lastmile_qr_scan", "ios": "https://dc.lft.to/lastmile_qr_scan"}, "fusion_lon": 0.0, "lat": 38.93270016666666, "bike_id": "fb68c493707662bfe9eca3d854292962", "type": "electric_scooter", "is_reserved": 0, "lon": -77.0209505}, {"fusion_lat": 0.0, "name": "2aaf28033b157961e3f96b579f0e0cb7", "is_disabled": 0, "rental_uris": {"android": "https://dc.lft.to/lastmile_qr_scan", "ios": "https://dc.lft.to/lastmile_qr_scan"}, "fusion_lon": 0.0, "lat": 38.884224833333334, "bike_id": "2aaf28033b157961e3f96b579f0e0cb7", "type": "electric_scooter", "is_reserved": 0, "lon": -77.02560966666667}, {"fusion_lat": 0.0, "name": "70e12e8af36a71448f7a347d5da81c58", "is_disabled": 0, "rental_uris": {"android": "https://dc.lft.to/lastmile_qr_scan", "ios": "https://dc.lft.to/lastmile_qr_scan"}, "fusion_lon": 0.0, "lat": 38.91716066666667, "bike_id": "70e12e8af36a71448f7a347d5da81c58", "type": "electric_scooter", "is_reserved": 0, "lon": -77.03662066666666}, {"fusion_lat": 0.0, "name": "d9abfabe2d99eefd73f2ab52db58563f", "is_disabled": 0, "rental_uris": {"android": "https://dc.lft.to/lastmile_qr_scan", "ios": "https://dc.lft.to/lastmile_qr_scan"}, "fusion_lon": 0.0, "lat": 38.905197, "bike_id": "d9abfabe2d99eefd73f2ab52db58563f", "type": "electric_scooter", "is_reserved": 0, "lon": -77.0687485}, {"fusion_lat": 0.0, "name": "abf18a7b03fafe082c03ca61e9061001", "is_disabled": 0, "rental_uris": {"android": "https://dc.lft.to/lastmile_qr_scan", "ios": "https://dc.lft.to/lastmile_qr_scan"}, "fusion_lon": 0.0, "lat": 38.913678166666664, "bike_id": "abf18a7b03fafe082c03ca61e9061001", "type": "electric_scooter", "is_reserved": 0, "lon": -77.0487605}, {"fusion_lat": 0.0, "name": "9abd4fd458e5c4112f6dc52d8907dcbc", "is_disabled": 0, "rental_uris": {"android": "https://dc.lft.to/lastmile_qr_scan", "ios": "https://dc.lft.to/lastmile_qr_scan"}, "fusion_lon": 0.0, "lat": 38.933835, "bike_id": "9abd4fd458e5c4112f6dc52d8907dcbc", "type": "electric_scooter", "is_reserved": 0, "lon": -77.02684666666667}, {"fusion_lat": 0.0, "name": "2c4012ee30a277a851ab090b857c2e91", "is_disabled": 0, "rental_uris": {"android": "https://dc.lft.to/lastmile_qr_scan", "ios": "https://dc.lft.to/lastmile_qr_scan"}, "fusion_lon": 0.0, "lat": 38.919745666666664, "bike_id": "2c4012ee30a277a851ab090b857c2e91", "type": "electric_scooter", "is_reserved": 0, "lon": -77.02493216666667}, {"fusion_lat": 0.0, "name": "ee87ca2251f1c92c62670bca34cd71b1", "is_disabled": 0, "rental_uris": {"android": "https://dc.lft.to/lastmile_qr_scan", "ios": "https://dc.lft.to/lastmile_qr_scan"}, "fusion_lon": 0.0, "lat": 38.898617, "bike_id": "ee87ca2251f1c92c62670bca34cd71b1", "type": "electric_scooter", "is_reserved": 0, "lon": -76.946377}, {"fusion_lat": 0.0, "name": "1fc3ab462243d1ab71d545232d89010f", "is_disabled": 0, "rental_uris": {"android": "https://dc.lft.to/lastmile_qr_scan", "ios": "https://dc.lft.to/lastmile_qr_scan"}, "fusion_lon": 0.0, "lat": 38.917068666666665, "bike_id": "1fc3ab462243d1ab71d545232d89010f", "type": "electric_scooter", "is_reserved": 0, "lon": -77.02753583333333}, {"fusion_lat": 0.0, "name": "05491ac2dc944102505d7bf297fc5417", "is_disabled": 0, "rental_uris": {"android": "https://dc.lft.to/lastmile_qr_scan", "ios": "https://dc.lft.to/lastmile_qr_scan"}, "fusion_lon": 0.0, "lat": 38.912644, "bike_id": "05491ac2dc944102505d7bf297fc5417", "type": "electric_scooter", "is_reserved": 0, "lon": -77.0491945}, {"fusion_lat": 0.0, "name": "ba0cbd4b3c81695f474718c6ffd3c059", "is_disabled": 0, "rental_uris": {"android": "https://dc.lft.to/lastmile_qr_scan", "ios": "https://dc.lft.to/lastmile_qr_scan"}, "fusion_lon": 0.0, "lat": 38.890124166666666, "bike_id": "ba0cbd4b3c81695f474718c6ffd3c059", "type": "electric_scooter", "is_reserved": 0, "lon": -76.9374525}, {"fusion_lat": 0.0, "name": "fff6cc81f735424be2d74524cca05b1f", "is_disabled": 0, "rental_uris": {"android": "https://dc.lft.to/lastmile_qr_scan", "ios": "https://dc.lft.to/lastmile_qr_scan"}, "fusion_lon": 0.0, "lat": 39.05635183333333, "bike_id": "fff6cc81f735424be2d74524cca05b1f", "type": "electric_bike", "is_reserved": 0, "lon": -77.12526916666667}, {"fusion_lat": 0.0, "name": "ffec4469d4ca1b46a29684db57e05d62", "is_disabled": 0, "rental_uris": {"android": "https://dc.lft.to/lastmile_qr_scan", "ios": "https://dc.lft.to/lastmile_qr_scan"}, "fusion_lon": 0.0, "lat": 38.91027583333333, "bike_id": "ffec4469d4ca1b46a29684db57e05d62", "type": "electric_scooter", "is_reserved": 0, "lon": -77.01513966666667}, {"fusion_lat": 0.0, "name": "157272797acf92911ceadb6764d9acbc", "is_disabled": 0, "rental_uris": {"android": "https://dc.lft.to/lastmile_qr_scan", "ios": "https://dc.lft.to/lastmile_qr_scan"}, "fusion_lon": 0.0, "lat": 38.9141525, "bike_id": "157272797acf92911ceadb6764d9acbc", "type": "electric_scooter", "is_reserved": 0, "lon": -77.02213916666666}, {"fusion_lat": 0.0, "name": "bddcb998c5f9cf92c88cad6e8ed3dc69", "is_disabled": 0, "rental_uris": {"android": "https://dc.lft.to/lastmile_qr_scan", "ios": "https://dc.lft.to/lastmile_qr_scan"}, "fusion_lon": 0.0, "lat": 38.907085, "bike_id": "bddcb998c5f9cf92c88cad6e8ed3dc69", "type": "electric_scooter", "is_reserved": 0, "lon": -77.02395916666667}, {"fusion_lat": 0.0, "name": "125578ad4187620bb09081bfa3ef2046", "is_disabled": 0, "rental_uris": {"android": "https://dc.lft.to/lastmile_qr_scan", "ios": "https://dc.lft.to/lastmile_qr_scan"}, "fusion_lon": 0.0, "lat": 38.904084833333336, "bike_id": "125578ad4187620bb09081bfa3ef2046", "type": "electric_scooter", "is_reserved": 0, "lon": -76.97328433333334}, {"fusion_lat": 0.0, "name": "4f65f4e9ac569212371805876850b096", "is_disabled": 0, "rental_uris": {"android": "https://dc.lft.to/lastmile_qr_scan", "ios": "https://dc.lft.to/lastmile_qr_scan"}, "fusion_lon": 0.0, "lat": 38.95598733333333, "bike_id": "4f65f4e9ac569212371805876850b096", "type": "electric_bike", "is_reserved": 0, "lon": -77.01005066666667}, {"fusion_lat": 0.0, "name": "6bdd55904410171a37b5007c8c9213c0", "is_disabled": 0, "rental_uris": {"android": "https://dc.lft.to/lastmile_qr_scan", "ios": "https://dc.lft.to/lastmile_qr_scan"}, "fusion_lon": 0.0, "lat": 38.897385, "bike_id": "6bdd55904410171a37b5007c8c9213c0", "type": "electric_scooter", "is_reserved": 0, "lon": -77.0440315}, {"fusion_lat": 0.0, "name": "3858df754394a97a7697b206e8ea6555", "is_disabled": 0, "rental_uris": {"android": "https://dc.lft.to/lastmile_qr_scan", "ios": "https://dc.lft.to/lastmile_qr_scan"}, "fusion_lon": 0.0, "lat": 38.9105115, "bike_id": "3858df754394a97a7697b206e8ea6555", "type": "electric_scooter", "is_reserved": 0, "lon": -77.05320816666666}, {"fusion_lat": 0.0, "name": "c3904b954909eb6e9610b41c9efae55b", "is_disabled": 0, "rental_uris": {"android": "https://dc.lft.to/lastmile_qr_scan", "ios": "https://dc.lft.to/lastmile_qr_scan"}, "fusion_lon": 0.0, "lat": 38.91695266666667, "bike_id": "c3904b954909eb6e9610b41c9efae55b", "type": "electric_scooter", "is_reserved": 0, "lon": -77.0358575}, {"fusion_lat": 0.0, "name": "bbbcc2efd732708be35dac9688734dff", "is_disabled": 0, "rental_uris": {"android": "https://dc.lft.to/lastmile_qr_scan", "ios": "https://dc.lft.to/lastmile_qr_scan"}, "fusion_lon": 0.0, "lat": 38.941561166666666, "bike_id": "bbbcc2efd732708be35dac9688734dff", "type": "electric_bike", "is_reserved": 0, "lon": -77.00199533333333}, {"fusion_lat": 0.0, "name": "d85c18cdb4a3dec07fade713813b366a", "is_disabled": 0, "rental_uris": {"android": "https://dc.lft.to/lastmile_qr_scan", "ios": "https://dc.lft.to/lastmile_qr_scan"}, "fusion_lon": 0.0, "lat": 38.872421333333335, "bike_id": "d85c18cdb4a3dec07fade713813b366a", "type": "electric_scooter", "is_reserved": 0, "lon": -76.9772305}, {"fusion_lat": 0.0, "name": "b4f708e2967eb102e1ab4804a3764e68", "is_disabled": 0, "rental_uris": {"android": "https://dc.lft.to/lastmile_qr_scan", "ios": "https://dc.lft.to/lastmile_qr_scan"}, "fusion_lon": 0.0, "lat": 38.98773333333333, "bike_id": "b4f708e2967eb102e1ab4804a3764e68", "type": "electric_bike", "is_reserved": 0, "lon": -77.140563}, {"fusion_lat": 0.0, "name": "f7cf3a567b4ac12fee33b7cffeb4b0e8", "is_disabled": 0, "rental_uris": {"android": "https://dc.lft.to/lastmile_qr_scan", "ios": "https://dc.lft.to/lastmile_qr_scan"}, "fusion_lon": 0.0, "lat": 38.929138, "bike_id": "f7cf3a567b4ac12fee33b7cffeb4b0e8", "type": "electric_scooter", "is_reserved": 0, "lon": -77.032713}, {"fusion_lat": 0.0, "name": "e9f3a3c27aa99e8c4f7db065b5f8d28c", "is_disabled": 0, "rental_uris": {"android": "https://dc.lft.to/lastmile_qr_scan", "ios": "https://dc.lft.to/lastmile_qr_scan"}, "fusion_lon": 0.0, "lat": 38.9177535, "bike_id": "e9f3a3c27aa99e8c4f7db065b5f8d28c", "type": "electric_scooter", "is_reserved": 0, "lon": -77.02286033333333}, {"fusion_lat": 0.0, "name": "92eada1d4d239838ba4a1dbcd4197aa4", "is_disabled": 0, "rental_uris": {"android": "https://dc.lft.to/lastmile_qr_scan", "ios": "https://dc.lft.to/lastmile_qr_scan"}, "fusion_lon": 0.0, "lat": 38.93115983333333, "bike_id": "92eada1d4d239838ba4a1dbcd4197aa4", "type": "electric_scooter", "is_reserved": 0, "lon": -77.021349}, {"fusion_lat": 0.0, "name": "4a4e370d40c09d0271cc9c4992c88fec", "is_disabled": 0, "rental_uris": {"android": "https://dc.lft.to/lastmile_qr_scan", "ios": "https://dc.lft.to/lastmile_qr_scan"}, "fusion_lon": 0.0, "lat": 38.934285833333334, "bike_id": "4a4e370d40c09d0271cc9c4992c88fec", "type": "electric_scooter", "is_reserved": 0, "lon": -77.040001}, {"fusion_lat": 0.0, "name": "1e6d8e1d967445ec4520bcccfda39d27", "is_disabled": 0, "rental_uris": {"android": "https://dc.lft.to/lastmile_qr_scan", "ios": "https://dc.lft.to/lastmile_qr_scan"}, "fusion_lon": 0.0, "lat": 38.92356183333333, "bike_id": "1e6d8e1d967445ec4520bcccfda39d27", "type": "electric_scooter", "is_reserved": 0, "lon": -77.03474283333334}, {"fusion_lat": 0.0, "name": "036c873d064fa4dc76af3be6d6789ff8", "is_disabled": 0, "rental_uris": {"android": "https://dc.lft.to/lastmile_qr_scan", "ios": "https://dc.lft.to/lastmile_qr_scan"}, "fusion_lon": 0.0, "lat": 38.927893, "bike_id": "036c873d064fa4dc76af3be6d6789ff8", "type": "electric_scooter", "is_reserved": 0, "lon": -77.03149733333333}, {"fusion_lat": 0.0, "name": "e950e7e1e7a0a1eff0d9ba7606317e90", "is_disabled": 0, "rental_uris": {"android": "https://dc.lft.to/lastmile_qr_scan", "ios": "https://dc.lft.to/lastmile_qr_scan"}, "fusion_lon": 0.0, "lat": 38.92792566666667, "bike_id": "e950e7e1e7a0a1eff0d9ba7606317e90", "type": "electric_scooter", "is_reserved": 0, "lon": -77.02587983333333}, {"fusion_lat": 0.0, "name": "7903a2194f8e0d45ce2a7b8d15304151", "is_disabled": 0, "rental_uris": {"android": "https://dc.lft.to/lastmile_qr_scan", "ios": "https://dc.lft.to/lastmile_qr_scan"}, "fusion_lon": 0.0, "lat": 38.928701, "bike_id": "7903a2194f8e0d45ce2a7b8d15304151", "type": "electric_scooter", "is_reserved": 0, "lon": -77.03369316666667}, {"fusion_lat": 0.0, "name": "e9572b700d26e6dde2bb871b2d2a531f", "is_disabled": 0, "rental_uris": {"android": "https://dc.lft.to/lastmile_qr_scan", "ios": "https://dc.lft.to/lastmile_qr_scan"}, "fusion_lon": 0.0, "lat": 38.88951, "bike_id": "e9572b700d26e6dde2bb871b2d2a531f", "type": "electric_scooter", "is_reserved": 0, "lon": -76.99162}, {"fusion_lat": 0.0, "name": "a5b15a6c662f7027676c66f8f48eb71c", "is_disabled": 0, "rental_uris": {"android": "https://dc.lft.to/lastmile_qr_scan", "ios": "https://dc.lft.to/lastmile_qr_scan"}, "fusion_lon": 0.0, "lat": 38.90503616666667, "bike_id": "a5b15a6c662f7027676c66f8f48eb71c", "type": "electric_scooter", "is_reserved": 0, "lon": -77.0612325}, {"fusion_lat": 0.0, "name": "b92099ae5162c0980e8517713e2ad453", "is_disabled": 0, "rental_uris": {"android": "https://dc.lft.to/lastmile_qr_scan", "ios": "https://dc.lft.to/lastmile_qr_scan"}, "fusion_lon": 0.0, "lat": 38.905736166666664, "bike_id": "b92099ae5162c0980e8517713e2ad453", "type": "electric_scooter", "is_reserved": 0, "lon": -77.02654866666667}, {"fusion_lat": 0.0, "name": "4a2a6bccf1668a609d85954a2159df84", "is_disabled": 0, "rental_uris": {"android": "https://dc.lft.to/lastmile_qr_scan", "ios": "https://dc.lft.to/lastmile_qr_scan"}, "fusion_lon": 0.0, "lat": 38.91120183333334, "bike_id": "4a2a6bccf1668a609d85954a2159df84", "type": "electric_scooter", "is_reserved": 0, "lon": -77.04230266666667}, {"fusion_lat": 0.0, "name": "bb82a0ae1d9ed89ef2b3a96bff3f7881", "is_disabled": 0, "rental_uris": {"android": "https://dc.lft.to/lastmile_qr_scan", "ios": "https://dc.lft.to/lastmile_qr_scan"}, "fusion_lon": 0.0, "lat": 38.938727666666665, "bike_id": "bb82a0ae1d9ed89ef2b3a96bff3f7881", "type": "electric_scooter", "is_reserved": 0, "lon": -77.02918583333333}, {"fusion_lat": 0.0, "name": "b379c15707b490d643a72a69bc6c8a96", "is_disabled": 0, "rental_uris": {"android": "https://dc.lft.to/lastmile_qr_scan", "ios": "https://dc.lft.to/lastmile_qr_scan"}, "fusion_lon": 0.0, "lat": 38.927508333333336, "bike_id": "b379c15707b490d643a72a69bc6c8a96", "type": "electric_scooter", "is_reserved": 0, "lon": -77.02429883333333}, {"fusion_lat": 0.0, "name": "cadc967de5197b692b6d0b5a54422a80", "is_disabled": 0, "rental_uris": {"android": "https://dc.lft.to/lastmile_qr_scan", "ios": "https://dc.lft.to/lastmile_qr_scan"}, "fusion_lon": 0.0, "lat": 39.0525605, "bike_id": "cadc967de5197b692b6d0b5a54422a80", "type": "electric_bike", "is_reserved": 0, "lon": -77.0806755}, {"fusion_lat": 0.0, "name": "01a19c56b47b3591f7af137a0cfecc84", "is_disabled": 0, "rental_uris": {"android": "https://dc.lft.to/lastmile_qr_scan", "ios": "https://dc.lft.to/lastmile_qr_scan"}, "fusion_lon": 0.0, "lat": 38.899340333333335, "bike_id": "01a19c56b47b3591f7af137a0cfecc84", "type": "electric_scooter", "is_reserved": 0, "lon": -77.0036235}, {"fusion_lat": 0.0, "name": "017c104a63c22117320e943ac249d152", "is_disabled": 0, "rental_uris": {"android": "https://dc.lft.to/lastmile_qr_scan", "ios": "https://dc.lft.to/lastmile_qr_scan"}, "fusion_lon": 0.0, "lat": 38.883374833333335, "bike_id": "017c104a63c22117320e943ac249d152", "type": "electric_scooter", "is_reserved": 0, "lon": -77.01770633333334}, {"fusion_lat": 0.0, "name": "3a78e8c452d2c0ecf58fd19b98a23daf", "is_disabled": 0, "rental_uris": {"android": "https://dc.lft.to/lastmile_qr_scan", "ios": "https://dc.lft.to/lastmile_qr_scan"}, "fusion_lon": 0.0, "lat": 38.89227483333333, "bike_id": "3a78e8c452d2c0ecf58fd19b98a23daf", "type": "electric_scooter", "is_reserved": 0, "lon": -77.024095}, {"fusion_lat": 0.0, "name": "caa578173f2dfd8737de1eb2e5edcbc1", "is_disabled": 0, "rental_uris": {"android": "https://dc.lft.to/lastmile_qr_scan", "ios": "https://dc.lft.to/lastmile_qr_scan"}, "fusion_lon": 0.0, "lat": 38.908161166666666, "bike_id": "caa578173f2dfd8737de1eb2e5edcbc1", "type": "electric_scooter", "is_reserved": 0, "lon": -77.03436766666667}, {"fusion_lat": 0.0, "name": "049d85cb8ea125db70a507c166e2ba4d", "is_disabled": 0, "rental_uris": {"android": "https://dc.lft.to/lastmile_qr_scan", "ios": "https://dc.lft.to/lastmile_qr_scan"}, "fusion_lon": 0.0, "lat": 38.9124965, "bike_id": "049d85cb8ea125db70a507c166e2ba4d", "type": "electric_scooter", "is_reserved": 0, "lon": -77.00151133333334}, {"fusion_lat": 0.0, "name": "97c6426e450cfa0247302e295deb4844", "is_disabled": 0, "rental_uris": {"android": "https://dc.lft.to/lastmile_qr_scan", "ios": "https://dc.lft.to/lastmile_qr_scan"}, "fusion_lon": 0.0, "lat": 38.93524016666667, "bike_id": "97c6426e450cfa0247302e295deb4844", "type": "electric_scooter", "is_reserved": 0, "lon": -77.07262216666666}, {"fusion_lat": 0.0, "name": "26eb40f31acd851dc302d5a7c67ac154", "is_disabled": 0, "rental_uris": {"android": "https://dc.lft.to/lastmile_qr_scan", "ios": "https://dc.lft.to/lastmile_qr_scan"}, "fusion_lon": 0.0, "lat": 38.8987405, "bike_id": "26eb40f31acd851dc302d5a7c67ac154", "type": "electric_scooter", "is_reserved": 0, "lon": -76.9318755}, {"fusion_lat": 0.0, "name": "d0cbb753559ddce12270f87b6ff24bf7", "is_disabled": 0, "rental_uris": {"android": "https://dc.lft.to/lastmile_qr_scan", "ios": "https://dc.lft.to/lastmile_qr_scan"}, "fusion_lon": 0.0, "lat": 38.8718085, "bike_id": "d0cbb753559ddce12270f87b6ff24bf7", "type": "electric_scooter", "is_reserved": 0, "lon": -77.0061375}, {"fusion_lat": 0.0, "name": "fc0d163013c53280a47dfa3ad531b48e", "is_disabled": 0, "rental_uris": {"android": "https://dc.lft.to/lastmile_qr_scan", "ios": "https://dc.lft.to/lastmile_qr_scan"}, "fusion_lon": 0.0, "lat": 38.862443, "bike_id": "fc0d163013c53280a47dfa3ad531b48e", "type": "electric_scooter", "is_reserved": 0, "lon": -76.99498833333334}, {"fusion_lat": 0.0, "name": "7289462648425d548aadea8c3313683c", "is_disabled": 0, "rental_uris": {"android": "https://dc.lft.to/lastmile_qr_scan", "ios": "https://dc.lft.to/lastmile_qr_scan"}, "fusion_lon": 0.0, "lat": 38.883217333333334, "bike_id": "7289462648425d548aadea8c3313683c", "type": "electric_scooter", "is_reserved": 0, "lon": -77.0173275}, {"fusion_lat": 0.0, "name": "6d5149dd34cbc532dd66cf27123e9498", "is_disabled": 0, "rental_uris": {"android": "https://dc.lft.to/lastmile_qr_scan", "ios": "https://dc.lft.to/lastmile_qr_scan"}, "fusion_lon": 0.0, "lat": 38.902660166666664, "bike_id": "6d5149dd34cbc532dd66cf27123e9498", "type": "electric_scooter", "is_reserved": 0, "lon": -77.0197435}, {"fusion_lat": 0.0, "name": "f3d255caf4fc2dc52ae71edaf8d5d5a0", "is_disabled": 0, "rental_uris": {"android": "https://dc.lft.to/lastmile_qr_scan", "ios": "https://dc.lft.to/lastmile_qr_scan"}, "fusion_lon": 0.0, "lat": 38.8962485, "bike_id": "f3d255caf4fc2dc52ae71edaf8d5d5a0", "type": "electric_scooter", "is_reserved": 0, "lon": -77.0092395}, {"fusion_lat": 0.0, "name": "e8c684ab7eefc3812f66117853f4bec3", "is_disabled": 0, "rental_uris": {"android": "https://dc.lft.to/lastmile_qr_scan", "ios": "https://dc.lft.to/lastmile_qr_scan"}, "fusion_lon": 0.0, "lat": 38.92251866666667, "bike_id": "e8c684ab7eefc3812f66117853f4bec3", "type": "electric_scooter", "is_reserved": 0, "lon": -77.02973066666667}, {"fusion_lat": 0.0, "name": "b3818bb31427da7b001922e02d8f7664", "is_disabled": 0, "rental_uris": {"android": "https://dc.lft.to/lastmile_qr_scan", "ios": "https://dc.lft.to/lastmile_qr_scan"}, "fusion_lon": 0.0, "lat": 38.91903516666667, "bike_id": "b3818bb31427da7b001922e02d8f7664", "type": "electric_scooter", "is_reserved": 0, "lon": -77.02754883333333}, {"fusion_lat": 0.0, "name": "3139d75aff3864fc33f29ad45b05ec7b", "is_disabled": 0, "rental_uris": {"android": "https://dc.lft.to/lastmile_qr_scan", "ios": "https://dc.lft.to/lastmile_qr_scan"}, "fusion_lon": 0.0, "lat": 38.918591, "bike_id": "3139d75aff3864fc33f29ad45b05ec7b", "type": "electric_scooter", "is_reserved": 0, "lon": -77.02707}, {"fusion_lat": 0.0, "name": "afef4c989d4ec72d54a565379edef053", "is_disabled": 0, "rental_uris": {"android": "https://dc.lft.to/lastmile_qr_scan", "ios": "https://dc.lft.to/lastmile_qr_scan"}, "fusion_lon": 0.0, "lat": 38.96812416666667, "bike_id": "afef4c989d4ec72d54a565379edef053", "type": "electric_bike", "is_reserved": 0, "lon": -76.95525566666667}, {"fusion_lat": 0.0, "name": "da3749107bda7448ab5299838f080ee7", "is_disabled": 0, "rental_uris": {"android": "https://dc.lft.to/lastmile_qr_scan", "ios": "https://dc.lft.to/lastmile_qr_scan"}, "fusion_lon": 0.0, "lat": 38.893013833333335, "bike_id": "da3749107bda7448ab5299838f080ee7", "type": "electric_scooter", "is_reserved": 0, "lon": -77.02143916666667}, {"fusion_lat": 0.0, "name": "b5127d625781bfc7f54ab1eac7340c91", "is_disabled": 0, "rental_uris": {"android": "https://dc.lft.to/lastmile_qr_scan", "ios": "https://dc.lft.to/lastmile_qr_scan"}, "fusion_lon": 0.0, "lat": 38.79470466666667, "bike_id": "b5127d625781bfc7f54ab1eac7340c91", "type": "electric_bike", "is_reserved": 0, "lon": -76.992487}, {"fusion_lat": 0.0, "name": "73bba939bb1702375afecf64b2b84da7", "is_disabled": 0, "rental_uris": {"android": "https://dc.lft.to/lastmile_qr_scan", "ios": "https://dc.lft.to/lastmile_qr_scan"}, "fusion_lon": 0.0, "lat": 38.92110233333333, "bike_id": "73bba939bb1702375afecf64b2b84da7", "type": "electric_scooter", "is_reserved": 0, "lon": -77.04695933333333}, {"fusion_lat": 0.0, "name": "051732c0f1d2608d29a470b065e8575a", "is_disabled": 0, "rental_uris": {"android": "https://dc.lft.to/lastmile_qr_scan", "ios": "https://dc.lft.to/lastmile_qr_scan"}, "fusion_lon": 0.0, "lat": 38.8979525, "bike_id": "051732c0f1d2608d29a470b065e8575a", "type": "electric_scooter", "is_reserved": 0, "lon": -77.04659616666666}, {"fusion_lat": 0.0, "name": "704705f67f2e32e9fe1e482b6ae77fb4", "is_disabled": 0, "rental_uris": {"android": "https://dc.lft.to/lastmile_qr_scan", "ios": "https://dc.lft.to/lastmile_qr_scan"}, "fusion_lon": 0.0, "lat": 38.90036216666667, "bike_id": "704705f67f2e32e9fe1e482b6ae77fb4", "type": "electric_scooter", "is_reserved": 0, "lon": -77.05825566666667}, {"fusion_lat": 0.0, "name": "974cb0d19302f66bb5c858d6f8f41cbb", "is_disabled": 0, "rental_uris": {"android": "https://dc.lft.to/lastmile_qr_scan", "ios": "https://dc.lft.to/lastmile_qr_scan"}, "fusion_lon": 0.0, "lat": 38.899057, "bike_id": "974cb0d19302f66bb5c858d6f8f41cbb", "type": "electric_scooter", "is_reserved": 0, "lon": -76.93349516666666}, {"fusion_lat": 0.0, "name": "05f9df24c62654f31677daafef9e1f91", "is_disabled": 0, "rental_uris": {"android": "https://dc.lft.to/lastmile_qr_scan", "ios": "https://dc.lft.to/lastmile_qr_scan"}, "fusion_lon": 0.0, "lat": 38.94839116666667, "bike_id": "05f9df24c62654f31677daafef9e1f91", "type": "electric_scooter", "is_reserved": 0, "lon": -77.02563833333333}, {"fusion_lat": 0.0, "name": "a8c3d79cc6c89acd7aa49847a09fbf75", "is_disabled": 0, "rental_uris": {"android": "https://dc.lft.to/lastmile_qr_scan", "ios": "https://dc.lft.to/lastmile_qr_scan"}, "fusion_lon": 0.0, "lat": 38.9004985, "bike_id": "a8c3d79cc6c89acd7aa49847a09fbf75", "type": "electric_scooter", "is_reserved": 0, "lon": -77.05610116666666}, {"fusion_lat": 0.0, "name": "4109a70f49127858ad4f3ad7183e2b33", "is_disabled": 0, "rental_uris": {"android": "https://dc.lft.to/lastmile_qr_scan", "ios": "https://dc.lft.to/lastmile_qr_scan"}, "fusion_lon": 0.0, "lat": 38.90745916666667, "bike_id": "4109a70f49127858ad4f3ad7183e2b33", "type": "electric_scooter", "is_reserved": 0, "lon": -77.063214}, {"fusion_lat": 0.0, "name": "c5f5229de0c64448be9a2e747ba4c5f3", "is_disabled": 0, "rental_uris": {"android": "https://dc.lft.to/lastmile_qr_scan", "ios": "https://dc.lft.to/lastmile_qr_scan"}, "fusion_lon": 0.0, "lat": 38.92678733333333, "bike_id": "c5f5229de0c64448be9a2e747ba4c5f3", "type": "electric_scooter", "is_reserved": 0, "lon": -77.0363445}, {"fusion_lat": 0.0, "name": "8a52187c2f787647976cb92008f0e66a", "is_disabled": 0, "rental_uris": {"android": "https://dc.lft.to/lastmile_qr_scan", "ios": "https://dc.lft.to/lastmile_qr_scan"}, "fusion_lon": 0.0, "lat": 38.9227685, "bike_id": "8a52187c2f787647976cb92008f0e66a", "type": "electric_scooter", "is_reserved": 0, "lon": -77.029676}, {"fusion_lat": 0.0, "name": "53c4f77fc2545b05f8391f19478ee48a", "is_disabled": 0, "rental_uris": {"android": "https://dc.lft.to/lastmile_qr_scan", "ios": "https://dc.lft.to/lastmile_qr_scan"}, "fusion_lon": 0.0, "lat": 38.896945, "bike_id": "53c4f77fc2545b05f8391f19478ee48a", "type": "electric_scooter", "is_reserved": 0, "lon": -77.04339116666667}, {"fusion_lat": 0.0, "name": "6e92e5593a3283ddc4524263518d76ac", "is_disabled": 0, "rental_uris": {"android": "https://dc.lft.to/lastmile_qr_scan", "ios": "https://dc.lft.to/lastmile_qr_scan"}, "fusion_lon": 0.0, "lat": 38.8900155, "bike_id": "6e92e5593a3283ddc4524263518d76ac", "type": "electric_scooter", "is_reserved": 0, "lon": -76.9374195}, {"fusion_lat": 0.0, "name": "a0664470dcf4bcc55e57cf9f37ad2fde", "is_disabled": 0, "rental_uris": {"android": "https://dc.lft.to/lastmile_qr_scan", "ios": "https://dc.lft.to/lastmile_qr_scan"}, "fusion_lon": 0.0, "lat": 38.874937, "bike_id": "a0664470dcf4bcc55e57cf9f37ad2fde", "type": "electric_bike", "is_reserved": 0, "lon": -77.21122966666667}, {"fusion_lat": 0.0, "name": "cc792076724cd22c1d4df3f7af8e042a", "is_disabled": 0, "rental_uris": {"android": "https://dc.lft.to/lastmile_qr_scan", "ios": "https://dc.lft.to/lastmile_qr_scan"}, "fusion_lon": 0.0, "lat": 38.961920166666665, "bike_id": "cc792076724cd22c1d4df3f7af8e042a", "type": "electric_bike", "is_reserved": 0, "lon": -77.052665}, {"fusion_lat": 0.0, "name": "3512120b733f069ccb4f3b0c43c577aa", "is_disabled": 0, "rental_uris": {"android": "https://dc.lft.to/lastmile_qr_scan", "ios": "https://dc.lft.to/lastmile_qr_scan"}, "fusion_lon": 0.0, "lat": 38.877522, "bike_id": "3512120b733f069ccb4f3b0c43c577aa", "type": "electric_scooter", "is_reserved": 0, "lon": -77.00264683333333}, {"fusion_lat": 0.0, "name": "7879afa2ef5edd85c89a774f2d98d68c", "is_disabled": 0, "rental_uris": {"android": "https://dc.lft.to/lastmile_qr_scan", "ios": "https://dc.lft.to/lastmile_qr_scan"}, "fusion_lon": 0.0, "lat": 38.91783683333333, "bike_id": "7879afa2ef5edd85c89a774f2d98d68c", "type": "electric_scooter", "is_reserved": 0, "lon": -77.03213316666667}, {"fusion_lat": 0.0, "name": "8e55f91974653a295f775569fcbae186", "is_disabled": 0, "rental_uris": {"android": "https://dc.lft.to/lastmile_qr_scan", "ios": "https://dc.lft.to/lastmile_qr_scan"}, "fusion_lon": 0.0, "lat": 38.91648283333333, "bike_id": "8e55f91974653a295f775569fcbae186", "type": "electric_scooter", "is_reserved": 0, "lon": -77.015906}, {"fusion_lat": 0.0, "name": "0c39f0e280659004390bf39fee5ccd42", "is_disabled": 0, "rental_uris": {"android": "https://dc.lft.to/lastmile_qr_scan", "ios": "https://dc.lft.to/lastmile_qr_scan"}, "fusion_lon": 0.0, "lat": 38.84613266666667, "bike_id": "0c39f0e280659004390bf39fee5ccd42", "type": "electric_bike", "is_reserved": 0, "lon": -76.9690985}, {"fusion_lat": 0.0, "name": "0c08a977f813ccbf56fc5c15d0322290", "is_disabled": 0, "rental_uris": {"android": "https://dc.lft.to/lastmile_qr_scan", "ios": "https://dc.lft.to/lastmile_qr_scan"}, "fusion_lon": 0.0, "lat": 38.89615, "bike_id": "0c08a977f813ccbf56fc5c15d0322290", "type": "electric_bike", "is_reserved": 0, "lon": -76.90742}, {"fusion_lat": 0.0, "name": "1182f0d5f1ea4f7dfe1538e1541735b6", "is_disabled": 0, "rental_uris": {"android": "https://dc.lft.to/lastmile_qr_scan", "ios": "https://dc.lft.to/lastmile_qr_scan"}, "fusion_lon": 0.0, "lat": 38.95892533333333, "bike_id": "1182f0d5f1ea4f7dfe1538e1541735b6", "type": "electric_bike", "is_reserved": 0, "lon": -76.92485883333333}, {"fusion_lat": 0.0, "name": "80803a02cffaa29ca1e2abd5bcbf72da", "is_disabled": 0, "rental_uris": {"android": "https://dc.lft.to/lastmile_qr_scan", "ios": "https://dc.lft.to/lastmile_qr_scan"}, "fusion_lon": 0.0, "lat": 38.92867366666667, "bike_id": "80803a02cffaa29ca1e2abd5bcbf72da", "type": "electric_scooter", "is_reserved": 0, "lon": -77.05626983333333}, {"fusion_lat": 0.0, "name": "7f10bf4e17bd7390598956c8e6c90848", "is_disabled": 0, "rental_uris": {"android": "https://dc.lft.to/lastmile_qr_scan", "ios": "https://dc.lft.to/lastmile_qr_scan"}, "fusion_lon": 0.0, "lat": 38.917547166666665, "bike_id": "7f10bf4e17bd7390598956c8e6c90848", "type": "electric_scooter", "is_reserved": 0, "lon": -77.02304016666666}, {"fusion_lat": 0.0, "name": "4f1183c7ce5c257d802f849a0c3db6d3", "is_disabled": 0, "rental_uris": {"android": "https://dc.lft.to/lastmile_qr_scan", "ios": "https://dc.lft.to/lastmile_qr_scan"}, "fusion_lon": 0.0, "lat": 38.9483335, "bike_id": "4f1183c7ce5c257d802f849a0c3db6d3", "type": "electric_scooter", "is_reserved": 0, "lon": -77.08001}, {"fusion_lat": 0.0, "name": "884c9953acadeb8084c89838a143f1d7", "is_disabled": 0, "rental_uris": {"android": "https://dc.lft.to/lastmile_qr_scan", "ios": "https://dc.lft.to/lastmile_qr_scan"}, "fusion_lon": 0.0, "lat": 38.8984385, "bike_id": "884c9953acadeb8084c89838a143f1d7", "type": "electric_bike", "is_reserved": 0, "lon": -77.0251295}, {"fusion_lat": 0.0, "name": "105c60da53593dc61f9e3dc8d88ef130", "is_disabled": 0, "rental_uris": {"android": "https://dc.lft.to/lastmile_qr_scan", "ios": "https://dc.lft.to/lastmile_qr_scan"}, "fusion_lon": 0.0, "lat": 38.84360083333333, "bike_id": "105c60da53593dc61f9e3dc8d88ef130", "type": "electric_bike", "is_reserved": 0, "lon": -76.97818516666666}, {"fusion_lat": 0.0, "name": "a550a5b6f7bcaf8b98c1f4ec54d0d4b6", "is_disabled": 0, "rental_uris": {"android": "https://dc.lft.to/lastmile_qr_scan", "ios": "https://dc.lft.to/lastmile_qr_scan"}, "fusion_lon": 0.0, "lat": 38.946225, "bike_id": "a550a5b6f7bcaf8b98c1f4ec54d0d4b6", "type": "electric_scooter", "is_reserved": 0, "lon": -77.08012366666667}, {"fusion_lat": 0.0, "name": "14ecda6cf0c30ef98d8157272d9798a8", "is_disabled": 0, "rental_uris": {"android": "https://dc.lft.to/lastmile_qr_scan", "ios": "https://dc.lft.to/lastmile_qr_scan"}, "fusion_lon": 0.0, "lat": 38.99100833333333, "bike_id": "14ecda6cf0c30ef98d8157272d9798a8", "type": "electric_bike", "is_reserved": 0, "lon": -76.99368666666666}, {"fusion_lat": 0.0, "name": "a36bf8bbbe93e4c2f61a73b08ee39b9f", "is_disabled": 0, "rental_uris": {"android": "https://dc.lft.to/lastmile_qr_scan", "ios": "https://dc.lft.to/lastmile_qr_scan"}, "fusion_lon": 0.0, "lat": 38.92904383333333, "bike_id": "a36bf8bbbe93e4c2f61a73b08ee39b9f", "type": "electric_scooter", "is_reserved": 0, "lon": -77.0326115}, {"fusion_lat": 0.0, "name": "493e2b5cb32c27d72766b089f1cc18e8", "is_disabled": 0, "rental_uris": {"android": "https://dc.lft.to/lastmile_qr_scan", "ios": "https://dc.lft.to/lastmile_qr_scan"}, "fusion_lon": 0.0, "lat": 38.90036083333333, "bike_id": "493e2b5cb32c27d72766b089f1cc18e8", "type": "electric_scooter", "is_reserved": 0, "lon": -77.0021905}, {"fusion_lat": 0.0, "name": "ca66f1a541f66deb89e07fcd12b392c7", "is_disabled": 0, "rental_uris": {"android": "https://dc.lft.to/lastmile_qr_scan", "ios": "https://dc.lft.to/lastmile_qr_scan"}, "fusion_lon": 0.0, "lat": 38.89713666666667, "bike_id": "ca66f1a541f66deb89e07fcd12b392c7", "type": "electric_scooter", "is_reserved": 0, "lon": -77.0072325}, {"fusion_lat": 0.0, "name": "95a1ed5ae21d1cc127d0fb38e4519658", "is_disabled": 0, "rental_uris": {"android": "https://dc.lft.to/lastmile_qr_scan", "ios": "https://dc.lft.to/lastmile_qr_scan"}, "fusion_lon": 0.0, "lat": 38.92070666666667, "bike_id": "95a1ed5ae21d1cc127d0fb38e4519658", "type": "electric_scooter", "is_reserved": 0, "lon": -76.99474833333333}, {"fusion_lat": 0.0, "name": "d08f137ecc68d149ef5c0d9447651e05", "is_disabled": 0, "rental_uris": {"android": "https://dc.lft.to/lastmile_qr_scan", "ios": "https://dc.lft.to/lastmile_qr_scan"}, "fusion_lon": 0.0, "lat": 38.8901725, "bike_id": "d08f137ecc68d149ef5c0d9447651e05", "type": "electric_scooter", "is_reserved": 0, "lon": -76.93736766666666}, {"fusion_lat": 0.0, "name": "3e10bd3ef4e937f18495cac94b5df6ff", "is_disabled": 0, "rental_uris": {"android": "https://dc.lft.to/lastmile_qr_scan", "ios": "https://dc.lft.to/lastmile_qr_scan"}, "fusion_lon": 0.0, "lat": 38.898984166666665, "bike_id": "3e10bd3ef4e937f18495cac94b5df6ff", "type": "electric_bike", "is_reserved": 0, "lon": -77.096197}, {"fusion_lat": 0.0, "name": "1e9850e263d3c61bf126b26af79fd195", "is_disabled": 0, "rental_uris": {"android": "https://dc.lft.to/lastmile_qr_scan", "ios": "https://dc.lft.to/lastmile_qr_scan"}, "fusion_lon": 0.0, "lat": 38.92050166666667, "bike_id": "1e9850e263d3c61bf126b26af79fd195", "type": "electric_scooter", "is_reserved": 0, "lon": -77.0218775}, {"fusion_lat": 0.0, "name": "0153f08a8cb1c126393631fad8da9eb5", "is_disabled": 0, "rental_uris": {"android": "https://dc.lft.to/lastmile_qr_scan", "ios": "https://dc.lft.to/lastmile_qr_scan"}, "fusion_lon": 0.0, "lat": 38.95182966666667, "bike_id": "0153f08a8cb1c126393631fad8da9eb5", "type": "electric_scooter", "is_reserved": 0, "lon": -77.02725766666667}, {"fusion_lat": 0.0, "name": "7d9666d541d2d152050e54a89870f45e", "is_disabled": 0, "rental_uris": {"android": "https://dc.lft.to/lastmile_qr_scan", "ios": "https://dc.lft.to/lastmile_qr_scan"}, "fusion_lon": 0.0, "lat": 38.907819, "bike_id": "7d9666d541d2d152050e54a89870f45e", "type": "electric_scooter", "is_reserved": 0, "lon": -77.03861866666666}, {"fusion_lat": 0.0, "name": "d67305c3edb99aa26ab5f94fb2a5c477", "is_disabled": 0, "rental_uris": {"android": "https://dc.lft.to/lastmile_qr_scan", "ios": "https://dc.lft.to/lastmile_qr_scan"}, "fusion_lon": 0.0, "lat": 38.87948033333333, "bike_id": "d67305c3edb99aa26ab5f94fb2a5c477", "type": "electric_scooter", "is_reserved": 0, "lon": -77.00870316666666}, {"fusion_lat": 0.0, "name": "c53ac63dd4bdc66acbfa48c9048f661e", "is_disabled": 0, "rental_uris": {"android": "https://dc.lft.to/lastmile_qr_scan", "ios": "https://dc.lft.to/lastmile_qr_scan"}, "fusion_lon": 0.0, "lat": 38.877993833333335, "bike_id": "c53ac63dd4bdc66acbfa48c9048f661e", "type": "electric_scooter", "is_reserved": 0, "lon": -77.00123383333333}, {"fusion_lat": 0.0, "name": "b01a9ef36f4c5a1f18246916fcf58d37", "is_disabled": 0, "rental_uris": {"android": "https://dc.lft.to/lastmile_qr_scan", "ios": "https://dc.lft.to/lastmile_qr_scan"}, "fusion_lon": 0.0, "lat": 38.897351666666665, "bike_id": "b01a9ef36f4c5a1f18246916fcf58d37", "type": "electric_scooter", "is_reserved": 0, "lon": -77.04428983333334}, {"fusion_lat": 0.0, "name": "8eaf7f65a873a7023cf3c1dea1277822", "is_disabled": 0, "rental_uris": {"android": "https://dc.lft.to/lastmile_qr_scan", "ios": "https://dc.lft.to/lastmile_qr_scan"}, "fusion_lon": 0.0, "lat": 38.88419016666667, "bike_id": "8eaf7f65a873a7023cf3c1dea1277822", "type": "electric_bike", "is_reserved": 0, "lon": -76.95409883333333}, {"fusion_lat": 0.0, "name": "3f6af4348b2248ba8b833433792889b4", "is_disabled": 0, "rental_uris": {"android": "https://dc.lft.to/lastmile_qr_scan", "ios": "https://dc.lft.to/lastmile_qr_scan"}, "fusion_lon": 0.0, "lat": 38.892287833333334, "bike_id": "3f6af4348b2248ba8b833433792889b4", "type": "electric_scooter", "is_reserved": 0, "lon": -77.02825566666667}, {"fusion_lat": 0.0, "name": "779f70e7c17173d6d523a3fe1cbd7258", "is_disabled": 0, "rental_uris": {"android": "https://dc.lft.to/lastmile_qr_scan", "ios": "https://dc.lft.to/lastmile_qr_scan"}, "fusion_lon": 0.0, "lat": 38.9075875, "bike_id": "779f70e7c17173d6d523a3fe1cbd7258", "type": "electric_scooter", "is_reserved": 0, "lon": -77.038447}, {"fusion_lat": 0.0, "name": "55b4ff8dc9ec21ad6844449d7ff28da5", "is_disabled": 0, "rental_uris": {"android": "https://dc.lft.to/lastmile_qr_scan", "ios": "https://dc.lft.to/lastmile_qr_scan"}, "fusion_lon": 0.0, "lat": 38.88711266666667, "bike_id": "55b4ff8dc9ec21ad6844449d7ff28da5", "type": "electric_scooter", "is_reserved": 0, "lon": -76.99677483333333}, {"fusion_lat": 0.0, "name": "a1ab49cb317c9b882cf58fb9dc9e3fee", "is_disabled": 0, "rental_uris": {"android": "https://dc.lft.to/lastmile_qr_scan", "ios": "https://dc.lft.to/lastmile_qr_scan"}, "fusion_lon": 0.0, "lat": 38.9298465, "bike_id": "a1ab49cb317c9b882cf58fb9dc9e3fee", "type": "electric_scooter", "is_reserved": 0, "lon": -77.01973616666666}, {"fusion_lat": 0.0, "name": "5afc96440e7d5baaf4193e62a581fb42", "is_disabled": 0, "rental_uris": {"android": "https://dc.lft.to/lastmile_qr_scan", "ios": "https://dc.lft.to/lastmile_qr_scan"}, "fusion_lon": 0.0, "lat": 38.916046333333334, "bike_id": "5afc96440e7d5baaf4193e62a581fb42", "type": "electric_scooter", "is_reserved": 0, "lon": -77.0220075}, {"fusion_lat": 0.0, "name": "98dafc6df4ab7744384e9473e9335293", "is_disabled": 0, "rental_uris": {"android": "https://dc.lft.to/lastmile_qr_scan", "ios": "https://dc.lft.to/lastmile_qr_scan"}, "fusion_lon": 0.0, "lat": 38.90383083333333, "bike_id": "98dafc6df4ab7744384e9473e9335293", "type": "electric_scooter", "is_reserved": 0, "lon": -76.9956675}, {"fusion_lat": 0.0, "name": "7ed7f464af1bfa565cd27c3365252e65", "is_disabled": 0, "rental_uris": {"android": "https://dc.lft.to/lastmile_qr_scan", "ios": "https://dc.lft.to/lastmile_qr_scan"}, "fusion_lon": 0.0, "lat": 38.924983833333336, "bike_id": "7ed7f464af1bfa565cd27c3365252e65", "type": "electric_scooter", "is_reserved": 0, "lon": -77.05113566666667}, {"fusion_lat": 0.0, "name": "ede2b3246daea0fd111dbccdc7bbba7e", "is_disabled": 0, "rental_uris": {"android": "https://dc.lft.to/lastmile_qr_scan", "ios": "https://dc.lft.to/lastmile_qr_scan"}, "fusion_lon": 0.0, "lat": 38.91564366666667, "bike_id": "ede2b3246daea0fd111dbccdc7bbba7e", "type": "electric_scooter", "is_reserved": 0, "lon": -77.03153816666666}, {"fusion_lat": 0.0, "name": "63c1108702e2d1941967d8f75c2fc664", "is_disabled": 0, "rental_uris": {"android": "https://dc.lft.to/lastmile_qr_scan", "ios": "https://dc.lft.to/lastmile_qr_scan"}, "fusion_lon": 0.0, "lat": 38.93816016666667, "bike_id": "63c1108702e2d1941967d8f75c2fc664", "type": "electric_scooter", "is_reserved": 0, "lon": -77.0601955}, {"fusion_lat": 0.0, "name": "cdbef59aa04cc07621ff302a73f318c0", "is_disabled": 0, "rental_uris": {"android": "https://dc.lft.to/lastmile_qr_scan", "ios": "https://dc.lft.to/lastmile_qr_scan"}, "fusion_lon": 0.0, "lat": 38.91926766666667, "bike_id": "cdbef59aa04cc07621ff302a73f318c0", "type": "electric_scooter", "is_reserved": 0, "lon": -77.02518833333333}, {"fusion_lat": 0.0, "name": "067df1bbc709981c3781a954157e4f31", "is_disabled": 0, "rental_uris": {"android": "https://dc.lft.to/lastmile_qr_scan", "ios": "https://dc.lft.to/lastmile_qr_scan"}, "fusion_lon": 0.0, "lat": 38.90782866666667, "bike_id": "067df1bbc709981c3781a954157e4f31", "type": "electric_scooter", "is_reserved": 0, "lon": -77.0385375}, {"fusion_lat": 0.0, "name": "bd365c6dd22883a9e5f16a6a955f3b9f", "is_disabled": 0, "rental_uris": {"android": "https://dc.lft.to/lastmile_qr_scan", "ios": "https://dc.lft.to/lastmile_qr_scan"}, "fusion_lon": 0.0, "lat": 38.93397266666667, "bike_id": "bd365c6dd22883a9e5f16a6a955f3b9f", "type": "electric_scooter", "is_reserved": 0, "lon": -77.05767233333333}, {"fusion_lat": 0.0, "name": "b60bced2c579385a28b8ffcd73c9c790", "is_disabled": 0, "rental_uris": {"android": "https://dc.lft.to/lastmile_qr_scan", "ios": "https://dc.lft.to/lastmile_qr_scan"}, "fusion_lon": 0.0, "lat": 38.92869683333333, "bike_id": "b60bced2c579385a28b8ffcd73c9c790", "type": "electric_scooter", "is_reserved": 0, "lon": -77.03218216666667}, {"fusion_lat": 0.0, "name": "a5bcc23d812bcee201d874dacf8b031f", "is_disabled": 0, "rental_uris": {"android": "https://dc.lft.to/lastmile_qr_scan", "ios": "https://dc.lft.to/lastmile_qr_scan"}, "fusion_lon": 0.0, "lat": 38.892221166666666, "bike_id": "a5bcc23d812bcee201d874dacf8b031f", "type": "electric_scooter", "is_reserved": 0, "lon": -77.04123483333333}, {"fusion_lat": 0.0, "name": "c4f6363424a960cd7dab660ac8fac422", "is_disabled": 0, "rental_uris": {"android": "https://dc.lft.to/lastmile_qr_scan", "ios": "https://dc.lft.to/lastmile_qr_scan"}, "fusion_lon": 0.0, "lat": 38.90217083333334, "bike_id": "c4f6363424a960cd7dab660ac8fac422", "type": "electric_scooter", "is_reserved": 0, "lon": -76.99504683333333}, {"fusion_lat": 0.0, "name": "1807b8166b4f1b08f1ae644c450f995d", "is_disabled": 0, "rental_uris": {"android": "https://dc.lft.to/lastmile_qr_scan", "ios": "https://dc.lft.to/lastmile_qr_scan"}, "fusion_lon": 0.0, "lat": 38.8924195, "bike_id": "1807b8166b4f1b08f1ae644c450f995d", "type": "electric_scooter", "is_reserved": 0, "lon": -77.02205133333334}, {"fusion_lat": 0.0, "name": "1370192df1f0ec0283ba352f018aa1a7", "is_disabled": 0, "rental_uris": {"android": "https://dc.lft.to/lastmile_qr_scan", "ios": "https://dc.lft.to/lastmile_qr_scan"}, "fusion_lon": 0.0, "lat": 38.924174, "bike_id": "1370192df1f0ec0283ba352f018aa1a7", "type": "electric_scooter", "is_reserved": 0, "lon": -77.02069}, {"fusion_lat": 0.0, "name": "672ba74433cfb14a7671a1969d23dcfa", "is_disabled": 0, "rental_uris": {"android": "https://dc.lft.to/lastmile_qr_scan", "ios": "https://dc.lft.to/lastmile_qr_scan"}, "fusion_lon": 0.0, "lat": 38.933975833333335, "bike_id": "672ba74433cfb14a7671a1969d23dcfa", "type": "electric_scooter", "is_reserved": 0, "lon": -77.057451}, {"fusion_lat": 0.0, "name": "3edaf8c882f4d4c06458c729ef9b3a8c", "is_disabled": 0, "rental_uris": {"android": "https://dc.lft.to/lastmile_qr_scan", "ios": "https://dc.lft.to/lastmile_qr_scan"}, "fusion_lon": 0.0, "lat": 38.903089666666666, "bike_id": "3edaf8c882f4d4c06458c729ef9b3a8c", "type": "electric_bike", "is_reserved": 0, "lon": -76.9765445}, {"fusion_lat": 0.0, "name": "1cf3cf491a40cdab060f4c8f2684178a", "is_disabled": 0, "rental_uris": {"android": "https://dc.lft.to/lastmile_qr_scan", "ios": "https://dc.lft.to/lastmile_qr_scan"}, "fusion_lon": 0.0, "lat": 38.9058665, "bike_id": "1cf3cf491a40cdab060f4c8f2684178a", "type": "electric_scooter", "is_reserved": 0, "lon": -77.03862783333334}, {"fusion_lat": 0.0, "name": "d72da6d421ecff0fa4f7d5844695367f", "is_disabled": 0, "rental_uris": {"android": "https://dc.lft.to/lastmile_qr_scan", "ios": "https://dc.lft.to/lastmile_qr_scan"}, "fusion_lon": 0.0, "lat": 38.938623666666665, "bike_id": "d72da6d421ecff0fa4f7d5844695367f", "type": "electric_scooter", "is_reserved": 0, "lon": -77.02323116666666}, {"fusion_lat": 0.0, "name": "00b5cc40aeff6df097ad4fa33f4e24c2", "is_disabled": 0, "rental_uris": {"android": "https://dc.lft.to/lastmile_qr_scan", "ios": "https://dc.lft.to/lastmile_qr_scan"}, "fusion_lon": 0.0, "lat": 38.896209666666664, "bike_id": "00b5cc40aeff6df097ad4fa33f4e24c2", "type": "electric_scooter", "is_reserved": 0, "lon": -77.031705}, {"fusion_lat": 0.0, "name": "7fe2f88be2992b42d7bd2d2eaf49fa8d", "is_disabled": 0, "rental_uris": {"android": "https://dc.lft.to/lastmile_qr_scan", "ios": "https://dc.lft.to/lastmile_qr_scan"}, "fusion_lon": 0.0, "lat": 38.90293233333333, "bike_id": "7fe2f88be2992b42d7bd2d2eaf49fa8d", "type": "electric_scooter", "is_reserved": 0, "lon": -76.9763505}, {"fusion_lat": 0.0, "name": "eb7ea28ccb88dbe6b639fb5355e6d453", "is_disabled": 0, "rental_uris": {"android": "https://dc.lft.to/lastmile_qr_scan", "ios": "https://dc.lft.to/lastmile_qr_scan"}, "fusion_lon": 0.0, "lat": 38.922849, "bike_id": "eb7ea28ccb88dbe6b639fb5355e6d453", "type": "electric_scooter", "is_reserved": 0, "lon": -77.019931}, {"fusion_lat": 0.0, "name": "7ef574732aa5e6084f2bdaad732d79b9", "is_disabled": 0, "rental_uris": {"android": "https://dc.lft.to/lastmile_qr_scan", "ios": "https://dc.lft.to/lastmile_qr_scan"}, "fusion_lon": 0.0, "lat": 38.941600666666666, "bike_id": "7ef574732aa5e6084f2bdaad732d79b9", "type": "electric_scooter", "is_reserved": 0, "lon": -77.02629283333333}, {"fusion_lat": 0.0, "name": "abe5dc8a5640c02c65eb9164e1c5e3c3", "is_disabled": 0, "rental_uris": {"android": "https://dc.lft.to/lastmile_qr_scan", "ios": "https://dc.lft.to/lastmile_qr_scan"}, "fusion_lon": 0.0, "lat": 38.9183245, "bike_id": "abe5dc8a5640c02c65eb9164e1c5e3c3", "type": "electric_scooter", "is_reserved": 0, "lon": -77.0364595}, {"fusion_lat": 0.0, "name": "21d14339d9b0e4ebe1da4fd3b07a0515", "is_disabled": 0, "rental_uris": {"android": "https://dc.lft.to/lastmile_qr_scan", "ios": "https://dc.lft.to/lastmile_qr_scan"}, "fusion_lon": 0.0, "lat": 38.90285516666667, "bike_id": "21d14339d9b0e4ebe1da4fd3b07a0515", "type": "electric_scooter", "is_reserved": 0, "lon": -77.03936466666667}, {"fusion_lat": 0.0, "name": "609bc029228309b75a43f1eb831d0db0", "is_disabled": 0, "rental_uris": {"android": "https://dc.lft.to/lastmile_qr_scan", "ios": "https://dc.lft.to/lastmile_qr_scan"}, "fusion_lon": 0.0, "lat": 38.962071333333334, "bike_id": "609bc029228309b75a43f1eb831d0db0", "type": "electric_scooter", "is_reserved": 0, "lon": -77.022313}, {"fusion_lat": 0.0, "name": "874c045feec5e6bb2342219cd7883aaa", "is_disabled": 0, "rental_uris": {"android": "https://dc.lft.to/lastmile_qr_scan", "ios": "https://dc.lft.to/lastmile_qr_scan"}, "fusion_lon": 0.0, "lat": 38.88417783333333, "bike_id": "874c045feec5e6bb2342219cd7883aaa", "type": "electric_scooter", "is_reserved": 0, "lon": -77.02178433333333}, {"fusion_lat": 0.0, "name": "703fe2efe99001f3039d04c09e9bb971", "is_disabled": 0, "rental_uris": {"android": "https://dc.lft.to/lastmile_qr_scan", "ios": "https://dc.lft.to/lastmile_qr_scan"}, "fusion_lon": 0.0, "lat": 38.997733833333335, "bike_id": "703fe2efe99001f3039d04c09e9bb971", "type": "electric_bike", "is_reserved": 0, "lon": -77.0471115}, {"fusion_lat": 0.0, "name": "fc825fccf5271d9670aaa953d7462b40", "is_disabled": 0, "rental_uris": {"android": "https://dc.lft.to/lastmile_qr_scan", "ios": "https://dc.lft.to/lastmile_qr_scan"}, "fusion_lon": 0.0, "lat": 38.90655116666667, "bike_id": "fc825fccf5271d9670aaa953d7462b40", "type": "electric_scooter", "is_reserved": 0, "lon": -77.0141475}, {"fusion_lat": 0.0, "name": "d16417fd601505f5ee9597595efe513f", "is_disabled": 0, "rental_uris": {"android": "https://dc.lft.to/lastmile_qr_scan", "ios": "https://dc.lft.to/lastmile_qr_scan"}, "fusion_lon": 0.0, "lat": 38.876648, "bike_id": "d16417fd601505f5ee9597595efe513f", "type": "electric_scooter", "is_reserved": 0, "lon": -77.00114133333334}, {"fusion_lat": 0.0, "name": "adf79e05f77c5a181c921a2b57f6ae3c", "is_disabled": 0, "rental_uris": {"android": "https://dc.lft.to/lastmile_qr_scan", "ios": "https://dc.lft.to/lastmile_qr_scan"}, "fusion_lon": 0.0, "lat": 38.922223833333334, "bike_id": "adf79e05f77c5a181c921a2b57f6ae3c", "type": "electric_scooter", "is_reserved": 0, "lon": -76.9838195}, {"fusion_lat": 0.0, "name": "6bfaab09f5a7bd5e36de290e96adc354", "is_disabled": 0, "rental_uris": {"android": "https://dc.lft.to/lastmile_qr_scan", "ios": "https://dc.lft.to/lastmile_qr_scan"}, "fusion_lon": 0.0, "lat": 38.931327333333336, "bike_id": "6bfaab09f5a7bd5e36de290e96adc354", "type": "electric_scooter", "is_reserved": 0, "lon": -77.03852816666667}, {"fusion_lat": 0.0, "name": "f150beab3f5dd3757f14b6494e598365", "is_disabled": 0, "rental_uris": {"android": "https://dc.lft.to/lastmile_qr_scan", "ios": "https://dc.lft.to/lastmile_qr_scan"}, "fusion_lon": 0.0, "lat": 38.906160666666665, "bike_id": "f150beab3f5dd3757f14b6494e598365", "type": "electric_scooter", "is_reserved": 0, "lon": -77.05049383333333}, {"fusion_lat": 0.0, "name": "c19542542c98b4ceee2ffbcd58c8fdc6", "is_disabled": 0, "rental_uris": {"android": "https://dc.lft.to/lastmile_qr_scan", "ios": "https://dc.lft.to/lastmile_qr_scan"}, "fusion_lon": 0.0, "lat": 38.902582, "bike_id": "c19542542c98b4ceee2ffbcd58c8fdc6", "type": "electric_bike", "is_reserved": 0, "lon": -77.06165566666667}, {"fusion_lat": 0.0, "name": "aafa33fa371084464cc161d02c3ab473", "is_disabled": 0, "rental_uris": {"android": "https://dc.lft.to/lastmile_qr_scan", "ios": "https://dc.lft.to/lastmile_qr_scan"}, "fusion_lon": 0.0, "lat": 38.909923666666664, "bike_id": "aafa33fa371084464cc161d02c3ab473", "type": "electric_scooter", "is_reserved": 0, "lon": -77.03199633333334}, {"fusion_lat": 0.0, "name": "8e5d59d388df203444c6768e83822e0e", "is_disabled": 0, "rental_uris": {"android": "https://dc.lft.to/lastmile_qr_scan", "ios": "https://dc.lft.to/lastmile_qr_scan"}, "fusion_lon": 0.0, "lat": 38.918356333333335, "bike_id": "8e5d59d388df203444c6768e83822e0e", "type": "electric_scooter", "is_reserved": 0, "lon": -77.02401066666667}, {"fusion_lat": 0.0, "name": "bfe926ddfd0cfdf4d864135ee8963428", "is_disabled": 0, "rental_uris": {"android": "https://dc.lft.to/lastmile_qr_scan", "ios": "https://dc.lft.to/lastmile_qr_scan"}, "fusion_lon": 0.0, "lat": 38.89741583333333, "bike_id": "bfe926ddfd0cfdf4d864135ee8963428", "type": "electric_scooter", "is_reserved": 0, "lon": -77.00004433333334}, {"fusion_lat": 0.0, "name": "fa804a25f86937b26241e40aa94b0c13", "is_disabled": 0, "rental_uris": {"android": "https://dc.lft.to/lastmile_qr_scan", "ios": "https://dc.lft.to/lastmile_qr_scan"}, "fusion_lon": 0.0, "lat": 38.945138166666666, "bike_id": "fa804a25f86937b26241e40aa94b0c13", "type": "electric_bike", "is_reserved": 0, "lon": -77.00677666666667}, {"fusion_lat": 0.0, "name": "67b870f3de8e52db5be7733aa1c02a9b", "is_disabled": 0, "rental_uris": {"android": "https://dc.lft.to/lastmile_qr_scan", "ios": "https://dc.lft.to/lastmile_qr_scan"}, "fusion_lon": 0.0, "lat": 38.89163883333333, "bike_id": "67b870f3de8e52db5be7733aa1c02a9b", "type": "electric_bike", "is_reserved": 0, "lon": -77.00468266666667}, {"fusion_lat": 0.0, "name": "4609567c3ef8850c391a6489f52d3d33", "is_disabled": 0, "rental_uris": {"android": "https://dc.lft.to/lastmile_qr_scan", "ios": "https://dc.lft.to/lastmile_qr_scan"}, "fusion_lon": 0.0, "lat": 38.901800333333334, "bike_id": "4609567c3ef8850c391a6489f52d3d33", "type": "electric_scooter", "is_reserved": 0, "lon": -76.94145466666667}, {"fusion_lat": 0.0, "name": "0dfd83cf259c51477b1d6ef8df8fb014", "is_disabled": 0, "rental_uris": {"android": "https://dc.lft.to/lastmile_qr_scan", "ios": "https://dc.lft.to/lastmile_qr_scan"}, "fusion_lon": 0.0, "lat": 38.90532616666667, "bike_id": "0dfd83cf259c51477b1d6ef8df8fb014", "type": "electric_scooter", "is_reserved": 0, "lon": -77.034805}, {"fusion_lat": 0.0, "name": "7912249cd863a26494e16a0db95fd8a3", "is_disabled": 0, "rental_uris": {"android": "https://dc.lft.to/lastmile_qr_scan", "ios": "https://dc.lft.to/lastmile_qr_scan"}, "fusion_lon": 0.0, "lat": 38.9001495, "bike_id": "7912249cd863a26494e16a0db95fd8a3", "type": "electric_scooter", "is_reserved": 0, "lon": -77.01204866666667}, {"fusion_lat": 0.0, "name": "9de91f944ff30e1f1e18e0ffa93666e2", "is_disabled": 0, "rental_uris": {"android": "https://dc.lft.to/lastmile_qr_scan", "ios": "https://dc.lft.to/lastmile_qr_scan"}, "fusion_lon": 0.0, "lat": 38.91641833333333, "bike_id": "9de91f944ff30e1f1e18e0ffa93666e2", "type": "electric_scooter", "is_reserved": 0, "lon": -77.04814783333333}, {"fusion_lat": 0.0, "name": "79c5848c9b5822f7bf72d59264a84c0e", "is_disabled": 0, "rental_uris": {"android": "https://dc.lft.to/lastmile_qr_scan", "ios": "https://dc.lft.to/lastmile_qr_scan"}, "fusion_lon": 0.0, "lat": 38.8812765, "bike_id": "79c5848c9b5822f7bf72d59264a84c0e", "type": "electric_scooter", "is_reserved": 0, "lon": -76.992812}, {"fusion_lat": 0.0, "name": "3ac1fe0f676d45e6b44c84c9e8bf3ee1", "is_disabled": 0, "rental_uris": {"android": "https://dc.lft.to/lastmile_qr_scan", "ios": "https://dc.lft.to/lastmile_qr_scan"}, "fusion_lon": 0.0, "lat": 38.9129035, "bike_id": "3ac1fe0f676d45e6b44c84c9e8bf3ee1", "type": "electric_scooter", "is_reserved": 0, "lon": -77.02384183333334}, {"fusion_lat": 0.0, "name": "5c0f1e4b200c18dd51eb69374ff4a9be", "is_disabled": 0, "rental_uris": {"android": "https://dc.lft.to/lastmile_qr_scan", "ios": "https://dc.lft.to/lastmile_qr_scan"}, "fusion_lon": 0.0, "lat": 38.934581333333334, "bike_id": "5c0f1e4b200c18dd51eb69374ff4a9be", "type": "electric_scooter", "is_reserved": 0, "lon": -77.07269566666666}, {"fusion_lat": 0.0, "name": "538bcebedd9d895b4c3991de2f0e770a", "is_disabled": 0, "rental_uris": {"android": "https://dc.lft.to/lastmile_qr_scan", "ios": "https://dc.lft.to/lastmile_qr_scan"}, "fusion_lon": 0.0, "lat": 38.87672516666667, "bike_id": "538bcebedd9d895b4c3991de2f0e770a", "type": "electric_scooter", "is_reserved": 0, "lon": -77.00112083333333}, {"fusion_lat": 0.0, "name": "61ba0eba3d8f1a5a8010db5dc907d0e2", "is_disabled": 0, "rental_uris": {"android": "https://dc.lft.to/lastmile_qr_scan", "ios": "https://dc.lft.to/lastmile_qr_scan"}, "fusion_lon": 0.0, "lat": 38.957314833333335, "bike_id": "61ba0eba3d8f1a5a8010db5dc907d0e2", "type": "electric_scooter", "is_reserved": 0, "lon": -77.02402283333333}, {"fusion_lat": 0.0, "name": "e9c79105767e832869bd8c11555790c2", "is_disabled": 0, "rental_uris": {"android": "https://dc.lft.to/lastmile_qr_scan", "ios": "https://dc.lft.to/lastmile_qr_scan"}, "fusion_lon": 0.0, "lat": 38.9039125, "bike_id": "e9c79105767e832869bd8c11555790c2", "type": "electric_scooter", "is_reserved": 0, "lon": -77.05141316666666}, {"fusion_lat": 0.0, "name": "19db8fe6376120960c56d3054121b693", "is_disabled": 0, "rental_uris": {"android": "https://dc.lft.to/lastmile_qr_scan", "ios": "https://dc.lft.to/lastmile_qr_scan"}, "fusion_lon": 0.0, "lat": 38.89398533333333, "bike_id": "19db8fe6376120960c56d3054121b693", "type": "electric_scooter", "is_reserved": 0, "lon": -76.994925}, {"fusion_lat": 0.0, "name": "9df72156568aa3b338982302d8624259", "is_disabled": 0, "rental_uris": {"android": "https://dc.lft.to/lastmile_qr_scan", "ios": "https://dc.lft.to/lastmile_qr_scan"}, "fusion_lon": 0.0, "lat": 38.9113045, "bike_id": "9df72156568aa3b338982302d8624259", "type": "electric_scooter", "is_reserved": 0, "lon": -77.0199615}, {"fusion_lat": 0.0, "name": "153ca75aa37d9f773f762b3380dfce4e", "is_disabled": 0, "rental_uris": {"android": "https://dc.lft.to/lastmile_qr_scan", "ios": "https://dc.lft.to/lastmile_qr_scan"}, "fusion_lon": 0.0, "lat": 38.92147166666667, "bike_id": "153ca75aa37d9f773f762b3380dfce4e", "type": "electric_scooter", "is_reserved": 0, "lon": -77.0435785}, {"fusion_lat": 0.0, "name": "00f31c396451695a638906ebd94e6cf1", "is_disabled": 0, "rental_uris": {"android": "https://dc.lft.to/lastmile_qr_scan", "ios": "https://dc.lft.to/lastmile_qr_scan"}, "fusion_lon": 0.0, "lat": 38.91779183333333, "bike_id": "00f31c396451695a638906ebd94e6cf1", "type": "electric_scooter", "is_reserved": 0, "lon": -77.01220733333334}, {"fusion_lat": 0.0, "name": "411b0effdba7106e6c373afa47b6ae0f", "is_disabled": 0, "rental_uris": {"android": "https://dc.lft.to/lastmile_qr_scan", "ios": "https://dc.lft.to/lastmile_qr_scan"}, "fusion_lon": 0.0, "lat": 38.923013, "bike_id": "411b0effdba7106e6c373afa47b6ae0f", "type": "electric_scooter", "is_reserved": 0, "lon": -77.04266233333334}, {"fusion_lat": 0.0, "name": "9df630b6e082344f59227267c4174662", "is_disabled": 0, "rental_uris": {"android": "https://dc.lft.to/lastmile_qr_scan", "ios": "https://dc.lft.to/lastmile_qr_scan"}, "fusion_lon": 0.0, "lat": 38.887367833333336, "bike_id": "9df630b6e082344f59227267c4174662", "type": "electric_scooter", "is_reserved": 0, "lon": -77.03177216666667}, {"fusion_lat": 0.0, "name": "b55dd20593c6cb2dde7cd047b81daef5", "is_disabled": 0, "rental_uris": {"android": "https://dc.lft.to/lastmile_qr_scan", "ios": "https://dc.lft.to/lastmile_qr_scan"}, "fusion_lon": 0.0, "lat": 38.892287833333334, "bike_id": "b55dd20593c6cb2dde7cd047b81daef5", "type": "electric_scooter", "is_reserved": 0, "lon": -77.02410066666667}, {"fusion_lat": 0.0, "name": "61da54bc6ab0814cd945cfdf510f25b4", "is_disabled": 0, "rental_uris": {"android": "https://dc.lft.to/lastmile_qr_scan", "ios": "https://dc.lft.to/lastmile_qr_scan"}, "fusion_lon": 0.0, "lat": 38.917329333333335, "bike_id": "61da54bc6ab0814cd945cfdf510f25b4", "type": "electric_scooter", "is_reserved": 0, "lon": -77.03205466666667}, {"fusion_lat": 0.0, "name": "3fe8d79bd6a7c8f4bc984a0b1281b79c", "is_disabled": 0, "rental_uris": {"android": "https://dc.lft.to/lastmile_qr_scan", "ios": "https://dc.lft.to/lastmile_qr_scan"}, "fusion_lon": 0.0, "lat": 38.922223833333334, "bike_id": "3fe8d79bd6a7c8f4bc984a0b1281b79c", "type": "electric_bike", "is_reserved": 0, "lon": -77.20137933333334}, {"fusion_lat": 0.0, "name": "37a07944a4c5358289b01f6507a939af", "is_disabled": 0, "rental_uris": {"android": "https://dc.lft.to/lastmile_qr_scan", "ios": "https://dc.lft.to/lastmile_qr_scan"}, "fusion_lon": 0.0, "lat": 38.94199833333333, "bike_id": "37a07944a4c5358289b01f6507a939af", "type": "electric_scooter", "is_reserved": 0, "lon": -77.02591916666667}, {"fusion_lat": 0.0, "name": "0ea53e305ee83f05249df4eb2d01d802", "is_disabled": 0, "rental_uris": {"android": "https://dc.lft.to/lastmile_qr_scan", "ios": "https://dc.lft.to/lastmile_qr_scan"}, "fusion_lon": 0.0, "lat": 38.96410083333333, "bike_id": "0ea53e305ee83f05249df4eb2d01d802", "type": "electric_scooter", "is_reserved": 0, "lon": -77.07532916666666}, {"fusion_lat": 0.0, "name": "171dff75f322b2c6bcb52c7c0d84f734", "is_disabled": 0, "rental_uris": {"android": "https://dc.lft.to/lastmile_qr_scan", "ios": "https://dc.lft.to/lastmile_qr_scan"}, "fusion_lon": 0.0, "lat": 38.881323, "bike_id": "171dff75f322b2c6bcb52c7c0d84f734", "type": "electric_bike", "is_reserved": 0, "lon": -76.99548433333334}, {"fusion_lat": 0.0, "name": "98feaf2e46db39a86292a96a9773cb69", "is_disabled": 0, "rental_uris": {"android": "https://dc.lft.to/lastmile_qr_scan", "ios": "https://dc.lft.to/lastmile_qr_scan"}, "fusion_lon": 0.0, "lat": 38.8960975, "bike_id": "98feaf2e46db39a86292a96a9773cb69", "type": "electric_scooter", "is_reserved": 0, "lon": -76.94815266666667}, {"fusion_lat": 0.0, "name": "bf689bd3bb78f61c0db21fcaee4c13d7", "is_disabled": 0, "rental_uris": {"android": "https://dc.lft.to/lastmile_qr_scan", "ios": "https://dc.lft.to/lastmile_qr_scan"}, "fusion_lon": 0.0, "lat": 38.9166405, "bike_id": "bf689bd3bb78f61c0db21fcaee4c13d7", "type": "electric_scooter", "is_reserved": 0, "lon": -77.02820466666667}, {"fusion_lat": 0.0, "name": "354309d760abadca25272c3b03238a33", "is_disabled": 0, "rental_uris": {"android": "https://dc.lft.to/lastmile_qr_scan", "ios": "https://dc.lft.to/lastmile_qr_scan"}, "fusion_lon": 0.0, "lat": 38.89006783333333, "bike_id": "354309d760abadca25272c3b03238a33", "type": "electric_scooter", "is_reserved": 0, "lon": -76.93744833333334}, {"fusion_lat": 0.0, "name": "58f502abdbab7ed68a3ea99491a1b310", "is_disabled": 0, "rental_uris": {"android": "https://dc.lft.to/lastmile_qr_scan", "ios": "https://dc.lft.to/lastmile_qr_scan"}, "fusion_lon": 0.0, "lat": 38.88342433333333, "bike_id": "58f502abdbab7ed68a3ea99491a1b310", "type": "electric_scooter", "is_reserved": 0, "lon": -77.01968033333333}, {"fusion_lat": 0.0, "name": "193d8a2feb612b4e99c3917e89e4cf89", "is_disabled": 0, "rental_uris": {"android": "https://dc.lft.to/lastmile_qr_scan", "ios": "https://dc.lft.to/lastmile_qr_scan"}, "fusion_lon": 0.0, "lat": 38.8768775, "bike_id": "193d8a2feb612b4e99c3917e89e4cf89", "type": "electric_scooter", "is_reserved": 0, "lon": -77.01758366666667}, {"fusion_lat": 0.0, "name": "0554fa4dfa3f7d69da7be8b2da93a0d5", "is_disabled": 0, "rental_uris": {"android": "https://dc.lft.to/lastmile_qr_scan", "ios": "https://dc.lft.to/lastmile_qr_scan"}, "fusion_lon": 0.0, "lat": 38.93271933333333, "bike_id": "0554fa4dfa3f7d69da7be8b2da93a0d5", "type": "electric_scooter", "is_reserved": 0, "lon": -77.02090783333334}, {"fusion_lat": 0.0, "name": "ef8a90ec23c484fdf126de7904e89395", "is_disabled": 0, "rental_uris": {"android": "https://dc.lft.to/lastmile_qr_scan", "ios": "https://dc.lft.to/lastmile_qr_scan"}, "fusion_lon": 0.0, "lat": 38.821799166666665, "bike_id": "ef8a90ec23c484fdf126de7904e89395", "type": "electric_bike", "is_reserved": 0, "lon": -76.99511433333333}, {"fusion_lat": 0.0, "name": "35275458a401c14030f98474dc07bb14", "is_disabled": 0, "rental_uris": {"android": "https://dc.lft.to/lastmile_qr_scan", "ios": "https://dc.lft.to/lastmile_qr_scan"}, "fusion_lon": 0.0, "lat": 38.91477366666667, "bike_id": "35275458a401c14030f98474dc07bb14", "type": "electric_scooter", "is_reserved": 0, "lon": -77.04550566666667}, {"fusion_lat": 0.0, "name": "35f4ea7eeebe1a51aeb6abc370c501e1", "is_disabled": 0, "rental_uris": {"android": "https://dc.lft.to/lastmile_qr_scan", "ios": "https://dc.lft.to/lastmile_qr_scan"}, "fusion_lon": 0.0, "lat": 38.90038083333334, "bike_id": "35f4ea7eeebe1a51aeb6abc370c501e1", "type": "electric_scooter", "is_reserved": 0, "lon": -77.0021725}, {"fusion_lat": 0.0, "name": "2aa444247161ae903fa75cdb5b484b16", "is_disabled": 0, "rental_uris": {"android": "https://dc.lft.to/lastmile_qr_scan", "ios": "https://dc.lft.to/lastmile_qr_scan"}, "fusion_lon": 0.0, "lat": 38.80454916666667, "bike_id": "2aa444247161ae903fa75cdb5b484b16", "type": "electric_bike", "is_reserved": 0, "lon": -77.0538885}, {"fusion_lat": 0.0, "name": "526170b741e5af7ff24733a2c883cea1", "is_disabled": 0, "rental_uris": {"android": "https://dc.lft.to/lastmile_qr_scan", "ios": "https://dc.lft.to/lastmile_qr_scan"}, "fusion_lon": 0.0, "lat": 38.92093083333334, "bike_id": "526170b741e5af7ff24733a2c883cea1", "type": "electric_scooter", "is_reserved": 0, "lon": -76.99458083333333}, {"fusion_lat": 0.0, "name": "eb8c451438991b3bdc4bc0da05d6c6ce", "is_disabled": 0, "rental_uris": {"android": "https://dc.lft.to/lastmile_qr_scan", "ios": "https://dc.lft.to/lastmile_qr_scan"}, "fusion_lon": 0.0, "lat": 38.887044833333334, "bike_id": "eb8c451438991b3bdc4bc0da05d6c6ce", "type": "electric_scooter", "is_reserved": 0, "lon": -77.00251666666666}, {"fusion_lat": 0.0, "name": "3e0b10140e00bab835281d112a5a2237", "is_disabled": 0, "rental_uris": {"android": "https://dc.lft.to/lastmile_qr_scan", "ios": "https://dc.lft.to/lastmile_qr_scan"}, "fusion_lon": 0.0, "lat": 38.88651933333333, "bike_id": "3e0b10140e00bab835281d112a5a2237", "type": "electric_scooter", "is_reserved": 0, "lon": -77.03358416666667}, {"fusion_lat": 0.0, "name": "e869f7f16cc70d0adf58c964f0496f1b", "is_disabled": 0, "rental_uris": {"android": "https://dc.lft.to/lastmile_qr_scan", "ios": "https://dc.lft.to/lastmile_qr_scan"}, "fusion_lon": 0.0, "lat": 38.89830116666667, "bike_id": "e869f7f16cc70d0adf58c964f0496f1b", "type": "electric_scooter", "is_reserved": 0, "lon": -76.94628983333334}, {"fusion_lat": 0.0, "name": "7e0877c7e7fb3f10cc8d420b6f5add93", "is_disabled": 0, "rental_uris": {"android": "https://dc.lft.to/lastmile_qr_scan", "ios": "https://dc.lft.to/lastmile_qr_scan"}, "fusion_lon": 0.0, "lat": 38.89689633333333, "bike_id": "7e0877c7e7fb3f10cc8d420b6f5add93", "type": "electric_scooter", "is_reserved": 0, "lon": -77.0510895}, {"fusion_lat": 0.0, "name": "49998af682fc370aee88d46cda1cfeac", "is_disabled": 0, "rental_uris": {"android": "https://dc.lft.to/lastmile_qr_scan", "ios": "https://dc.lft.to/lastmile_qr_scan"}, "fusion_lon": 0.0, "lat": 38.9040825, "bike_id": "49998af682fc370aee88d46cda1cfeac", "type": "electric_scooter", "is_reserved": 0, "lon": -76.9733315}, {"fusion_lat": 0.0, "name": "38a5c49e5fa136e013972610a1e23fdb", "is_disabled": 0, "rental_uris": {"android": "https://dc.lft.to/lastmile_qr_scan", "ios": "https://dc.lft.to/lastmile_qr_scan"}, "fusion_lon": 0.0, "lat": 38.926036, "bike_id": "38a5c49e5fa136e013972610a1e23fdb", "type": "electric_scooter", "is_reserved": 0, "lon": -77.02153216666666}, {"fusion_lat": 0.0, "name": "f6fd25e769360cb399a5e2a7a3a8ea73", "is_disabled": 0, "rental_uris": {"android": "https://dc.lft.to/lastmile_qr_scan", "ios": "https://dc.lft.to/lastmile_qr_scan"}, "fusion_lon": 0.0, "lat": 38.90118483333333, "bike_id": "f6fd25e769360cb399a5e2a7a3a8ea73", "type": "electric_scooter", "is_reserved": 0, "lon": -77.05234666666666}, {"fusion_lat": 0.0, "name": "6cfe55a51ecec85351cc90d9a7e29200", "is_disabled": 0, "rental_uris": {"android": "https://dc.lft.to/lastmile_qr_scan", "ios": "https://dc.lft.to/lastmile_qr_scan"}, "fusion_lon": 0.0, "lat": 38.879610666666665, "bike_id": "6cfe55a51ecec85351cc90d9a7e29200", "type": "electric_scooter", "is_reserved": 0, "lon": -76.99011783333333}, {"fusion_lat": 0.0, "name": "b1e0f9d7095211cfa14bfad67b1e0172", "is_disabled": 0, "rental_uris": {"android": "https://dc.lft.to/lastmile_qr_scan", "ios": "https://dc.lft.to/lastmile_qr_scan"}, "fusion_lon": 0.0, "lat": 38.8775065, "bike_id": "b1e0f9d7095211cfa14bfad67b1e0172", "type": "electric_scooter", "is_reserved": 0, "lon": -77.01432133333333}, {"fusion_lat": 0.0, "name": "f70ab01d3d5cd4e7781a2275574ff796", "is_disabled": 0, "rental_uris": {"android": "https://dc.lft.to/lastmile_qr_scan", "ios": "https://dc.lft.to/lastmile_qr_scan"}, "fusion_lon": 0.0, "lat": 38.9095015, "bike_id": "f70ab01d3d5cd4e7781a2275574ff796", "type": "electric_scooter", "is_reserved": 0, "lon": -77.04420483333334}, {"fusion_lat": 0.0, "name": "4811470d6aa0e36424178dba3f85e6c8", "is_disabled": 0, "rental_uris": {"android": "https://dc.lft.to/lastmile_qr_scan", "ios": "https://dc.lft.to/lastmile_qr_scan"}, "fusion_lon": 0.0, "lat": 38.92092516666666, "bike_id": "4811470d6aa0e36424178dba3f85e6c8", "type": "electric_scooter", "is_reserved": 0, "lon": -77.07367983333333}, {"fusion_lat": 0.0, "name": "73aae8bb9fb896afb19e3067369fa870", "is_disabled": 0, "rental_uris": {"android": "https://dc.lft.to/lastmile_qr_scan", "ios": "https://dc.lft.to/lastmile_qr_scan"}, "fusion_lon": 0.0, "lat": 38.892422333333336, "bike_id": "73aae8bb9fb896afb19e3067369fa870", "type": "electric_scooter", "is_reserved": 0, "lon": -77.03206133333333}, {"fusion_lat": 0.0, "name": "bbf1f91a2f4e7e1a207a2b2ba55bce99", "is_disabled": 0, "rental_uris": {"android": "https://dc.lft.to/lastmile_qr_scan", "ios": "https://dc.lft.to/lastmile_qr_scan"}, "fusion_lon": 0.0, "lat": 38.89865833333333, "bike_id": "bbf1f91a2f4e7e1a207a2b2ba55bce99", "type": "electric_scooter", "is_reserved": 0, "lon": -77.0263145}, {"fusion_lat": 0.0, "name": "57757c48658327685ca9038baf1e5a31", "is_disabled": 0, "rental_uris": {"android": "https://dc.lft.to/lastmile_qr_scan", "ios": "https://dc.lft.to/lastmile_qr_scan"}, "fusion_lon": 0.0, "lat": 38.95749683333333, "bike_id": "57757c48658327685ca9038baf1e5a31", "type": "electric_bike", "is_reserved": 0, "lon": -76.97255116666666}, {"fusion_lat": 0.0, "name": "faa7ea7a69bbb62dfe04580b4ac9a804", "is_disabled": 0, "rental_uris": {"android": "https://dc.lft.to/lastmile_qr_scan", "ios": "https://dc.lft.to/lastmile_qr_scan"}, "fusion_lon": 0.0, "lat": 38.92079366666667, "bike_id": "faa7ea7a69bbb62dfe04580b4ac9a804", "type": "electric_scooter", "is_reserved": 0, "lon": -77.02311966666667}, {"fusion_lat": 0.0, "name": "ed30010a095a9cef1236b30f3d18d06f", "is_disabled": 0, "rental_uris": {"android": "https://dc.lft.to/lastmile_qr_scan", "ios": "https://dc.lft.to/lastmile_qr_scan"}, "fusion_lon": 0.0, "lat": 38.922735, "bike_id": "ed30010a095a9cef1236b30f3d18d06f", "type": "electric_scooter", "is_reserved": 0, "lon": -76.99129283333333}, {"fusion_lat": 0.0, "name": "22abd5995c342fa79205a137caa8ded2", "is_disabled": 0, "rental_uris": {"android": "https://dc.lft.to/lastmile_qr_scan", "ios": "https://dc.lft.to/lastmile_qr_scan"}, "fusion_lon": 0.0, "lat": 38.91788783333333, "bike_id": "22abd5995c342fa79205a137caa8ded2", "type": "electric_scooter", "is_reserved": 0, "lon": -77.0269275}, {"fusion_lat": 0.0, "name": "fcbb8bd143d2727b426fb2c011ab5839", "is_disabled": 0, "rental_uris": {"android": "https://dc.lft.to/lastmile_qr_scan", "ios": "https://dc.lft.to/lastmile_qr_scan"}, "fusion_lon": 0.0, "lat": 38.9507105, "bike_id": "fcbb8bd143d2727b426fb2c011ab5839", "type": "electric_bike", "is_reserved": 0, "lon": -77.0722765}, {"fusion_lat": 0.0, "name": "6f51e59dd0f15d765e3d09eec2ccb80e", "is_disabled": 0, "rental_uris": {"android": "https://dc.lft.to/lastmile_qr_scan", "ios": "https://dc.lft.to/lastmile_qr_scan"}, "fusion_lon": 0.0, "lat": 38.926600666666666, "bike_id": "6f51e59dd0f15d765e3d09eec2ccb80e", "type": "electric_bike", "is_reserved": 0, "lon": -77.09851266666666}, {"fusion_lat": 0.0, "name": "0b76435587d8569cd46a2726a409401c", "is_disabled": 0, "rental_uris": {"android": "https://dc.lft.to/lastmile_qr_scan", "ios": "https://dc.lft.to/lastmile_qr_scan"}, "fusion_lon": 0.0, "lat": 38.95636916666667, "bike_id": "0b76435587d8569cd46a2726a409401c", "type": "electric_scooter", "is_reserved": 0, "lon": -77.03306}, {"fusion_lat": 0.0, "name": "2be98462f7126e149416b6973157bc58", "is_disabled": 0, "rental_uris": {"android": "https://dc.lft.to/lastmile_qr_scan", "ios": "https://dc.lft.to/lastmile_qr_scan"}, "fusion_lon": 0.0, "lat": 38.90017116666667, "bike_id": "2be98462f7126e149416b6973157bc58", "type": "electric_scooter", "is_reserved": 0, "lon": -77.044994}, {"fusion_lat": 0.0, "name": "605ac19da58f4221d6740390665f5730", "is_disabled": 0, "rental_uris": {"android": "https://dc.lft.to/lastmile_qr_scan", "ios": "https://dc.lft.to/lastmile_qr_scan"}, "fusion_lon": 0.0, "lat": 38.90977183333333, "bike_id": "605ac19da58f4221d6740390665f5730", "type": "electric_scooter", "is_reserved": 0, "lon": -77.021813}, {"fusion_lat": 0.0, "name": "8e4fadb0a5d7fd0633ad1889df0fd16f", "is_disabled": 0, "rental_uris": {"android": "https://dc.lft.to/lastmile_qr_scan", "ios": "https://dc.lft.to/lastmile_qr_scan"}, "fusion_lon": 0.0, "lat": 38.958773, "bike_id": "8e4fadb0a5d7fd0633ad1889df0fd16f", "type": "electric_bike", "is_reserved": 0, "lon": -76.97053816666667}, {"fusion_lat": 0.0, "name": "7380e54fe2c68acaf55a51248528d2c7", "is_disabled": 0, "rental_uris": {"android": "https://dc.lft.to/lastmile_qr_scan", "ios": "https://dc.lft.to/lastmile_qr_scan"}, "fusion_lon": 0.0, "lat": 38.916509, "bike_id": "7380e54fe2c68acaf55a51248528d2c7", "type": "electric_scooter", "is_reserved": 0, "lon": -77.03690233333333}, {"fusion_lat": 0.0, "name": "85240f52a8713744420988c33cd9d922", "is_disabled": 0, "rental_uris": {"android": "https://dc.lft.to/lastmile_qr_scan", "ios": "https://dc.lft.to/lastmile_qr_scan"}, "fusion_lon": 0.0, "lat": 38.9132265, "bike_id": "85240f52a8713744420988c33cd9d922", "type": "electric_scooter", "is_reserved": 0, "lon": -77.0295715}, {"fusion_lat": 0.0, "name": "6cec63b575f6d4845f58f6f535185ae6", "is_disabled": 0, "rental_uris": {"android": "https://dc.lft.to/lastmile_qr_scan", "ios": "https://dc.lft.to/lastmile_qr_scan"}, "fusion_lon": 0.0, "lat": 38.885042166666665, "bike_id": "6cec63b575f6d4845f58f6f535185ae6", "type": "electric_scooter", "is_reserved": 0, "lon": -76.99755716666667}, {"fusion_lat": 0.0, "name": "9400287262399ccfeda61ead74e3a5e5", "is_disabled": 0, "rental_uris": {"android": "https://dc.lft.to/lastmile_qr_scan", "ios": "https://dc.lft.to/lastmile_qr_scan"}, "fusion_lon": 0.0, "lat": 38.88712983333333, "bike_id": "9400287262399ccfeda61ead74e3a5e5", "type": "electric_scooter", "is_reserved": 0, "lon": -77.021751}, {"fusion_lat": 0.0, "name": "da5e3ab810a6ad6030b856cd0ed3cb83", "is_disabled": 0, "rental_uris": {"android": "https://dc.lft.to/lastmile_qr_scan", "ios": "https://dc.lft.to/lastmile_qr_scan"}, "fusion_lon": 0.0, "lat": 38.84917133333333, "bike_id": "da5e3ab810a6ad6030b856cd0ed3cb83", "type": "electric_bike", "is_reserved": 0, "lon": -77.07927266666667}, {"fusion_lat": 0.0, "name": "dd80d5154f5a859b8102cc2a20164d68", "is_disabled": 0, "rental_uris": {"android": "https://dc.lft.to/lastmile_qr_scan", "ios": "https://dc.lft.to/lastmile_qr_scan"}, "fusion_lon": 0.0, "lat": 38.81613816666667, "bike_id": "dd80d5154f5a859b8102cc2a20164d68", "type": "electric_bike", "is_reserved": 0, "lon": -76.99652566666667}, {"fusion_lat": 0.0, "name": "c0f078c30d391899bebd971a55d086ec", "is_disabled": 0, "rental_uris": {"android": "https://dc.lft.to/lastmile_qr_scan", "ios": "https://dc.lft.to/lastmile_qr_scan"}, "fusion_lon": 0.0, "lat": 38.9060785, "bike_id": "c0f078c30d391899bebd971a55d086ec", "type": "electric_scooter", "is_reserved": 0, "lon": -77.04508383333334}, {"fusion_lat": 0.0, "name": "bb4a7e2d5a3046d3b89e530f1e7379a8", "is_disabled": 0, "rental_uris": {"android": "https://dc.lft.to/lastmile_qr_scan", "ios": "https://dc.lft.to/lastmile_qr_scan"}, "fusion_lon": 0.0, "lat": 38.90423116666667, "bike_id": "bb4a7e2d5a3046d3b89e530f1e7379a8", "type": "electric_scooter", "is_reserved": 0, "lon": -77.02669983333334}, {"fusion_lat": 0.0, "name": "2f6e04875601dec9156ca7c2cb0f4d1f", "is_disabled": 0, "rental_uris": {"android": "https://dc.lft.to/lastmile_qr_scan", "ios": "https://dc.lft.to/lastmile_qr_scan"}, "fusion_lon": 0.0, "lat": 39.01418433333333, "bike_id": "2f6e04875601dec9156ca7c2cb0f4d1f", "type": "electric_bike", "is_reserved": 0, "lon": -77.04496933333333}, {"fusion_lat": 0.0, "name": "b37aecd50f6244249c800bb2aa198260", "is_disabled": 0, "rental_uris": {"android": "https://dc.lft.to/lastmile_qr_scan", "ios": "https://dc.lft.to/lastmile_qr_scan"}, "fusion_lon": 0.0, "lat": 38.93195266666667, "bike_id": "b37aecd50f6244249c800bb2aa198260", "type": "electric_scooter", "is_reserved": 0, "lon": -77.02972433333333}, {"fusion_lat": 0.0, "name": "056bea824cb0ff49a4f6218ee4159eb1", "is_disabled": 0, "rental_uris": {"android": "https://dc.lft.to/lastmile_qr_scan", "ios": "https://dc.lft.to/lastmile_qr_scan"}, "fusion_lon": 0.0, "lat": 38.927101666666665, "bike_id": "056bea824cb0ff49a4f6218ee4159eb1", "type": "electric_scooter", "is_reserved": 0, "lon": -77.02082633333333}, {"fusion_lat": 0.0, "name": "48923b3db599f8e50e4c6799f80084bd", "is_disabled": 0, "rental_uris": {"android": "https://dc.lft.to/lastmile_qr_scan", "ios": "https://dc.lft.to/lastmile_qr_scan"}, "fusion_lon": 0.0, "lat": 38.900628833333336, "bike_id": "48923b3db599f8e50e4c6799f80084bd", "type": "electric_scooter", "is_reserved": 0, "lon": -76.98710416666667}, {"fusion_lat": 0.0, "name": "2a65e56f5c17e06628c88e7db4f40d82", "is_disabled": 0, "rental_uris": {"android": "https://dc.lft.to/lastmile_qr_scan", "ios": "https://dc.lft.to/lastmile_qr_scan"}, "fusion_lon": 0.0, "lat": 38.92792466666667, "bike_id": "2a65e56f5c17e06628c88e7db4f40d82", "type": "electric_scooter", "is_reserved": 0, "lon": -76.955587}, {"fusion_lat": 0.0, "name": "ca8b0171897360514785814cff18228b", "is_disabled": 0, "rental_uris": {"android": "https://dc.lft.to/lastmile_qr_scan", "ios": "https://dc.lft.to/lastmile_qr_scan"}, "fusion_lon": 0.0, "lat": 38.897254, "bike_id": "ca8b0171897360514785814cff18228b", "type": "electric_scooter", "is_reserved": 0, "lon": -77.02241516666666}, {"fusion_lat": 0.0, "name": "c59a048b8f50a60ffe0a7d6b21081650", "is_disabled": 0, "rental_uris": {"android": "https://dc.lft.to/lastmile_qr_scan", "ios": "https://dc.lft.to/lastmile_qr_scan"}, "fusion_lon": 0.0, "lat": 38.94924816666666, "bike_id": "c59a048b8f50a60ffe0a7d6b21081650", "type": "electric_scooter", "is_reserved": 0, "lon": -77.01863283333333}, {"fusion_lat": 0.0, "name": "32c5d391a79489f176c6a4b6288ebf62", "is_disabled": 0, "rental_uris": {"android": "https://dc.lft.to/lastmile_qr_scan", "ios": "https://dc.lft.to/lastmile_qr_scan"}, "fusion_lon": 0.0, "lat": 38.904873333333335, "bike_id": "32c5d391a79489f176c6a4b6288ebf62", "type": "electric_scooter", "is_reserved": 0, "lon": -76.94955866666666}, {"fusion_lat": 0.0, "name": "f7d612f4533372804d88ae54b18ae53f", "is_disabled": 0, "rental_uris": {"android": "https://dc.lft.to/lastmile_qr_scan", "ios": "https://dc.lft.to/lastmile_qr_scan"}, "fusion_lon": 0.0, "lat": 38.9205355, "bike_id": "f7d612f4533372804d88ae54b18ae53f", "type": "electric_scooter", "is_reserved": 0, "lon": -77.03404216666667}, {"fusion_lat": 0.0, "name": "99eea9e889aa5d55e298fd354f9f41be", "is_disabled": 0, "rental_uris": {"android": "https://dc.lft.to/lastmile_qr_scan", "ios": "https://dc.lft.to/lastmile_qr_scan"}, "fusion_lon": 0.0, "lat": 38.98819116666667, "bike_id": "99eea9e889aa5d55e298fd354f9f41be", "type": "electric_bike", "is_reserved": 0, "lon": -77.02650916666667}, {"fusion_lat": 0.0, "name": "9ff4f0a5fb43ea3b8fb06703c71ddb3e", "is_disabled": 0, "rental_uris": {"android": "https://dc.lft.to/lastmile_qr_scan", "ios": "https://dc.lft.to/lastmile_qr_scan"}, "fusion_lon": 0.0, "lat": 38.897534, "bike_id": "9ff4f0a5fb43ea3b8fb06703c71ddb3e", "type": "electric_scooter", "is_reserved": 0, "lon": -77.03215666666667}, {"fusion_lat": 0.0, "name": "623244a80dddda88e9f221707f7803cd", "is_disabled": 0, "rental_uris": {"android": "https://dc.lft.to/lastmile_qr_scan", "ios": "https://dc.lft.to/lastmile_qr_scan"}, "fusion_lon": 0.0, "lat": 38.892376, "bike_id": "623244a80dddda88e9f221707f7803cd", "type": "electric_scooter", "is_reserved": 0, "lon": -77.04672816666667}, {"fusion_lat": 0.0, "name": "ffe4a8204136911774535890595dc4d4", "is_disabled": 0, "rental_uris": {"android": "https://dc.lft.to/lastmile_qr_scan", "ios": "https://dc.lft.to/lastmile_qr_scan"}, "fusion_lon": 0.0, "lat": 38.91340266666667, "bike_id": "ffe4a8204136911774535890595dc4d4", "type": "electric_scooter", "is_reserved": 0, "lon": -77.0434195}, {"fusion_lat": 0.0, "name": "eeedaef6c47458295f3fc76e819ca918", "is_disabled": 0, "rental_uris": {"android": "https://dc.lft.to/lastmile_qr_scan", "ios": "https://dc.lft.to/lastmile_qr_scan"}, "fusion_lon": 0.0, "lat": 38.9058295, "bike_id": "eeedaef6c47458295f3fc76e819ca918", "type": "electric_scooter", "is_reserved": 0, "lon": -77.00566683333334}, {"fusion_lat": 0.0, "name": "c77f128a2f0c5189ab6032daf6bd7a3e", "is_disabled": 0, "rental_uris": {"android": "https://dc.lft.to/lastmile_qr_scan", "ios": "https://dc.lft.to/lastmile_qr_scan"}, "fusion_lon": 0.0, "lat": 38.87571716666667, "bike_id": "c77f128a2f0c5189ab6032daf6bd7a3e", "type": "electric_scooter", "is_reserved": 0, "lon": -77.00936166666666}, {"fusion_lat": 0.0, "name": "7a01b45106e4b2d2c7e9635f525d6ae1", "is_disabled": 0, "rental_uris": {"android": "https://dc.lft.to/lastmile_qr_scan", "ios": "https://dc.lft.to/lastmile_qr_scan"}, "fusion_lon": 0.0, "lat": 38.92265783333333, "bike_id": "7a01b45106e4b2d2c7e9635f525d6ae1", "type": "electric_scooter", "is_reserved": 0, "lon": -77.0424605}, {"fusion_lat": 0.0, "name": "0a71a864d4c22f35ce711e7622476eaf", "is_disabled": 0, "rental_uris": {"android": "https://dc.lft.to/lastmile_qr_scan", "ios": "https://dc.lft.to/lastmile_qr_scan"}, "fusion_lon": 0.0, "lat": 38.91656966666667, "bike_id": "0a71a864d4c22f35ce711e7622476eaf", "type": "electric_scooter", "is_reserved": 0, "lon": -77.03443866666667}, {"fusion_lat": 0.0, "name": "98c3855d2d5a81d4fabe3973f92b795b", "is_disabled": 0, "rental_uris": {"android": "https://dc.lft.to/lastmile_qr_scan", "ios": "https://dc.lft.to/lastmile_qr_scan"}, "fusion_lon": 0.0, "lat": 38.92447383333333, "bike_id": "98c3855d2d5a81d4fabe3973f92b795b", "type": "electric_scooter", "is_reserved": 0, "lon": -77.052475}, {"fusion_lat": 0.0, "name": "efe351bb45f087dc6ee05477d2908f91", "is_disabled": 0, "rental_uris": {"android": "https://dc.lft.to/lastmile_qr_scan", "ios": "https://dc.lft.to/lastmile_qr_scan"}, "fusion_lon": 0.0, "lat": 38.8930625, "bike_id": "efe351bb45f087dc6ee05477d2908f91", "type": "electric_scooter", "is_reserved": 0, "lon": -77.0214875}, {"fusion_lat": 0.0, "name": "58b7cabe91e4b5ef71dc271115aac35a", "is_disabled": 0, "rental_uris": {"android": "https://dc.lft.to/lastmile_qr_scan", "ios": "https://dc.lft.to/lastmile_qr_scan"}, "fusion_lon": 0.0, "lat": 38.82099083333333, "bike_id": "58b7cabe91e4b5ef71dc271115aac35a", "type": "electric_bike", "is_reserved": 0, "lon": -77.05301216666666}, {"fusion_lat": 0.0, "name": "445a5cd74a756710f80491105b2b7c14", "is_disabled": 0, "rental_uris": {"android": "https://dc.lft.to/lastmile_qr_scan", "ios": "https://dc.lft.to/lastmile_qr_scan"}, "fusion_lon": 0.0, "lat": 38.88248166666666, "bike_id": "445a5cd74a756710f80491105b2b7c14", "type": "electric_bike", "is_reserved": 0, "lon": -76.96262416666667}, {"fusion_lat": 0.0, "name": "c692f5ce56e58c875de069f5dde69117", "is_disabled": 0, "rental_uris": {"android": "https://dc.lft.to/lastmile_qr_scan", "ios": "https://dc.lft.to/lastmile_qr_scan"}, "fusion_lon": 0.0, "lat": 38.903905333333334, "bike_id": "c692f5ce56e58c875de069f5dde69117", "type": "electric_scooter", "is_reserved": 0, "lon": -77.03206533333334}, {"fusion_lat": 0.0, "name": "b018c305e739b67e575be20a7a9d136a", "is_disabled": 0, "rental_uris": {"android": "https://dc.lft.to/lastmile_qr_scan", "ios": "https://dc.lft.to/lastmile_qr_scan"}, "fusion_lon": 0.0, "lat": 38.89726983333333, "bike_id": "b018c305e739b67e575be20a7a9d136a", "type": "electric_scooter", "is_reserved": 0, "lon": -77.03171066666667}, {"fusion_lat": 0.0, "name": "2f38024d639ec1fcc02e6ff569dcb104", "is_disabled": 0, "rental_uris": {"android": "https://dc.lft.to/lastmile_qr_scan", "ios": "https://dc.lft.to/lastmile_qr_scan"}, "fusion_lon": 0.0, "lat": 38.932383333333334, "bike_id": "2f38024d639ec1fcc02e6ff569dcb104", "type": "electric_scooter", "is_reserved": 0, "lon": -77.02843233333333}, {"fusion_lat": 0.0, "name": "e7c6f6885e5d1ca52c7396e2956dc718", "is_disabled": 0, "rental_uris": {"android": "https://dc.lft.to/lastmile_qr_scan", "ios": "https://dc.lft.to/lastmile_qr_scan"}, "fusion_lon": 0.0, "lat": 38.907565166666664, "bike_id": "e7c6f6885e5d1ca52c7396e2956dc718", "type": "electric_scooter", "is_reserved": 0, "lon": -77.0384125}, {"fusion_lat": 0.0, "name": "bfe7512af00b8ff86a3a5e19e6fc4c6f", "is_disabled": 0, "rental_uris": {"android": "https://dc.lft.to/lastmile_qr_scan", "ios": "https://dc.lft.to/lastmile_qr_scan"}, "fusion_lon": 0.0, "lat": 38.84507416666667, "bike_id": "bfe7512af00b8ff86a3a5e19e6fc4c6f", "type": "electric_bike", "is_reserved": 0, "lon": -76.9935265}, {"fusion_lat": 0.0, "name": "313151ba856a0c5b9d2808c7430f231f", "is_disabled": 0, "rental_uris": {"android": "https://dc.lft.to/lastmile_qr_scan", "ios": "https://dc.lft.to/lastmile_qr_scan"}, "fusion_lon": 0.0, "lat": 38.907274666666666, "bike_id": "313151ba856a0c5b9d2808c7430f231f", "type": "electric_scooter", "is_reserved": 0, "lon": -77.04337516666666}, {"fusion_lat": 0.0, "name": "1e6f29ada26bf9486ca74246935c8fbe", "is_disabled": 0, "rental_uris": {"android": "https://dc.lft.to/lastmile_qr_scan", "ios": "https://dc.lft.to/lastmile_qr_scan"}, "fusion_lon": 0.0, "lat": 38.92384833333333, "bike_id": "1e6f29ada26bf9486ca74246935c8fbe", "type": "electric_scooter", "is_reserved": 0, "lon": -77.0753105}, {"fusion_lat": 0.0, "name": "8d384291f3238c067268d924f1eab1bc", "is_disabled": 0, "rental_uris": {"android": "https://dc.lft.to/lastmile_qr_scan", "ios": "https://dc.lft.to/lastmile_qr_scan"}, "fusion_lon": 0.0, "lat": 38.904290333333336, "bike_id": "8d384291f3238c067268d924f1eab1bc", "type": "electric_scooter", "is_reserved": 0, "lon": -77.02395816666667}, {"fusion_lat": 0.0, "name": "6241df8513719484e57aae64aebe66e0", "is_disabled": 0, "rental_uris": {"android": "https://dc.lft.to/lastmile_qr_scan", "ios": "https://dc.lft.to/lastmile_qr_scan"}, "fusion_lon": 0.0, "lat": 38.917026166666666, "bike_id": "6241df8513719484e57aae64aebe66e0", "type": "electric_scooter", "is_reserved": 0, "lon": -77.0116575}, {"fusion_lat": 0.0, "name": "66d98c0a2f17cbfc405350f3562ffeeb", "is_disabled": 0, "rental_uris": {"android": "https://dc.lft.to/lastmile_qr_scan", "ios": "https://dc.lft.to/lastmile_qr_scan"}, "fusion_lon": 0.0, "lat": 38.898777833333334, "bike_id": "66d98c0a2f17cbfc405350f3562ffeeb", "type": "electric_scooter", "is_reserved": 0, "lon": -76.93184766666667}, {"fusion_lat": 0.0, "name": "4a2c04941de2919dcf97312dc15dcf4f", "is_disabled": 0, "rental_uris": {"android": "https://dc.lft.to/lastmile_qr_scan", "ios": "https://dc.lft.to/lastmile_qr_scan"}, "fusion_lon": 0.0, "lat": 38.90448933333333, "bike_id": "4a2c04941de2919dcf97312dc15dcf4f", "type": "electric_scooter", "is_reserved": 0, "lon": -77.0178195}, {"fusion_lat": 0.0, "name": "cb5117ff19cdb7787c4555fc881837e1", "is_disabled": 0, "rental_uris": {"android": "https://dc.lft.to/lastmile_qr_scan", "ios": "https://dc.lft.to/lastmile_qr_scan"}, "fusion_lon": 0.0, "lat": 38.91714666666667, "bike_id": "cb5117ff19cdb7787c4555fc881837e1", "type": "electric_scooter", "is_reserved": 0, "lon": -77.03667233333333}, {"fusion_lat": 0.0, "name": "a3980b6f7884fdfd7f50539d4f1bffe0", "is_disabled": 0, "rental_uris": {"android": "https://dc.lft.to/lastmile_qr_scan", "ios": "https://dc.lft.to/lastmile_qr_scan"}, "fusion_lon": 0.0, "lat": 38.923993833333334, "bike_id": "a3980b6f7884fdfd7f50539d4f1bffe0", "type": "electric_scooter", "is_reserved": 0, "lon": -77.02487066666667}, {"fusion_lat": 0.0, "name": "6b468ca5a62868af2cfde40e2a345f2b", "is_disabled": 0, "rental_uris": {"android": "https://dc.lft.to/lastmile_qr_scan", "ios": "https://dc.lft.to/lastmile_qr_scan"}, "fusion_lon": 0.0, "lat": 38.877118, "bike_id": "6b468ca5a62868af2cfde40e2a345f2b", "type": "electric_scooter", "is_reserved": 0, "lon": -76.99383683333333}, {"fusion_lat": 0.0, "name": "b8692c5b4203ede67ab30fdbf524109e", "is_disabled": 0, "rental_uris": {"android": "https://dc.lft.to/lastmile_qr_scan", "ios": "https://dc.lft.to/lastmile_qr_scan"}, "fusion_lon": 0.0, "lat": 38.927886, "bike_id": "b8692c5b4203ede67ab30fdbf524109e", "type": "electric_scooter", "is_reserved": 0, "lon": -77.05283583333333}, {"fusion_lat": 0.0, "name": "a9542f91e4086cd5cf2f02079e69ca69", "is_disabled": 0, "rental_uris": {"android": "https://dc.lft.to/lastmile_qr_scan", "ios": "https://dc.lft.to/lastmile_qr_scan"}, "fusion_lon": 0.0, "lat": 38.886143, "bike_id": "a9542f91e4086cd5cf2f02079e69ca69", "type": "electric_scooter", "is_reserved": 0, "lon": -77.01553983333334}, {"fusion_lat": 0.0, "name": "7fa4c050db4c50e945a7f50215b0942e", "is_disabled": 0, "rental_uris": {"android": "https://dc.lft.to/lastmile_qr_scan", "ios": "https://dc.lft.to/lastmile_qr_scan"}, "fusion_lon": 0.0, "lat": 38.91737966666667, "bike_id": "7fa4c050db4c50e945a7f50215b0942e", "type": "electric_scooter", "is_reserved": 0, "lon": -77.0415765}, {"fusion_lat": 0.0, "name": "f5911bb4c6a7c8270863d7bf949cb79a", "is_disabled": 0, "rental_uris": {"android": "https://dc.lft.to/lastmile_qr_scan", "ios": "https://dc.lft.to/lastmile_qr_scan"}, "fusion_lon": 0.0, "lat": 38.89606466666667, "bike_id": "f5911bb4c6a7c8270863d7bf949cb79a", "type": "electric_scooter", "is_reserved": 0, "lon": -77.00927033333333}, {"fusion_lat": 0.0, "name": "71cd634ded64abd1a354ffc75849311c", "is_disabled": 0, "rental_uris": {"android": "https://dc.lft.to/lastmile_qr_scan", "ios": "https://dc.lft.to/lastmile_qr_scan"}, "fusion_lon": 0.0, "lat": 38.89240516666667, "bike_id": "71cd634ded64abd1a354ffc75849311c", "type": "electric_scooter", "is_reserved": 0, "lon": -77.02601316666667}, {"fusion_lat": 0.0, "name": "4de5bf95998d0c9f8843d72f34ca2fab", "is_disabled": 0, "rental_uris": {"android": "https://dc.lft.to/lastmile_qr_scan", "ios": "https://dc.lft.to/lastmile_qr_scan"}, "fusion_lon": 0.0, "lat": 38.88767166666667, "bike_id": "4de5bf95998d0c9f8843d72f34ca2fab", "type": "electric_scooter", "is_reserved": 0, "lon": -76.97750883333333}, {"fusion_lat": 0.0, "name": "bc61d2631f690e76d709ba055ff1993f", "is_disabled": 0, "rental_uris": {"android": "https://dc.lft.to/lastmile_qr_scan", "ios": "https://dc.lft.to/lastmile_qr_scan"}, "fusion_lon": 0.0, "lat": 38.921389, "bike_id": "bc61d2631f690e76d709ba055ff1993f", "type": "electric_scooter", "is_reserved": 0, "lon": -77.00955233333333}, {"fusion_lat": 0.0, "name": "0f260be884eede84a08dbce40d8c0e28", "is_disabled": 0, "rental_uris": {"android": "https://dc.lft.to/lastmile_qr_scan", "ios": "https://dc.lft.to/lastmile_qr_scan"}, "fusion_lon": 0.0, "lat": 38.96135733333333, "bike_id": "0f260be884eede84a08dbce40d8c0e28", "type": "electric_bike", "is_reserved": 0, "lon": -77.03337983333333}, {"fusion_lat": 0.0, "name": "af86f4e8b17cdf6651ccbecf3b10f001", "is_disabled": 0, "rental_uris": {"android": "https://dc.lft.to/lastmile_qr_scan", "ios": "https://dc.lft.to/lastmile_qr_scan"}, "fusion_lon": 0.0, "lat": 38.877215166666666, "bike_id": "af86f4e8b17cdf6651ccbecf3b10f001", "type": "electric_scooter", "is_reserved": 0, "lon": -77.017636}, {"fusion_lat": 0.0, "name": "26d9c354b7471965b73bd59e0856b955", "is_disabled": 0, "rental_uris": {"android": "https://dc.lft.to/lastmile_qr_scan", "ios": "https://dc.lft.to/lastmile_qr_scan"}, "fusion_lon": 0.0, "lat": 38.920795, "bike_id": "26d9c354b7471965b73bd59e0856b955", "type": "electric_scooter", "is_reserved": 0, "lon": -77.023123}, {"fusion_lat": 0.0, "name": "1f3316dc2ec304322bbca6bc466b9b37", "is_disabled": 0, "rental_uris": {"android": "https://dc.lft.to/lastmile_qr_scan", "ios": "https://dc.lft.to/lastmile_qr_scan"}, "fusion_lon": 0.0, "lat": 38.916614, "bike_id": "1f3316dc2ec304322bbca6bc466b9b37", "type": "electric_scooter", "is_reserved": 0, "lon": -77.03856216666667}, {"fusion_lat": 0.0, "name": "a4e635a435255221fdd68cf92c5cfcf3", "is_disabled": 0, "rental_uris": {"android": "https://dc.lft.to/lastmile_qr_scan", "ios": "https://dc.lft.to/lastmile_qr_scan"}, "fusion_lon": 0.0, "lat": 38.886157833333336, "bike_id": "a4e635a435255221fdd68cf92c5cfcf3", "type": "electric_scooter", "is_reserved": 0, "lon": -77.01558383333334}, {"fusion_lat": 0.0, "name": "84955b1a1fc2da3ad03263e467bf319d", "is_disabled": 0, "rental_uris": {"android": "https://dc.lft.to/lastmile_qr_scan", "ios": "https://dc.lft.to/lastmile_qr_scan"}, "fusion_lon": 0.0, "lat": 38.85463333333333, "bike_id": "84955b1a1fc2da3ad03263e467bf319d", "type": "electric_scooter", "is_reserved": 0, "lon": -76.97222166666667}, {"fusion_lat": 0.0, "name": "72380e323777913ad7bbd02f3f108383", "is_disabled": 0, "rental_uris": {"android": "https://dc.lft.to/lastmile_qr_scan", "ios": "https://dc.lft.to/lastmile_qr_scan"}, "fusion_lon": 0.0, "lat": 38.896440166666665, "bike_id": "72380e323777913ad7bbd02f3f108383", "type": "electric_scooter", "is_reserved": 0, "lon": -77.00914616666667}, {"fusion_lat": 0.0, "name": "92b38007ee81a9531da6093ad4f6bad3", "is_disabled": 0, "rental_uris": {"android": "https://dc.lft.to/lastmile_qr_scan", "ios": "https://dc.lft.to/lastmile_qr_scan"}, "fusion_lon": 0.0, "lat": 38.90550483333333, "bike_id": "92b38007ee81a9531da6093ad4f6bad3", "type": "electric_scooter", "is_reserved": 0, "lon": -77.03485683333334}, {"fusion_lat": 0.0, "name": "d001f0ef9a52f8d33843ee5551273a99", "is_disabled": 0, "rental_uris": {"android": "https://dc.lft.to/lastmile_qr_scan", "ios": "https://dc.lft.to/lastmile_qr_scan"}, "fusion_lon": 0.0, "lat": 38.89230883333333, "bike_id": "d001f0ef9a52f8d33843ee5551273a99", "type": "electric_scooter", "is_reserved": 0, "lon": -77.017109}, {"fusion_lat": 0.0, "name": "31d5412829e48cd4105bb571787a945d", "is_disabled": 0, "rental_uris": {"android": "https://dc.lft.to/lastmile_qr_scan", "ios": "https://dc.lft.to/lastmile_qr_scan"}, "fusion_lon": 0.0, "lat": 38.963736833333336, "bike_id": "31d5412829e48cd4105bb571787a945d", "type": "electric_scooter", "is_reserved": 0, "lon": -77.02047716666667}, {"fusion_lat": 0.0, "name": "8bf92fe5978dd944029e8770fe56c0d5", "is_disabled": 0, "rental_uris": {"android": "https://dc.lft.to/lastmile_qr_scan", "ios": "https://dc.lft.to/lastmile_qr_scan"}, "fusion_lon": 0.0, "lat": 38.88482616666667, "bike_id": "8bf92fe5978dd944029e8770fe56c0d5", "type": "electric_scooter", "is_reserved": 0, "lon": -76.99596133333333}, {"fusion_lat": 0.0, "name": "5b7e4736d8177efc6237adff9e30229b", "is_disabled": 0, "rental_uris": {"android": "https://dc.lft.to/lastmile_qr_scan", "ios": "https://dc.lft.to/lastmile_qr_scan"}, "fusion_lon": 0.0, "lat": 38.909749, "bike_id": "5b7e4736d8177efc6237adff9e30229b", "type": "electric_scooter", "is_reserved": 0, "lon": -77.00898283333333}, {"fusion_lat": 0.0, "name": "37efa3cf7b7926d061a1a74556c1edaf", "is_disabled": 0, "rental_uris": {"android": "https://dc.lft.to/lastmile_qr_scan", "ios": "https://dc.lft.to/lastmile_qr_scan"}, "fusion_lon": 0.0, "lat": 38.928537666666664, "bike_id": "37efa3cf7b7926d061a1a74556c1edaf", "type": "electric_scooter", "is_reserved": 0, "lon": -77.02438166666667}, {"fusion_lat": 0.0, "name": "ad8b5b31f1374df020f8acab377007aa", "is_disabled": 0, "rental_uris": {"android": "https://dc.lft.to/lastmile_qr_scan", "ios": "https://dc.lft.to/lastmile_qr_scan"}, "fusion_lon": 0.0, "lat": 38.896310666666665, "bike_id": "ad8b5b31f1374df020f8acab377007aa", "type": "electric_scooter", "is_reserved": 0, "lon": -77.03222216666667}, {"fusion_lat": 0.0, "name": "43f4812808c5ffec3787957bf745274d", "is_disabled": 0, "rental_uris": {"android": "https://dc.lft.to/lastmile_qr_scan", "ios": "https://dc.lft.to/lastmile_qr_scan"}, "fusion_lon": 0.0, "lat": 38.914605333333334, "bike_id": "43f4812808c5ffec3787957bf745274d", "type": "electric_scooter", "is_reserved": 0, "lon": -77.00211116666667}, {"fusion_lat": 0.0, "name": "f8ad6af120eb5b497075fc48a0204dd7", "is_disabled": 0, "rental_uris": {"android": "https://dc.lft.to/lastmile_qr_scan", "ios": "https://dc.lft.to/lastmile_qr_scan"}, "fusion_lon": 0.0, "lat": 38.86250366666667, "bike_id": "f8ad6af120eb5b497075fc48a0204dd7", "type": "electric_scooter", "is_reserved": 0, "lon": -76.99497716666667}, {"fusion_lat": 0.0, "name": "8b230d3b473a2990f289429ca5f402d3", "is_disabled": 0, "rental_uris": {"android": "https://dc.lft.to/lastmile_qr_scan", "ios": "https://dc.lft.to/lastmile_qr_scan"}, "fusion_lon": 0.0, "lat": 38.918206166666664, "bike_id": "8b230d3b473a2990f289429ca5f402d3", "type": "electric_scooter", "is_reserved": 0, "lon": -77.02533766666667}, {"fusion_lat": 0.0, "name": "0c5842a94fd23524688e1ef28bdd0168", "is_disabled": 0, "rental_uris": {"android": "https://dc.lft.to/lastmile_qr_scan", "ios": "https://dc.lft.to/lastmile_qr_scan"}, "fusion_lon": 0.0, "lat": 38.897464166666666, "bike_id": "0c5842a94fd23524688e1ef28bdd0168", "type": "electric_scooter", "is_reserved": 0, "lon": -77.00430383333334}, {"fusion_lat": 0.0, "name": "23df39b4c58044601c645778a82288ff", "is_disabled": 0, "rental_uris": {"android": "https://dc.lft.to/lastmile_qr_scan", "ios": "https://dc.lft.to/lastmile_qr_scan"}, "fusion_lon": 0.0, "lat": 38.864251833333334, "bike_id": "23df39b4c58044601c645778a82288ff", "type": "electric_scooter", "is_reserved": 0, "lon": -76.9741685}, {"fusion_lat": 0.0, "name": "c13c3a5677ebefb148630d876b308297", "is_disabled": 0, "rental_uris": {"android": "https://dc.lft.to/lastmile_qr_scan", "ios": "https://dc.lft.to/lastmile_qr_scan"}, "fusion_lon": 0.0, "lat": 38.909811166666664, "bike_id": "c13c3a5677ebefb148630d876b308297", "type": "electric_scooter", "is_reserved": 0, "lon": -77.03380866666667}, {"fusion_lat": 0.0, "name": "f72f12707e74dfe5f9d47014b111cbd3", "is_disabled": 0, "rental_uris": {"android": "https://dc.lft.to/lastmile_qr_scan", "ios": "https://dc.lft.to/lastmile_qr_scan"}, "fusion_lon": 0.0, "lat": 38.93221716666667, "bike_id": "f72f12707e74dfe5f9d47014b111cbd3", "type": "electric_scooter", "is_reserved": 0, "lon": -77.03342783333333}, {"fusion_lat": 0.0, "name": "e55124ef045dce49e6a408046c654164", "is_disabled": 0, "rental_uris": {"android": "https://dc.lft.to/lastmile_qr_scan", "ios": "https://dc.lft.to/lastmile_qr_scan"}, "fusion_lon": 0.0, "lat": 38.89792683333334, "bike_id": "e55124ef045dce49e6a408046c654164", "type": "electric_scooter", "is_reserved": 0, "lon": -76.9312685}, {"fusion_lat": 0.0, "name": "508607f1e64925a40c34b1cbc4a25625", "is_disabled": 0, "rental_uris": {"android": "https://dc.lft.to/lastmile_qr_scan", "ios": "https://dc.lft.to/lastmile_qr_scan"}, "fusion_lon": 0.0, "lat": 38.85354916666667, "bike_id": "508607f1e64925a40c34b1cbc4a25625", "type": "electric_bike", "is_reserved": 0, "lon": -77.13470233333334}, {"fusion_lat": 0.0, "name": "d24541eba201a08091c13ef5486a6356", "is_disabled": 0, "rental_uris": {"android": "https://dc.lft.to/lastmile_qr_scan", "ios": "https://dc.lft.to/lastmile_qr_scan"}, "fusion_lon": 0.0, "lat": 38.900186, "bike_id": "d24541eba201a08091c13ef5486a6356", "type": "electric_scooter", "is_reserved": 0, "lon": -76.99856233333334}, {"fusion_lat": 0.0, "name": "d7a265a270ef381d0c4180fce4ed09be", "is_disabled": 0, "rental_uris": {"android": "https://dc.lft.to/lastmile_qr_scan", "ios": "https://dc.lft.to/lastmile_qr_scan"}, "fusion_lon": 0.0, "lat": 38.9167085, "bike_id": "d7a265a270ef381d0c4180fce4ed09be", "type": "electric_scooter", "is_reserved": 0, "lon": -77.0385385}, {"fusion_lat": 0.0, "name": "c18e4477c714cbaa72940f86d87edc35", "is_disabled": 0, "rental_uris": {"android": "https://dc.lft.to/lastmile_qr_scan", "ios": "https://dc.lft.to/lastmile_qr_scan"}, "fusion_lon": 0.0, "lat": 38.88658616666667, "bike_id": "c18e4477c714cbaa72940f86d87edc35", "type": "electric_scooter", "is_reserved": 0, "lon": -77.00114466666666}, {"fusion_lat": 0.0, "name": "55f28d6d2b9af24b117679f3fb6faaac", "is_disabled": 0, "rental_uris": {"android": "https://dc.lft.to/lastmile_qr_scan", "ios": "https://dc.lft.to/lastmile_qr_scan"}, "fusion_lon": 0.0, "lat": 38.902789166666665, "bike_id": "55f28d6d2b9af24b117679f3fb6faaac", "type": "electric_scooter", "is_reserved": 0, "lon": -77.0176825}, {"fusion_lat": 0.0, "name": "b2be16f22f9197df1e65f154d214bffb", "is_disabled": 0, "rental_uris": {"android": "https://dc.lft.to/lastmile_qr_scan", "ios": "https://dc.lft.to/lastmile_qr_scan"}, "fusion_lon": 0.0, "lat": 38.899652, "bike_id": "b2be16f22f9197df1e65f154d214bffb", "type": "electric_scooter", "is_reserved": 0, "lon": -76.981598}, {"fusion_lat": 0.0, "name": "660ca44ef5ac9f07ca6919ed8891832b", "is_disabled": 0, "rental_uris": {"android": "https://dc.lft.to/lastmile_qr_scan", "ios": "https://dc.lft.to/lastmile_qr_scan"}, "fusion_lon": 0.0, "lat": 38.897596666666665, "bike_id": "660ca44ef5ac9f07ca6919ed8891832b", "type": "electric_scooter", "is_reserved": 0, "lon": -77.02390733333333}, {"fusion_lat": 0.0, "name": "0eed276da8f16df527f7708fc0840d5d", "is_disabled": 0, "rental_uris": {"android": "https://dc.lft.to/lastmile_qr_scan", "ios": "https://dc.lft.to/lastmile_qr_scan"}, "fusion_lon": 0.0, "lat": 38.9388315, "bike_id": "0eed276da8f16df527f7708fc0840d5d", "type": "electric_scooter", "is_reserved": 0, "lon": -77.03284433333333}, {"fusion_lat": 0.0, "name": "027b623a69e1815b77943f4d9b6eba73", "is_disabled": 0, "rental_uris": {"android": "https://dc.lft.to/lastmile_qr_scan", "ios": "https://dc.lft.to/lastmile_qr_scan"}, "fusion_lon": 0.0, "lat": 38.917337, "bike_id": "027b623a69e1815b77943f4d9b6eba73", "type": "electric_scooter", "is_reserved": 0, "lon": -77.04174083333334}, {"fusion_lat": 0.0, "name": "1340e071225669c73a7db98c95f3b94a", "is_disabled": 0, "rental_uris": {"android": "https://dc.lft.to/lastmile_qr_scan", "ios": "https://dc.lft.to/lastmile_qr_scan"}, "fusion_lon": 0.0, "lat": 38.909598, "bike_id": "1340e071225669c73a7db98c95f3b94a", "type": "electric_scooter", "is_reserved": 0, "lon": -76.98539483333333}, {"fusion_lat": 0.0, "name": "1952639ab6a2866ce061cdf4bd474359", "is_disabled": 0, "rental_uris": {"android": "https://dc.lft.to/lastmile_qr_scan", "ios": "https://dc.lft.to/lastmile_qr_scan"}, "fusion_lon": 0.0, "lat": 38.9024085, "bike_id": "1952639ab6a2866ce061cdf4bd474359", "type": "electric_scooter", "is_reserved": 0, "lon": -77.03479133333333}, {"fusion_lat": 0.0, "name": "fe071362270fba8d5683e5c2041349fb", "is_disabled": 0, "rental_uris": {"android": "https://dc.lft.to/lastmile_qr_scan", "ios": "https://dc.lft.to/lastmile_qr_scan"}, "fusion_lon": 0.0, "lat": 38.9529505, "bike_id": "fe071362270fba8d5683e5c2041349fb", "type": "electric_bike", "is_reserved": 0, "lon": -76.999924}, {"fusion_lat": 0.0, "name": "b07921bf92a0b3c52392487c388c1799", "is_disabled": 0, "rental_uris": {"android": "https://dc.lft.to/lastmile_qr_scan", "ios": "https://dc.lft.to/lastmile_qr_scan"}, "fusion_lon": 0.0, "lat": 38.892283666666664, "bike_id": "b07921bf92a0b3c52392487c388c1799", "type": "electric_scooter", "is_reserved": 0, "lon": -77.04500733333333}, {"fusion_lat": 0.0, "name": "21188f5dbf11e0b9ff3abbddc978614b", "is_disabled": 0, "rental_uris": {"android": "https://dc.lft.to/lastmile_qr_scan", "ios": "https://dc.lft.to/lastmile_qr_scan"}, "fusion_lon": 0.0, "lat": 38.9239615, "bike_id": "21188f5dbf11e0b9ff3abbddc978614b", "type": "electric_scooter", "is_reserved": 0, "lon": -77.043075}, {"fusion_lat": 0.0, "name": "683b190836a54b3f04560a9ab98624d8", "is_disabled": 0, "rental_uris": {"android": "https://dc.lft.to/lastmile_qr_scan", "ios": "https://dc.lft.to/lastmile_qr_scan"}, "fusion_lon": 0.0, "lat": 38.9065815, "bike_id": "683b190836a54b3f04560a9ab98624d8", "type": "electric_scooter", "is_reserved": 0, "lon": -77.005923},