{"data": {"bikes": [{"bike_id": "8920ed02afd0a341a8f6e3ce2b1a84f0", "fusion_lon": 0.0, "lon": -76.989834, "name": "8920ed02afd0a341a8f6e3ce2b1a84f0", "is_disabled": 0, "rental_uris": {"android": "https://dc.lft.to/lastmile_qr_scan", "ios": "https://dc.lft.to/lastmile_qr_scan"}, "type": "electric_scooter", "lat": 38.86497216666667, "is_reserved": 0, "fusion_lat": 0.0}, {"bike_id": "6db50bc4f56e7b8ad0132fbd6e5c5d7c", "fusion_lon": 0.0, "lon": -76.94941016666667, "name": "6db50bc4f56e7b8ad0132fbd6e5c5d7c", "is_disabled": 0, "rental_uris": {"android": "https://dc.lft.to/lastmile_qr_scan", "ios": "https://dc.lft.to/lastmile_qr_scan"}, "type": "electric_scooter", "lat": 38.89350116666667, "is_reserved": 0, "fusion_lat": 0.0}, {"bike_id": "49df86cb27ef499f6d8fd682d8fe583e", "fusion_lon": 0.0, "lon": -77.056087, "name": "49df86cb27ef499f6d8fd682d8fe583e", "is_disabled": 0, "rental_uris": {"android": "https://dc.lft.to/lastmile_qr_scan", "ios": "https://dc.lft.to/lastmile_qr_scan"}, "type": "electric_scooter", "lat": 38.931626666666666, "is_reserved": 0, "fusion_lat": 0.0}, {"bike_id": "c1baef72ce7c2d8d24893c4cc4158f7a", "fusion_lon": 0.0, "lon": -77.021968, "name": "c1baef72ce7c2d8d24893c4cc4158f7a", "is_disabled": 0, "rental_uris": {"android": "https://dc.lft.to/lastmile_qr_scan", "ios": "https://dc.lft.to/lastmile_qr_scan"}, "type": "electric_scooter", "lat": 38.932934, "is_reserved": 0, "fusion_lat": 0.0}, {"bike_id": "defe543eb44b5bd54c4988923bf6ca33", "fusion_lon": 0.0, "lon": -77.01775333333333, "name": "defe543eb44b5bd54c4988923bf6ca33", "is_disabled": 0, "rental_uris": {"android": "https://dc.lft.to/lastmile_qr_scan", "ios": "https://dc.lft.to/lastmile_qr_scan"}, "type": "electric_scooter", "lat": 38.907793166666664, "is_reserved": 0, "fusion_lat": 0.0}, {"bike_id": "744ff8e85355f38dc72154437011d093", "fusion_lon": 0.0, "lon": -77.01818466666667, "name": "744ff8e85355f38dc72154437011d093", "is_disabled": 0, "rental_uris": {"android": "https://dc.lft.to/lastmile_qr_scan", "ios": "https://dc.lft.to/lastmile_qr_scan"}, "type": "electric_scooter", "lat": 38.911119, "is_reserved": 0, "fusion_lat": 0.0}, {"bike_id": "867989ee3047f7daced1dc49964abf92", "fusion_lon": 0.0, "lon": -77.034166, "name": "867989ee3047f7daced1dc49964abf92", "is_disabled": 0, "rental_uris": {"android": "https://dc.lft.to/lastmile_qr_scan", "ios": "https://dc.lft.to/lastmile_qr_scan"}, "type": "electric_scooter", "lat": 38.9023615, "is_reserved": 0, "fusion_lat": 0.0}, {"bike_id": "1829619d5b22e7ae9fa3a39ed2372c0f", "fusion_lon": 0.0, "lon": -77.0235415, "name": "1829619d5b22e7ae9fa3a39ed2372c0f", "is_disabled": 0, "rental_uris": {"android": "https://dc.lft.to/lastmile_qr_scan", "ios": "https://dc.lft.to/lastmile_qr_scan"}, "type": "electric_scooter", "lat": 38.9308255, "is_reserved": 0, "fusion_lat": 0.0}, {"bike_id": "1c68f2cef1211bc248a7bac37513060e", "fusion_lon": 0.0, "lon": -77.0257645, "name": "1c68f2cef1211bc248a7bac37513060e", "is_disabled": 0, "rental_uris": {"android": "https://dc.lft.to/lastmile_qr_scan", "ios": "https://dc.lft.to/lastmile_qr_scan"}, "type": "electric_scooter", "lat": 38.9171065, "is_reserved": 0, "fusion_lat": 0.0}, {"bike_id": "a2dea40de2e0e45d529d527dd98b3e26", "fusion_lon": 0.0, "lon": -77.02307433333333, "name": "a2dea40de2e0e45d529d527dd98b3e26", "is_disabled": 0, "rental_uris": {"android": "https://dc.lft.to/lastmile_qr_scan", "ios": "https://dc.lft.to/lastmile_qr_scan"}, "type": "electric_scooter", "lat": 38.9183585, "is_reserved": 0, "fusion_lat": 0.0}, {"bike_id": "d85d066d09f71d1622af770c49a7b3d3", "fusion_lon": 0.0, "lon": -77.04401583333333, "name": "d85d066d09f71d1622af770c49a7b3d3", "is_disabled": 0, "rental_uris": {"android": "https://dc.lft.to/lastmile_qr_scan", "ios": "https://dc.lft.to/lastmile_qr_scan"}, "type": "electric_scooter", "lat": 38.920661333333335, "is_reserved": 0, "fusion_lat": 0.0}, {"bike_id": "78c309fd6801d0a28ce8f7b544383a1e", "fusion_lon": 0.0, "lon": -77.01492783333333, "name": "78c309fd6801d0a28ce8f7b544383a1e", "is_disabled": 0, "rental_uris": {"android": "https://dc.lft.to/lastmile_qr_scan", "ios": "https://dc.lft.to/lastmile_qr_scan"}, "type": "electric_scooter", "lat": 38.888200166666664, "is_reserved": 0, "fusion_lat": 0.0}, {"bike_id": "00133b8fa60805ec0746a690e816ab64", "fusion_lon": 0.0, "lon": -77.0270975, "name": "00133b8fa60805ec0746a690e816ab64", "is_disabled": 0, "rental_uris": {"android": "https://dc.lft.to/lastmile_qr_scan", "ios": "https://dc.lft.to/lastmile_qr_scan"}, "type": "electric_scooter", "lat": 38.90671233333333, "is_reserved": 0, "fusion_lat": 0.0}, {"bike_id": "aa5d670c70067a1a785704f7c6b1daff", "fusion_lon": 0.0, "lon": -77.02281133333334, "name": "aa5d670c70067a1a785704f7c6b1daff", "is_disabled": 0, "rental_uris": {"android": "https://dc.lft.to/lastmile_qr_scan", "ios": "https://dc.lft.to/lastmile_qr_scan"}, "type": "electric_scooter", "lat": 38.9156115, "is_reserved": 0, "fusion_lat": 0.0}, {"bike_id": "fd974aa9b25bc27d3cc18ded38782071", "fusion_lon": 0.0, "lon": -77.029777, "name": "fd974aa9b25bc27d3cc18ded38782071", "is_disabled": 0, "rental_uris": {"android": "https://dc.lft.to/lastmile_qr_scan", "ios": "https://dc.lft.to/lastmile_qr_scan"}, "type": "electric_scooter", "lat": 38.9345105, "is_reserved": 0, "fusion_lat": 0.0}, {"bike_id": "599da5bb16bc7a99a1d8d2e34a2ba059", "fusion_lon": 0.0, "lon": -77.03186316666667, "name": "599da5bb16bc7a99a1d8d2e34a2ba059", "is_disabled": 0, "rental_uris": {"android": "https://dc.lft.to/lastmile_qr_scan", "ios": "https://dc.lft.to/lastmile_qr_scan"}, "type": "electric_scooter", "lat": 38.91331, "is_reserved": 0, "fusion_lat": 0.0}, {"bike_id": "eccd1f109ce427dcf3183dadf9ffdca8", "fusion_lon": 0.0, "lon": -76.98843266666667, "name": "eccd1f109ce427dcf3183dadf9ffdca8", "is_disabled": 0, "rental_uris": {"android": "https://dc.lft.to/lastmile_qr_scan", "ios": "https://dc.lft.to/lastmile_qr_scan"}, "type": "electric_scooter", "lat": 38.8925685, "is_reserved": 0, "fusion_lat": 0.0}, {"bike_id": "385eb86fafb7d92985b0bd57bc9c8e13", "fusion_lon": 0.0, "lon": -77.077263, "name": "385eb86fafb7d92985b0bd57bc9c8e13", "is_disabled": 0, "rental_uris": {"android": "https://dc.lft.to/lastmile_qr_scan", "ios": "https://dc.lft.to/lastmile_qr_scan"}, "type": "electric_scooter", "lat": 38.9576515, "is_reserved": 0, "fusion_lat": 0.0}, {"bike_id": "42d7344b10121a07701bd1f1d409e069", "fusion_lon": 0.0, "lon": -77.032692, "name": "42d7344b10121a07701bd1f1d409e069", "is_disabled": 0, "rental_uris": {"android": "https://dc.lft.to/lastmile_qr_scan", "ios": "https://dc.lft.to/lastmile_qr_scan"}, "type": "electric_scooter", "lat": 38.914048666666666, "is_reserved": 0, "fusion_lat": 0.0}, {"bike_id": "2a380662fc91e51e56917a8329511d59", "fusion_lon": 0.0, "lon": -77.062392, "name": "2a380662fc91e51e56917a8329511d59", "is_disabled": 0, "rental_uris": {"android": "https://dc.lft.to/lastmile_qr_scan", "ios": "https://dc.lft.to/lastmile_qr_scan"}, "type": "electric_scooter", "lat": 38.905244, "is_reserved": 0, "fusion_lat": 0.0}, {"bike_id": "d666b93e27705f8153c58aff0f741261", "fusion_lon": 0.0, "lon": -76.98714633333333, "name": "d666b93e27705f8153c58aff0f741261", "is_disabled": 0, "rental_uris": {"android": "https://dc.lft.to/lastmile_qr_scan", "ios": "https://dc.lft.to/lastmile_qr_scan"}, "type": "electric_scooter", "lat": 38.866971666666664, "is_reserved": 0, "fusion_lat": 0.0}, {"bike_id": "2b32100d9254378ece349b7eb1fc4b22", "fusion_lon": 0.0, "lon": -77.0205485, "name": "2b32100d9254378ece349b7eb1fc4b22", "is_disabled": 0, "rental_uris": {"android": "https://dc.lft.to/lastmile_qr_scan", "ios": "https://dc.lft.to/lastmile_qr_scan"}, "type": "electric_scooter", "lat": 38.91410966666667, "is_reserved": 0, "fusion_lat": 0.0}, {"bike_id": "c031197948ffdbdc20e8c63ece2119d8", "fusion_lon": 0.0, "lon": -77.04060666666666, "name": "c031197948ffdbdc20e8c63ece2119d8", "is_disabled": 0, "rental_uris": {"android": "https://dc.lft.to/lastmile_qr_scan", "ios": "https://dc.lft.to/lastmile_qr_scan"}, "type": "electric_scooter", "lat": 38.89893433333334, "is_reserved": 0, "fusion_lat": 0.0}, {"bike_id": "92c20bd344ada731c00f8157129829ea", "fusion_lon": 0.0, "lon": -77.04165116666667, "name": "92c20bd344ada731c00f8157129829ea", "is_disabled": 0, "rental_uris": {"android": "https://dc.lft.to/lastmile_qr_scan", "ios": "https://dc.lft.to/lastmile_qr_scan"}, "type": "electric_scooter", "lat": 38.9164315, "is_reserved": 0, "fusion_lat": 0.0}, {"bike_id": "cfe5d3331f6db719d297005145f332b2", "fusion_lon": 0.0, "lon": -76.98176233333334, "name": "cfe5d3331f6db719d297005145f332b2", "is_disabled": 0, "rental_uris": {"android": "https://dc.lft.to/lastmile_qr_scan", "ios": "https://dc.lft.to/lastmile_qr_scan"}, "type": "electric_scooter", "lat": 38.85673966666667, "is_reserved": 0, "fusion_lat": 0.0}, {"bike_id": "b0a118762746c45153b6df01933213f8", "fusion_lon": 0.0, "lon": -77.026507, "name": "b0a118762746c45153b6df01933213f8", "is_disabled": 0, "rental_uris": {"android": "https://dc.lft.to/lastmile_qr_scan", "ios": "https://dc.lft.to/lastmile_qr_scan"}, "type": "electric_scooter", "lat": 38.945411, "is_reserved": 0, "fusion_lat": 0.0}, {"bike_id": "2f925922ba52c8eb156dc69283a35e54", "fusion_lon": 0.0, "lon": -77.02384616666667, "name": "2f925922ba52c8eb156dc69283a35e54", "is_disabled": 0, "rental_uris": {"android": "https://dc.lft.to/lastmile_qr_scan", "ios": "https://dc.lft.to/lastmile_qr_scan"}, "type": "electric_scooter", "lat": 38.911218166666664, "is_reserved": 0, "fusion_lat": 0.0}, {"bike_id": "d99474590e26e1bdc1fe42084a8e2faf", "fusion_lon": 0.0, "lon": -77.0239985, "name": "d99474590e26e1bdc1fe42084a8e2faf", "is_disabled": 0, "rental_uris": {"android": "https://dc.lft.to/lastmile_qr_scan", "ios": "https://dc.lft.to/lastmile_qr_scan"}, "type": "electric_scooter", "lat": 38.9174945, "is_reserved": 0, "fusion_lat": 0.0}, {"bike_id": "406ce36c4708a42319efe814c0d66718", "fusion_lon": 0.0, "lon": -77.04194216666667, "name": "406ce36c4708a42319efe814c0d66718", "is_disabled": 0, "rental_uris": {"android": "https://dc.lft.to/lastmile_qr_scan", "ios": "https://dc.lft.to/lastmile_qr_scan"}, "type": "electric_scooter", "lat": 38.920475333333336, "is_reserved": 0, "fusion_lat": 0.0}, {"bike_id": "3bc2336b68e92c8da6a4abe7fedabd02", "fusion_lon": 0.0, "lon": -77.0271285, "name": "3bc2336b68e92c8da6a4abe7fedabd02", "is_disabled": 0, "rental_uris": {"android": "https://dc.lft.to/lastmile_qr_scan", "ios": "https://dc.lft.to/lastmile_qr_scan"}, "type": "electric_scooter", "lat": 38.90690166666667, "is_reserved": 0, "fusion_lat": 0.0}, {"bike_id": "0ebb4e42404c3da217ec08c7b5dd29fb", "fusion_lon": 0.0, "lon": -77.04003133333333, "name": "0ebb4e42404c3da217ec08c7b5dd29fb", "is_disabled": 0, "rental_uris": {"android": "https://dc.lft.to/lastmile_qr_scan", "ios": "https://dc.lft.to/lastmile_qr_scan"}, "type": "electric_scooter", "lat": 38.934263666666666, "is_reserved": 0, "fusion_lat": 0.0}, {"bike_id": "7eb025ea631f84e0b0d9a121cc253721", "fusion_lon": 0.0, "lon": -77.034627, "name": "7eb025ea631f84e0b0d9a121cc253721", "is_disabled": 0, "rental_uris": {"android": "https://dc.lft.to/lastmile_qr_scan", "ios": "https://dc.lft.to/lastmile_qr_scan"}, "type": "electric_scooter", "lat": 38.9149295, "is_reserved": 0, "fusion_lat": 0.0}, {"bike_id": "4f351123b43e8ec4ed601c4faa274b4c", "fusion_lon": 0.0, "lon": -77.0328975, "name": "4f351123b43e8ec4ed601c4faa274b4c", "is_disabled": 0, "rental_uris": {"android": "https://dc.lft.to/lastmile_qr_scan", "ios": "https://dc.lft.to/lastmile_qr_scan"}, "type": "electric_scooter", "lat": 38.91994016666666, "is_reserved": 0, "fusion_lat": 0.0}, {"bike_id": "9aeffdcb424483478f0b36ff8deac16c", "fusion_lon": 0.0, "lon": -76.99702566666667, "name": "9aeffdcb424483478f0b36ff8deac16c", "is_disabled": 0, "rental_uris": {"android": "https://dc.lft.to/lastmile_qr_scan", "ios": "https://dc.lft.to/lastmile_qr_scan"}, "type": "electric_bike", "lat": 38.83866733333333, "is_reserved": 0, "fusion_lat": 0.0}, {"bike_id": "b5c9b11f4daa7380bda5228591eeb83f", "fusion_lon": 0.0, "lon": -77.02156266666667, "name": "b5c9b11f4daa7380bda5228591eeb83f", "is_disabled": 0, "rental_uris": {"android": "https://dc.lft.to/lastmile_qr_scan", "ios": "https://dc.lft.to/lastmile_qr_scan"}, "type": "electric_scooter", "lat": 38.909608, "is_reserved": 0, "fusion_lat": 0.0}, {"bike_id": "40ff280257962d2bb227dfc664a69cba", "fusion_lon": 0.0, "lon": -76.948764, "name": "40ff280257962d2bb227dfc664a69cba", "is_disabled": 0, "rental_uris": {"android": "https://dc.lft.to/lastmile_qr_scan", "ios": "https://dc.lft.to/lastmile_qr_scan"}, "type": "electric_scooter", "lat": 38.8950195, "is_reserved": 0, "fusion_lat": 0.0}, {"bike_id": "5b01cc21220a909086a96f93ecf885e8", "fusion_lon": 0.0, "lon": -77.072695, "name": "5b01cc21220a909086a96f93ecf885e8", "is_disabled": 0, "rental_uris": {"android": "https://dc.lft.to/lastmile_qr_scan", "ios": "https://dc.lft.to/lastmile_qr_scan"}, "type": "electric_scooter", "lat": 38.934627, "is_reserved": 0, "fusion_lat": 0.0}, {"bike_id": "5a48f65f88c9e9252c81dd40024db7ad", "fusion_lon": 0.0, "lon": -77.039015, "name": "5a48f65f88c9e9252c81dd40024db7ad", "is_disabled": 0, "rental_uris": {"android": "https://dc.lft.to/lastmile_qr_scan", "ios": "https://dc.lft.to/lastmile_qr_scan"}, "type": "electric_scooter", "lat": 38.92204483333333, "is_reserved": 0, "fusion_lat": 0.0}, {"bike_id": "8e80b6b82f5baa76232cde1aa59c09f2", "fusion_lon": 0.0, "lon": -77.03959966666666, "name": "8e80b6b82f5baa76232cde1aa59c09f2", "is_disabled": 0, "rental_uris": {"android": "https://dc.lft.to/lastmile_qr_scan", "ios": "https://dc.lft.to/lastmile_qr_scan"}, "type": "electric_scooter", "lat": 38.89843, "is_reserved": 0, "fusion_lat": 0.0}, {"bike_id": "7212b7a2464d952cc7256433b2461fdd", "fusion_lon": 0.0, "lon": -77.01612816666666, "name": "7212b7a2464d952cc7256433b2461fdd", "is_disabled": 0, "rental_uris": {"android": "https://dc.lft.to/lastmile_qr_scan", "ios": "https://dc.lft.to/lastmile_qr_scan"}, "type": "electric_scooter", "lat": 38.912720166666666, "is_reserved": 0, "fusion_lat": 0.0}, {"bike_id": "dba43847d55058108e07ecefa8843221", "fusion_lon": 0.0, "lon": -77.042077, "name": "dba43847d55058108e07ecefa8843221", "is_disabled": 0, "rental_uris": {"android": "https://dc.lft.to/lastmile_qr_scan", "ios": "https://dc.lft.to/lastmile_qr_scan"}, "type": "electric_scooter", "lat": 38.920696666666664, "is_reserved": 0, "fusion_lat": 0.0}, {"bike_id": "d16dae96f7d91916015c647cb4dc7f06", "fusion_lon": 0.0, "lon": -77.00925233333334, "name": "d16dae96f7d91916015c647cb4dc7f06", "is_disabled": 0, "rental_uris": {"android": "https://dc.lft.to/lastmile_qr_scan", "ios": "https://dc.lft.to/lastmile_qr_scan"}, "type": "electric_scooter", "lat": 38.91264283333334, "is_reserved": 0, "fusion_lat": 0.0}, {"bike_id": "151560b35ef52b3abe0ac70d7bd77730", "fusion_lon": 0.0, "lon": -77.0342275, "name": "151560b35ef52b3abe0ac70d7bd77730", "is_disabled": 0, "rental_uris": {"android": "https://dc.lft.to/lastmile_qr_scan", "ios": "https://dc.lft.to/lastmile_qr_scan"}, "type": "electric_scooter", "lat": 38.90368983333333, "is_reserved": 0, "fusion_lat": 0.0}, {"bike_id": "7783674fd57332ec0e2296d1bece930f", "fusion_lon": 0.0, "lon": -77.04197766666667, "name": "7783674fd57332ec0e2296d1bece930f", "is_disabled": 0, "rental_uris": {"android": "https://dc.lft.to/lastmile_qr_scan", "ios": "https://dc.lft.to/lastmile_qr_scan"}, "type": "electric_scooter", "lat": 38.920514, "is_reserved": 0, "fusion_lat": 0.0}, {"bike_id": "f66904369e762601f50b6a86c3c1ead2", "fusion_lon": 0.0, "lon": -77.021146, "name": "f66904369e762601f50b6a86c3c1ead2", "is_disabled": 0, "rental_uris": {"android": "https://dc.lft.to/lastmile_qr_scan", "ios": "https://dc.lft.to/lastmile_qr_scan"}, "type": "electric_scooter", "lat": 38.9142105, "is_reserved": 0, "fusion_lat": 0.0}, {"bike_id": "a3a5c865bb92c7214208423c6e7b562d", "fusion_lon": 0.0, "lon": -76.99612766666667, "name": "a3a5c865bb92c7214208423c6e7b562d", "is_disabled": 0, "rental_uris": {"android": "https://dc.lft.to/lastmile_qr_scan", "ios": "https://dc.lft.to/lastmile_qr_scan"}, "type": "electric_scooter", "lat": 38.887202, "is_reserved": 0, "fusion_lat": 0.0}, {"bike_id": "72d6cf8b6002295b0c59b410f7d3315a", "fusion_lon": 0.0, "lon": -77.02154583333333, "name": "72d6cf8b6002295b0c59b410f7d3315a", "is_disabled": 0, "rental_uris": {"android": "https://dc.lft.to/lastmile_qr_scan", "ios": "https://dc.lft.to/lastmile_qr_scan"}, "type": "electric_scooter", "lat": 38.92498283333333, "is_reserved": 0, "fusion_lat": 0.0}, {"bike_id": "d1684f1dfd94e4ea13d1cbd609352584", "fusion_lon": 0.0, "lon": -76.99090933333333, "name": "d1684f1dfd94e4ea13d1cbd609352584", "is_disabled": 0, "rental_uris": {"android": "https://dc.lft.to/lastmile_qr_scan", "ios": "https://dc.lft.to/lastmile_qr_scan"}, "type": "electric_scooter", "lat": 38.929547166666666, "is_reserved": 0, "fusion_lat": 0.0}, {"bike_id": "eb78a2b948e4a429ac02a842ddd1d14c", "fusion_lon": 0.0, "lon": -76.93344, "name": "eb78a2b948e4a429ac02a842ddd1d14c", "is_disabled": 0, "rental_uris": {"android": "https://dc.lft.to/lastmile_qr_scan", "ios": "https://dc.lft.to/lastmile_qr_scan"}, "type": "electric_scooter", "lat": 38.88812083333333, "is_reserved": 0, "fusion_lat": 0.0}, {"bike_id": "85f55490f5de2de7953642cd6c0a53b7", "fusion_lon": 0.0, "lon": -77.026979, "name": "85f55490f5de2de7953642cd6c0a53b7", "is_disabled": 0, "rental_uris": {"android": "https://dc.lft.to/lastmile_qr_scan", "ios": "https://dc.lft.to/lastmile_qr_scan"}, "type": "electric_scooter", "lat": 38.898335, "is_reserved": 0, "fusion_lat": 0.0}, {"bike_id": "b94ffec4f38a07922d0410ac8acac683", "fusion_lon": 0.0, "lon": -76.98970466666667, "name": "b94ffec4f38a07922d0410ac8acac683", "is_disabled": 0, "rental_uris": {"android": "https://dc.lft.to/lastmile_qr_scan", "ios": "https://dc.lft.to/lastmile_qr_scan"}, "type": "electric_bike", "lat": 38.86710033333333, "is_reserved": 0, "fusion_lat": 0.0}, {"bike_id": "6b950b8af3a75788eeff407c8a62cc8f", "fusion_lon": 0.0, "lon": -77.02969916666666, "name": "6b950b8af3a75788eeff407c8a62cc8f", "is_disabled": 0, "rental_uris": {"android": "https://dc.lft.to/lastmile_qr_scan", "ios": "https://dc.lft.to/lastmile_qr_scan"}, "type": "electric_scooter", "lat": 38.9228685, "is_reserved": 0, "fusion_lat": 0.0}, {"bike_id": "af2b85ca15e144725c7735be18cdaeb3", "fusion_lon": 0.0, "lon": -77.03159516666666, "name": "af2b85ca15e144725c7735be18cdaeb3", "is_disabled": 0, "rental_uris": {"android": "https://dc.lft.to/lastmile_qr_scan", "ios": "https://dc.lft.to/lastmile_qr_scan"}, "type": "electric_scooter", "lat": 38.89219383333333, "is_reserved": 0, "fusion_lat": 0.0}, {"bike_id": "26d775092748732403fc0d5fed7267b1", "fusion_lon": 0.0, "lon": -77.02730083333333, "name": "26d775092748732403fc0d5fed7267b1", "is_disabled": 0, "rental_uris": {"android": "https://dc.lft.to/lastmile_qr_scan", "ios": "https://dc.lft.to/lastmile_qr_scan"}, "type": "electric_scooter", "lat": 38.9276605, "is_reserved": 0, "fusion_lat": 0.0}, {"bike_id": "f6b010148f74b7257bc24765725e2395", "fusion_lon": 0.0, "lon": -76.98401866666667, "name": "f6b010148f74b7257bc24765725e2395", "is_disabled": 0, "rental_uris": {"android": "https://dc.lft.to/lastmile_qr_scan", "ios": "https://dc.lft.to/lastmile_qr_scan"}, "type": "electric_scooter", "lat": 38.86701816666667, "is_reserved": 0, "fusion_lat": 0.0}, {"bike_id": "91bfefccdea1efff5edf2c6a0c1f583d", "fusion_lon": 0.0, "lon": -77.05883083333333, "name": "91bfefccdea1efff5edf2c6a0c1f583d", "is_disabled": 0, "rental_uris": {"android": "https://dc.lft.to/lastmile_qr_scan", "ios": "https://dc.lft.to/lastmile_qr_scan"}, "type": "electric_scooter", "lat": 38.91826616666667, "is_reserved": 0, "fusion_lat": 0.0}, {"bike_id": "f91ea705ee2be42cbfc9e2f0a81c5ece", "fusion_lon": 0.0, "lon": -76.99401016666667, "name": "f91ea705ee2be42cbfc9e2f0a81c5ece", "is_disabled": 0, "rental_uris": {"android": "https://dc.lft.to/lastmile_qr_scan", "ios": "https://dc.lft.to/lastmile_qr_scan"}, "type": "electric_scooter", "lat": 38.92168933333333, "is_reserved": 0, "fusion_lat": 0.0}, {"bike_id": "e683efb0e8d5fc796efe07bc696d6ea8", "fusion_lon": 0.0, "lon": -77.02710233333333, "name": "e683efb0e8d5fc796efe07bc696d6ea8", "is_disabled": 0, "rental_uris": {"android": "https://dc.lft.to/lastmile_qr_scan", "ios": "https://dc.lft.to/lastmile_qr_scan"}, "type": "electric_scooter", "lat": 38.900761833333334, "is_reserved": 0, "fusion_lat": 0.0}, {"bike_id": "854f4f2da68e700029972d4378ebd1b4", "fusion_lon": 0.0, "lon": -77.03406283333334, "name": "854f4f2da68e700029972d4378ebd1b4", "is_disabled": 0, "rental_uris": {"android": "https://dc.lft.to/lastmile_qr_scan", "ios": "https://dc.lft.to/lastmile_qr_scan"}, "type": "electric_scooter", "lat": 38.9205185, "is_reserved": 0, "fusion_lat": 0.0}, {"bike_id": "475704ffa22f7e770a3efc3818195d57", "fusion_lon": 0.0, "lon": -77.05902333333333, "name": "475704ffa22f7e770a3efc3818195d57", "is_disabled": 0, "rental_uris": {"android": "https://dc.lft.to/lastmile_qr_scan", "ios": "https://dc.lft.to/lastmile_qr_scan"}, "type": "electric_scooter", "lat": 38.933468166666664, "is_reserved": 0, "fusion_lat": 0.0}, {"bike_id": "efb2707320e7b2e72e5499c2f71a008a", "fusion_lon": 0.0, "lon": -77.00077466666667, "name": "efb2707320e7b2e72e5499c2f71a008a", "is_disabled": 0, "rental_uris": {"android": "https://dc.lft.to/lastmile_qr_scan", "ios": "https://dc.lft.to/lastmile_qr_scan"}, "type": "electric_scooter", "lat": 38.9002035, "is_reserved": 0, "fusion_lat": 0.0}, {"bike_id": "0dcab3cbd45dbc0e64fee26abe164f03", "fusion_lon": 0.0, "lon": -77.04685883333333, "name": "0dcab3cbd45dbc0e64fee26abe164f03", "is_disabled": 0, "rental_uris": {"android": "https://dc.lft.to/lastmile_qr_scan", "ios": "https://dc.lft.to/lastmile_qr_scan"}, "type": "electric_scooter", "lat": 38.897291, "is_reserved": 0, "fusion_lat": 0.0}, {"bike_id": "5aa507aef81ce500f0afe18a9a19a45c", "fusion_lon": 0.0, "lon": -77.02851583333333, "name": "5aa507aef81ce500f0afe18a9a19a45c", "is_disabled": 0, "rental_uris": {"android": "https://dc.lft.to/lastmile_qr_scan", "ios": "https://dc.lft.to/lastmile_qr_scan"}, "type": "electric_scooter", "lat": 38.92573083333333, "is_reserved": 0, "fusion_lat": 0.0}, {"bike_id": "7dc0e1d632fe73f0dea745e3fccf44bf", "fusion_lon": 0.0, "lon": -77.013792, "name": "7dc0e1d632fe73f0dea745e3fccf44bf", "is_disabled": 0, "rental_uris": {"android": "https://dc.lft.to/lastmile_qr_scan", "ios": "https://dc.lft.to/lastmile_qr_scan"}, "type": "electric_scooter", "lat": 38.870867, "is_reserved": 0, "fusion_lat": 0.0}, {"bike_id": "0649bd41aabe357d1790e6b96e98e831", "fusion_lon": 0.0, "lon": -77.0282305, "name": "0649bd41aabe357d1790e6b96e98e831", "is_disabled": 0, "rental_uris": {"android": "https://dc.lft.to/lastmile_qr_scan", "ios": "https://dc.lft.to/lastmile_qr_scan"}, "type": "electric_scooter", "lat": 38.89626116666667, "is_reserved": 0, "fusion_lat": 0.0}, {"bike_id": "0d9f765e1b1559aca74925774c4b804d", "fusion_lon": 0.0, "lon": -76.99149966666667, "name": "0d9f765e1b1559aca74925774c4b804d", "is_disabled": 0, "rental_uris": {"android": "https://dc.lft.to/lastmile_qr_scan", "ios": "https://dc.lft.to/lastmile_qr_scan"}, "type": "electric_scooter", "lat": 38.8790905, "is_reserved": 0, "fusion_lat": 0.0}, {"bike_id": "83662b4554810b06d33c3a5e680b3a74", "fusion_lon": 0.0, "lon": -77.02288966666667, "name": "83662b4554810b06d33c3a5e680b3a74", "is_disabled": 0, "rental_uris": {"android": "https://dc.lft.to/lastmile_qr_scan", "ios": "https://dc.lft.to/lastmile_qr_scan"}, "type": "electric_scooter", "lat": 38.890586, "is_reserved": 0, "fusion_lat": 0.0}, {"bike_id": "cc435bf9a26abc6134d86628c8203ea3", "fusion_lon": 0.0, "lon": -77.03282833333333, "name": "cc435bf9a26abc6134d86628c8203ea3", "is_disabled": 0, "rental_uris": {"android": "https://dc.lft.to/lastmile_qr_scan", "ios": "https://dc.lft.to/lastmile_qr_scan"}, "type": "electric_scooter", "lat": 38.93687083333333, "is_reserved": 0, "fusion_lat": 0.0}, {"bike_id": "e19b39b896641c61a95881986b20bffc", "fusion_lon": 0.0, "lon": -76.93026483333334, "name": "e19b39b896641c61a95881986b20bffc", "is_disabled": 0, "rental_uris": {"android": "https://dc.lft.to/lastmile_qr_scan", "ios": "https://dc.lft.to/lastmile_qr_scan"}, "type": "electric_scooter", "lat": 38.898204, "is_reserved": 0, "fusion_lat": 0.0}, {"bike_id": "fec10adf17b091be999ea7c7cc458baa", "fusion_lon": 0.0, "lon": -77.0355315, "name": "fec10adf17b091be999ea7c7cc458baa", "is_disabled": 0, "rental_uris": {"android": "https://dc.lft.to/lastmile_qr_scan", "ios": "https://dc.lft.to/lastmile_qr_scan"}, "type": "electric_scooter", "lat": 38.9286495, "is_reserved": 0, "fusion_lat": 0.0}, {"bike_id": "ddc181b569678ec1008db4fe92dc010f", "fusion_lon": 0.0, "lon": -77.03165116666666, "name": "ddc181b569678ec1008db4fe92dc010f", "is_disabled": 0, "rental_uris": {"android": "https://dc.lft.to/lastmile_qr_scan", "ios": "https://dc.lft.to/lastmile_qr_scan"}, "type": "electric_bike", "lat": 38.999398666666664, "is_reserved": 0, "fusion_lat": 0.0}, {"bike_id": "09333ffc873494dd8be82b0910462c09", "fusion_lon": 0.0, "lon": -77.0445135, "name": "09333ffc873494dd8be82b0910462c09", "is_disabled": 0, "rental_uris": {"android": "https://dc.lft.to/lastmile_qr_scan", "ios": "https://dc.lft.to/lastmile_qr_scan"}, "type": "electric_scooter", "lat": 38.918556333333335, "is_reserved": 0, "fusion_lat": 0.0}, {"bike_id": "e95bc212fe45c5bbf0c37fe9d1662314", "fusion_lon": 0.0, "lon": -77.02950983333334, "name": "e95bc212fe45c5bbf0c37fe9d1662314", "is_disabled": 0, "rental_uris": {"android": "https://dc.lft.to/lastmile_qr_scan", "ios": "https://dc.lft.to/lastmile_qr_scan"}, "type": "electric_scooter", "lat": 38.916691, "is_reserved": 0, "fusion_lat": 0.0}, {"bike_id": "44f8c2745a296d3ac2faa6f8d6b6a15e", "fusion_lon": 0.0, "lon": -77.04147983333333, "name": "44f8c2745a296d3ac2faa6f8d6b6a15e", "is_disabled": 0, "rental_uris": {"android": "https://dc.lft.to/lastmile_qr_scan", "ios": "https://dc.lft.to/lastmile_qr_scan"}, "type": "electric_scooter", "lat": 38.89357366666667, "is_reserved": 0, "fusion_lat": 0.0}, {"bike_id": "fdf0affdc1b8270b12be4af1b287f3b0", "fusion_lon": 0.0, "lon": -77.03930766666667, "name": "fdf0affdc1b8270b12be4af1b287f3b0", "is_disabled": 0, "rental_uris": {"android": "https://dc.lft.to/lastmile_qr_scan", "ios": "https://dc.lft.to/lastmile_qr_scan"}, "type": "electric_scooter", "lat": 38.92493066666667, "is_reserved": 0, "fusion_lat": 0.0}, {"bike_id": "fa12b1481d0ff4fd4b5bba0b8c0b561f", "fusion_lon": 0.0, "lon": -77.00551766666666, "name": "fa12b1481d0ff4fd4b5bba0b8c0b561f", "is_disabled": 0, "rental_uris": {"android": "https://dc.lft.to/lastmile_qr_scan", "ios": "https://dc.lft.to/lastmile_qr_scan"}, "type": "electric_scooter", "lat": 38.875308, "is_reserved": 0, "fusion_lat": 0.0}, {"bike_id": "022c63af202e97ac9cb59b3dcc2131a8", "fusion_lon": 0.0, "lon": -77.037935, "name": "022c63af202e97ac9cb59b3dcc2131a8", "is_disabled": 0, "rental_uris": {"android": "https://dc.lft.to/lastmile_qr_scan", "ios": "https://dc.lft.to/lastmile_qr_scan"}, "type": "electric_scooter", "lat": 38.925522666666666, "is_reserved": 0, "fusion_lat": 0.0}, {"bike_id": "3583b4ac36f2285a579d90b7a628e35e", "fusion_lon": 0.0, "lon": -77.00161216666666, "name": "3583b4ac36f2285a579d90b7a628e35e", "is_disabled": 0, "rental_uris": {"android": "https://dc.lft.to/lastmile_qr_scan", "ios": "https://dc.lft.to/lastmile_qr_scan"}, "type": "electric_scooter", "lat": 38.90132416666667, "is_reserved": 0, "fusion_lat": 0.0}, {"bike_id": "9a9bfa732988ccf826adf9a377c6101a", "fusion_lon": 0.0, "lon": -77.0176945, "name": "9a9bfa732988ccf826adf9a377c6101a", "is_disabled": 0, "rental_uris": {"android": "https://dc.lft.to/lastmile_qr_scan", "ios": "https://dc.lft.to/lastmile_qr_scan"}, "type": "electric_scooter", "lat": 38.90091266666667, "is_reserved": 0, "fusion_lat": 0.0}, {"bike_id": "0bc205357f4d3f2c210314637abf0314", "fusion_lon": 0.0, "lon": -77.02765266666667, "name": "0bc205357f4d3f2c210314637abf0314", "is_disabled": 0, "rental_uris": {"android": "https://dc.lft.to/lastmile_qr_scan", "ios": "https://dc.lft.to/lastmile_qr_scan"}, "type": "electric_scooter", "lat": 38.95424666666667, "is_reserved": 0, "fusion_lat": 0.0}, {"bike_id": "522a2751d79efe8fcfdca75a654272a0", "fusion_lon": 0.0, "lon": -77.03500433333333, "name": "522a2751d79efe8fcfdca75a654272a0", "is_disabled": 0, "rental_uris": {"android": "https://dc.lft.to/lastmile_qr_scan", "ios": "https://dc.lft.to/lastmile_qr_scan"}, "type": "electric_scooter", "lat": 38.917101833333334, "is_reserved": 0, "fusion_lat": 0.0}, {"bike_id": "69fd3e804a5ae4408dfc53d380e18d5a", "fusion_lon": 0.0, "lon": -76.987026, "name": "69fd3e804a5ae4408dfc53d380e18d5a", "is_disabled": 0, "rental_uris": {"android": "https://dc.lft.to/lastmile_qr_scan", "ios": "https://dc.lft.to/lastmile_qr_scan"}, "type": "electric_scooter", "lat": 38.86253933333333, "is_reserved": 0, "fusion_lat": 0.0}, {"bike_id": "e8419a99dee4b5d3ed23c9f0eac5c41b", "fusion_lon": 0.0, "lon": -77.0212835, "name": "e8419a99dee4b5d3ed23c9f0eac5c41b", "is_disabled": 0, "rental_uris": {"android": "https://dc.lft.to/lastmile_qr_scan", "ios": "https://dc.lft.to/lastmile_qr_scan"}, "type": "electric_scooter", "lat": 38.923245, "is_reserved": 0, "fusion_lat": 0.0}, {"bike_id": "fef4c0c7fcc32eff1f1bb541e6a305e9", "fusion_lon": 0.0, "lon": -77.04999, "name": "fef4c0c7fcc32eff1f1bb541e6a305e9", "is_disabled": 0, "rental_uris": {"android": "https://dc.lft.to/lastmile_qr_scan", "ios": "https://dc.lft.to/lastmile_qr_scan"}, "type": "electric_scooter", "lat": 38.892334166666664, "is_reserved": 0, "fusion_lat": 0.0}, {"bike_id": "f3ab9c78c1d677d5878fa8d6a322b0d1", "fusion_lon": 0.0, "lon": -77.03792166666666, "name": "f3ab9c78c1d677d5878fa8d6a322b0d1", "is_disabled": 0, "rental_uris": {"android": "https://dc.lft.to/lastmile_qr_scan", "ios": "https://dc.lft.to/lastmile_qr_scan"}, "type": "electric_scooter", "lat": 38.925645333333335, "is_reserved": 0, "fusion_lat": 0.0}, {"bike_id": "f1be9a443830cd6b427257775d2285ee", "fusion_lon": 0.0, "lon": -77.027301, "name": "f1be9a443830cd6b427257775d2285ee", "is_disabled": 0, "rental_uris": {"android": "https://dc.lft.to/lastmile_qr_scan", "ios": "https://dc.lft.to/lastmile_qr_scan"}, "type": "electric_scooter", "lat": 38.927681666666665, "is_reserved": 0, "fusion_lat": 0.0}, {"bike_id": "f30d1215988b320d9cf4e90601f32ca7", "fusion_lon": 0.0, "lon": -77.04659033333333, "name": "f30d1215988b320d9cf4e90601f32ca7", "is_disabled": 0, "rental_uris": {"android": "https://dc.lft.to/lastmile_qr_scan", "ios": "https://dc.lft.to/lastmile_qr_scan"}, "type": "electric_scooter", "lat": 38.892525, "is_reserved": 0, "fusion_lat": 0.0}, {"bike_id": "79d015997002d1b33c7a693c1a14da29", "fusion_lon": 0.0, "lon": -77.01468583333333, "name": "79d015997002d1b33c7a693c1a14da29", "is_disabled": 0, "rental_uris": {"android": "https://dc.lft.to/lastmile_qr_scan", "ios": "https://dc.lft.to/lastmile_qr_scan"}, "type": "electric_scooter", "lat": 38.91769766666667, "is_reserved": 0, "fusion_lat": 0.0}, {"bike_id": "641c77e70c0145b4d6d968796e01f3fc", "fusion_lon": 0.0, "lon": -77.011445, "name": "641c77e70c0145b4d6d968796e01f3fc", "is_disabled": 0, "rental_uris": {"android": "https://dc.lft.to/lastmile_qr_scan", "ios": "https://dc.lft.to/lastmile_qr_scan"}, "type": "electric_bike", "lat": 38.911784833333336, "is_reserved": 0, "fusion_lat": 0.0}, {"bike_id": "edc0e2b113f7e7071d92602d82efb72f", "fusion_lon": 0.0, "lon": -77.053257, "name": "edc0e2b113f7e7071d92602d82efb72f", "is_disabled": 0, "rental_uris": {"android": "https://dc.lft.to/lastmile_qr_scan", "ios": "https://dc.lft.to/lastmile_qr_scan"}, "type": "electric_scooter", "lat": 38.92358383333333, "is_reserved": 0, "fusion_lat": 0.0}, {"bike_id": "bb4d7c1dd9d544ad136c8b03312ea4ab", "fusion_lon": 0.0, "lon": -76.99513016666667, "name": "bb4d7c1dd9d544ad136c8b03312ea4ab", "is_disabled": 0, "rental_uris": {"android": "https://dc.lft.to/lastmile_qr_scan", "ios": "https://dc.lft.to/lastmile_qr_scan"}, "type": "electric_scooter", "lat": 38.882515166666664, "is_reserved": 0, "fusion_lat": 0.0}, {"bike_id": "2f56f98e43e86ee7cf08510a5b8da208", "fusion_lon": 0.0, "lon": -77.031777, "name": "2f56f98e43e86ee7cf08510a5b8da208", "is_disabled": 0, "rental_uris": {"android": "https://dc.lft.to/lastmile_qr_scan", "ios": "https://dc.lft.to/lastmile_qr_scan"}, "type": "electric_scooter", "lat": 38.919245833333335, "is_reserved": 0, "fusion_lat": 0.0}, {"bike_id": "e3a638c1b37bb8b7c1211987e0f23646", "fusion_lon": 0.0, "lon": -77.031781, "name": "e3a638c1b37bb8b7c1211987e0f23646", "is_disabled": 0, "rental_uris": {"android": "https://dc.lft.to/lastmile_qr_scan", "ios": "https://dc.lft.to/lastmile_qr_scan"}, "type": "electric_scooter", "lat": 38.916033166666665, "is_reserved": 0, "fusion_lat": 0.0}, {"bike_id": "3392a142c0f4dca3f0b81b78c2b5a825", "fusion_lon": 0.0, "lon": -77.05877966666667, "name": "3392a142c0f4dca3f0b81b78c2b5a825", "is_disabled": 0, "rental_uris": {"android": "https://dc.lft.to/lastmile_qr_scan", "ios": "https://dc.lft.to/lastmile_qr_scan"}, "type": "electric_bike", "lat": 38.9589415, "is_reserved": 0, "fusion_lat": 0.0}, {"bike_id": "1910f05a7797341e434df159bc2a6ef9", "fusion_lon": 0.0, "lon": -77.0356795, "name": "1910f05a7797341e434df159bc2a6ef9", "is_disabled": 0, "rental_uris": {"android": "https://dc.lft.to/lastmile_qr_scan", "ios": "https://dc.lft.to/lastmile_qr_scan"}, "type": "electric_scooter", "lat": 38.90367066666666, "is_reserved": 0, "fusion_lat": 0.0}, {"bike_id": "2701d90550c8a518c8fbd9ea266e0eb5", "fusion_lon": 0.0, "lon": -77.04773533333334, "name": "2701d90550c8a518c8fbd9ea266e0eb5", "is_disabled": 0, "rental_uris": {"android": "https://dc.lft.to/lastmile_qr_scan", "ios": "https://dc.lft.to/lastmile_qr_scan"}, "type": "electric_scooter", "lat": 38.907282, "is_reserved": 0, "fusion_lat": 0.0}, {"bike_id": "93a6d1bb4a7590d09634f048b90fd30e", "fusion_lon": 0.0, "lon": -76.9605765, "name": "93a6d1bb4a7590d09634f048b90fd30e", "is_disabled": 0, "rental_uris": {"android": "https://dc.lft.to/lastmile_qr_scan", "ios": "https://dc.lft.to/lastmile_qr_scan"}, "type": "electric_bike", "lat": 38.88407866666667, "is_reserved": 0, "fusion_lat": 0.0}, {"bike_id": "5c34e3037fa97c38b279933a37810595", "fusion_lon": 0.0, "lon": -77.0215715, "name": "5c34e3037fa97c38b279933a37810595", "is_disabled": 0, "rental_uris": {"android": "https://dc.lft.to/lastmile_qr_scan", "ios": "https://dc.lft.to/lastmile_qr_scan"}, "type": "electric_scooter", "lat": 38.92497566666667, "is_reserved": 0, "fusion_lat": 0.0}, {"bike_id": "5ad87d27f5fb40418276232e1c1a84df", "fusion_lon": 0.0, "lon": -77.03127466666666, "name": "5ad87d27f5fb40418276232e1c1a84df", "is_disabled": 0, "rental_uris": {"android": "https://dc.lft.to/lastmile_qr_scan", "ios": "https://dc.lft.to/lastmile_qr_scan"}, "type": "electric_scooter", "lat": 38.95935083333333, "is_reserved": 0, "fusion_lat": 0.0}, {"bike_id": "df623e174f0f67acc567785a349647d8", "fusion_lon": 0.0, "lon": -77.04655616666666, "name": "df623e174f0f67acc567785a349647d8", "is_disabled": 0, "rental_uris": {"android": "https://dc.lft.to/lastmile_qr_scan", "ios": "https://dc.lft.to/lastmile_qr_scan"}, "type": "electric_bike", "lat": 39.0550435, "is_reserved": 0, "fusion_lat": 0.0}, {"bike_id": "1b87d566289688ba4638991080e9eeb5", "fusion_lon": 0.0, "lon": -77.0194395, "name": "1b87d566289688ba4638991080e9eeb5", "is_disabled": 0, "rental_uris": {"android": "https://dc.lft.to/lastmile_qr_scan", "ios": "https://dc.lft.to/lastmile_qr_scan"}, "type": "electric_scooter", "lat": 38.948529666666666, "is_reserved": 0, "fusion_lat": 0.0}, {"bike_id": "95c420d080192c01ff3d2758c1e90ce1", "fusion_lon": 0.0, "lon": -77.12707666666667, "name": "95c420d080192c01ff3d2758c1e90ce1", "is_disabled": 0, "rental_uris": {"android": "https://dc.lft.to/lastmile_qr_scan", "ios": "https://dc.lft.to/lastmile_qr_scan"}, "type": "electric_bike", "lat": 38.89575833333333, "is_reserved": 0, "fusion_lat": 0.0}, {"bike_id": "f0d2a6ff88262740b14752c22f3dc8f2", "fusion_lon": 0.0, "lon": -77.03628516666667, "name": "f0d2a6ff88262740b14752c22f3dc8f2", "is_disabled": 0, "rental_uris": {"android": "https://dc.lft.to/lastmile_qr_scan", "ios": "https://dc.lft.to/lastmile_qr_scan"}, "type": "electric_scooter", "lat": 38.90326316666667, "is_reserved": 0, "fusion_lat": 0.0}, {"bike_id": "38959880ea24f8e364b81abfa96f0d50", "fusion_lon": 0.0, "lon": -77.028791, "name": "38959880ea24f8e364b81abfa96f0d50", "is_disabled": 0, "rental_uris": {"android": "https://dc.lft.to/lastmile_qr_scan", "ios": "https://dc.lft.to/lastmile_qr_scan"}, "type": "electric_bike", "lat": 38.998802166666664, "is_reserved": 0, "fusion_lat": 0.0}, {"bike_id": "27e7a8c959f560fbc24531cf9b7c4742", "fusion_lon": 0.0, "lon": -77.01299316666666, "name": "27e7a8c959f560fbc24531cf9b7c4742", "is_disabled": 0, "rental_uris": {"android": "https://dc.lft.to/lastmile_qr_scan", "ios": "https://dc.lft.to/lastmile_qr_scan"}, "type": "electric_bike", "lat": 39.00368733333333, "is_reserved": 0, "fusion_lat": 0.0}, {"bike_id": "8bc4ce6861adaaac7fbfcb9a6b2997c0", "fusion_lon": 0.0, "lon": -76.97265466666667, "name": "8bc4ce6861adaaac7fbfcb9a6b2997c0", "is_disabled": 0, "rental_uris": {"android": "https://dc.lft.to/lastmile_qr_scan", "ios": "https://dc.lft.to/lastmile_qr_scan"}, "type": "electric_bike", "lat": 38.91959416666667, "is_reserved": 0, "fusion_lat": 0.0}, {"bike_id": "7cd9f6d64ac87dfd51dedf8df4408b9e", "fusion_lon": 0.0, "lon": -77.21651333333334, "name": "7cd9f6d64ac87dfd51dedf8df4408b9e", "is_disabled": 0, "rental_uris": {"android": "https://dc.lft.to/lastmile_qr_scan", "ios": "https://dc.lft.to/lastmile_qr_scan"}, "type": "electric_bike", "lat": 38.930109333333334, "is_reserved": 0, "fusion_lat": 0.0}, {"bike_id": "9bb097fa7e558e1f92981f8774525275", "fusion_lon": 0.0, "lon": -77.01849183333333, "name": "9bb097fa7e558e1f92981f8774525275", "is_disabled": 0, "rental_uris": {"android": "https://dc.lft.to/lastmile_qr_scan", "ios": "https://dc.lft.to/lastmile_qr_scan"}, "type": "electric_scooter", "lat": 38.922571, "is_reserved": 0, "fusion_lat": 0.0}, {"bike_id": "7797c050d785bb8b42886c6982ddf9f4", "fusion_lon": 0.0, "lon": -77.03079583333333, "name": "7797c050d785bb8b42886c6982ddf9f4", "is_disabled": 0, "rental_uris": {"android": "https://dc.lft.to/lastmile_qr_scan", "ios": "https://dc.lft.to/lastmile_qr_scan"}, "type": "electric_scooter", "lat": 38.91757783333333, "is_reserved": 0, "fusion_lat": 0.0}, {"bike_id": "eefd6241b1ef0633a46ca84799339ae2", "fusion_lon": 0.0, "lon": -77.03858233333334, "name": "eefd6241b1ef0633a46ca84799339ae2", "is_disabled": 0, "rental_uris": {"android": "https://dc.lft.to/lastmile_qr_scan", "ios": "https://dc.lft.to/lastmile_qr_scan"}, "type": "electric_scooter", "lat": 38.91619583333333, "is_reserved": 0, "fusion_lat": 0.0}, {"bike_id": "3183857cd429910dab89c19e98d6cf95", "fusion_lon": 0.0, "lon": -77.02419633333334, "name": "3183857cd429910dab89c19e98d6cf95", "is_disabled": 0, "rental_uris": {"android": "https://dc.lft.to/lastmile_qr_scan", "ios": "https://dc.lft.to/lastmile_qr_scan"}, "type": "electric_scooter", "lat": 38.92087466666667, "is_reserved": 0, "fusion_lat": 0.0}, {"bike_id": "73033f73a870a7d437311aec79dbed00", "fusion_lon": 0.0, "lon": -77.022139, "name": "73033f73a870a7d437311aec79dbed00", "is_disabled": 0, "rental_uris": {"android": "https://dc.lft.to/lastmile_qr_scan", "ios": "https://dc.lft.to/lastmile_qr_scan"}, "type": "electric_scooter", "lat": 38.8975195, "is_reserved": 0, "fusion_lat": 0.0}, {"bike_id": "bba9e52db3d9be7bc5676d73e0c77cfc", "fusion_lon": 0.0, "lon": -77.02795966666666, "name": "bba9e52db3d9be7bc5676d73e0c77cfc", "is_disabled": 0, "rental_uris": {"android": "https://dc.lft.to/lastmile_qr_scan", "ios": "https://dc.lft.to/lastmile_qr_scan"}, "type": "electric_scooter", "lat": 38.93078583333333, "is_reserved": 0, "fusion_lat": 0.0}, {"bike_id": "c09533e1bbea26a1dd1aa993213d3629", "fusion_lon": 0.0, "lon": -77.01611266666667, "name": "c09533e1bbea26a1dd1aa993213d3629", "is_disabled": 0, "rental_uris": {"android": "https://dc.lft.to/lastmile_qr_scan", "ios": "https://dc.lft.to/lastmile_qr_scan"}, "type": "electric_scooter", "lat": 38.895078166666664, "is_reserved": 0, "fusion_lat": 0.0}, {"bike_id": "6cf5d32cde227305a34629d450e02723", "fusion_lon": 0.0, "lon": -77.06411833333334, "name": "6cf5d32cde227305a34629d450e02723", "is_disabled": 0, "rental_uris": {"android": "https://dc.lft.to/lastmile_qr_scan", "ios": "https://dc.lft.to/lastmile_qr_scan"}, "type": "electric_scooter", "lat": 38.91368883333333, "is_reserved": 0, "fusion_lat": 0.0}, {"bike_id": "9413480a965f6c46931732dd32e170c9", "fusion_lon": 0.0, "lon": -76.99948116666667, "name": "9413480a965f6c46931732dd32e170c9", "is_disabled": 0, "rental_uris": {"android": "https://dc.lft.to/lastmile_qr_scan", "ios": "https://dc.lft.to/lastmile_qr_scan"}, "type": "electric_scooter", "lat": 38.84294833333333, "is_reserved": 0, "fusion_lat": 0.0}, {"bike_id": "8148ad01a536ef1c0dc8ee45a6cd6620", "fusion_lon": 0.0, "lon": -77.03195083333334, "name": "8148ad01a536ef1c0dc8ee45a6cd6620", "is_disabled": 0, "rental_uris": {"android": "https://dc.lft.to/lastmile_qr_scan", "ios": "https://dc.lft.to/lastmile_qr_scan"}, "type": "electric_scooter", "lat": 38.90727666666667, "is_reserved": 0, "fusion_lat": 0.0}, {"bike_id": "47080dc0bd84540d7dd0680a12cc7f3f", "fusion_lon": 0.0, "lon": -77.04170016666667, "name": "47080dc0bd84540d7dd0680a12cc7f3f", "is_disabled": 0, "rental_uris": {"android": "https://dc.lft.to/lastmile_qr_scan", "ios": "https://dc.lft.to/lastmile_qr_scan"}, "type": "electric_scooter", "lat": 38.9164815, "is_reserved": 0, "fusion_lat": 0.0}, {"bike_id": "36e354f489c452ec0de44be0933e8280", "fusion_lon": 0.0, "lon": -77.00858066666666, "name": "36e354f489c452ec0de44be0933e8280", "is_disabled": 0, "rental_uris": {"android": "https://dc.lft.to/lastmile_qr_scan", "ios": "https://dc.lft.to/lastmile_qr_scan"}, "type": "electric_scooter", "lat": 38.87948733333333, "is_reserved": 0, "fusion_lat": 0.0}, {"bike_id": "d7dfc63c11a5f6a3c8e21ed20954bd9a", "fusion_lon": 0.0, "lon": -77.0272305, "name": "d7dfc63c11a5f6a3c8e21ed20954bd9a", "is_disabled": 0, "rental_uris": {"android": "https://dc.lft.to/lastmile_qr_scan", "ios": "https://dc.lft.to/lastmile_qr_scan"}, "type": "electric_scooter", "lat": 38.949592, "is_reserved": 0, "fusion_lat": 0.0}, {"bike_id": "0133d404c377f402f5a137a53b8b7382", "fusion_lon": 0.0, "lon": -77.0438135, "name": "0133d404c377f402f5a137a53b8b7382", "is_disabled": 0, "rental_uris": {"android": "https://dc.lft.to/lastmile_qr_scan", "ios": "https://dc.lft.to/lastmile_qr_scan"}, "type": "electric_scooter", "lat": 38.916581666666666, "is_reserved": 0, "fusion_lat": 0.0}, {"bike_id": "17b38dd3336f9e3307c353672de23f0f", "fusion_lon": 0.0, "lon": -77.04183233333333, "name": "17b38dd3336f9e3307c353672de23f0f", "is_disabled": 0, "rental_uris": {"android": "https://dc.lft.to/lastmile_qr_scan", "ios": "https://dc.lft.to/lastmile_qr_scan"}, "type": "electric_scooter", "lat": 38.892900166666664, "is_reserved": 0, "fusion_lat": 0.0}, {"bike_id": "a6a0f7ad0ddef7c36581ae810a2c4f54", "fusion_lon": 0.0, "lon": -77.03382233333333, "name": "a6a0f7ad0ddef7c36581ae810a2c4f54", "is_disabled": 0, "rental_uris": {"android": "https://dc.lft.to/lastmile_qr_scan", "ios": "https://dc.lft.to/lastmile_qr_scan"}, "type": "electric_scooter", "lat": 38.90965, "is_reserved": 0, "fusion_lat": 0.0}, {"bike_id": "924e598f0930bab039f249afb44dd339", "fusion_lon": 0.0, "lon": -77.00552866666666, "name": "924e598f0930bab039f249afb44dd339", "is_disabled": 0, "rental_uris": {"android": "https://dc.lft.to/lastmile_qr_scan", "ios": "https://dc.lft.to/lastmile_qr_scan"}, "type": "electric_scooter", "lat": 38.879159, "is_reserved": 0, "fusion_lat": 0.0}, {"bike_id": "5671c42d7ef4d0a98b5469358e94e313", "fusion_lon": 0.0, "lon": -77.020047, "name": "5671c42d7ef4d0a98b5469358e94e313", "is_disabled": 0, "rental_uris": {"android": "https://dc.lft.to/lastmile_qr_scan", "ios": "https://dc.lft.to/lastmile_qr_scan"}, "type": "electric_scooter", "lat": 38.899118666666666, "is_reserved": 0, "fusion_lat": 0.0}, {"bike_id": "a5e0e124c63f25619a5e902216d20857", "fusion_lon": 0.0, "lon": -77.0057345, "name": "a5e0e124c63f25619a5e902216d20857", "is_disabled": 0, "rental_uris": {"android": "https://dc.lft.to/lastmile_qr_scan", "ios": "https://dc.lft.to/lastmile_qr_scan"}, "type": "electric_scooter", "lat": 38.8725075, "is_reserved": 0, "fusion_lat": 0.0}, {"bike_id": "a35bbe3cb5abfbe2db826e190cbc8424", "fusion_lon": 0.0, "lon": -77.06531166666667, "name": "a35bbe3cb5abfbe2db826e190cbc8424", "is_disabled": 0, "rental_uris": {"android": "https://dc.lft.to/lastmile_qr_scan", "ios": "https://dc.lft.to/lastmile_qr_scan"}, "type": "electric_scooter", "lat": 38.90306416666667, "is_reserved": 0, "fusion_lat": 0.0}, {"bike_id": "20ece38a02787cc5a099163ddb0f7b7a", "fusion_lon": 0.0, "lon": -77.02492033333333, "name": "20ece38a02787cc5a099163ddb0f7b7a", "is_disabled": 0, "rental_uris": {"android": "https://dc.lft.to/lastmile_qr_scan", "ios": "https://dc.lft.to/lastmile_qr_scan"}, "type": "electric_scooter", "lat": 38.941873333333334, "is_reserved": 0, "fusion_lat": 0.0}, {"bike_id": "60c88a98bee04caf2da965d991d32835", "fusion_lon": 0.0, "lon": -77.03214483333333, "name": "60c88a98bee04caf2da965d991d32835", "is_disabled": 0, "rental_uris": {"android": "https://dc.lft.to/lastmile_qr_scan", "ios": "https://dc.lft.to/lastmile_qr_scan"}, "type": "electric_scooter", "lat": 38.89746866666667, "is_reserved": 0, "fusion_lat": 0.0}, {"bike_id": "da163c02fbb03f6cc1aa775fb279d782", "fusion_lon": 0.0, "lon": -77.03327, "name": "da163c02fbb03f6cc1aa775fb279d782", "is_disabled": 0, "rental_uris": {"android": "https://dc.lft.to/lastmile_qr_scan", "ios": "https://dc.lft.to/lastmile_qr_scan"}, "type": "electric_scooter", "lat": 38.913599, "is_reserved": 0, "fusion_lat": 0.0}, {"bike_id": "20d65e03d6c16301beae619b8a00811f", "fusion_lon": 0.0, "lon": -77.02721716666667, "name": "20d65e03d6c16301beae619b8a00811f", "is_disabled": 0, "rental_uris": {"android": "https://dc.lft.to/lastmile_qr_scan", "ios": "https://dc.lft.to/lastmile_qr_scan"}, "type": "electric_scooter", "lat": 38.917072, "is_reserved": 0, "fusion_lat": 0.0}, {"bike_id": "e3695da8cdb5d05e3e203957e3f2f808", "fusion_lon": 0.0, "lon": -77.03293133333334, "name": "e3695da8cdb5d05e3e203957e3f2f808", "is_disabled": 0, "rental_uris": {"android": "https://dc.lft.to/lastmile_qr_scan", "ios": "https://dc.lft.to/lastmile_qr_scan"}, "type": "electric_scooter", "lat": 38.94714166666667, "is_reserved": 0, "fusion_lat": 0.0}, {"bike_id": "494a4f1cab176885ae74363515f01779", "fusion_lon": 0.0, "lon": -77.0182475, "name": "494a4f1cab176885ae74363515f01779", "is_disabled": 0, "rental_uris": {"android": "https://dc.lft.to/lastmile_qr_scan", "ios": "https://dc.lft.to/lastmile_qr_scan"}, "type": "electric_scooter", "lat": 38.921283333333335, "is_reserved": 0, "fusion_lat": 0.0}, {"bike_id": "bf10aa18104750fb38a7af1fd6ada7ab", "fusion_lon": 0.0, "lon": -77.12076166666667, "name": "bf10aa18104750fb38a7af1fd6ada7ab", "is_disabled": 0, "rental_uris": {"android": "https://dc.lft.to/lastmile_qr_scan", "ios": "https://dc.lft.to/lastmile_qr_scan"}, "type": "electric_bike", "lat": 38.854207, "is_reserved": 0, "fusion_lat": 0.0}, {"bike_id": "ccec36b01f7d7d7c587198dd5c84072d", "fusion_lon": 0.0, "lon": -77.033416, "name": "ccec36b01f7d7d7c587198dd5c84072d", "is_disabled": 0, "rental_uris": {"android": "https://dc.lft.to/lastmile_qr_scan", "ios": "https://dc.lft.to/lastmile_qr_scan"}, "type": "electric_scooter", "lat": 38.91187866666667, "is_reserved": 0, "fusion_lat": 0.0}, {"bike_id": "7570cd1ba20ad56c125e4c53ba069e8e", "fusion_lon": 0.0, "lon": -77.05399866666667, "name": "7570cd1ba20ad56c125e4c53ba069e8e", "is_disabled": 0, "rental_uris": {"android": "https://dc.lft.to/lastmile_qr_scan", "ios": "https://dc.lft.to/lastmile_qr_scan"}, "type": "electric_scooter", "lat": 38.92810033333333, "is_reserved": 0, "fusion_lat": 0.0}, {"bike_id": "ac2aacd166e71052f249e3e18e4e246d", "fusion_lon": 0.0, "lon": -77.03281616666666, "name": "ac2aacd166e71052f249e3e18e4e246d", "is_disabled": 0, "rental_uris": {"android": "https://dc.lft.to/lastmile_qr_scan", "ios": "https://dc.lft.to/lastmile_qr_scan"}, "type": "electric_scooter", "lat": 38.93203166666667, "is_reserved": 0, "fusion_lat": 0.0}, {"bike_id": "206b47501b18e2c8ca29061343778b12", "fusion_lon": 0.0, "lon": -77.04096933333334, "name": "206b47501b18e2c8ca29061343778b12", "is_disabled": 0, "rental_uris": {"android": "https://dc.lft.to/lastmile_qr_scan", "ios": "https://dc.lft.to/lastmile_qr_scan"}, "type": "electric_scooter", "lat": 38.9058325, "is_reserved": 0, "fusion_lat": 0.0}, {"bike_id": "c80dacada17956107999fc39f0ba59d2", "fusion_lon": 0.0, "lon": -77.03066483333333, "name": "c80dacada17956107999fc39f0ba59d2", "is_disabled": 0, "rental_uris": {"android": "https://dc.lft.to/lastmile_qr_scan", "ios": "https://dc.lft.to/lastmile_qr_scan"}, "type": "electric_scooter", "lat": 38.922498, "is_reserved": 0, "fusion_lat": 0.0}, {"bike_id": "8d732a1a071051174c4007261b3420da", "fusion_lon": 0.0, "lon": -77.00345416666667, "name": "8d732a1a071051174c4007261b3420da", "is_disabled": 0, "rental_uris": {"android": "https://dc.lft.to/lastmile_qr_scan", "ios": "https://dc.lft.to/lastmile_qr_scan"}, "type": "electric_scooter", "lat": 38.90126983333333, "is_reserved": 0, "fusion_lat": 0.0}, {"bike_id": "eaeb2af7f1ba6d0f7e470b1fa372443b", "fusion_lon": 0.0, "lon": -77.01745483333333, "name": "eaeb2af7f1ba6d0f7e470b1fa372443b", "is_disabled": 0, "rental_uris": {"android": "https://dc.lft.to/lastmile_qr_scan", "ios": "https://dc.lft.to/lastmile_qr_scan"}, "type": "electric_scooter", "lat": 38.9111625, "is_reserved": 0, "fusion_lat": 0.0}, {"bike_id": "d916bb17813ebf2fbd89c5734e630947", "fusion_lon": 0.0, "lon": -77.04161783333333, "name": "d916bb17813ebf2fbd89c5734e630947", "is_disabled": 0, "rental_uris": {"android": "https://dc.lft.to/lastmile_qr_scan", "ios": "https://dc.lft.to/lastmile_qr_scan"}, "type": "electric_scooter", "lat": 38.93412883333333, "is_reserved": 0, "fusion_lat": 0.0}, {"bike_id": "675fd6d7388510025d2a755fc2e206b0", "fusion_lon": 0.0, "lon": -77.11247383333334, "name": "675fd6d7388510025d2a755fc2e206b0", "is_disabled": 0, "rental_uris": {"android": "https://dc.lft.to/lastmile_qr_scan", "ios": "https://dc.lft.to/lastmile_qr_scan"}, "type": "electric_bike", "lat": 38.85603716666667, "is_reserved": 0, "fusion_lat": 0.0}, {"bike_id": "21b8b4b298a34e595884a2fead980246", "fusion_lon": 0.0, "lon": -76.9541725, "name": "21b8b4b298a34e595884a2fead980246", "is_disabled": 0, "rental_uris": {"android": "https://dc.lft.to/lastmile_qr_scan", "ios": "https://dc.lft.to/lastmile_qr_scan"}, "type": "electric_bike", "lat": 38.889521, "is_reserved": 0, "fusion_lat": 0.0}, {"bike_id": "3a08ce1d2109385abcafff426a75f4df", "fusion_lon": 0.0, "lon": -77.03293483333333, "name": "3a08ce1d2109385abcafff426a75f4df", "is_disabled": 0, "rental_uris": {"android": "https://dc.lft.to/lastmile_qr_scan", "ios": "https://dc.lft.to/lastmile_qr_scan"}, "type": "electric_scooter", "lat": 38.91989616666667, "is_reserved": 0, "fusion_lat": 0.0}, {"bike_id": "52b951bc887e9381f2505caa4f88659d", "fusion_lon": 0.0, "lon": -77.02518816666667, "name": "52b951bc887e9381f2505caa4f88659d", "is_disabled": 0, "rental_uris": {"android": "https://dc.lft.to/lastmile_qr_scan", "ios": "https://dc.lft.to/lastmile_qr_scan"}, "type": "electric_scooter", "lat": 38.94622483333333, "is_reserved": 0, "fusion_lat": 0.0}, {"bike_id": "b4049334b539706007fd8bbaa1602703", "fusion_lon": 0.0, "lon": -77.05397166666667, "name": "b4049334b539706007fd8bbaa1602703", "is_disabled": 0, "rental_uris": {"android": "https://dc.lft.to/lastmile_qr_scan", "ios": "https://dc.lft.to/lastmile_qr_scan"}, "type": "electric_scooter", "lat": 38.92808616666667, "is_reserved": 0, "fusion_lat": 0.0}, {"bike_id": "10e4166944a8a8672d131f361d8b092d", "fusion_lon": 0.0, "lon": -76.9494325, "name": "10e4166944a8a8672d131f361d8b092d", "is_disabled": 0, "rental_uris": {"android": "https://dc.lft.to/lastmile_qr_scan", "ios": "https://dc.lft.to/lastmile_qr_scan"}, "type": "electric_scooter", "lat": 38.89350916666667, "is_reserved": 0, "fusion_lat": 0.0}, {"bike_id": "3a6eebc2ff568363ab77ce73dbf5b848", "fusion_lon": 0.0, "lon": -77.01946916666667, "name": "3a6eebc2ff568363ab77ce73dbf5b848", "is_disabled": 0, "rental_uris": {"android": "https://dc.lft.to/lastmile_qr_scan", "ios": "https://dc.lft.to/lastmile_qr_scan"}, "type": "electric_scooter", "lat": 38.9242115, "is_reserved": 0, "fusion_lat": 0.0}, {"bike_id": "5f4260c4a517c5fbe26ef0403fb34d2f", "fusion_lon": 0.0, "lon": -77.036921, "name": "5f4260c4a517c5fbe26ef0403fb34d2f", "is_disabled": 0, "rental_uris": {"android": "https://dc.lft.to/lastmile_qr_scan", "ios": "https://dc.lft.to/lastmile_qr_scan"}, "type": "electric_scooter", "lat": 38.926452, "is_reserved": 0, "fusion_lat": 0.0}, {"bike_id": "d7c4b15afc468c6c0031d0db1e93acde", "fusion_lon": 0.0, "lon": -77.0352715, "name": "d7c4b15afc468c6c0031d0db1e93acde", "is_disabled": 0, "rental_uris": {"android": "https://dc.lft.to/lastmile_qr_scan", "ios": "https://dc.lft.to/lastmile_qr_scan"}, "type": "electric_scooter", "lat": 38.923223166666666, "is_reserved": 0, "fusion_lat": 0.0}, {"bike_id": "39d6d60d1482be6d2cd14a4e5ec67a2d", "fusion_lon": 0.0, "lon": -77.03205516666667, "name": "39d6d60d1482be6d2cd14a4e5ec67a2d", "is_disabled": 0, "rental_uris": {"android": "https://dc.lft.to/lastmile_qr_scan", "ios": "https://dc.lft.to/lastmile_qr_scan"}, "type": "electric_scooter", "lat": 38.91540533333333, "is_reserved": 0, "fusion_lat": 0.0}, {"bike_id": "90b5c4766ca951a57f7b6fb9e8d1f1d9", "fusion_lon": 0.0, "lon": -76.98712116666667, "name": "90b5c4766ca951a57f7b6fb9e8d1f1d9", "is_disabled": 0, "rental_uris": {"android": "https://dc.lft.to/lastmile_qr_scan", "ios": "https://dc.lft.to/lastmile_qr_scan"}, "type": "electric_scooter", "lat": 38.867009, "is_reserved": 0, "fusion_lat": 0.0}, {"bike_id": "3b6a1f34ce9aa7e98142effc30e54f2c", "fusion_lon": 0.0, "lon": -77.04175316666667, "name": "3b6a1f34ce9aa7e98142effc30e54f2c", "is_disabled": 0, "rental_uris": {"android": "https://dc.lft.to/lastmile_qr_scan", "ios": "https://dc.lft.to/lastmile_qr_scan"}, "type": "electric_scooter", "lat": 38.91903333333333, "is_reserved": 0, "fusion_lat": 0.0}, {"bike_id": "1729be1db8cec5d491f531962b29da88", "fusion_lon": 0.0, "lon": -77.00578583333333, "name": "1729be1db8cec5d491f531962b29da88", "is_disabled": 0, "rental_uris": {"android": "https://dc.lft.to/lastmile_qr_scan", "ios": "https://dc.lft.to/lastmile_qr_scan"}, "type": "electric_bike", "lat": 38.87391433333333, "is_reserved": 0, "fusion_lat": 0.0}, {"bike_id": "d6228e42aa8f5f3c1d28cfe4fa0edd32", "fusion_lon": 0.0, "lon": -77.0320755, "name": "d6228e42aa8f5f3c1d28cfe4fa0edd32", "is_disabled": 0, "rental_uris": {"android": "https://dc.lft.to/lastmile_qr_scan", "ios": "https://dc.lft.to/lastmile_qr_scan"}, "type": "electric_scooter", "lat": 38.913910333333334, "is_reserved": 0, "fusion_lat": 0.0}, {"bike_id": "8e170a0342b0fc4b89f3ab881a3bcf0f", "fusion_lon": 0.0, "lon": -77.03182333333334, "name": "8e170a0342b0fc4b89f3ab881a3bcf0f", "is_disabled": 0, "rental_uris": {"android": "https://dc.lft.to/lastmile_qr_scan", "ios": "https://dc.lft.to/lastmile_qr_scan"}, "type": "electric_scooter", "lat": 38.9110165, "is_reserved": 0, "fusion_lat": 0.0}, {"bike_id": "d42da67ba97a43eaa437be188f1b2898", "fusion_lon": 0.0, "lon": -76.999043, "name": "d42da67ba97a43eaa437be188f1b2898", "is_disabled": 0, "rental_uris": {"android": "https://dc.lft.to/lastmile_qr_scan", "ios": "https://dc.lft.to/lastmile_qr_scan"}, "type": "electric_scooter", "lat": 38.94818183333334, "is_reserved": 0, "fusion_lat": 0.0}, {"bike_id": "3a39c279c906815c67700667f80b232f", "fusion_lon": 0.0, "lon": -77.03590533333333, "name": "3a39c279c906815c67700667f80b232f", "is_disabled": 0, "rental_uris": {"android": "https://dc.lft.to/lastmile_qr_scan", "ios": "https://dc.lft.to/lastmile_qr_scan"}, "type": "electric_scooter", "lat": 38.93672516666667, "is_reserved": 0, "fusion_lat": 0.0}, {"bike_id": "b81367b561d6f4499691e25c09427477", "fusion_lon": 0.0, "lon": -77.0633725, "name": "b81367b561d6f4499691e25c09427477", "is_disabled": 0, "rental_uris": {"android": "https://dc.lft.to/lastmile_qr_scan", "ios": "https://dc.lft.to/lastmile_qr_scan"}, "type": "electric_scooter", "lat": 38.906836166666665, "is_reserved": 0, "fusion_lat": 0.0}, {"bike_id": "0250cfb2c0c0ff1e786693840ac988ca", "fusion_lon": 0.0, "lon": -77.02195766666667, "name": "0250cfb2c0c0ff1e786693840ac988ca", "is_disabled": 0, "rental_uris": {"android": "https://dc.lft.to/lastmile_qr_scan", "ios": "https://dc.lft.to/lastmile_qr_scan"}, "type": "electric_scooter", "lat": 38.9148125, "is_reserved": 0, "fusion_lat": 0.0}, {"bike_id": "e204890e22854d87d73a4b2078442c25", "fusion_lon": 0.0, "lon": -77.03352366666667, "name": "e204890e22854d87d73a4b2078442c25", "is_disabled": 0, "rental_uris": {"android": "https://dc.lft.to/lastmile_qr_scan", "ios": "https://dc.lft.to/lastmile_qr_scan"}, "type": "electric_scooter", "lat": 38.88503033333333, "is_reserved": 0, "fusion_lat": 0.0}, {"bike_id": "d549f84f181624a69bcdd463d55f2493", "fusion_lon": 0.0, "lon": -77.13873566666666, "name": "d549f84f181624a69bcdd463d55f2493", "is_disabled": 0, "rental_uris": {"android": "https://dc.lft.to/lastmile_qr_scan", "ios": "https://dc.lft.to/lastmile_qr_scan"}, "type": "electric_bike", "lat": 38.89684466666667, "is_reserved": 0, "fusion_lat": 0.0}, {"bike_id": "75f98a80f07736993c8baf262c4b8678", "fusion_lon": 0.0, "lon": -77.03212683333334, "name": "75f98a80f07736993c8baf262c4b8678", "is_disabled": 0, "rental_uris": {"android": "https://dc.lft.to/lastmile_qr_scan", "ios": "https://dc.lft.to/lastmile_qr_scan"}, "type": "electric_scooter", "lat": 38.918558166666664, "is_reserved": 0, "fusion_lat": 0.0}, {"bike_id": "1df74dd65a9a4efab13d950b6323c69b", "fusion_lon": 0.0, "lon": -76.93199466666667, "name": "1df74dd65a9a4efab13d950b6323c69b", "is_disabled": 0, "rental_uris": {"android": "https://dc.lft.to/lastmile_qr_scan", "ios": "https://dc.lft.to/lastmile_qr_scan"}, "type": "electric_scooter", "lat": 38.8987975, "is_reserved": 0, "fusion_lat": 0.0}, {"bike_id": "3a0576a099e59739974ae3bce63050c0", "fusion_lon": 0.0, "lon": -76.97954416666667, "name": "3a0576a099e59739974ae3bce63050c0", "is_disabled": 0, "rental_uris": {"android": "https://dc.lft.to/lastmile_qr_scan", "ios": "https://dc.lft.to/lastmile_qr_scan"}, "type": "electric_scooter", "lat": 38.9169165, "is_reserved": 0, "fusion_lat": 0.0}, {"bike_id": "483bff7bfdde76c983c432dd4da45c91", "fusion_lon": 0.0, "lon": -77.02383833333333, "name": "483bff7bfdde76c983c432dd4da45c91", "is_disabled": 0, "rental_uris": {"android": "https://dc.lft.to/lastmile_qr_scan", "ios": "https://dc.lft.to/lastmile_qr_scan"}, "type": "electric_scooter", "lat": 38.909560666666664, "is_reserved": 0, "fusion_lat": 0.0}, {"bike_id": "339d8d10183540533074cd1f52bcd076", "fusion_lon": 0.0, "lon": -77.11060583333334, "name": "339d8d10183540533074cd1f52bcd076", "is_disabled": 0, "rental_uris": {"android": "https://dc.lft.to/lastmile_qr_scan", "ios": "https://dc.lft.to/lastmile_qr_scan"}, "type": "electric_bike", "lat": 38.870792, "is_reserved": 0, "fusion_lat": 0.0}, {"bike_id": "ef8bc38df513cb107bc1dffeafad332e", "fusion_lon": 0.0, "lon": -77.0500375, "name": "ef8bc38df513cb107bc1dffeafad332e", "is_disabled": 0, "rental_uris": {"android": "https://dc.lft.to/lastmile_qr_scan", "ios": "https://dc.lft.to/lastmile_qr_scan"}, "type": "electric_scooter", "lat": 38.89233083333333, "is_reserved": 0, "fusion_lat": 0.0}, {"bike_id": "13d039c846bf08c45bd62059debb768e", "fusion_lon": 0.0, "lon": -77.02956016666667, "name": "13d039c846bf08c45bd62059debb768e", "is_disabled": 0, "rental_uris": {"android": "https://dc.lft.to/lastmile_qr_scan", "ios": "https://dc.lft.to/lastmile_qr_scan"}, "type": "electric_scooter", "lat": 38.8993355, "is_reserved": 0, "fusion_lat": 0.0}, {"bike_id": "6d32c829f76af7579282d73118b904f2", "fusion_lon": 0.0, "lon": -77.02212716666666, "name": "6d32c829f76af7579282d73118b904f2", "is_disabled": 0, "rental_uris": {"android": "https://dc.lft.to/lastmile_qr_scan", "ios": "https://dc.lft.to/lastmile_qr_scan"}, "type": "electric_scooter", "lat": 38.9155595, "is_reserved": 0, "fusion_lat": 0.0}, {"bike_id": "1282c3605523fe479634457bfc786006", "fusion_lon": 0.0, "lon": -77.03675133333333, "name": "1282c3605523fe479634457bfc786006", "is_disabled": 0, "rental_uris": {"android": "https://dc.lft.to/lastmile_qr_scan", "ios": "https://dc.lft.to/lastmile_qr_scan"}, "type": "electric_scooter", "lat": 38.9171065, "is_reserved": 0, "fusion_lat": 0.0}, {"bike_id": "47273b647f2fbf7860861a232b274704", "fusion_lon": 0.0, "lon": -77.03197016666667, "name": "47273b647f2fbf7860861a232b274704", "is_disabled": 0, "rental_uris": {"android": "https://dc.lft.to/lastmile_qr_scan", "ios": "https://dc.lft.to/lastmile_qr_scan"}, "type": "electric_scooter", "lat": 38.897253666666664, "is_reserved": 0, "fusion_lat": 0.0}, {"bike_id": "371c2166a5b2316de05bf451714f4a92", "fusion_lon": 0.0, "lon": -76.9323095, "name": "371c2166a5b2316de05bf451714f4a92", "is_disabled": 0, "rental_uris": {"android": "https://dc.lft.to/lastmile_qr_scan", "ios": "https://dc.lft.to/lastmile_qr_scan"}, "type": "electric_bike", "lat": 38.86598633333333, "is_reserved": 0, "fusion_lat": 0.0}, {"bike_id": "57c85c356cccd6301f69a1fb76fb401d", "fusion_lon": 0.0, "lon": -77.03470466666667, "name": "57c85c356cccd6301f69a1fb76fb401d", "is_disabled": 0, "rental_uris": {"android": "https://dc.lft.to/lastmile_qr_scan", "ios": "https://dc.lft.to/lastmile_qr_scan"}, "type": "electric_bike", "lat": 38.935332, "is_reserved": 0, "fusion_lat": 0.0}, {"bike_id": "aafd6c109cff5dbae767461b81c45f77", "fusion_lon": 0.0, "lon": -77.01880333333334, "name": "aafd6c109cff5dbae767461b81c45f77", "is_disabled": 0, "rental_uris": {"android": "https://dc.lft.to/lastmile_qr_scan", "ios": "https://dc.lft.to/lastmile_qr_scan"}, "type": "electric_scooter", "lat": 38.91770433333333, "is_reserved": 0, "fusion_lat": 0.0}, {"bike_id": "1aef893b4020300a07880d752b214a1b", "fusion_lon": 0.0, "lon": -77.04004966666666, "name": "1aef893b4020300a07880d752b214a1b", "is_disabled": 0, "rental_uris": {"android": "https://dc.lft.to/lastmile_qr_scan", "ios": "https://dc.lft.to/lastmile_qr_scan"}, "type": "electric_scooter", "lat": 38.909927833333334, "is_reserved": 0, "fusion_lat": 0.0}, {"bike_id": "820339104b915f66a0b89f336c4c8579", "fusion_lon": 0.0, "lon": -77.03119366666667, "name": "820339104b915f66a0b89f336c4c8579", "is_disabled": 0, "rental_uris": {"android": "https://dc.lft.to/lastmile_qr_scan", "ios": "https://dc.lft.to/lastmile_qr_scan"}, "type": "electric_scooter", "lat": 38.91699366666667, "is_reserved": 0, "fusion_lat": 0.0}, {"bike_id": "8e3f46531e48d45b385d897fc99b99d1", "fusion_lon": 0.0, "lon": -77.014792, "name": "8e3f46531e48d45b385d897fc99b99d1", "is_disabled": 0, "rental_uris": {"android": "https://dc.lft.to/lastmile_qr_scan", "ios": "https://dc.lft.to/lastmile_qr_scan"}, "type": "electric_scooter", "lat": 38.8764635, "is_reserved": 0, "fusion_lat": 0.0}, {"bike_id": "306a3f2c3843e7f4874a8151f6e8ccb2", "fusion_lon": 0.0, "lon": -76.9902735, "name": "306a3f2c3843e7f4874a8151f6e8ccb2", "is_disabled": 0, "rental_uris": {"android": "https://dc.lft.to/lastmile_qr_scan", "ios": "https://dc.lft.to/lastmile_qr_scan"}, "type": "electric_scooter", "lat": 38.865233, "is_reserved": 0, "fusion_lat": 0.0}, {"bike_id": "10f6cc95fb96df97fb37406da1c42d8a", "fusion_lon": 0.0, "lon": -77.05524383333334, "name": "10f6cc95fb96df97fb37406da1c42d8a", "is_disabled": 0, "rental_uris": {"android": "https://dc.lft.to/lastmile_qr_scan", "ios": "https://dc.lft.to/lastmile_qr_scan"}, "type": "electric_scooter", "lat": 38.897307, "is_reserved": 0, "fusion_lat": 0.0}, {"bike_id": "32972308c205922c84371cfb931ef2d8", "fusion_lon": 0.0, "lon": -77.12960316666667, "name": "32972308c205922c84371cfb931ef2d8", "is_disabled": 0, "rental_uris": {"android": "https://dc.lft.to/lastmile_qr_scan", "ios": "https://dc.lft.to/lastmile_qr_scan"}, "type": "electric_bike", "lat": 38.85220133333333, "is_reserved": 0, "fusion_lat": 0.0}, {"bike_id": "aa3765d3ea0cf4db09bc452e2da5311f", "fusion_lon": 0.0, "lon": -77.03879166666667, "name": "aa3765d3ea0cf4db09bc452e2da5311f", "is_disabled": 0, "rental_uris": {"android": "https://dc.lft.to/lastmile_qr_scan", "ios": "https://dc.lft.to/lastmile_qr_scan"}, "type": "electric_scooter", "lat": 38.917014333333334, "is_reserved": 0, "fusion_lat": 0.0}, {"bike_id": "a269db61ed7a34200958f79def2024b0", "fusion_lon": 0.0, "lon": -77.04014083333334, "name": "a269db61ed7a34200958f79def2024b0", "is_disabled": 0, "rental_uris": {"android": "https://dc.lft.to/lastmile_qr_scan", "ios": "https://dc.lft.to/lastmile_qr_scan"}, "type": "electric_scooter", "lat": 38.92450433333333, "is_reserved": 0, "fusion_lat": 0.0}, {"bike_id": "247bd1bbce3939dc76a0637c97fe18e6", "fusion_lon": 0.0, "lon": -77.02495783333333, "name": "247bd1bbce3939dc76a0637c97fe18e6", "is_disabled": 0, "rental_uris": {"android": "https://dc.lft.to/lastmile_qr_scan", "ios": "https://dc.lft.to/lastmile_qr_scan"}, "type": "electric_scooter", "lat": 38.90267733333334, "is_reserved": 0, "fusion_lat": 0.0}, {"bike_id": "9f7593640ab1f6f77e6d5f7ec2ac95ba", "fusion_lon": 0.0, "lon": -77.023437, "name": "9f7593640ab1f6f77e6d5f7ec2ac95ba", "is_disabled": 0, "rental_uris": {"android": "https://dc.lft.to/lastmile_qr_scan", "ios": "https://dc.lft.to/lastmile_qr_scan"}, "type": "electric_scooter", "lat": 38.9072585, "is_reserved": 0, "fusion_lat": 0.0}, {"bike_id": "bc4ddbc144806a5afd8e39ac83bc3d6d", "fusion_lon": 0.0, "lon": -77.03214283333334, "name": "bc4ddbc144806a5afd8e39ac83bc3d6d", "is_disabled": 0, "rental_uris": {"android": "https://dc.lft.to/lastmile_qr_scan", "ios": "https://dc.lft.to/lastmile_qr_scan"}, "type": "electric_scooter", "lat": 38.90381933333333, "is_reserved": 0, "fusion_lat": 0.0}, {"bike_id": "ce24c2ffa91313704dd3fd1c593b35e3", "fusion_lon": 0.0, "lon": -77.03794533333334, "name": "ce24c2ffa91313704dd3fd1c593b35e3", "is_disabled": 0, "rental_uris": {"android": "https://dc.lft.to/lastmile_qr_scan", "ios": "https://dc.lft.to/lastmile_qr_scan"}, "type": "electric_scooter", "lat": 38.909685333333336, "is_reserved": 0, "fusion_lat": 0.0}, {"bike_id": "7071d102288886d4456b4780cff68e86", "fusion_lon": 0.0, "lon": -77.0446425, "name": "7071d102288886d4456b4780cff68e86", "is_disabled": 0, "rental_uris": {"android": "https://dc.lft.to/lastmile_qr_scan", "ios": "https://dc.lft.to/lastmile_qr_scan"}, "type": "electric_scooter", "lat": 38.91119416666667, "is_reserved": 0, "fusion_lat": 0.0}, {"bike_id": "048010510be0425607858af8f612aed6", "fusion_lon": 0.0, "lon": -77.02588116666666, "name": "048010510be0425607858af8f612aed6", "is_disabled": 0, "rental_uris": {"android": "https://dc.lft.to/lastmile_qr_scan", "ios": "https://dc.lft.to/lastmile_qr_scan"}, "type": "electric_scooter", "lat": 38.90331533333333, "is_reserved": 0, "fusion_lat": 0.0}, {"bike_id": "0cd0323bf96d4b3f1af67516dd3e7a4e", "fusion_lon": 0.0, "lon": -77.01646283333334, "name": "0cd0323bf96d4b3f1af67516dd3e7a4e", "is_disabled": 0, "rental_uris": {"android": "https://dc.lft.to/lastmile_qr_scan", "ios": "https://dc.lft.to/lastmile_qr_scan"}, "type": "electric_scooter", "lat": 38.8811885, "is_reserved": 0, "fusion_lat": 0.0}, {"bike_id": "d3996ac345e83ee9adcee73f73d51296", "fusion_lon": 0.0, "lon": -77.04542983333333, "name": "d3996ac345e83ee9adcee73f73d51296", "is_disabled": 0, "rental_uris": {"android": "https://dc.lft.to/lastmile_qr_scan", "ios": "https://dc.lft.to/lastmile_qr_scan"}, "type": "electric_scooter", "lat": 38.896073333333334, "is_reserved": 0, "fusion_lat": 0.0}, {"bike_id": "c7d55fcb294317e3437c02f8faed5f5b", "fusion_lon": 0.0, "lon": -76.99054433333333, "name": "c7d55fcb294317e3437c02f8faed5f5b", "is_disabled": 0, "rental_uris": {"android": "https://dc.lft.to/lastmile_qr_scan", "ios": "https://dc.lft.to/lastmile_qr_scan"}, "type": "electric_scooter", "lat": 38.86360466666667, "is_reserved": 0, "fusion_lat": 0.0}, {"bike_id": "79cf6cb0d967e322afacf923bb970612", "fusion_lon": 0.0, "lon": -77.06646566666667, "name": "79cf6cb0d967e322afacf923bb970612", "is_disabled": 0, "rental_uris": {"android": "https://dc.lft.to/lastmile_qr_scan", "ios": "https://dc.lft.to/lastmile_qr_scan"}, "type": "electric_scooter", "lat": 38.92685216666667, "is_reserved": 0, "fusion_lat": 0.0}, {"bike_id": "17678d529bb7330dcad6bfbdc8581069", "fusion_lon": 0.0, "lon": -76.9858205, "name": "17678d529bb7330dcad6bfbdc8581069", "is_disabled": 0, "rental_uris": {"android": "https://dc.lft.to/lastmile_qr_scan", "ios": "https://dc.lft.to/lastmile_qr_scan"}, "type": "electric_bike", "lat": 38.912805666666664, "is_reserved": 0, "fusion_lat": 0.0}, {"bike_id": "0db7df1b77134f1cb3bb172d1a24c66f", "fusion_lon": 0.0, "lon": -77.033161, "name": "0db7df1b77134f1cb3bb172d1a24c66f", "is_disabled": 0, "rental_uris": {"android": "https://dc.lft.to/lastmile_qr_scan", "ios": "https://dc.lft.to/lastmile_qr_scan"}, "type": "electric_scooter", "lat": 38.91810233333333, "is_reserved": 0, "fusion_lat": 0.0}, {"bike_id": "564f281327d1ee7a6a6fef5fe300e6dc", "fusion_lon": 0.0, "lon": -77.0297625, "name": "564f281327d1ee7a6a6fef5fe300e6dc", "is_disabled": 0, "rental_uris": {"android": "https://dc.lft.to/lastmile_qr_scan", "ios": "https://dc.lft.to/lastmile_qr_scan"}, "type": "electric_scooter", "lat": 38.907847833333335, "is_reserved": 0, "fusion_lat": 0.0}, {"bike_id": "3aaf23e92c4e3ce598fd71ebfb2a7183", "fusion_lon": 0.0, "lon": -77.033756, "name": "3aaf23e92c4e3ce598fd71ebfb2a7183", "is_disabled": 0, "rental_uris": {"android": "https://dc.lft.to/lastmile_qr_scan", "ios": "https://dc.lft.to/lastmile_qr_scan"}, "type": "electric_scooter", "lat": 38.90017516666666, "is_reserved": 0, "fusion_lat": 0.0}, {"bike_id": "4bd9411f6b2c86eac282d2802f8fd0df", "fusion_lon": 0.0, "lon": -77.04142716666667, "name": "4bd9411f6b2c86eac282d2802f8fd0df", "is_disabled": 0, "rental_uris": {"android": "https://dc.lft.to/lastmile_qr_scan", "ios": "https://dc.lft.to/lastmile_qr_scan"}, "type": "electric_scooter", "lat": 38.8934885, "is_reserved": 0, "fusion_lat": 0.0}, {"bike_id": "79acebd48bb03b9994ba33ac219cbfc9", "fusion_lon": 0.0, "lon": -77.03068716666667, "name": "79acebd48bb03b9994ba33ac219cbfc9", "is_disabled": 0, "rental_uris": {"android": "https://dc.lft.to/lastmile_qr_scan", "ios": "https://dc.lft.to/lastmile_qr_scan"}, "type": "electric_scooter", "lat": 38.88577216666667, "is_reserved": 0, "fusion_lat": 0.0}, {"bike_id": "6cddd2d87115a4e3d065a6f67fca4e49", "fusion_lon": 0.0, "lon": -77.0250295, "name": "6cddd2d87115a4e3d065a6f67fca4e49", "is_disabled": 0, "rental_uris": {"android": "https://dc.lft.to/lastmile_qr_scan", "ios": "https://dc.lft.to/lastmile_qr_scan"}, "type": "electric_scooter", "lat": 38.906482833333335, "is_reserved": 0, "fusion_lat": 0.0}, {"bike_id": "a161daaa1312350195dc2b64d4072878", "fusion_lon": 0.0, "lon": -77.0229035, "name": "a161daaa1312350195dc2b64d4072878", "is_disabled": 0, "rental_uris": {"android": "https://dc.lft.to/lastmile_qr_scan", "ios": "https://dc.lft.to/lastmile_qr_scan"}, "type": "electric_scooter", "lat": 38.89058383333333, "is_reserved": 0, "fusion_lat": 0.0}, {"bike_id": "b92cb5d5b20832d7330ad28bdde90218", "fusion_lon": 0.0, "lon": -76.89541666666666, "name": "b92cb5d5b20832d7330ad28bdde90218", "is_disabled": 0, "rental_uris": {"android": "https://dc.lft.to/lastmile_qr_scan", "ios": "https://dc.lft.to/lastmile_qr_scan"}, "type": "electric_bike", "lat": 38.945544, "is_reserved": 0, "fusion_lat": 0.0}, {"bike_id": "ffbbcdc6e23a3635320ddde0658410c7", "fusion_lon": 0.0, "lon": -77.0345205, "name": "ffbbcdc6e23a3635320ddde0658410c7", "is_disabled": 0, "rental_uris": {"android": "https://dc.lft.to/lastmile_qr_scan", "ios": "https://dc.lft.to/lastmile_qr_scan"}, "type": "electric_scooter", "lat": 38.9374785, "is_reserved": 0, "fusion_lat": 0.0}, {"bike_id": "f1cd09717dbad2b319e763cf1480ce13", "fusion_lon": 0.0, "lon": -77.02822366666666, "name": "f1cd09717dbad2b319e763cf1480ce13", "is_disabled": 0, "rental_uris": {"android": "https://dc.lft.to/lastmile_qr_scan", "ios": "https://dc.lft.to/lastmile_qr_scan"}, "type": "electric_scooter", "lat": 38.9046435, "is_reserved": 0, "fusion_lat": 0.0}, {"bike_id": "e4e99a67d4f38a49b6f77e605e88321e", "fusion_lon": 0.0, "lon": -77.0458705, "name": "e4e99a67d4f38a49b6f77e605e88321e", "is_disabled": 0, "rental_uris": {"android": "https://dc.lft.to/lastmile_qr_scan", "ios": "https://dc.lft.to/lastmile_qr_scan"}, "type": "electric_scooter", "lat": 38.918632833333334, "is_reserved": 0, "fusion_lat": 0.0}, {"bike_id": "e43983e902ef8df0b14712d0f06c21a0", "fusion_lon": 0.0, "lon": -77.003576, "name": "e43983e902ef8df0b14712d0f06c21a0", "is_disabled": 0, "rental_uris": {"android": "https://dc.lft.to/lastmile_qr_scan", "ios": "https://dc.lft.to/lastmile_qr_scan"}, "type": "electric_scooter", "lat": 38.89931166666667, "is_reserved": 0, "fusion_lat": 0.0}, {"bike_id": "5fabf322c7db6bd667e81a3b21d1b056", "fusion_lon": 0.0, "lon": -76.94967433333333, "name": "5fabf322c7db6bd667e81a3b21d1b056", "is_disabled": 0, "rental_uris": {"android": "https://dc.lft.to/lastmile_qr_scan", "ios": "https://dc.lft.to/lastmile_qr_scan"}, "type": "electric_scooter", "lat": 38.89360166666667, "is_reserved": 0, "fusion_lat": 0.0}, {"bike_id": "823458765e785476d233a45dca030894", "fusion_lon": 0.0, "lon": -77.105996, "name": "823458765e785476d233a45dca030894", "is_disabled": 0, "rental_uris": {"android": "https://dc.lft.to/lastmile_qr_scan", "ios": "https://dc.lft.to/lastmile_qr_scan"}, "type": "electric_bike", "lat": 38.928968833333336, "is_reserved": 0, "fusion_lat": 0.0}, {"bike_id": "30cf1ff07a92669e0b5536c80cb6fd01", "fusion_lon": 0.0, "lon": -77.04026333333333, "name": "30cf1ff07a92669e0b5536c80cb6fd01", "is_disabled": 0, "rental_uris": {"android": "https://dc.lft.to/lastmile_qr_scan", "ios": "https://dc.lft.to/lastmile_qr_scan"}, "type": "electric_scooter", "lat": 38.92443566666667, "is_reserved": 0, "fusion_lat": 0.0}, {"bike_id": "7aeecf1ebcc99e0d8f69df4289e9812d", "fusion_lon": 0.0, "lon": -77.01594733333333, "name": "7aeecf1ebcc99e0d8f69df4289e9812d", "is_disabled": 0, "rental_uris": {"android": "https://dc.lft.to/lastmile_qr_scan", "ios": "https://dc.lft.to/lastmile_qr_scan"}, "type": "electric_scooter", "lat": 38.90137883333333, "is_reserved": 0, "fusion_lat": 0.0}, {"bike_id": "1476a5a0a91fa04bacab4d84cfe04a50", "fusion_lon": 0.0, "lon": -76.95754133333334, "name": "1476a5a0a91fa04bacab4d84cfe04a50", "is_disabled": 0, "rental_uris": {"android": "https://dc.lft.to/lastmile_qr_scan", "ios": "https://dc.lft.to/lastmile_qr_scan"}, "type": "electric_scooter", "lat": 38.884293, "is_reserved": 0, "fusion_lat": 0.0}, {"bike_id": "c7d2f9fabc44fabcec4cd3d5c315c373", "fusion_lon": 0.0, "lon": -77.02619316666667, "name": "c7d2f9fabc44fabcec4cd3d5c315c373", "is_disabled": 0, "rental_uris": {"android": "https://dc.lft.to/lastmile_qr_scan", "ios": "https://dc.lft.to/lastmile_qr_scan"}, "type": "electric_scooter", "lat": 38.897329, "is_reserved": 0, "fusion_lat": 0.0}, {"bike_id": "3d5e0137c0483a777efeaa16ed62f07d", "fusion_lon": 0.0, "lon": -76.99774283333333, "name": "3d5e0137c0483a777efeaa16ed62f07d", "is_disabled": 0, "rental_uris": {"android": "https://dc.lft.to/lastmile_qr_scan", "ios": "https://dc.lft.to/lastmile_qr_scan"}, "type": "electric_scooter", "lat": 38.844263833333336, "is_reserved": 0, "fusion_lat": 0.0}, {"bike_id": "1920dc7b9c4a0021dffdc7ba7f444f9c", "fusion_lon": 0.0, "lon": -77.0212695, "name": "1920dc7b9c4a0021dffdc7ba7f444f9c", "is_disabled": 0, "rental_uris": {"android": "https://dc.lft.to/lastmile_qr_scan", "ios": "https://dc.lft.to/lastmile_qr_scan"}, "type": "electric_scooter", "lat": 38.887454166666664, "is_reserved": 0, "fusion_lat": 0.0}, {"bike_id": "e0e31cd0d9e97b16876ff555e98bf010", "fusion_lon": 0.0, "lon": -77.01135633333334, "name": "e0e31cd0d9e97b16876ff555e98bf010", "is_disabled": 0, "rental_uris": {"android": "https://dc.lft.to/lastmile_qr_scan", "ios": "https://dc.lft.to/lastmile_qr_scan"}, "type": "electric_scooter", "lat": 38.917025333333335, "is_reserved": 0, "fusion_lat": 0.0}, {"bike_id": "3a808a2825d3cde7c0d3432595d8a1e9", "fusion_lon": 0.0, "lon": -77.04479783333333, "name": "3a808a2825d3cde7c0d3432595d8a1e9", "is_disabled": 0, "rental_uris": {"android": "https://dc.lft.to/lastmile_qr_scan", "ios": "https://dc.lft.to/lastmile_qr_scan"}, "type": "electric_scooter", "lat": 38.91163266666667, "is_reserved": 0, "fusion_lat": 0.0}, {"bike_id": "ebf6a53f67875cbbce450eb75bdb8c5f", "fusion_lon": 0.0, "lon": -77.021201, "name": "ebf6a53f67875cbbce450eb75bdb8c5f", "is_disabled": 0, "rental_uris": {"android": "https://dc.lft.to/lastmile_qr_scan", "ios": "https://dc.lft.to/lastmile_qr_scan"}, "type": "electric_scooter", "lat": 38.93017066666667, "is_reserved": 0, "fusion_lat": 0.0}, {"bike_id": "35c65cbf456df6f27042e326a78ceaf6", "fusion_lon": 0.0, "lon": -77.09962766666666, "name": "35c65cbf456df6f27042e326a78ceaf6", "is_disabled": 0, "rental_uris": {"android": "https://dc.lft.to/lastmile_qr_scan", "ios": "https://dc.lft.to/lastmile_qr_scan"}, "type": "electric_bike", "lat": 38.857907166666664, "is_reserved": 0, "fusion_lat": 0.0}, {"bike_id": "da20727601cf23536d5b291061ea63d3", "fusion_lon": 0.0, "lon": -76.99552216666666, "name": "da20727601cf23536d5b291061ea63d3", "is_disabled": 0, "rental_uris": {"android": "https://dc.lft.to/lastmile_qr_scan", "ios": "https://dc.lft.to/lastmile_qr_scan"}, "type": "electric_scooter", "lat": 38.92670666666667, "is_reserved": 0, "fusion_lat": 0.0}, {"bike_id": "6a639be53e31021019cdcd69843b642c", "fusion_lon": 0.0, "lon": -76.97943533333333, "name": "6a639be53e31021019cdcd69843b642c", "is_disabled": 0, "rental_uris": {"android": "https://dc.lft.to/lastmile_qr_scan", "ios": "https://dc.lft.to/lastmile_qr_scan"}, "type": "electric_scooter", "lat": 38.94527266666667, "is_reserved": 0, "fusion_lat": 0.0}, {"bike_id": "324c233bb34fe077ec8bfbcaed4eec0c", "fusion_lon": 0.0, "lon": -77.02658116666667, "name": "324c233bb34fe077ec8bfbcaed4eec0c", "is_disabled": 0, "rental_uris": {"android": "https://dc.lft.to/lastmile_qr_scan", "ios": "https://dc.lft.to/lastmile_qr_scan"}, "type": "electric_scooter", "lat": 38.922187, "is_reserved": 0, "fusion_lat": 0.0}, {"bike_id": "b24064588ca5b271e7aedb6a02cbb29a", "fusion_lon": 0.0, "lon": -77.04032583333333, "name": "b24064588ca5b271e7aedb6a02cbb29a", "is_disabled": 0, "rental_uris": {"android": "https://dc.lft.to/lastmile_qr_scan", "ios": "https://dc.lft.to/lastmile_qr_scan"}, "type": "electric_scooter", "lat": 38.9186155, "is_reserved": 0, "fusion_lat": 0.0}, {"bike_id": "d81e04cee6834fc5d45ddebc212a7562", "fusion_lon": 0.0, "lon": -77.097986, "name": "d81e04cee6834fc5d45ddebc212a7562", "is_disabled": 0, "rental_uris": {"android": "https://dc.lft.to/lastmile_qr_scan", "ios": "https://dc.lft.to/lastmile_qr_scan"}, "type": "electric_bike", "lat": 38.8503175, "is_reserved": 0, "fusion_lat": 0.0}, {"bike_id": "ce54bf85ff7416b60c1e6ee539383338", "fusion_lon": 0.0, "lon": -77.03589066666666, "name": "ce54bf85ff7416b60c1e6ee539383338", "is_disabled": 0, "rental_uris": {"android": "https://dc.lft.to/lastmile_qr_scan", "ios": "https://dc.lft.to/lastmile_qr_scan"}, "type": "electric_scooter", "lat": 38.91261733333333, "is_reserved": 0, "fusion_lat": 0.0}, {"bike_id": "49551d59913e4ca6a7c3a7849efc256d", "fusion_lon": 0.0, "lon": -77.03516983333333, "name": "49551d59913e4ca6a7c3a7849efc256d", "is_disabled": 0, "rental_uris": {"android": "https://dc.lft.to/lastmile_qr_scan", "ios": "https://dc.lft.to/lastmile_qr_scan"}, "type": "electric_scooter", "lat": 38.93595216666667, "is_reserved": 0, "fusion_lat": 0.0}, {"bike_id": "da15ed58a6c1342cfae250210c5e3eaf", "fusion_lon": 0.0, "lon": -77.0206875, "name": "da15ed58a6c1342cfae250210c5e3eaf", "is_disabled": 0, "rental_uris": {"android": "https://dc.lft.to/lastmile_qr_scan", "ios": "https://dc.lft.to/lastmile_qr_scan"}, "type": "electric_bike", "lat": 38.96441383333333, "is_reserved": 0, "fusion_lat": 0.0}, {"bike_id": "bc5b92b93ca5a58bcc3b0f20b9418954", "fusion_lon": 0.0, "lon": -77.03530766666667, "name": "bc5b92b93ca5a58bcc3b0f20b9418954", "is_disabled": 0, "rental_uris": {"android": "https://dc.lft.to/lastmile_qr_scan", "ios": "https://dc.lft.to/lastmile_qr_scan"}, "type": "electric_scooter", "lat": 38.922836, "is_reserved": 0, "fusion_lat": 0.0}, {"bike_id": "93ff92c3d90c7a3f38a62a3d6418a038", "fusion_lon": 0.0, "lon": -76.92881683333333, "name": "93ff92c3d90c7a3f38a62a3d6418a038", "is_disabled": 0, "rental_uris": {"android": "https://dc.lft.to/lastmile_qr_scan", "ios": "https://dc.lft.to/lastmile_qr_scan"}, "type": "electric_scooter", "lat": 38.8852065, "is_reserved": 0, "fusion_lat": 0.0}, {"bike_id": "1f843850731ed3644c2a7a7736bc3d93", "fusion_lon": 0.0, "lon": -77.04792783333333, "name": "1f843850731ed3644c2a7a7736bc3d93", "is_disabled": 0, "rental_uris": {"android": "https://dc.lft.to/lastmile_qr_scan", "ios": "https://dc.lft.to/lastmile_qr_scan"}, "type": "electric_scooter", "lat": 38.90212416666667, "is_reserved": 0, "fusion_lat": 0.0}, {"bike_id": "06086d15d44a72eb76511af3aa4fd877", "fusion_lon": 0.0, "lon": -77.02473233333333, "name": "06086d15d44a72eb76511af3aa4fd877", "is_disabled": 0, "rental_uris": {"android": "https://dc.lft.to/lastmile_qr_scan", "ios": "https://dc.lft.to/lastmile_qr_scan"}, "type": "electric_scooter", "lat": 38.909767, "is_reserved": 0, "fusion_lat": 0.0}, {"bike_id": "79984f10aefb78b6d1244dc6d3f979c3", "fusion_lon": 0.0, "lon": -77.02965166666667, "name": "79984f10aefb78b6d1244dc6d3f979c3", "is_disabled": 0, "rental_uris": {"android": "https://dc.lft.to/lastmile_qr_scan", "ios": "https://dc.lft.to/lastmile_qr_scan"}, "type": "electric_scooter", "lat": 38.91684016666667, "is_reserved": 0, "fusion_lat": 0.0}, {"bike_id": "669db52336b03f88359688aff30fdbc1", "fusion_lon": 0.0, "lon": -77.01749483333333, "name": "669db52336b03f88359688aff30fdbc1", "is_disabled": 0, "rental_uris": {"android": "https://dc.lft.to/lastmile_qr_scan", "ios": "https://dc.lft.to/lastmile_qr_scan"}, "type": "electric_scooter", "lat": 38.87776366666667, "is_reserved": 0, "fusion_lat": 0.0}, {"bike_id": "0a95f36c955f2dabe5bc386b2a074e2f", "fusion_lon": 0.0, "lon": -77.02217866666666, "name": "0a95f36c955f2dabe5bc386b2a074e2f", "is_disabled": 0, "rental_uris": {"android": "https://dc.lft.to/lastmile_qr_scan", "ios": "https://dc.lft.to/lastmile_qr_scan"}, "type": "electric_scooter", "lat": 38.915653166666665, "is_reserved": 0, "fusion_lat": 0.0}, {"bike_id": "36a4edb73315df2de84912a141ad2e01", "fusion_lon": 0.0, "lon": -77.02578333333334, "name": "36a4edb73315df2de84912a141ad2e01", "is_disabled": 0, "rental_uris": {"android": "https://dc.lft.to/lastmile_qr_scan", "ios": "https://dc.lft.to/lastmile_qr_scan"}, "type": "electric_scooter", "lat": 38.9205755, "is_reserved": 0, "fusion_lat": 0.0}, {"bike_id": "6901908a2f3ca59fb982e2daa24205f3", "fusion_lon": 0.0, "lon": -77.031956, "name": "6901908a2f3ca59fb982e2daa24205f3", "is_disabled": 0, "rental_uris": {"android": "https://dc.lft.to/lastmile_qr_scan", "ios": "https://dc.lft.to/lastmile_qr_scan"}, "type": "electric_scooter", "lat": 38.91738816666667, "is_reserved": 0, "fusion_lat": 0.0}, {"bike_id": "94cf738d78d74a9bb134b08c5856089e", "fusion_lon": 0.0, "lon": -77.044997, "name": "94cf738d78d74a9bb134b08c5856089e", "is_disabled": 0, "rental_uris": {"android": "https://dc.lft.to/lastmile_qr_scan", "ios": "https://dc.lft.to/lastmile_qr_scan"}, "type": "electric_scooter", "lat": 38.9141855, "is_reserved": 0, "fusion_lat": 0.0}, {"bike_id": "5424a1f44d40ce9080fbbb91a6ce624a", "fusion_lon": 0.0, "lon": -77.0685995, "name": "5424a1f44d40ce9080fbbb91a6ce624a", "is_disabled": 0, "rental_uris": {"android": "https://dc.lft.to/lastmile_qr_scan", "ios": "https://dc.lft.to/lastmile_qr_scan"}, "type": "electric_bike", "lat": 38.93700066666667, "is_reserved": 0, "fusion_lat": 0.0}, {"bike_id": "010d57cc3f5c4ed372a9b039fae16464", "fusion_lon": 0.0, "lon": -77.03591, "name": "010d57cc3f5c4ed372a9b039fae16464", "is_disabled": 0, "rental_uris": {"android": "https://dc.lft.to/lastmile_qr_scan", "ios": "https://dc.lft.to/lastmile_qr_scan"}, "type": "electric_scooter", "lat": 38.936753333333336, "is_reserved": 0, "fusion_lat": 0.0}, {"bike_id": "dac8b0ef965ea2b6bf72cba937ec8b1d", "fusion_lon": 0.0, "lon": -77.04593483333333, "name": "dac8b0ef965ea2b6bf72cba937ec8b1d", "is_disabled": 0, "rental_uris": {"android": "https://dc.lft.to/lastmile_qr_scan", "ios": "https://dc.lft.to/lastmile_qr_scan"}, "type": "electric_scooter", "lat": 38.9086125, "is_reserved": 0, "fusion_lat": 0.0}, {"bike_id": "3e5d93f565caf5d9daa5e2f2a5a47385", "fusion_lon": 0.0, "lon": -76.975944, "name": "3e5d93f565caf5d9daa5e2f2a5a47385", "is_disabled": 0, "rental_uris": {"android": "https://dc.lft.to/lastmile_qr_scan", "ios": "https://dc.lft.to/lastmile_qr_scan"}, "type": "electric_scooter", "lat": 38.90331916666667, "is_reserved": 0, "fusion_lat": 0.0}, {"bike_id": "3906b7ba4878b8e82d9c49950a93d283", "fusion_lon": 0.0, "lon": -77.01310583333333, "name": "3906b7ba4878b8e82d9c49950a93d283", "is_disabled": 0, "rental_uris": {"android": "https://dc.lft.to/lastmile_qr_scan", "ios": "https://dc.lft.to/lastmile_qr_scan"}, "type": "electric_scooter", "lat": 38.9140815, "is_reserved": 0, "fusion_lat": 0.0}, {"bike_id": "481953231b22c6e51455d38de26af38a", "fusion_lon": 0.0, "lon": -77.05063033333333, "name": "481953231b22c6e51455d38de26af38a", "is_disabled": 0, "rental_uris": {"android": "https://dc.lft.to/lastmile_qr_scan", "ios": "https://dc.lft.to/lastmile_qr_scan"}, "type": "electric_scooter", "lat": 38.923444333333336, "is_reserved": 0, "fusion_lat": 0.0}, {"bike_id": "24cfe75f200de30a264cd83f8063975e", "fusion_lon": 0.0, "lon": -77.0782555, "name": "24cfe75f200de30a264cd83f8063975e", "is_disabled": 0, "rental_uris": {"android": "https://dc.lft.to/lastmile_qr_scan", "ios": "https://dc.lft.to/lastmile_qr_scan"}, "type": "electric_scooter", "lat": 38.912732, "is_reserved": 0, "fusion_lat": 0.0}, {"bike_id": "f1a8f2f1562f3ce3293076fb8597fc7d", "fusion_lon": 0.0, "lon": -77.03351783333333, "name": "f1a8f2f1562f3ce3293076fb8597fc7d", "is_disabled": 0, "rental_uris": {"android": "https://dc.lft.to/lastmile_qr_scan", "ios": "https://dc.lft.to/lastmile_qr_scan"}, "type": "electric_scooter", "lat": 38.931493333333336, "is_reserved": 0, "fusion_lat": 0.0}, {"bike_id": "e48a1bd4b00b18d6c4feacdcf1fe1475", "fusion_lon": 0.0, "lon": -77.00343683333334, "name": "e48a1bd4b00b18d6c4feacdcf1fe1475", "is_disabled": 0, "rental_uris": {"android": "https://dc.lft.to/lastmile_qr_scan", "ios": "https://dc.lft.to/lastmile_qr_scan"}, "type": "electric_scooter", "lat": 38.889977333333334, "is_reserved": 0, "fusion_lat": 0.0}, {"bike_id": "85294239f48e7ace74eaf4cfac337214", "fusion_lon": 0.0, "lon": -77.03196133333333, "name": "85294239f48e7ace74eaf4cfac337214", "is_disabled": 0, "rental_uris": {"android": "https://dc.lft.to/lastmile_qr_scan", "ios": "https://dc.lft.to/lastmile_qr_scan"}, "type": "electric_scooter", "lat": 38.91225816666667, "is_reserved": 0, "fusion_lat": 0.0}, {"bike_id": "fb8e031d0a052c57d36823ffe7e3fe8f", "fusion_lon": 0.0, "lon": -77.04660866666667, "name": "fb8e031d0a052c57d36823ffe7e3fe8f", "is_disabled": 0, "rental_uris": {"android": "https://dc.lft.to/lastmile_qr_scan", "ios": "https://dc.lft.to/lastmile_qr_scan"}, "type": "electric_scooter", "lat": 38.90845483333333, "is_reserved": 0, "fusion_lat": 0.0}, {"bike_id": "ca3256f62fb801cb6435956fbff6c170", "fusion_lon": 0.0, "lon": -77.03821166666667, "name": "ca3256f62fb801cb6435956fbff6c170", "is_disabled": 0, "rental_uris": {"android": "https://dc.lft.to/lastmile_qr_scan", "ios": "https://dc.lft.to/lastmile_qr_scan"}, "type": "electric_scooter", "lat": 38.93061383333333, "is_reserved": 0, "fusion_lat": 0.0}, {"bike_id": "fd699f8f309e40ca93e82e2d83423076", "fusion_lon": 0.0, "lon": -76.98983266666667, "name": "fd699f8f309e40ca93e82e2d83423076", "is_disabled": 0, "rental_uris": {"android": "https://dc.lft.to/lastmile_qr_scan", "ios": "https://dc.lft.to/lastmile_qr_scan"}, "type": "electric_scooter", "lat": 38.864952, "is_reserved": 0, "fusion_lat": 0.0}, {"bike_id": "f803ca7ade06441990dd0d75283973f6", "fusion_lon": 0.0, "lon": -77.052355, "name": "f803ca7ade06441990dd0d75283973f6", "is_disabled": 0, "rental_uris": {"android": "https://dc.lft.to/lastmile_qr_scan", "ios": "https://dc.lft.to/lastmile_qr_scan"}, "type": "electric_scooter", "lat": 38.9247025, "is_reserved": 0, "fusion_lat": 0.0}, {"bike_id": "c33030bb33f331e0188071051a77c73c", "fusion_lon": 0.0, "lon": -77.00748516666667, "name": "c33030bb33f331e0188071051a77c73c", "is_disabled": 0, "rental_uris": {"android": "https://dc.lft.to/lastmile_qr_scan", "ios": "https://dc.lft.to/lastmile_qr_scan"}, "type": "electric_scooter", "lat": 38.877118833333334, "is_reserved": 0, "fusion_lat": 0.0}, {"bike_id": "8af85009accf8279dbd469a4e6bdba4a", "fusion_lon": 0.0, "lon": -76.99513733333333, "name": "8af85009accf8279dbd469a4e6bdba4a", "is_disabled": 0, "rental_uris": {"android": "https://dc.lft.to/lastmile_qr_scan", "ios": "https://dc.lft.to/lastmile_qr_scan"}, "type": "electric_scooter", "lat": 38.86252483333333, "is_reserved": 0, "fusion_lat": 0.0}, {"bike_id": "6f434ba16c53e386b45e845c6f8a7e0c", "fusion_lon": 0.0, "lon": -77.00215066666667, "name": "6f434ba16c53e386b45e845c6f8a7e0c", "is_disabled": 0, "rental_uris": {"android": "https://dc.lft.to/lastmile_qr_scan", "ios": "https://dc.lft.to/lastmile_qr_scan"}, "type": "electric_scooter", "lat": 38.920481833333334, "is_reserved": 0, "fusion_lat": 0.0}, {"bike_id": "d52eaa84250b09812a7724d3e3f02595", "fusion_lon": 0.0, "lon": -77.05478166666667, "name": "d52eaa84250b09812a7724d3e3f02595", "is_disabled": 0, "rental_uris": {"android": "https://dc.lft.to/lastmile_qr_scan", "ios": "https://dc.lft.to/lastmile_qr_scan"}, "type": "electric_scooter", "lat": 38.8972845, "is_reserved": 0, "fusion_lat": 0.0}, {"bike_id": "6e3f93d3e853cad0f19798c51cc106fe", "fusion_lon": 0.0, "lon": -77.021809, "name": "6e3f93d3e853cad0f19798c51cc106fe", "is_disabled": 0, "rental_uris": {"android": "https://dc.lft.to/lastmile_qr_scan", "ios": "https://dc.lft.to/lastmile_qr_scan"}, "type": "electric_scooter", "lat": 38.89421316666667, "is_reserved": 0, "fusion_lat": 0.0}, {"bike_id": "f03bf86ac4d4337ae0d2c2ef00394041", "fusion_lon": 0.0, "lon": -77.036673, "name": "f03bf86ac4d4337ae0d2c2ef00394041", "is_disabled": 0, "rental_uris": {"android": "https://dc.lft.to/lastmile_qr_scan", "ios": "https://dc.lft.to/lastmile_qr_scan"}, "type": "electric_scooter", "lat": 38.930911333333334, "is_reserved": 0, "fusion_lat": 0.0}, {"bike_id": "fa94919d5f610578e7f042913d4ad42d", "fusion_lon": 0.0, "lon": -77.0357955, "name": "fa94919d5f610578e7f042913d4ad42d", "is_disabled": 0, "rental_uris": {"android": "https://dc.lft.to/lastmile_qr_scan", "ios": "https://dc.lft.to/lastmile_qr_scan"}, "type": "electric_scooter", "lat": 38.93475166666666, "is_reserved": 0, "fusion_lat": 0.0}, {"bike_id": "b5238e413d2996a11afc7f759345fc10", "fusion_lon": 0.0, "lon": -77.01110733333333, "name": "b5238e413d2996a11afc7f759345fc10", "is_disabled": 0, "rental_uris": {"android": "https://dc.lft.to/lastmile_qr_scan", "ios": "https://dc.lft.to/lastmile_qr_scan"}, "type": "electric_scooter", "lat": 38.8948495, "is_reserved": 0, "fusion_lat": 0.0}, {"bike_id": "cb1d5d0007a4c185a057a88156eecad2", "fusion_lon": 0.0, "lon": -77.04977283333334, "name": "cb1d5d0007a4c185a057a88156eecad2", "is_disabled": 0, "rental_uris": {"android": "https://dc.lft.to/lastmile_qr_scan", "ios": "https://dc.lft.to/lastmile_qr_scan"}, "type": "electric_bike", "lat": 38.83219283333333, "is_reserved": 0, "fusion_lat": 0.0}, {"bike_id": "4df5e69f8a50bb61c6731eec2a0fc5b0", "fusion_lon": 0.0, "lon": -77.04496033333334, "name": "4df5e69f8a50bb61c6731eec2a0fc5b0", "is_disabled": 0, "rental_uris": {"android": "https://dc.lft.to/lastmile_qr_scan", "ios": "https://dc.lft.to/lastmile_qr_scan"}, "type": "electric_scooter", "lat": 38.9136065, "is_reserved": 0, "fusion_lat": 0.0}, {"bike_id": "5b4fecadf298220b203e3d147303e1eb", "fusion_lon": 0.0, "lon": -76.990931, "name": "5b4fecadf298220b203e3d147303e1eb", "is_disabled": 0, "rental_uris": {"android": "https://dc.lft.to/lastmile_qr_scan", "ios": "https://dc.lft.to/lastmile_qr_scan"}, "type": "electric_scooter", "lat": 38.88236966666667, "is_reserved": 0, "fusion_lat": 0.0}, {"bike_id": "48641af4ac467145fd2bfe2d3f6c75f7", "fusion_lon": 0.0, "lon": -77.024427, "name": "48641af4ac467145fd2bfe2d3f6c75f7", "is_disabled": 0, "rental_uris": {"android": "https://dc.lft.to/lastmile_qr_scan", "ios": "https://dc.lft.to/lastmile_qr_scan"}, "type": "electric_scooter", "lat": 38.90211333333333, "is_reserved": 0, "fusion_lat": 0.0}, {"bike_id": "3f19fe0abb46b82890becca234a5d724", "fusion_lon": 0.0, "lon": -77.02228683333334, "name": "3f19fe0abb46b82890becca234a5d724", "is_disabled": 0, "rental_uris": {"android": "https://dc.lft.to/lastmile_qr_scan", "ios": "https://dc.lft.to/lastmile_qr_scan"}, "type": "electric_scooter", "lat": 38.89223466666667, "is_reserved": 0, "fusion_lat": 0.0}, {"bike_id": "fe3461c7a29907bb2a037a0a23e6d935", "fusion_lon": 0.0, "lon": -77.0280965, "name": "fe3461c7a29907bb2a037a0a23e6d935", "is_disabled": 0, "rental_uris": {"android": "https://dc.lft.to/lastmile_qr_scan", "ios": "https://dc.lft.to/lastmile_qr_scan"}, "type": "electric_scooter", "lat": 38.930860833333334, "is_reserved": 0, "fusion_lat": 0.0}, {"bike_id": "f51adc7bffcb4eb703527a7b3fd26154", "fusion_lon": 0.0, "lon": -77.03172116666667, "name": "f51adc7bffcb4eb703527a7b3fd26154", "is_disabled": 0, "rental_uris": {"android": "https://dc.lft.to/lastmile_qr_scan", "ios": "https://dc.lft.to/lastmile_qr_scan"}, "type": "electric_scooter", "lat": 38.89224933333333, "is_reserved": 0, "fusion_lat": 0.0}, {"bike_id": "f0c5eb30ed8b428925ae5a6c9a86c3e6", "fusion_lon": 0.0, "lon": -77.02708333333334, "name": "f0c5eb30ed8b428925ae5a6c9a86c3e6", "is_disabled": 0, "rental_uris": {"android": "https://dc.lft.to/lastmile_qr_scan", "ios": "https://dc.lft.to/lastmile_qr_scan"}, "type": "electric_scooter", "lat": 38.89995533333333, "is_reserved": 0, "fusion_lat": 0.0}, {"bike_id": "dea941f1072286673a189413ea48e7ba", "fusion_lon": 0.0, "lon": -77.00972433333334, "name": "dea941f1072286673a189413ea48e7ba", "is_disabled": 0, "rental_uris": {"android": "https://dc.lft.to/lastmile_qr_scan", "ios": "https://dc.lft.to/lastmile_qr_scan"}, "type": "electric_bike", "lat": 38.96136766666667, "is_reserved": 0, "fusion_lat": 0.0}, {"bike_id": "45cd03990f343cd66f5888a267aa1943", "fusion_lon": 0.0, "lon": -77.04311616666666, "name": "45cd03990f343cd66f5888a267aa1943", "is_disabled": 0, "rental_uris": {"android": "https://dc.lft.to/lastmile_qr_scan", "ios": "https://dc.lft.to/lastmile_qr_scan"}, "type": "electric_scooter", "lat": 38.91879483333334, "is_reserved": 0, "fusion_lat": 0.0}, {"bike_id": "9e7467ae6be2392d872d045806a11b3b", "fusion_lon": 0.0, "lon": -77.0513145, "name": "9e7467ae6be2392d872d045806a11b3b", "is_disabled": 0, "rental_uris": {"android": "https://dc.lft.to/lastmile_qr_scan", "ios": "https://dc.lft.to/lastmile_qr_scan"}, "type": "electric_scooter", "lat": 38.9075795, "is_reserved": 0, "fusion_lat": 0.0}, {"bike_id": "c271e9a94b51e574b1a6d5b868aff1c7", "fusion_lon": 0.0, "lon": -77.00155116666667, "name": "c271e9a94b51e574b1a6d5b868aff1c7", "is_disabled": 0, "rental_uris": {"android": "https://dc.lft.to/lastmile_qr_scan", "ios": "https://dc.lft.to/lastmile_qr_scan"}, "type": "electric_scooter", "lat": 38.9111265, "is_reserved": 0, "fusion_lat": 0.0}, {"bike_id": "6f8a48a21eaa6a8c9802f8c5a83f6eee", "fusion_lon": 0.0, "lon": -77.02577033333333, "name": "6f8a48a21eaa6a8c9802f8c5a83f6eee", "is_disabled": 0, "rental_uris": {"android": "https://dc.lft.to/lastmile_qr_scan", "ios": "https://dc.lft.to/lastmile_qr_scan"}, "type": "electric_scooter", "lat": 38.92545033333333, "is_reserved": 0, "fusion_lat": 0.0}, {"bike_id": "af317f5ed784f0945fac2d8bcfbcfe88", "fusion_lon": 0.0, "lon": -77.0391565, "name": "af317f5ed784f0945fac2d8bcfbcfe88", "is_disabled": 0, "rental_uris": {"android": "https://dc.lft.to/lastmile_qr_scan", "ios": "https://dc.lft.to/lastmile_qr_scan"}, "type": "electric_scooter", "lat": 38.918158, "is_reserved": 0, "fusion_lat": 0.0}, {"bike_id": "72d6b7856650ce9eaf7f9cb3a3fc8025", "fusion_lon": 0.0, "lon": -77.04480266666667, "name": "72d6b7856650ce9eaf7f9cb3a3fc8025", "is_disabled": 0, "rental_uris": {"android": "https://dc.lft.to/lastmile_qr_scan", "ios": "https://dc.lft.to/lastmile_qr_scan"}, "type": "electric_scooter", "lat": 38.901176166666666, "is_reserved": 0, "fusion_lat": 0.0}, {"bike_id": "6364431b643f3da08e76fae045126f9c", "fusion_lon": 0.0, "lon": -77.02176833333333, "name": "6364431b643f3da08e76fae045126f9c", "is_disabled": 0, "rental_uris": {"android": "https://dc.lft.to/lastmile_qr_scan", "ios": "https://dc.lft.to/lastmile_qr_scan"}, "type": "electric_scooter", "lat": 38.8992755, "is_reserved": 0, "fusion_lat": 0.0}, {"bike_id": "2fda5cd20fd1bf176eb584d6654417bc", "fusion_lon": 0.0, "lon": -77.04356016666667, "name": "2fda5cd20fd1bf176eb584d6654417bc", "is_disabled": 0, "rental_uris": {"android": "https://dc.lft.to/lastmile_qr_scan", "ios": "https://dc.lft.to/lastmile_qr_scan"}, "type": "electric_scooter", "lat": 38.9023025, "is_reserved": 0, "fusion_lat": 0.0}, {"bike_id": "d4b647fdf804b0f31315ecbdf1b5d5af", "fusion_lon": 0.0, "lon": -77.059142, "name": "d4b647fdf804b0f31315ecbdf1b5d5af", "is_disabled": 0, "rental_uris": {"android": "https://dc.lft.to/lastmile_qr_scan", "ios": "https://dc.lft.to/lastmile_qr_scan"}, "type": "electric_scooter", "lat": 38.9053925, "is_reserved": 0, "fusion_lat": 0.0}, {"bike_id": "65317e694339ed8855e8b99edda50492", "fusion_lon": 0.0, "lon": -76.98843916666667, "name": "65317e694339ed8855e8b99edda50492", "is_disabled": 0, "rental_uris": {"android": "https://dc.lft.to/lastmile_qr_scan", "ios": "https://dc.lft.to/lastmile_qr_scan"}, "type": "electric_bike", "lat": 38.8427495, "is_reserved": 0, "fusion_lat": 0.0}, {"bike_id": "980fd0beefb7ccd427c91c6589d0ff36", "fusion_lon": 0.0, "lon": -77.07916683333333, "name": "980fd0beefb7ccd427c91c6589d0ff36", "is_disabled": 0, "rental_uris": {"android": "https://dc.lft.to/lastmile_qr_scan", "ios": "https://dc.lft.to/lastmile_qr_scan"}, "type": "electric_bike", "lat": 38.802264, "is_reserved": 0, "fusion_lat": 0.0}, {"bike_id": "ce1a72256ff5a86e5ee80216f62716ea", "fusion_lon": 0.0, "lon": -76.9654445, "name": "ce1a72256ff5a86e5ee80216f62716ea", "is_disabled": 0, "rental_uris": {"android": "https://dc.lft.to/lastmile_qr_scan", "ios": "https://dc.lft.to/lastmile_qr_scan"}, "type": "electric_scooter", "lat": 38.918852666666666, "is_reserved": 0, "fusion_lat": 0.0}, {"bike_id": "dcbdf5d9f24d56ff514c2b1d4583997f", "fusion_lon": 0.0, "lon": -77.16091483333334, "name": "dcbdf5d9f24d56ff514c2b1d4583997f", "is_disabled": 0, "rental_uris": {"android": "https://dc.lft.to/lastmile_qr_scan", "ios": "https://dc.lft.to/lastmile_qr_scan"}, "type": "electric_bike", "lat": 38.886838166666664, "is_reserved": 0, "fusion_lat": 0.0}, {"bike_id": "5df2cf500326d141f832a3b4e0b1fad7", "fusion_lon": 0.0, "lon": -77.04106416666667, "name": "5df2cf500326d141f832a3b4e0b1fad7", "is_disabled": 0, "rental_uris": {"android": "https://dc.lft.to/lastmile_qr_scan", "ios": "https://dc.lft.to/lastmile_qr_scan"}, "type": "electric_scooter", "lat": 38.92450733333333, "is_reserved": 0, "fusion_lat": 0.0}, {"bike_id": "22dd0c437d55b3e44d5c8d551e8bac89", "fusion_lon": 0.0, "lon": -76.9824995, "name": "22dd0c437d55b3e44d5c8d551e8bac89", "is_disabled": 0, "rental_uris": {"android": "https://dc.lft.to/lastmile_qr_scan", "ios": "https://dc.lft.to/lastmile_qr_scan"},