{"data": {"bikes": [{"bike_id": "933da627155e69eeb10ce9a50a18fa10", "type": "electric_scooter", "is_disabled": 0, "lat": 38.83143, "rental_uris": {"ios": "https://dc.lft.to/lastmile_qr_scan", "android": "https://dc.lft.to/lastmile_qr_scan"}, "is_reserved": 0, "fusion_lon": 0.0, "fusion_lat": 0.0, "lon": -77.0513595, "name": "933da627155e69eeb10ce9a50a18fa10"}, {"bike_id": "ea6339bfd76f1f52f829d7252e32ba9a", "type": "electric_scooter", "is_disabled": 0, "lat": 38.8646825, "rental_uris": {"ios": "https://dc.lft.to/lastmile_qr_scan", "android": "https://dc.lft.to/lastmile_qr_scan"}, "is_reserved": 0, "fusion_lon": 0.0, "fusion_lat": 0.0, "lon": -76.98229416666666, "name": "ea6339bfd76f1f52f829d7252e32ba9a"}, {"bike_id": "841110db05f738f18a84f3aa56c83dd2", "type": "electric_scooter", "is_disabled": 0, "lat": 38.93672866666667, "rental_uris": {"ios": "https://dc.lft.to/lastmile_qr_scan", "android": "https://dc.lft.to/lastmile_qr_scan"}, "is_reserved": 0, "fusion_lon": 0.0, "fusion_lat": 0.0, "lon": -77.03565183333333, "name": "841110db05f738f18a84f3aa56c83dd2"}, {"bike_id": "30d167dcfdb3f7c60fb0dccfef3656e0", "type": "electric_bike", "is_disabled": 0, "lat": 38.983614833333334, "rental_uris": {"ios": "https://dc.lft.to/lastmile_qr_scan", "android": "https://dc.lft.to/lastmile_qr_scan"}, "is_reserved": 0, "fusion_lon": 0.0, "fusion_lat": 0.0, "lon": -76.972114, "name": "30d167dcfdb3f7c60fb0dccfef3656e0"}, {"bike_id": "0813119621ca007fa5338d04be2f8cfc", "type": "electric_scooter", "is_disabled": 0, "lat": 38.8624925, "rental_uris": {"ios": "https://dc.lft.to/lastmile_qr_scan", "android": "https://dc.lft.to/lastmile_qr_scan"}, "is_reserved": 0, "fusion_lon": 0.0, "fusion_lat": 0.0, "lon": -76.99502766666667, "name": "0813119621ca007fa5338d04be2f8cfc"}, {"bike_id": "5d841cd62002512a9e27b5d541c4ff92", "type": "electric_scooter", "is_disabled": 0, "lat": 38.9620625, "rental_uris": {"ios": "https://dc.lft.to/lastmile_qr_scan", "android": "https://dc.lft.to/lastmile_qr_scan"}, "is_reserved": 0, "fusion_lon": 0.0, "fusion_lat": 0.0, "lon": -77.022256, "name": "5d841cd62002512a9e27b5d541c4ff92"}, {"bike_id": "5b43400d43af84c95d9874fcbd2eb121", "type": "electric_scooter", "is_disabled": 0, "lat": 38.89301583333334, "rental_uris": {"ios": "https://dc.lft.to/lastmile_qr_scan", "android": "https://dc.lft.to/lastmile_qr_scan"}, "is_reserved": 0, "fusion_lon": 0.0, "fusion_lat": 0.0, "lon": -77.01235566666666, "name": "5b43400d43af84c95d9874fcbd2eb121"}, {"bike_id": "08302a8fd978db4a82f4a8a7f61315aa", "type": "electric_scooter", "is_disabled": 0, "lat": 38.9259325, "rental_uris": {"ios": "https://dc.lft.to/lastmile_qr_scan", "android": "https://dc.lft.to/lastmile_qr_scan"}, "is_reserved": 0, "fusion_lon": 0.0, "fusion_lat": 0.0, "lon": -77.0249465, "name": "08302a8fd978db4a82f4a8a7f61315aa"}, {"bike_id": "7b14c8a1ef2d3349b4d45202d914d34a", "type": "electric_scooter", "is_disabled": 0, "lat": 38.9051975, "rental_uris": {"ios": "https://dc.lft.to/lastmile_qr_scan", "android": "https://dc.lft.to/lastmile_qr_scan"}, "is_reserved": 0, "fusion_lon": 0.0, "fusion_lat": 0.0, "lon": -77.04848383333334, "name": "7b14c8a1ef2d3349b4d45202d914d34a"}, {"bike_id": "892ebefbea41c9a60e03e3510af42b31", "type": "electric_scooter", "is_disabled": 0, "lat": 38.90685833333333, "rental_uris": {"ios": "https://dc.lft.to/lastmile_qr_scan", "android": "https://dc.lft.to/lastmile_qr_scan"}, "is_reserved": 0, "fusion_lon": 0.0, "fusion_lat": 0.0, "lon": -77.06264083333333, "name": "892ebefbea41c9a60e03e3510af42b31"}, {"bike_id": "a136644659f9f1604a79f7d70fb25beb", "type": "electric_scooter", "is_disabled": 0, "lat": 38.90467233333333, "rental_uris": {"ios": "https://dc.lft.to/lastmile_qr_scan", "android": "https://dc.lft.to/lastmile_qr_scan"}, "is_reserved": 0, "fusion_lon": 0.0, "fusion_lat": 0.0, "lon": -76.97608116666666, "name": "a136644659f9f1604a79f7d70fb25beb"}, {"bike_id": "39c08b8ea3a04c4522e0a3ebadd71489", "type": "electric_scooter", "is_disabled": 0, "lat": 38.92255166666666, "rental_uris": {"ios": "https://dc.lft.to/lastmile_qr_scan", "android": "https://dc.lft.to/lastmile_qr_scan"}, "is_reserved": 0, "fusion_lon": 0.0, "fusion_lat": 0.0, "lon": -77.04208966666667, "name": "39c08b8ea3a04c4522e0a3ebadd71489"}, {"bike_id": "20689f946600b6b9c608449854503c23", "type": "electric_scooter", "is_disabled": 0, "lat": 38.91367866666667, "rental_uris": {"ios": "https://dc.lft.to/lastmile_qr_scan", "android": "https://dc.lft.to/lastmile_qr_scan"}, "is_reserved": 0, "fusion_lon": 0.0, "fusion_lat": 0.0, "lon": -77.0703225, "name": "20689f946600b6b9c608449854503c23"}, {"bike_id": "06589c1092a3dcdf85ad2b3b89f3a864", "type": "electric_scooter", "is_disabled": 0, "lat": 38.92462783333333, "rental_uris": {"ios": "https://dc.lft.to/lastmile_qr_scan", "android": "https://dc.lft.to/lastmile_qr_scan"}, "is_reserved": 0, "fusion_lon": 0.0, "fusion_lat": 0.0, "lon": -77.03773633333333, "name": "06589c1092a3dcdf85ad2b3b89f3a864"}, {"bike_id": "62c57abf421d6c3286c5ad9eb688c1e2", "type": "electric_bike", "is_disabled": 0, "lat": 38.882432, "rental_uris": {"ios": "https://dc.lft.to/lastmile_qr_scan", "android": "https://dc.lft.to/lastmile_qr_scan"}, "is_reserved": 0, "fusion_lon": 0.0, "fusion_lat": 0.0, "lon": -76.96257766666666, "name": "62c57abf421d6c3286c5ad9eb688c1e2"}, {"bike_id": "73b4bc76a11bcd731564a34ed4044b8e", "type": "electric_scooter", "is_disabled": 0, "lat": 38.931961666666666, "rental_uris": {"ios": "https://dc.lft.to/lastmile_qr_scan", "android": "https://dc.lft.to/lastmile_qr_scan"}, "is_reserved": 0, "fusion_lon": 0.0, "fusion_lat": 0.0, "lon": -77.02389633333334, "name": "73b4bc76a11bcd731564a34ed4044b8e"}, {"bike_id": "0bf0513c43ab0006ab2b964dd7f81ff5", "type": "electric_scooter", "is_disabled": 0, "lat": 38.932200333333334, "rental_uris": {"ios": "https://dc.lft.to/lastmile_qr_scan", "android": "https://dc.lft.to/lastmile_qr_scan"}, "is_reserved": 0, "fusion_lon": 0.0, "fusion_lat": 0.0, "lon": -77.033645, "name": "0bf0513c43ab0006ab2b964dd7f81ff5"}, {"bike_id": "76687189f77e4b4ef50a65936853b7c0", "type": "electric_scooter", "is_disabled": 0, "lat": 38.9354705, "rental_uris": {"ios": "https://dc.lft.to/lastmile_qr_scan", "android": "https://dc.lft.to/lastmile_qr_scan"}, "is_reserved": 0, "fusion_lon": 0.0, "fusion_lat": 0.0, "lon": -77.03683833333334, "name": "76687189f77e4b4ef50a65936853b7c0"}, {"bike_id": "a73998255e697568353969db9e947e4d", "type": "electric_scooter", "is_disabled": 0, "lat": 38.9345865, "rental_uris": {"ios": "https://dc.lft.to/lastmile_qr_scan", "android": "https://dc.lft.to/lastmile_qr_scan"}, "is_reserved": 0, "fusion_lon": 0.0, "fusion_lat": 0.0, "lon": -77.0279885, "name": "a73998255e697568353969db9e947e4d"}, {"bike_id": "3b70d8765e5b61f238fc0ed98de19dba", "type": "electric_scooter", "is_disabled": 0, "lat": 38.90024483333333, "rental_uris": {"ios": "https://dc.lft.to/lastmile_qr_scan", "android": "https://dc.lft.to/lastmile_qr_scan"}, "is_reserved": 0, "fusion_lon": 0.0, "fusion_lat": 0.0, "lon": -76.998503, "name": "3b70d8765e5b61f238fc0ed98de19dba"}, {"bike_id": "a1f08008ccf53db78208a977e2f841bd", "type": "electric_scooter", "is_disabled": 0, "lat": 38.91329616666667, "rental_uris": {"ios": "https://dc.lft.to/lastmile_qr_scan", "android": "https://dc.lft.to/lastmile_qr_scan"}, "is_reserved": 0, "fusion_lon": 0.0, "fusion_lat": 0.0, "lon": -77.032675, "name": "a1f08008ccf53db78208a977e2f841bd"}, {"bike_id": "116a7c27bdd284ba488e47d113c1b6a5", "type": "electric_scooter", "is_disabled": 0, "lat": 38.9367745, "rental_uris": {"ios": "https://dc.lft.to/lastmile_qr_scan", "android": "https://dc.lft.to/lastmile_qr_scan"}, "is_reserved": 0, "fusion_lon": 0.0, "fusion_lat": 0.0, "lon": -77.03620316666667, "name": "116a7c27bdd284ba488e47d113c1b6a5"}, {"bike_id": "fdc77967e9dacabda72e5da457c43cb9", "type": "electric_bike", "is_disabled": 0, "lat": 38.93445116666667, "rental_uris": {"ios": "https://dc.lft.to/lastmile_qr_scan", "android": "https://dc.lft.to/lastmile_qr_scan"}, "is_reserved": 0, "fusion_lon": 0.0, "fusion_lat": 0.0, "lon": -77.041181, "name": "fdc77967e9dacabda72e5da457c43cb9"}, {"bike_id": "297b60c3a0e25413a79825ad8a925a70", "type": "electric_bike", "is_disabled": 0, "lat": 38.93229566666667, "rental_uris": {"ios": "https://dc.lft.to/lastmile_qr_scan", "android": "https://dc.lft.to/lastmile_qr_scan"}, "is_reserved": 0, "fusion_lon": 0.0, "fusion_lat": 0.0, "lon": -77.18118283333334, "name": "297b60c3a0e25413a79825ad8a925a70"}, {"bike_id": "9cb34b16898b875508254751290038a7", "type": "electric_scooter", "is_disabled": 0, "lat": 38.934131666666666, "rental_uris": {"ios": "https://dc.lft.to/lastmile_qr_scan", "android": "https://dc.lft.to/lastmile_qr_scan"}, "is_reserved": 0, "fusion_lon": 0.0, "fusion_lat": 0.0, "lon": -77.04145716666666, "name": "9cb34b16898b875508254751290038a7"}, {"bike_id": "8543d8c1f1baa0cfeb0fef20cb8b7b2b", "type": "electric_scooter", "is_disabled": 0, "lat": 38.9068025, "rental_uris": {"ios": "https://dc.lft.to/lastmile_qr_scan", "android": "https://dc.lft.to/lastmile_qr_scan"}, "is_reserved": 0, "fusion_lon": 0.0, "fusion_lat": 0.0, "lon": -77.07157866666667, "name": "8543d8c1f1baa0cfeb0fef20cb8b7b2b"}, {"bike_id": "c2c3c488cff7a2ff07ad081a640553ac", "type": "electric_scooter", "is_disabled": 0, "lat": 38.87078066666667, "rental_uris": {"ios": "https://dc.lft.to/lastmile_qr_scan", "android": "https://dc.lft.to/lastmile_qr_scan"}, "is_reserved": 0, "fusion_lon": 0.0, "fusion_lat": 0.0, "lon": -76.98905216666667, "name": "c2c3c488cff7a2ff07ad081a640553ac"}, {"bike_id": "5424b9e1b542d76ee1ab42125b5a71f4", "type": "electric_scooter", "is_disabled": 0, "lat": 38.917429, "rental_uris": {"ios": "https://dc.lft.to/lastmile_qr_scan", "android": "https://dc.lft.to/lastmile_qr_scan"}, "is_reserved": 0, "fusion_lon": 0.0, "fusion_lat": 0.0, "lon": -77.01583533333333, "name": "5424b9e1b542d76ee1ab42125b5a71f4"}, {"bike_id": "4b748dad43911575e9e2385b1a26c4a3", "type": "electric_scooter", "is_disabled": 0, "lat": 38.8973675, "rental_uris": {"ios": "https://dc.lft.to/lastmile_qr_scan", "android": "https://dc.lft.to/lastmile_qr_scan"}, "is_reserved": 0, "fusion_lon": 0.0, "fusion_lat": 0.0, "lon": -77.0333345, "name": "4b748dad43911575e9e2385b1a26c4a3"}, {"bike_id": "97fd07cd5369c963899cfbc19617918e", "type": "electric_scooter", "is_disabled": 0, "lat": 38.91362016666667, "rental_uris": {"ios": "https://dc.lft.to/lastmile_qr_scan", "android": "https://dc.lft.to/lastmile_qr_scan"}, "is_reserved": 0, "fusion_lon": 0.0, "fusion_lat": 0.0, "lon": -77.0448035, "name": "97fd07cd5369c963899cfbc19617918e"}, {"bike_id": "7971a0b0c6e8fd7b09e8116535062bda", "type": "electric_scooter", "is_disabled": 0, "lat": 38.925241666666665, "rental_uris": {"ios": "https://dc.lft.to/lastmile_qr_scan", "android": "https://dc.lft.to/lastmile_qr_scan"}, "is_reserved": 0, "fusion_lon": 0.0, "fusion_lat": 0.0, "lon": -77.0409905, "name": "7971a0b0c6e8fd7b09e8116535062bda"}, {"bike_id": "f258f6c7e4e0ead4006e7763cd6021c0", "type": "electric_scooter", "is_disabled": 0, "lat": 38.903336833333334, "rental_uris": {"ios": "https://dc.lft.to/lastmile_qr_scan", "android": "https://dc.lft.to/lastmile_qr_scan"}, "is_reserved": 0, "fusion_lon": 0.0, "fusion_lat": 0.0, "lon": -76.9758965, "name": "f258f6c7e4e0ead4006e7763cd6021c0"}, {"bike_id": "285903eb9a635ea3aacf6eaa966fec5c", "type": "electric_scooter", "is_disabled": 0, "lat": 38.932319, "rental_uris": {"ios": "https://dc.lft.to/lastmile_qr_scan", "android": "https://dc.lft.to/lastmile_qr_scan"}, "is_reserved": 0, "fusion_lon": 0.0, "fusion_lat": 0.0, "lon": -77.033975, "name": "285903eb9a635ea3aacf6eaa966fec5c"}, {"bike_id": "99319f39ec09686b4b17ce639e1cd195", "type": "electric_scooter", "is_disabled": 0, "lat": 38.91707816666667, "rental_uris": {"ios": "https://dc.lft.to/lastmile_qr_scan", "android": "https://dc.lft.to/lastmile_qr_scan"}, "is_reserved": 0, "fusion_lon": 0.0, "fusion_lat": 0.0, "lon": -77.02737316666666, "name": "99319f39ec09686b4b17ce639e1cd195"}, {"bike_id": "e5c035fb25faafe94db40c3bc392b891", "type": "electric_scooter", "is_disabled": 0, "lat": 38.92088566666666, "rental_uris": {"ios": "https://dc.lft.to/lastmile_qr_scan", "android": "https://dc.lft.to/lastmile_qr_scan"}, "is_reserved": 0, "fusion_lon": 0.0, "fusion_lat": 0.0, "lon": -77.0253085, "name": "e5c035fb25faafe94db40c3bc392b891"}, {"bike_id": "f87b7dda08c7fc938294ebf02e1208a7", "type": "electric_scooter", "is_disabled": 0, "lat": 38.903051, "rental_uris": {"ios": "https://dc.lft.to/lastmile_qr_scan", "android": "https://dc.lft.to/lastmile_qr_scan"}, "is_reserved": 0, "fusion_lon": 0.0, "fusion_lat": 0.0, "lon": -76.98355016666666, "name": "f87b7dda08c7fc938294ebf02e1208a7"}, {"bike_id": "77b0883b05e9c215b4abd2e4eeb27cac", "type": "electric_scooter", "is_disabled": 0, "lat": 38.900403833333336, "rental_uris": {"ios": "https://dc.lft.to/lastmile_qr_scan", "android": "https://dc.lft.to/lastmile_qr_scan"}, "is_reserved": 0, "fusion_lon": 0.0, "fusion_lat": 0.0, "lon": -77.00089516666667, "name": "77b0883b05e9c215b4abd2e4eeb27cac"}, {"bike_id": "88980a3bb191776df92f83cb92ef395b", "type": "electric_scooter", "is_disabled": 0, "lat": 38.907319, "rental_uris": {"ios": "https://dc.lft.to/lastmile_qr_scan", "android": "https://dc.lft.to/lastmile_qr_scan"}, "is_reserved": 0, "fusion_lon": 0.0, "fusion_lat": 0.0, "lon": -77.04506816666667, "name": "88980a3bb191776df92f83cb92ef395b"}, {"bike_id": "41a8c4a769bc61c4bd49676fb9152acc", "type": "electric_scooter", "is_disabled": 0, "lat": 38.923321666666666, "rental_uris": {"ios": "https://dc.lft.to/lastmile_qr_scan", "android": "https://dc.lft.to/lastmile_qr_scan"}, "is_reserved": 0, "fusion_lon": 0.0, "fusion_lat": 0.0, "lon": -77.0430195, "name": "41a8c4a769bc61c4bd49676fb9152acc"}, {"bike_id": "95b91ee75cec23acb3a1b02330d47650", "type": "electric_scooter", "is_disabled": 0, "lat": 38.9103845, "rental_uris": {"ios": "https://dc.lft.to/lastmile_qr_scan", "android": "https://dc.lft.to/lastmile_qr_scan"}, "is_reserved": 0, "fusion_lon": 0.0, "fusion_lat": 0.0, "lon": -77.03820633333333, "name": "95b91ee75cec23acb3a1b02330d47650"}, {"bike_id": "3dd057807eec69749b58d290247891a8", "type": "electric_scooter", "is_disabled": 0, "lat": 38.8966885, "rental_uris": {"ios": "https://dc.lft.to/lastmile_qr_scan", "android": "https://dc.lft.to/lastmile_qr_scan"}, "is_reserved": 0, "fusion_lon": 0.0, "fusion_lat": 0.0, "lon": -76.98816, "name": "3dd057807eec69749b58d290247891a8"}, {"bike_id": "6c6a5b47477032cd7ab4fefd48fdf811", "type": "electric_scooter", "is_disabled": 0, "lat": 38.881298, "rental_uris": {"ios": "https://dc.lft.to/lastmile_qr_scan", "android": "https://dc.lft.to/lastmile_qr_scan"}, "is_reserved": 0, "fusion_lon": 0.0, "fusion_lat": 0.0, "lon": -77.01657316666666, "name": "6c6a5b47477032cd7ab4fefd48fdf811"}, {"bike_id": "316f95d919c1e8ea55c65985319ee1b3", "type": "electric_scooter", "is_disabled": 0, "lat": 38.93459033333333, "rental_uris": {"ios": "https://dc.lft.to/lastmile_qr_scan", "android": "https://dc.lft.to/lastmile_qr_scan"}, "is_reserved": 0, "fusion_lon": 0.0, "fusion_lat": 0.0, "lon": -77.0304575, "name": "316f95d919c1e8ea55c65985319ee1b3"}, {"bike_id": "8ebaeb816b086b497acffd9fe2407888", "type": "electric_scooter", "is_disabled": 0, "lat": 38.906452, "rental_uris": {"ios": "https://dc.lft.to/lastmile_qr_scan", "android": "https://dc.lft.to/lastmile_qr_scan"}, "is_reserved": 0, "fusion_lon": 0.0, "fusion_lat": 0.0, "lon": -77.014592, "name": "8ebaeb816b086b497acffd9fe2407888"}, {"bike_id": "bd7a04ebd19c28117f448951a7819d5a", "type": "electric_scooter", "is_disabled": 0, "lat": 38.92703383333333, "rental_uris": {"ios": "https://dc.lft.to/lastmile_qr_scan", "android": "https://dc.lft.to/lastmile_qr_scan"}, "is_reserved": 0, "fusion_lon": 0.0, "fusion_lat": 0.0, "lon": -77.02326733333334, "name": "bd7a04ebd19c28117f448951a7819d5a"}, {"bike_id": "a69db4adab79ddbf4f1844ed8d8a0ad7", "type": "electric_scooter", "is_disabled": 0, "lat": 38.9038825, "rental_uris": {"ios": "https://dc.lft.to/lastmile_qr_scan", "android": "https://dc.lft.to/lastmile_qr_scan"}, "is_reserved": 0, "fusion_lon": 0.0, "fusion_lat": 0.0, "lon": -76.98935766666666, "name": "a69db4adab79ddbf4f1844ed8d8a0ad7"}, {"bike_id": "9057698b608eca2602a59e7de0f71a8c", "type": "electric_scooter", "is_disabled": 0, "lat": 38.900620333333336, "rental_uris": {"ios": "https://dc.lft.to/lastmile_qr_scan", "android": "https://dc.lft.to/lastmile_qr_scan"}, "is_reserved": 0, "fusion_lon": 0.0, "fusion_lat": 0.0, "lon": -77.03507583333334, "name": "9057698b608eca2602a59e7de0f71a8c"}, {"bike_id": "2421f92126d17b5ab189e93c4f47c80d", "type": "electric_scooter", "is_disabled": 0, "lat": 38.95778083333333, "rental_uris": {"ios": "https://dc.lft.to/lastmile_qr_scan", "android": "https://dc.lft.to/lastmile_qr_scan"}, "is_reserved": 0, "fusion_lon": 0.0, "fusion_lat": 0.0, "lon": -77.01987383333334, "name": "2421f92126d17b5ab189e93c4f47c80d"}, {"bike_id": "fe533726f69dd4bf6b0b96525ec6f517", "type": "electric_scooter", "is_disabled": 0, "lat": 38.93065333333333, "rental_uris": {"ios": "https://dc.lft.to/lastmile_qr_scan", "android": "https://dc.lft.to/lastmile_qr_scan"}, "is_reserved": 0, "fusion_lon": 0.0, "fusion_lat": 0.0, "lon": -77.03182733333334, "name": "fe533726f69dd4bf6b0b96525ec6f517"}, {"bike_id": "6623700c5eccf64ecb4d0b7cf171ee64", "type": "electric_scooter", "is_disabled": 0, "lat": 38.9004075, "rental_uris": {"ios": "https://dc.lft.to/lastmile_qr_scan", "android": "https://dc.lft.to/lastmile_qr_scan"}, "is_reserved": 0, "fusion_lon": 0.0, "fusion_lat": 0.0, "lon": -77.01773783333333, "name": "6623700c5eccf64ecb4d0b7cf171ee64"}, {"bike_id": "85c03a8ab79afa285438c4f5b9743b74", "type": "electric_scooter", "is_disabled": 0, "lat": 38.919120166666666, "rental_uris": {"ios": "https://dc.lft.to/lastmile_qr_scan", "android": "https://dc.lft.to/lastmile_qr_scan"}, "is_reserved": 0, "fusion_lon": 0.0, "fusion_lat": 0.0, "lon": -77.02943733333333, "name": "85c03a8ab79afa285438c4f5b9743b74"}, {"bike_id": "54cd5d0d3d92ab447f588b971ee0a5e0", "type": "electric_scooter", "is_disabled": 0, "lat": 38.96190433333334, "rental_uris": {"ios": "https://dc.lft.to/lastmile_qr_scan", "android": "https://dc.lft.to/lastmile_qr_scan"}, "is_reserved": 0, "fusion_lon": 0.0, "fusion_lat": 0.0, "lon": -77.02813466666667, "name": "54cd5d0d3d92ab447f588b971ee0a5e0"}, {"bike_id": "c42466e642189f4e000f61af4e3f8b17", "type": "electric_scooter", "is_disabled": 0, "lat": 38.904836333333336, "rental_uris": {"ios": "https://dc.lft.to/lastmile_qr_scan", "android": "https://dc.lft.to/lastmile_qr_scan"}, "is_reserved": 0, "fusion_lon": 0.0, "fusion_lat": 0.0, "lon": -77.03014933333333, "name": "c42466e642189f4e000f61af4e3f8b17"}, {"bike_id": "c80c5ef7835c84b8a1d42dd8afcf4548", "type": "electric_scooter", "is_disabled": 0, "lat": 38.86246, "rental_uris": {"ios": "https://dc.lft.to/lastmile_qr_scan", "android": "https://dc.lft.to/lastmile_qr_scan"}, "is_reserved": 0, "fusion_lon": 0.0, "fusion_lat": 0.0, "lon": -76.994955, "name": "c80c5ef7835c84b8a1d42dd8afcf4548"}, {"bike_id": "4502f3cf40ff5083e9c9ae91241ef59b", "type": "electric_scooter", "is_disabled": 0, "lat": 38.90673066666667, "rental_uris": {"ios": "https://dc.lft.to/lastmile_qr_scan", "android": "https://dc.lft.to/lastmile_qr_scan"}, "is_reserved": 0, "fusion_lon": 0.0, "fusion_lat": 0.0, "lon": -77.0718365, "name": "4502f3cf40ff5083e9c9ae91241ef59b"}, {"bike_id": "f9ab49aa4be0560a2eff1791f7edba34", "type": "electric_scooter", "is_disabled": 0, "lat": 38.90780916666667, "rental_uris": {"ios": "https://dc.lft.to/lastmile_qr_scan", "android": "https://dc.lft.to/lastmile_qr_scan"}, "is_reserved": 0, "fusion_lon": 0.0, "fusion_lat": 0.0, "lon": -77.01108583333334, "name": "f9ab49aa4be0560a2eff1791f7edba34"}, {"bike_id": "e5cc8e1822c09f3f300cd84af5288d24", "type": "electric_bike", "is_disabled": 0, "lat": 38.868821, "rental_uris": {"ios": "https://dc.lft.to/lastmile_qr_scan", "android": "https://dc.lft.to/lastmile_qr_scan"}, "is_reserved": 0, "fusion_lon": 0.0, "fusion_lat": 0.0, "lon": -76.9578065, "name": "e5cc8e1822c09f3f300cd84af5288d24"}, {"bike_id": "89074843d323f59b4d2578531947862f", "type": "electric_scooter", "is_disabled": 0, "lat": 38.86375733333333, "rental_uris": {"ios": "https://dc.lft.to/lastmile_qr_scan", "android": "https://dc.lft.to/lastmile_qr_scan"}, "is_reserved": 0, "fusion_lon": 0.0, "fusion_lat": 0.0, "lon": -76.99057733333333, "name": "89074843d323f59b4d2578531947862f"}, {"bike_id": "253e51be003e4421d72eec6fd05071f4", "type": "electric_scooter", "is_disabled": 0, "lat": 38.911426166666665, "rental_uris": {"ios": "https://dc.lft.to/lastmile_qr_scan", "android": "https://dc.lft.to/lastmile_qr_scan"}, "is_reserved": 0, "fusion_lon": 0.0, "fusion_lat": 0.0, "lon": -77.02690766666667, "name": "253e51be003e4421d72eec6fd05071f4"}, {"bike_id": "55887e7779b8bdca812e1a964dc4032c", "type": "electric_scooter", "is_disabled": 0, "lat": 38.862515333333334, "rental_uris": {"ios": "https://dc.lft.to/lastmile_qr_scan", "android": "https://dc.lft.to/lastmile_qr_scan"}, "is_reserved": 0, "fusion_lon": 0.0, "fusion_lat": 0.0, "lon": -76.9926505, "name": "55887e7779b8bdca812e1a964dc4032c"}, {"bike_id": "ecee52b51dd60a753b7b9aaade4ad9f0", "type": "electric_bike", "is_disabled": 0, "lat": 38.9082865, "rental_uris": {"ios": "https://dc.lft.to/lastmile_qr_scan", "android": "https://dc.lft.to/lastmile_qr_scan"}, "is_reserved": 0, "fusion_lon": 0.0, "fusion_lat": 0.0, "lon": -76.9415665, "name": "ecee52b51dd60a753b7b9aaade4ad9f0"}, {"bike_id": "3f69e87c9d54db8f54b9fa0697ba417e", "type": "electric_scooter", "is_disabled": 0, "lat": 38.921132166666666, "rental_uris": {"ios": "https://dc.lft.to/lastmile_qr_scan", "android": "https://dc.lft.to/lastmile_qr_scan"}, "is_reserved": 0, "fusion_lon": 0.0, "fusion_lat": 0.0, "lon": -77.04373983333333, "name": "3f69e87c9d54db8f54b9fa0697ba417e"}, {"bike_id": "2005cecc4e464e25bf5f348a4c243a85", "type": "electric_scooter", "is_disabled": 0, "lat": 38.889304333333335, "rental_uris": {"ios": "https://dc.lft.to/lastmile_qr_scan", "android": "https://dc.lft.to/lastmile_qr_scan"}, "is_reserved": 0, "fusion_lon": 0.0, "fusion_lat": 0.0, "lon": -77.015034, "name": "2005cecc4e464e25bf5f348a4c243a85"}, {"bike_id": "366370c799d092a17e4a01a2ede4762c", "type": "electric_bike", "is_disabled": 0, "lat": 38.87673266666667, "rental_uris": {"ios": "https://dc.lft.to/lastmile_qr_scan", "android": "https://dc.lft.to/lastmile_qr_scan"}, "is_reserved": 0, "fusion_lon": 0.0, "fusion_lat": 0.0, "lon": -77.01462066666667, "name": "366370c799d092a17e4a01a2ede4762c"}, {"bike_id": "3be8a8321b529d549a32c76c840f24ae", "type": "electric_scooter", "is_disabled": 0, "lat": 38.906845, "rental_uris": {"ios": "https://dc.lft.to/lastmile_qr_scan", "android": "https://dc.lft.to/lastmile_qr_scan"}, "is_reserved": 0, "fusion_lon": 0.0, "fusion_lat": 0.0, "lon": -77.053317, "name": "3be8a8321b529d549a32c76c840f24ae"}, {"bike_id": "3829dc4caa7f2445ffb0624bedfd30ac", "type": "electric_scooter", "is_disabled": 0, "lat": 38.876578333333335, "rental_uris": {"ios": "https://dc.lft.to/lastmile_qr_scan", "android": "https://dc.lft.to/lastmile_qr_scan"}, "is_reserved": 0, "fusion_lon": 0.0, "fusion_lat": 0.0, "lon": -77.00288583333334, "name": "3829dc4caa7f2445ffb0624bedfd30ac"}, {"bike_id": "ed95e1707c0c4f3af307177c1e7115c8", "type": "electric_scooter", "is_disabled": 0, "lat": 38.93114766666667, "rental_uris": {"ios": "https://dc.lft.to/lastmile_qr_scan", "android": "https://dc.lft.to/lastmile_qr_scan"}, "is_reserved": 0, "fusion_lon": 0.0, "fusion_lat": 0.0, "lon": -77.020964, "name": "ed95e1707c0c4f3af307177c1e7115c8"}, {"bike_id": "3e8a34508707631e018fd9dce024c4e8", "type": "electric_scooter", "is_disabled": 0, "lat": 38.898511666666664, "rental_uris": {"ios": "https://dc.lft.to/lastmile_qr_scan", "android": "https://dc.lft.to/lastmile_qr_scan"}, "is_reserved": 0, "fusion_lon": 0.0, "fusion_lat": 0.0, "lon": -76.9903345, "name": "3e8a34508707631e018fd9dce024c4e8"}, {"bike_id": "1d1d2886e2ba8039998c1510428e7549", "type": "electric_scooter", "is_disabled": 0, "lat": 38.88740966666667, "rental_uris": {"ios": "https://dc.lft.to/lastmile_qr_scan", "android": "https://dc.lft.to/lastmile_qr_scan"}, "is_reserved": 0, "fusion_lon": 0.0, "fusion_lat": 0.0, "lon": -76.983557, "name": "1d1d2886e2ba8039998c1510428e7549"}, {"bike_id": "19f4c5fa935662ac1f10dd3a360c8cbd", "type": "electric_scooter", "is_disabled": 0, "lat": 38.922544, "rental_uris": {"ios": "https://dc.lft.to/lastmile_qr_scan", "android": "https://dc.lft.to/lastmile_qr_scan"}, "is_reserved": 0, "fusion_lon": 0.0, "fusion_lat": 0.0, "lon": -77.03520266666666, "name": "19f4c5fa935662ac1f10dd3a360c8cbd"}, {"bike_id": "ffd8a3c63669200608c61d2af00dced2", "type": "electric_scooter", "is_disabled": 0, "lat": 38.90784133333333, "rental_uris": {"ios": "https://dc.lft.to/lastmile_qr_scan", "android": "https://dc.lft.to/lastmile_qr_scan"}, "is_reserved": 0, "fusion_lon": 0.0, "fusion_lat": 0.0, "lon": -77.01860983333333, "name": "ffd8a3c63669200608c61d2af00dced2"}, {"bike_id": "f9c8c8c2d0a4ba912651d3ce15c4e804", "type": "electric_scooter", "is_disabled": 0, "lat": 38.91295216666666, "rental_uris": {"ios": "https://dc.lft.to/lastmile_qr_scan", "android": "https://dc.lft.to/lastmile_qr_scan"}, "is_reserved": 0, "fusion_lon": 0.0, "fusion_lat": 0.0, "lon": -77.01980516666667, "name": "f9c8c8c2d0a4ba912651d3ce15c4e804"}, {"bike_id": "4f22059e30de8a784c7cda17ba27cc66", "type": "electric_scooter", "is_disabled": 0, "lat": 38.9005155, "rental_uris": {"ios": "https://dc.lft.to/lastmile_qr_scan", "android": "https://dc.lft.to/lastmile_qr_scan"}, "is_reserved": 0, "fusion_lon": 0.0, "fusion_lat": 0.0, "lon": -77.04837216666667, "name": "4f22059e30de8a784c7cda17ba27cc66"}, {"bike_id": "96274d8a814f7ce823c639bb9332d84a", "type": "electric_scooter", "is_disabled": 0, "lat": 38.9112095, "rental_uris": {"ios": "https://dc.lft.to/lastmile_qr_scan", "android": "https://dc.lft.to/lastmile_qr_scan"}, "is_reserved": 0, "fusion_lon": 0.0, "fusion_lat": 0.0, "lon": -77.03832283333334, "name": "96274d8a814f7ce823c639bb9332d84a"}, {"bike_id": "edeb826511f847e2d41a6de83f230aa7", "type": "electric_scooter", "is_disabled": 0, "lat": 38.907826166666666, "rental_uris": {"ios": "https://dc.lft.to/lastmile_qr_scan", "android": "https://dc.lft.to/lastmile_qr_scan"}, "is_reserved": 0, "fusion_lon": 0.0, "fusion_lat": 0.0, "lon": -77.02058, "name": "edeb826511f847e2d41a6de83f230aa7"}, {"bike_id": "4161b150ecbed9c938158892d76e3dff", "type": "electric_bike", "is_disabled": 0, "lat": 38.8956545, "rental_uris": {"ios": "https://dc.lft.to/lastmile_qr_scan", "android": "https://dc.lft.to/lastmile_qr_scan"}, "is_reserved": 0, "fusion_lon": 0.0, "fusion_lat": 0.0, "lon": -77.12738083333333, "name": "4161b150ecbed9c938158892d76e3dff"}, {"bike_id": "54134e1eb387a63d0f42da94bdc6dc58", "type": "electric_scooter", "is_disabled": 0, "lat": 38.91722266666667, "rental_uris": {"ios": "https://dc.lft.to/lastmile_qr_scan", "android": "https://dc.lft.to/lastmile_qr_scan"}, "is_reserved": 0, "fusion_lon": 0.0, "fusion_lat": 0.0, "lon": -77.02503583333333, "name": "54134e1eb387a63d0f42da94bdc6dc58"}, {"bike_id": "daac0317132ed14a0d53f32c8746d879", "type": "electric_scooter", "is_disabled": 0, "lat": 38.934847500000004, "rental_uris": {"ios": "https://dc.lft.to/lastmile_qr_scan", "android": "https://dc.lft.to/lastmile_qr_scan"}, "is_reserved": 0, "fusion_lon": 0.0, "fusion_lat": 0.0, "lon": -77.03285033333333, "name": "daac0317132ed14a0d53f32c8746d879"}, {"bike_id": "ee411b9ede771e5ea44bc6f300844e9f", "type": "electric_scooter", "is_disabled": 0, "lat": 38.92327816666667, "rental_uris": {"ios": "https://dc.lft.to/lastmile_qr_scan", "android": "https://dc.lft.to/lastmile_qr_scan"}, "is_reserved": 0, "fusion_lon": 0.0, "fusion_lat": 0.0, "lon": -77.04615316666667, "name": "ee411b9ede771e5ea44bc6f300844e9f"}, {"bike_id": "819126a76beb2ebbb689e4a1b716fa93", "type": "electric_scooter", "is_disabled": 0, "lat": 38.926690666666666, "rental_uris": {"ios": "https://dc.lft.to/lastmile_qr_scan", "android": "https://dc.lft.to/lastmile_qr_scan"}, "is_reserved": 0, "fusion_lon": 0.0, "fusion_lat": 0.0, "lon": -77.05326266666667, "name": "819126a76beb2ebbb689e4a1b716fa93"}, {"bike_id": "13f7dc98397cc5a481e70cd0fa85c4dc", "type": "electric_scooter", "is_disabled": 0, "lat": 38.9204125, "rental_uris": {"ios": "https://dc.lft.to/lastmile_qr_scan", "android": "https://dc.lft.to/lastmile_qr_scan"}, "is_reserved": 0, "fusion_lon": 0.0, "fusion_lat": 0.0, "lon": -77.024275, "name": "13f7dc98397cc5a481e70cd0fa85c4dc"}, {"bike_id": "700c34634d10041b415f39037af2446a", "type": "electric_scooter", "is_disabled": 0, "lat": 38.9074725, "rental_uris": {"ios": "https://dc.lft.to/lastmile_qr_scan", "android": "https://dc.lft.to/lastmile_qr_scan"}, "is_reserved": 0, "fusion_lon": 0.0, "fusion_lat": 0.0, "lon": -77.03080566666667, "name": "700c34634d10041b415f39037af2446a"}, {"bike_id": "0fb95a76120e0feb4fc1b53ef1daba75", "type": "electric_scooter", "is_disabled": 0, "lat": 38.90608816666666, "rental_uris": {"ios": "https://dc.lft.to/lastmile_qr_scan", "android": "https://dc.lft.to/lastmile_qr_scan"}, "is_reserved": 0, "fusion_lon": 0.0, "fusion_lat": 0.0, "lon": -77.02105383333334, "name": "0fb95a76120e0feb4fc1b53ef1daba75"}, {"bike_id": "25b66e24cfdc61fc38a872502b977e24", "type": "electric_scooter", "is_disabled": 0, "lat": 38.9253775, "rental_uris": {"ios": "https://dc.lft.to/lastmile_qr_scan", "android": "https://dc.lft.to/lastmile_qr_scan"}, "is_reserved": 0, "fusion_lon": 0.0, "fusion_lat": 0.0, "lon": -77.04122366666667, "name": "25b66e24cfdc61fc38a872502b977e24"}, {"bike_id": "86f715a06e99ecc04002e28c00e5dfbe", "type": "electric_scooter", "is_disabled": 0, "lat": 38.90879566666667, "rental_uris": {"ios": "https://dc.lft.to/lastmile_qr_scan", "android": "https://dc.lft.to/lastmile_qr_scan"}, "is_reserved": 0, "fusion_lon": 0.0, "fusion_lat": 0.0, "lon": -77.04421783333333, "name": "86f715a06e99ecc04002e28c00e5dfbe"}, {"bike_id": "beaf1fa73c5d62401d6be43de2005eed", "type": "electric_scooter", "is_disabled": 0, "lat": 38.9325565, "rental_uris": {"ios": "https://dc.lft.to/lastmile_qr_scan", "android": "https://dc.lft.to/lastmile_qr_scan"}, "is_reserved": 0, "fusion_lon": 0.0, "fusion_lat": 0.0, "lon": -77.03854083333333, "name": "beaf1fa73c5d62401d6be43de2005eed"}, {"bike_id": "cb557b5f3b6dc5cb0bb7b83325bc0566", "type": "electric_scooter", "is_disabled": 0, "lat": 38.90350016666667, "rental_uris": {"ios": "https://dc.lft.to/lastmile_qr_scan", "android": "https://dc.lft.to/lastmile_qr_scan"}, "is_reserved": 0, "fusion_lon": 0.0, "fusion_lat": 0.0, "lon": -77.02910416666667, "name": "cb557b5f3b6dc5cb0bb7b83325bc0566"}, {"bike_id": "b656f732b4b3f36d919e9d1ec2c97d14", "type": "electric_scooter", "is_disabled": 0, "lat": 38.89873566666667, "rental_uris": {"ios": "https://dc.lft.to/lastmile_qr_scan", "android": "https://dc.lft.to/lastmile_qr_scan"}, "is_reserved": 0, "fusion_lon": 0.0, "fusion_lat": 0.0, "lon": -76.97697283333333, "name": "b656f732b4b3f36d919e9d1ec2c97d14"}, {"bike_id": "ec639774a98fc73e7c49ee1e04d7c8a3", "type": "electric_scooter", "is_disabled": 0, "lat": 38.934889166666665, "rental_uris": {"ios": "https://dc.lft.to/lastmile_qr_scan", "android": "https://dc.lft.to/lastmile_qr_scan"}, "is_reserved": 0, "fusion_lon": 0.0, "fusion_lat": 0.0, "lon": -77.03511616666667, "name": "ec639774a98fc73e7c49ee1e04d7c8a3"}, {"bike_id": "c59d661929afdfeebbe74ac0688e5cc8", "type": "electric_scooter", "is_disabled": 0, "lat": 38.915722333333335, "rental_uris": {"ios": "https://dc.lft.to/lastmile_qr_scan", "android": "https://dc.lft.to/lastmile_qr_scan"}, "is_reserved": 0, "fusion_lon": 0.0, "fusion_lat": 0.0, "lon": -77.02291466666667, "name": "c59d661929afdfeebbe74ac0688e5cc8"}, {"bike_id": "4985ddf4964de024cb0df3f059b44bc2", "type": "electric_scooter", "is_disabled": 0, "lat": 38.91476983333333, "rental_uris": {"ios": "https://dc.lft.to/lastmile_qr_scan", "android": "https://dc.lft.to/lastmile_qr_scan"}, "is_reserved": 0, "fusion_lon": 0.0, "fusion_lat": 0.0, "lon": -77.03183983333334, "name": "4985ddf4964de024cb0df3f059b44bc2"}, {"bike_id": "fe9e4610a4ec763f03b2134ff896e5a6", "type": "electric_scooter", "is_disabled": 0, "lat": 38.897118166666665, "rental_uris": {"ios": "https://dc.lft.to/lastmile_qr_scan", "android": "https://dc.lft.to/lastmile_qr_scan"}, "is_reserved": 0, "fusion_lon": 0.0, "fusion_lat": 0.0, "lon": -77.03208833333333, "name": "fe9e4610a4ec763f03b2134ff896e5a6"}, {"bike_id": "3332202349616bb7f2984d6f172fc5bd", "type": "electric_scooter", "is_disabled": 0, "lat": 38.925429333333334, "rental_uris": {"ios": "https://dc.lft.to/lastmile_qr_scan", "android": "https://dc.lft.to/lastmile_qr_scan"}, "is_reserved": 0, "fusion_lon": 0.0, "fusion_lat": 0.0, "lon": -77.02954266666667, "name": "3332202349616bb7f2984d6f172fc5bd"}, {"bike_id": "1e6c9a7611c6283e738b28f9c9b15c58", "type": "electric_bike", "is_disabled": 0, "lat": 38.83543933333333, "rental_uris": {"ios": "https://dc.lft.to/lastmile_qr_scan", "android": "https://dc.lft.to/lastmile_qr_scan"}, "is_reserved": 0, "fusion_lon": 0.0, "fusion_lat": 0.0, "lon": -76.98731033333334, "name": "1e6c9a7611c6283e738b28f9c9b15c58"}, {"bike_id": "2b03bf9c969c766dd789c52730e769fd", "type": "electric_bike", "is_disabled": 0, "lat": 38.953549333333335, "rental_uris": {"ios": "https://dc.lft.to/lastmile_qr_scan", "android": "https://dc.lft.to/lastmile_qr_scan"}, "is_reserved": 0, "fusion_lon": 0.0, "fusion_lat": 0.0, "lon": -76.9808955, "name": "2b03bf9c969c766dd789c52730e769fd"}, {"bike_id": "120d682085fee43581005adcc9d34145", "type": "electric_scooter", "is_disabled": 0, "lat": 38.889226, "rental_uris": {"ios": "https://dc.lft.to/lastmile_qr_scan", "android": "https://dc.lft.to/lastmile_qr_scan"}, "is_reserved": 0, "fusion_lon": 0.0, "fusion_lat": 0.0, "lon": -76.99127033333333, "name": "120d682085fee43581005adcc9d34145"}, {"bike_id": "e976805f0beb2bf64dc651365849f11c", "type": "electric_scooter", "is_disabled": 0, "lat": 38.91730583333333, "rental_uris": {"ios": "https://dc.lft.to/lastmile_qr_scan", "android": "https://dc.lft.to/lastmile_qr_scan"}, "is_reserved": 0, "fusion_lon": 0.0, "fusion_lat": 0.0, "lon": -77.02789883333334, "name": "e976805f0beb2bf64dc651365849f11c"}, {"bike_id": "c8c9b09890fa9c25db363dd1ec5dcc08", "type": "electric_scooter", "is_disabled": 0, "lat": 38.902625, "rental_uris": {"ios": "https://dc.lft.to/lastmile_qr_scan", "android": "https://dc.lft.to/lastmile_qr_scan"}, "is_reserved": 0, "fusion_lon": 0.0, "fusion_lat": 0.0, "lon": -77.00328133333333, "name": "c8c9b09890fa9c25db363dd1ec5dcc08"}, {"bike_id": "ffa2f17b6265e2268f76bb2e7fa1d3c3", "type": "electric_scooter", "is_disabled": 0, "lat": 38.89504133333333, "rental_uris": {"ios": "https://dc.lft.to/lastmile_qr_scan", "android": "https://dc.lft.to/lastmile_qr_scan"}, "is_reserved": 0, "fusion_lon": 0.0, "fusion_lat": 0.0, "lon": -77.02275316666666, "name": "ffa2f17b6265e2268f76bb2e7fa1d3c3"}, {"bike_id": "32a97f96a7113b3b95f4b58e857d8c15", "type": "electric_scooter", "is_disabled": 0, "lat": 38.89857816666667, "rental_uris": {"ios": "https://dc.lft.to/lastmile_qr_scan", "android": "https://dc.lft.to/lastmile_qr_scan"}, "is_reserved": 0, "fusion_lon": 0.0, "fusion_lat": 0.0, "lon": -77.03345466666667, "name": "32a97f96a7113b3b95f4b58e857d8c15"}, {"bike_id": "4062f48c585f7fd1d7014b84d388eeca", "type": "electric_scooter", "is_disabled": 0, "lat": 38.92940266666667, "rental_uris": {"ios": "https://dc.lft.to/lastmile_qr_scan", "android": "https://dc.lft.to/lastmile_qr_scan"}, "is_reserved": 0, "fusion_lon": 0.0, "fusion_lat": 0.0, "lon": -77.016354, "name": "4062f48c585f7fd1d7014b84d388eeca"}, {"bike_id": "52cfa8cb18a695dc8ff60df208e31a01", "type": "electric_scooter", "is_disabled": 0, "lat": 38.90499116666667, "rental_uris": {"ios": "https://dc.lft.to/lastmile_qr_scan", "android": "https://dc.lft.to/lastmile_qr_scan"}, "is_reserved": 0, "fusion_lon": 0.0, "fusion_lat": 0.0, "lon": -77.01984833333333, "name": "52cfa8cb18a695dc8ff60df208e31a01"}, {"bike_id": "7b2be982f53f8e39c8488c693abf4d25", "type": "electric_scooter", "is_disabled": 0, "lat": 38.919881333333336, "rental_uris": {"ios": "https://dc.lft.to/lastmile_qr_scan", "android": "https://dc.lft.to/lastmile_qr_scan"}, "is_reserved": 0, "fusion_lon": 0.0, "fusion_lat": 0.0, "lon": -77.03262683333334, "name": "7b2be982f53f8e39c8488c693abf4d25"}, {"bike_id": "5ef4609467ffd3db2df71b77c9096e4e", "type": "electric_scooter", "is_disabled": 0, "lat": 38.93205, "rental_uris": {"ios": "https://dc.lft.to/lastmile_qr_scan", "android": "https://dc.lft.to/lastmile_qr_scan"}, "is_reserved": 0, "fusion_lon": 0.0, "fusion_lat": 0.0, "lon": -77.03669766666667, "name": "5ef4609467ffd3db2df71b77c9096e4e"}, {"bike_id": "a45bceddf297a8a02c2f442ecc92aaf7", "type": "electric_scooter", "is_disabled": 0, "lat": 38.92063916666667, "rental_uris": {"ios": "https://dc.lft.to/lastmile_qr_scan", "android": "https://dc.lft.to/lastmile_qr_scan"}, "is_reserved": 0, "fusion_lon": 0.0, "fusion_lat": 0.0, "lon": -77.0259465, "name": "a45bceddf297a8a02c2f442ecc92aaf7"}, {"bike_id": "92019696a354f9b827695e963c1d2ab7", "type": "electric_scooter", "is_disabled": 0, "lat": 38.92089766666667, "rental_uris": {"ios": "https://dc.lft.to/lastmile_qr_scan", "android": "https://dc.lft.to/lastmile_qr_scan"}, "is_reserved": 0, "fusion_lon": 0.0, "fusion_lat": 0.0, "lon": -77.0253445, "name": "92019696a354f9b827695e963c1d2ab7"}, {"bike_id": "8f033e9ef5792692e6355dfa7cfa942d", "type": "electric_scooter", "is_disabled": 0, "lat": 38.91148366666667, "rental_uris": {"ios": "https://dc.lft.to/lastmile_qr_scan", "android": "https://dc.lft.to/lastmile_qr_scan"}, "is_reserved": 0, "fusion_lon": 0.0, "fusion_lat": 0.0, "lon": -77.01222016666667, "name": "8f033e9ef5792692e6355dfa7cfa942d"}, {"bike_id": "14416a561c3475a326939801e8d92df9", "type": "electric_scooter", "is_disabled": 0, "lat": 38.90770066666666, "rental_uris": {"ios": "https://dc.lft.to/lastmile_qr_scan", "android": "https://dc.lft.to/lastmile_qr_scan"}, "is_reserved": 0, "fusion_lon": 0.0, "fusion_lat": 0.0, "lon": -77.0350995, "name": "14416a561c3475a326939801e8d92df9"}, {"bike_id": "dcec4be9c7fbf487cadafdd8ac737469", "type": "electric_bike", "is_disabled": 0, "lat": 38.87883083333333, "rental_uris": {"ios": "https://dc.lft.to/lastmile_qr_scan", "android": "https://dc.lft.to/lastmile_qr_scan"}, "is_reserved": 0, "fusion_lon": 0.0, "fusion_lat": 0.0, "lon": -77.09612283333334, "name": "dcec4be9c7fbf487cadafdd8ac737469"}, {"bike_id": "5ae9eb3b560ceb3876888e3f47ec5894", "type": "electric_scooter", "is_disabled": 0, "lat": 38.920905833333336, "rental_uris": {"ios": "https://dc.lft.to/lastmile_qr_scan", "android": "https://dc.lft.to/lastmile_qr_scan"}, "is_reserved": 0, "fusion_lon": 0.0, "fusion_lat": 0.0, "lon": -77.00435283333333, "name": "5ae9eb3b560ceb3876888e3f47ec5894"}, {"bike_id": "cce90a7729e131394e75e338bc944ed7", "type": "electric_scooter", "is_disabled": 0, "lat": 38.9192195, "rental_uris": {"ios": "https://dc.lft.to/lastmile_qr_scan", "android": "https://dc.lft.to/lastmile_qr_scan"}, "is_reserved": 0, "fusion_lon": 0.0, "fusion_lat": 0.0, "lon": -77.03389483333333, "name": "cce90a7729e131394e75e338bc944ed7"}, {"bike_id": "506b03e4e0e0f898df265db8068b1f16", "type": "electric_scooter", "is_disabled": 0, "lat": 38.9084265, "rental_uris": {"ios": "https://dc.lft.to/lastmile_qr_scan", "android": "https://dc.lft.to/lastmile_qr_scan"}, "is_reserved": 0, "fusion_lon": 0.0, "fusion_lat": 0.0, "lon": -77.02235033333334, "name": "506b03e4e0e0f898df265db8068b1f16"}, {"bike_id": "ddfad4720df06420082d94511e1aa7f8", "type": "electric_scooter", "is_disabled": 0, "lat": 38.91968583333333, "rental_uris": {"ios": "https://dc.lft.to/lastmile_qr_scan", "android": "https://dc.lft.to/lastmile_qr_scan"}, "is_reserved": 0, "fusion_lon": 0.0, "fusion_lat": 0.0, "lon": -77.03852183333333, "name": "ddfad4720df06420082d94511e1aa7f8"}, {"bike_id": "c6ee9046e340c3b3c635b1ba454489c9", "type": "electric_scooter", "is_disabled": 0, "lat": 38.920345166666664, "rental_uris": {"ios": "https://dc.lft.to/lastmile_qr_scan", "android": "https://dc.lft.to/lastmile_qr_scan"}, "is_reserved": 0, "fusion_lon": 0.0, "fusion_lat": 0.0, "lon": -77.02427983333334, "name": "c6ee9046e340c3b3c635b1ba454489c9"}, {"bike_id": "9a51380e8fb4885ee24a5b725f599678", "type": "electric_scooter", "is_disabled": 0, "lat": 38.896248166666666, "rental_uris": {"ios": "https://dc.lft.to/lastmile_qr_scan", "android": "https://dc.lft.to/lastmile_qr_scan"}, "is_reserved": 0, "fusion_lon": 0.0, "fusion_lat": 0.0, "lon": -77.03290883333334, "name": "9a51380e8fb4885ee24a5b725f599678"}, {"bike_id": "27950e660d256bc3b3b1a77a15ce715b", "type": "electric_bike", "is_disabled": 0, "lat": 39.0137, "rental_uris": {"ios": "https://dc.lft.to/lastmile_qr_scan", "android": "https://dc.lft.to/lastmile_qr_scan"}, "is_reserved": 0, "fusion_lon": 0.0, "fusion_lat": 0.0, "lon": -76.9213285, "name": "27950e660d256bc3b3b1a77a15ce715b"}, {"bike_id": "fac320250307cf99de7db3331141f8ec", "type": "electric_scooter", "is_disabled": 0, "lat": 38.928241666666665, "rental_uris": {"ios": "https://dc.lft.to/lastmile_qr_scan", "android": "https://dc.lft.to/lastmile_qr_scan"}, "is_reserved": 0, "fusion_lon": 0.0, "fusion_lat": 0.0, "lon": -77.02255733333334, "name": "fac320250307cf99de7db3331141f8ec"}, {"bike_id": "4fa079514c788d27f89da6af9b54e807", "type": "electric_scooter", "is_disabled": 0, "lat": 38.92441433333333, "rental_uris": {"ios": "https://dc.lft.to/lastmile_qr_scan", "android": "https://dc.lft.to/lastmile_qr_scan"}, "is_reserved": 0, "fusion_lon": 0.0, "fusion_lat": 0.0, "lon": -77.04406666666667, "name": "4fa079514c788d27f89da6af9b54e807"}, {"bike_id": "0dffa35dd48b25d9d2b4f55676b7693a", "type": "electric_scooter", "is_disabled": 0, "lat": 38.916315, "rental_uris": {"ios": "https://dc.lft.to/lastmile_qr_scan", "android": "https://dc.lft.to/lastmile_qr_scan"}, "is_reserved": 0, "fusion_lon": 0.0, "fusion_lat": 0.0, "lon": -77.01075416666667, "name": "0dffa35dd48b25d9d2b4f55676b7693a"}, {"bike_id": "ed115586197daa53fa607ab0c2dd8611", "type": "electric_scooter", "is_disabled": 0, "lat": 38.9008075, "rental_uris": {"ios": "https://dc.lft.to/lastmile_qr_scan", "android": "https://dc.lft.to/lastmile_qr_scan"}, "is_reserved": 0, "fusion_lon": 0.0, "fusion_lat": 0.0, "lon": -77.04753433333333, "name": "ed115586197daa53fa607ab0c2dd8611"}, {"bike_id": "371be721525ae6f6b518b469c7c047ad", "type": "electric_bike", "is_disabled": 0, "lat": 38.95642016666667, "rental_uris": {"ios": "https://dc.lft.to/lastmile_qr_scan", "android": "https://dc.lft.to/lastmile_qr_scan"}, "is_reserved": 0, "fusion_lon": 0.0, "fusion_lat": 0.0, "lon": -76.99793266666667, "name": "371be721525ae6f6b518b469c7c047ad"}, {"bike_id": "ef26ab7ce739c6e30d62470537bb14cf", "type": "electric_scooter", "is_disabled": 0, "lat": 38.907293833333334, "rental_uris": {"ios": "https://dc.lft.to/lastmile_qr_scan", "android": "https://dc.lft.to/lastmile_qr_scan"}, "is_reserved": 0, "fusion_lon": 0.0, "fusion_lat": 0.0, "lon": -76.9981135, "name": "ef26ab7ce739c6e30d62470537bb14cf"}, {"bike_id": "74b30d1f2c8c98ca918a7465a73075c8", "type": "electric_scooter", "is_disabled": 0, "lat": 38.9040745, "rental_uris": {"ios": "https://dc.lft.to/lastmile_qr_scan", "android": "https://dc.lft.to/lastmile_qr_scan"}, "is_reserved": 0, "fusion_lon": 0.0, "fusion_lat": 0.0, "lon": -76.97329116666667, "name": "74b30d1f2c8c98ca918a7465a73075c8"}, {"bike_id": "ab4f0b17427a00cd6ee7b2a948a5d1b7", "type": "electric_scooter", "is_disabled": 0, "lat": 38.902638, "rental_uris": {"ios": "https://dc.lft.to/lastmile_qr_scan", "android": "https://dc.lft.to/lastmile_qr_scan"}, "is_reserved": 0, "fusion_lon": 0.0, "fusion_lat": 0.0, "lon": -77.0196425, "name": "ab4f0b17427a00cd6ee7b2a948a5d1b7"}, {"bike_id": "04c8f469f5825439917c391002e0c60a", "type": "electric_scooter", "is_disabled": 0, "lat": 38.904158833333334, "rental_uris": {"ios": "https://dc.lft.to/lastmile_qr_scan", "android": "https://dc.lft.to/lastmile_qr_scan"}, "is_reserved": 0, "fusion_lon": 0.0, "fusion_lat": 0.0, "lon": -77.0688505, "name": "04c8f469f5825439917c391002e0c60a"}, {"bike_id": "669b4a7b75b5d53bd410d3a2aa603fab", "type": "electric_scooter", "is_disabled": 0, "lat": 38.929064833333335, "rental_uris": {"ios": "https://dc.lft.to/lastmile_qr_scan", "android": "https://dc.lft.to/lastmile_qr_scan"}, "is_reserved": 0, "fusion_lon": 0.0, "fusion_lat": 0.0, "lon": -77.02265733333333, "name": "669b4a7b75b5d53bd410d3a2aa603fab"}, {"bike_id": "fa8eba2d037612c08016588f78c642f7", "type": "electric_scooter", "is_disabled": 0, "lat": 38.866574166666666, "rental_uris": {"ios": "https://dc.lft.to/lastmile_qr_scan", "android": "https://dc.lft.to/lastmile_qr_scan"}, "is_reserved": 0, "fusion_lon": 0.0, "fusion_lat": 0.0, "lon": -76.98884933333333, "name": "fa8eba2d037612c08016588f78c642f7"}, {"bike_id": "c6390b0fff03418eab0b9cbbe6629058", "type": "electric_scooter", "is_disabled": 0, "lat": 38.91031183333333, "rental_uris": {"ios": "https://dc.lft.to/lastmile_qr_scan", "android": "https://dc.lft.to/lastmile_qr_scan"}, "is_reserved": 0, "fusion_lon": 0.0, "fusion_lat": 0.0, "lon": -76.98663233333333, "name": "c6390b0fff03418eab0b9cbbe6629058"}, {"bike_id": "3141f8fe7b890368ededad3b90b1702d", "type": "electric_scooter", "is_disabled": 0, "lat": 38.90808283333333, "rental_uris": {"ios": "https://dc.lft.to/lastmile_qr_scan", "android": "https://dc.lft.to/lastmile_qr_scan"}, "is_reserved": 0, "fusion_lon": 0.0, "fusion_lat": 0.0, "lon": -77.049689, "name": "3141f8fe7b890368ededad3b90b1702d"}, {"bike_id": "c7496204cd2c18a4f700d5d8d437cb5d", "type": "electric_scooter", "is_disabled": 0, "lat": 38.951813333333334, "rental_uris": {"ios": "https://dc.lft.to/lastmile_qr_scan", "android": "https://dc.lft.to/lastmile_qr_scan"}, "is_reserved": 0, "fusion_lon": 0.0, "fusion_lat": 0.0, "lon": -77.026138, "name": "c7496204cd2c18a4f700d5d8d437cb5d"}, {"bike_id": "5675ae9041b3dc9a312e8494bfb55be0", "type": "electric_scooter", "is_disabled": 0, "lat": 38.92388016666666, "rental_uris": {"ios": "https://dc.lft.to/lastmile_qr_scan", "android": "https://dc.lft.to/lastmile_qr_scan"}, "is_reserved": 0, "fusion_lon": 0.0, "fusion_lat": 0.0, "lon": -77.03658233333333, "name": "5675ae9041b3dc9a312e8494bfb55be0"}, {"bike_id": "9fa523fa09536e07baa2e75fe1fc8502", "type": "electric_bike", "is_disabled": 0, "lat": 38.9447455, "rental_uris": {"ios": "https://dc.lft.to/lastmile_qr_scan", "android": "https://dc.lft.to/lastmile_qr_scan"}, "is_reserved": 0, "fusion_lon": 0.0, "fusion_lat": 0.0, "lon": -76.986872, "name": "9fa523fa09536e07baa2e75fe1fc8502"}, {"bike_id": "182e0a294fef0a372c726b9412276c76", "type": "electric_bike", "is_disabled": 0, "lat": 38.849200833333335, "rental_uris": {"ios": "https://dc.lft.to/lastmile_qr_scan", "android": "https://dc.lft.to/lastmile_qr_scan"}, "is_reserved": 0, "fusion_lon": 0.0, "fusion_lat": 0.0, "lon": -77.07792633333334, "name": "182e0a294fef0a372c726b9412276c76"}, {"bike_id": "4bd4b9a3e157b142f1e8250f0854965b", "type": "electric_scooter", "is_disabled": 0, "lat": 38.90804983333334, "rental_uris": {"ios": "https://dc.lft.to/lastmile_qr_scan", "android": "https://dc.lft.to/lastmile_qr_scan"}, "is_reserved": 0, "fusion_lon": 0.0, "fusion_lat": 0.0, "lon": -77.04340833333333, "name": "4bd4b9a3e157b142f1e8250f0854965b"}, {"bike_id": "0cb42e87c63f3f6cb52c391c63283564", "type": "electric_bike", "is_disabled": 0, "lat": 38.93560816666667, "rental_uris": {"ios": "https://dc.lft.to/lastmile_qr_scan", "android": "https://dc.lft.to/lastmile_qr_scan"}, "is_reserved": 0, "fusion_lon": 0.0, "fusion_lat": 0.0, "lon": -77.02141933333333, "name": "0cb42e87c63f3f6cb52c391c63283564"}, {"bike_id": "b01fe37ce709c949f28503834f947fcb", "type": "electric_scooter", "is_disabled": 0, "lat": 38.873325333333334, "rental_uris": {"ios": "https://dc.lft.to/lastmile_qr_scan", "android": "https://dc.lft.to/lastmile_qr_scan"}, "is_reserved": 0, "fusion_lon": 0.0, "fusion_lat": 0.0, "lon": -76.96777416666667, "name": "b01fe37ce709c949f28503834f947fcb"}, {"bike_id": "e6efa34a5b9ef0550abf136ec29adfa9", "type": "electric_bike", "is_disabled": 0, "lat": 38.97394583333333, "rental_uris": {"ios": "https://dc.lft.to/lastmile_qr_scan", "android": "https://dc.lft.to/lastmile_qr_scan"}, "is_reserved": 0, "fusion_lon": 0.0, "fusion_lat": 0.0, "lon": -77.06449783333333, "name": "e6efa34a5b9ef0550abf136ec29adfa9"}, {"bike_id": "2b673da4d9e8913d66527df4ed3ec60a", "type": "electric_scooter", "is_disabled": 0, "lat": 38.916781666666665, "rental_uris": {"ios": "https://dc.lft.to/lastmile_qr_scan", "android": "https://dc.lft.to/lastmile_qr_scan"}, "is_reserved": 0, "fusion_lon": 0.0, "fusion_lat": 0.0, "lon": -77.02973066666667, "name": "2b673da4d9e8913d66527df4ed3ec60a"}, {"bike_id": "7ba66cc83aeaef0054bf29b892f34b5b", "type": "electric_scooter", "is_disabled": 0, "lat": 38.917199333333336, "rental_uris": {"ios": "https://dc.lft.to/lastmile_qr_scan", "android": "https://dc.lft.to/lastmile_qr_scan"}, "is_reserved": 0, "fusion_lon": 0.0, "fusion_lat": 0.0, "lon": -77.02294366666666, "name": "7ba66cc83aeaef0054bf29b892f34b5b"}, {"bike_id": "6e9c24b68ee1fc9f0ab8f335f54d48d2", "type": "electric_scooter", "is_disabled": 0, "lat": 38.87726416666667, "rental_uris": {"ios": "https://dc.lft.to/lastmile_qr_scan", "android": "https://dc.lft.to/lastmile_qr_scan"}, "is_reserved": 0, "fusion_lon": 0.0, "fusion_lat": 0.0, "lon": -77.0199555, "name": "6e9c24b68ee1fc9f0ab8f335f54d48d2"}, {"bike_id": "95ca9eef47a89d8bf72b314720f77ce3", "type": "electric_scooter", "is_disabled": 0, "lat": 38.92898433333333, "rental_uris": {"ios": "https://dc.lft.to/lastmile_qr_scan", "android": "https://dc.lft.to/lastmile_qr_scan"}, "is_reserved": 0, "fusion_lon": 0.0, "fusion_lat": 0.0, "lon": -77.05455116666667, "name": "95ca9eef47a89d8bf72b314720f77ce3"}, {"bike_id": "992f1921c1e62dc855f00c32f81ad639", "type": "electric_bike", "is_disabled": 0, "lat": 38.939639166666666, "rental_uris": {"ios": "https://dc.lft.to/lastmile_qr_scan", "android": "https://dc.lft.to/lastmile_qr_scan"}, "is_reserved": 0, "fusion_lon": 0.0, "fusion_lat": 0.0, "lon": -76.99378483333334, "name": "992f1921c1e62dc855f00c32f81ad639"}, {"bike_id": "41f28b4a87084931d2874038edf8081d", "type": "electric_scooter", "is_disabled": 0, "lat": 38.879163166666665, "rental_uris": {"ios": "https://dc.lft.to/lastmile_qr_scan", "android": "https://dc.lft.to/lastmile_qr_scan"}, "is_reserved": 0, "fusion_lon": 0.0, "fusion_lat": 0.0, "lon": -77.008805, "name": "41f28b4a87084931d2874038edf8081d"}, {"bike_id": "457b72f34a489bbe0d19cecbec3fcf79", "type": "electric_scooter", "is_disabled": 0, "lat": 38.90116416666667, "rental_uris": {"ios": "https://dc.lft.to/lastmile_qr_scan", "android": "https://dc.lft.to/lastmile_qr_scan"}, "is_reserved": 0, "fusion_lon": 0.0, "fusion_lat": 0.0, "lon": -76.92951133333334, "name": "457b72f34a489bbe0d19cecbec3fcf79"}, {"bike_id": "ab22767497468c286300200a00537241", "type": "electric_scooter", "is_disabled": 0, "lat": 38.902758166666665, "rental_uris": {"ios": "https://dc.lft.to/lastmile_qr_scan", "android": "https://dc.lft.to/lastmile_qr_scan"}, "is_reserved": 0, "fusion_lon": 0.0, "fusion_lat": 0.0, "lon": -77.003386, "name": "ab22767497468c286300200a00537241"}, {"bike_id": "6b7ae8a11eec1da2c2e3a24976497d18", "type": "electric_scooter", "is_disabled": 0, "lat": 38.931315833333336, "rental_uris": {"ios": "https://dc.lft.to/lastmile_qr_scan", "android": "https://dc.lft.to/lastmile_qr_scan"}, "is_reserved": 0, "fusion_lon": 0.0, "fusion_lat": 0.0, "lon": -77.02801616666666, "name": "6b7ae8a11eec1da2c2e3a24976497d18"}, {"bike_id": "13c72909f85b8aeade9735b24b90597e", "type": "electric_scooter", "is_disabled": 0, "lat": 38.916859333333335, "rental_uris": {"ios": "https://dc.lft.to/lastmile_qr_scan", "android": "https://dc.lft.to/lastmile_qr_scan"}, "is_reserved": 0, "fusion_lon": 0.0, "fusion_lat": 0.0, "lon": -77.04141933333334, "name": "13c72909f85b8aeade9735b24b90597e"}, {"bike_id": "83e95ca6bae6ed57c71c69cafd10e353", "type": "electric_scooter", "is_disabled": 0, "lat": 38.9015175, "rental_uris": {"ios": "https://dc.lft.to/lastmile_qr_scan", "android": "https://dc.lft.to/lastmile_qr_scan"}, "is_reserved": 0, "fusion_lon": 0.0, "fusion_lat": 0.0, "lon": -76.930521, "name": "83e95ca6bae6ed57c71c69cafd10e353"}, {"bike_id": "d7f690f1f5ef42f8f9b57940e4474517", "type": "electric_scooter", "is_disabled": 0, "lat": 38.876727, "rental_uris": {"ios": "https://dc.lft.to/lastmile_qr_scan", "android": "https://dc.lft.to/lastmile_qr_scan"}, "is_reserved": 0, "fusion_lon": 0.0, "fusion_lat": 0.0, "lon": -77.0055335, "name": "d7f690f1f5ef42f8f9b57940e4474517"}, {"bike_id": "a12e1e2a397ff947f081997c3974d510", "type": "electric_scooter", "is_disabled": 0, "lat": 38.90806666666667, "rental_uris": {"ios": "https://dc.lft.to/lastmile_qr_scan", "android": "https://dc.lft.to/lastmile_qr_scan"}, "is_reserved": 0, "fusion_lon": 0.0, "fusion_lat": 0.0, "lon": -77.04169733333333, "name": "a12e1e2a397ff947f081997c3974d510"}, {"bike_id": "c3922c041dfefc7aa760c466033f3637", "type": "electric_scooter", "is_disabled": 0, "lat": 38.9388215, "rental_uris": {"ios": "https://dc.lft.to/lastmile_qr_scan", "android": "https://dc.lft.to/lastmile_qr_scan"}, "is_reserved": 0, "fusion_lon": 0.0, "fusion_lat": 0.0, "lon": -77.0248295, "name": "c3922c041dfefc7aa760c466033f3637"}, {"bike_id": "840cfd35ad61d12f5d7eefccc15fdb25", "type": "electric_scooter", "is_disabled": 0, "lat": 38.89217433333334, "rental_uris": {"ios": "https://dc.lft.to/lastmile_qr_scan", "android": "https://dc.lft.to/lastmile_qr_scan"}, "is_reserved": 0, "fusion_lon": 0.0, "fusion_lat": 0.0, "lon": -77.02578916666667, "name": "840cfd35ad61d12f5d7eefccc15fdb25"}, {"bike_id": "cd3ad9c3a3b2dac504570c1b880a9051", "type": "electric_scooter", "is_disabled": 0, "lat": 38.913502333333334, "rental_uris": {"ios": "https://dc.lft.to/lastmile_qr_scan", "android": "https://dc.lft.to/lastmile_qr_scan"}, "is_reserved": 0, "fusion_lon": 0.0, "fusion_lat": 0.0, "lon": -77.04488516666666, "name": "cd3ad9c3a3b2dac504570c1b880a9051"}, {"bike_id": "437e336a39e94ca06035d775c1006115", "type": "electric_bike", "is_disabled": 0, "lat": 39.06297816666667, "rental_uris": {"ios": "https://dc.lft.to/lastmile_qr_scan", "android": "https://dc.lft.to/lastmile_qr_scan"}, "is_reserved": 0, "fusion_lon": 0.0, "fusion_lat": 0.0, "lon": -77.04983033333333, "name": "437e336a39e94ca06035d775c1006115"}, {"bike_id": "da493eb539654b5819bdf97e930bc621", "type": "electric_scooter", "is_disabled": 0, "lat": 38.902670666666666, "rental_uris": {"ios": "https://dc.lft.to/lastmile_qr_scan", "android": "https://dc.lft.to/lastmile_qr_scan"}, "is_reserved": 0, "fusion_lon": 0.0, "fusion_lat": 0.0, "lon": -77.03832683333333, "name": "da493eb539654b5819bdf97e930bc621"}, {"bike_id": "fdb10bc5487b6595ab497d319889498a", "type": "electric_bike", "is_disabled": 0, "lat": 38.7998375, "rental_uris": {"ios": "https://dc.lft.to/lastmile_qr_scan", "android": "https://dc.lft.to/lastmile_qr_scan"}, "is_reserved": 0, "fusion_lon": 0.0, "fusion_lat": 0.0, "lon": -77.1297535, "name": "fdb10bc5487b6595ab497d319889498a"}, {"bike_id": "7043d05f5ef7b28fe313ab63710bbbf5", "type": "electric_scooter", "is_disabled": 0, "lat": 38.91669733333333, "rental_uris": {"ios": "https://dc.lft.to/lastmile_qr_scan", "android": "https://dc.lft.to/lastmile_qr_scan"}, "is_reserved": 0, "fusion_lon": 0.0, "fusion_lat": 0.0, "lon": -77.03458466666666, "name": "7043d05f5ef7b28fe313ab63710bbbf5"}, {"bike_id": "6a609862718bf3fc37ae246a86a98aa9", "type": "electric_scooter", "is_disabled": 0, "lat": 38.880297666666664, "rental_uris": {"ios": "https://dc.lft.to/lastmile_qr_scan", "android": "https://dc.lft.to/lastmile_qr_scan"}, "is_reserved": 0, "fusion_lon": 0.0, "fusion_lat": 0.0, "lon": -77.02520016666666, "name": "6a609862718bf3fc37ae246a86a98aa9"}, {"bike_id": "e7554950d7c9ab8418175324c3dc4324", "type": "electric_scooter", "is_disabled": 0, "lat": 38.901144333333335, "rental_uris": {"ios": "https://dc.lft.to/lastmile_qr_scan", "android": "https://dc.lft.to/lastmile_qr_scan"}, "is_reserved": 0, "fusion_lon": 0.0, "fusion_lat": 0.0, "lon": -77.04980766666667, "name": "e7554950d7c9ab8418175324c3dc4324"}, {"bike_id": "333578ccf9855b6f60bab4812b4a6768", "type": "electric_scooter", "is_disabled": 0, "lat": 38.862365, "rental_uris": {"ios": "https://dc.lft.to/lastmile_qr_scan", "android": "https://dc.lft.to/lastmile_qr_scan"}, "is_reserved": 0, "fusion_lon": 0.0, "fusion_lat": 0.0, "lon": -76.99518166666667, "name": "333578ccf9855b6f60bab4812b4a6768"}, {"bike_id": "c17de37e8483f31f67046b33e320804e", "type": "electric_scooter", "is_disabled": 0, "lat": 38.90461083333334, "rental_uris": {"ios": "https://dc.lft.to/lastmile_qr_scan", "android": "https://dc.lft.to/lastmile_qr_scan"}, "is_reserved": 0, "fusion_lon": 0.0, "fusion_lat": 0.0, "lon": -77.0355395, "name": "c17de37e8483f31f67046b33e320804e"}, {"bike_id": "075ad51a50486de2299c365dcf6f1b68", "type": "electric_bike", "is_disabled": 0, "lat": 38.924801, "rental_uris": {"ios": "https://dc.lft.to/lastmile_qr_scan", "android": "https://dc.lft.to/lastmile_qr_scan"}, "is_reserved": 0, "fusion_lon": 0.0, "fusion_lat": 0.0, "lon": -77.03761616666667, "name": "075ad51a50486de2299c365dcf6f1b68"}, {"bike_id": "e785d906f661f8409c8fbaa589149901", "type": "electric_scooter", "is_disabled": 0, "lat": 38.893217666666665, "rental_uris": {"ios": "https://dc.lft.to/lastmile_qr_scan", "android": "https://dc.lft.to/lastmile_qr_scan"}, "is_reserved": 0, "fusion_lon": 0.0, "fusion_lat": 0.0, "lon": -77.04873016666667, "name": "e785d906f661f8409c8fbaa589149901"}, {"bike_id": "9fda241f5df2172cf6b2c3fbf70b8607", "type": "electric_scooter", "is_disabled": 0, "lat": 38.918121, "rental_uris": {"ios": "https://dc.lft.to/lastmile_qr_scan", "android": "https://dc.lft.to/lastmile_qr_scan"}, "is_reserved": 0, "fusion_lon": 0.0, "fusion_lat": 0.0, "lon": -77.01011983333333, "name": "9fda241f5df2172cf6b2c3fbf70b8607"}, {"bike_id": "3f74e760a0fa258f059247afea87083e", "type": "electric_scooter", "is_disabled": 0, "lat": 38.924515666666665, "rental_uris": {"ios": "https://dc.lft.to/lastmile_qr_scan", "android": "https://dc.lft.to/lastmile_qr_scan"}, "is_reserved": 0, "fusion_lon": 0.0, "fusion_lat": 0.0, "lon": -77.0333965, "name": "3f74e760a0fa258f059247afea87083e"}, {"bike_id": "9bca8e806fca0187c759bb7e50690d03", "type": "electric_scooter", "is_disabled": 0, "lat": 38.88887533333333, "rental_uris": {"ios": "https://dc.lft.to/lastmile_qr_scan", "android": "https://dc.lft.to/lastmile_qr_scan"}, "is_reserved": 0, "fusion_lon": 0.0, "fusion_lat": 0.0, "lon": -76.94776583333334, "name": "9bca8e806fca0187c759bb7e50690d03"}, {"bike_id": "4df9169ba8162e6d7a1323a0da7102c7", "type": "electric_scooter", "is_disabled": 0, "lat": 38.886756, "rental_uris": {"ios": "https://dc.lft.to/lastmile_qr_scan", "android": "https://dc.lft.to/lastmile_qr_scan"}, "is_reserved": 0, "fusion_lon": 0.0, "fusion_lat": 0.0, "lon": -76.99135566666666, "name": "4df9169ba8162e6d7a1323a0da7102c7"}, {"bike_id": "854a2ffe5ed5c8fde83b2b13e8c69ba5", "type": "electric_bike", "is_disabled": 0, "lat": 38.9117365, "rental_uris": {"ios": "https://dc.lft.to/lastmile_qr_scan", "android": "https://dc.lft.to/lastmile_qr_scan"}, "is_reserved": 0, "fusion_lon": 0.0, "fusion_lat": 0.0, "lon": -77.02949333333333, "name": "854a2ffe5ed5c8fde83b2b13e8c69ba5"}, {"bike_id": "5187428520b66ecf1267d492e8716414", "type": "electric_scooter", "is_disabled": 0, "lat": 38.90699583333333, "rental_uris": {"ios": "https://dc.lft.to/lastmile_qr_scan", "android": "https://dc.lft.to/lastmile_qr_scan"}, "is_reserved": 0, "fusion_lon": 0.0, "fusion_lat": 0.0, "lon": -77.0415425, "name": "5187428520b66ecf1267d492e8716414"}, {"bike_id": "7cc49356490c6b0495cd3e8c1b9b00b7", "type": "electric_scooter", "is_disabled": 0, "lat": 38.885063833333334, "rental_uris": {"ios": "https://dc.lft.to/lastmile_qr_scan", "android": "https://dc.lft.to/lastmile_qr_scan"}, "is_reserved": 0, "fusion_lon": 0.0, "fusion_lat": 0.0, "lon": -77.01715783333333, "name": "7cc49356490c6b0495cd3e8c1b9b00b7"}, {"bike_id": "5db63be18a6140e28194477e8540c677", "type": "electric_scooter", "is_disabled": 0, "lat": 38.904943333333335, "rental_uris": {"ios": "https://dc.lft.to/lastmile_qr_scan", "android": "https://dc.lft.to/lastmile_qr_scan"}, "is_reserved": 0, "fusion_lon": 0.0, "fusion_lat": 0.0, "lon": -77.02593266666666, "name": "5db63be18a6140e28194477e8540c677"}, {"bike_id": "a2dd3994c608b50335d7ea4c9a4bf60d", "type": "electric_scooter", "is_disabled": 0, "lat": 38.90029233333333, "rental_uris": {"ios": "https://dc.lft.to/lastmile_qr_scan", "android": "https://dc.lft.to/lastmile_qr_scan"}, "is_reserved": 0, "fusion_lon": 0.0, "fusion_lat": 0.0, "lon": -77.0117945, "name": "a2dd3994c608b50335d7ea4c9a4bf60d"}, {"bike_id": "cd86e049b42137b4f26da68a7050905f", "type": "electric_scooter", "is_disabled": 0, "lat": 38.90573416666667, "rental_uris": {"ios": "https://dc.lft.to/lastmile_qr_scan", "android": "https://dc.lft.to/lastmile_qr_scan"}, "is_reserved": 0, "fusion_lon": 0.0, "fusion_lat": 0.0, "lon": -77.01643133333333, "name": "cd86e049b42137b4f26da68a7050905f"}, {"bike_id": "7cf6d6a1a96e064389a4a2d29ec51758", "type": "electric_bike", "is_disabled": 0, "lat": 38.796033666666666, "rental_uris": {"ios": "https://dc.lft.to/lastmile_qr_scan", "android": "https://dc.lft.to/lastmile_qr_scan"}, "is_reserved": 0, "fusion_lon": 0.0, "fusion_lat": 0.0, "lon": -76.99746466666667, "name": "7cf6d6a1a96e064389a4a2d29ec51758"}, {"bike_id": "014f03394cb576acec5bcb705a9ee950", "type": "electric_scooter", "is_disabled": 0, "lat": 38.903528333333334, "rental_uris": {"ios": "https://dc.lft.to/lastmile_qr_scan", "android": "https://dc.lft.to/lastmile_qr_scan"}, "is_reserved": 0, "fusion_lon": 0.0, "fusion_lat": 0.0, "lon": -77.02706066666667, "name": "014f03394cb576acec5bcb705a9ee950"}, {"bike_id": "2b717a9bca0942447e7809b91aedafd1", "type": "electric_scooter", "is_disabled": 0, "lat": 38.88391566666667, "rental_uris": {"ios": "https://dc.lft.to/lastmile_qr_scan", "android": "https://dc.lft.to/lastmile_qr_scan"}, "is_reserved": 0, "fusion_lon": 0.0, "fusion_lat": 0.0, "lon": -76.95442866666667, "name": "2b717a9bca0942447e7809b91aedafd1"}, {"bike_id": "cc7fd3628277db9ecec0311d7e48b27a", "type": "electric_scooter", "is_disabled": 0, "lat": 38.905469333333336, "rental_uris": {"ios": "https://dc.lft.to/lastmile_qr_scan", "android": "https://dc.lft.to/lastmile_qr_scan"}, "is_reserved": 0, "fusion_lon": 0.0, "fusion_lat": 0.0, "lon": -76.9961685, "name": "cc7fd3628277db9ecec0311d7e48b27a"}, {"bike_id": "52f0d90c128690715f6fb3b2dce3e467", "type": "electric_bike", "is_disabled": 0, "lat": 38.9517555, "rental_uris": {"ios": "https://dc.lft.to/lastmile_qr_scan", "android": "https://dc.lft.to/lastmile_qr_scan"}, "is_reserved": 0, "fusion_lon": 0.0, "fusion_lat": 0.0, "lon": -76.9638215, "name": "52f0d90c128690715f6fb3b2dce3e467"}, {"bike_id": "713edfd9c32bb552cea3464bc1cdf7b6", "type": "electric_scooter", "is_disabled": 0, "lat": 38.9225525, "rental_uris": {"ios": "https://dc.lft.to/lastmile_qr_scan", "android": "https://dc.lft.to/lastmile_qr_scan"}, "is_reserved": 0, "fusion_lon": 0.0, "fusion_lat": 0.0, "lon": -77.03879933333333, "name": "713edfd9c32bb552cea3464bc1cdf7b6"}, {"bike_id": "4043eaabdf3be464fc5f750f94e43b9c", "type": "electric_bike", "is_disabled": 0, "lat": 38.8041135, "rental_uris": {"ios": "https://dc.lft.to/lastmile_qr_scan", "android": "https://dc.lft.to/lastmile_qr_scan"}, "is_reserved": 0, "fusion_lon": 0.0, "fusion_lat": 0.0, "lon": -77.0555255, "name": "4043eaabdf3be464fc5f750f94e43b9c"}, {"bike_id": "2083b9b80c97a821f84258aea7d10f51", "type": "electric_scooter", "is_disabled": 0, "lat": 38.90960716666667, "rental_uris": {"ios": "https://dc.lft.to/lastmile_qr_scan", "android": "https://dc.lft.to/lastmile_qr_scan"}, "is_reserved": 0, "fusion_lon": 0.0, "fusion_lat": 0.0, "lon": -77.04862366666667, "name": "2083b9b80c97a821f84258aea7d10f51"}, {"bike_id": "96a5bee91a11ef7b5c44cb060eb01878", "type": "electric_bike", "is_disabled": 0, "lat": 38.87082266666667, "rental_uris": {"ios": "https://dc.lft.to/lastmile_qr_scan", "android": "https://dc.lft.to/lastmile_qr_scan"}, "is_reserved": 0, "fusion_lon": 0.0, "fusion_lat": 0.0, "lon": -77.01217166666666, "name": "96a5bee91a11ef7b5c44cb060eb01878"}, {"bike_id": "7549393f8ea895b4b2e30f97193399f6", "type": "electric_bike", "is_disabled": 0, "lat": 38.80755466666667, "rental_uris": {"ios": "https://dc.lft.to/lastmile_qr_scan", "android": "https://dc.lft.to/lastmile_qr_scan"}, "is_reserved": 0, "fusion_lon": 0.0, "fusion_lat": 0.0, "lon": -77.09454283333334, "name": "7549393f8ea895b4b2e30f97193399f6"}, {"bike_id": "b5d55bc569f86f17664ba22eb8119892", "type": "electric_scooter", "is_disabled": 0, "lat": 38.895211333333336, "rental_uris": {"ios": "https://dc.lft.to/lastmile_qr_scan", "android": "https://dc.lft.to/lastmile_qr_scan"}, "is_reserved": 0, "fusion_lon": 0.0, "fusion_lat": 0.0, "lon": -77.01077933333333, "name": "b5d55bc569f86f17664ba22eb8119892"}, {"bike_id": "f4b861be03bf6fc62abd11a632f83f5e", "type": "electric_scooter", "is_disabled": 0, "lat": 38.90358466666667, "rental_uris": {"ios": "https://dc.lft.to/lastmile_qr_scan", "android": "https://dc.lft.to/lastmile_qr_scan"}, "is_reserved": 0, "fusion_lon": 0.0, "fusion_lat": 0.0, "lon": -77.02937216666666, "name": "f4b861be03bf6fc62abd11a632f83f5e"}, {"bike_id": "ebbbd8c16173d77d31650b63425ceb0f", "type": "electric_bike", "is_disabled": 0, "lat": 38.952317, "rental_uris": {"ios": "https://dc.lft.to/lastmile_qr_scan", "android": "https://dc.lft.to/lastmile_qr_scan"}, "is_reserved": 0, "fusion_lon": 0.0, "fusion_lat": 0.0, "lon": -77.00761666666666, "name": "ebbbd8c16173d77d31650b63425ceb0f"}, {"bike_id": "180479027a3ff398f501206fa7b011dd", "type": "electric_scooter", "is_disabled": 0, "lat": 38.889323166666664, "rental_uris": {"ios": "https://dc.lft.to/lastmile_qr_scan", "android": "https://dc.lft.to/lastmile_qr_scan"}, "is_reserved": 0, "fusion_lon": 0.0, "fusion_lat": 0.0, "lon": -77.01505416666667, "name": "180479027a3ff398f501206fa7b011dd"}, {"bike_id": "f16c58795e1ccbd274bd8d0873950413", "type": "electric_scooter", "is_disabled": 0, "lat": 38.90495133333334, "rental_uris": {"ios": "https://dc.lft.to/lastmile_qr_scan", "android": "https://dc.lft.to/lastmile_qr_scan"}, "is_reserved": 0, "fusion_lon": 0.0, "fusion_lat": 0.0, "lon": -77.02000266666667, "name": "f16c58795e1ccbd274bd8d0873950413"}, {"bike_id": "6205ee81d9f3e13fbf78ea1eefe6a014", "type": "electric_scooter", "is_disabled": 0, "lat": 38.923387166666664, "rental_uris": {"ios": "https://dc.lft.to/lastmile_qr_scan", "android": "https://dc.lft.to/lastmile_qr_scan"}, "is_reserved": 0, "fusion_lon": 0.0, "fusion_lat": 0.0, "lon": -77.00189216666666, "name": "6205ee81d9f3e13fbf78ea1eefe6a014"}, {"bike_id": "400e7bb8eebb871ec8d98bf0514d4e50", "type": "electric_scooter", "is_disabled": 0, "lat": 38.9363475, "rental_uris": {"ios": "https://dc.lft.to/lastmile_qr_scan", "android": "https://dc.lft.to/lastmile_qr_scan"}, "is_reserved": 0, "fusion_lon": 0.0, "fusion_lat": 0.0, "lon": -77.0588145, "name": "400e7bb8eebb871ec8d98bf0514d4e50"}, {"bike_id": "638e4a8441b5ffcaef7880d03501b052", "type": "electric_scooter", "is_disabled": 0, "lat": 38.8710625, "rental_uris": {"ios": "https://dc.lft.to/lastmile_qr_scan", "android": "https://dc.lft.to/lastmile_qr_scan"}, "is_reserved": 0, "fusion_lon": 0.0, "fusion_lat": 0.0, "lon": -76.96575833333333, "name": "638e4a8441b5ffcaef7880d03501b052"}, {"bike_id": "25279323f2a1a69d6e2fad28ed5867aa", "type": "electric_scooter", "is_disabled": 0, "lat": 38.92280816666667, "rental_uris": {"ios": "https://dc.lft.to/lastmile_qr_scan", "android": "https://dc.lft.to/lastmile_qr_scan"}, "is_reserved": 0, "fusion_lon": 0.0, "fusion_lat": 0.0, "lon": -76.99444833333334, "name": "25279323f2a1a69d6e2fad28ed5867aa"}, {"bike_id": "a14b94ecf74d288fb1a4f09dad2b680e", "type": "electric_scooter", "is_disabled": 0, "lat": 38.94494183333333, "rental_uris": {"ios": "https://dc.lft.to/lastmile_qr_scan", "android": "https://dc.lft.to/lastmile_qr_scan"}, "is_reserved": 0, "fusion_lon": 0.0, "fusion_lat": 0.0, "lon": -77.02621033333334, "name": "a14b94ecf74d288fb1a4f09dad2b680e"}, {"bike_id": "2885bcfe99e42c41bcdf6cbdd65f53f9", "type": "electric_scooter", "is_disabled": 0, "lat": 38.904985333333336, "rental_uris": {"ios": "https://dc.lft.to/lastmile_qr_scan", "android": "https://dc.lft.to/lastmile_qr_scan"}, "is_reserved": 0, "fusion_lon": 0.0, "fusion_lat": 0.0, "lon": -77.061063, "name": "2885bcfe99e42c41bcdf6cbdd65f53f9"}, {"bike_id": "dbb02d9a9d3fc97834e98f830c914ffe", "type": "electric_scooter", "is_disabled": 0, "lat": 38.920660166666664, "rental_uris": {"ios": "https://dc.lft.to/lastmile_qr_scan", "android": "https://dc.lft.to/lastmile_qr_scan"}, "is_reserved": 0, "fusion_lon": 0.0, "fusion_lat": 0.0, "lon": -77.02601466666667, "name": "dbb02d9a9d3fc97834e98f830c914ffe"}, {"bike_id": "fc5994d52f4aa27cf4993f5322fa03f5", "type": "electric_scooter", "is_disabled": 0, "lat": 38.914687, "rental_uris": {"ios": "https://dc.lft.to/lastmile_qr_scan", "android": "https://dc.lft.to/lastmile_qr_scan"}, "is_reserved": 0, "fusion_lon": 0.0, "fusion_lat": 0.0, "lon": -77.0092285, "name": "fc5994d52f4aa27cf4993f5322fa03f5"}, {"bike_id": "d1634d698ea329ec377b0d7f8cf58609", "type": "electric_bike", "is_disabled": 0, "lat": 38.97881916666667, "rental_uris": {"ios": "https://dc.lft.to/lastmile_qr_scan", "android": "https://dc.lft.to/lastmile_qr_scan"}, "is_reserved": 0, "fusion_lon": 0.0, "fusion_lat": 0.0, "lon": -77.06025866666667, "name": "d1634d698ea329ec377b0d7f8cf58609"}, {"bike_id": "e46d2c1a992247c80d4ba515d7304044", "type": "electric_scooter", "is_disabled": 0, "lat": 38.923829166666664, "rental_uris": {"ios": "https://dc.lft.to/lastmile_qr_scan", "android": "https://dc.lft.to/lastmile_qr_scan"}, "is_reserved": 0, "fusion_lon": 0.0, "fusion_lat": 0.0, "lon": -77.02690983333333, "name": "e46d2c1a992247c80d4ba515d7304044"}, {"bike_id": "3d1f6de93518edb711d63e452038e6e4", "type": "electric_bike", "is_disabled": 0, "lat": 38.925684, "rental_uris": {"ios": "https://dc.lft.to/lastmile_qr_scan", "android": "https://dc.lft.to/lastmile_qr_scan"}, "is_reserved": 0, "fusion_lon": 0.0, "fusion_lat": 0.0, "lon": -77.03106466666667, "name": "3d1f6de93518edb711d63e452038e6e4"}, {"bike_id": "1b2975eacaeb6c20f3191e8415b044da", "type": "electric_scooter", "is_disabled": 0, "lat": 38.916114, "rental_uris": {"ios": "https://dc.lft.to/lastmile_qr_scan", "android": "https://dc.lft.to/lastmile_qr_scan"}, "is_reserved": 0, "fusion_lon": 0.0, "fusion_lat": 0.0, "lon": -77.0450925, "name": "1b2975eacaeb6c20f3191e8415b044da"}, {"bike_id": "e4c443b4f3366bb469c78f2832b540e6", "type": "electric_scooter", "is_disabled": 0, "lat": 38.902651666666664, "rental_uris": {"ios": "https://dc.lft.to/lastmile_qr_scan", "android": "https://dc.lft.to/lastmile_qr_scan"}, "is_reserved": 0, "fusion_lon": 0.0, "fusion_lat": 0.0, "lon": -77.00321683333334, "name": "e4c443b4f3366bb469c78f2832b540e6"}, {"bike_id": "b76d964cd1333324f8efbf9967bd52b2", "type": "electric_scooter", "is_disabled": 0, "lat": 38.93706383333333, "rental_uris": {"ios": "https://dc.lft.to/lastmile_qr_scan", "android": "https://dc.lft.to/lastmile_qr_scan"}, "is_reserved": 0, "fusion_lon": 0.0, "fusion_lat": 0.0, "lon": -77.03280116666667, "name": "b76d964cd1333324f8efbf9967bd52b2"}, {"bike_id": "75f768dd085ade26dfdd2891f44857ca", "type": "electric_scooter", "is_disabled": 0, "lat": 38.90351233333333, "rental_uris": {"ios": "https://dc.lft.to/lastmile_qr_scan", "android": "https://dc.lft.to/lastmile_qr_scan"}, "is_reserved": 0, "fusion_lon": 0.0, "fusion_lat": 0.0, "lon": -76.98506066666667, "name": "75f768dd085ade26dfdd2891f44857ca"}, {"bike_id": "51592509d32b98715e7d7fe9a0f557b9", "type": "electric_scooter", "is_disabled": 0, "lat": 38.91810866666667, "rental_uris": {"ios": "https://dc.lft.to/lastmile_qr_scan", "android": "https://dc.lft.to/lastmile_qr_scan"}, "is_reserved": 0, "fusion_lon": 0.0, "fusion_lat": 0.0, "lon": -77.03183416666667, "name": "51592509d32b98715e7d7fe9a0f557b9"}, {"bike_id": "64cfb2b012dedfc47c86884d5f753fd5", "type": "electric_bike", "is_disabled": 0, "lat": 39.03695183333333, "rental_uris": {"ios": "https://dc.lft.to/lastmile_qr_scan", "android": "https://dc.lft.to/lastmile_qr_scan"}, "is_reserved": 0, "fusion_lon": 0.0, "fusion_lat": 0.0, "lon": -77.02858183333333, "name": "64cfb2b012dedfc47c86884d5f753fd5"}, {"bike_id": "111934931303a78e5469699d2307c9ee", "type": "electric_scooter", "is_disabled": 0, "lat": 38.951375, "rental_uris": {"ios": "https://dc.lft.to/lastmile_qr_scan", "android": "https://dc.lft.to/lastmile_qr_scan"}, "is_reserved": 0, "fusion_lon": 0.0, "fusion_lat": 0.0, "lon": -77.02718466666667, "name": "111934931303a78e5469699d2307c9ee"}, {"bike_id": "d0a374055aa38618823b630f37656ebc", "type": "electric_scooter", "is_disabled": 0, "lat": 38.9593225, "rental_uris": {"ios": "https://dc.lft.to/lastmile_qr_scan", "android": "https://dc.lft.to/lastmile_qr_scan"}, "is_reserved": 0, "fusion_lon": 0.0, "fusion_lat": 0.0, "lon": -77.03122866666666, "name": "d0a374055aa38618823b630f37656ebc"}, {"bike_id": "6701d01fb5ef3bc9a02cad760bcf83a5", "type": "electric_scooter", "is_disabled": 0, "lat": 38.941975166666666, "rental_uris": {"ios": "https://dc.lft.to/lastmile_qr_scan", "android": "https://dc.lft.to/lastmile_qr_scan"}, "is_reserved": 0, "fusion_lon": 0.0, "fusion_lat": 0.0, "lon": -77.02349266666667, "name": "6701d01fb5ef3bc9a02cad760bcf83a5"}, {"bike_id": "d105f5f9af7e7c0da943fcabf209fb3f", "type": "electric_scooter", "is_disabled": 0, "lat": 38.917055166666664, "rental_uris": {"ios": "https://dc.lft.to/lastmile_qr_scan", "android": "https://dc.lft.to/lastmile_qr_scan"}, "is_reserved": 0, "fusion_lon": 0.0, "fusion_lat": 0.0, "lon": -77.02881766666667, "name": "d105f5f9af7e7c0da943fcabf209fb3f"}, {"bike_id": "e426add842d8b7d82d855ae293df2e4c", "type": "electric_scooter", "is_disabled": 0, "lat": 38.95833566666667, "rental_uris": {"ios": "https://dc.lft.to/lastmile_qr_scan", "android": "https://dc.lft.to/lastmile_qr_scan"}, "is_reserved": 0, "fusion_lon": 0.0, "fusion_lat": 0.0, "lon": -77.01511316666667, "name": "e426add842d8b7d82d855ae293df2e4c"}, {"bike_id": "be9767d0f1341983dc68a0b40be9a1fd", "type": "electric_scooter", "is_disabled": 0, "lat": 38.920395, "rental_uris": {"ios": "https://dc.lft.to/lastmile_qr_scan", "android": "https://dc.lft.to/lastmile_qr_scan"}, "is_reserved": 0, "fusion_lon": 0.0, "fusion_lat": 0.0, "lon": -76.995742, "name": "be9767d0f1341983dc68a0b40be9a1fd"}, {"bike_id": "ee58c3e03f7a081ddd1ac75688ba658e", "type": "electric_scooter", "is_disabled": 0, "lat": 38.901270333333336, "rental_uris": {"ios": "https://dc.lft.to/lastmile_qr_scan", "android": "https://dc.lft.to/lastmile_qr_scan"}, "is_reserved": 0, "fusion_lon": 0.0, "fusion_lat": 0.0, "lon": -77.01618083333334, "name": "ee58c3e03f7a081ddd1ac75688ba658e"}, {"bike_id": "9762c637dd66d86a15cf604956464cef", "type": "electric_bike", "is_disabled": 0, "lat": 38.95501333333333, "rental_uris": {"ios": "https://dc.lft.to/lastmile_qr_scan", "android": "https://dc.lft.to/lastmile_qr_scan"}, "is_reserved": 0, "fusion_lon": 0.0, "fusion_lat": 0.0, "lon": -76.99352966666666, "name": "9762c637dd66d86a15cf604956464cef"}, {"bike_id": "36c37e80c5265b72b77c10ebde739e36", "type": "electric_scooter", "is_disabled": 0, "lat": 38.892035666666665, "rental_uris": {"ios": "https://dc.lft.to/lastmile_qr_scan", "android": "https://dc.lft.to/lastmile_qr_scan"}, "is_reserved": 0, "fusion_lon": 0.0, "fusion_lat": 0.0, "lon": -76.99917, "name": "36c37e80c5265b72b77c10ebde739e36"}, {"bike_id": "85222d640d5501b5176efdc409fd9b1c", "type": "electric_scooter", "is_disabled": 0, "lat": 38.8765055, "rental_uris": {"ios": "https://dc.lft.to/lastmile_qr_scan", "android": "https://dc.lft.to/lastmile_qr_scan"}, "is_reserved": 0, "fusion_lon": 0.0, "fusion_lat": 0.0, "lon": -76.9650795, "name": "85222d640d5501b5176efdc409fd9b1c"}, {"bike_id": "de3a545817afb52bc66ef55309808f21", "type": "electric_scooter", "is_disabled": 0, "lat": 38.914170666666664, "rental_uris": {"ios": "https://dc.lft.to/lastmile_qr_scan", "android": "https://dc.lft.to/lastmile_qr_scan"}, "is_reserved": 0, "fusion_lon": 0.0, "fusion_lat": 0.0, "lon": -77.02284, "name": "de3a545817afb52bc66ef55309808f21"}, {"bike_id": "a4d7950b11a46f80b1d1816db4114773", "type": "electric_scooter", "is_disabled": 0, "lat": 38.913262333333336, "rental_uris": {"ios": "https://dc.lft.to/lastmile_qr_scan", "android": "https://dc.lft.to/lastmile_qr_scan"}, "is_reserved": 0, "fusion_lon": 0.0, "fusion_lat": 0.0, "lon": -77.01972983333333, "name": "a4d7950b11a46f80b1d1816db4114773"}, {"bike_id": "e82ea55f70b526a59a0f599e64b859fd", "type": "electric_scooter", "is_disabled": 0, "lat": 38.910062333333336, "rental_uris": {"ios": "https://dc.lft.to/lastmile_qr_scan", "android": "https://dc.lft.to/lastmile_qr_scan"}, "is_reserved": 0, "fusion_lon": 0.0, "fusion_lat": 0.0, "lon": -77.01616166666666, "name": "e82ea55f70b526a59a0f599e64b859fd"}, {"bike_id": "e06da5e3bafd5223aedf1f8b0da554e7", "type": "electric_scooter", "is_disabled": 0, "lat": 38.935309, "rental_uris": {"ios": "https://dc.lft.to/lastmile_qr_scan", "android": "https://dc.lft.to/lastmile_qr_scan"}, "is_reserved": 0, "fusion_lon": 0.0, "fusion_lat": 0.0, "lon": -77.03887983333334, "name": "e06da5e3bafd5223aedf1f8b0da554e7"}, {"bike_id": "0eee4f177816442c0c4f567e9a771ed7", "type": "electric_scooter", "is_disabled": 0, "lat": 38.907904, "rental_uris": {"ios": "https://dc.lft.to/lastmile_qr_scan", "android": "https://dc.lft.to/lastmile_qr_scan"}, "is_reserved": 0, "fusion_lon": 0.0, "fusion_lat": 0.0, "lon": -77.0313415, "name": "0eee4f177816442c0c4f567e9a771ed7"}, {"bike_id": "dd85995c213f8cdb1ec99aabe68e8075", "type": "electric_scooter", "is_disabled": 0, "lat": 38.91704516666667, "rental_uris": {"ios": "https://dc.lft.to/lastmile_qr_scan", "android": "https://dc.lft.to/lastmile_qr_scan"}, "is_reserved": 0, "fusion_lon": 0.0, "fusion_lat": 0.0, "lon": -77.038603, "name": "dd85995c213f8cdb1ec99aabe68e8075"}, {"bike_id": "83b533f2e8d583e8ce73763e354840a4", "type": "electric_scooter", "is_disabled": 0, "lat": 38.916885666666666, "rental_uris": {"ios": "https://dc.lft.to/lastmile_qr_scan", "android": "https://dc.lft.to/lastmile_qr_scan"}, "is_reserved": 0, "fusion_lon": 0.0, "fusion_lat": 0.0, "lon": -77.01572766666666, "name": "83b533f2e8d583e8ce73763e354840a4"}, {"bike_id": "59a6bccceaaac323d1456102d653a217", "type": "electric_scooter", "is_disabled": 0, "lat": 38.9114095, "rental_uris": {"ios": "https://dc.lft.to/lastmile_qr_scan", "android": "https://dc.lft.to/lastmile_qr_scan"}, "is_reserved": 0, "fusion_lon": 0.0, "fusion_lat": 0.0, "lon": -77.02799633333333, "name": "59a6bccceaaac323d1456102d653a217"}, {"bike_id": "27c18d090684e0efe4810967d2bbcc0f", "type": "electric_scooter", "is_disabled": 0, "lat": 38.91818466666667, "rental_uris": {"ios": "https://dc.lft.to/lastmile_qr_scan", "android": "https://dc.lft.to/lastmile_qr_scan"}, "is_reserved": 0, "fusion_lon": 0.0, "fusion_lat": 0.0, "lon": -77.03258116666667, "name": "27c18d090684e0efe4810967d2bbcc0f"}, {"bike_id": "702894a1629fe3b34fb89d2597c4d110", "type": "electric_scooter", "is_disabled": 0, "lat": 38.907331166666665, "rental_uris": {"ios": "https://dc.lft.to/lastmile_qr_scan", "android": "https://dc.lft.to/lastmile_qr_scan"}, "is_reserved": 0, "fusion_lon": 0.0, "fusion_lat": 0.0, "lon": -77.0148625, "name": "702894a1629fe3b34fb89d2597c4d110"}, {"bike_id": "5786b95b8a8c7e1030a415a82aa965b5", "type": "electric_scooter", "is_disabled": 0, "lat": 38.906795833333334, "rental_uris": {"ios": "https://dc.lft.to/lastmile_qr_scan", "android": "https://dc.lft.to/lastmile_qr_scan"}, "is_reserved": 0, "fusion_lon": 0.0, "fusion_lat": 0.0, "lon": -77.07156583333334, "name": "5786b95b8a8c7e1030a415a82aa965b5"}, {"bike_id": "6b7d48518b9015f0cda99360cf171256", "type": "electric_scooter", "is_disabled": 0, "lat": 38.90027, "rental_uris": {"ios": "https://dc.lft.to/lastmile_qr_scan", "android": "https://dc.lft.to/lastmile_qr_scan"}, "is_reserved": 0, "fusion_lon": 0.0, "fusion_lat": 0.0, "lon": -76.98807883333333, "name": "6b7d48518b9015f0cda99360cf171256"}, {"bike_id": "27260deffc7d9841c04a7191c6354c62", "type": "electric_scooter", "is_disabled": 0, "lat": 38.915667, "rental_uris": {"ios": "https://dc.lft.to/lastmile_qr_scan", "android": "https://dc.lft.to/lastmile_qr_scan"}, "is_reserved": 0, "fusion_lon": 0.0, "fusion_lat": 0.0, "lon": -77.022892, "name": "27260deffc7d9841c04a7191c6354c62"}, {"bike_id": "1852aa7188d70d76978bf5a0a0a4f0fe", "type": "electric_scooter", "is_disabled": 0, "lat": 38.9298525, "rental_uris": {"ios": "https://dc.lft.to/lastmile_qr_scan", "android": "https://dc.lft.to/lastmile_qr_scan"}, "is_reserved": 0, "fusion_lon": 0.0, "fusion_lat": 0.0, "lon": -77.03468966666667, "name": "1852aa7188d70d76978bf5a0a0a4f0fe"}, {"bike_id": "75e2578b4f574d6289c0d15f5575656f", "type": "electric_scooter", "is_disabled": 0, "lat": 38.906805166666665, "rental_uris": {"ios": "https://dc.lft.to/lastmile_qr_scan", "android": "https://dc.lft.to/lastmile_qr_scan"}, "is_reserved": 0, "fusion_lon": 0.0, "fusion_lat": 0.0, "lon": -77.06339816666667, "name": "75e2578b4f574d6289c0d15f5575656f"}, {"bike_id": "3709fc3a353cb119ba6ce03e248806af", "type": "electric_scooter", "is_disabled": 0, "lat": 38.89860683333333, "rental_uris": {"ios": "https://dc.lft.to/lastmile_qr_scan", "android": "https://dc.lft.to/lastmile_qr_scan"}, "is_reserved": 0, "fusion_lon": 0.0, "fusion_lat": 0.0, "lon": -77.0199455, "name": "3709fc3a353cb119ba6ce03e248806af"}, {"bike_id": "7a7709564d328ae577660bde167b4cf1", "type": "electric_bike", "is_disabled": 0, "lat": 39.056318, "rental_uris": {"ios": "https://dc.lft.to/lastmile_qr_scan", "android": "https://dc.lft.to/lastmile_qr_scan"}, "is_reserved": 0, "fusion_lon": 0.0, "fusion_lat": 0.0, "lon": -77.12525466666666, "name": "7a7709564d328ae577660bde167b4cf1"}, {"bike_id": "c0aef59a5957ac4b45ac3f283cd4fb5b", "type": "electric_scooter", "is_disabled": 0, "lat": 38.91107733333333, "rental_uris": {"ios": "https://dc.lft.to/lastmile_qr_scan", "android": "https://dc.lft.to/lastmile_qr_scan"}, "is_reserved": 0, "fusion_lon": 0.0, "fusion_lat": 0.0, "lon": -77.0114945, "name": "c0aef59a5957ac4b45ac3f283cd4fb5b"}, {"bike_id": "7f10e75d8dfaedcea0bea5159c8bde41", "type": "electric_scooter", "is_disabled": 0, "lat": 38.892198, "rental_uris": {"ios": "https://dc.lft.to/lastmile_qr_scan", "android": "https://dc.lft.to/lastmile_qr_scan"}, "is_reserved": 0, "fusion_lon": 0.0, "fusion_lat": 0.0, "lon": -77.03980383333334, "name": "7f10e75d8dfaedcea0bea5159c8bde41"}, {"bike_id": "45583b044e1fe608c869c05dafb55ed7", "type": "electric_scooter", "is_disabled": 0, "lat": 38.917558166666666, "rental_uris": {"ios": "https://dc.lft.to/lastmile_qr_scan", "android": "https://dc.lft.to/lastmile_qr_scan"}, "is_reserved": 0, "fusion_lon": 0.0, "fusion_lat": 0.0, "lon": -77.02695833333334, "name": "45583b044e1fe608c869c05dafb55ed7"}, {"bike_id": "6ffd3d59924f64226dde90795e046adb", "type": "electric_scooter", "is_disabled": 0, "lat": 38.929755166666666, "rental_uris": {"ios": "https://dc.lft.to/lastmile_qr_scan", "android": "https://dc.lft.to/lastmile_qr_scan"}, "is_reserved": 0, "fusion_lon": 0.0, "fusion_lat": 0.0, "lon": -77.03942283333333, "name": "6ffd3d59924f64226dde90795e046adb"}, {"bike_id": "065dc7acd250690dd2e167207f8354fc", "type": "electric_scooter", "is_disabled": 0, "lat": 38.966245666666666, "rental_uris": {"ios": "https://dc.lft.to/lastmile_qr_scan", "android": "https://dc.lft.to/lastmile_qr_scan"}, "is_reserved": 0, "fusion_lon": 0.0, "fusion_lat": 0.0, "lon": -77.02248283333333, "name": "065dc7acd250690dd2e167207f8354fc"}, {"bike_id": "e48a147d4782dcdeafd4ac53d91032fc", "type": "electric_scooter", "is_disabled": 0, "lat": 38.9345915, "rental_uris": {"ios": "https://dc.lft.to/lastmile_qr_scan", "android": "https://dc.lft.to/lastmile_qr_scan"}, "is_reserved": 0, "fusion_lon": 0.0, "fusion_lat": 0.0, "lon": -77.07220983333333, "name": "e48a147d4782dcdeafd4ac53d91032fc"}, {"bike_id": "56ecfff7f4be18c24121925b0e4ecc39", "type": "electric_scooter", "is_disabled": 0, "lat": 38.91409066666667, "rental_uris": {"ios": "https://dc.lft.to/lastmile_qr_scan", "android": "https://dc.lft.to/lastmile_qr_scan"}, "is_reserved": 0, "fusion_lon": 0.0, "fusion_lat": 0.0, "lon": -77.0378705, "name": "56ecfff7f4be18c24121925b0e4ecc39"}, {"bike_id": "195d995930bc9128225cf90003745e11", "type": "electric_bike", "is_disabled": 0, "lat": 38.924127166666665, "rental_uris": {"ios": "https://dc.lft.to/lastmile_qr_scan", "android": "https://dc.lft.to/lastmile_qr_scan"}, "is_reserved": 0, "fusion_lon": 0.0, "fusion_lat": 0.0, "lon": -77.05043966666666, "name": "195d995930bc9128225cf90003745e11"}, {"bike_id": "71485689f03ea1d0d2787175b0fcb55d", "type": "electric_scooter", "is_disabled": 0, "lat": 38.9235105, "rental_uris": {"ios": "https://dc.lft.to/lastmile_qr_scan", "android": "https://dc.lft.to/lastmile_qr_scan"}, "is_reserved": 0, "fusion_lon": 0.0, "fusion_lat": 0.0, "lon": -77.04144783333334, "name": "71485689f03ea1d0d2787175b0fcb55d"}, {"bike_id": "5a3ed45fa07b3e5b0f8e9460ea584132", "type": "electric_scooter", "is_disabled": 0, "lat": 38.93113983333333, "rental_uris": {"ios": "https://dc.lft.to/lastmile_qr_scan", "android": "https://dc.lft.to/lastmile_qr_scan"}, "is_reserved": 0, "fusion_lon": 0.0, "fusion_lat": 0.0, "lon": -77.03475433333334, "name": "5a3ed45fa07b3e5b0f8e9460ea584132"}, {"bike_id": "fd7b7910d20c40bcc30b70b3982d19f9", "type": "electric_scooter", "is_disabled": 0, "lat": 38.904341333333335, "rental_uris": {"ios": "https://dc.lft.to/lastmile_qr_scan", "android": "https://dc.lft.to/lastmile_qr_scan"}, "is_reserved": 0, "fusion_lon": 0.0, "fusion_lat": 0.0, "lon": -77.02839466666667, "name": "fd7b7910d20c40bcc30b70b3982d19f9"}, {"bike_id": "9b41cddc227932d8073bd0d4c8907904", "type": "electric_bike", "is_disabled": 0, "lat": 38.85767416666667, "rental_uris": {"ios": "https://dc.lft.to/lastmile_qr_scan", "android": "https://dc.lft.to/lastmile_qr_scan"}, "is_reserved": 0, "fusion_lon": 0.0, "fusion_lat": 0.0, "lon": -76.98764033333333, "name": "9b41cddc227932d8073bd0d4c8907904"}, {"bike_id": "e9da12aee81fbcf993e0a14a41b30dc4", "type": "electric_scooter", "is_disabled": 0, "lat": 38.92242233333333, "rental_uris": {"ios": "https://dc.lft.to/lastmile_qr_scan", "android": "https://dc.lft.to/lastmile_qr_scan"}, "is_reserved": 0, "fusion_lon": 0.0, "fusion_lat": 0.0, "lon": -77.03905433333334, "name": "e9da12aee81fbcf993e0a14a41b30dc4"}, {"bike_id": "10c9fca0fa7a20c589aec09e3a293daa", "type": "electric_bike", "is_disabled": 0, "lat": 38.938661333333336, "rental_uris": {"ios": "https://dc.lft.to/lastmile_qr_scan", "android": "https://dc.lft.to/lastmile_qr_scan"}, "is_reserved": 0, "fusion_lon": 0.0, "fusion_lat": 0.0, "lon": -77.02693183333334, "name": "10c9fca0fa7a20c589aec09e3a293daa"}, {"bike_id": "1d894ab790fd2643b18505a5f0e9afb2", "type": "electric_scooter", "is_disabled": 0, "lat": 38.9148115, "rental_uris": {"ios": "https://dc.lft.to/lastmile_qr_scan", "android": "https://dc.lft.to/lastmile_qr_scan"}, "is_reserved": 0, "fusion_lon": 0.0, "fusion_lat": 0.0, "lon": -77.03227316666667, "name": "1d894ab790fd2643b18505a5f0e9afb2"}, {"bike_id": "9bba6fbe2b4208d3af2334516c1b0ef0", "type": "electric_scooter", "is_disabled": 0, "lat": 38.93658933333333, "rental_uris": {"ios": "https://dc.lft.to/lastmile_qr_scan", "android": "https://dc.lft.to/lastmile_qr_scan"}, "is_reserved": 0, "fusion_lon": 0.0, "fusion_lat": 0.0, "lon": -77.0549715, "name": "9bba6fbe2b4208d3af2334516c1b0ef0"}, {"bike_id": "905e4b3b62e098f0f0e526e27b6404d6", "type": "electric_scooter", "is_disabled": 0, "lat": 38.91912966666666, "rental_uris": {"ios": "https://dc.lft.to/lastmile_qr_scan", "android": "https://dc.lft.to/lastmile_qr_scan"}, "is_reserved": 0, "fusion_lon": 0.0, "fusion_lat": 0.0, "lon": -77.0342335, "name": "905e4b3b62e098f0f0e526e27b6404d6"}, {"bike_id": "bb5e9e7d75c52e54e8873f60d3c66ee8", "type": "electric_scooter", "is_disabled": 0, "lat": 38.911106333333336, "rental_uris": {"ios": "https://dc.lft.to/lastmile_qr_scan", "android": "https://dc.lft.to/lastmile_qr_scan"}, "is_reserved": 0, "fusion_lon": 0.0, "fusion_lat": 0.0, "lon": -77.0336105, "name": "bb5e9e7d75c52e54e8873f60d3c66ee8"}, {"bike_id": "3e4f378768ba9b4ce4ff261568b18830", "type": "electric_scooter", "is_disabled": 0, "lat": 38.926584166666665, "rental_uris": {"ios": "https://dc.lft.to/lastmile_qr_scan", "android": "https://dc.lft.to/lastmile_qr_scan"}, "is_reserved": 0, "fusion_lon": 0.0, "fusion_lat": 0.0, "lon": -77.03728883333333, "name": "3e4f378768ba9b4ce4ff261568b18830"}, {"bike_id": "13703b927a4270d4ad8c0e489c6fe9c6", "type": "electric_scooter", "is_disabled": 0, "lat": 38.84438183333333, "rental_uris": {"ios": "https://dc.lft.to/lastmile_qr_scan", "android": "https://dc.lft.to/lastmile_qr_scan"}, "is_reserved": 0, "fusion_lon": 0.0, "fusion_lat": 0.0, "lon": -76.99779333333333, "name": "13703b927a4270d4ad8c0e489c6fe9c6"}, {"bike_id": "1e3cf72755641daf55eac5788e384199", "type": "electric_scooter", "is_disabled": 0, "lat": 38.918445166666665, "rental_uris": {"ios": "https://dc.lft.to/lastmile_qr_scan", "android": "https://dc.lft.to/lastmile_qr_scan"}, "is_reserved": 0, "fusion_lon": 0.0, "fusion_lat": 0.0, "lon": -77.03881933333334, "name": "1e3cf72755641daf55eac5788e384199"}, {"bike_id": "a9bd6663c6005a4e612cf945647fe71c", "type": "electric_scooter", "is_disabled": 0, "lat": 38.919663, "rental_uris": {"ios": "https://dc.lft.to/lastmile_qr_scan", "android": "https://dc.lft.to/lastmile_qr_scan"}, "is_reserved": 0, "fusion_lon": 0.0, "fusion_lat": 0.0, "lon": -77.04240566666667, "name": "a9bd6663c6005a4e612cf945647fe71c"}, {"bike_id": "7b25b95af8f777d6420a6cf25f85168a", "type": "electric_scooter", "is_disabled": 0, "lat": 38.88716433333333, "rental_uris": {"ios": "https://dc.lft.to/lastmile_qr_scan", "android": "https://dc.lft.to/lastmile_qr_scan"}, "is_reserved": 0, "fusion_lon": 0.0, "fusion_lat": 0.0, "lon": -77.02202633333333, "name": "7b25b95af8f777d6420a6cf25f85168a"}, {"bike_id": "507cc6a1fd985e19aee5c5a3130536ff", "type": "electric_scooter", "is_disabled": 0, "lat": 38.9149015, "rental_uris": {"ios": "https://dc.lft.to/lastmile_qr_scan", "android": "https://dc.lft.to/lastmile_qr_scan"}, "is_reserved": 0, "fusion_lon": 0.0, "fusion_lat": 0.0, "lon": -76.98574583333334, "name": "507cc6a1fd985e19aee5c5a3130536ff"}, {"bike_id": "fb4fea012d1587de4106388af8d049df", "type": "electric_scooter", "is_disabled": 0, "lat": 38.900363, "rental_uris": {"ios": "https://dc.lft.to/lastmile_qr_scan", "android": "https://dc.lft.to/lastmile_qr_scan"}, "is_reserved": 0, "fusion_lon": 0.0, "fusion_lat": 0.0, "lon": -76.98047383333333, "name": "fb4fea012d1587de4106388af8d049df"}, {"bike_id": "34514675a0d7e55f60ea0ac966e6732a", "type": "electric_scooter", "is_disabled": 0, "lat": 38.90741116666667, "rental_uris": {"ios": "https://dc.lft.to/lastmile_qr_scan", "android": "https://dc.lft.to/lastmile_qr_scan"}, "is_reserved": 0, "fusion_lon": 0.0, "fusion_lat": 0.0, "lon": -77.06332533333334, "name": "34514675a0d7e55f60ea0ac966e6732a"}, {"bike_id": "905787ce7d3f4d076ca65108fa61959b", "type": "electric_scooter", "is_disabled": 0, "lat": 38.925992666666666, "rental_uris": {"ios": "https://dc.lft.to/lastmile_qr_scan", "android": "https://dc.lft.to/lastmile_qr_scan"}, "is_reserved": 0, "fusion_lon": 0.0, "fusion_lat": 0.0, "lon": -77.00832883333334, "name": "905787ce7d3f4d076ca65108fa61959b"}, {"bike_id": "c8754b12ce1eeff2a95107115da1df68", "type": "electric_scooter", "is_disabled": 0, "lat": 38.931790666666664, "rental_uris": {"ios": "https://dc.lft.to/lastmile_qr_scan", "android": "https://dc.lft.to/lastmile_qr_scan"}, "is_reserved": 0, "fusion_lon": 0.0, "fusion_lat": 0.0, "lon": -77.04295333333333, "name": "c8754b12ce1eeff2a95107115da1df68"}, {"bike_id": "2c3355281623b2d3a3b04d0cfe0c88ca", "type": "electric_scooter", "is_disabled": 0, "lat": 38.920477, "rental_uris": {"ios": "https://dc.lft.to/lastmile_qr_scan", "android": "https://dc.lft.to/lastmile_qr_scan"}, "is_reserved": 0, "fusion_lon": 0.0, "fusion_lat": 0.0, "lon": -77.03457016666667, "name": "2c3355281623b2d3a3b04d0cfe0c88ca"}, {"bike_id": "97711ff4006dd281f67dd9d5337e1e04", "type": "electric_scooter", "is_disabled": 0, "lat": 38.90944916666667, "rental_uris": {"ios": "https://dc.lft.to/lastmile_qr_scan", "android": "https://dc.lft.to/lastmile_qr_scan"}, "is_reserved": 0, "fusion_lon": 0.0, "fusion_lat": 0.0, "lon": -77.04046916666667, "name": "97711ff4006dd281f67dd9d5337e1e04"}, {"bike_id": "e0093fb6360419f3d55761830eb16105", "type": "electric_scooter", "is_disabled": 0, "lat": 38.90247866666667, "rental_uris": {"ios": "https://dc.lft.to/lastmile_qr_scan", "android": "https://dc.lft.to/lastmile_qr_scan"}, "is_reserved": 0, "fusion_lon": 0.0, "fusion_lat": 0.0, "lon": -77.03847566666667, "name": "e0093fb6360419f3d55761830eb16105"}, {"bike_id": "d182ddd979e2ac473f62567c756a8ab8", "type": "electric_scooter", "is_disabled": 0, "lat": 38.90277283333333, "rental_uris": {"ios": "https://dc.lft.to/lastmile_qr_scan", "android": "https://dc.lft.to/lastmile_qr_scan"}, "is_reserved": 0, "fusion_lon": 0.0, "fusion_lat": 0.0, "lon": -77.01886883333333, "name": "d182ddd979e2ac473f62567c756a8ab8"}, {"bike_id": "91593e91188b18097fdab8c7101b5d03", "type": "electric_scooter", "is_disabled": 0, "lat": 38.90234233333334, "rental_uris": {"ios": "https://dc.lft.to/lastmile_qr_scan", "android": "https://dc.lft.to/lastmile_qr_scan"}, "is_reserved": 0, "fusion_lon": 0.0, "fusion_lat": 0.0, "lon": -76.97412133333333, "name": "91593e91188b18097fdab8c7101b5d03"}, {"bike_id": "1312784dfd523c2ac4024711df2e2173", "type": "electric_scooter", "is_disabled": 0, "lat": 38.90193416666666, "rental_uris": {"ios": "https://dc.lft.to/lastmile_qr_scan", "android": "https://dc.lft.to/lastmile_qr_scan"}, "is_reserved": 0, "fusion_lon": 0.0, "fusion_lat": 0.0, "lon": -76.98840866666667, "name": "1312784dfd523c2ac4024711df2e2173"}, {"bike_id": "9bba616c189d577bd39ac4712fdadf54", "type": "electric_scooter", "is_disabled": 0, "lat": 38.89232833333333, "rental_uris": {"ios": "https://dc.lft.to/lastmile_qr_scan", "android": "https://dc.lft.to/lastmile_qr_scan"}, "is_reserved": 0, "fusion_lon": 0.0, "fusion_lat": 0.0, "lon": -77.02380983333333, "name": "9bba616c189d577bd39ac4712fdadf54"}, {"bike_id": "9b5f9791134e828565a34368420735a4", "type": "electric_scooter", "is_disabled": 0, "lat": 38.87934666666666, "rental_uris": {"ios": "https://dc.lft.to/lastmile_qr_scan", "android": "https://dc.lft.to/lastmile_qr_scan"}, "is_reserved": 0, "fusion_lon": 0.0, "fusion_lat": 0.0, "lon": -77.01537516666667, "name": "9b5f9791134e828565a34368420735a4"}, {"bike_id": "61b5bee650254a5668a7c8f10fcfac5d", "type": "electric_scooter", "is_disabled": 0, "lat": 38.913670333333336, "rental_uris": {"ios": "https://dc.lft.to/lastmile_qr_scan", "android": "https://dc.lft.to/lastmile_qr_scan"}, "is_reserved": 0, "fusion_lon": 0.0, "fusion_lat": 0.0, "lon": -77.0455745, "name": "61b5bee650254a5668a7c8f10fcfac5d"}, {"bike_id": "cac117529bf24a01c29ec237c923a88b", "type": "electric_scooter", "is_disabled": 0, "lat": 38.92599666666667, "rental_uris": {"ios": "https://dc.lft.to/lastmile_qr_scan", "android": "https://dc.lft.to/lastmile_qr_scan"}, "is_reserved": 0, "fusion_lon": 0.0, "fusion_lat": 0.0, "lon": -77.02150283333333, "name": "cac117529bf24a01c29ec237c923a88b"}, {"bike_id": "227078b38d3f14ba2231bd2afd4eb4ab", "type": "electric_scooter", "is_disabled": 0, "lat": 38.9406805, "rental_uris": {"ios": "https://dc.lft.to/lastmile_qr_scan", "android": "https://dc.lft.to/lastmile_qr_scan"}, "is_reserved": 0, "fusion_lon": 0.0, "fusion_lat": 0.0, "lon": -77.05250416666667, "name": "227078b38d3f14ba2231bd2afd4eb4ab"}, {"bike_id": "28a6e481861d697858d727f867a3c35e", "type": "electric_scooter", "is_disabled": 0, "lat": 38.90428933333333, "rental_uris": {"ios": "https://dc.lft.to/lastmile_qr_scan", "android": "https://dc.lft.to/lastmile_qr_scan"}, "is_reserved": 0, "fusion_lon": 0.0, "fusion_lat": 0.0, "lon": -77.02889233333333, "name": "28a6e481861d697858d727f867a3c35e"}, {"bike_id": "e9f1bac762b099c2b319fa938e578ac2", "type": "electric_scooter", "is_disabled": 0, "lat": 38.89899666666667, "rental_uris": {"ios": "https://dc.lft.to/lastmile_qr_scan", "android": "https://dc.lft.to/lastmile_qr_scan"}, "is_reserved": 0, "fusion_lon": 0.0, "fusion_lat": 0.0, "lon": -76.97605116666666, "name": "e9f1bac762b099c2b319fa938e578ac2"}, {"bike_id": "0451c78cfd13140ffcf8158e2e6b4205", "type": "electric_scooter", "is_disabled": 0, "lat": 38.9234005, "rental_uris": {"ios": "https://dc.lft.to/lastmile_qr_scan", "android": "https://dc.lft.to/lastmile_qr_scan"}, "is_reserved": 0, "fusion_lon": 0.0, "fusion_lat": 0.0, "lon": -77.05424266666667, "name": "0451c78cfd13140ffcf8158e2e6b4205"}, {"bike_id": "edc3d2ef9699213b41c655b7ece355b9", "type": "electric_scooter", "is_disabled": 0, "lat": 38.937023333333336, "rental_uris": {"ios": "https://dc.lft.to/lastmile_qr_scan", "android": "https://dc.lft.to/lastmile_qr_scan"}, "is_reserved": 0, "fusion_lon": 0.0, "fusion_lat": 0.0, "lon": -77.03283, "name": "edc3d2ef9699213b41c655b7ece355b9"}, {"bike_id": "4ff7962daa2b7fd45bdbc45b56762177", "type": "electric_scooter", "is_disabled": 0, "lat": 38.917771, "rental_uris": {"ios": "https://dc.lft.to/lastmile_qr_scan", "android": "https://dc.lft.to/lastmile_qr_scan"}, "is_reserved": 0, "fusion_lon": 0.0, "fusion_lat": 0.0, "lon": -77.01494516666666, "name": "4ff7962daa2b7fd45bdbc45b56762177"}, {"bike_id": "7f480b952d8e5ac071991b2662562736", "type": "electric_scooter", "is_disabled": 0, "lat": 38.90606066666667, "rental_uris": {"ios": "https://dc.lft.to/lastmile_qr_scan", "android": "https://dc.lft.to/lastmile_qr_scan"}, "is_reserved": 0, "fusion_lon": 0.0, "fusion_lat": 0.0, "lon": -77.01205783333333, "name": "7f480b952d8e5ac071991b2662562736"}, {"bike_id": "e1b0d505d9eac5dbdadb19b8b79d94c0", "type": "electric_scooter", "is_disabled": 0, "lat": 38.895397333333335, "rental_uris": {"ios": "https://dc.lft.to/lastmile_qr_scan", "android": "https://dc.lft.to/lastmile_qr_scan"}, "is_reserved": 0, "fusion_lon": 0.0, "fusion_lat": 0.0, "lon": -77.010991, "name": "e1b0d505d9eac5dbdadb19b8b79d94c0"}, {"bike_id": "9df38ac102ee53cecd3513e31ff63ba6", "type": "electric_scooter", "is_disabled": 0, "lat": 38.9411015, "rental_uris": {"ios": "https://dc.lft.to/lastmile_qr_scan", "android": "https://dc.lft.to/lastmile_qr_scan"}, "is_reserved": 0, "fusion_lon": 0.0, "fusion_lat": 0.0, "lon": -77.07726883333333, "name": "9df38ac102ee53cecd3513e31ff63ba6"}, {"bike_id": "a6ccbf226cd49e34f762d51c12258ec8", "type": "electric_scooter", "is_disabled": 0, "lat": 38.94271416666667, "rental_uris": {"ios": "https://dc.lft.to/lastmile_qr_scan", "android": "https://dc.lft.to/lastmile_qr_scan"}, "is_reserved": 0, "fusion_lon": 0.0, "fusion_lat": 0.0, "lon": -77.03257733333334, "name": "a6ccbf226cd49e34f762d51c12258ec8"}, {"bike_id": "7938ceb20d140bc73e49d104f009bc3e", "type": "electric_scooter", "is_disabled": 0, "lat": 38.863764, "rental_uris": {"ios": "https://dc.lft.to/lastmile_qr_scan", "android": "https://dc.lft.to/lastmile_qr_scan"}, "is_reserved": 0, "fusion_lon": 0.0, "fusion_lat": 0.0, "lon": -76.990608, "name": "7938ceb20d140bc73e49d104f009bc3e"}, {"bike_id": "c9d5920d4b6271470ab90bef584a84ef", "type": "electric_scooter", "is_disabled": 0, "lat": 38.934444666666664, "rental_uris": {"ios": "https://dc.lft.to/lastmile_qr_scan", "android": "https://dc.lft.to/lastmile_qr_scan"}, "is_reserved": 0, "fusion_lon": 0.0, "fusion_lat": 0.0, "lon": -77.02980166666667, "name": "c9d5920d4b6271470ab90bef584a84ef"},