{"data": {"bikes": [{"name": "93d513415e947e8631558b0c3b40353f", "lon": -76.92920366666667, "lat": 38.89300433333333, "type": "electric_scooter", "fusion_lon": 0.0, "is_reserved": 0, "bike_id": "93d513415e947e8631558b0c3b40353f", "fusion_lat": 0.0, "is_disabled": 0, "rental_uris": {"ios": "https://dc.lft.to/lastmile_qr_scan", "android": "https://dc.lft.to/lastmile_qr_scan"}}, {"name": "30c339a438654b1f8e724724799e1bdc", "lon": -76.99517233333333, "lat": 38.883728833333336, "type": "electric_scooter", "fusion_lon": 0.0, "is_reserved": 0, "bike_id": "30c339a438654b1f8e724724799e1bdc", "fusion_lat": 0.0, "is_disabled": 0, "rental_uris": {"ios": "https://dc.lft.to/lastmile_qr_scan", "android": "https://dc.lft.to/lastmile_qr_scan"}}, {"name": "77eb7c59f9711593eb853e4c1112ee72", "lon": -76.9933345, "lat": 38.87141483333333, "type": "electric_scooter", "fusion_lon": 0.0, "is_reserved": 0, "bike_id": "77eb7c59f9711593eb853e4c1112ee72", "fusion_lat": 0.0, "is_disabled": 0, "rental_uris": {"ios": "https://dc.lft.to/lastmile_qr_scan", "android": "https://dc.lft.to/lastmile_qr_scan"}}, {"name": "7b7ec10d87d595763346af11a882935d", "lon": -77.01700966666667, "lat": 38.975037, "type": "electric_scooter", "fusion_lon": 0.0, "is_reserved": 0, "bike_id": "7b7ec10d87d595763346af11a882935d", "fusion_lat": 0.0, "is_disabled": 0, "rental_uris": {"ios": "https://dc.lft.to/lastmile_qr_scan", "android": "https://dc.lft.to/lastmile_qr_scan"}}, {"name": "18855fe288818c6f4f9c95e8dff196d3", "lon": -77.02602583333334, "lat": 38.931403, "type": "electric_scooter", "fusion_lon": 0.0, "is_reserved": 0, "bike_id": "18855fe288818c6f4f9c95e8dff196d3", "fusion_lat": 0.0, "is_disabled": 0, "rental_uris": {"ios": "https://dc.lft.to/lastmile_qr_scan", "android": "https://dc.lft.to/lastmile_qr_scan"}}, {"name": "9238b35b35863fd153a49d35a81d570e", "lon": -76.96061483333334, "lat": 38.884023, "type": "electric_bike", "fusion_lon": 0.0, "is_reserved": 0, "bike_id": "9238b35b35863fd153a49d35a81d570e", "fusion_lat": 0.0, "is_disabled": 0, "rental_uris": {"ios": "https://dc.lft.to/lastmile_qr_scan", "android": "https://dc.lft.to/lastmile_qr_scan"}}, {"name": "f660eccacb6d08a8b257be331bfe6c90", "lon": -76.988712, "lat": 38.954796333333334, "type": "electric_bike", "fusion_lon": 0.0, "is_reserved": 0, "bike_id": "f660eccacb6d08a8b257be331bfe6c90", "fusion_lat": 0.0, "is_disabled": 0, "rental_uris": {"ios": "https://dc.lft.to/lastmile_qr_scan", "android": "https://dc.lft.to/lastmile_qr_scan"}}, {"name": "8dff33b9fd3f03e101b66501c9e0ac7a", "lon": -76.98360783333334, "lat": 38.89606416666667, "type": "electric_bike", "fusion_lon": 0.0, "is_reserved": 0, "bike_id": "8dff33b9fd3f03e101b66501c9e0ac7a", "fusion_lat": 0.0, "is_disabled": 0, "rental_uris": {"ios": "https://dc.lft.to/lastmile_qr_scan", "android": "https://dc.lft.to/lastmile_qr_scan"}}, {"name": "910ee233657a83b7fc6f3adadaa46339", "lon": -77.03342983333333, "lat": 38.92049983333333, "type": "electric_scooter", "fusion_lon": 0.0, "is_reserved": 0, "bike_id": "910ee233657a83b7fc6f3adadaa46339", "fusion_lat": 0.0, "is_disabled": 0, "rental_uris": {"ios": "https://dc.lft.to/lastmile_qr_scan", "android": "https://dc.lft.to/lastmile_qr_scan"}}, {"name": "9e6751203cedbed5a88e43a38b614d83", "lon": -77.05819083333333, "lat": 38.93560733333333, "type": "electric_scooter", "fusion_lon": 0.0, "is_reserved": 0, "bike_id": "9e6751203cedbed5a88e43a38b614d83", "fusion_lat": 0.0, "is_disabled": 0, "rental_uris": {"ios": "https://dc.lft.to/lastmile_qr_scan", "android": "https://dc.lft.to/lastmile_qr_scan"}}, {"name": "e5c3473bb6209791a7bff998796557d1", "lon": -77.0217315, "lat": 38.90559066666667, "type": "electric_scooter", "fusion_lon": 0.0, "is_reserved": 0, "bike_id": "e5c3473bb6209791a7bff998796557d1", "fusion_lat": 0.0, "is_disabled": 0, "rental_uris": {"ios": "https://dc.lft.to/lastmile_qr_scan", "android": "https://dc.lft.to/lastmile_qr_scan"}}, {"name": "69442b174026ce6b6a9cc4a6c90bb812", "lon": -77.02315833333333, "lat": 38.92748133333333, "type": "electric_scooter", "fusion_lon": 0.0, "is_reserved": 0, "bike_id": "69442b174026ce6b6a9cc4a6c90bb812", "fusion_lat": 0.0, "is_disabled": 0, "rental_uris": {"ios": "https://dc.lft.to/lastmile_qr_scan", "android": "https://dc.lft.to/lastmile_qr_scan"}}, {"name": "f68117a83159387a994e2ca7a7b06c65", "lon": -76.94799016666667, "lat": 38.89398666666666, "type": "electric_bike", "fusion_lon": 0.0, "is_reserved": 0, "bike_id": "f68117a83159387a994e2ca7a7b06c65", "fusion_lat": 0.0, "is_disabled": 0, "rental_uris": {"ios": "https://dc.lft.to/lastmile_qr_scan", "android": "https://dc.lft.to/lastmile_qr_scan"}}, {"name": "53d9bf7e531e2e49e48a2e8de00ea990", "lon": -77.03299316666667, "lat": 38.95632066666667, "type": "electric_scooter", "fusion_lon": 0.0, "is_reserved": 0, "bike_id": "53d9bf7e531e2e49e48a2e8de00ea990", "fusion_lat": 0.0, "is_disabled": 0, "rental_uris": {"ios": "https://dc.lft.to/lastmile_qr_scan", "android": "https://dc.lft.to/lastmile_qr_scan"}}, {"name": "b4ceffa866af7f25245adc0e3be67cca", "lon": -77.03039483333333, "lat": 38.89835516666667, "type": "electric_scooter", "fusion_lon": 0.0, "is_reserved": 0, "bike_id": "b4ceffa866af7f25245adc0e3be67cca", "fusion_lat": 0.0, "is_disabled": 0, "rental_uris": {"ios": "https://dc.lft.to/lastmile_qr_scan", "android": "https://dc.lft.to/lastmile_qr_scan"}}, {"name": "2893a4f01bde14703b9d82870f6b634f", "lon": -77.02988283333333, "lat": 38.896325166666664, "type": "electric_scooter", "fusion_lon": 0.0, "is_reserved": 0, "bike_id": "2893a4f01bde14703b9d82870f6b634f", "fusion_lat": 0.0, "is_disabled": 0, "rental_uris": {"ios": "https://dc.lft.to/lastmile_qr_scan", "android": "https://dc.lft.to/lastmile_qr_scan"}}, {"name": "3981ee6370a4e20148a518a0a6486ec2", "lon": -76.9461895, "lat": 38.83232183333333, "type": "electric_bike", "fusion_lon": 0.0, "is_reserved": 0, "bike_id": "3981ee6370a4e20148a518a0a6486ec2", "fusion_lat": 0.0, "is_disabled": 0, "rental_uris": {"ios": "https://dc.lft.to/lastmile_qr_scan", "android": "https://dc.lft.to/lastmile_qr_scan"}}, {"name": "fd349f0e715f715e94e003148080df93", "lon": -77.0342955, "lat": 38.919186833333335, "type": "electric_scooter", "fusion_lon": 0.0, "is_reserved": 0, "bike_id": "fd349f0e715f715e94e003148080df93", "fusion_lat": 0.0, "is_disabled": 0, "rental_uris": {"ios": "https://dc.lft.to/lastmile_qr_scan", "android": "https://dc.lft.to/lastmile_qr_scan"}}, {"name": "7f9cb54b9784ed58c42870b5e19cdde7", "lon": -77.04978616666666, "lat": 39.0629365, "type": "electric_bike", "fusion_lon": 0.0, "is_reserved": 0, "bike_id": "7f9cb54b9784ed58c42870b5e19cdde7", "fusion_lat": 0.0, "is_disabled": 0, "rental_uris": {"ios": "https://dc.lft.to/lastmile_qr_scan", "android": "https://dc.lft.to/lastmile_qr_scan"}}, {"name": "10b0e819a73223773e116935fbbedb39", "lon": -77.04327216666667, "lat": 38.892210666666664, "type": "electric_scooter", "fusion_lon": 0.0, "is_reserved": 0, "bike_id": "10b0e819a73223773e116935fbbedb39", "fusion_lat": 0.0, "is_disabled": 0, "rental_uris": {"ios": "https://dc.lft.to/lastmile_qr_scan", "android": "https://dc.lft.to/lastmile_qr_scan"}}, {"name": "6881d38f8afcae52c77210b129e07272", "lon": -76.94247533333333, "lat": 38.89670266666667, "type": "electric_scooter", "fusion_lon": 0.0, "is_reserved": 0, "bike_id": "6881d38f8afcae52c77210b129e07272", "fusion_lat": 0.0, "is_disabled": 0, "rental_uris": {"ios": "https://dc.lft.to/lastmile_qr_scan", "android": "https://dc.lft.to/lastmile_qr_scan"}}, {"name": "8f8d5d8dc335a942eb81b13d90b64c86", "lon": -77.009215, "lat": 38.913421666666665, "type": "electric_scooter", "fusion_lon": 0.0, "is_reserved": 0, "bike_id": "8f8d5d8dc335a942eb81b13d90b64c86", "fusion_lat": 0.0, "is_disabled": 0, "rental_uris": {"ios": "https://dc.lft.to/lastmile_qr_scan", "android": "https://dc.lft.to/lastmile_qr_scan"}}, {"name": "49ffcee8eee5d03d91b7e520498abba2", "lon": -77.00896133333333, "lat": 38.92479083333333, "type": "electric_scooter", "fusion_lon": 0.0, "is_reserved": 0, "bike_id": "49ffcee8eee5d03d91b7e520498abba2", "fusion_lat": 0.0, "is_disabled": 0, "rental_uris": {"ios": "https://dc.lft.to/lastmile_qr_scan", "android": "https://dc.lft.to/lastmile_qr_scan"}}, {"name": "fa11af83248d000c8e22828edfdb24cc", "lon": -77.0575825, "lat": 38.924887166666664, "type": "electric_scooter", "fusion_lon": 0.0, "is_reserved": 0, "bike_id": "fa11af83248d000c8e22828edfdb24cc", "fusion_lat": 0.0, "is_disabled": 0, "rental_uris": {"ios": "https://dc.lft.to/lastmile_qr_scan", "android": "https://dc.lft.to/lastmile_qr_scan"}}, {"name": "32db0e683b7433fbd064caf8233f4497", "lon": -77.01423466666667, "lat": 38.905727, "type": "electric_bike", "fusion_lon": 0.0, "is_reserved": 0, "bike_id": "32db0e683b7433fbd064caf8233f4497", "fusion_lat": 0.0, "is_disabled": 0, "rental_uris": {"ios": "https://dc.lft.to/lastmile_qr_scan", "android": "https://dc.lft.to/lastmile_qr_scan"}}, {"name": "80400efbf100016689ecaee9a39aafe2", "lon": -77.03535566666666, "lat": 38.925419833333336, "type": "electric_scooter", "fusion_lon": 0.0, "is_reserved": 0, "bike_id": "80400efbf100016689ecaee9a39aafe2", "fusion_lat": 0.0, "is_disabled": 0, "rental_uris": {"ios": "https://dc.lft.to/lastmile_qr_scan", "android": "https://dc.lft.to/lastmile_qr_scan"}}, {"name": "731eabaf7e78939cb3c553047e8b0f1e", "lon": -76.96627383333333, "lat": 38.87101116666667, "type": "electric_scooter", "fusion_lon": 0.0, "is_reserved": 0, "bike_id": "731eabaf7e78939cb3c553047e8b0f1e", "fusion_lat": 0.0, "is_disabled": 0, "rental_uris": {"ios": "https://dc.lft.to/lastmile_qr_scan", "android": "https://dc.lft.to/lastmile_qr_scan"}}, {"name": "59936a9a618ffa6071994b89031ebbb1", "lon": -77.00126016666667, "lat": 38.904984166666665, "type": "electric_scooter", "fusion_lon": 0.0, "is_reserved": 0, "bike_id": "59936a9a618ffa6071994b89031ebbb1", "fusion_lat": 0.0, "is_disabled": 0, "rental_uris": {"ios": "https://dc.lft.to/lastmile_qr_scan", "android": "https://dc.lft.to/lastmile_qr_scan"}}, {"name": "5e142f7c3be7bdd53562cf1dae31ff06", "lon": -77.01612233333333, "lat": 38.89965733333333, "type": "electric_scooter", "fusion_lon": 0.0, "is_reserved": 0, "bike_id": "5e142f7c3be7bdd53562cf1dae31ff06", "fusion_lat": 0.0, "is_disabled": 0, "rental_uris": {"ios": "https://dc.lft.to/lastmile_qr_scan", "android": "https://dc.lft.to/lastmile_qr_scan"}}, {"name": "b336cb23c72048266e57c7ea318a54e8", "lon": -77.04397533333334, "lat": 38.914000333333334, "type": "electric_scooter", "fusion_lon": 0.0, "is_reserved": 0, "bike_id": "b336cb23c72048266e57c7ea318a54e8", "fusion_lat": 0.0, "is_disabled": 0, "rental_uris": {"ios": "https://dc.lft.to/lastmile_qr_scan", "android": "https://dc.lft.to/lastmile_qr_scan"}}, {"name": "2291baf638b174dfb1e25499bbbb384f", "lon": -77.07728966666667, "lat": 38.922624666666664, "type": "electric_bike", "fusion_lon": 0.0, "is_reserved": 0, "bike_id": "2291baf638b174dfb1e25499bbbb384f", "fusion_lat": 0.0, "is_disabled": 0, "rental_uris": {"ios": "https://dc.lft.to/lastmile_qr_scan", "android": "https://dc.lft.to/lastmile_qr_scan"}}, {"name": "db9bdf1c02f84771d9a06a350afda625", "lon": -77.017375, "lat": 38.902678333333334, "type": "electric_scooter", "fusion_lon": 0.0, "is_reserved": 0, "bike_id": "db9bdf1c02f84771d9a06a350afda625", "fusion_lat": 0.0, "is_disabled": 0, "rental_uris": {"ios": "https://dc.lft.to/lastmile_qr_scan", "android": "https://dc.lft.to/lastmile_qr_scan"}}, {"name": "adbd00d6d38b09d163bd34ea4c2896e8", "lon": -77.02768383333333, "lat": 38.95422283333333, "type": "electric_scooter", "fusion_lon": 0.0, "is_reserved": 0, "bike_id": "adbd00d6d38b09d163bd34ea4c2896e8", "fusion_lat": 0.0, "is_disabled": 0, "rental_uris": {"ios": "https://dc.lft.to/lastmile_qr_scan", "android": "https://dc.lft.to/lastmile_qr_scan"}}, {"name": "be9f1435febc89436253fd2c0a40f86c", "lon": -77.0327255, "lat": 38.92747583333333, "type": "electric_scooter", "fusion_lon": 0.0, "is_reserved": 0, "bike_id": "be9f1435febc89436253fd2c0a40f86c", "fusion_lat": 0.0, "is_disabled": 0, "rental_uris": {"ios": "https://dc.lft.to/lastmile_qr_scan", "android": "https://dc.lft.to/lastmile_qr_scan"}}, {"name": "6e7158a463c7a9ee58a370ad74755131", "lon": -77.02708966666667, "lat": 38.903955833333335, "type": "electric_scooter", "fusion_lon": 0.0, "is_reserved": 0, "bike_id": "6e7158a463c7a9ee58a370ad74755131", "fusion_lat": 0.0, "is_disabled": 0, "rental_uris": {"ios": "https://dc.lft.to/lastmile_qr_scan", "android": "https://dc.lft.to/lastmile_qr_scan"}}, {"name": "2da609c40990f0f3b4052c52368136bc", "lon": -76.965289, "lat": 38.876286666666665, "type": "electric_scooter", "fusion_lon": 0.0, "is_reserved": 0, "bike_id": "2da609c40990f0f3b4052c52368136bc", "fusion_lat": 0.0, "is_disabled": 0, "rental_uris": {"ios": "https://dc.lft.to/lastmile_qr_scan", "android": "https://dc.lft.to/lastmile_qr_scan"}}, {"name": "a5bcb96358acde49dd283de7a24a9787", "lon": -76.93145, "lat": 38.8933235, "type": "electric_scooter", "fusion_lon": 0.0, "is_reserved": 0, "bike_id": "a5bcb96358acde49dd283de7a24a9787", "fusion_lat": 0.0, "is_disabled": 0, "rental_uris": {"ios": "https://dc.lft.to/lastmile_qr_scan", "android": "https://dc.lft.to/lastmile_qr_scan"}}, {"name": "57402481fb2471f8f01c10a56e7d9d41", "lon": -77.02810683333334, "lat": 38.899516166666665, "type": "electric_scooter", "fusion_lon": 0.0, "is_reserved": 0, "bike_id": "57402481fb2471f8f01c10a56e7d9d41", "fusion_lat": 0.0, "is_disabled": 0, "rental_uris": {"ios": "https://dc.lft.to/lastmile_qr_scan", "android": "https://dc.lft.to/lastmile_qr_scan"}}, {"name": "cd316d61fcb5b48b01a03ddf9e817472", "lon": -77.0478955, "lat": 38.89364033333333, "type": "electric_scooter", "fusion_lon": 0.0, "is_reserved": 0, "bike_id": "cd316d61fcb5b48b01a03ddf9e817472", "fusion_lat": 0.0, "is_disabled": 0, "rental_uris": {"ios": "https://dc.lft.to/lastmile_qr_scan", "android": "https://dc.lft.to/lastmile_qr_scan"}}, {"name": "54e6711b8be173e7951b560cad854dc3", "lon": -77.07145483333333, "lat": 38.94559366666667, "type": "electric_scooter", "fusion_lon": 0.0, "is_reserved": 0, "bike_id": "54e6711b8be173e7951b560cad854dc3", "fusion_lat": 0.0, "is_disabled": 0, "rental_uris": {"ios": "https://dc.lft.to/lastmile_qr_scan", "android": "https://dc.lft.to/lastmile_qr_scan"}}, {"name": "14417facb0f67eb5cddef18c36d0bbd0", "lon": -76.979662, "lat": 38.95375466666667, "type": "electric_bike", "fusion_lon": 0.0, "is_reserved": 0, "bike_id": "14417facb0f67eb5cddef18c36d0bbd0", "fusion_lat": 0.0, "is_disabled": 0, "rental_uris": {"ios": "https://dc.lft.to/lastmile_qr_scan", "android": "https://dc.lft.to/lastmile_qr_scan"}}, {"name": "e328dd247e4c49ebf6e7d582eefe08e8", "lon": -77.0263405, "lat": 38.96227433333333, "type": "electric_bike", "fusion_lon": 0.0, "is_reserved": 0, "bike_id": "e328dd247e4c49ebf6e7d582eefe08e8", "fusion_lat": 0.0, "is_disabled": 0, "rental_uris": {"ios": "https://dc.lft.to/lastmile_qr_scan", "android": "https://dc.lft.to/lastmile_qr_scan"}}, {"name": "77dd7266e8eedc47ce29469107da2524", "lon": -77.02172316666666, "lat": 38.942918166666665, "type": "electric_scooter", "fusion_lon": 0.0, "is_reserved": 0, "bike_id": "77dd7266e8eedc47ce29469107da2524", "fusion_lat": 0.0, "is_disabled": 0, "rental_uris": {"ios": "https://dc.lft.to/lastmile_qr_scan", "android": "https://dc.lft.to/lastmile_qr_scan"}}, {"name": "0fc842b05ad0b0b941df09ffc5ae549e", "lon": -77.03446366666667, "lat": 38.91801666666667, "type": "electric_scooter", "fusion_lon": 0.0, "is_reserved": 0, "bike_id": "0fc842b05ad0b0b941df09ffc5ae549e", "fusion_lat": 0.0, "is_disabled": 0, "rental_uris": {"ios": "https://dc.lft.to/lastmile_qr_scan", "android": "https://dc.lft.to/lastmile_qr_scan"}}, {"name": "34b099ac6fcd620190c92b1d584cdbc1", "lon": -77.034786, "lat": 38.9253905, "type": "electric_scooter", "fusion_lon": 0.0, "is_reserved": 0, "bike_id": "34b099ac6fcd620190c92b1d584cdbc1", "fusion_lat": 0.0, "is_disabled": 0, "rental_uris": {"ios": "https://dc.lft.to/lastmile_qr_scan", "android": "https://dc.lft.to/lastmile_qr_scan"}}, {"name": "984e5109bbb876d040009a5a1ad77842", "lon": -77.03706316666667, "lat": 38.9203315, "type": "electric_bike", "fusion_lon": 0.0, "is_reserved": 0, "bike_id": "984e5109bbb876d040009a5a1ad77842", "fusion_lat": 0.0, "is_disabled": 0, "rental_uris": {"ios": "https://dc.lft.to/lastmile_qr_scan", "android": "https://dc.lft.to/lastmile_qr_scan"}}, {"name": "da7e62fa46ac4c6dab61be4c0fa3af0f", "lon": -76.972423, "lat": 38.949004, "type": "electric_bike", "fusion_lon": 0.0, "is_reserved": 0, "bike_id": "da7e62fa46ac4c6dab61be4c0fa3af0f", "fusion_lat": 0.0, "is_disabled": 0, "rental_uris": {"ios": "https://dc.lft.to/lastmile_qr_scan", "android": "https://dc.lft.to/lastmile_qr_scan"}}, {"name": "7f1d966bd5d97f1f02ad393354a20683", "lon": -76.98493866666666, "lat": 38.91506716666667, "type": "electric_scooter", "fusion_lon": 0.0, "is_reserved": 0, "bike_id": "7f1d966bd5d97f1f02ad393354a20683", "fusion_lat": 0.0, "is_disabled": 0, "rental_uris": {"ios": "https://dc.lft.to/lastmile_qr_scan", "android": "https://dc.lft.to/lastmile_qr_scan"}}, {"name": "86351dd0f71124513862eb4957aba0df", "lon": -77.0388855, "lat": 38.9225105, "type": "electric_scooter", "fusion_lon": 0.0, "is_reserved": 0, "bike_id": "86351dd0f71124513862eb4957aba0df", "fusion_lat": 0.0, "is_disabled": 0, "rental_uris": {"ios": "https://dc.lft.to/lastmile_qr_scan", "android": "https://dc.lft.to/lastmile_qr_scan"}}, {"name": "3beae5306806c1a43b8488e8022af439", "lon": -77.08587166666666, "lat": 38.8444165, "type": "electric_bike", "fusion_lon": 0.0, "is_reserved": 0, "bike_id": "3beae5306806c1a43b8488e8022af439", "fusion_lat": 0.0, "is_disabled": 0, "rental_uris": {"ios": "https://dc.lft.to/lastmile_qr_scan", "android": "https://dc.lft.to/lastmile_qr_scan"}}, {"name": "746571e7862cd89eeff76793cae7e1ee", "lon": -77.02204, "lat": 38.886393, "type": "electric_scooter", "fusion_lon": 0.0, "is_reserved": 0, "bike_id": "746571e7862cd89eeff76793cae7e1ee", "fusion_lat": 0.0, "is_disabled": 0, "rental_uris": {"ios": "https://dc.lft.to/lastmile_qr_scan", "android": "https://dc.lft.to/lastmile_qr_scan"}}, {"name": "532443844ba4616143634319df387d12", "lon": -76.99330433333333, "lat": 38.92441933333333, "type": "electric_scooter", "fusion_lon": 0.0, "is_reserved": 0, "bike_id": "532443844ba4616143634319df387d12", "fusion_lat": 0.0, "is_disabled": 0, "rental_uris": {"ios": "https://dc.lft.to/lastmile_qr_scan", "android": "https://dc.lft.to/lastmile_qr_scan"}}, {"name": "e4b378e710ff1a443984312143d4c7d4", "lon": -77.038075, "lat": 38.90651016666666, "type": "electric_scooter", "fusion_lon": 0.0, "is_reserved": 0, "bike_id": "e4b378e710ff1a443984312143d4c7d4", "fusion_lat": 0.0, "is_disabled": 0, "rental_uris": {"ios": "https://dc.lft.to/lastmile_qr_scan", "android": "https://dc.lft.to/lastmile_qr_scan"}}, {"name": "9d0c52ea04672bc65136aeb9ce4173a5", "lon": -77.03659883333333, "lat": 38.917980666666665, "type": "electric_scooter", "fusion_lon": 0.0, "is_reserved": 0, "bike_id": "9d0c52ea04672bc65136aeb9ce4173a5", "fusion_lat": 0.0, "is_disabled": 0, "rental_uris": {"ios": "https://dc.lft.to/lastmile_qr_scan", "android": "https://dc.lft.to/lastmile_qr_scan"}}, {"name": "c5e972e3aa9901e80dbad05ceb806cbe", "lon": -77.02879366666667, "lat": 38.99847333333334, "type": "electric_bike", "fusion_lon": 0.0, "is_reserved": 0, "bike_id": "c5e972e3aa9901e80dbad05ceb806cbe", "fusion_lat": 0.0, "is_disabled": 0, "rental_uris": {"ios": "https://dc.lft.to/lastmile_qr_scan", "android": "https://dc.lft.to/lastmile_qr_scan"}}, {"name": "a92a60ac1ce31bd0cb898af729c1b28b", "lon": -77.00986183333333, "lat": 38.87291616666667, "type": "electric_scooter", "fusion_lon": 0.0, "is_reserved": 0, "bike_id": "a92a60ac1ce31bd0cb898af729c1b28b", "fusion_lat": 0.0, "is_disabled": 0, "rental_uris": {"ios": "https://dc.lft.to/lastmile_qr_scan", "android": "https://dc.lft.to/lastmile_qr_scan"}}, {"name": "74cd89af30062d28be3ec854eaa194ed", "lon": -77.03424366666667, "lat": 38.9126295, "type": "electric_scooter", "fusion_lon": 0.0, "is_reserved": 0, "bike_id": "74cd89af30062d28be3ec854eaa194ed", "fusion_lat": 0.0, "is_disabled": 0, "rental_uris": {"ios": "https://dc.lft.to/lastmile_qr_scan", "android": "https://dc.lft.to/lastmile_qr_scan"}}, {"name": "fd12d33586d4f7b1fc4887834f5b7415", "lon": -77.07329033333333, "lat": 38.92733, "type": "electric_bike", "fusion_lon": 0.0, "is_reserved": 0, "bike_id": "fd12d33586d4f7b1fc4887834f5b7415", "fusion_lat": 0.0, "is_disabled": 0, "rental_uris": {"ios": "https://dc.lft.to/lastmile_qr_scan", "android": "https://dc.lft.to/lastmile_qr_scan"}}, {"name": "51bb7a34e4787aa06541dacd6511cfae", "lon": -77.03856116666667, "lat": 38.915530833333335, "type": "electric_scooter", "fusion_lon": 0.0, "is_reserved": 0, "bike_id": "51bb7a34e4787aa06541dacd6511cfae", "fusion_lat": 0.0, "is_disabled": 0, "rental_uris": {"ios": "https://dc.lft.to/lastmile_qr_scan", "android": "https://dc.lft.to/lastmile_qr_scan"}}, {"name": "a3f667b677ee7380fa4fb178768aefba", "lon": -76.973575, "lat": 38.84957133333333, "type": "electric_scooter", "fusion_lon": 0.0, "is_reserved": 0, "bike_id": "a3f667b677ee7380fa4fb178768aefba", "fusion_lat": 0.0, "is_disabled": 0, "rental_uris": {"ios": "https://dc.lft.to/lastmile_qr_scan", "android": "https://dc.lft.to/lastmile_qr_scan"}}, {"name": "38b4bdb1c4a9b1f2eb92078a9f2143af", "lon": -77.02398133333334, "lat": 38.919632, "type": "electric_scooter", "fusion_lon": 0.0, "is_reserved": 0, "bike_id": "38b4bdb1c4a9b1f2eb92078a9f2143af", "fusion_lat": 0.0, "is_disabled": 0, "rental_uris": {"ios": "https://dc.lft.to/lastmile_qr_scan", "android": "https://dc.lft.to/lastmile_qr_scan"}}, {"name": "3af064fa2c229b88de96d93f126936ac", "lon": -77.04653233333333, "lat": 39.054976333333336, "type": "electric_bike", "fusion_lon": 0.0, "is_reserved": 0, "bike_id": "3af064fa2c229b88de96d93f126936ac", "fusion_lat": 0.0, "is_disabled": 0, "rental_uris": {"ios": "https://dc.lft.to/lastmile_qr_scan", "android": "https://dc.lft.to/lastmile_qr_scan"}}, {"name": "2787f9219a18c84f18a60dc3b960e9e9", "lon": -77.01762816666667, "lat": 38.876796666666664, "type": "electric_scooter", "fusion_lon": 0.0, "is_reserved": 0, "bike_id": "2787f9219a18c84f18a60dc3b960e9e9", "fusion_lat": 0.0, "is_disabled": 0, "rental_uris": {"ios": "https://dc.lft.to/lastmile_qr_scan", "android": "https://dc.lft.to/lastmile_qr_scan"}}, {"name": "8622997806aee0273b9a23493821271a", "lon": -76.95651766666667, "lat": 38.896118, "type": "electric_scooter", "fusion_lon": 0.0, "is_reserved": 0, "bike_id": "8622997806aee0273b9a23493821271a", "fusion_lat": 0.0, "is_disabled": 0, "rental_uris": {"ios": "https://dc.lft.to/lastmile_qr_scan", "android": "https://dc.lft.to/lastmile_qr_scan"}}, {"name": "2248d1a24828d45eca0e37796e50b265", "lon": -77.02601183333333, "lat": 38.96240133333333, "type": "electric_bike", "fusion_lon": 0.0, "is_reserved": 0, "bike_id": "2248d1a24828d45eca0e37796e50b265", "fusion_lat": 0.0, "is_disabled": 0, "rental_uris": {"ios": "https://dc.lft.to/lastmile_qr_scan", "android": "https://dc.lft.to/lastmile_qr_scan"}}, {"name": "3320e2e86309291d40c9d4673efdbe82", "lon": -77.01730933333333, "lat": 38.90381816666667, "type": "electric_scooter", "fusion_lon": 0.0, "is_reserved": 0, "bike_id": "3320e2e86309291d40c9d4673efdbe82", "fusion_lat": 0.0, "is_disabled": 0, "rental_uris": {"ios": "https://dc.lft.to/lastmile_qr_scan", "android": "https://dc.lft.to/lastmile_qr_scan"}}, {"name": "7134322ca6f6bba5d5e48779c7865504", "lon": -77.047336, "lat": 38.91336883333334, "type": "electric_scooter", "fusion_lon": 0.0, "is_reserved": 0, "bike_id": "7134322ca6f6bba5d5e48779c7865504", "fusion_lat": 0.0, "is_disabled": 0, "rental_uris": {"ios": "https://dc.lft.to/lastmile_qr_scan", "android": "https://dc.lft.to/lastmile_qr_scan"}}, {"name": "5175db6b2fee51d6c2325469d36a5b59", "lon": -77.01752866666666, "lat": 38.883217, "type": "electric_scooter", "fusion_lon": 0.0, "is_reserved": 0, "bike_id": "5175db6b2fee51d6c2325469d36a5b59", "fusion_lat": 0.0, "is_disabled": 0, "rental_uris": {"ios": "https://dc.lft.to/lastmile_qr_scan", "android": "https://dc.lft.to/lastmile_qr_scan"}}, {"name": "dd61bd7334329c9e25b9e96ee3718d7a", "lon": -76.996256, "lat": 38.900322333333335, "type": "electric_scooter", "fusion_lon": 0.0, "is_reserved": 0, "bike_id": "dd61bd7334329c9e25b9e96ee3718d7a", "fusion_lat": 0.0, "is_disabled": 0, "rental_uris": {"ios": "https://dc.lft.to/lastmile_qr_scan", "android": "https://dc.lft.to/lastmile_qr_scan"}}, {"name": "21a81d3ef92cf0b120c0261154dff376", "lon": -77.03816733333333, "lat": 38.914137333333336, "type": "electric_scooter", "fusion_lon": 0.0, "is_reserved": 0, "bike_id": "21a81d3ef92cf0b120c0261154dff376", "fusion_lat": 0.0, "is_disabled": 0, "rental_uris": {"ios": "https://dc.lft.to/lastmile_qr_scan", "android": "https://dc.lft.to/lastmile_qr_scan"}}, {"name": "903a9fb352e918146f03fa9554fd5e3c", "lon": -77.039447, "lat": 38.902340833333334, "type": "electric_scooter", "fusion_lon": 0.0, "is_reserved": 0, "bike_id": "903a9fb352e918146f03fa9554fd5e3c", "fusion_lat": 0.0, "is_disabled": 0, "rental_uris": {"ios": "https://dc.lft.to/lastmile_qr_scan", "android": "https://dc.lft.to/lastmile_qr_scan"}}, {"name": "3574efdfa00683f35592af09128b5a9c", "lon": -77.02765316666667, "lat": 38.95419483333333, "type": "electric_scooter", "fusion_lon": 0.0, "is_reserved": 0, "bike_id": "3574efdfa00683f35592af09128b5a9c", "fusion_lat": 0.0, "is_disabled": 0, "rental_uris": {"ios": "https://dc.lft.to/lastmile_qr_scan", "android": "https://dc.lft.to/lastmile_qr_scan"}}, {"name": "dd58444126fc12c317d4c414d165ec9e", "lon": -77.021778, "lat": 38.91562033333334, "type": "electric_scooter", "fusion_lon": 0.0, "is_reserved": 0, "bike_id": "dd58444126fc12c317d4c414d165ec9e", "fusion_lat": 0.0, "is_disabled": 0, "rental_uris": {"ios": "https://dc.lft.to/lastmile_qr_scan", "android": "https://dc.lft.to/lastmile_qr_scan"}}, {"name": "5a696239c8bcefc01b9c0240722e4429", "lon": -76.933471, "lat": 38.899034666666665, "type": "electric_scooter", "fusion_lon": 0.0, "is_reserved": 0, "bike_id": "5a696239c8bcefc01b9c0240722e4429", "fusion_lat": 0.0, "is_disabled": 0, "rental_uris": {"ios": "https://dc.lft.to/lastmile_qr_scan", "android": "https://dc.lft.to/lastmile_qr_scan"}}, {"name": "0ebae4aa22dcc45b44acc52381be7329", "lon": -77.05003466666666, "lat": 38.892318333333336, "type": "electric_scooter", "fusion_lon": 0.0, "is_reserved": 0, "bike_id": "0ebae4aa22dcc45b44acc52381be7329", "fusion_lat": 0.0, "is_disabled": 0, "rental_uris": {"ios": "https://dc.lft.to/lastmile_qr_scan", "android": "https://dc.lft.to/lastmile_qr_scan"}}, {"name": "14cff4f149a0a9957bb96154415b5927", "lon": -76.97727666666667, "lat": 38.895194833333335, "type": "electric_scooter", "fusion_lon": 0.0, "is_reserved": 0, "bike_id": "14cff4f149a0a9957bb96154415b5927", "fusion_lat": 0.0, "is_disabled": 0, "rental_uris": {"ios": "https://dc.lft.to/lastmile_qr_scan", "android": "https://dc.lft.to/lastmile_qr_scan"}}, {"name": "3c6ab9fc532dd27b3f25abebb2cdf26d", "lon": -76.979084, "lat": 38.86352566666667, "type": "electric_scooter", "fusion_lon": 0.0, "is_reserved": 0, "bike_id": "3c6ab9fc532dd27b3f25abebb2cdf26d", "fusion_lat": 0.0, "is_disabled": 0, "rental_uris": {"ios": "https://dc.lft.to/lastmile_qr_scan", "android": "https://dc.lft.to/lastmile_qr_scan"}}, {"name": "6e46b0630ea58e7b39ccb0a109ff0a48", "lon": -77.00483883333334, "lat": 38.87476933333333, "type": "electric_scooter", "fusion_lon": 0.0, "is_reserved": 0, "bike_id": "6e46b0630ea58e7b39ccb0a109ff0a48", "fusion_lat": 0.0, "is_disabled": 0, "rental_uris": {"ios": "https://dc.lft.to/lastmile_qr_scan", "android": "https://dc.lft.to/lastmile_qr_scan"}}, {"name": "82b83c6424b766801cbaed4020e6f734", "lon": -77.03340133333333, "lat": 38.89826883333333, "type": "electric_scooter", "fusion_lon": 0.0, "is_reserved": 0, "bike_id": "82b83c6424b766801cbaed4020e6f734", "fusion_lat": 0.0, "is_disabled": 0, "rental_uris": {"ios": "https://dc.lft.to/lastmile_qr_scan", "android": "https://dc.lft.to/lastmile_qr_scan"}}, {"name": "79955ad127c1368a148a9b7e20bc9fef", "lon": -77.03242416666667, "lat": 38.896699, "type": "electric_scooter", "fusion_lon": 0.0, "is_reserved": 0, "bike_id": "79955ad127c1368a148a9b7e20bc9fef", "fusion_lat": 0.0, "is_disabled": 0, "rental_uris": {"ios": "https://dc.lft.to/lastmile_qr_scan", "android": "https://dc.lft.to/lastmile_qr_scan"}}, {"name": "6e63737b7db2bca0c53dce7505c21686", "lon": -76.99759633333333, "lat": 38.887659, "type": "electric_scooter", "fusion_lon": 0.0, "is_reserved": 0, "bike_id": "6e63737b7db2bca0c53dce7505c21686", "fusion_lat": 0.0, "is_disabled": 0, "rental_uris": {"ios": "https://dc.lft.to/lastmile_qr_scan", "android": "https://dc.lft.to/lastmile_qr_scan"}}, {"name": "14a6ca72a0b365e330df95227c38034d", "lon": -76.98212883333333, "lat": 38.9851245, "type": "electric_bike", "fusion_lon": 0.0, "is_reserved": 0, "bike_id": "14a6ca72a0b365e330df95227c38034d", "fusion_lat": 0.0, "is_disabled": 0, "rental_uris": {"ios": "https://dc.lft.to/lastmile_qr_scan", "android": "https://dc.lft.to/lastmile_qr_scan"}}, {"name": "d89b64c996448aefe403f6e64da38af8", "lon": -77.01773816666666, "lat": 38.98272583333333, "type": "electric_bike", "fusion_lon": 0.0, "is_reserved": 0, "bike_id": "d89b64c996448aefe403f6e64da38af8", "fusion_lat": 0.0, "is_disabled": 0, "rental_uris": {"ios": "https://dc.lft.to/lastmile_qr_scan", "android": "https://dc.lft.to/lastmile_qr_scan"}}, {"name": "f855203fa573f8c32b810dccef1d2f38", "lon": -76.94939683333334, "lat": 38.895045833333334, "type": "electric_scooter", "fusion_lon": 0.0, "is_reserved": 0, "bike_id": "f855203fa573f8c32b810dccef1d2f38", "fusion_lat": 0.0, "is_disabled": 0, "rental_uris": {"ios": "https://dc.lft.to/lastmile_qr_scan", "android": "https://dc.lft.to/lastmile_qr_scan"}}, {"name": "e55080fc185b829f58c869cf1d3d3415", "lon": -77.0172945, "lat": 38.902579833333334, "type": "electric_scooter", "fusion_lon": 0.0, "is_reserved": 0, "bike_id": "e55080fc185b829f58c869cf1d3d3415", "fusion_lat": 0.0, "is_disabled": 0, "rental_uris": {"ios": "https://dc.lft.to/lastmile_qr_scan", "android": "https://dc.lft.to/lastmile_qr_scan"}}, {"name": "bab273a2507f0378be16130536af32bb", "lon": -77.03152483333334, "lat": 38.92788983333333, "type": "electric_scooter", "fusion_lon": 0.0, "is_reserved": 0, "bike_id": "bab273a2507f0378be16130536af32bb", "fusion_lat": 0.0, "is_disabled": 0, "rental_uris": {"ios": "https://dc.lft.to/lastmile_qr_scan", "android": "https://dc.lft.to/lastmile_qr_scan"}}, {"name": "1b36983d0937409bdaaf479ef3f86c3d", "lon": -77.03506833333333, "lat": 38.9310825, "type": "electric_bike", "fusion_lon": 0.0, "is_reserved": 0, "bike_id": "1b36983d0937409bdaaf479ef3f86c3d", "fusion_lat": 0.0, "is_disabled": 0, "rental_uris": {"ios": "https://dc.lft.to/lastmile_qr_scan", "android": "https://dc.lft.to/lastmile_qr_scan"}}, {"name": "c79a29256cf91749b1751bd27c1845a3", "lon": -77.02413883333334, "lat": 38.9141785, "type": "electric_bike", "fusion_lon": 0.0, "is_reserved": 0, "bike_id": "c79a29256cf91749b1751bd27c1845a3", "fusion_lat": 0.0, "is_disabled": 0, "rental_uris": {"ios": "https://dc.lft.to/lastmile_qr_scan", "android": "https://dc.lft.to/lastmile_qr_scan"}}, {"name": "b2236f019e73400c1e73174fe125ae66", "lon": -77.04597116666666, "lat": 38.92331, "type": "electric_scooter", "fusion_lon": 0.0, "is_reserved": 0, "bike_id": "b2236f019e73400c1e73174fe125ae66", "fusion_lat": 0.0, "is_disabled": 0, "rental_uris": {"ios": "https://dc.lft.to/lastmile_qr_scan", "android": "https://dc.lft.to/lastmile_qr_scan"}}, {"name": "72cc6df5305a408ff646fcba1e45872d", "lon": -76.94683883333333, "lat": 38.88626683333333, "type": "electric_scooter", "fusion_lon": 0.0, "is_reserved": 0, "bike_id": "72cc6df5305a408ff646fcba1e45872d", "fusion_lat": 0.0, "is_disabled": 0, "rental_uris": {"ios": "https://dc.lft.to/lastmile_qr_scan", "android": "https://dc.lft.to/lastmile_qr_scan"}}, {"name": "21254aa115ce8c8eb846b991633aa2f9", "lon": -77.04183283333333, "lat": 38.89222683333333, "type": "electric_scooter", "fusion_lon": 0.0, "is_reserved": 0, "bike_id": "21254aa115ce8c8eb846b991633aa2f9", "fusion_lat": 0.0, "is_disabled": 0, "rental_uris": {"ios": "https://dc.lft.to/lastmile_qr_scan", "android": "https://dc.lft.to/lastmile_qr_scan"}}, {"name": "b8bb065edcafe69bd23750d90693dd6f", "lon": -77.023266, "lat": 38.89729166666667, "type": "electric_scooter", "fusion_lon": 0.0, "is_reserved": 0, "bike_id": "b8bb065edcafe69bd23750d90693dd6f", "fusion_lat": 0.0, "is_disabled": 0, "rental_uris": {"ios": "https://dc.lft.to/lastmile_qr_scan", "android": "https://dc.lft.to/lastmile_qr_scan"}}, {"name": "a18d59e0452e3a29c90584bc6f0d6460", "lon": -77.0123235, "lat": 38.916798166666666, "type": "electric_scooter", "fusion_lon": 0.0, "is_reserved": 0, "bike_id": "a18d59e0452e3a29c90584bc6f0d6460", "fusion_lat": 0.0, "is_disabled": 0, "rental_uris": {"ios": "https://dc.lft.to/lastmile_qr_scan", "android": "https://dc.lft.to/lastmile_qr_scan"}}, {"name": "ee779df3292ce07d3ecaa8464e3cca7d", "lon": -77.03247933333333, "lat": 38.9156495, "type": "electric_scooter", "fusion_lon": 0.0, "is_reserved": 0, "bike_id": "ee779df3292ce07d3ecaa8464e3cca7d", "fusion_lat": 0.0, "is_disabled": 0, "rental_uris": {"ios": "https://dc.lft.to/lastmile_qr_scan", "android": "https://dc.lft.to/lastmile_qr_scan"}}, {"name": "836829e967b6d0a62ca8fc266d214167", "lon": -77.03500466666667, "lat": 38.96385033333333, "type": "electric_scooter", "fusion_lon": 0.0, "is_reserved": 0, "bike_id": "836829e967b6d0a62ca8fc266d214167", "fusion_lat": 0.0, "is_disabled": 0, "rental_uris": {"ios": "https://dc.lft.to/lastmile_qr_scan", "android": "https://dc.lft.to/lastmile_qr_scan"}}, {"name": "9d45fa5fea005a3f7a64d824f4e9d7f6", "lon": -77.023978, "lat": 38.91990166666667, "type": "electric_scooter", "fusion_lon": 0.0, "is_reserved": 0, "bike_id": "9d45fa5fea005a3f7a64d824f4e9d7f6", "fusion_lat": 0.0, "is_disabled": 0, "rental_uris": {"ios": "https://dc.lft.to/lastmile_qr_scan", "android": "https://dc.lft.to/lastmile_qr_scan"}}, {"name": "e5ab53d835722ef6718e40d52eff5791", "lon": -77.11227616666666, "lat": 38.812632, "type": "electric_bike", "fusion_lon": 0.0, "is_reserved": 0, "bike_id": "e5ab53d835722ef6718e40d52eff5791", "fusion_lat": 0.0, "is_disabled": 0, "rental_uris": {"ios": "https://dc.lft.to/lastmile_qr_scan", "android": "https://dc.lft.to/lastmile_qr_scan"}}, {"name": "f112750b3cd1e73e017982bcf692f343", "lon": -77.03258666666666, "lat": 38.93405383333333, "type": "electric_scooter", "fusion_lon": 0.0, "is_reserved": 0, "bike_id": "f112750b3cd1e73e017982bcf692f343", "fusion_lat": 0.0, "is_disabled": 0, "rental_uris": {"ios": "https://dc.lft.to/lastmile_qr_scan", "android": "https://dc.lft.to/lastmile_qr_scan"}}, {"name": "cabdb765644be8e596fba9c06190bac1", "lon": -77.04096383333334, "lat": 38.9177535, "type": "electric_scooter", "fusion_lon": 0.0, "is_reserved": 0, "bike_id": "cabdb765644be8e596fba9c06190bac1", "fusion_lat": 0.0, "is_disabled": 0, "rental_uris": {"ios": "https://dc.lft.to/lastmile_qr_scan", "android": "https://dc.lft.to/lastmile_qr_scan"}}, {"name": "3e349f5f50805340a11443c29f974d1c", "lon": -77.0047905, "lat": 38.91120866666667, "type": "electric_scooter", "fusion_lon": 0.0, "is_reserved": 0, "bike_id": "3e349f5f50805340a11443c29f974d1c", "fusion_lat": 0.0, "is_disabled": 0, "rental_uris": {"ios": "https://dc.lft.to/lastmile_qr_scan", "android": "https://dc.lft.to/lastmile_qr_scan"}}, {"name": "5b5d21c153ba94fb616b5d39e0002666", "lon": -77.0306665, "lat": 38.927214666666664, "type": "electric_scooter", "fusion_lon": 0.0, "is_reserved": 0, "bike_id": "5b5d21c153ba94fb616b5d39e0002666", "fusion_lat": 0.0, "is_disabled": 0, "rental_uris": {"ios": "https://dc.lft.to/lastmile_qr_scan", "android": "https://dc.lft.to/lastmile_qr_scan"}}, {"name": "1a9eaac6555dcb1afa8f60aa98f8dada", "lon": -77.03019716666667, "lat": 38.99132733333333, "type": "electric_bike", "fusion_lon": 0.0, "is_reserved": 0, "bike_id": "1a9eaac6555dcb1afa8f60aa98f8dada", "fusion_lat": 0.0, "is_disabled": 0, "rental_uris": {"ios": "https://dc.lft.to/lastmile_qr_scan", "android": "https://dc.lft.to/lastmile_qr_scan"}}, {"name": "d7d61b1253a377659ee67a6e79b221d9", "lon": -77.03175083333333, "lat": 38.919275666666664, "type": "electric_scooter", "fusion_lon": 0.0, "is_reserved": 0, "bike_id": "d7d61b1253a377659ee67a6e79b221d9", "fusion_lat": 0.0, "is_disabled": 0, "rental_uris": {"ios": "https://dc.lft.to/lastmile_qr_scan", "android": "https://dc.lft.to/lastmile_qr_scan"}}, {"name": "2ce8d5caf76d91cac2a30c90303f2fe2", "lon": -77.00130066666667, "lat": 38.8780095, "type": "electric_scooter", "fusion_lon": 0.0, "is_reserved": 0, "bike_id": "2ce8d5caf76d91cac2a30c90303f2fe2", "fusion_lat": 0.0, "is_disabled": 0, "rental_uris": {"ios": "https://dc.lft.to/lastmile_qr_scan", "android": "https://dc.lft.to/lastmile_qr_scan"}}, {"name": "93d1a672c480622a6369646b25238a55", "lon": -77.03371716666666, "lat": 38.920473666666666, "type": "electric_scooter", "fusion_lon": 0.0, "is_reserved": 0, "bike_id": "93d1a672c480622a6369646b25238a55", "fusion_lat": 0.0, "is_disabled": 0, "rental_uris": {"ios": "https://dc.lft.to/lastmile_qr_scan", "android": "https://dc.lft.to/lastmile_qr_scan"}}, {"name": "4df9fc8507b619204a6d5ac29443e740", "lon": -77.02714383333333, "lat": 38.9067195, "type": "electric_scooter", "fusion_lon": 0.0, "is_reserved": 0, "bike_id": "4df9fc8507b619204a6d5ac29443e740", "fusion_lat": 0.0, "is_disabled": 0, "rental_uris": {"ios": "https://dc.lft.to/lastmile_qr_scan", "android": "https://dc.lft.to/lastmile_qr_scan"}}, {"name": "9589ffea2a8a8b7ed4a276c536c2b7d0", "lon": -76.99355983333334, "lat": 38.845060833333335, "type": "electric_bike", "fusion_lon": 0.0, "is_reserved": 0, "bike_id": "9589ffea2a8a8b7ed4a276c536c2b7d0", "fusion_lat": 0.0, "is_disabled": 0, "rental_uris": {"ios": "https://dc.lft.to/lastmile_qr_scan", "android": "https://dc.lft.to/lastmile_qr_scan"}}, {"name": "594ac3e6babbb8ecbe0ffd832f50b821", "lon": -77.040005, "lat": 38.8886765, "type": "electric_scooter", "fusion_lon": 0.0, "is_reserved": 0, "bike_id": "594ac3e6babbb8ecbe0ffd832f50b821", "fusion_lat": 0.0, "is_disabled": 0, "rental_uris": {"ios": "https://dc.lft.to/lastmile_qr_scan", "android": "https://dc.lft.to/lastmile_qr_scan"}}, {"name": "18b1e061715dc5b1c3f0a9d225d5aead", "lon": -77.03453583333334, "lat": 38.905577, "type": "electric_scooter", "fusion_lon": 0.0, "is_reserved": 0, "bike_id": "18b1e061715dc5b1c3f0a9d225d5aead", "fusion_lat": 0.0, "is_disabled": 0, "rental_uris": {"ios": "https://dc.lft.to/lastmile_qr_scan", "android": "https://dc.lft.to/lastmile_qr_scan"}}, {"name": "0cde10f6f3b163fce2794189fb6d65e6", "lon": -77.03437216666667, "lat": 38.918025166666666, "type": "electric_scooter", "fusion_lon": 0.0, "is_reserved": 0, "bike_id": "0cde10f6f3b163fce2794189fb6d65e6", "fusion_lat": 0.0, "is_disabled": 0, "rental_uris": {"ios": "https://dc.lft.to/lastmile_qr_scan", "android": "https://dc.lft.to/lastmile_qr_scan"}}, {"name": "165ab40e4c925b19a6cb88110c9b6212", "lon": -76.99835033333333, "lat": 38.88325783333333, "type": "electric_scooter", "fusion_lon": 0.0, "is_reserved": 0, "bike_id": "165ab40e4c925b19a6cb88110c9b6212", "fusion_lat": 0.0, "is_disabled": 0, "rental_uris": {"ios": "https://dc.lft.to/lastmile_qr_scan", "android": "https://dc.lft.to/lastmile_qr_scan"}}, {"name": "4892e519e4c48b66282a81b80ed01138", "lon": -77.02434433333333, "lat": 38.937954, "type": "electric_scooter", "fusion_lon": 0.0, "is_reserved": 0, "bike_id": "4892e519e4c48b66282a81b80ed01138", "fusion_lat": 0.0, "is_disabled": 0, "rental_uris": {"ios": "https://dc.lft.to/lastmile_qr_scan", "android": "https://dc.lft.to/lastmile_qr_scan"}}, {"name": "50675b9bca2a62f16f5e11e83219cf74", "lon": -77.01843416666667, "lat": 38.91515483333333, "type": "electric_scooter", "fusion_lon": 0.0, "is_reserved": 0, "bike_id": "50675b9bca2a62f16f5e11e83219cf74", "fusion_lat": 0.0, "is_disabled": 0, "rental_uris": {"ios": "https://dc.lft.to/lastmile_qr_scan", "android": "https://dc.lft.to/lastmile_qr_scan"}}, {"name": "782137317d9a46ec70a701d2463572c8", "lon": -77.034472, "lat": 38.91703733333333, "type": "electric_scooter", "fusion_lon": 0.0, "is_reserved": 0, "bike_id": "782137317d9a46ec70a701d2463572c8", "fusion_lat": 0.0, "is_disabled": 0, "rental_uris": {"ios": "https://dc.lft.to/lastmile_qr_scan", "android": "https://dc.lft.to/lastmile_qr_scan"}}, {"name": "16156917343ccf4ad33477f2b3854d26", "lon": -77.03100033333334, "lat": 38.91922133333333, "type": "electric_scooter", "fusion_lon": 0.0, "is_reserved": 0, "bike_id": "16156917343ccf4ad33477f2b3854d26", "fusion_lat": 0.0, "is_disabled": 0, "rental_uris": {"ios": "https://dc.lft.to/lastmile_qr_scan", "android": "https://dc.lft.to/lastmile_qr_scan"}}, {"name": "7daa22670ae31d3a5dc7961dca97f599", "lon": -77.02294616666667, "lat": 38.910797, "type": "electric_scooter", "fusion_lon": 0.0, "is_reserved": 0, "bike_id": "7daa22670ae31d3a5dc7961dca97f599", "fusion_lat": 0.0, "is_disabled": 0, "rental_uris": {"ios": "https://dc.lft.to/lastmile_qr_scan", "android": "https://dc.lft.to/lastmile_qr_scan"}}, {"name": "23ca32f29e0f2526cde944dea14dc878", "lon": -77.032829, "lat": 38.938779, "type": "electric_scooter", "fusion_lon": 0.0, "is_reserved": 0, "bike_id": "23ca32f29e0f2526cde944dea14dc878", "fusion_lat": 0.0, "is_disabled": 0, "rental_uris": {"ios": "https://dc.lft.to/lastmile_qr_scan", "android": "https://dc.lft.to/lastmile_qr_scan"}}, {"name": "22b7f63c0fcee5a900118e0b6c298236", "lon": -77.03809083333333, "lat": 38.925178333333335, "type": "electric_scooter", "fusion_lon": 0.0, "is_reserved": 0, "bike_id": "22b7f63c0fcee5a900118e0b6c298236", "fusion_lat": 0.0, "is_disabled": 0, "rental_uris": {"ios": "https://dc.lft.to/lastmile_qr_scan", "android": "https://dc.lft.to/lastmile_qr_scan"}}, {"name": "8497be57dad1deb6474485e52703849b", "lon": -77.02652333333333, "lat": 38.897387333333334, "type": "electric_scooter", "fusion_lon": 0.0, "is_reserved": 0, "bike_id": "8497be57dad1deb6474485e52703849b", "fusion_lat": 0.0, "is_disabled": 0, "rental_uris": {"ios": "https://dc.lft.to/lastmile_qr_scan", "android": "https://dc.lft.to/lastmile_qr_scan"}}, {"name": "dbf803b5dcdfc26f953f6e893e1c7d06", "lon": -77.00047633333334, "lat": 38.91899566666667, "type": "electric_scooter", "fusion_lon": 0.0, "is_reserved": 0, "bike_id": "dbf803b5dcdfc26f953f6e893e1c7d06", "fusion_lat": 0.0, "is_disabled": 0, "rental_uris": {"ios": "https://dc.lft.to/lastmile_qr_scan", "android": "https://dc.lft.to/lastmile_qr_scan"}}, {"name": "9df64101862b33c3189734ae1493334d", "lon": -77.03664283333333, "lat": 38.92722033333333, "type": "electric_scooter", "fusion_lon": 0.0, "is_reserved": 0, "bike_id": "9df64101862b33c3189734ae1493334d", "fusion_lat": 0.0, "is_disabled": 0, "rental_uris": {"ios": "https://dc.lft.to/lastmile_qr_scan", "android": "https://dc.lft.to/lastmile_qr_scan"}}, {"name": "c4ad6f2927caa396128db8d5c4700508", "lon": -76.99782266666666, "lat": 38.909040833333336, "type": "electric_scooter", "fusion_lon": 0.0, "is_reserved": 0, "bike_id": "c4ad6f2927caa396128db8d5c4700508", "fusion_lat": 0.0, "is_disabled": 0, "rental_uris": {"ios": "https://dc.lft.to/lastmile_qr_scan", "android": "https://dc.lft.to/lastmile_qr_scan"}}, {"name": "2308c1d86919a2b9c86ea7e6ed3c35cc", "lon": -77.02723833333333, "lat": 38.9495665, "type": "electric_scooter", "fusion_lon": 0.0, "is_reserved": 0, "bike_id": "2308c1d86919a2b9c86ea7e6ed3c35cc", "fusion_lat": 0.0, "is_disabled": 0, "rental_uris": {"ios": "https://dc.lft.to/lastmile_qr_scan", "android": "https://dc.lft.to/lastmile_qr_scan"}}, {"name": "a05a5c1fe46b716595839e5294f913af", "lon": -77.04801733333333, "lat": 38.89219416666667, "type": "electric_scooter", "fusion_lon": 0.0, "is_reserved": 0, "bike_id": "a05a5c1fe46b716595839e5294f913af", "fusion_lat": 0.0, "is_disabled": 0, "rental_uris": {"ios": "https://dc.lft.to/lastmile_qr_scan", "android": "https://dc.lft.to/lastmile_qr_scan"}}, {"name": "5eed850767d77c73db5939ad5bd850c9", "lon": -77.03189916666666, "lat": 38.91219183333333, "type": "electric_scooter", "fusion_lon": 0.0, "is_reserved": 0, "bike_id": "5eed850767d77c73db5939ad5bd850c9", "fusion_lat": 0.0, "is_disabled": 0, "rental_uris": {"ios": "https://dc.lft.to/lastmile_qr_scan", "android": "https://dc.lft.to/lastmile_qr_scan"}}, {"name": "daf3a5182c13efd014e44a0973c846cb", "lon": -77.02299133333334, "lat": 38.920823166666665, "type": "electric_scooter", "fusion_lon": 0.0, "is_reserved": 0, "bike_id": "daf3a5182c13efd014e44a0973c846cb", "fusion_lat": 0.0, "is_disabled": 0, "rental_uris": {"ios": "https://dc.lft.to/lastmile_qr_scan", "android": "https://dc.lft.to/lastmile_qr_scan"}}, {"name": "edb96a78cde53f011ae6344e01ce4b48", "lon": -76.99609166666667, "lat": 38.9036305, "type": "electric_scooter", "fusion_lon": 0.0, "is_reserved": 0, "bike_id": "edb96a78cde53f011ae6344e01ce4b48", "fusion_lat": 0.0, "is_disabled": 0, "rental_uris": {"ios": "https://dc.lft.to/lastmile_qr_scan", "android": "https://dc.lft.to/lastmile_qr_scan"}}, {"name": "724fef443eb81a5e01c03dca4db25d93", "lon": -76.93615316666667, "lat": 38.886709333333336, "type": "electric_scooter", "fusion_lon": 0.0, "is_reserved": 0, "bike_id": "724fef443eb81a5e01c03dca4db25d93", "fusion_lat": 0.0, "is_disabled": 0, "rental_uris": {"ios": "https://dc.lft.to/lastmile_qr_scan", "android": "https://dc.lft.to/lastmile_qr_scan"}}, {"name": "0f5f9c59ea64f97cfc330a5516c51bd3", "lon": -77.018558, "lat": 38.92278566666667, "type": "electric_scooter", "fusion_lon": 0.0, "is_reserved": 0, "bike_id": "0f5f9c59ea64f97cfc330a5516c51bd3", "fusion_lat": 0.0, "is_disabled": 0, "rental_uris": {"ios": "https://dc.lft.to/lastmile_qr_scan", "android": "https://dc.lft.to/lastmile_qr_scan"}}, {"name": "467fa499275a1433c4f2cc4708216eaa", "lon": -77.035185, "lat": 38.921516833333335, "type": "electric_scooter", "fusion_lon": 0.0, "is_reserved": 0, "bike_id": "467fa499275a1433c4f2cc4708216eaa", "fusion_lat": 0.0, "is_disabled": 0, "rental_uris": {"ios": "https://dc.lft.to/lastmile_qr_scan", "android": "https://dc.lft.to/lastmile_qr_scan"}}, {"name": "56a980a854efc24a80df7564e6994c9e", "lon": -77.04302766666666, "lat": 38.926525833333336, "type": "electric_scooter", "fusion_lon": 0.0, "is_reserved": 0, "bike_id": "56a980a854efc24a80df7564e6994c9e", "fusion_lat": 0.0, "is_disabled": 0, "rental_uris": {"ios": "https://dc.lft.to/lastmile_qr_scan", "android": "https://dc.lft.to/lastmile_qr_scan"}}, {"name": "954c7e8a38362688c4b0125552284b2a", "lon": -76.97243683333333, "lat": 38.854593, "type": "electric_bike", "fusion_lon": 0.0, "is_reserved": 0, "bike_id": "954c7e8a38362688c4b0125552284b2a", "fusion_lat": 0.0, "is_disabled": 0, "rental_uris": {"ios": "https://dc.lft.to/lastmile_qr_scan", "android": "https://dc.lft.to/lastmile_qr_scan"}}, {"name": "00fb2e768df00288daa866c5549a1525", "lon": -77.03787966666667, "lat": 38.925040333333335, "type": "electric_scooter", "fusion_lon": 0.0, "is_reserved": 0, "bike_id": "00fb2e768df00288daa866c5549a1525", "fusion_lat": 0.0, "is_disabled": 0, "rental_uris": {"ios": "https://dc.lft.to/lastmile_qr_scan", "android": "https://dc.lft.to/lastmile_qr_scan"}}, {"name": "4cb728d3751d5097524ae82b48d53454", "lon": -77.05327183333333, "lat": 38.927866, "type": "electric_scooter", "fusion_lon": 0.0, "is_reserved": 0, "bike_id": "4cb728d3751d5097524ae82b48d53454", "fusion_lat": 0.0, "is_disabled": 0, "rental_uris": {"ios": "https://dc.lft.to/lastmile_qr_scan", "android": "https://dc.lft.to/lastmile_qr_scan"}}, {"name": "9238579906575d753d3312893083db08", "lon": -77.00775666666667, "lat": 38.926693, "type": "electric_scooter", "fusion_lon": 0.0, "is_reserved": 0, "bike_id": "9238579906575d753d3312893083db08", "fusion_lat": 0.0, "is_disabled": 0, "rental_uris": {"ios": "https://dc.lft.to/lastmile_qr_scan", "android": "https://dc.lft.to/lastmile_qr_scan"}}, {"name": "13d18546a8d44f823bef452777327530", "lon": -76.985235, "lat": 38.866575166666664, "type": "electric_scooter", "fusion_lon": 0.0, "is_reserved": 0, "bike_id": "13d18546a8d44f823bef452777327530", "fusion_lat": 0.0, "is_disabled": 0, "rental_uris": {"ios": "https://dc.lft.to/lastmile_qr_scan", "android": "https://dc.lft.to/lastmile_qr_scan"}}, {"name": "9c091b8592d25ed3740b0d1292fc84ec", "lon": -77.03430816666666, "lat": 38.96625066666667, "type": "electric_bike", "fusion_lon": 0.0, "is_reserved": 0, "bike_id": "9c091b8592d25ed3740b0d1292fc84ec", "fusion_lat": 0.0, "is_disabled": 0, "rental_uris": {"ios": "https://dc.lft.to/lastmile_qr_scan", "android": "https://dc.lft.to/lastmile_qr_scan"}}, {"name": "08cd4b42514a37b202185dcdcaa8cfcd", "lon": -77.0145395, "lat": 38.917712333333334, "type": "electric_scooter", "fusion_lon": 0.0, "is_reserved": 0, "bike_id": "08cd4b42514a37b202185dcdcaa8cfcd", "fusion_lat": 0.0, "is_disabled": 0, "rental_uris": {"ios": "https://dc.lft.to/lastmile_qr_scan", "android": "https://dc.lft.to/lastmile_qr_scan"}}, {"name": "c31ff80c70fcb316ebaefc705ee96886", "lon": -77.024349, "lat": 38.92083516666667, "type": "electric_scooter", "fusion_lon": 0.0, "is_reserved": 0, "bike_id": "c31ff80c70fcb316ebaefc705ee96886", "fusion_lat": 0.0, "is_disabled": 0, "rental_uris": {"ios": "https://dc.lft.to/lastmile_qr_scan", "android": "https://dc.lft.to/lastmile_qr_scan"}}, {"name": "334f5cf18fa166bb575bef4dfcbd607b", "lon": -76.98609883333333, "lat": 38.86526766666667, "type": "electric_scooter", "fusion_lon": 0.0, "is_reserved": 0, "bike_id": "334f5cf18fa166bb575bef4dfcbd607b", "fusion_lat": 0.0, "is_disabled": 0, "rental_uris": {"ios": "https://dc.lft.to/lastmile_qr_scan", "android": "https://dc.lft.to/lastmile_qr_scan"}}, {"name": "6595e13246af18215649ab188c15f0c8", "lon": -77.02392733333333, "lat": 38.919892, "type": "electric_scooter", "fusion_lon": 0.0, "is_reserved": 0, "bike_id": "6595e13246af18215649ab188c15f0c8", "fusion_lat": 0.0, "is_disabled": 0, "rental_uris": {"ios": "https://dc.lft.to/lastmile_qr_scan", "android": "https://dc.lft.to/lastmile_qr_scan"}}, {"name": "154f82ae45801e8fc50fe7a5d7b34c4a", "lon": -77.011325, "lat": 38.916913, "type": "electric_scooter", "fusion_lon": 0.0, "is_reserved": 0, "bike_id": "154f82ae45801e8fc50fe7a5d7b34c4a", "fusion_lat": 0.0, "is_disabled": 0, "rental_uris": {"ios": "https://dc.lft.to/lastmile_qr_scan", "android": "https://dc.lft.to/lastmile_qr_scan"}}, {"name": "18e278567245daa2aa29e1e587d91c99", "lon": -77.0381215, "lat": 38.90663116666666, "type": "electric_scooter", "fusion_lon": 0.0, "is_reserved": 0, "bike_id": "18e278567245daa2aa29e1e587d91c99", "fusion_lat": 0.0, "is_disabled": 0, "rental_uris": {"ios": "https://dc.lft.to/lastmile_qr_scan", "android": "https://dc.lft.to/lastmile_qr_scan"}}, {"name": "000365ce039e9e74d299dcd567f031f8", "lon": -77.0331245, "lat": 38.95614033333333, "type": "electric_scooter", "fusion_lon": 0.0, "is_reserved": 0, "bike_id": "000365ce039e9e74d299dcd567f031f8", "fusion_lat": 0.0, "is_disabled": 0, "rental_uris": {"ios": "https://dc.lft.to/lastmile_qr_scan", "android": "https://dc.lft.to/lastmile_qr_scan"}}, {"name": "83cf291f995e5db661e67d4f601d1ba5", "lon": -76.9463865, "lat": 38.898416166666664, "type": "electric_scooter", "fusion_lon": 0.0, "is_reserved": 0, "bike_id": "83cf291f995e5db661e67d4f601d1ba5", "fusion_lat": 0.0, "is_disabled": 0, "rental_uris": {"ios": "https://dc.lft.to/lastmile_qr_scan", "android": "https://dc.lft.to/lastmile_qr_scan"}}, {"name": "dd37d9353581d58bf685adf683fe0ebc", "lon": -77.12525483333333, "lat": 39.05636166666667, "type": "electric_bike", "fusion_lon": 0.0, "is_reserved": 0, "bike_id": "dd37d9353581d58bf685adf683fe0ebc", "fusion_lat": 0.0, "is_disabled": 0, "rental_uris": {"ios": "https://dc.lft.to/lastmile_qr_scan", "android": "https://dc.lft.to/lastmile_qr_scan"}}, {"name": "49f0b68773f141881b1129ed246b82e5", "lon": -77.01633183333334, "lat": 38.903483666666666, "type": "electric_scooter", "fusion_lon": 0.0, "is_reserved": 0, "bike_id": "49f0b68773f141881b1129ed246b82e5", "fusion_lat": 0.0, "is_disabled": 0, "rental_uris": {"ios": "https://dc.lft.to/lastmile_qr_scan", "android": "https://dc.lft.to/lastmile_qr_scan"}}, {"name": "97556cb396653ab4c95ef5862013a5df", "lon": -76.97628, "lat": 38.90571666666666, "type": "electric_scooter", "fusion_lon": 0.0, "is_reserved": 0, "bike_id": "97556cb396653ab4c95ef5862013a5df", "fusion_lat": 0.0, "is_disabled": 0, "rental_uris": {"ios": "https://dc.lft.to/lastmile_qr_scan", "android": "https://dc.lft.to/lastmile_qr_scan"}}, {"name": "4ca0e3983b1e181260efc9e8706bf136", "lon": -77.04182383333334, "lat": 38.9155315, "type": "electric_scooter", "fusion_lon": 0.0, "is_reserved": 0, "bike_id": "4ca0e3983b1e181260efc9e8706bf136", "fusion_lat": 0.0, "is_disabled": 0, "rental_uris": {"ios": "https://dc.lft.to/lastmile_qr_scan", "android": "https://dc.lft.to/lastmile_qr_scan"}}, {"name": "8771e6cbd460e7748822a5acc2d42376", "lon": -77.02683016666667, "lat": 38.92779216666667, "type": "electric_scooter", "fusion_lon": 0.0, "is_reserved": 0, "bike_id": "8771e6cbd460e7748822a5acc2d42376", "fusion_lat": 0.0, "is_disabled": 0, "rental_uris": {"ios": "https://dc.lft.to/lastmile_qr_scan", "android": "https://dc.lft.to/lastmile_qr_scan"}}, {"name": "9b4003dbdf3052ccd3d3965e37e18c4e", "lon": -77.0395705, "lat": 38.93064, "type": "electric_scooter", "fusion_lon": 0.0, "is_reserved": 0, "bike_id": "9b4003dbdf3052ccd3d3965e37e18c4e", "fusion_lat": 0.0, "is_disabled": 0, "rental_uris": {"ios": "https://dc.lft.to/lastmile_qr_scan", "android": "https://dc.lft.to/lastmile_qr_scan"}}, {"name": "aa4d75513b4584986d858f25f8cbde87", "lon": -77.057024, "lat": 38.90612133333333, "type": "electric_scooter", "fusion_lon": 0.0, "is_reserved": 0, "bike_id": "aa4d75513b4584986d858f25f8cbde87", "fusion_lat": 0.0, "is_disabled": 0, "rental_uris": {"ios": "https://dc.lft.to/lastmile_qr_scan", "android": "https://dc.lft.to/lastmile_qr_scan"}}, {"name": "a5c078316b1c3d3c986014563425e76a", "lon": -77.00760966666667, "lat": 38.89834283333333, "type": "electric_scooter", "fusion_lon": 0.0, "is_reserved": 0, "bike_id": "a5c078316b1c3d3c986014563425e76a", "fusion_lat": 0.0, "is_disabled": 0, "rental_uris": {"ios": "https://dc.lft.to/lastmile_qr_scan", "android": "https://dc.lft.to/lastmile_qr_scan"}}, {"name": "a57a950167417d5da9e7167612a865a4", "lon": -77.00211, "lat": 38.900683, "type": "electric_scooter", "fusion_lon": 0.0, "is_reserved": 0, "bike_id": "a57a950167417d5da9e7167612a865a4", "fusion_lat": 0.0, "is_disabled": 0, "rental_uris": {"ios": "https://dc.lft.to/lastmile_qr_scan", "android": "https://dc.lft.to/lastmile_qr_scan"}}, {"name": "d145526eac061f1a6d3442c329bca53a", "lon": -77.004361, "lat": 38.91239933333333, "type": "electric_scooter", "fusion_lon": 0.0, "is_reserved": 0, "bike_id": "d145526eac061f1a6d3442c329bca53a", "fusion_lat": 0.0, "is_disabled": 0, "rental_uris": {"ios": "https://dc.lft.to/lastmile_qr_scan", "android": "https://dc.lft.to/lastmile_qr_scan"}}, {"name": "7728a881a61587ae2967c0f33715afea", "lon": -77.038739, "lat": 38.93425383333334, "type": "electric_scooter", "fusion_lon": 0.0, "is_reserved": 0, "bike_id": "7728a881a61587ae2967c0f33715afea", "fusion_lat": 0.0, "is_disabled": 0, "rental_uris": {"ios": "https://dc.lft.to/lastmile_qr_scan", "android": "https://dc.lft.to/lastmile_qr_scan"}}, {"name": "49813e9d18b242e279a133a5357c4c2f", "lon": -77.01073083333333, "lat": 38.90731516666666, "type": "electric_scooter", "fusion_lon": 0.0, "is_reserved": 0, "bike_id": "49813e9d18b242e279a133a5357c4c2f", "fusion_lat": 0.0, "is_disabled": 0, "rental_uris": {"ios": "https://dc.lft.to/lastmile_qr_scan", "android": "https://dc.lft.to/lastmile_qr_scan"}}, {"name": "c8e99dcb2645f0d06aadf9928d019caf", "lon": -77.0394135, "lat": 38.917575666666664, "type": "electric_scooter", "fusion_lon": 0.0, "is_reserved": 0, "bike_id": "c8e99dcb2645f0d06aadf9928d019caf", "fusion_lat": 0.0, "is_disabled": 0, "rental_uris": {"ios": "https://dc.lft.to/lastmile_qr_scan", "android": "https://dc.lft.to/lastmile_qr_scan"}}, {"name": "762f7c0f7b1d05147e4a57afbd0e763e", "lon": -77.02471633333333, "lat": 38.938875333333336, "type": "electric_bike", "fusion_lon": 0.0, "is_reserved": 0, "bike_id": "762f7c0f7b1d05147e4a57afbd0e763e", "fusion_lat": 0.0, "is_disabled": 0, "rental_uris": {"ios": "https://dc.lft.to/lastmile_qr_scan", "android": "https://dc.lft.to/lastmile_qr_scan"}}, {"name": "fd5d80e7b32e9032fce8784da165e2c5", "lon": -77.043444, "lat": 38.91050466666667, "type": "electric_scooter", "fusion_lon": 0.0, "is_reserved": 0, "bike_id": "fd5d80e7b32e9032fce8784da165e2c5", "fusion_lat": 0.0, "is_disabled": 0, "rental_uris": {"ios": "https://dc.lft.to/lastmile_qr_scan", "android": "https://dc.lft.to/lastmile_qr_scan"}}, {"name": "9b057a9cac0c0d2f0059cb628bec8a19", "lon": -77.03902216666667, "lat": 38.91829116666667, "type": "electric_scooter", "fusion_lon": 0.0, "is_reserved": 0, "bike_id": "9b057a9cac0c0d2f0059cb628bec8a19", "fusion_lat": 0.0, "is_disabled": 0, "rental_uris": {"ios": "https://dc.lft.to/lastmile_qr_scan", "android": "https://dc.lft.to/lastmile_qr_scan"}}, {"name": "53ce1b3f4a4e0b047fd9ebd1d8361396", "lon": -77.0296025, "lat": 38.9285385, "type": "electric_scooter", "fusion_lon": 0.0, "is_reserved": 0, "bike_id": "53ce1b3f4a4e0b047fd9ebd1d8361396", "fusion_lat": 0.0, "is_disabled": 0, "rental_uris": {"ios": "https://dc.lft.to/lastmile_qr_scan", "android": "https://dc.lft.to/lastmile_qr_scan"}}, {"name": "8463e2d8b085e3fae189f5e03a984f37", "lon": -77.06165433333334, "lat": 38.912959, "type": "electric_scooter", "fusion_lon": 0.0, "is_reserved": 0, "bike_id": "8463e2d8b085e3fae189f5e03a984f37", "fusion_lat": 0.0, "is_disabled": 0, "rental_uris": {"ios": "https://dc.lft.to/lastmile_qr_scan", "android": "https://dc.lft.to/lastmile_qr_scan"}}, {"name": "d263a143a3bb55b6ee9f42562705c7b1", "lon": -77.03547066666667, "lat": 38.91708366666667, "type": "electric_scooter", "fusion_lon": 0.0, "is_reserved": 0, "bike_id": "d263a143a3bb55b6ee9f42562705c7b1", "fusion_lat": 0.0, "is_disabled": 0, "rental_uris": {"ios": "https://dc.lft.to/lastmile_qr_scan", "android": "https://dc.lft.to/lastmile_qr_scan"}}, {"name": "4a7459042998f152f21a599eb6796452", "lon": -77.03831266666667, "lat": 38.93132, "type": "electric_scooter", "fusion_lon": 0.0, "is_reserved": 0, "bike_id": "4a7459042998f152f21a599eb6796452", "fusion_lat": 0.0, "is_disabled": 0, "rental_uris": {"ios": "https://dc.lft.to/lastmile_qr_scan", "android": "https://dc.lft.to/lastmile_qr_scan"}}, {"name": "2b498824c9f0efbd85e3ce68cd2f3a0b", "lon": -77.03205783333334, "lat": 38.91788483333333, "type": "electric_scooter", "fusion_lon": 0.0, "is_reserved": 0, "bike_id": "2b498824c9f0efbd85e3ce68cd2f3a0b", "fusion_lat": 0.0, "is_disabled": 0, "rental_uris": {"ios": "https://dc.lft.to/lastmile_qr_scan", "android": "https://dc.lft.to/lastmile_qr_scan"}}, {"name": "c710a0b90736764c183fd59286e3b2a0", "lon": -76.9653125, "lat": 38.876265833333335, "type": "electric_scooter", "fusion_lon": 0.0, "is_reserved": 0, "bike_id": "c710a0b90736764c183fd59286e3b2a0", "fusion_lat": 0.0, "is_disabled": 0, "rental_uris": {"ios": "https://dc.lft.to/lastmile_qr_scan", "android": "https://dc.lft.to/lastmile_qr_scan"}}, {"name": "c964f02227227fa674c2e5d526c1f4fe", "lon": -77.00599516666666, "lat": 38.90561, "type": "electric_scooter", "fusion_lon": 0.0, "is_reserved": 0, "bike_id": "c964f02227227fa674c2e5d526c1f4fe", "fusion_lat": 0.0, "is_disabled": 0, "rental_uris": {"ios": "https://dc.lft.to/lastmile_qr_scan", "android": "https://dc.lft.to/lastmile_qr_scan"}}, {"name": "617fcc39f41fa946773d08bec4385b54", "lon": -77.0435155, "lat": 38.91042983333333, "type": "electric_scooter", "fusion_lon": 0.0, "is_reserved": 0, "bike_id": "617fcc39f41fa946773d08bec4385b54", "fusion_lat": 0.0, "is_disabled": 0, "rental_uris": {"ios": "https://dc.lft.to/lastmile_qr_scan", "android": "https://dc.lft.to/lastmile_qr_scan"}}, {"name": "cdf3681234562ef0c1364129d0ddcb77", "lon": -77.0129295, "lat": 38.900445500000004, "type": "electric_scooter", "fusion_lon": 0.0, "is_reserved": 0, "bike_id": "cdf3681234562ef0c1364129d0ddcb77", "fusion_lat": 0.0, "is_disabled": 0, "rental_uris": {"ios": "https://dc.lft.to/lastmile_qr_scan", "android": "https://dc.lft.to/lastmile_qr_scan"}}, {"name": "f69a9e8ce732e1d26b53f89d1498ff0d", "lon": -77.042516, "lat": 38.92063916666667, "type": "electric_scooter", "fusion_lon": 0.0, "is_reserved": 0, "bike_id": "f69a9e8ce732e1d26b53f89d1498ff0d", "fusion_lat": 0.0, "is_disabled": 0, "rental_uris": {"ios": "https://dc.lft.to/lastmile_qr_scan", "android": "https://dc.lft.to/lastmile_qr_scan"}}, {"name": "ec3657377551176f5c48ee943d71a6b7", "lon": -77.01222183333333, "lat": 38.9214055, "type": "electric_scooter", "fusion_lon": 0.0, "is_reserved": 0, "bike_id": "ec3657377551176f5c48ee943d71a6b7", "fusion_lat": 0.0, "is_disabled": 0, "rental_uris": {"ios": "https://dc.lft.to/lastmile_qr_scan", "android": "https://dc.lft.to/lastmile_qr_scan"}}, {"name": "7eb95b1be9bf6b4435dde0bb5d07bd9b", "lon": -77.04605866666667, "lat": 38.91929716666667, "type": "electric_scooter", "fusion_lon": 0.0, "is_reserved": 0, "bike_id": "7eb95b1be9bf6b4435dde0bb5d07bd9b", "fusion_lat": 0.0, "is_disabled": 0, "rental_uris": {"ios": "https://dc.lft.to/lastmile_qr_scan", "android": "https://dc.lft.to/lastmile_qr_scan"}}, {"name": "de02e07db82443c9e3eece37bb00c473", "lon": -77.0240595, "lat": 38.909585, "type": "electric_scooter", "fusion_lon": 0.0, "is_reserved": 0, "bike_id": "de02e07db82443c9e3eece37bb00c473", "fusion_lat": 0.0, "is_disabled": 0, "rental_uris": {"ios": "https://dc.lft.to/lastmile_qr_scan", "android": "https://dc.lft.to/lastmile_qr_scan"}}, {"name": "0259f112ee0885d4092a054fd82a21f9", "lon": -77.03053516666667, "lat": 38.923806, "type": "electric_scooter", "fusion_lon": 0.0, "is_reserved": 0, "bike_id": "0259f112ee0885d4092a054fd82a21f9", "fusion_lat": 0.0, "is_disabled": 0, "rental_uris": {"ios": "https://dc.lft.to/lastmile_qr_scan", "android": "https://dc.lft.to/lastmile_qr_scan"}}, {"name": "4ea1ecc7c2d5ba741f17c2d7b40222fa", "lon": -77.03638183333334, "lat": 38.92737866666667, "type": "electric_scooter", "fusion_lon": 0.0, "is_reserved": 0, "bike_id": "4ea1ecc7c2d5ba741f17c2d7b40222fa", "fusion_lat": 0.0, "is_disabled": 0, "rental_uris": {"ios": "https://dc.lft.to/lastmile_qr_scan", "android": "https://dc.lft.to/lastmile_qr_scan"}}, {"name": "95bbd63f7a54610963502a68204c7712", "lon": -77.0328595, "lat": 38.93253466666667, "type": "electric_scooter", "fusion_lon": 0.0, "is_reserved": 0, "bike_id": "95bbd63f7a54610963502a68204c7712", "fusion_lat": 0.0, "is_disabled": 0, "rental_uris": {"ios": "https://dc.lft.to/lastmile_qr_scan", "android": "https://dc.lft.to/lastmile_qr_scan"}}, {"name": "769b330389ae416c9825652f63070eb0", "lon": -77.02943433333333, "lat": 38.91562533333333, "type": "electric_scooter", "fusion_lon": 0.0, "is_reserved": 0, "bike_id": "769b330389ae416c9825652f63070eb0", "fusion_lat": 0.0, "is_disabled": 0, "rental_uris": {"ios": "https://dc.lft.to/lastmile_qr_scan", "android": "https://dc.lft.to/lastmile_qr_scan"}}, {"name": "f891377061f146cb52f5423e7d731d5c", "lon": -77.082808, "lat": 38.93011166666667, "type": "electric_scooter", "fusion_lon": 0.0, "is_reserved": 0, "bike_id": "f891377061f146cb52f5423e7d731d5c", "fusion_lat": 0.0, "is_disabled": 0, "rental_uris": {"ios": "https://dc.lft.to/lastmile_qr_scan", "android": "https://dc.lft.to/lastmile_qr_scan"}}, {"name": "a66367905fb6561d85ca9bcc1964cc39", "lon": -77.0434665, "lat": 38.906355, "type": "electric_scooter", "fusion_lon": 0.0, "is_reserved": 0, "bike_id": "a66367905fb6561d85ca9bcc1964cc39", "fusion_lat": 0.0, "is_disabled": 0, "rental_uris": {"ios": "https://dc.lft.to/lastmile_qr_scan", "android": "https://dc.lft.to/lastmile_qr_scan"}}, {"name": "49ba1680bbc2a3eb4af68fd097840c34", "lon": -77.00206383333334, "lat": 38.81939533333333, "type": "electric_bike", "fusion_lon": 0.0, "is_reserved": 0, "bike_id": "49ba1680bbc2a3eb4af68fd097840c34", "fusion_lat": 0.0, "is_disabled": 0, "rental_uris": {"ios": "https://dc.lft.to/lastmile_qr_scan", "android": "https://dc.lft.to/lastmile_qr_scan"}}, {"name": "c69f018d99adbd2900a18b89e7fa6274", "lon": -76.98631666666667, "lat": 38.88044466666667, "type": "electric_bike", "fusion_lon": 0.0, "is_reserved": 0, "bike_id": "c69f018d99adbd2900a18b89e7fa6274", "fusion_lat": 0.0, "is_disabled": 0, "rental_uris": {"ios": "https://dc.lft.to/lastmile_qr_scan", "android": "https://dc.lft.to/lastmile_qr_scan"}}, {"name": "8531108e3384624679af58dfd6472ead", "lon": -77.05757283333334, "lat": 38.9246255, "type": "electric_bike", "fusion_lon": 0.0, "is_reserved": 0, "bike_id": "8531108e3384624679af58dfd6472ead", "fusion_lat": 0.0, "is_disabled": 0, "rental_uris": {"ios": "https://dc.lft.to/lastmile_qr_scan", "android": "https://dc.lft.to/lastmile_qr_scan"}}, {"name": "3c4433e57fa76ff287155d96ae5b1aa0", "lon": -77.02488666666666, "lat": 38.93097383333333, "type": "electric_scooter", "fusion_lon": 0.0, "is_reserved": 0, "bike_id": "3c4433e57fa76ff287155d96ae5b1aa0", "fusion_lat": 0.0, "is_disabled": 0, "rental_uris": {"ios": "https://dc.lft.to/lastmile_qr_scan", "android": "https://dc.lft.to/lastmile_qr_scan"}}, {"name": "9966e8d796b5005d50e2b383fa6c6ce5", "lon": -76.99801233333334, "lat": 38.90851716666667, "type": "electric_scooter", "fusion_lon": 0.0, "is_reserved": 0, "bike_id": "9966e8d796b5005d50e2b383fa6c6ce5", "fusion_lat": 0.0, "is_disabled": 0, "rental_uris": {"ios": "https://dc.lft.to/lastmile_qr_scan", "android": "https://dc.lft.to/lastmile_qr_scan"}}, {"name": "81dd9162a829b9b890dc679893840bef", "lon": -77.04173083333333, "lat": 38.915525333333335, "type": "electric_scooter", "fusion_lon": 0.0, "is_reserved": 0, "bike_id": "81dd9162a829b9b890dc679893840bef", "fusion_lat": 0.0, "is_disabled": 0, "rental_uris": {"ios": "https://dc.lft.to/lastmile_qr_scan", "android": "https://dc.lft.to/lastmile_qr_scan"}}, {"name": "0019b7973961ceb48a854e0daeca7c97", "lon": -77.04180383333333, "lat": 38.915523, "type": "electric_scooter", "fusion_lon": 0.0, "is_reserved": 0, "bike_id": "0019b7973961ceb48a854e0daeca7c97", "fusion_lat": 0.0, "is_disabled": 0, "rental_uris": {"ios": "https://dc.lft.to/lastmile_qr_scan", "android": "https://dc.lft.to/lastmile_qr_scan"}}, {"name": "31f16a79d9fb21c581a42d6a96e4aa6e", "lon": -77.00370916666667, "lat": 38.88260666666667, "type": "electric_scooter", "fusion_lon": 0.0, "is_reserved": 0, "bike_id": "31f16a79d9fb21c581a42d6a96e4aa6e", "fusion_lat": 0.0, "is_disabled": 0, "rental_uris": {"ios": "https://dc.lft.to/lastmile_qr_scan", "android": "https://dc.lft.to/lastmile_qr_scan"}}, {"name": "028b79539258597f11de8413c7fd2c84", "lon": -77.06170533333334, "lat": 38.90265616666667, "type": "electric_scooter", "fusion_lon": 0.0, "is_reserved": 0, "bike_id": "028b79539258597f11de8413c7fd2c84", "fusion_lat": 0.0, "is_disabled": 0, "rental_uris": {"ios": "https://dc.lft.to/lastmile_qr_scan", "android": "https://dc.lft.to/lastmile_qr_scan"}}, {"name": "a1160f84e7d57ac208f4b01579adebbc", "lon": -77.06333966666666, "lat": 38.9441905, "type": "electric_scooter", "fusion_lon": 0.0, "is_reserved": 0, "bike_id": "a1160f84e7d57ac208f4b01579adebbc", "fusion_lat": 0.0, "is_disabled": 0, "rental_uris": {"ios": "https://dc.lft.to/lastmile_qr_scan", "android": "https://dc.lft.to/lastmile_qr_scan"}}, {"name": "9e5ead9dbc6178fc59f6e58a2291006f", "lon": -77.02734133333334, "lat": 38.93116216666667, "type": "electric_bike", "fusion_lon": 0.0, "is_reserved": 0, "bike_id": "9e5ead9dbc6178fc59f6e58a2291006f", "fusion_lat": 0.0, "is_disabled": 0, "rental_uris": {"ios": "https://dc.lft.to/lastmile_qr_scan", "android": "https://dc.lft.to/lastmile_qr_scan"}}, {"name": "8fc4ed73fe70c05462c4bb85ea1e06b6", "lon": -77.02315266666666, "lat": 38.918322, "type": "electric_scooter", "fusion_lon": 0.0, "is_reserved": 0, "bike_id": "8fc4ed73fe70c05462c4bb85ea1e06b6", "fusion_lat": 0.0, "is_disabled": 0, "rental_uris": {"ios": "https://dc.lft.to/lastmile_qr_scan", "android": "https://dc.lft.to/lastmile_qr_scan"}}, {"name": "d8e55eca6990a5496455d678e0e8f605", "lon": -77.00590183333334, "lat": 38.905591666666666, "type": "electric_scooter", "fusion_lon": 0.0, "is_reserved": 0, "bike_id": "d8e55eca6990a5496455d678e0e8f605", "fusion_lat": 0.0, "is_disabled": 0, "rental_uris": {"ios": "https://dc.lft.to/lastmile_qr_scan", "android": "https://dc.lft.to/lastmile_qr_scan"}}, {"name": "0635dc87f60986d89e8bddef3c04bb10", "lon": -77.0065935, "lat": 38.944645, "type": "electric_scooter", "fusion_lon": 0.0, "is_reserved": 0, "bike_id": "0635dc87f60986d89e8bddef3c04bb10", "fusion_lat": 0.0, "is_disabled": 0, "rental_uris": {"ios": "https://dc.lft.to/lastmile_qr_scan", "android": "https://dc.lft.to/lastmile_qr_scan"}}, {"name": "927dfbf9305f5d5be72347cc0e4e032c", "lon": -77.05229766666666, "lat": 38.910559166666665, "type": "electric_scooter", "fusion_lon": 0.0, "is_reserved": 0, "bike_id": "927dfbf9305f5d5be72347cc0e4e032c", "fusion_lat": 0.0, "is_disabled": 0, "rental_uris": {"ios": "https://dc.lft.to/lastmile_qr_scan", "android": "https://dc.lft.to/lastmile_qr_scan"}}, {"name": "6ff2688001847c1d8502337e1a751599", "lon": -77.11707983333334, "lat": 38.86745233333333, "type": "electric_bike", "fusion_lon": 0.0, "is_reserved": 0, "bike_id": "6ff2688001847c1d8502337e1a751599", "fusion_lat": 0.0, "is_disabled": 0, "rental_uris": {"ios": "https://dc.lft.to/lastmile_qr_scan", "android": "https://dc.lft.to/lastmile_qr_scan"}}, {"name": "f6a1ce45a0122c3c2d1755713690bf53", "lon": -77.01095333333333, "lat": 38.915601333333335, "type": "electric_scooter", "fusion_lon": 0.0, "is_reserved": 0, "bike_id": "f6a1ce45a0122c3c2d1755713690bf53", "fusion_lat": 0.0, "is_disabled": 0, "rental_uris": {"ios": "https://dc.lft.to/lastmile_qr_scan", "android": "https://dc.lft.to/lastmile_qr_scan"}}, {"name": "e2b214d7db64986c595a96df819a812d", "lon": -77.042331, "lat": 38.92171883333334, "type": "electric_scooter", "fusion_lon": 0.0, "is_reserved": 0, "bike_id": "e2b214d7db64986c595a96df819a812d", "fusion_lat": 0.0, "is_disabled": 0, "rental_uris": {"ios": "https://dc.lft.to/lastmile_qr_scan", "android": "https://dc.lft.to/lastmile_qr_scan"}}, {"name": "9dfa01e16da0f313d195fd0eaf85de90", "lon": -77.04124783333333, "lat": 38.80488533333333, "type": "electric_bike", "fusion_lon": 0.0, "is_reserved": 0, "bike_id": "9dfa01e16da0f313d195fd0eaf85de90", "fusion_lat": 0.0, "is_disabled": 0, "rental_uris": {"ios": "https://dc.lft.to/lastmile_qr_scan", "android": "https://dc.lft.to/lastmile_qr_scan"}}, {"name": "d86e0d3536505780e141d209ded9e9f7", "lon": -77.01626016666667, "lat": 38.90608133333333, "type": "electric_scooter", "fusion_lon": 0.0, "is_reserved": 0, "bike_id": "d86e0d3536505780e141d209ded9e9f7", "fusion_lat": 0.0, "is_disabled": 0, "rental_uris": {"ios": "https://dc.lft.to/lastmile_qr_scan", "android": "https://dc.lft.to/lastmile_qr_scan"}}, {"name": "6bf3d15a24d4656525de360896312500", "lon": -77.00205083333333, "lat": 38.81936866666667, "type": "electric_bike", "fusion_lon": 0.0, "is_reserved": 0, "bike_id": "6bf3d15a24d4656525de360896312500", "fusion_lat": 0.0, "is_disabled": 0, "rental_uris": {"ios": "https://dc.lft.to/lastmile_qr_scan", "android": "https://dc.lft.to/lastmile_qr_scan"}}, {"name": "8bdf3a1d2ece4c6c803365fb69a601e2", "lon": -77.026911, "lat": 38.906839, "type": "electric_scooter", "fusion_lon": 0.0, "is_reserved": 0, "bike_id": "8bdf3a1d2ece4c6c803365fb69a601e2", "fusion_lat": 0.0, "is_disabled": 0, "rental_uris": {"ios": "https://dc.lft.to/lastmile_qr_scan", "android": "https://dc.lft.to/lastmile_qr_scan"}}, {"name": "3821cbefb74c279d7119cc1266c783fa", "lon": -77.024968, "lat": 38.929967, "type": "electric_bike", "fusion_lon": 0.0, "is_reserved": 0, "bike_id": "3821cbefb74c279d7119cc1266c783fa", "fusion_lat": 0.0, "is_disabled": 0, "rental_uris": {"ios": "https://dc.lft.to/lastmile_qr_scan", "android": "https://dc.lft.to/lastmile_qr_scan"}}, {"name": "a28d818925d770a6c0d4e708aa452f05", "lon": -77.040166, "lat": 38.922683, "type": "electric_scooter", "fusion_lon": 0.0, "is_reserved": 0, "bike_id": "a28d818925d770a6c0d4e708aa452f05", "fusion_lat": 0.0, "is_disabled": 0, "rental_uris": {"ios": "https://dc.lft.to/lastmile_qr_scan", "android": "https://dc.lft.to/lastmile_qr_scan"}}, {"name": "69adfd5026bc44831ffb2b74dc53fec3", "lon": -77.02301116666666, "lat": 38.91547683333334, "type": "electric_scooter", "fusion_lon": 0.0, "is_reserved": 0, "bike_id": "69adfd5026bc44831ffb2b74dc53fec3", "fusion_lat": 0.0, "is_disabled": 0, "rental_uris": {"ios": "https://dc.lft.to/lastmile_qr_scan", "android": "https://dc.lft.to/lastmile_qr_scan"}}, {"name": "545be49ddc01e39bd459e891d751980f", "lon": -77.0136865, "lat": 38.88703783333333, "type": "electric_scooter", "fusion_lon": 0.0, "is_reserved": 0, "bike_id": "545be49ddc01e39bd459e891d751980f", "fusion_lat": 0.0, "is_disabled": 0, "rental_uris": {"ios": "https://dc.lft.to/lastmile_qr_scan", "android": "https://dc.lft.to/lastmile_qr_scan"}}, {"name": "9766ea9d49442bbd909a90ffda200523", "lon": -76.9950055, "lat": 38.8821275, "type": "electric_bike", "fusion_lon": 0.0, "is_reserved": 0, "bike_id": "9766ea9d49442bbd909a90ffda200523", "fusion_lat": 0.0, "is_disabled": 0, "rental_uris": {"ios": "https://dc.lft.to/lastmile_qr_scan", "android": "https://dc.lft.to/lastmile_qr_scan"}}, {"name": "5075395248cbed1e80086bf05555893d", "lon": -77.04136633333333, "lat": 38.9231315, "type": "electric_scooter", "fusion_lon": 0.0, "is_reserved": 0, "bike_id": "5075395248cbed1e80086bf05555893d", "fusion_lat": 0.0, "is_disabled": 0, "rental_uris": {"ios": "https://dc.lft.to/lastmile_qr_scan", "android": "https://dc.lft.to/lastmile_qr_scan"}}, {"name": "4b8f983f16ad2880eec8dcba58bec46c", "lon": -77.04137366666667, "lat": 38.921699833333335, "type": "electric_scooter", "fusion_lon": 0.0, "is_reserved": 0, "bike_id": "4b8f983f16ad2880eec8dcba58bec46c", "fusion_lat": 0.0, "is_disabled": 0, "rental_uris": {"ios": "https://dc.lft.to/lastmile_qr_scan", "android": "https://dc.lft.to/lastmile_qr_scan"}}, {"name": "c7be834af6f35d83fef784a1164d110b", "lon": -77.01806033333334, "lat": 38.9202125, "type": "electric_scooter", "fusion_lon": 0.0, "is_reserved": 0, "bike_id": "c7be834af6f35d83fef784a1164d110b", "fusion_lat": 0.0, "is_disabled": 0, "rental_uris": {"ios": "https://dc.lft.to/lastmile_qr_scan", "android": "https://dc.lft.to/lastmile_qr_scan"}}, {"name": "e5af42ad8a8a0243eaeb0d1aafd82ce3", "lon": -77.02618316666667, "lat": 38.92749033333333, "type": "electric_scooter", "fusion_lon": 0.0, "is_reserved": 0, "bike_id": "e5af42ad8a8a0243eaeb0d1aafd82ce3", "fusion_lat": 0.0, "is_disabled": 0, "rental_uris": {"ios": "https://dc.lft.to/lastmile_qr_scan", "android": "https://dc.lft.to/lastmile_qr_scan"}}, {"name": "468aefa04880309833db522365eb179d", "lon": -77.04537183333333, "lat": 38.913232666666666, "type": "electric_scooter", "fusion_lon": 0.0, "is_reserved": 0, "bike_id": "468aefa04880309833db522365eb179d", "fusion_lat": 0.0, "is_disabled": 0, "rental_uris": {"ios": "https://dc.lft.to/lastmile_qr_scan", "android": "https://dc.lft.to/lastmile_qr_scan"}}, {"name": "7914caebf769eed9b38f831d71675ef9", "lon": -76.95099583333334, "lat": 38.88446716666667, "type": "electric_scooter", "fusion_lon": 0.0, "is_reserved": 0, "bike_id": "7914caebf769eed9b38f831d71675ef9", "fusion_lat": 0.0, "is_disabled": 0, "rental_uris": {"ios": "https://dc.lft.to/lastmile_qr_scan", "android": "https://dc.lft.to/lastmile_qr_scan"}}, {"name": "dbc073b30283deb01594e42f5e882873", "lon": -77.02410883333333, "lat": 38.9170505, "type": "electric_scooter", "fusion_lon": 0.0, "is_reserved": 0, "bike_id": "dbc073b30283deb01594e42f5e882873", "fusion_lat": 0.0, "is_disabled": 0, "rental_uris": {"ios": "https://dc.lft.to/lastmile_qr_scan", "android": "https://dc.lft.to/lastmile_qr_scan"}}, {"name": "7f941ec2e0473996657e72eab14a14ad", "lon": -77.036628, "lat": 38.912452, "type": "electric_scooter", "fusion_lon": 0.0, "is_reserved": 0, "bike_id": "7f941ec2e0473996657e72eab14a14ad", "fusion_lat": 0.0, "is_disabled": 0, "rental_uris": {"ios": "https://dc.lft.to/lastmile_qr_scan", "android": "https://dc.lft.to/lastmile_qr_scan"}}, {"name": "3bcfb1795986081268a461755c4ab362", "lon": -77.04484583333333, "lat": 38.91862166666667, "type": "electric_scooter", "fusion_lon": 0.0, "is_reserved": 0, "bike_id": "3bcfb1795986081268a461755c4ab362", "fusion_lat": 0.0, "is_disabled": 0, "rental_uris": {"ios": "https://dc.lft.to/lastmile_qr_scan", "android": "https://dc.lft.to/lastmile_qr_scan"}}, {"name": "c05dd0fe1e14d424076396988e4bd11b", "lon": -76.941963, "lat": 38.897481, "type": "electric_scooter", "fusion_lon": 0.0, "is_reserved": 0, "bike_id": "c05dd0fe1e14d424076396988e4bd11b", "fusion_lat": 0.0, "is_disabled": 0, "rental_uris": {"ios": "https://dc.lft.to/lastmile_qr_scan", "android": "https://dc.lft.to/lastmile_qr_scan"}}, {"name": "60d965f37078d23160434dede80e25db", "lon": -77.06405033333333, "lat": 38.905137, "type": "electric_scooter", "fusion_lon": 0.0, "is_reserved": 0, "bike_id": "60d965f37078d23160434dede80e25db", "fusion_lat": 0.0, "is_disabled": 0, "rental_uris": {"ios": "https://dc.lft.to/lastmile_qr_scan", "android": "https://dc.lft.to/lastmile_qr_scan"}}, {"name": "04c3b18a675457a892a105621ba7f5d1", "lon": -77.01764933333334, "lat": 38.876844166666665, "type": "electric_scooter", "fusion_lon": 0.0, "is_reserved": 0, "bike_id": "04c3b18a675457a892a105621ba7f5d1", "fusion_lat": 0.0, "is_disabled": 0, "rental_uris": {"ios": "https://dc.lft.to/lastmile_qr_scan", "android": "https://dc.lft.to/lastmile_qr_scan"}}, {"name": "71e18971a24c3a754805e2000982a28e", "lon": -77.1201675, "lat": 38.85513816666667, "type": "electric_bike", "fusion_lon": 0.0, "is_reserved": 0, "bike_id": "71e18971a24c3a754805e2000982a28e", "fusion_lat": 0.0, "is_disabled": 0, "rental_uris": {"ios": "https://dc.lft.to/lastmile_qr_scan", "android": "https://dc.lft.to/lastmile_qr_scan"}}, {"name": "aea106031213e948d98b1a3f1b289522", "lon": -77.04187483333334, "lat": 38.89356466666667, "type": "electric_scooter", "fusion_lon": 0.0, "is_reserved": 0, "bike_id": "aea106031213e948d98b1a3f1b289522", "fusion_lat": 0.0, "is_disabled": 0, "rental_uris": {"ios": "https://dc.lft.to/lastmile_qr_scan", "android": "https://dc.lft.to/lastmile_qr_scan"}}, {"name": "d6a1581ad8a22d895a83db62898a9b30", "lon": -77.00201, "lat": 38.893419, "type": "electric_scooter", "fusion_lon": 0.0, "is_reserved": 0, "bike_id": "d6a1581ad8a22d895a83db62898a9b30", "fusion_lat": 0.0, "is_disabled": 0, "rental_uris": {"ios": "https://dc.lft.to/lastmile_qr_scan", "android": "https://dc.lft.to/lastmile_qr_scan"}}, {"name": "e6f61aa3b3cb779760c662c3ca688a10", "lon": -77.00497833333333, "lat": 38.896863833333335, "type": "electric_scooter", "fusion_lon": 0.0, "is_reserved": 0, "bike_id": "e6f61aa3b3cb779760c662c3ca688a10", "fusion_lat": 0.0, "is_disabled": 0, "rental_uris": {"ios": "https://dc.lft.to/lastmile_qr_scan", "android": "https://dc.lft.to/lastmile_qr_scan"}}, {"name": "176df88a802383c0b53e66fdeba69867", "lon": -77.03856383333333, "lat": 38.91015983333333, "type": "electric_scooter", "fusion_lon": 0.0, "is_reserved": 0, "bike_id": "176df88a802383c0b53e66fdeba69867", "fusion_lat": 0.0, "is_disabled": 0, "rental_uris": {"ios": "https://dc.lft.to/lastmile_qr_scan", "android": "https://dc.lft.to/lastmile_qr_scan"}}, {"name": "8e5482ec510e4338f3fa9b532f2d0bbd", "lon": -77.0451475, "lat": 38.892232666666665, "type": "electric_scooter", "fusion_lon": 0.0, "is_reserved": 0, "bike_id": "8e5482ec510e4338f3fa9b532f2d0bbd", "fusion_lat": 0.0, "is_disabled": 0, "rental_uris": {"ios": "https://dc.lft.to/lastmile_qr_scan", "android": "https://dc.lft.to/lastmile_qr_scan"}}, {"name": "9c4d68a6d4b4723e09775b404c4c97ea", "lon": -77.03905433333334, "lat": 38.917568333333335, "type": "electric_scooter", "fusion_lon": 0.0, "is_reserved": 0, "bike_id": "9c4d68a6d4b4723e09775b404c4c97ea", "fusion_lat": 0.0, "is_disabled": 0, "rental_uris": {"ios": "https://dc.lft.to/lastmile_qr_scan", "android": "https://dc.lft.to/lastmile_qr_scan"}}, {"name": "cc740d78cec70ecc11956296454928c7", "lon": -77.01198833333333, "lat": 38.90303266666667, "type": "electric_scooter", "fusion_lon": 0.0, "is_reserved": 0, "bike_id": "cc740d78cec70ecc11956296454928c7", "fusion_lat": 0.0, "is_disabled": 0, "rental_uris": {"ios": "https://dc.lft.to/lastmile_qr_scan", "android": "https://dc.lft.to/lastmile_qr_scan"}}, {"name": "c7c1ac34be5c5372aeef199381ab1c82", "lon": -77.10599266666667, "lat": 38.92895866666667, "type": "electric_bike", "fusion_lon": 0.0, "is_reserved": 0, "bike_id": "c7c1ac34be5c5372aeef199381ab1c82", "fusion_lat": 0.0, "is_disabled": 0, "rental_uris": {"ios": "https://dc.lft.to/lastmile_qr_scan", "android": "https://dc.lft.to/lastmile_qr_scan"}}, {"name": "e8dc81590c8519f058eb81d3167d0819", "lon": -77.00768883333333, "lat": 38.905719, "type": "electric_scooter", "fusion_lon": 0.0, "is_reserved": 0, "bike_id": "e8dc81590c8519f058eb81d3167d0819", "fusion_lat": 0.0, "is_disabled": 0, "rental_uris": {"ios": "https://dc.lft.to/lastmile_qr_scan", "android": "https://dc.lft.to/lastmile_qr_scan"}}, {"name": "0e909eed807ee24b3d9fa940768d1696", "lon": -77.02919433333334, "lat": 38.92977833333333, "type": "electric_scooter", "fusion_lon": 0.0, "is_reserved": 0, "bike_id": "0e909eed807ee24b3d9fa940768d1696", "fusion_lat": 0.0, "is_disabled": 0, "rental_uris": {"ios": "https://dc.lft.to/lastmile_qr_scan", "android": "https://dc.lft.to/lastmile_qr_scan"}}, {"name": "040e40c16281c0aa0cb68c0f769795a7", "lon": -76.98876066666666, "lat": 38.89031416666667, "type": "electric_scooter", "fusion_lon": 0.0, "is_reserved": 0, "bike_id": "040e40c16281c0aa0cb68c0f769795a7", "fusion_lat": 0.0, "is_disabled": 0, "rental_uris": {"ios": "https://dc.lft.to/lastmile_qr_scan", "android": "https://dc.lft.to/lastmile_qr_scan"}}, {"name": "b0de814b3ccd0cc61048e0c94affc848", "lon": -77.04869, "lat": 38.915248166666665, "type": "electric_scooter", "fusion_lon": 0.0, "is_reserved": 0, "bike_id": "b0de814b3ccd0cc61048e0c94affc848", "fusion_lat": 0.0, "is_disabled": 0, "rental_uris": {"ios": "https://dc.lft.to/lastmile_qr_scan", "android": "https://dc.lft.to/lastmile_qr_scan"}}, {"name": "10f92e1714c5735c533a5aa7050a0381", "lon": -77.03192433333334, "lat": 38.917795166666664, "type": "electric_scooter", "fusion_lon": 0.0, "is_reserved": 0, "bike_id": "10f92e1714c5735c533a5aa7050a0381", "fusion_lat": 0.0, "is_disabled": 0, "rental_uris": {"ios": "https://dc.lft.to/lastmile_qr_scan", "android": "https://dc.lft.to/lastmile_qr_scan"}}, {"name": "1f02619cc1ad91aebef9cae7f06ac96f", "lon": -77.04155983333334, "lat": 38.9191455, "type": "electric_scooter", "fusion_lon": 0.0, "is_reserved": 0, "bike_id": "1f02619cc1ad91aebef9cae7f06ac96f", "fusion_lat": 0.0, "is_disabled": 0, "rental_uris": {"ios": "https://dc.lft.to/lastmile_qr_scan", "android": "https://dc.lft.to/lastmile_qr_scan"}}, {"name": "6df5e18ec393fc52b83ed581c1e4a8fa", "lon": -76.99775083333333, "lat": 38.844227833333335, "type": "electric_scooter", "fusion_lon": 0.0, "is_reserved": 0, "bike_id": "6df5e18ec393fc52b83ed581c1e4a8fa", "fusion_lat": 0.0, "is_disabled": 0, "rental_uris": {"ios": "https://dc.lft.to/lastmile_qr_scan", "android": "https://dc.lft.to/lastmile_qr_scan"}}, {"name": "eb251ebecc42e2c79331003e901c9f08", "lon": -77.0327995, "lat": 38.93248333333333, "type": "electric_scooter", "fusion_lon": 0.0, "is_reserved": 0, "bike_id": "eb251ebecc42e2c79331003e901c9f08", "fusion_lat": 0.0, "is_disabled": 0, "rental_uris": {"ios": "https://dc.lft.to/lastmile_qr_scan", "android": "https://dc.lft.to/lastmile_qr_scan"}}, {"name": "03a07254735ec02e78a6933f7f630a23", "lon": -76.957578, "lat": 38.88427733333333, "type": "electric_scooter", "fusion_lon": 0.0, "is_reserved": 0, "bike_id": "03a07254735ec02e78a6933f7f630a23", "fusion_lat": 0.0, "is_disabled": 0, "rental_uris": {"ios": "https://dc.lft.to/lastmile_qr_scan", "android": "https://dc.lft.to/lastmile_qr_scan"}}, {"name": "b66c324600531f0085c3ce6618ce3a85", "lon": -77.03118516666666, "lat": 38.91561683333333, "type": "electric_scooter", "fusion_lon": 0.0, "is_reserved": 0, "bike_id": "b66c324600531f0085c3ce6618ce3a85", "fusion_lat": 0.0, "is_disabled": 0, "rental_uris": {"ios": "https://dc.lft.to/lastmile_qr_scan", "android": "https://dc.lft.to/lastmile_qr_scan"}}, {"name": "3383b41e8820a37d27a37c0fd4ea8966", "lon": -77.05062616666666, "lat": 38.90159416666667, "type": "electric_scooter", "fusion_lon": 0.0, "is_reserved": 0, "bike_id": "3383b41e8820a37d27a37c0fd4ea8966", "fusion_lat": 0.0, "is_disabled": 0, "rental_uris": {"ios": "https://dc.lft.to/lastmile_qr_scan", "android": "https://dc.lft.to/lastmile_qr_scan"}}, {"name": "14b3edb56e6b2c031aef91eba39cc363", "lon": -77.02910616666666, "lat": 38.9332705, "type": "electric_scooter", "fusion_lon": 0.0, "is_reserved": 0, "bike_id": "14b3edb56e6b2c031aef91eba39cc363", "fusion_lat": 0.0, "is_disabled": 0, "rental_uris": {"ios": "https://dc.lft.to/lastmile_qr_scan", "android": "https://dc.lft.to/lastmile_qr_scan"}}, {"name": "0a61285d9b1f5490d1fc22f45a3df44d", "lon": -77.09477283333334, "lat": 39.030438, "type": "electric_bike", "fusion_lon": 0.0, "is_reserved": 0, "bike_id": "0a61285d9b1f5490d1fc22f45a3df44d", "fusion_lat": 0.0, "is_disabled": 0, "rental_uris": {"ios": "https://dc.lft.to/lastmile_qr_scan", "android": "https://dc.lft.to/lastmile_qr_scan"}}, {"name": "29b65cc9b25bcecf2aa1bd2de2f58108", "lon": -77.01196383333334, "lat": 38.900035, "type": "electric_scooter", "fusion_lon": 0.0, "is_reserved": 0, "bike_id": "29b65cc9b25bcecf2aa1bd2de2f58108", "fusion_lat": 0.0, "is_disabled": 0, "rental_uris": {"ios": "https://dc.lft.to/lastmile_qr_scan", "android": "https://dc.lft.to/lastmile_qr_scan"}}, {"name": "17367d46afcb05449191e178f66bf6e4", "lon": -77.02755, "lat": 38.95166483333333, "type": "electric_scooter", "fusion_lon": 0.0, "is_reserved": 0, "bike_id": "17367d46afcb05449191e178f66bf6e4", "fusion_lat": 0.0, "is_disabled": 0, "rental_uris": {"ios": "https://dc.lft.to/lastmile_qr_scan", "android": "https://dc.lft.to/lastmile_qr_scan"}}, {"name": "7ac06d3247c9afc96010bd001315f361", "lon": -77.03705216666667, "lat": 38.92039583333333, "type": "electric_bike", "fusion_lon": 0.0, "is_reserved": 0, "bike_id": "7ac06d3247c9afc96010bd001315f361", "fusion_lat": 0.0, "is_disabled": 0, "rental_uris": {"ios": "https://dc.lft.to/lastmile_qr_scan", "android": "https://dc.lft.to/lastmile_qr_scan"}}, {"name": "4455982c714fbbe5b680167da4564b34", "lon": -77.03442116666666, "lat": 38.91009283333333, "type": "electric_scooter", "fusion_lon": 0.0, "is_reserved": 0, "bike_id": "4455982c714fbbe5b680167da4564b34", "fusion_lat": 0.0, "is_disabled": 0, "rental_uris": {"ios": "https://dc.lft.to/lastmile_qr_scan", "android": "https://dc.lft.to/lastmile_qr_scan"}}, {"name": "fe8c0ef2eed2d15180d6644fb82c3cbf", "lon": -77.02402016666667, "lat": 38.916462, "type": "electric_scooter", "fusion_lon": 0.0, "is_reserved": 0, "bike_id": "fe8c0ef2eed2d15180d6644fb82c3cbf", "fusion_lat": 0.0, "is_disabled": 0, "rental_uris": {"ios": "https://dc.lft.to/lastmile_qr_scan", "android": "https://dc.lft.to/lastmile_qr_scan"}}, {"name": "1982522e0f150ada7a49bea5d8dcd9e6", "lon": -77.02961233333333, "lat": 38.939785666666666, "type": "electric_scooter", "fusion_lon": 0.0, "is_reserved": 0, "bike_id": "1982522e0f150ada7a49bea5d8dcd9e6", "fusion_lat": 0.0, "is_disabled": 0, "rental_uris": {"ios": "https://dc.lft.to/lastmile_qr_scan", "android": "https://dc.lft.to/lastmile_qr_scan"}}, {"name": "0c38b4cf56d476991329438eda8ba912", "lon": -77.06073216666667, "lat": 38.88584316666667, "type": "electric_bike", "fusion_lon": 0.0, "is_reserved": 0, "bike_id": "0c38b4cf56d476991329438eda8ba912", "fusion_lat": 0.0, "is_disabled": 0, "rental_uris": {"ios": "https://dc.lft.to/lastmile_qr_scan", "android": "https://dc.lft.to/lastmile_qr_scan"}}, {"name": "7774bf95e2e5f85d5910b910bdbb4b86", "lon": -77.00068333333333, "lat": 38.901358, "type": "electric_scooter", "fusion_lon": 0.0, "is_reserved": 0, "bike_id": "7774bf95e2e5f85d5910b910bdbb4b86", "fusion_lat": 0.0, "is_disabled": 0, "rental_uris": {"ios": "https://dc.lft.to/lastmile_qr_scan", "android": "https://dc.lft.to/lastmile_qr_scan"}}, {"name": "debf1bfe4ba8671ccb6b6180a8f81267", "lon": -77.0259445, "lat": 38.96389116666667, "type": "electric_scooter", "fusion_lon": 0.0, "is_reserved": 0, "bike_id": "debf1bfe4ba8671ccb6b6180a8f81267", "fusion_lat": 0.0, "is_disabled": 0, "rental_uris": {"ios": "https://dc.lft.to/lastmile_qr_scan", "android": "https://dc.lft.to/lastmile_qr_scan"}}, {"name": "509f10c61a950085b7fced1f1d999a3c", "lon": -77.0161175, "lat": 38.89967266666667, "type": "electric_scooter", "fusion_lon": 0.0, "is_reserved": 0, "bike_id": "509f10c61a950085b7fced1f1d999a3c", "fusion_lat": 0.0, "is_disabled": 0, "rental_uris": {"ios": "https://dc.lft.to/lastmile_qr_scan", "android": "https://dc.lft.to/lastmile_qr_scan"}}, {"name": "aa1fdfcf637bac388eb032b47212f123", "lon": -77.13105483333334, "lat": 39.0243785, "type": "electric_bike", "fusion_lon": 0.0, "is_reserved": 0, "bike_id": "aa1fdfcf637bac388eb032b47212f123", "fusion_lat": 0.0, "is_disabled": 0, "rental_uris": {"ios": "https://dc.lft.to/lastmile_qr_scan", "android": "https://dc.lft.to/lastmile_qr_scan"}}, {"name": "493d3d779f6fcd822fc3c90c377a8a6e", "lon": -77.0075775, "lat": 38.9267125, "type": "electric_scooter", "fusion_lon": 0.0, "is_reserved": 0, "bike_id": "493d3d779f6fcd822fc3c90c377a8a6e", "fusion_lat": 0.0, "is_disabled": 0, "rental_uris": {"ios": "https://dc.lft.to/lastmile_qr_scan", "android": "https://dc.lft.to/lastmile_qr_scan"}}, {"name": "9da82e5d829b7074d3c43246de8895ce", "lon": -77.02367583333333, "lat": 38.902178666666664, "type": "electric_scooter", "fusion_lon": 0.0, "is_reserved": 0, "bike_id": "9da82e5d829b7074d3c43246de8895ce", "fusion_lat": 0.0, "is_disabled": 0, "rental_uris": {"ios": "https://dc.lft.to/lastmile_qr_scan", "android": "https://dc.lft.to/lastmile_qr_scan"}}, {"name": "0570507aadfe848edf8d55e4793e561e", "lon": -77.00887883333333, "lat": 38.91471583333333, "type": "electric_scooter", "fusion_lon": 0.0, "is_reserved": 0, "bike_id": "0570507aadfe848edf8d55e4793e561e", "fusion_lat": 0.0, "is_disabled": 0, "rental_uris": {"ios": "https://dc.lft.to/lastmile_qr_scan", "android": "https://dc.lft.to/lastmile_qr_scan"}}, {"name": "311c80dea190145a7b94cf5309fa1ab1", "lon": -77.0021245, "lat": 38.92453783333333, "type": "electric_scooter", "fusion_lon": 0.0, "is_reserved": 0, "bike_id": "311c80dea190145a7b94cf5309fa1ab1", "fusion_lat": 0.0, "is_disabled": 0, "rental_uris": {"ios": "https://dc.lft.to/lastmile_qr_scan", "android": "https://dc.lft.to/lastmile_qr_scan"}}, {"name": "8ef99772ade39b57a65ce27ba8d58254", "lon": -76.9896885, "lat": 38.882173333333334, "type": "electric_bike", "fusion_lon": 0.0, "is_reserved": 0, "bike_id": "8ef99772ade39b57a65ce27ba8d58254", "fusion_lat": 0.0, "is_disabled": 0, "rental_uris": {"ios": "https://dc.lft.to/lastmile_qr_scan", "android": "https://dc.lft.to/lastmile_qr_scan"}}, {"name": "05cd114dc1a7dc59a74c4e97a8b924f0", "lon": -77.11853483333333, "lat": 38.87731633333333, "type": "electric_bike", "fusion_lon": 0.0, "is_reserved": 0, "bike_id": "05cd114dc1a7dc59a74c4e97a8b924f0", "fusion_lat": 0.0, "is_disabled": 0, "rental_uris": {"ios": "https://dc.lft.to/lastmile_qr_scan", "android": "https://dc.lft.to/lastmile_qr_scan"}}, {"name": "7aaf8c356beb3b404af4b3dbeb195f49", "lon": -76.93545416666667, "lat": 38.95184716666667, "type": "electric_bike", "fusion_lon": 0.0, "is_reserved": 0, "bike_id": "7aaf8c356beb3b404af4b3dbeb195f49", "fusion_lat": 0.0, "is_disabled": 0, "rental_uris": {"ios": "https://dc.lft.to/lastmile_qr_scan", "android": "https://dc.lft.to/lastmile_qr_scan"}}, {"name": "e74654b60df554da1a1fab9abab97720", "lon": -77.03850416666667, "lat": 38.91632883333333, "type": "electric_scooter", "fusion_lon": 0.0, "is_reserved": 0, "bike_id": "e74654b60df554da1a1fab9abab97720", "fusion_lat": 0.0, "is_disabled": 0, "rental_uris": {"ios": "https://dc.lft.to/lastmile_qr_scan", "android": "https://dc.lft.to/lastmile_qr_scan"}}, {"name": "d8aa926bb7003aa3bf828141d4c0d46a", "lon": -77.0209755, "lat": 38.931129, "type": "electric_scooter", "fusion_lon": 0.0, "is_reserved": 0, "bike_id": "d8aa926bb7003aa3bf828141d4c0d46a", "fusion_lat": 0.0, "is_disabled": 0, "rental_uris": {"ios": "https://dc.lft.to/lastmile_qr_scan", "android": "https://dc.lft.to/lastmile_qr_scan"}}, {"name": "dcecd1df5ca67947820caba1ec650afe", "lon": -77.0468915, "lat": 38.8922285, "type": "electric_scooter", "fusion_lon": 0.0, "is_reserved": 0, "bike_id": "dcecd1df5ca67947820caba1ec650afe", "fusion_lat": 0.0, "is_disabled": 0, "rental_uris": {"ios": "https://dc.lft.to/lastmile_qr_scan", "android": "https://dc.lft.to/lastmile_qr_scan"}}, {"name": "a40ea057363766fb17b568c209c2c327", "lon": -76.998694, "lat": 38.90026866666667, "type": "electric_scooter", "fusion_lon": 0.0, "is_reserved": 0, "bike_id": "a40ea057363766fb17b568c209c2c327", "fusion_lat": 0.0, "is_disabled": 0, "rental_uris": {"ios": "https://dc.lft.to/lastmile_qr_scan", "android": "https://dc.lft.to/lastmile_qr_scan"}}, {"name": "dd740754d51b3ab0dc862c1a4090eff4", "lon": -77.013526, "lat": 38.8696975, "type": "electric_scooter", "fusion_lon": 0.0, "is_reserved": 0, "bike_id": "dd740754d51b3ab0dc862c1a4090eff4", "fusion_lat": 0.0, "is_disabled": 0, "rental_uris": {"ios": "https://dc.lft.to/lastmile_qr_scan", "android": "https://dc.lft.to/lastmile_qr_scan"}}, {"name": "93ec6b65b9e6c73a77d459088922becc", "lon": -76.91134016666666, "lat": 38.8941745, "type": "electric_scooter", "fusion_lon": 0.0, "is_reserved": 0, "bike_id": "93ec6b65b9e6c73a77d459088922becc", "fusion_lat": 0.0, "is_disabled": 0, "rental_uris": {"ios": "https://dc.lft.to/lastmile_qr_scan", "android": "https://dc.lft.to/lastmile_qr_scan"}}, {"name": "815fb293ff155b25df295d243e9334af", "lon": -77.02296316666667, "lat": 38.928063, "type": "electric_scooter", "fusion_lon": 0.0, "is_reserved": 0, "bike_id": "815fb293ff155b25df295d243e9334af", "fusion_lat": 0.0, "is_disabled": 0, "rental_uris": {"ios": "https://dc.lft.to/lastmile_qr_scan", "android": "https://dc.lft.to/lastmile_qr_scan"}}, {"name": "f44442e7cb8b852feb3a556be0117f0f", "lon": -77.05418183333333, "lat": 38.902460166666664, "type": "electric_scooter", "fusion_lon": 0.0, "is_reserved": 0, "bike_id": "f44442e7cb8b852feb3a556be0117f0f", "fusion_lat": 0.0, "is_disabled": 0, "rental_uris": {"ios": "https://dc.lft.to/lastmile_qr_scan", "android": "https://dc.lft.to/lastmile_qr_scan"}}, {"name": "9fef433c4a2945ce405a0982517d22c2", "lon": -76.99848283333333, "lat": 38.887452833333334, "type": "electric_scooter", "fusion_lon": 0.0, "is_reserved": 0, "bike_id": "9fef433c4a2945ce405a0982517d22c2", "fusion_lat": 0.0, "is_disabled": 0, "rental_uris": {"ios": "https://dc.lft.to/lastmile_qr_scan", "android": "https://dc.lft.to/lastmile_qr_scan"}}, {"name": "ab6dcf3bb15057ff6dd2778923a31d44", "lon": -76.98366316666667, "lat": 38.915016333333334, "type": "electric_scooter", "fusion_lon": 0.0, "is_reserved": 0, "bike_id": "ab6dcf3bb15057ff6dd2778923a31d44", "fusion_lat": 0.0, "is_disabled": 0, "rental_uris": {"ios": "https://dc.lft.to/lastmile_qr_scan", "android": "https://dc.lft.to/lastmile_qr_scan"}}, {"name": "304a3a18e764d961509edc01ea394769", "lon": -77.03526383333333, "lat": 38.927274833333335, "type": "electric_scooter", "fusion_lon": 0.0, "is_reserved": 0, "bike_id": "304a3a18e764d961509edc01ea394769", "fusion_lat": 0.0, "is_disabled": 0, "rental_uris": {"ios": "https://dc.lft.to/lastmile_qr_scan", "android": "https://dc.lft.to/lastmile_qr_scan"}}, {"name": "130c61121aec5f36deee649266e63d2f", "lon": -77.04195383333334, "lat": 38.92616983333333, "type": "electric_scooter", "fusion_lon": 0.0, "is_reserved": 0, "bike_id": "130c61121aec5f36deee649266e63d2f", "fusion_lat": 0.0, "is_disabled": 0, "rental_uris": {"ios": "https://dc.lft.to/lastmile_qr_scan", "android": "https://dc.lft.to/lastmile_qr_scan"}}, {"name": "806af021bfe9543ab663a3bc3492e7be", "lon": -77.05619933333334, "lat": 38.9241515, "type": "electric_scooter", "fusion_lon": 0.0, "is_reserved": 0, "bike_id": "806af021bfe9543ab663a3bc3492e7be", "fusion_lat": 0.0, "is_disabled": 0, "rental_uris": {"ios": "https://dc.lft.to/lastmile_qr_scan", "android": "https://dc.lft.to/lastmile_qr_scan"}}, {"name": "5ae21ffb6065a2724296faebe166a44d", "lon": -76.94635416666667, "lat": 38.898401, "type": "electric_scooter", "fusion_lon": 0.0, "is_reserved": 0, "bike_id": "5ae21ffb6065a2724296faebe166a44d", "fusion_lat": 0.0, "is_disabled": 0, "rental_uris": {"ios": "https://dc.lft.to/lastmile_qr_scan", "android": "https://dc.lft.to/lastmile_qr_scan"}}, {"name": "0a5d91509b614e2cff82e40019512eb0", "lon": -77.00215316666667, "lat": 38.90026733333333, "type": "electric_scooter", "fusion_lon": 0.0, "is_reserved": 0, "bike_id": "0a5d91509b614e2cff82e40019512eb0", "fusion_lat": 0.0, "is_disabled": 0, "rental_uris": {"ios": "https://dc.lft.to/lastmile_qr_scan", "android": "https://dc.lft.to/lastmile_qr_scan"}}, {"name": "379ad3741d28b543397b5654dd0160ce", "lon": -76.98090783333333, "lat": 38.88133766666667, "type": "electric_bike", "fusion_lon": 0.0, "is_reserved": 0, "bike_id": "379ad3741d28b543397b5654dd0160ce", "fusion_lat": 0.0, "is_disabled": 0, "rental_uris": {"ios": "https://dc.lft.to/lastmile_qr_scan", "android": "https://dc.lft.to/lastmile_qr_scan"}}, {"name": "a52ac911a70643f96f5840cb6819dbb5", "lon": -77.01759066666666, "lat": 38.9209325, "type": "electric_scooter", "fusion_lon": 0.0, "is_reserved": 0, "bike_id": "a52ac911a70643f96f5840cb6819dbb5", "fusion_lat": 0.0, "is_disabled": 0, "rental_uris": {"ios": "https://dc.lft.to/lastmile_qr_scan", "android": "https://dc.lft.to/lastmile_qr_scan"}}, {"name": "f288873373d828b4df6558c2dc375648", "lon": -76.982333, "lat": 38.90888, "type": "electric_scooter", "fusion_lon": 0.0, "is_reserved": 0, "bike_id": "f288873373d828b4df6558c2dc375648", "fusion_lat": 0.0, "is_disabled": 0, "rental_uris": {"ios": "https://dc.lft.to/lastmile_qr_scan", "android": "https://dc.lft.to/lastmile_qr_scan"}}, {"name": "a2afdd3196f585d91c138513b78c05e0", "lon": -77.02977866666667, "lat": 38.90504466666667, "type": "electric_scooter", "fusion_lon": 0.0, "is_reserved": 0, "bike_id": "a2afdd3196f585d91c138513b78c05e0", "fusion_lat": 0.0, "is_disabled": 0, "rental_uris": {"ios": "https://dc.lft.to/lastmile_qr_scan", "android": "https://dc.lft.to/lastmile_qr_scan"}}, {"name": "36c7e5a3a0893caec5e4ea4037cbff1b", "lon": -77.0271355, "lat": 38.918154, "type": "electric_scooter", "fusion_lon": 0.0, "is_reserved": 0, "bike_id": "36c7e5a3a0893caec5e4ea4037cbff1b", "fusion_lat": 0.0, "is_disabled": 0, "rental_uris": {"ios": "https://dc.lft.to/lastmile_qr_scan", "android": "https://dc.lft.to/lastmile_qr_scan"}}, {"name": "c2d63cb4c2d26074d8e32b24d70b1213", "lon": -77.00207833333333, "lat": 38.9002845, "type": "electric_scooter", "fusion_lon": 0.0, "is_reserved": 0, "bike_id": "c2d63cb4c2d26074d8e32b24d70b1213", "fusion_lat": 0.0, "is_disabled": 0, "rental_uris": {"ios": "https://dc.lft.to/lastmile_qr_scan", "android": "https://dc.lft.to/lastmile_qr_scan"}}, {"name": "21b7bf7ca74c8ffcd92f9958d24ec564", "lon": -77.027874, "lat": 38.898378666666666, "type": "electric_scooter", "fusion_lon": 0.0, "is_reserved": 0, "bike_id": "21b7bf7ca74c8ffcd92f9958d24ec564", "fusion_lat": 0.0, "is_disabled": 0, "rental_uris": {"ios": "https://dc.lft.to/lastmile_qr_scan", "android": "https://dc.lft.to/lastmile_qr_scan"}}, {"name": "18418855c05dee795f1ce16c7635b856", "lon": -76.9935185, "lat": 38.8450585, "type": "electric_scooter", "fusion_lon": 0.0, "is_reserved": 0, "bike_id": "18418855c05dee795f1ce16c7635b856", "fusion_lat": 0.0, "is_disabled": 0, "rental_uris": {"ios": "https://dc.lft.to/lastmile_qr_scan", "android": "https://dc.lft.to/lastmile_qr_scan"}},