{"data": {"bikes": [{"lat": 38.896959833333334, "is_disabled": 0, "type": "electric_scooter", "lon": -77.02409016666667, "bike_id": "765880f89c771981f19234812eddb3a5", "fusion_lat": 0.0, "name": "765880f89c771981f19234812eddb3a5", "is_reserved": 0, "rental_uris": {"android": "https://dc.lft.to/lastmile_qr_scan", "ios": "https://dc.lft.to/lastmile_qr_scan"}, "fusion_lon": 0.0}, {"lat": 38.905317, "is_disabled": 0, "type": "electric_scooter", "lon": -77.059342, "bike_id": "e8e39080c7f17783d65ddbb9607223f5", "fusion_lat": 0.0, "name": "e8e39080c7f17783d65ddbb9607223f5", "is_reserved": 0, "rental_uris": {"android": "https://dc.lft.to/lastmile_qr_scan", "ios": "https://dc.lft.to/lastmile_qr_scan"}, "fusion_lon": 0.0}, {"lat": 38.9073285, "is_disabled": 0, "type": "electric_scooter", "lon": -77.02376633333333, "bike_id": "250be84d10b93b3ca2202382b03a749f", "fusion_lat": 0.0, "name": "250be84d10b93b3ca2202382b03a749f", "is_reserved": 0, "rental_uris": {"android": "https://dc.lft.to/lastmile_qr_scan", "ios": "https://dc.lft.to/lastmile_qr_scan"}, "fusion_lon": 0.0}, {"lat": 38.887652833333334, "is_disabled": 0, "type": "electric_scooter", "lon": -76.955973, "bike_id": "43947555fd7326dbed1c2de25b497176", "fusion_lat": 0.0, "name": "43947555fd7326dbed1c2de25b497176", "is_reserved": 0, "rental_uris": {"android": "https://dc.lft.to/lastmile_qr_scan", "ios": "https://dc.lft.to/lastmile_qr_scan"}, "fusion_lon": 0.0}, {"lat": 38.904997, "is_disabled": 0, "type": "electric_scooter", "lon": -77.0014065, "bike_id": "c2699bb16fea197bf08b195cda764caa", "fusion_lat": 0.0, "name": "c2699bb16fea197bf08b195cda764caa", "is_reserved": 0, "rental_uris": {"android": "https://dc.lft.to/lastmile_qr_scan", "ios": "https://dc.lft.to/lastmile_qr_scan"}, "fusion_lon": 0.0}, {"lat": 38.917744666666664, "is_disabled": 0, "type": "electric_scooter", "lon": -77.014904, "bike_id": "58404dba8d1babafbba7e5a1323ece33", "fusion_lat": 0.0, "name": "58404dba8d1babafbba7e5a1323ece33", "is_reserved": 0, "rental_uris": {"android": "https://dc.lft.to/lastmile_qr_scan", "ios": "https://dc.lft.to/lastmile_qr_scan"}, "fusion_lon": 0.0}, {"lat": 38.920544166666666, "is_disabled": 0, "type": "electric_scooter", "lon": -77.02343783333333, "bike_id": "2156adf62a5ea0d0d8819455144a9e35", "fusion_lat": 0.0, "name": "2156adf62a5ea0d0d8819455144a9e35", "is_reserved": 0, "rental_uris": {"android": "https://dc.lft.to/lastmile_qr_scan", "ios": "https://dc.lft.to/lastmile_qr_scan"}, "fusion_lon": 0.0}, {"lat": 38.89226566666667, "is_disabled": 0, "type": "electric_scooter", "lon": -77.0486395, "bike_id": "258ee33420a89c4d0d62a6d7acc93d98", "fusion_lat": 0.0, "name": "258ee33420a89c4d0d62a6d7acc93d98", "is_reserved": 0, "rental_uris": {"android": "https://dc.lft.to/lastmile_qr_scan", "ios": "https://dc.lft.to/lastmile_qr_scan"}, "fusion_lon": 0.0}, {"lat": 38.9215075, "is_disabled": 0, "type": "electric_scooter", "lon": -76.969239, "bike_id": "676173cad059080cbabf63bd5f2474d2", "fusion_lat": 0.0, "name": "676173cad059080cbabf63bd5f2474d2", "is_reserved": 0, "rental_uris": {"android": "https://dc.lft.to/lastmile_qr_scan", "ios": "https://dc.lft.to/lastmile_qr_scan"}, "fusion_lon": 0.0}, {"lat": 38.90280683333334, "is_disabled": 0, "type": "electric_scooter", "lon": -77.017491, "bike_id": "f2daf40e45567dfa4e7bd46c8230ff0c", "fusion_lat": 0.0, "name": "f2daf40e45567dfa4e7bd46c8230ff0c", "is_reserved": 0, "rental_uris": {"android": "https://dc.lft.to/lastmile_qr_scan", "ios": "https://dc.lft.to/lastmile_qr_scan"}, "fusion_lon": 0.0}, {"lat": 38.91195783333333, "is_disabled": 0, "type": "electric_scooter", "lon": -77.00456816666667, "bike_id": "e43ec65d3c658f5551d0d126f8568637", "fusion_lat": 0.0, "name": "e43ec65d3c658f5551d0d126f8568637", "is_reserved": 0, "rental_uris": {"android": "https://dc.lft.to/lastmile_qr_scan", "ios": "https://dc.lft.to/lastmile_qr_scan"}, "fusion_lon": 0.0}, {"lat": 38.98431883333333, "is_disabled": 0, "type": "electric_scooter", "lon": -77.02674183333333, "bike_id": "5d8d8da6ce1c148a3d9ec74982a25ad3", "fusion_lat": 0.0, "name": "5d8d8da6ce1c148a3d9ec74982a25ad3", "is_reserved": 0, "rental_uris": {"android": "https://dc.lft.to/lastmile_qr_scan", "ios": "https://dc.lft.to/lastmile_qr_scan"}, "fusion_lon": 0.0}, {"lat": 38.92716766666667, "is_disabled": 0, "type": "electric_bike", "lon": -77.01365583333333, "bike_id": "e2974956ca4e50a8a41ecffc55aac45c", "fusion_lat": 0.0, "name": "e2974956ca4e50a8a41ecffc55aac45c", "is_reserved": 0, "rental_uris": {"android": "https://dc.lft.to/lastmile_qr_scan", "ios": "https://dc.lft.to/lastmile_qr_scan"}, "fusion_lon": 0.0}, {"lat": 38.909618, "is_disabled": 0, "type": "electric_scooter", "lon": -77.0480365, "bike_id": "1fe07f4a1f8e882fabda47913516cffa", "fusion_lat": 0.0, "name": "1fe07f4a1f8e882fabda47913516cffa", "is_reserved": 0, "rental_uris": {"android": "https://dc.lft.to/lastmile_qr_scan", "ios": "https://dc.lft.to/lastmile_qr_scan"}, "fusion_lon": 0.0}, {"lat": 38.931952, "is_disabled": 0, "type": "electric_scooter", "lon": -77.02570183333333, "bike_id": "90e323afe059b678a20008c6b737f6ca", "fusion_lat": 0.0, "name": "90e323afe059b678a20008c6b737f6ca", "is_reserved": 0, "rental_uris": {"android": "https://dc.lft.to/lastmile_qr_scan", "ios": "https://dc.lft.to/lastmile_qr_scan"}, "fusion_lon": 0.0}, {"lat": 38.89632683333333, "is_disabled": 0, "type": "electric_scooter", "lon": -77.03301366666666, "bike_id": "421050a3f80ccc647d8ed9eb9af4cbc6", "fusion_lat": 0.0, "name": "421050a3f80ccc647d8ed9eb9af4cbc6", "is_reserved": 0, "rental_uris": {"android": "https://dc.lft.to/lastmile_qr_scan", "ios": "https://dc.lft.to/lastmile_qr_scan"}, "fusion_lon": 0.0}, {"lat": 38.956624833333336, "is_disabled": 0, "type": "electric_bike", "lon": -77.01157916666666, "bike_id": "af1918f3eead80b401200ff4b17168e5", "fusion_lat": 0.0, "name": "af1918f3eead80b401200ff4b17168e5", "is_reserved": 0, "rental_uris": {"android": "https://dc.lft.to/lastmile_qr_scan", "ios": "https://dc.lft.to/lastmile_qr_scan"}, "fusion_lon": 0.0}, {"lat": 38.896894833333334, "is_disabled": 0, "type": "electric_scooter", "lon": -77.02773566666667, "bike_id": "2d9aebf6b0f870b5b83d927e6aea58ed", "fusion_lat": 0.0, "name": "2d9aebf6b0f870b5b83d927e6aea58ed", "is_reserved": 0, "rental_uris": {"android": "https://dc.lft.to/lastmile_qr_scan", "ios": "https://dc.lft.to/lastmile_qr_scan"}, "fusion_lon": 0.0}, {"lat": 38.90973666666667, "is_disabled": 0, "type": "electric_scooter", "lon": -77.0386135, "bike_id": "d873cd8052cc813557a26ae3626b1542", "fusion_lat": 0.0, "name": "d873cd8052cc813557a26ae3626b1542", "is_reserved": 0, "rental_uris": {"android": "https://dc.lft.to/lastmile_qr_scan", "ios": "https://dc.lft.to/lastmile_qr_scan"}, "fusion_lon": 0.0}, {"lat": 38.8880105, "is_disabled": 0, "type": "electric_scooter", "lon": -76.93360133333333, "bike_id": "2f30150922f0fc3b438f1e8ac324d000", "fusion_lat": 0.0, "name": "2f30150922f0fc3b438f1e8ac324d000", "is_reserved": 0, "rental_uris": {"android": "https://dc.lft.to/lastmile_qr_scan", "ios": "https://dc.lft.to/lastmile_qr_scan"}, "fusion_lon": 0.0}, {"lat": 38.883655833333336, "is_disabled": 0, "type": "electric_scooter", "lon": -76.9950845, "bike_id": "461d9be52a0688ac819e93189197294e", "fusion_lat": 0.0, "name": "461d9be52a0688ac819e93189197294e", "is_reserved": 0, "rental_uris": {"android": "https://dc.lft.to/lastmile_qr_scan", "ios": "https://dc.lft.to/lastmile_qr_scan"}, "fusion_lon": 0.0}, {"lat": 38.96608, "is_disabled": 0, "type": "electric_scooter", "lon": -77.02324116666666, "bike_id": "e1ed734c52c68243b7fbf2bb7d477472", "fusion_lat": 0.0, "name": "e1ed734c52c68243b7fbf2bb7d477472", "is_reserved": 0, "rental_uris": {"android": "https://dc.lft.to/lastmile_qr_scan", "ios": "https://dc.lft.to/lastmile_qr_scan"}, "fusion_lon": 0.0}, {"lat": 38.88095716666667, "is_disabled": 0, "type": "electric_scooter", "lon": -76.99244666666667, "bike_id": "d6b7993922f17ac8282863ec772fc741", "fusion_lat": 0.0, "name": "d6b7993922f17ac8282863ec772fc741", "is_reserved": 0, "rental_uris": {"android": "https://dc.lft.to/lastmile_qr_scan", "ios": "https://dc.lft.to/lastmile_qr_scan"}, "fusion_lon": 0.0}, {"lat": 38.92268116666666, "is_disabled": 0, "type": "electric_scooter", "lon": -77.019802, "bike_id": "76f4ba9037574742f6e5b064802246ae", "fusion_lat": 0.0, "name": "76f4ba9037574742f6e5b064802246ae", "is_reserved": 0, "rental_uris": {"android": "https://dc.lft.to/lastmile_qr_scan", "ios": "https://dc.lft.to/lastmile_qr_scan"}, "fusion_lon": 0.0}, {"lat": 38.9389565, "is_disabled": 0, "type": "electric_scooter", "lon": -77.03317466666667, "bike_id": "db1e294fa400d88517a26e1d50e92b6f", "fusion_lat": 0.0, "name": "db1e294fa400d88517a26e1d50e92b6f", "is_reserved": 0, "rental_uris": {"android": "https://dc.lft.to/lastmile_qr_scan", "ios": "https://dc.lft.to/lastmile_qr_scan"}, "fusion_lon": 0.0}, {"lat": 38.82791516666666, "is_disabled": 0, "type": "electric_bike", "lon": -77.00917383333334, "bike_id": "42ecf2f69803ea1197d3b13fcfb6ffe1", "fusion_lat": 0.0, "name": "42ecf2f69803ea1197d3b13fcfb6ffe1", "is_reserved": 0, "rental_uris": {"android": "https://dc.lft.to/lastmile_qr_scan", "ios": "https://dc.lft.to/lastmile_qr_scan"}, "fusion_lon": 0.0}, {"lat": 38.900301, "is_disabled": 0, "type": "electric_scooter", "lon": -77.0073845, "bike_id": "85d27b7a7f25abe85c473992cf73b2e5", "fusion_lat": 0.0, "name": "85d27b7a7f25abe85c473992cf73b2e5", "is_reserved": 0, "rental_uris": {"android": "https://dc.lft.to/lastmile_qr_scan", "ios": "https://dc.lft.to/lastmile_qr_scan"}, "fusion_lon": 0.0}, {"lat": 38.94203666666667, "is_disabled": 0, "type": "electric_bike", "lon": -77.01823083333333, "bike_id": "cf9fee59ffebc2c973b1a46951102de4", "fusion_lat": 0.0, "name": "cf9fee59ffebc2c973b1a46951102de4", "is_reserved": 0, "rental_uris": {"android": "https://dc.lft.to/lastmile_qr_scan", "ios": "https://dc.lft.to/lastmile_qr_scan"}, "fusion_lon": 0.0}, {"lat": 38.934787166666666, "is_disabled": 0, "type": "electric_scooter", "lon": -77.057895, "bike_id": "16de19c1fcd58a8afc16796afc0b5b89", "fusion_lat": 0.0, "name": "16de19c1fcd58a8afc16796afc0b5b89", "is_reserved": 0, "rental_uris": {"android": "https://dc.lft.to/lastmile_qr_scan", "ios": "https://dc.lft.to/lastmile_qr_scan"}, "fusion_lon": 0.0}, {"lat": 38.900255, "is_disabled": 0, "type": "electric_scooter", "lon": -77.00218383333333, "bike_id": "3bb412140f9abb811d2da5f9939c3b36", "fusion_lat": 0.0, "name": "3bb412140f9abb811d2da5f9939c3b36", "is_reserved": 0, "rental_uris": {"android": "https://dc.lft.to/lastmile_qr_scan", "ios": "https://dc.lft.to/lastmile_qr_scan"}, "fusion_lon": 0.0}, {"lat": 38.88765083333333, "is_disabled": 0, "type": "electric_scooter", "lon": -77.03160366666667, "bike_id": "212065d7f3e1712c7a37e6192f70919b", "fusion_lat": 0.0, "name": "212065d7f3e1712c7a37e6192f70919b", "is_reserved": 0, "rental_uris": {"android": "https://dc.lft.to/lastmile_qr_scan", "ios": "https://dc.lft.to/lastmile_qr_scan"}, "fusion_lon": 0.0}, {"lat": 38.9247945, "is_disabled": 0, "type": "electric_scooter", "lon": -77.03188966666667, "bike_id": "066c234b5a8a13563a7376abe523e470", "fusion_lat": 0.0, "name": "066c234b5a8a13563a7376abe523e470", "is_reserved": 0, "rental_uris": {"android": "https://dc.lft.to/lastmile_qr_scan", "ios": "https://dc.lft.to/lastmile_qr_scan"}, "fusion_lon": 0.0}, {"lat": 38.92544983333333, "is_disabled": 0, "type": "electric_scooter", "lon": -77.03451666666666, "bike_id": "1bcc641570da29ec3428ffff6fc3e695", "fusion_lat": 0.0, "name": "1bcc641570da29ec3428ffff6fc3e695", "is_reserved": 0, "rental_uris": {"android": "https://dc.lft.to/lastmile_qr_scan", "ios": "https://dc.lft.to/lastmile_qr_scan"}, "fusion_lon": 0.0}, {"lat": 38.96615166666667, "is_disabled": 0, "type": "electric_scooter", "lon": -77.020535, "bike_id": "a5c1448468b8bc5dbd36c697f93c9ff6", "fusion_lat": 0.0, "name": "a5c1448468b8bc5dbd36c697f93c9ff6", "is_reserved": 0, "rental_uris": {"android": "https://dc.lft.to/lastmile_qr_scan", "ios": "https://dc.lft.to/lastmile_qr_scan"}, "fusion_lon": 0.0}, {"lat": 38.858063, "is_disabled": 0, "type": "electric_scooter", "lon": -76.986525, "bike_id": "8260ad7cc7003a253ac7fb0edb48ce21", "fusion_lat": 0.0, "name": "8260ad7cc7003a253ac7fb0edb48ce21", "is_reserved": 0, "rental_uris": {"android": "https://dc.lft.to/lastmile_qr_scan", "ios": "https://dc.lft.to/lastmile_qr_scan"}, "fusion_lon": 0.0}, {"lat": 38.90013733333333, "is_disabled": 0, "type": "electric_scooter", "lon": -76.9223735, "bike_id": "a04afcd9afaf570989d732d7609a4d3d", "fusion_lat": 0.0, "name": "a04afcd9afaf570989d732d7609a4d3d", "is_reserved": 0, "rental_uris": {"android": "https://dc.lft.to/lastmile_qr_scan", "ios": "https://dc.lft.to/lastmile_qr_scan"}, "fusion_lon": 0.0}, {"lat": 38.92054366666667, "is_disabled": 0, "type": "electric_scooter", "lon": -77.03293566666666, "bike_id": "6607a1e8d5e65f3bfb7779e9fdba729e", "fusion_lat": 0.0, "name": "6607a1e8d5e65f3bfb7779e9fdba729e", "is_reserved": 0, "rental_uris": {"android": "https://dc.lft.to/lastmile_qr_scan", "ios": "https://dc.lft.to/lastmile_qr_scan"}, "fusion_lon": 0.0}, {"lat": 38.96260616666667, "is_disabled": 0, "type": "electric_scooter", "lon": -77.038286, "bike_id": "52d0e1ec6eb1a809b43ae36df60b8648", "fusion_lat": 0.0, "name": "52d0e1ec6eb1a809b43ae36df60b8648", "is_reserved": 0, "rental_uris": {"android": "https://dc.lft.to/lastmile_qr_scan", "ios": "https://dc.lft.to/lastmile_qr_scan"}, "fusion_lon": 0.0}, {"lat": 38.899924, "is_disabled": 0, "type": "electric_bike", "lon": -76.9811995, "bike_id": "0ecc96b6d6efbef00be07c5c89d93d84", "fusion_lat": 0.0, "name": "0ecc96b6d6efbef00be07c5c89d93d84", "is_reserved": 0, "rental_uris": {"android": "https://dc.lft.to/lastmile_qr_scan", "ios": "https://dc.lft.to/lastmile_qr_scan"}, "fusion_lon": 0.0}, {"lat": 38.910498833333335, "is_disabled": 0, "type": "electric_scooter", "lon": -77.02822066666667, "bike_id": "fafe47dd075afd49472081907c1e4d9f", "fusion_lat": 0.0, "name": "fafe47dd075afd49472081907c1e4d9f", "is_reserved": 0, "rental_uris": {"android": "https://dc.lft.to/lastmile_qr_scan", "ios": "https://dc.lft.to/lastmile_qr_scan"}, "fusion_lon": 0.0}, {"lat": 38.939636, "is_disabled": 0, "type": "electric_scooter", "lon": -77.02750466666667, "bike_id": "5cd4a9db76d04a4cbf2582231b2c4142", "fusion_lat": 0.0, "name": "5cd4a9db76d04a4cbf2582231b2c4142", "is_reserved": 0, "rental_uris": {"android": "https://dc.lft.to/lastmile_qr_scan", "ios": "https://dc.lft.to/lastmile_qr_scan"}, "fusion_lon": 0.0}, {"lat": 38.93351033333333, "is_disabled": 0, "type": "electric_scooter", "lon": -77.07177183333333, "bike_id": "f0b40c909e083d88a50aae89e1615119", "fusion_lat": 0.0, "name": "f0b40c909e083d88a50aae89e1615119", "is_reserved": 0, "rental_uris": {"android": "https://dc.lft.to/lastmile_qr_scan", "ios": "https://dc.lft.to/lastmile_qr_scan"}, "fusion_lon": 0.0}, {"lat": 38.92861116666667, "is_disabled": 0, "type": "electric_scooter", "lon": -77.03623316666666, "bike_id": "2d8c8bba4d650362878c20fc44100134", "fusion_lat": 0.0, "name": "2d8c8bba4d650362878c20fc44100134", "is_reserved": 0, "rental_uris": {"android": "https://dc.lft.to/lastmile_qr_scan", "ios": "https://dc.lft.to/lastmile_qr_scan"}, "fusion_lon": 0.0}, {"lat": 38.9275915, "is_disabled": 0, "type": "electric_scooter", "lon": -77.00590383333333, "bike_id": "7c316ec3125e9123e415082ba10adb00", "fusion_lat": 0.0, "name": "7c316ec3125e9123e415082ba10adb00", "is_reserved": 0, "rental_uris": {"android": "https://dc.lft.to/lastmile_qr_scan", "ios": "https://dc.lft.to/lastmile_qr_scan"}, "fusion_lon": 0.0}, {"lat": 38.88086366666667, "is_disabled": 0, "type": "electric_scooter", "lon": -77.005801, "bike_id": "96bd46834a2f854e94afdabf6c763e04", "fusion_lat": 0.0, "name": "96bd46834a2f854e94afdabf6c763e04", "is_reserved": 0, "rental_uris": {"android": "https://dc.lft.to/lastmile_qr_scan", "ios": "https://dc.lft.to/lastmile_qr_scan"}, "fusion_lon": 0.0}, {"lat": 38.933367, "is_disabled": 0, "type": "electric_scooter", "lon": -77.02934766666667, "bike_id": "b8d5a7344303bcdc57ea1d2f637e0a99", "fusion_lat": 0.0, "name": "b8d5a7344303bcdc57ea1d2f637e0a99", "is_reserved": 0, "rental_uris": {"android": "https://dc.lft.to/lastmile_qr_scan", "ios": "https://dc.lft.to/lastmile_qr_scan"}, "fusion_lon": 0.0}, {"lat": 38.905318666666666, "is_disabled": 0, "type": "electric_bike", "lon": -77.05933366666666, "bike_id": "ac0be002a61b7fe35452aca829d952e7", "fusion_lat": 0.0, "name": "ac0be002a61b7fe35452aca829d952e7", "is_reserved": 0, "rental_uris": {"android": "https://dc.lft.to/lastmile_qr_scan", "ios": "https://dc.lft.to/lastmile_qr_scan"}, "fusion_lon": 0.0}, {"lat": 38.9490795, "is_disabled": 0, "type": "electric_bike", "lon": -76.97238366666667, "bike_id": "beac592bdc63903eb242511fcffcdaec", "fusion_lat": 0.0, "name": "beac592bdc63903eb242511fcffcdaec", "is_reserved": 0, "rental_uris": {"android": "https://dc.lft.to/lastmile_qr_scan", "ios": "https://dc.lft.to/lastmile_qr_scan"}, "fusion_lon": 0.0}, {"lat": 38.92394633333333, "is_disabled": 0, "type": "electric_scooter", "lon": -77.027018, "bike_id": "48954267916b7084b85576471f4e1061", "fusion_lat": 0.0, "name": "48954267916b7084b85576471f4e1061", "is_reserved": 0, "rental_uris": {"android": "https://dc.lft.to/lastmile_qr_scan", "ios": "https://dc.lft.to/lastmile_qr_scan"}, "fusion_lon": 0.0}, {"lat": 38.9373735, "is_disabled": 0, "type": "electric_scooter", "lon": -77.03608283333334, "bike_id": "bc8c1162e03aa6f83b5cd7a67bcdee30", "fusion_lat": 0.0, "name": "bc8c1162e03aa6f83b5cd7a67bcdee30", "is_reserved": 0, "rental_uris": {"android": "https://dc.lft.to/lastmile_qr_scan", "ios": "https://dc.lft.to/lastmile_qr_scan"}, "fusion_lon": 0.0}, {"lat": 38.89843, "is_disabled": 0, "type": "electric_scooter", "lon": -77.03038266666667, "bike_id": "2a37d929aedfca23eb03e156e4e1c807", "fusion_lat": 0.0, "name": "2a37d929aedfca23eb03e156e4e1c807", "is_reserved": 0, "rental_uris": {"android": "https://dc.lft.to/lastmile_qr_scan", "ios": "https://dc.lft.to/lastmile_qr_scan"}, "fusion_lon": 0.0}, {"lat": 38.940978333333334, "is_disabled": 0, "type": "electric_scooter", "lon": -77.06141033333333, "bike_id": "34a84722cdd816920b50938db2ce9600", "fusion_lat": 0.0, "name": "34a84722cdd816920b50938db2ce9600", "is_reserved": 0, "rental_uris": {"android": "https://dc.lft.to/lastmile_qr_scan", "ios": "https://dc.lft.to/lastmile_qr_scan"}, "fusion_lon": 0.0}, {"lat": 38.93060933333334, "is_disabled": 0, "type": "electric_scooter", "lon": -77.03125483333334, "bike_id": "1a2f8c1e2dcda92fbe475d4d1768f04a", "fusion_lat": 0.0, "name": "1a2f8c1e2dcda92fbe475d4d1768f04a", "is_reserved": 0, "rental_uris": {"android": "https://dc.lft.to/lastmile_qr_scan", "ios": "https://dc.lft.to/lastmile_qr_scan"}, "fusion_lon": 0.0}, {"lat": 38.916334166666665, "is_disabled": 0, "type": "electric_scooter", "lon": -77.03125983333334, "bike_id": "f951812b542ba27db7e0243b9be0130f", "fusion_lat": 0.0, "name": "f951812b542ba27db7e0243b9be0130f", "is_reserved": 0, "rental_uris": {"android": "https://dc.lft.to/lastmile_qr_scan", "ios": "https://dc.lft.to/lastmile_qr_scan"}, "fusion_lon": 0.0}, {"lat": 38.939899833333335, "is_disabled": 0, "type": "electric_scooter", "lon": -77.02888166666666, "bike_id": "edf0452649162ae4d32b2806b42e05c6", "fusion_lat": 0.0, "name": "edf0452649162ae4d32b2806b42e05c6", "is_reserved": 0, "rental_uris": {"android": "https://dc.lft.to/lastmile_qr_scan", "ios": "https://dc.lft.to/lastmile_qr_scan"}, "fusion_lon": 0.0}, {"lat": 38.919038666666665, "is_disabled": 0, "type": "electric_scooter", "lon": -77.0320505, "bike_id": "34703cc175079357a35c9e7e5b5cbf76", "fusion_lat": 0.0, "name": "34703cc175079357a35c9e7e5b5cbf76", "is_reserved": 0, "rental_uris": {"android": "https://dc.lft.to/lastmile_qr_scan", "ios": "https://dc.lft.to/lastmile_qr_scan"}, "fusion_lon": 0.0}, {"lat": 38.90727416666667, "is_disabled": 0, "type": "electric_scooter", "lon": -77.02375616666667, "bike_id": "3b49b2409adf6d97262fb7c46b5a09f0", "fusion_lat": 0.0, "name": "3b49b2409adf6d97262fb7c46b5a09f0", "is_reserved": 0, "rental_uris": {"android": "https://dc.lft.to/lastmile_qr_scan", "ios": "https://dc.lft.to/lastmile_qr_scan"}, "fusion_lon": 0.0}, {"lat": 38.933177666666666, "is_disabled": 0, "type": "electric_scooter", "lon": -77.0570785, "bike_id": "18ccadde53199adc56c0bce0e7ce76bf", "fusion_lat": 0.0, "name": "18ccadde53199adc56c0bce0e7ce76bf", "is_reserved": 0, "rental_uris": {"android": "https://dc.lft.to/lastmile_qr_scan", "ios": "https://dc.lft.to/lastmile_qr_scan"}, "fusion_lon": 0.0}, {"lat": 38.91174316666667, "is_disabled": 0, "type": "electric_scooter", "lon": -77.03863983333333, "bike_id": "c389359c910e21b1142d824a63814572", "fusion_lat": 0.0, "name": "c389359c910e21b1142d824a63814572", "is_reserved": 0, "rental_uris": {"android": "https://dc.lft.to/lastmile_qr_scan", "ios": "https://dc.lft.to/lastmile_qr_scan"}, "fusion_lon": 0.0}, {"lat": 38.9212985, "is_disabled": 0, "type": "electric_scooter", "lon": -77.04010066666666, "bike_id": "06c35fa7c8be583ecb2b02f6a2ce8bfa", "fusion_lat": 0.0, "name": "06c35fa7c8be583ecb2b02f6a2ce8bfa", "is_reserved": 0, "rental_uris": {"android": "https://dc.lft.to/lastmile_qr_scan", "ios": "https://dc.lft.to/lastmile_qr_scan"}, "fusion_lon": 0.0}, {"lat": 38.8564965, "is_disabled": 0, "type": "electric_bike", "lon": -77.11249633333334, "bike_id": "d243243f238bc01e3f162ba14a822c33", "fusion_lat": 0.0, "name": "d243243f238bc01e3f162ba14a822c33", "is_reserved": 0, "rental_uris": {"android": "https://dc.lft.to/lastmile_qr_scan", "ios": "https://dc.lft.to/lastmile_qr_scan"}, "fusion_lon": 0.0}, {"lat": 38.8770535, "is_disabled": 0, "type": "electric_scooter", "lon": -77.01689766666667, "bike_id": "b2ba765037694403491e1a4988ca8989", "fusion_lat": 0.0, "name": "b2ba765037694403491e1a4988ca8989", "is_reserved": 0, "rental_uris": {"android": "https://dc.lft.to/lastmile_qr_scan", "ios": "https://dc.lft.to/lastmile_qr_scan"}, "fusion_lon": 0.0}, {"lat": 38.883778666666664, "is_disabled": 0, "type": "electric_scooter", "lon": -77.02438566666666, "bike_id": "0db34173d414bccf6b8c71ff431cf495", "fusion_lat": 0.0, "name": "0db34173d414bccf6b8c71ff431cf495", "is_reserved": 0, "rental_uris": {"android": "https://dc.lft.to/lastmile_qr_scan", "ios": "https://dc.lft.to/lastmile_qr_scan"}, "fusion_lon": 0.0}, {"lat": 38.92998216666667, "is_disabled": 0, "type": "electric_scooter", "lon": -77.03835316666667, "bike_id": "89d6ce6b03bdb42e92fc0e773ec4fc28", "fusion_lat": 0.0, "name": "89d6ce6b03bdb42e92fc0e773ec4fc28", "is_reserved": 0, "rental_uris": {"android": "https://dc.lft.to/lastmile_qr_scan", "ios": "https://dc.lft.to/lastmile_qr_scan"}, "fusion_lon": 0.0}, {"lat": 38.88274883333333, "is_disabled": 0, "type": "electric_scooter", "lon": -76.98831966666667, "bike_id": "18ada071293b0e8a00eb09dad302b530", "fusion_lat": 0.0, "name": "18ada071293b0e8a00eb09dad302b530", "is_reserved": 0, "rental_uris": {"android": "https://dc.lft.to/lastmile_qr_scan", "ios": "https://dc.lft.to/lastmile_qr_scan"}, "fusion_lon": 0.0}, {"lat": 38.910441666666664, "is_disabled": 0, "type": "electric_scooter", "lon": -77.041222, "bike_id": "e660e45b1e7e4e1ffbf9c316417c7dcc", "fusion_lat": 0.0, "name": "e660e45b1e7e4e1ffbf9c316417c7dcc", "is_reserved": 0, "rental_uris": {"android": "https://dc.lft.to/lastmile_qr_scan", "ios": "https://dc.lft.to/lastmile_qr_scan"}, "fusion_lon": 0.0}, {"lat": 38.93598983333333, "is_disabled": 0, "type": "electric_scooter", "lon": -77.05635916666667, "bike_id": "0f0caedf40d586bd3ba620617d7cfeed", "fusion_lat": 0.0, "name": "0f0caedf40d586bd3ba620617d7cfeed", "is_reserved": 0, "rental_uris": {"android": "https://dc.lft.to/lastmile_qr_scan", "ios": "https://dc.lft.to/lastmile_qr_scan"}, "fusion_lon": 0.0}, {"lat": 38.9049715, "is_disabled": 0, "type": "electric_scooter", "lon": -77.0446795, "bike_id": "c8c93924728b110bc695b3549024eb73", "fusion_lat": 0.0, "name": "c8c93924728b110bc695b3549024eb73", "is_reserved": 0, "rental_uris": {"android": "https://dc.lft.to/lastmile_qr_scan", "ios": "https://dc.lft.to/lastmile_qr_scan"}, "fusion_lon": 0.0}, {"lat": 38.910718833333334, "is_disabled": 0, "type": "electric_scooter", "lon": -77.02922083333333, "bike_id": "21b9c9ecdbeac50d58da83d1b5a9cb9f", "fusion_lat": 0.0, "name": "21b9c9ecdbeac50d58da83d1b5a9cb9f", "is_reserved": 0, "rental_uris": {"android": "https://dc.lft.to/lastmile_qr_scan", "ios": "https://dc.lft.to/lastmile_qr_scan"}, "fusion_lon": 0.0}, {"lat": 38.903664166666665, "is_disabled": 0, "type": "electric_scooter", "lon": -77.04101383333334, "bike_id": "dba82f005198c53c338b24a902ccf6dd", "fusion_lat": 0.0, "name": "dba82f005198c53c338b24a902ccf6dd", "is_reserved": 0, "rental_uris": {"android": "https://dc.lft.to/lastmile_qr_scan", "ios": "https://dc.lft.to/lastmile_qr_scan"}, "fusion_lon": 0.0}, {"lat": 38.917106833333335, "is_disabled": 0, "type": "electric_scooter", "lon": -77.04030783333333, "bike_id": "ce64a672cf144275d670e23289261821", "fusion_lat": 0.0, "name": "ce64a672cf144275d670e23289261821", "is_reserved": 0, "rental_uris": {"android": "https://dc.lft.to/lastmile_qr_scan", "ios": "https://dc.lft.to/lastmile_qr_scan"}, "fusion_lon": 0.0}, {"lat": 38.92040933333333, "is_disabled": 0, "type": "electric_scooter", "lon": -77.02362, "bike_id": "3728b850c52acbed231e3745823fb00e", "fusion_lat": 0.0, "name": "3728b850c52acbed231e3745823fb00e", "is_reserved": 0, "rental_uris": {"android": "https://dc.lft.to/lastmile_qr_scan", "ios": "https://dc.lft.to/lastmile_qr_scan"}, "fusion_lon": 0.0}, {"lat": 38.8858505, "is_disabled": 0, "type": "electric_scooter", "lon": -77.01224866666666, "bike_id": "319841649a682760a5f6ff4180c9fa6d", "fusion_lat": 0.0, "name": "319841649a682760a5f6ff4180c9fa6d", "is_reserved": 0, "rental_uris": {"android": "https://dc.lft.to/lastmile_qr_scan", "ios": "https://dc.lft.to/lastmile_qr_scan"}, "fusion_lon": 0.0}, {"lat": 38.9308525, "is_disabled": 0, "type": "electric_scooter", "lon": -76.96721183333334, "bike_id": "bed08613d1c9993f5a202bd988501a3d", "fusion_lat": 0.0, "name": "bed08613d1c9993f5a202bd988501a3d", "is_reserved": 0, "rental_uris": {"android": "https://dc.lft.to/lastmile_qr_scan", "ios": "https://dc.lft.to/lastmile_qr_scan"}, "fusion_lon": 0.0}, {"lat": 38.91048583333333, "is_disabled": 0, "type": "electric_scooter", "lon": -77.04098733333333, "bike_id": "4ea6e0cac7c56d52d0301a1a1a45668e", "fusion_lat": 0.0, "name": "4ea6e0cac7c56d52d0301a1a1a45668e", "is_reserved": 0, "rental_uris": {"android": "https://dc.lft.to/lastmile_qr_scan", "ios": "https://dc.lft.to/lastmile_qr_scan"}, "fusion_lon": 0.0}, {"lat": 38.936217, "is_disabled": 0, "type": "electric_scooter", "lon": -77.0321605, "bike_id": "2a33d9a48781626110f2e50423ea6192", "fusion_lat": 0.0, "name": "2a33d9a48781626110f2e50423ea6192", "is_reserved": 0, "rental_uris": {"android": "https://dc.lft.to/lastmile_qr_scan", "ios": "https://dc.lft.to/lastmile_qr_scan"}, "fusion_lon": 0.0}, {"lat": 38.998194166666664, "is_disabled": 0, "type": "electric_bike", "lon": -76.88374466666667, "bike_id": "ed02eeead2a8528bb45963e8435567f5", "fusion_lat": 0.0, "name": "ed02eeead2a8528bb45963e8435567f5", "is_reserved": 0, "rental_uris": {"android": "https://dc.lft.to/lastmile_qr_scan", "ios": "https://dc.lft.to/lastmile_qr_scan"}, "fusion_lon": 0.0}, {"lat": 39.03052316666667, "is_disabled": 0, "type": "electric_bike", "lon": -77.0948405, "bike_id": "d597aa361c8cb1be0ac5fc037b5d6a49", "fusion_lat": 0.0, "name": "d597aa361c8cb1be0ac5fc037b5d6a49", "is_reserved": 0, "rental_uris": {"android": "https://dc.lft.to/lastmile_qr_scan", "ios": "https://dc.lft.to/lastmile_qr_scan"}, "fusion_lon": 0.0}, {"lat": 39.024343333333334, "is_disabled": 0, "type": "electric_bike", "lon": -77.13096916666667, "bike_id": "34063e07173b1337aa3a5d6dddbcbb1c", "fusion_lat": 0.0, "name": "34063e07173b1337aa3a5d6dddbcbb1c", "is_reserved": 0, "rental_uris": {"android": "https://dc.lft.to/lastmile_qr_scan", "ios": "https://dc.lft.to/lastmile_qr_scan"}, "fusion_lon": 0.0}, {"lat": 38.87219483333333, "is_disabled": 0, "type": "electric_scooter", "lon": -77.01768183333333, "bike_id": "4770e9b9e875610d70945993be0a736d", "fusion_lat": 0.0, "name": "4770e9b9e875610d70945993be0a736d", "is_reserved": 0, "rental_uris": {"android": "https://dc.lft.to/lastmile_qr_scan", "ios": "https://dc.lft.to/lastmile_qr_scan"}, "fusion_lon": 0.0}, {"lat": 38.92834666666667, "is_disabled": 0, "type": "electric_scooter", "lon": -77.054289, "bike_id": "9a7ee08a954e359af80239b0de3138ac", "fusion_lat": 0.0, "name": "9a7ee08a954e359af80239b0de3138ac", "is_reserved": 0, "rental_uris": {"android": "https://dc.lft.to/lastmile_qr_scan", "ios": "https://dc.lft.to/lastmile_qr_scan"}, "fusion_lon": 0.0}, {"lat": 38.916867, "is_disabled": 0, "type": "electric_scooter", "lon": -77.0294555, "bike_id": "c8dc978e15f089793ae6d60f4c439c57", "fusion_lat": 0.0, "name": "c8dc978e15f089793ae6d60f4c439c57", "is_reserved": 0, "rental_uris": {"android": "https://dc.lft.to/lastmile_qr_scan", "ios": "https://dc.lft.to/lastmile_qr_scan"}, "fusion_lon": 0.0}, {"lat": 38.89969283333333, "is_disabled": 0, "type": "electric_scooter", "lon": -77.03345983333334, "bike_id": "7b39aa45e3b18f282daf06efdd27dd80", "fusion_lat": 0.0, "name": "7b39aa45e3b18f282daf06efdd27dd80", "is_reserved": 0, "rental_uris": {"android": "https://dc.lft.to/lastmile_qr_scan", "ios": "https://dc.lft.to/lastmile_qr_scan"}, "fusion_lon": 0.0}, {"lat": 38.92857716666666, "is_disabled": 0, "type": "electric_bike", "lon": -77.10676716666667, "bike_id": "e87b297b8c41c219dde70fb6d6bc0f0f", "fusion_lat": 0.0, "name": "e87b297b8c41c219dde70fb6d6bc0f0f", "is_reserved": 0, "rental_uris": {"android": "https://dc.lft.to/lastmile_qr_scan", "ios": "https://dc.lft.to/lastmile_qr_scan"}, "fusion_lon": 0.0}, {"lat": 38.80743566666666, "is_disabled": 0, "type": "electric_bike", "lon": -77.09425616666667, "bike_id": "31b72cddc6004278242735453d480af2", "fusion_lat": 0.0, "name": "31b72cddc6004278242735453d480af2", "is_reserved": 0, "rental_uris": {"android": "https://dc.lft.to/lastmile_qr_scan", "ios": "https://dc.lft.to/lastmile_qr_scan"}, "fusion_lon": 0.0}, {"lat": 38.91398266666667, "is_disabled": 0, "type": "electric_scooter", "lon": -77.03654633333333, "bike_id": "b2f239d270c04292989d40b67f6cafde", "fusion_lat": 0.0, "name": "b2f239d270c04292989d40b67f6cafde", "is_reserved": 0, "rental_uris": {"android": "https://dc.lft.to/lastmile_qr_scan", "ios": "https://dc.lft.to/lastmile_qr_scan"}, "fusion_lon": 0.0}, {"lat": 38.93179633333333, "is_disabled": 0, "type": "electric_scooter", "lon": -77.03153383333333, "bike_id": "3e52567ea8eb95c113a524f072260c6e", "fusion_lat": 0.0, "name": "3e52567ea8eb95c113a524f072260c6e", "is_reserved": 0, "rental_uris": {"android": "https://dc.lft.to/lastmile_qr_scan", "ios": "https://dc.lft.to/lastmile_qr_scan"}, "fusion_lon": 0.0}, {"lat": 38.90619, "is_disabled": 0, "type": "electric_scooter", "lon": -77.0651855, "bike_id": "d3c9eb2a0240ddc6cbc06b82283812f9", "fusion_lat": 0.0, "name": "d3c9eb2a0240ddc6cbc06b82283812f9", "is_reserved": 0, "rental_uris": {"android": "https://dc.lft.to/lastmile_qr_scan", "ios": "https://dc.lft.to/lastmile_qr_scan"}, "fusion_lon": 0.0}, {"lat": 38.89630183333333, "is_disabled": 0, "type": "electric_scooter", "lon": -77.04484316666667, "bike_id": "c41a1931da8c69572e435294b84a2d47", "fusion_lat": 0.0, "name": "c41a1931da8c69572e435294b84a2d47", "is_reserved": 0, "rental_uris": {"android": "https://dc.lft.to/lastmile_qr_scan", "ios": "https://dc.lft.to/lastmile_qr_scan"}, "fusion_lon": 0.0}, {"lat": 38.9250535, "is_disabled": 0, "type": "electric_scooter", "lon": -77.03771083333334, "bike_id": "f7152698114a1642e0f409bb449c6a38", "fusion_lat": 0.0, "name": "f7152698114a1642e0f409bb449c6a38", "is_reserved": 0, "rental_uris": {"android": "https://dc.lft.to/lastmile_qr_scan", "ios": "https://dc.lft.to/lastmile_qr_scan"}, "fusion_lon": 0.0}, {"lat": 38.884592, "is_disabled": 0, "type": "electric_scooter", "lon": -76.92619083333334, "bike_id": "ab41bf9025d0d571e2d019d2215416db", "fusion_lat": 0.0, "name": "ab41bf9025d0d571e2d019d2215416db", "is_reserved": 0, "rental_uris": {"android": "https://dc.lft.to/lastmile_qr_scan", "ios": "https://dc.lft.to/lastmile_qr_scan"}, "fusion_lon": 0.0}, {"lat": 38.900049333333335, "is_disabled": 0, "type": "electric_scooter", "lon": -76.9981045, "bike_id": "1756d4b9a4ecc9c93c302903a3aa53ab", "fusion_lat": 0.0, "name": "1756d4b9a4ecc9c93c302903a3aa53ab", "is_reserved": 0, "rental_uris": {"android": "https://dc.lft.to/lastmile_qr_scan", "ios": "https://dc.lft.to/lastmile_qr_scan"}, "fusion_lon": 0.0}, {"lat": 38.90954416666667, "is_disabled": 0, "type": "electric_scooter", "lon": -77.0366555, "bike_id": "9f5cf2872eaeda1fdfebcb972785ff16", "fusion_lat": 0.0, "name": "9f5cf2872eaeda1fdfebcb972785ff16", "is_reserved": 0, "rental_uris": {"android": "https://dc.lft.to/lastmile_qr_scan", "ios": "https://dc.lft.to/lastmile_qr_scan"}, "fusion_lon": 0.0}, {"lat": 38.937619, "is_disabled": 0, "type": "electric_scooter", "lon": -77.031389, "bike_id": "a4895f7fb38862c8e1d37dba483a5c0b", "fusion_lat": 0.0, "name": "a4895f7fb38862c8e1d37dba483a5c0b", "is_reserved": 0, "rental_uris": {"android": "https://dc.lft.to/lastmile_qr_scan", "ios": "https://dc.lft.to/lastmile_qr_scan"}, "fusion_lon": 0.0}, {"lat": 38.91016916666667, "is_disabled": 0, "type": "electric_scooter", "lon": -77.03856266666666, "bike_id": "1c4de98c65c3e56f72788d7f22aad29c", "fusion_lat": 0.0, "name": "1c4de98c65c3e56f72788d7f22aad29c", "is_reserved": 0, "rental_uris": {"android": "https://dc.lft.to/lastmile_qr_scan", "ios": "https://dc.lft.to/lastmile_qr_scan"}, "fusion_lon": 0.0}, {"lat": 38.938720333333336, "is_disabled": 0, "type": "electric_scooter", "lon": -77.02441566666667, "bike_id": "0424549fed450b80dfa12d6a86bebb11", "fusion_lat": 0.0, "name": "0424549fed450b80dfa12d6a86bebb11", "is_reserved": 0, "rental_uris": {"android": "https://dc.lft.to/lastmile_qr_scan", "ios": "https://dc.lft.to/lastmile_qr_scan"}, "fusion_lon": 0.0}, {"lat": 38.90893883333333, "is_disabled": 0, "type": "electric_scooter", "lon": -77.06449233333333, "bike_id": "036782c497de350b281b7569283191b7", "fusion_lat": 0.0, "name": "036782c497de350b281b7569283191b7", "is_reserved": 0, "rental_uris": {"android": "https://dc.lft.to/lastmile_qr_scan", "ios": "https://dc.lft.to/lastmile_qr_scan"}, "fusion_lon": 0.0}, {"lat": 38.8872165, "is_disabled": 0, "type": "electric_scooter", "lon": -77.01379416666667, "bike_id": "aa465ae879f5ab3c3199947b3b3c8ace", "fusion_lat": 0.0, "name": "aa465ae879f5ab3c3199947b3b3c8ace", "is_reserved": 0, "rental_uris": {"android": "https://dc.lft.to/lastmile_qr_scan", "ios": "https://dc.lft.to/lastmile_qr_scan"}, "fusion_lon": 0.0}, {"lat": 38.91923716666667, "is_disabled": 0, "type": "electric_scooter", "lon": -77.00097633333333, "bike_id": "9350b24de59ce59d1db3eadcc4083930", "fusion_lat": 0.0, "name": "9350b24de59ce59d1db3eadcc4083930", "is_reserved": 0, "rental_uris": {"android": "https://dc.lft.to/lastmile_qr_scan", "ios": "https://dc.lft.to/lastmile_qr_scan"}, "fusion_lon": 0.0}, {"lat": 38.902807333333335, "is_disabled": 0, "type": "electric_scooter", "lon": -77.0208175, "bike_id": "1aab784bd0d6ae162508533f3e106d29", "fusion_lat": 0.0, "name": "1aab784bd0d6ae162508533f3e106d29", "is_reserved": 0, "rental_uris": {"android": "https://dc.lft.to/lastmile_qr_scan", "ios": "https://dc.lft.to/lastmile_qr_scan"}, "fusion_lon": 0.0}, {"lat": 38.90874, "is_disabled": 0, "type": "electric_scooter", "lon": -77.03670966666667, "bike_id": "6d9c9d097aec8adea5b40bf3c85ab01d", "fusion_lat": 0.0, "name": "6d9c9d097aec8adea5b40bf3c85ab01d", "is_reserved": 0, "rental_uris": {"android": "https://dc.lft.to/lastmile_qr_scan", "ios": "https://dc.lft.to/lastmile_qr_scan"}, "fusion_lon": 0.0}, {"lat": 38.920533, "is_disabled": 0, "type": "electric_scooter", "lon": -77.03290033333333, "bike_id": "3e70b238cbbaf0fa6336fea2fe81575a", "fusion_lat": 0.0, "name": "3e70b238cbbaf0fa6336fea2fe81575a", "is_reserved": 0, "rental_uris": {"android": "https://dc.lft.to/lastmile_qr_scan", "ios": "https://dc.lft.to/lastmile_qr_scan"}, "fusion_lon": 0.0}, {"lat": 38.924596666666666, "is_disabled": 0, "type": "electric_scooter", "lon": -77.01226266666667, "bike_id": "f04bd364bcb31f72e0dda432087ff18b", "fusion_lat": 0.0, "name": "f04bd364bcb31f72e0dda432087ff18b", "is_reserved": 0, "rental_uris": {"android": "https://dc.lft.to/lastmile_qr_scan", "ios": "https://dc.lft.to/lastmile_qr_scan"}, "fusion_lon": 0.0}, {"lat": 38.95214383333333, "is_disabled": 0, "type": "electric_scooter", "lon": -77.0201415, "bike_id": "1e9c016caa12af7b0862c49b5484c12e", "fusion_lat": 0.0, "name": "1e9c016caa12af7b0862c49b5484c12e", "is_reserved": 0, "rental_uris": {"android": "https://dc.lft.to/lastmile_qr_scan", "ios": "https://dc.lft.to/lastmile_qr_scan"}, "fusion_lon": 0.0}, {"lat": 38.93971616666666, "is_disabled": 0, "type": "electric_scooter", "lon": -77.035864, "bike_id": "00fa2dfdbd7b84e6c8d1b3cab65ac325", "fusion_lat": 0.0, "name": "00fa2dfdbd7b84e6c8d1b3cab65ac325", "is_reserved": 0, "rental_uris": {"android": "https://dc.lft.to/lastmile_qr_scan", "ios": "https://dc.lft.to/lastmile_qr_scan"}, "fusion_lon": 0.0}, {"lat": 38.86357916666667, "is_disabled": 0, "type": "electric_scooter", "lon": -76.98275233333334, "bike_id": "ec302221753895e5ae303bafcefe5fad", "fusion_lat": 0.0, "name": "ec302221753895e5ae303bafcefe5fad", "is_reserved": 0, "rental_uris": {"android": "https://dc.lft.to/lastmile_qr_scan", "ios": "https://dc.lft.to/lastmile_qr_scan"}, "fusion_lon": 0.0}, {"lat": 38.88129633333333, "is_disabled": 0, "type": "electric_bike", "lon": -77.01700516666666, "bike_id": "7486ccf65def4b762ad7d9ee7c63dcca", "fusion_lat": 0.0, "name": "7486ccf65def4b762ad7d9ee7c63dcca", "is_reserved": 0, "rental_uris": {"android": "https://dc.lft.to/lastmile_qr_scan", "ios": "https://dc.lft.to/lastmile_qr_scan"}, "fusion_lon": 0.0}, {"lat": 38.88730833333334, "is_disabled": 0, "type": "electric_scooter", "lon": -77.02832283333333, "bike_id": "7da97eb27eea7f84fc5597e79757e630", "fusion_lat": 0.0, "name": "7da97eb27eea7f84fc5597e79757e630", "is_reserved": 0, "rental_uris": {"android": "https://dc.lft.to/lastmile_qr_scan", "ios": "https://dc.lft.to/lastmile_qr_scan"}, "fusion_lon": 0.0}, {"lat": 38.907826166666666, "is_disabled": 0, "type": "electric_scooter", "lon": -77.06888116666667, "bike_id": "7e0227a2a5aef289924caad8dfc46842", "fusion_lat": 0.0, "name": "7e0227a2a5aef289924caad8dfc46842", "is_reserved": 0, "rental_uris": {"android": "https://dc.lft.to/lastmile_qr_scan", "ios": "https://dc.lft.to/lastmile_qr_scan"}, "fusion_lon": 0.0}, {"lat": 38.905062666666666, "is_disabled": 0, "type": "electric_scooter", "lon": -77.06886033333333, "bike_id": "af25428646ab29163ba95c5b2f02b4d0", "fusion_lat": 0.0, "name": "af25428646ab29163ba95c5b2f02b4d0", "is_reserved": 0, "rental_uris": {"android": "https://dc.lft.to/lastmile_qr_scan", "ios": "https://dc.lft.to/lastmile_qr_scan"}, "fusion_lon": 0.0}, {"lat": 38.933223, "is_disabled": 0, "type": "electric_scooter", "lon": -77.05713483333334, "bike_id": "01384411530654eca30db93cb6e3502c", "fusion_lat": 0.0, "name": "01384411530654eca30db93cb6e3502c", "is_reserved": 0, "rental_uris": {"android": "https://dc.lft.to/lastmile_qr_scan", "ios": "https://dc.lft.to/lastmile_qr_scan"}, "fusion_lon": 0.0}, {"lat": 38.9353985, "is_disabled": 0, "type": "electric_scooter", "lon": -77.0341205, "bike_id": "a7e6891abfeb5f91760a9f3efb167e2d", "fusion_lat": 0.0, "name": "a7e6891abfeb5f91760a9f3efb167e2d", "is_reserved": 0, "rental_uris": {"android": "https://dc.lft.to/lastmile_qr_scan", "ios": "https://dc.lft.to/lastmile_qr_scan"}, "fusion_lon": 0.0}, {"lat": 38.904751833333336, "is_disabled": 0, "type": "electric_scooter", "lon": -77.0323885, "bike_id": "9ee68f233e5876498767ec0fbe6d7fcb", "fusion_lat": 0.0, "name": "9ee68f233e5876498767ec0fbe6d7fcb", "is_reserved": 0, "rental_uris": {"android": "https://dc.lft.to/lastmile_qr_scan", "ios": "https://dc.lft.to/lastmile_qr_scan"}, "fusion_lon": 0.0}, {"lat": 39.01595483333333, "is_disabled": 0, "type": "electric_bike", "lon": -77.04426133333334, "bike_id": "e7728a0375d119ce6b1d9121450c3615", "fusion_lat": 0.0, "name": "e7728a0375d119ce6b1d9121450c3615", "is_reserved": 0, "rental_uris": {"android": "https://dc.lft.to/lastmile_qr_scan", "ios": "https://dc.lft.to/lastmile_qr_scan"}, "fusion_lon": 0.0}, {"lat": 38.916749, "is_disabled": 0, "type": "electric_scooter", "lon": -77.02287933333334, "bike_id": "bb38907c9e38e1155406ab9792290bf9", "fusion_lat": 0.0, "name": "bb38907c9e38e1155406ab9792290bf9", "is_reserved": 0, "rental_uris": {"android": "https://dc.lft.to/lastmile_qr_scan", "ios": "https://dc.lft.to/lastmile_qr_scan"}, "fusion_lon": 0.0}, {"lat": 38.901236, "is_disabled": 0, "type": "electric_scooter", "lon": -77.01814583333334, "bike_id": "b179a1220a08f72f96356e4a23a41723", "fusion_lat": 0.0, "name": "b179a1220a08f72f96356e4a23a41723", "is_reserved": 0, "rental_uris": {"android": "https://dc.lft.to/lastmile_qr_scan", "ios": "https://dc.lft.to/lastmile_qr_scan"}, "fusion_lon": 0.0}, {"lat": 38.88433766666667, "is_disabled": 0, "type": "electric_scooter", "lon": -77.03035916666667, "bike_id": "2a3c5c4b09d0667575da0a48b03b880f", "fusion_lat": 0.0, "name": "2a3c5c4b09d0667575da0a48b03b880f", "is_reserved": 0, "rental_uris": {"android": "https://dc.lft.to/lastmile_qr_scan", "ios": "https://dc.lft.to/lastmile_qr_scan"}, "fusion_lon": 0.0}, {"lat": 38.91766633333334, "is_disabled": 0, "type": "electric_bike", "lon": -77.04759666666666, "bike_id": "7f70dcdcdefe13401c41596d2263da2e", "fusion_lat": 0.0, "name": "7f70dcdcdefe13401c41596d2263da2e", "is_reserved": 0, "rental_uris": {"android": "https://dc.lft.to/lastmile_qr_scan", "ios": "https://dc.lft.to/lastmile_qr_scan"}, "fusion_lon": 0.0}, {"lat": 38.91084466666667, "is_disabled": 0, "type": "electric_scooter", "lon": -77.076448, "bike_id": "a1a766513fb46a65ce10717129f0598f", "fusion_lat": 0.0, "name": "a1a766513fb46a65ce10717129f0598f", "is_reserved": 0, "rental_uris": {"android": "https://dc.lft.to/lastmile_qr_scan", "ios": "https://dc.lft.to/lastmile_qr_scan"}, "fusion_lon": 0.0}, {"lat": 38.891246833333334, "is_disabled": 0, "type": "electric_scooter", "lon": -76.940927, "bike_id": "5a57ed76325e2a6fa06b3d7e2fa69ed0", "fusion_lat": 0.0, "name": "5a57ed76325e2a6fa06b3d7e2fa69ed0", "is_reserved": 0, "rental_uris": {"android": "https://dc.lft.to/lastmile_qr_scan", "ios": "https://dc.lft.to/lastmile_qr_scan"}, "fusion_lon": 0.0}, {"lat": 38.94807616666667, "is_disabled": 0, "type": "electric_scooter", "lon": -77.07910766666667, "bike_id": "85d25b2f4c67aac9a22cc9da6aa734aa", "fusion_lat": 0.0, "name": "85d25b2f4c67aac9a22cc9da6aa734aa", "is_reserved": 0, "rental_uris": {"android": "https://dc.lft.to/lastmile_qr_scan", "ios": "https://dc.lft.to/lastmile_qr_scan"}, "fusion_lon": 0.0}, {"lat": 38.90005433333333, "is_disabled": 0, "type": "electric_scooter", "lon": -76.99848583333333, "bike_id": "8df3572786d9b4d6ebe7ae3ebb31aac7", "fusion_lat": 0.0, "name": "8df3572786d9b4d6ebe7ae3ebb31aac7", "is_reserved": 0, "rental_uris": {"android": "https://dc.lft.to/lastmile_qr_scan", "ios": "https://dc.lft.to/lastmile_qr_scan"}, "fusion_lon": 0.0}, {"lat": 38.90855416666667, "is_disabled": 0, "type": "electric_scooter", "lon": -77.086032, "bike_id": "2a291494c43d706af0ceed2c3d1ca361", "fusion_lat": 0.0, "name": "2a291494c43d706af0ceed2c3d1ca361", "is_reserved": 0, "rental_uris": {"android": "https://dc.lft.to/lastmile_qr_scan", "ios": "https://dc.lft.to/lastmile_qr_scan"}, "fusion_lon": 0.0}, {"lat": 38.90779, "is_disabled": 0, "type": "electric_scooter", "lon": -77.06812983333333, "bike_id": "a6d3cdddf5f439e5ad4812ad431cd096", "fusion_lat": 0.0, "name": "a6d3cdddf5f439e5ad4812ad431cd096", "is_reserved": 0, "rental_uris": {"android": "https://dc.lft.to/lastmile_qr_scan", "ios": "https://dc.lft.to/lastmile_qr_scan"}, "fusion_lon": 0.0}, {"lat": 38.93635333333334, "is_disabled": 0, "type": "electric_scooter", "lon": -77.05878116666666, "bike_id": "d2fc34c90f3c1302c7da6b364a4cbaca", "fusion_lat": 0.0, "name": "d2fc34c90f3c1302c7da6b364a4cbaca", "is_reserved": 0, "rental_uris": {"android": "https://dc.lft.to/lastmile_qr_scan", "ios": "https://dc.lft.to/lastmile_qr_scan"}, "fusion_lon": 0.0}, {"lat": 38.91345616666667, "is_disabled": 0, "type": "electric_scooter", "lon": -77.03184516666667, "bike_id": "aaf1614c9640e123f53786164df739a4", "fusion_lat": 0.0, "name": "aaf1614c9640e123f53786164df739a4", "is_reserved": 0, "rental_uris": {"android": "https://dc.lft.to/lastmile_qr_scan", "ios": "https://dc.lft.to/lastmile_qr_scan"}, "fusion_lon": 0.0}, {"lat": 38.90899266666667, "is_disabled": 0, "type": "electric_scooter", "lon": -76.99913616666667, "bike_id": "13a2fca5a32f5452e7b5755056ac4b39", "fusion_lat": 0.0, "name": "13a2fca5a32f5452e7b5755056ac4b39", "is_reserved": 0, "rental_uris": {"android": "https://dc.lft.to/lastmile_qr_scan", "ios": "https://dc.lft.to/lastmile_qr_scan"}, "fusion_lon": 0.0}, {"lat": 38.909735833333336, "is_disabled": 0, "type": "electric_scooter", "lon": -77.032152, "bike_id": "0e9513fdcc49fcb1f635cf55db9e2b8a", "fusion_lat": 0.0, "name": "0e9513fdcc49fcb1f635cf55db9e2b8a", "is_reserved": 0, "rental_uris": {"android": "https://dc.lft.to/lastmile_qr_scan", "ios": "https://dc.lft.to/lastmile_qr_scan"}, "fusion_lon": 0.0}, {"lat": 38.891324833333336, "is_disabled": 0, "type": "electric_scooter", "lon": -76.94388283333333, "bike_id": "680b53d5387f358b6d19eaf3d4c0b221", "fusion_lat": 0.0, "name": "680b53d5387f358b6d19eaf3d4c0b221", "is_reserved": 0, "rental_uris": {"android": "https://dc.lft.to/lastmile_qr_scan", "ios": "https://dc.lft.to/lastmile_qr_scan"}, "fusion_lon": 0.0}, {"lat": 38.916998166666666, "is_disabled": 0, "type": "electric_scooter", "lon": -77.00811783333333, "bike_id": "9a3f67ff9702585e1ecfe788114b239d", "fusion_lat": 0.0, "name": "9a3f67ff9702585e1ecfe788114b239d", "is_reserved": 0, "rental_uris": {"android": "https://dc.lft.to/lastmile_qr_scan", "ios": "https://dc.lft.to/lastmile_qr_scan"}, "fusion_lon": 0.0}, {"lat": 38.932142166666665, "is_disabled": 0, "type": "electric_scooter", "lon": -77.03655683333334, "bike_id": "27e33a67674aee5771f2a76797d47e2a", "fusion_lat": 0.0, "name": "27e33a67674aee5771f2a76797d47e2a", "is_reserved": 0, "rental_uris": {"android": "https://dc.lft.to/lastmile_qr_scan", "ios": "https://dc.lft.to/lastmile_qr_scan"}, "fusion_lon": 0.0}, {"lat": 38.93058666666667, "is_disabled": 0, "type": "electric_scooter", "lon": -77.0418115, "bike_id": "02766bf32772cb67e694fd2558f2c91b", "fusion_lat": 0.0, "name": "02766bf32772cb67e694fd2558f2c91b", "is_reserved": 0, "rental_uris": {"android": "https://dc.lft.to/lastmile_qr_scan", "ios": "https://dc.lft.to/lastmile_qr_scan"}, "fusion_lon": 0.0}, {"lat": 38.930649833333334, "is_disabled": 0, "type": "electric_scooter", "lon": -77.031526, "bike_id": "88cb0885a4c9cef6b792a09356dbb47b", "fusion_lat": 0.0, "name": "88cb0885a4c9cef6b792a09356dbb47b", "is_reserved": 0, "rental_uris": {"android": "https://dc.lft.to/lastmile_qr_scan", "ios": "https://dc.lft.to/lastmile_qr_scan"}, "fusion_lon": 0.0}, {"lat": 38.90621433333333, "is_disabled": 0, "type": "electric_scooter", "lon": -76.98982433333333, "bike_id": "53f41a529853d92a625d634af89c006a", "fusion_lat": 0.0, "name": "53f41a529853d92a625d634af89c006a", "is_reserved": 0, "rental_uris": {"android": "https://dc.lft.to/lastmile_qr_scan", "ios": "https://dc.lft.to/lastmile_qr_scan"}, "fusion_lon": 0.0}, {"lat": 38.85910616666666, "is_disabled": 0, "type": "electric_scooter", "lon": -76.9914135, "bike_id": "23a580b7e4e695b4aa0d606a16e44705", "fusion_lat": 0.0, "name": "23a580b7e4e695b4aa0d606a16e44705", "is_reserved": 0, "rental_uris": {"android": "https://dc.lft.to/lastmile_qr_scan", "ios": "https://dc.lft.to/lastmile_qr_scan"}, "fusion_lon": 0.0}, {"lat": 38.899047, "is_disabled": 0, "type": "electric_scooter", "lon": -76.933667, "bike_id": "3f6de8ec7826fce9732a0a487c981502", "fusion_lat": 0.0, "name": "3f6de8ec7826fce9732a0a487c981502", "is_reserved": 0, "rental_uris": {"android": "https://dc.lft.to/lastmile_qr_scan", "ios": "https://dc.lft.to/lastmile_qr_scan"}, "fusion_lon": 0.0}, {"lat": 38.93409533333333, "is_disabled": 0, "type": "electric_scooter", "lon": -77.03256033333334, "bike_id": "79fb7e2f1d88db1af1c137d4454e73b3", "fusion_lat": 0.0, "name": "79fb7e2f1d88db1af1c137d4454e73b3", "is_reserved": 0, "rental_uris": {"android": "https://dc.lft.to/lastmile_qr_scan", "ios": "https://dc.lft.to/lastmile_qr_scan"}, "fusion_lon": 0.0}, {"lat": 38.91521133333333, "is_disabled": 0, "type": "electric_scooter", "lon": -77.038407, "bike_id": "b0a4a62039ff1bef1014050c17c946b6", "fusion_lat": 0.0, "name": "b0a4a62039ff1bef1014050c17c946b6", "is_reserved": 0, "rental_uris": {"android": "https://dc.lft.to/lastmile_qr_scan", "ios": "https://dc.lft.to/lastmile_qr_scan"}, "fusion_lon": 0.0}, {"lat": 38.934818666666665, "is_disabled": 0, "type": "electric_scooter", "lon": -77.072718, "bike_id": "612c45796168913047c16bc3cbf6bc35", "fusion_lat": 0.0, "name": "612c45796168913047c16bc3cbf6bc35", "is_reserved": 0, "rental_uris": {"android": "https://dc.lft.to/lastmile_qr_scan", "ios": "https://dc.lft.to/lastmile_qr_scan"}, "fusion_lon": 0.0}, {"lat": 38.95170666666667, "is_disabled": 0, "type": "electric_scooter", "lon": -77.00973983333333, "bike_id": "90b5d0c3043e281137c2e5951696e665", "fusion_lat": 0.0, "name": "90b5d0c3043e281137c2e5951696e665", "is_reserved": 0, "rental_uris": {"android": "https://dc.lft.to/lastmile_qr_scan", "ios": "https://dc.lft.to/lastmile_qr_scan"}, "fusion_lon": 0.0}, {"lat": 38.90079716666666, "is_disabled": 0, "type": "electric_scooter", "lon": -77.05316516666667, "bike_id": "b1ed75cd0494d21fa5b33d13dce75a0c", "fusion_lat": 0.0, "name": "b1ed75cd0494d21fa5b33d13dce75a0c", "is_reserved": 0, "rental_uris": {"android": "https://dc.lft.to/lastmile_qr_scan", "ios": "https://dc.lft.to/lastmile_qr_scan"}, "fusion_lon": 0.0}, {"lat": 38.92901616666666, "is_disabled": 0, "type": "electric_scooter", "lon": -77.03237983333334, "bike_id": "554c574a76142c4b86555b65472fe89e", "fusion_lat": 0.0, "name": "554c574a76142c4b86555b65472fe89e", "is_reserved": 0, "rental_uris": {"android": "https://dc.lft.to/lastmile_qr_scan", "ios": "https://dc.lft.to/lastmile_qr_scan"}, "fusion_lon": 0.0}, {"lat": 38.936804, "is_disabled": 0, "type": "electric_scooter", "lon": -77.035771, "bike_id": "cca775eb5b7950b414813fdead137376", "fusion_lat": 0.0, "name": "cca775eb5b7950b414813fdead137376", "is_reserved": 0, "rental_uris": {"android": "https://dc.lft.to/lastmile_qr_scan", "ios": "https://dc.lft.to/lastmile_qr_scan"}, "fusion_lon": 0.0}, {"lat": 38.929076, "is_disabled": 0, "type": "electric_scooter", "lon": -77.03252733333333, "bike_id": "f2ba3efa91a727e678e477c3ab246ac8", "fusion_lat": 0.0, "name": "f2ba3efa91a727e678e477c3ab246ac8", "is_reserved": 0, "rental_uris": {"android": "https://dc.lft.to/lastmile_qr_scan", "ios": "https://dc.lft.to/lastmile_qr_scan"}, "fusion_lon": 0.0}, {"lat": 38.9463205, "is_disabled": 0, "type": "electric_scooter", "lon": -77.01846166666667, "bike_id": "49a38e54a0606c215e0f8e0233c66c7a", "fusion_lat": 0.0, "name": "49a38e54a0606c215e0f8e0233c66c7a", "is_reserved": 0, "rental_uris": {"android": "https://dc.lft.to/lastmile_qr_scan", "ios": "https://dc.lft.to/lastmile_qr_scan"}, "fusion_lon": 0.0}, {"lat": 39.030485666666664, "is_disabled": 0, "type": "electric_bike", "lon": -77.09481983333333, "bike_id": "deb2f4e4338e69448d8bc4b5d4001920", "fusion_lat": 0.0, "name": "deb2f4e4338e69448d8bc4b5d4001920", "is_reserved": 0, "rental_uris": {"android": "https://dc.lft.to/lastmile_qr_scan", "ios": "https://dc.lft.to/lastmile_qr_scan"}, "fusion_lon": 0.0}, {"lat": 38.9221, "is_disabled": 0, "type": "electric_scooter", "lon": -77.042447, "bike_id": "dac4268fd37fab1fa5a590e018e97c38", "fusion_lat": 0.0, "name": "dac4268fd37fab1fa5a590e018e97c38", "is_reserved": 0, "rental_uris": {"android": "https://dc.lft.to/lastmile_qr_scan", "ios": "https://dc.lft.to/lastmile_qr_scan"}, "fusion_lon": 0.0}, {"lat": 38.895122, "is_disabled": 0, "type": "electric_scooter", "lon": -77.0435565, "bike_id": "1d9b230e2dd4b046ee87167527436ebf", "fusion_lat": 0.0, "name": "1d9b230e2dd4b046ee87167527436ebf", "is_reserved": 0, "rental_uris": {"android": "https://dc.lft.to/lastmile_qr_scan", "ios": "https://dc.lft.to/lastmile_qr_scan"}, "fusion_lon": 0.0}, {"lat": 38.92323433333333, "is_disabled": 0, "type": "electric_scooter", "lon": -77.038958, "bike_id": "7c1ab4ceca12315342f7c7f5c58bf184", "fusion_lat": 0.0, "name": "7c1ab4ceca12315342f7c7f5c58bf184", "is_reserved": 0, "rental_uris": {"android": "https://dc.lft.to/lastmile_qr_scan", "ios": "https://dc.lft.to/lastmile_qr_scan"}, "fusion_lon": 0.0}, {"lat": 38.9098275, "is_disabled": 0, "type": "electric_scooter", "lon": -77.04509883333333, "bike_id": "2d170a37e92496ff398351e303741ac9", "fusion_lat": 0.0, "name": "2d170a37e92496ff398351e303741ac9", "is_reserved": 0, "rental_uris": {"android": "https://dc.lft.to/lastmile_qr_scan", "ios": "https://dc.lft.to/lastmile_qr_scan"}, "fusion_lon": 0.0}, {"lat": 38.90135383333333, "is_disabled": 0, "type": "electric_scooter", "lon": -77.0007035, "bike_id": "7c61342a63af8cfc438decbf8a709086", "fusion_lat": 0.0, "name": "7c61342a63af8cfc438decbf8a709086", "is_reserved": 0, "rental_uris": {"android": "https://dc.lft.to/lastmile_qr_scan", "ios": "https://dc.lft.to/lastmile_qr_scan"}, "fusion_lon": 0.0}, {"lat": 38.92184966666667, "is_disabled": 0, "type": "electric_scooter", "lon": -77.04233233333333, "bike_id": "c4a266706077feca0024a16be25f1d72", "fusion_lat": 0.0, "name": "c4a266706077feca0024a16be25f1d72", "is_reserved": 0, "rental_uris": {"android": "https://dc.lft.to/lastmile_qr_scan", "ios": "https://dc.lft.to/lastmile_qr_scan"}, "fusion_lon": 0.0}, {"lat": 38.907287833333335, "is_disabled": 0, "type": "electric_scooter", "lon": -77.04830983333333, "bike_id": "2e475ad62347142b98ffe0cbc23edd0a", "fusion_lat": 0.0, "name": "2e475ad62347142b98ffe0cbc23edd0a", "is_reserved": 0, "rental_uris": {"android": "https://dc.lft.to/lastmile_qr_scan", "ios": "https://dc.lft.to/lastmile_qr_scan"}, "fusion_lon": 0.0}, {"lat": 38.902851, "is_disabled": 0, "type": "electric_scooter", "lon": -77.02064933333334, "bike_id": "14267afb18952804fc4e53ea7587ebef", "fusion_lat": 0.0, "name": "14267afb18952804fc4e53ea7587ebef", "is_reserved": 0, "rental_uris": {"android": "https://dc.lft.to/lastmile_qr_scan", "ios": "https://dc.lft.to/lastmile_qr_scan"}, "fusion_lon": 0.0}, {"lat": 38.91729, "is_disabled": 0, "type": "electric_bike", "lon": -77.00802483333334, "bike_id": "31235532c6238d5e73ee695d6bbf9812", "fusion_lat": 0.0, "name": "31235532c6238d5e73ee695d6bbf9812", "is_reserved": 0, "rental_uris": {"android": "https://dc.lft.to/lastmile_qr_scan", "ios": "https://dc.lft.to/lastmile_qr_scan"}, "fusion_lon": 0.0}, {"lat": 38.896274166666664, "is_disabled": 0, "type": "electric_scooter", "lon": -76.99857866666666, "bike_id": "5bde9bb857291a5262065bf53f1035ea", "fusion_lat": 0.0, "name": "5bde9bb857291a5262065bf53f1035ea", "is_reserved": 0, "rental_uris": {"android": "https://dc.lft.to/lastmile_qr_scan", "ios": "https://dc.lft.to/lastmile_qr_scan"}, "fusion_lon": 0.0}, {"lat": 38.87635016666667, "is_disabled": 0, "type": "electric_scooter", "lon": -76.96528966666666, "bike_id": "bde046ca8079fafd472974fde119d679", "fusion_lat": 0.0, "name": "bde046ca8079fafd472974fde119d679", "is_reserved": 0, "rental_uris": {"android": "https://dc.lft.to/lastmile_qr_scan", "ios": "https://dc.lft.to/lastmile_qr_scan"}, "fusion_lon": 0.0}, {"lat": 38.902214666666666, "is_disabled": 0, "type": "electric_scooter", "lon": -77.02376916666667, "bike_id": "907a91e263184a36f44740b1b484b245", "fusion_lat": 0.0, "name": "907a91e263184a36f44740b1b484b245", "is_reserved": 0, "rental_uris": {"android": "https://dc.lft.to/lastmile_qr_scan", "ios": "https://dc.lft.to/lastmile_qr_scan"}, "fusion_lon": 0.0}, {"lat": 38.900885333333335, "is_disabled": 0, "type": "electric_scooter", "lon": -77.01358483333334, "bike_id": "d088f0cf62f5c4d4728e1b6a3fa7bb97", "fusion_lat": 0.0, "name": "d088f0cf62f5c4d4728e1b6a3fa7bb97", "is_reserved": 0, "rental_uris": {"android": "https://dc.lft.to/lastmile_qr_scan", "ios": "https://dc.lft.to/lastmile_qr_scan"}, "fusion_lon": 0.0}, {"lat": 38.893303333333336, "is_disabled": 0, "type": "electric_scooter", "lon": -76.92984516666667, "bike_id": "6a5ff850890127a5c6b9a77680917c50", "fusion_lat": 0.0, "name": "6a5ff850890127a5c6b9a77680917c50", "is_reserved": 0, "rental_uris": {"android": "https://dc.lft.to/lastmile_qr_scan", "ios": "https://dc.lft.to/lastmile_qr_scan"}, "fusion_lon": 0.0}, {"lat": 38.909652666666666, "is_disabled": 0, "type": "electric_scooter", "lon": -76.98468433333333, "bike_id": "628dd15a83e22ac97350f18c83410d22", "fusion_lat": 0.0, "name": "628dd15a83e22ac97350f18c83410d22", "is_reserved": 0, "rental_uris": {"android": "https://dc.lft.to/lastmile_qr_scan", "ios": "https://dc.lft.to/lastmile_qr_scan"}, "fusion_lon": 0.0}, {"lat": 38.92287183333333, "is_disabled": 0, "type": "electric_scooter", "lon": -77.0365945, "bike_id": "9d9c428109edf179240bca5175d5b8f9", "fusion_lat": 0.0, "name": "9d9c428109edf179240bca5175d5b8f9", "is_reserved": 0, "rental_uris": {"android": "https://dc.lft.to/lastmile_qr_scan", "ios": "https://dc.lft.to/lastmile_qr_scan"}, "fusion_lon": 0.0}, {"lat": 38.94640866666667, "is_disabled": 0, "type": "electric_scooter", "lon": -77.01935716666667, "bike_id": "c4f6eef45acdfac7b89adb873cd5dfb4", "fusion_lat": 0.0, "name": "c4f6eef45acdfac7b89adb873cd5dfb4", "is_reserved": 0, "rental_uris": {"android": "https://dc.lft.to/lastmile_qr_scan", "ios": "https://dc.lft.to/lastmile_qr_scan"}, "fusion_lon": 0.0}, {"lat": 39.033974666666666, "is_disabled": 0, "type": "electric_bike", "lon": -77.04215483333333, "bike_id": "94adf5cd54ad331da6a87c1dc3ac2678", "fusion_lat": 0.0, "name": "94adf5cd54ad331da6a87c1dc3ac2678", "is_reserved": 0, "rental_uris": {"android": "https://dc.lft.to/lastmile_qr_scan", "ios": "https://dc.lft.to/lastmile_qr_scan"}, "fusion_lon": 0.0}, {"lat": 38.89223633333334, "is_disabled": 0, "type": "electric_scooter", "lon": -77.04367733333333, "bike_id": "a1fa7c586be15225b158e5624f3eac3a", "fusion_lat": 0.0, "name": "a1fa7c586be15225b158e5624f3eac3a", "is_reserved": 0, "rental_uris": {"android": "https://dc.lft.to/lastmile_qr_scan", "ios": "https://dc.lft.to/lastmile_qr_scan"}, "fusion_lon": 0.0}, {"lat": 38.94090383333333, "is_disabled": 0, "type": "electric_scooter", "lon": -77.0229775, "bike_id": "45bec353f3034319d0c9231862ab93fc", "fusion_lat": 0.0, "name": "45bec353f3034319d0c9231862ab93fc", "is_reserved": 0, "rental_uris": {"android": "https://dc.lft.to/lastmile_qr_scan", "ios": "https://dc.lft.to/lastmile_qr_scan"}, "fusion_lon": 0.0}, {"lat": 38.964956, "is_disabled": 0, "type": "electric_bike", "lon": -77.06483883333334, "bike_id": "f8dc93b7a5e4cb122dfa856c3da24db2", "fusion_lat": 0.0, "name": "f8dc93b7a5e4cb122dfa856c3da24db2", "is_reserved": 0, "rental_uris": {"android": "https://dc.lft.to/lastmile_qr_scan", "ios": "https://dc.lft.to/lastmile_qr_scan"}, "fusion_lon": 0.0}, {"lat": 38.907260666666666, "is_disabled": 0, "type": "electric_scooter", "lon": -77.02546533333333, "bike_id": "b1c0e223a28f1eeeb2dab1b450b52016", "fusion_lat": 0.0, "name": "b1c0e223a28f1eeeb2dab1b450b52016", "is_reserved": 0, "rental_uris": {"android": "https://dc.lft.to/lastmile_qr_scan", "ios": "https://dc.lft.to/lastmile_qr_scan"}, "fusion_lon": 0.0}, {"lat": 38.90973433333333, "is_disabled": 0, "type": "electric_scooter", "lon": -77.03214316666667, "bike_id": "e9234a0a8fadec0622d15b99dc4fc6cd", "fusion_lat": 0.0, "name": "e9234a0a8fadec0622d15b99dc4fc6cd", "is_reserved": 0, "rental_uris": {"android": "https://dc.lft.to/lastmile_qr_scan", "ios": "https://dc.lft.to/lastmile_qr_scan"}, "fusion_lon": 0.0}, {"lat": 38.8666295, "is_disabled": 0, "type": "electric_scooter", "lon": -76.98902183333334, "bike_id": "5e5a363c8211bbaa398540bea0b55a86", "fusion_lat": 0.0, "name": "5e5a363c8211bbaa398540bea0b55a86", "is_reserved": 0, "rental_uris": {"android": "https://dc.lft.to/lastmile_qr_scan", "ios": "https://dc.lft.to/lastmile_qr_scan"}, "fusion_lon": 0.0}, {"lat": 38.915702, "is_disabled": 0, "type": "electric_scooter", "lon": -77.01192716666667, "bike_id": "d0ff45dbd3eb8386a77d3e2932595d1a", "fusion_lat": 0.0, "name": "d0ff45dbd3eb8386a77d3e2932595d1a", "is_reserved": 0, "rental_uris": {"android": "https://dc.lft.to/lastmile_qr_scan", "ios": "https://dc.lft.to/lastmile_qr_scan"}, "fusion_lon": 0.0}, {"lat": 38.8922315, "is_disabled": 0, "type": "electric_scooter", "lon": -76.93299766666667, "bike_id": "67324e8dd4bfd99355e846b8be14d347", "fusion_lat": 0.0, "name": "67324e8dd4bfd99355e846b8be14d347", "is_reserved": 0, "rental_uris": {"android": "https://dc.lft.to/lastmile_qr_scan", "ios": "https://dc.lft.to/lastmile_qr_scan"}, "fusion_lon": 0.0}, {"lat": 38.88436166666666, "is_disabled": 0, "type": "electric_scooter", "lon": -76.9575705, "bike_id": "805a1290f54b28dd363736f9274f27d0", "fusion_lat": 0.0, "name": "805a1290f54b28dd363736f9274f27d0", "is_reserved": 0, "rental_uris": {"android": "https://dc.lft.to/lastmile_qr_scan", "ios": "https://dc.lft.to/lastmile_qr_scan"}, "fusion_lon": 0.0}, {"lat": 38.88973516666667, "is_disabled": 0, "type": "electric_scooter", "lon": -76.93737916666667, "bike_id": "3139c4cd9b1571fe7a4678da8b380fef", "fusion_lat": 0.0, "name": "3139c4cd9b1571fe7a4678da8b380fef", "is_reserved": 0, "rental_uris": {"android": "https://dc.lft.to/lastmile_qr_scan", "ios": "https://dc.lft.to/lastmile_qr_scan"}, "fusion_lon": 0.0}, {"lat": 38.874626166666665, "is_disabled": 0, "type": "electric_scooter", "lon": -77.00496433333333, "bike_id": "9741a7af664f9e175d0c0a9a6b032a07", "fusion_lat": 0.0, "name": "9741a7af664f9e175d0c0a9a6b032a07", "is_reserved": 0, "rental_uris": {"android": "https://dc.lft.to/lastmile_qr_scan", "ios": "https://dc.lft.to/lastmile_qr_scan"}, "fusion_lon": 0.0}, {"lat": 38.8662305, "is_disabled": 0, "type": "electric_bike", "lon": -76.94573883333334, "bike_id": "3cea953b1637a6148d0927b4a7d58043", "fusion_lat": 0.0, "name": "3cea953b1637a6148d0927b4a7d58043", "is_reserved": 0, "rental_uris": {"android": "https://dc.lft.to/lastmile_qr_scan", "ios": "https://dc.lft.to/lastmile_qr_scan"}, "fusion_lon": 0.0}, {"lat": 38.899717333333335, "is_disabled": 0, "type": "electric_scooter", "lon": -77.05484266666667, "bike_id": "167430a1a13d7b9064889267276080ba", "fusion_lat": 0.0, "name": "167430a1a13d7b9064889267276080ba", "is_reserved": 0, "rental_uris": {"android": "https://dc.lft.to/lastmile_qr_scan", "ios": "https://dc.lft.to/lastmile_qr_scan"}, "fusion_lon": 0.0}, {"lat": 38.90387166666667, "is_disabled": 0, "type": "electric_scooter", "lon": -77.043991, "bike_id": "1737599748998e702fe04cd6d7cb37a8", "fusion_lat": 0.0, "name": "1737599748998e702fe04cd6d7cb37a8", "is_reserved": 0, "rental_uris": {"android": "https://dc.lft.to/lastmile_qr_scan", "ios": "https://dc.lft.to/lastmile_qr_scan"}, "fusion_lon": 0.0}, {"lat": 38.93222433333333, "is_disabled": 0, "type": "electric_scooter", "lon": -77.02733483333333, "bike_id": "218267b8c643829d61a20d050a951064", "fusion_lat": 0.0, "name": "218267b8c643829d61a20d050a951064", "is_reserved": 0, "rental_uris": {"android": "https://dc.lft.to/lastmile_qr_scan", "ios": "https://dc.lft.to/lastmile_qr_scan"}, "fusion_lon": 0.0}, {"lat": 38.86618266666667, "is_disabled": 0, "type": "electric_scooter", "lon": -76.986658, "bike_id": "611605a290c8c16b7b4a0a685cf2e6fc", "fusion_lat": 0.0, "name": "611605a290c8c16b7b4a0a685cf2e6fc", "is_reserved": 0, "rental_uris": {"android": "https://dc.lft.to/lastmile_qr_scan", "ios": "https://dc.lft.to/lastmile_qr_scan"}, "fusion_lon": 0.0}, {"lat": 38.880085666666666, "is_disabled": 0, "type": "electric_scooter", "lon": -77.00523516666667, "bike_id": "d3b649b1e1527241c17c3a8c3a603e00", "fusion_lat": 0.0, "name": "d3b649b1e1527241c17c3a8c3a603e00", "is_reserved": 0, "rental_uris": {"android": "https://dc.lft.to/lastmile_qr_scan", "ios": "https://dc.lft.to/lastmile_qr_scan"}, "fusion_lon": 0.0}, {"lat": 38.9084375, "is_disabled": 0, "type": "electric_scooter", "lon": -77.02946583333333, "bike_id": "355584fd8cc5e8c939af3bdf3a2c1599", "fusion_lat": 0.0, "name": "355584fd8cc5e8c939af3bdf3a2c1599", "is_reserved": 0, "rental_uris": {"android": "https://dc.lft.to/lastmile_qr_scan", "ios": "https://dc.lft.to/lastmile_qr_scan"}, "fusion_lon": 0.0}, {"lat": 38.845884833333336, "is_disabled": 0, "type": "electric_bike", "lon": -77.07674666666666, "bike_id": "1279f1aadd0195ebf22a941ba8adf3b6", "fusion_lat": 0.0, "name": "1279f1aadd0195ebf22a941ba8adf3b6", "is_reserved": 0, "rental_uris": {"android": "https://dc.lft.to/lastmile_qr_scan", "ios": "https://dc.lft.to/lastmile_qr_scan"}, "fusion_lon": 0.0}, {"lat": 38.94042966666667, "is_disabled": 0, "type": "electric_scooter", "lon": -77.0290575, "bike_id": "17d12d387e38739ada34a1c79dc33ccd", "fusion_lat": 0.0, "name": "17d12d387e38739ada34a1c79dc33ccd", "is_reserved": 0, "rental_uris": {"android": "https://dc.lft.to/lastmile_qr_scan", "ios": "https://dc.lft.to/lastmile_qr_scan"}, "fusion_lon": 0.0}, {"lat": 38.90639866666667, "is_disabled": 0, "type": "electric_scooter", "lon": -77.01371083333333, "bike_id": "4d408cee9a02afbd16db4df483765a38", "fusion_lat": 0.0, "name": "4d408cee9a02afbd16db4df483765a38", "is_reserved": 0, "rental_uris": {"android": "https://dc.lft.to/lastmile_qr_scan", "ios": "https://dc.lft.to/lastmile_qr_scan"}, "fusion_lon": 0.0}, {"lat": 38.812228833333336, "is_disabled": 0, "type": "electric_bike", "lon": -77.109843, "bike_id": "03c5476532d21594c6589b5114e16aa0", "fusion_lat": 0.0, "name": "03c5476532d21594c6589b5114e16aa0", "is_reserved": 0, "rental_uris": {"android": "https://dc.lft.to/lastmile_qr_scan", "ios": "https://dc.lft.to/lastmile_qr_scan"}, "fusion_lon": 0.0}, {"lat": 38.9075755, "is_disabled": 0, "type": "electric_scooter", "lon": -77.00115516666666, "bike_id": "57b3c83f1a1798d6b808bf7b1d1026b8", "fusion_lat": 0.0, "name": "57b3c83f1a1798d6b808bf7b1d1026b8", "is_reserved": 0, "rental_uris": {"android": "https://dc.lft.to/lastmile_qr_scan", "ios": "https://dc.lft.to/lastmile_qr_scan"}, "fusion_lon": 0.0}, {"lat": 38.87661383333333, "is_disabled": 0, "type": "electric_scooter", "lon": -77.0043625, "bike_id": "cefdd348b68f48eb2d15d9368310d724", "fusion_lat": 0.0, "name": "cefdd348b68f48eb2d15d9368310d724", "is_reserved": 0, "rental_uris": {"android": "https://dc.lft.to/lastmile_qr_scan", "ios": "https://dc.lft.to/lastmile_qr_scan"}, "fusion_lon": 0.0}, {"lat": 38.93201533333333, "is_disabled": 0, "type": "electric_bike", "lon": -77.0387735, "bike_id": "ef49efd3f92607e0a4403b57c60fa5d1", "fusion_lat": 0.0, "name": "ef49efd3f92607e0a4403b57c60fa5d1", "is_reserved": 0, "rental_uris": {"android": "https://dc.lft.to/lastmile_qr_scan", "ios": "https://dc.lft.to/lastmile_qr_scan"}, "fusion_lon": 0.0}, {"lat": 38.939386666666664, "is_disabled": 0, "type": "electric_scooter", "lon": -77.03679616666666, "bike_id": "4507e3e4e8fb63310b5c821e4788fc7c", "fusion_lat": 0.0, "name": "4507e3e4e8fb63310b5c821e4788fc7c", "is_reserved": 0, "rental_uris": {"android": "https://dc.lft.to/lastmile_qr_scan", "ios": "https://dc.lft.to/lastmile_qr_scan"}, "fusion_lon": 0.0}, {"lat": 38.939633, "is_disabled": 0, "type": "electric_bike", "lon": -77.36075816666667, "bike_id": "989706a8230ccb5b95071c7999284dc8", "fusion_lat": 0.0, "name": "989706a8230ccb5b95071c7999284dc8", "is_reserved": 0, "rental_uris": {"android": "https://dc.lft.to/lastmile_qr_scan", "ios": "https://dc.lft.to/lastmile_qr_scan"}, "fusion_lon": 0.0}, {"lat": 38.89972, "is_disabled": 0, "type": "electric_scooter", "lon": -77.0570265, "bike_id": "3db1987c66d725725ac5b61c36cac31f", "fusion_lat": 0.0, "name": "3db1987c66d725725ac5b61c36cac31f", "is_reserved": 0, "rental_uris": {"android": "https://dc.lft.to/lastmile_qr_scan", "ios": "https://dc.lft.to/lastmile_qr_scan"}, "fusion_lon": 0.0}, {"lat": 38.92758833333333, "is_disabled": 0, "type": "electric_scooter", "lon": -77.0320855, "bike_id": "7c7226b8efa75aa491121534050ecb27", "fusion_lat": 0.0, "name": "7c7226b8efa75aa491121534050ecb27", "is_reserved": 0, "rental_uris": {"android": "https://dc.lft.to/lastmile_qr_scan", "ios": "https://dc.lft.to/lastmile_qr_scan"}, "fusion_lon": 0.0}, {"lat": 38.95293783333334, "is_disabled": 0, "type": "electric_bike", "lon": -76.94599833333334, "bike_id": "cc7d666d9d6df33c04f03a1054b82d3d", "fusion_lat": 0.0, "name": "cc7d666d9d6df33c04f03a1054b82d3d", "is_reserved": 0, "rental_uris": {"android": "https://dc.lft.to/lastmile_qr_scan", "ios": "https://dc.lft.to/lastmile_qr_scan"}, "fusion_lon": 0.0}, {"lat": 38.917056, "is_disabled": 0, "type": "electric_scooter", "lon": -77.001141, "bike_id": "a3d7ea88f1effee26ff7e6dc262f7f48", "fusion_lat": 0.0, "name": "a3d7ea88f1effee26ff7e6dc262f7f48", "is_reserved": 0, "rental_uris": {"android": "https://dc.lft.to/lastmile_qr_scan", "ios": "https://dc.lft.to/lastmile_qr_scan"}, "fusion_lon": 0.0}, {"lat": 38.89852783333333, "is_disabled": 0, "type": "electric_scooter", "lon": -77.02411833333333, "bike_id": "50f492e57b1722a005c7cd7d4691306f", "fusion_lat": 0.0, "name": "50f492e57b1722a005c7cd7d4691306f", "is_reserved": 0, "rental_uris": {"android": "https://dc.lft.to/lastmile_qr_scan", "ios": "https://dc.lft.to/lastmile_qr_scan"}, "fusion_lon": 0.0}, {"lat": 38.895587166666665, "is_disabled": 0, "type": "electric_scooter", "lon": -76.930764, "bike_id": "6a0865a90cbab9205054305b48b344f1", "fusion_lat": 0.0, "name": "6a0865a90cbab9205054305b48b344f1", "is_reserved": 0, "rental_uris": {"android": "https://dc.lft.to/lastmile_qr_scan", "ios": "https://dc.lft.to/lastmile_qr_scan"}, "fusion_lon": 0.0}, {"lat": 38.9266115, "is_disabled": 0, "type": "electric_scooter", "lon": -77.0243655, "bike_id": "b6e625cfd49ee8466eeae1db9ec8346d", "fusion_lat": 0.0, "name": "b6e625cfd49ee8466eeae1db9ec8346d", "is_reserved": 0, "rental_uris": {"android": "https://dc.lft.to/lastmile_qr_scan", "ios": "https://dc.lft.to/lastmile_qr_scan"}, "fusion_lon": 0.0}, {"lat": 38.920108, "is_disabled": 0, "type": "electric_scooter", "lon": -77.038824, "bike_id": "aa931b4fa2f2edc34d50fa221394c75f", "fusion_lat": 0.0, "name": "aa931b4fa2f2edc34d50fa221394c75f", "is_reserved": 0, "rental_uris": {"android": "https://dc.lft.to/lastmile_qr_scan", "ios": "https://dc.lft.to/lastmile_qr_scan"}, "fusion_lon": 0.0}, {"lat": 38.9310915, "is_disabled": 0, "type": "electric_scooter", "lon": -77.03469916666667, "bike_id": "a8a90d2de22dea4597a401032726bf3e", "fusion_lat": 0.0, "name": "a8a90d2de22dea4597a401032726bf3e", "is_reserved": 0, "rental_uris": {"android": "https://dc.lft.to/lastmile_qr_scan", "ios": "https://dc.lft.to/lastmile_qr_scan"}, "fusion_lon": 0.0}, {"lat": 38.901517, "is_disabled": 0, "type": "electric_scooter", "lon": -76.98066583333333, "bike_id": "8d6a0b04555f31af98104b0f9150a5e3", "fusion_lat": 0.0, "name": "8d6a0b04555f31af98104b0f9150a5e3", "is_reserved": 0, "rental_uris": {"android": "https://dc.lft.to/lastmile_qr_scan", "ios": "https://dc.lft.to/lastmile_qr_scan"}, "fusion_lon": 0.0}, {"lat": 38.930924833333336, "is_disabled": 0, "type": "electric_scooter", "lon": -77.02521866666666, "bike_id": "bc58642a3f2d5688ed97fa3e1f9ab253", "fusion_lat": 0.0, "name": "bc58642a3f2d5688ed97fa3e1f9ab253", "is_reserved": 0, "rental_uris": {"android": "https://dc.lft.to/lastmile_qr_scan", "ios": "https://dc.lft.to/lastmile_qr_scan"}, "fusion_lon": 0.0}, {"lat": 38.871593833333336, "is_disabled": 0, "type": "electric_scooter", "lon": -77.012985, "bike_id": "ba7c6fda9d8517326998381224c4f3df", "fusion_lat": 0.0, "name": "ba7c6fda9d8517326998381224c4f3df", "is_reserved": 0, "rental_uris": {"android": "https://dc.lft.to/lastmile_qr_scan", "ios": "https://dc.lft.to/lastmile_qr_scan"}, "fusion_lon": 0.0}, {"lat": 38.845767333333335, "is_disabled": 0, "type": "electric_bike", "lon": -77.09624633333334, "bike_id": "8e73788db5ef925d60f4538af1ad647f", "fusion_lat": 0.0, "name": "8e73788db5ef925d60f4538af1ad647f", "is_reserved": 0, "rental_uris": {"android": "https://dc.lft.to/lastmile_qr_scan", "ios": "https://dc.lft.to/lastmile_qr_scan"}, "fusion_lon": 0.0}, {"lat": 38.920717833333335, "is_disabled": 0, "type": "electric_scooter", "lon": -77.02424816666667, "bike_id": "0d2a4c36a08ca48953e561529c7e34cc", "fusion_lat": 0.0, "name": "0d2a4c36a08ca48953e561529c7e34cc", "is_reserved": 0, "rental_uris": {"android": "https://dc.lft.to/lastmile_qr_scan", "ios": "https://dc.lft.to/lastmile_qr_scan"}, "fusion_lon": 0.0}, {"lat": 38.90240566666667, "is_disabled": 0, "type": "electric_scooter", "lon": -77.05335816666667, "bike_id": "2779774799fde233b26f3c35034b3a42", "fusion_lat": 0.0, "name": "2779774799fde233b26f3c35034b3a42", "is_reserved": 0, "rental_uris": {"android": "https://dc.lft.to/lastmile_qr_scan", "ios": "https://dc.lft.to/lastmile_qr_scan"}, "fusion_lon": 0.0}, {"lat": 38.836865833333334, "is_disabled": 0, "type": "electric_scooter", "lon": -77.10309133333334, "bike_id": "faf13e4d874e64e66953ccb516ee93aa", "fusion_lat": 0.0, "name": "faf13e4d874e64e66953ccb516ee93aa", "is_reserved": 0, "rental_uris": {"android": "https://dc.lft.to/lastmile_qr_scan", "ios": "https://dc.lft.to/lastmile_qr_scan"}, "fusion_lon": 0.0}, {"lat": 38.867131, "is_disabled": 0, "type": "electric_scooter", "lon": -76.98725716666667, "bike_id": "0ed72190b9fafdd1a5cd7b38b44f773f", "fusion_lat": 0.0, "name": "0ed72190b9fafdd1a5cd7b38b44f773f", "is_reserved": 0, "rental_uris": {"android": "https://dc.lft.to/lastmile_qr_scan", "ios": "https://dc.lft.to/lastmile_qr_scan"}, "fusion_lon": 0.0}, {"lat": 38.9048505, "is_disabled": 0, "type": "electric_scooter", "lon": -77.00735533333334, "bike_id": "5fb4989f595d28102b7ee7c285bd3e56", "fusion_lat": 0.0, "name": "5fb4989f595d28102b7ee7c285bd3e56", "is_reserved": 0, "rental_uris": {"android": "https://dc.lft.to/lastmile_qr_scan", "ios": "https://dc.lft.to/lastmile_qr_scan"}, "fusion_lon": 0.0}, {"lat": 38.91165266666667, "is_disabled": 0, "type": "electric_bike", "lon": -77.00289833333333, "bike_id": "e8a94874cfdfe6f0b4e3fe3751393d98", "fusion_lat": 0.0, "name": "e8a94874cfdfe6f0b4e3fe3751393d98", "is_reserved": 0, "rental_uris": {"android": "https://dc.lft.to/lastmile_qr_scan", "ios": "https://dc.lft.to/lastmile_qr_scan"}, "fusion_lon": 0.0}, {"lat": 38.900057833333335, "is_disabled": 0, "type": "electric_scooter", "lon": -76.987969, "bike_id": "f83c1c82367113ba135bd9230c72c78a", "fusion_lat": 0.0, "name": "f83c1c82367113ba135bd9230c72c78a", "is_reserved": 0, "rental_uris": {"android": "https://dc.lft.to/lastmile_qr_scan", "ios": "https://dc.lft.to/lastmile_qr_scan"}, "fusion_lon": 0.0}, {"lat": 38.871461333333336, "is_disabled": 0, "type": "electric_bike", "lon": -76.93702366666666, "bike_id": "1e6bd1a5261d8cce0db0aac4a96e067e", "fusion_lat": 0.0, "name": "1e6bd1a5261d8cce0db0aac4a96e067e", "is_reserved": 0, "rental_uris": {"android": "https://dc.lft.to/lastmile_qr_scan", "ios": "https://dc.lft.to/lastmile_qr_scan"}, "fusion_lon": 0.0}, {"lat": 38.916184666666666, "is_disabled": 0, "type": "electric_scooter", "lon": -77.032709, "bike_id": "96ac129f1e038b774cc5e43c287b3092", "fusion_lat": 0.0, "name": "96ac129f1e038b774cc5e43c287b3092", "is_reserved": 0, "rental_uris": {"android": "https://dc.lft.to/lastmile_qr_scan", "ios": "https://dc.lft.to/lastmile_qr_scan"}, "fusion_lon": 0.0}, {"lat": 38.9073335, "is_disabled": 0, "type": "electric_scooter", "lon": -77.04780966666667, "bike_id": "9aea6759ad899a7444dccb0028604e4a", "fusion_lat": 0.0, "name": "9aea6759ad899a7444dccb0028604e4a", "is_reserved": 0, "rental_uris": {"android": "https://dc.lft.to/lastmile_qr_scan", "ios": "https://dc.lft.to/lastmile_qr_scan"}, "fusion_lon": 0.0}, {"lat": 38.9134695, "is_disabled": 0, "type": "electric_scooter", "lon": -77.06344033333333, "bike_id": "acad99c7d6e4b87de24fedc6e0bd8e2a", "fusion_lat": 0.0, "name": "acad99c7d6e4b87de24fedc6e0bd8e2a", "is_reserved": 0, "rental_uris": {"android": "https://dc.lft.to/lastmile_qr_scan", "ios": "https://dc.lft.to/lastmile_qr_scan"}, "fusion_lon": 0.0}, {"lat": 38.90797033333333, "is_disabled": 0, "type": "electric_scooter", "lon": -77.0347425, "bike_id": "9ecc1fed7994cccbd6d49a619241b8e3", "fusion_lat": 0.0, "name": "9ecc1fed7994cccbd6d49a619241b8e3", "is_reserved": 0, "rental_uris": {"android": "https://dc.lft.to/lastmile_qr_scan", "ios": "https://dc.lft.to/lastmile_qr_scan"}, "fusion_lon": 0.0}, {"lat": 38.89634516666667, "is_disabled": 0, "type": "electric_scooter", "lon": -77.04492316666666, "bike_id": "85a149966fb554c744e13c7c73d2e25b", "fusion_lat": 0.0, "name": "85a149966fb554c744e13c7c73d2e25b", "is_reserved": 0, "rental_uris": {"android": "https://dc.lft.to/lastmile_qr_scan", "ios": "https://dc.lft.to/lastmile_qr_scan"}, "fusion_lon": 0.0}, {"lat": 38.842962166666666, "is_disabled": 0, "type": "electric_scooter", "lon": -76.9994495, "bike_id": "8e954592537a45eca6969ccd02a6ff76", "fusion_lat": 0.0, "name": "8e954592537a45eca6969ccd02a6ff76", "is_reserved": 0, "rental_uris": {"android": "https://dc.lft.to/lastmile_qr_scan", "ios": "https://dc.lft.to/lastmile_qr_scan"}, "fusion_lon": 0.0}, {"lat": 38.940947666666666, "is_disabled": 0, "type": "electric_scooter", "lon": -77.0327655, "bike_id": "27a383b74d7aa330376322eaea3e9ee5", "fusion_lat": 0.0, "name": "27a383b74d7aa330376322eaea3e9ee5", "is_reserved": 0, "rental_uris": {"android": "https://dc.lft.to/lastmile_qr_scan", "ios": "https://dc.lft.to/lastmile_qr_scan"}, "fusion_lon": 0.0}, {"lat": 38.89830583333333, "is_disabled": 0, "type": "electric_scooter", "lon": -77.02424683333334, "bike_id": "2ee6b69ce75497e49189268be7277a8e", "fusion_lat": 0.0, "name": "2ee6b69ce75497e49189268be7277a8e", "is_reserved": 0, "rental_uris": {"android": "https://dc.lft.to/lastmile_qr_scan", "ios": "https://dc.lft.to/lastmile_qr_scan"}, "fusion_lon": 0.0}, {"lat": 38.912123666666666, "is_disabled": 0, "type": "electric_scooter", "lon": -77.034371, "bike_id": "565371fc8eb7edc78133c96e2a355bda", "fusion_lat": 0.0, "name": "565371fc8eb7edc78133c96e2a355bda", "is_reserved": 0, "rental_uris": {"android": "https://dc.lft.to/lastmile_qr_scan", "ios": "https://dc.lft.to/lastmile_qr_scan"}, "fusion_lon": 0.0}, {"lat": 38.859909, "is_disabled": 0, "type": "electric_scooter", "lon": -76.98539083333333, "bike_id": "d650aa0bcdeb1d6034e41c3b4b46871b", "fusion_lat": 0.0, "name": "d650aa0bcdeb1d6034e41c3b4b46871b", "is_reserved": 0, "rental_uris": {"android": "https://dc.lft.to/lastmile_qr_scan", "ios": "https://dc.lft.to/lastmile_qr_scan"}, "fusion_lon": 0.0}, {"lat": 38.90020233333333, "is_disabled": 0, "type": "electric_scooter", "lon": -77.002207, "bike_id": "f255ae562f6353d2b44325b57401068b", "fusion_lat": 0.0, "name": "f255ae562f6353d2b44325b57401068b", "is_reserved": 0, "rental_uris": {"android": "https://dc.lft.to/lastmile_qr_scan", "ios": "https://dc.lft.to/lastmile_qr_scan"}, "fusion_lon": 0.0}, {"lat": 38.950650833333334, "is_disabled": 0, "type": "electric_scooter", "lon": -77.06655566666667, "bike_id": "e8d05e0feaf5da8b91fcc41c48d8cdab", "fusion_lat": 0.0, "name": "e8d05e0feaf5da8b91fcc41c48d8cdab", "is_reserved": 0, "rental_uris": {"android": "https://dc.lft.to/lastmile_qr_scan", "ios": "https://dc.lft.to/lastmile_qr_scan"}, "fusion_lon": 0.0}, {"lat": 38.901272, "is_disabled": 0, "type": "electric_scooter", "lon": -77.01817466666667, "bike_id": "cd1f02da745cf7cf5c4fbaf9f254e810", "fusion_lat": 0.0, "name": "cd1f02da745cf7cf5c4fbaf9f254e810", "is_reserved": 0, "rental_uris": {"android": "https://dc.lft.to/lastmile_qr_scan", "ios": "https://dc.lft.to/lastmile_qr_scan"}, "fusion_lon": 0.0}, {"lat": 38.90578433333334, "is_disabled": 0, "type": "electric_scooter", "lon": -77.02207916666667, "bike_id": "0d01570f6577938219142c3132823425", "fusion_lat": 0.0, "name": "0d01570f6577938219142c3132823425", "is_reserved": 0, "rental_uris": {"android": "https://dc.lft.to/lastmile_qr_scan", "ios": "https://dc.lft.to/lastmile_qr_scan"}, "fusion_lon": 0.0}, {"lat": 38.876313333333336, "is_disabled": 0, "type": "electric_scooter", "lon": -76.96525533333333, "bike_id": "2bbabbc90da8d72525f380a5a1191b13", "fusion_lat": 0.0, "name": "2bbabbc90da8d72525f380a5a1191b13", "is_reserved": 0, "rental_uris": {"android": "https://dc.lft.to/lastmile_qr_scan", "ios": "https://dc.lft.to/lastmile_qr_scan"}, "fusion_lon": 0.0}, {"lat": 38.937689, "is_disabled": 0, "type": "electric_scooter", "lon": -77.02372833333334, "bike_id": "451f686f31be966e593238d0576b67fb", "fusion_lat": 0.0, "name": "451f686f31be966e593238d0576b67fb", "is_reserved": 0, "rental_uris": {"android": "https://dc.lft.to/lastmile_qr_scan", "ios": "https://dc.lft.to/lastmile_qr_scan"}, "fusion_lon": 0.0}, {"lat": 38.916266, "is_disabled": 0, "type": "electric_scooter", "lon": -77.04884383333334, "bike_id": "13518a5e55045d28ac3910f4e075c664", "fusion_lat": 0.0, "name": "13518a5e55045d28ac3910f4e075c664", "is_reserved": 0, "rental_uris": {"android": "https://dc.lft.to/lastmile_qr_scan", "ios": "https://dc.lft.to/lastmile_qr_scan"}, "fusion_lon": 0.0}, {"lat": 39.003813, "is_disabled": 0, "type": "electric_bike", "lon": -77.01284633333333, "bike_id": "261367a4bbf9e226726fcbb9c68221bb", "fusion_lat": 0.0, "name": "261367a4bbf9e226726fcbb9c68221bb", "is_reserved": 0, "rental_uris": {"android": "https://dc.lft.to/lastmile_qr_scan", "ios": "https://dc.lft.to/lastmile_qr_scan"}, "fusion_lon": 0.0}, {"lat": 38.90199366666667, "is_disabled": 0, "type": "electric_scooter", "lon": -77.021796, "bike_id": "cc4830a6255a241fd9a7dc9e8f99005b", "fusion_lat": 0.0, "name": "cc4830a6255a241fd9a7dc9e8f99005b", "is_reserved": 0, "rental_uris": {"android": "https://dc.lft.to/lastmile_qr_scan", "ios": "https://dc.lft.to/lastmile_qr_scan"}, "fusion_lon": 0.0}, {"lat": 38.89638016666667, "is_disabled": 0, "type": "electric_scooter", "lon": -77.02303666666667, "bike_id": "1875afea8bb4bda2d590121cd83d8161", "fusion_lat": 0.0, "name": "1875afea8bb4bda2d590121cd83d8161", "is_reserved": 0, "rental_uris": {"android": "https://dc.lft.to/lastmile_qr_scan", "ios": "https://dc.lft.to/lastmile_qr_scan"}, "fusion_lon": 0.0}, {"lat": 38.85513816666667, "is_disabled": 0, "type": "electric_bike", "lon": -77.12013416666667, "bike_id": "e989298c61b65cc5d1dcf1fd498ccefe", "fusion_lat": 0.0, "name": "e989298c61b65cc5d1dcf1fd498ccefe", "is_reserved": 0, "rental_uris": {"android": "https://dc.lft.to/lastmile_qr_scan", "ios": "https://dc.lft.to/lastmile_qr_scan"}, "fusion_lon": 0.0}, {"lat": 38.90900583333333, "is_disabled": 0, "type": "electric_scooter", "lon": -77.046678, "bike_id": "381f2c87421b583ac7a7f90669ca072a", "fusion_lat": 0.0, "name": "381f2c87421b583ac7a7f90669ca072a", "is_reserved": 0, "rental_uris": {"android": "https://dc.lft.to/lastmile_qr_scan", "ios": "https://dc.lft.to/lastmile_qr_scan"}, "fusion_lon": 0.0}, {"lat": 38.925339666666666, "is_disabled": 0, "type": "electric_scooter", "lon": -77.00754016666667, "bike_id": "4b56db72ee7a49a490ddd20d6ecae552", "fusion_lat": 0.0, "name": "4b56db72ee7a49a490ddd20d6ecae552", "is_reserved": 0, "rental_uris": {"android": "https://dc.lft.to/lastmile_qr_scan", "ios": "https://dc.lft.to/lastmile_qr_scan"}, "fusion_lon": 0.0}, {"lat": 38.922556, "is_disabled": 0, "type": "electric_scooter", "lon": -77.01867483333334, "bike_id": "0a79b40b20e7f089d907939047726161", "fusion_lat": 0.0, "name": "0a79b40b20e7f089d907939047726161", "is_reserved": 0, "rental_uris": {"android": "https://dc.lft.to/lastmile_qr_scan", "ios": "https://dc.lft.to/lastmile_qr_scan"}, "fusion_lon": 0.0}, {"lat": 38.920250833333334, "is_disabled": 0, "type": "electric_bike", "lon": -77.03865966666666, "bike_id": "1645a785b9124965023ba9d7df227358", "fusion_lat": 0.0, "name": "1645a785b9124965023ba9d7df227358", "is_reserved": 0, "rental_uris": {"android": "https://dc.lft.to/lastmile_qr_scan", "ios": "https://dc.lft.to/lastmile_qr_scan"}, "fusion_lon": 0.0}, {"lat": 38.9026375, "is_disabled": 0, "type": "electric_scooter", "lon": -77.01755966666667, "bike_id": "29393a7c98c45d6e9425c924c9b7ee37", "fusion_lat": 0.0, "name": "29393a7c98c45d6e9425c924c9b7ee37", "is_reserved": 0, "rental_uris": {"android": "https://dc.lft.to/lastmile_qr_scan", "ios": "https://dc.lft.to/lastmile_qr_scan"}, "fusion_lon": 0.0}, {"lat": 38.911781166666664, "is_disabled": 0, "type": "electric_scooter", "lon": -77.00176683333333, "bike_id": "eb72bc931f646db5d33af9f77430d742", "fusion_lat": 0.0, "name": "eb72bc931f646db5d33af9f77430d742", "is_reserved": 0, "rental_uris": {"android": "https://dc.lft.to/lastmile_qr_scan", "ios": "https://dc.lft.to/lastmile_qr_scan"}, "fusion_lon": 0.0}, {"lat": 38.90170066666667, "is_disabled": 0, "type": "electric_scooter", "lon": -76.98028033333334, "bike_id": "9d9b15f769085b8f67f84699f5c97d29", "fusion_lat": 0.0, "name": "9d9b15f769085b8f67f84699f5c97d29", "is_reserved": 0, "rental_uris": {"android": "https://dc.lft.to/lastmile_qr_scan", "ios": "https://dc.lft.to/lastmile_qr_scan"}, "fusion_lon": 0.0}, {"lat": 38.9166725, "is_disabled": 0, "type": "electric_scooter", "lon": -77.0230125, "bike_id": "5d9a6f7e488e84966beaf8d8d13c57f4", "fusion_lat": 0.0, "name": "5d9a6f7e488e84966beaf8d8d13c57f4", "is_reserved": 0, "rental_uris": {"android": "https://dc.lft.to/lastmile_qr_scan", "ios": "https://dc.lft.to/lastmile_qr_scan"}, "fusion_lon": 0.0}, {"lat": 38.919846, "is_disabled": 0, "type": "electric_scooter", "lon": -77.03969116666667, "bike_id": "2793bb7c616bcc68345222fe50916cfc", "fusion_lat": 0.0, "name": "2793bb7c616bcc68345222fe50916cfc", "is_reserved": 0, "rental_uris": {"android": "https://dc.lft.to/lastmile_qr_scan", "ios": "https://dc.lft.to/lastmile_qr_scan"}, "fusion_lon": 0.0}, {"lat": 38.876572833333334, "is_disabled": 0, "type": "electric_scooter", "lon": -77.00429166666666, "bike_id": "0663acf8849cdd1b1b96bd4855a91eb4", "fusion_lat": 0.0, "name": "0663acf8849cdd1b1b96bd4855a91eb4", "is_reserved": 0, "rental_uris": {"android": "https://dc.lft.to/lastmile_qr_scan", "ios": "https://dc.lft.to/lastmile_qr_scan"}, "fusion_lon": 0.0}, {"lat": 38.916693, "is_disabled": 0, "type": "electric_scooter", "lon": -77.00666016666666, "bike_id": "5ff68b28c86ebcf61bb6d4cc73f70c93", "fusion_lat": 0.0, "name": "5ff68b28c86ebcf61bb6d4cc73f70c93", "is_reserved": 0, "rental_uris": {"android": "https://dc.lft.to/lastmile_qr_scan", "ios": "https://dc.lft.to/lastmile_qr_scan"}, "fusion_lon": 0.0}, {"lat": 38.84296716666667, "is_disabled": 0, "type": "electric_scooter", "lon": -76.999488, "bike_id": "d5a5aaaaf619563d426dd26b1c2cc54b", "fusion_lat": 0.0, "name": "d5a5aaaaf619563d426dd26b1c2cc54b", "is_reserved": 0, "rental_uris": {"android": "https://dc.lft.to/lastmile_qr_scan", "ios": "https://dc.lft.to/lastmile_qr_scan"}, "fusion_lon": 0.0}, {"lat": 38.8573215, "is_disabled": 0, "type": "electric_scooter", "lon": -76.99433583333334, "bike_id": "5b1bcb182a955be304e6f137be6cf3be", "fusion_lat": 0.0, "name": "5b1bcb182a955be304e6f137be6cf3be", "is_reserved": 0, "rental_uris": {"android": "https://dc.lft.to/lastmile_qr_scan", "ios": "https://dc.lft.to/lastmile_qr_scan"}, "fusion_lon": 0.0}, {"lat": 38.9094415, "is_disabled": 0, "type": "electric_scooter", "lon": -77.04795883333334, "bike_id": "7a074394204fa38a21b9299552150ba4", "fusion_lat": 0.0, "name": "7a074394204fa38a21b9299552150ba4", "is_reserved": 0, "rental_uris": {"android": "https://dc.lft.to/lastmile_qr_scan", "ios": "https://dc.lft.to/lastmile_qr_scan"}, "fusion_lon": 0.0}, {"lat": 38.901316333333334, "is_disabled": 0, "type": "electric_scooter", "lon": -77.04142633333333, "bike_id": "12267ab59c34b92f32e98bdeffc7e11a", "fusion_lat": 0.0, "name": "12267ab59c34b92f32e98bdeffc7e11a", "is_reserved": 0, "rental_uris": {"android": "https://dc.lft.to/lastmile_qr_scan", "ios": "https://dc.lft.to/lastmile_qr_scan"}, "fusion_lon": 0.0}, {"lat": 38.909385, "is_disabled": 0, "type": "electric_scooter", "lon": -77.03857633333334, "bike_id": "7e1139e2751a2e9fe5ca4efe9ccf296c", "fusion_lat": 0.0, "name": "7e1139e2751a2e9fe5ca4efe9ccf296c", "is_reserved": 0, "rental_uris": {"android": "https://dc.lft.to/lastmile_qr_scan", "ios": "https://dc.lft.to/lastmile_qr_scan"}, "fusion_lon": 0.0}, {"lat": 38.94450233333333, "is_disabled": 0, "type": "electric_scooter", "lon": -77.0233935, "bike_id": "8a1602e79b1a3fc61af53b1c12844248", "fusion_lat": 0.0, "name": "8a1602e79b1a3fc61af53b1c12844248", "is_reserved": 0, "rental_uris": {"android": "https://dc.lft.to/lastmile_qr_scan", "ios": "https://dc.lft.to/lastmile_qr_scan"}, "fusion_lon": 0.0}, {"lat": 38.9212865, "is_disabled": 0, "type": "electric_scooter", "lon": -77.04008033333334, "bike_id": "c9203daae471b0d857de4ddd11650189", "fusion_lat": 0.0, "name": "c9203daae471b0d857de4ddd11650189", "is_reserved": 0, "rental_uris": {"android": "https://dc.lft.to/lastmile_qr_scan", "ios": "https://dc.lft.to/lastmile_qr_scan"}, "fusion_lon": 0.0}, {"lat": 38.957402333333334, "is_disabled": 0, "type": "electric_bike", "lon": -77.02324366666667, "bike_id": "bd713e718b8af2072b190a07272f5d0f", "fusion_lat": 0.0, "name": "bd713e718b8af2072b190a07272f5d0f", "is_reserved": 0, "rental_uris": {"android": "https://dc.lft.to/lastmile_qr_scan", "ios": "https://dc.lft.to/lastmile_qr_scan"}, "fusion_lon": 0.0}, {"lat": 38.95886466666666, "is_disabled": 0, "type": "electric_bike", "lon": -76.924948, "bike_id": "e5636622c4bdbe2ef4aa74dde8f18e6d", "fusion_lat": 0.0, "name": "e5636622c4bdbe2ef4aa74dde8f18e6d", "is_reserved": 0, "rental_uris": {"android": "https://dc.lft.to/lastmile_qr_scan", "ios": "https://dc.lft.to/lastmile_qr_scan"}, "fusion_lon": 0.0}, {"lat": 38.9141775, "is_disabled": 0, "type": "electric_scooter", "lon": -77.02233616666666, "bike_id": "5bf6f1c3be00985b6ca5a1680c95b60e", "fusion_lat": 0.0, "name": "5bf6f1c3be00985b6ca5a1680c95b60e", "is_reserved": 0, "rental_uris": {"android": "https://dc.lft.to/lastmile_qr_scan", "ios": "https://dc.lft.to/lastmile_qr_scan"}, "fusion_lon": 0.0}, {"lat": 38.8972065, "is_disabled": 0, "type": "electric_scooter", "lon": -77.03167316666666, "bike_id": "685a913bbe32a3e1d55ee272f318f8a6", "fusion_lat": 0.0, "name": "685a913bbe32a3e1d55ee272f318f8a6", "is_reserved": 0, "rental_uris": {"android": "https://dc.lft.to/lastmile_qr_scan", "ios": "https://dc.lft.to/lastmile_qr_scan"}, "fusion_lon": 0.0}, {"lat": 38.93649533333333, "is_disabled": 0, "type": "electric_scooter", "lon": -77.03695416666666, "bike_id": "e6db90c0f24f884d91297097f0d2f7b0", "fusion_lat": 0.0, "name": "e6db90c0f24f884d91297097f0d2f7b0", "is_reserved": 0, "rental_uris": {"android": "https://dc.lft.to/lastmile_qr_scan", "ios": "https://dc.lft.to/lastmile_qr_scan"}, "fusion_lon": 0.0}, {"lat": 38.91412283333333, "is_disabled": 0, "type": "electric_scooter", "lon": -77.03176666666667, "bike_id": "e239dce60aadb4ee5b13ff11a1dbe16a", "fusion_lat": 0.0, "name": "e239dce60aadb4ee5b13ff11a1dbe16a", "is_reserved": 0, "rental_uris": {"android": "https://dc.lft.to/lastmile_qr_scan", "ios": "https://dc.lft.to/lastmile_qr_scan"}, "fusion_lon": 0.0}, {"lat": 38.89042666666667, "is_disabled": 0, "type": "electric_scooter", "lon": -76.94075316666667, "bike_id": "8b81f097ae5913829c3a080b610b6483", "fusion_lat": 0.0, "name": "8b81f097ae5913829c3a080b610b6483", "is_reserved": 0, "rental_uris": {"android": "https://dc.lft.to/lastmile_qr_scan", "ios": "https://dc.lft.to/lastmile_qr_scan"}, "fusion_lon": 0.0}, {"lat": 38.929076, "is_disabled": 0, "type": "electric_scooter", "lon": -77.0318515, "bike_id": "ad456f60edfdf20d4a0f86f133e281b9", "fusion_lat": 0.0, "name": "ad456f60edfdf20d4a0f86f133e281b9", "is_reserved": 0, "rental_uris": {"android": "https://dc.lft.to/lastmile_qr_scan", "ios": "https://dc.lft.to/lastmile_qr_scan"}, "fusion_lon": 0.0}, {"lat": 38.892816333333336, "is_disabled": 0, "type": "electric_scooter", "lon": -77.05031516666666, "bike_id": "b5a75955f4722e8ae7003d799a983d9d", "fusion_lat": 0.0, "name": "b5a75955f4722e8ae7003d799a983d9d", "is_reserved": 0, "rental_uris": {"android": "https://dc.lft.to/lastmile_qr_scan", "ios": "https://dc.lft.to/lastmile_qr_scan"}, "fusion_lon": 0.0}, {"lat": 38.8999985, "is_disabled": 0, "type": "electric_scooter", "lon": -77.05231766666667, "bike_id": "88c1ffa714713fa658f5f1772bc522d9", "fusion_lat": 0.0, "name": "88c1ffa714713fa658f5f1772bc522d9", "is_reserved": 0, "rental_uris": {"android": "https://dc.lft.to/lastmile_qr_scan", "ios": "https://dc.lft.to/lastmile_qr_scan"}, "fusion_lon": 0.0}, {"lat": 38.858515833333335, "is_disabled": 0, "type": "electric_bike", "lon": -77.09750866666667, "bike_id": "2dd054729a4de537f21039999a5305f9", "fusion_lat": 0.0, "name": "2dd054729a4de537f21039999a5305f9", "is_reserved": 0, "rental_uris": {"android": "https://dc.lft.to/lastmile_qr_scan", "ios": "https://dc.lft.to/lastmile_qr_scan"}, "fusion_lon": 0.0}, {"lat": 38.865637, "is_disabled": 0, "type": "electric_scooter", "lon": -76.98951483333333, "bike_id": "490333bde2dcc1bb668d07107d1148c7", "fusion_lat": 0.0, "name": "490333bde2dcc1bb668d07107d1148c7", "is_reserved": 0, "rental_uris": {"android": "https://dc.lft.to/lastmile_qr_scan", "ios": "https://dc.lft.to/lastmile_qr_scan"}, "fusion_lon": 0.0}, {"lat": 38.887274, "is_disabled": 0, "type": "electric_scooter", "lon": -77.03191266666667, "bike_id": "0274264b8caf56df27745e76f349519c", "fusion_lat": 0.0, "name": "0274264b8caf56df27745e76f349519c", "is_reserved": 0, "rental_uris": {"android": "https://dc.lft.to/lastmile_qr_scan", "ios": "https://dc.lft.to/lastmile_qr_scan"}, "fusion_lon": 0.0}, {"lat": 38.95570283333333, "is_disabled": 0, "type": "electric_scooter", "lon": -77.02245433333333, "bike_id": "99d19a04d0c80978dd9698f47bd673ba", "fusion_lat": 0.0, "name": "99d19a04d0c80978dd9698f47bd673ba", "is_reserved": 0, "rental_uris": {"android": "https://dc.lft.to/lastmile_qr_scan", "ios": "https://dc.lft.to/lastmile_qr_scan"}, "fusion_lon": 0.0}, {"lat": 38.938804166666664, "is_disabled": 0, "type": "electric_scooter", "lon": -77.02445033333333, "bike_id": "39053f3ebea26925c3515f1d4d36f5dc", "fusion_lat": 0.0, "name": "39053f3ebea26925c3515f1d4d36f5dc", "is_reserved": 0, "rental_uris": {"android": "https://dc.lft.to/lastmile_qr_scan", "ios": "https://dc.lft.to/lastmile_qr_scan"}, "fusion_lon": 0.0}, {"lat": 38.90920216666667, "is_disabled": 0, "type": "electric_scooter", "lon": -77.03647333333333, "bike_id": "e0c1677e79512260138512d54e83cde3", "fusion_lat": 0.0, "name": "e0c1677e79512260138512d54e83cde3", "is_reserved": 0, "rental_uris": {"android": "https://dc.lft.to/lastmile_qr_scan", "ios": "https://dc.lft.to/lastmile_qr_scan"}, "fusion_lon": 0.0}, {"lat": 38.890477, "is_disabled": 0, "type": "electric_scooter", "lon": -76.98982783333334, "bike_id": "429b7ade5314e24055ea8cc5f7acf28a", "fusion_lat": 0.0, "name": "429b7ade5314e24055ea8cc5f7acf28a", "is_reserved": 0, "rental_uris": {"android": "https://dc.lft.to/lastmile_qr_scan", "ios": "https://dc.lft.to/lastmile_qr_scan"}, "fusion_lon": 0.0}, {"lat": 38.90554316666667, "is_disabled": 0, "type": "electric_scooter", "lon": -77.05696116666667, "bike_id": "3a9e4f6c2ecebfeca5f551c0cf5aaebe", "fusion_lat": 0.0, "name": "3a9e4f6c2ecebfeca5f551c0cf5aaebe", "is_reserved": 0, "rental_uris": {"android": "https://dc.lft.to/lastmile_qr_scan", "ios": "https://dc.lft.to/lastmile_qr_scan"}, "fusion_lon": 0.0}, {"lat": 38.80273316666667, "is_disabled": 0, "type": "electric_bike", "lon": -77.081146, "bike_id": "647aeb5152bab4d6301bd672c320d55a", "fusion_lat": 0.0, "name": "647aeb5152bab4d6301bd672c320d55a", "is_reserved": 0, "rental_uris": {"android": "https://dc.lft.to/lastmile_qr_scan", "ios": "https://dc.lft.to/lastmile_qr_scan"}, "fusion_lon": 0.0}, {"lat": 38.9182515, "is_disabled": 0, "type": "electric_scooter", "lon": -77.02611033333334, "bike_id": "48d1b6255b3f7b42769c59b8d7bbbc35", "fusion_lat": 0.0, "name": "48d1b6255b3f7b42769c59b8d7bbbc35", "is_reserved": 0, "rental_uris": {"android": "https://dc.lft.to/lastmile_qr_scan", "ios": "https://dc.lft.to/lastmile_qr_scan"}, "fusion_lon": 0.0}, {"lat": 38.914172666666666, "is_disabled": 0, "type": "electric_scooter", "lon": -77.02232666666667, "bike_id": "6fcd294f4e515b5c69eb7e59a8b3e255", "fusion_lat": 0.0, "name": "6fcd294f4e515b5c69eb7e59a8b3e255", "is_reserved": 0, "rental_uris": {"android": "https://dc.lft.to/lastmile_qr_scan", "ios": "https://dc.lft.to/lastmile_qr_scan"}, "fusion_lon": 0.0}, {"lat": 38.93336016666667, "is_disabled": 0, "type": "electric_scooter", "lon": -77.0238875, "bike_id": "1e32a3dee6d2614352916f8c0e0d367e", "fusion_lat": 0.0, "name": "1e32a3dee6d2614352916f8c0e0d367e", "is_reserved": 0, "rental_uris": {"android": "https://dc.lft.to/lastmile_qr_scan", "ios": "https://dc.lft.to/lastmile_qr_scan"}, "fusion_lon": 0.0}, {"lat": 38.91710583333333, "is_disabled": 0, "type": "electric_scooter", "lon": -77.0308115, "bike_id": "d1c2037361e360673f842758ac910eaa", "fusion_lat": 0.0, "name": "d1c2037361e360673f842758ac910eaa", "is_reserved": 0, "rental_uris": {"android": "https://dc.lft.to/lastmile_qr_scan", "ios": "https://dc.lft.to/lastmile_qr_scan"}, "fusion_lon": 0.0}, {"lat": 38.909646333333335, "is_disabled": 0, "type": "electric_scooter", "lon": -77.040662, "bike_id": "f805ba12fb4bf5741746ac0754fb35b7", "fusion_lat": 0.0, "name": "f805ba12fb4bf5741746ac0754fb35b7", "is_reserved": 0, "rental_uris": {"android": "https://dc.lft.to/lastmile_qr_scan", "ios": "https://dc.lft.to/lastmile_qr_scan"}, "fusion_lon": 0.0}, {"lat": 38.918236666666665, "is_disabled": 0, "type": "electric_scooter", "lon": -77.04527283333333, "bike_id": "2c7b721435e42137352aa1f5a68effb0", "fusion_lat": 0.0, "name": "2c7b721435e42137352aa1f5a68effb0", "is_reserved": 0, "rental_uris": {"android": "https://dc.lft.to/lastmile_qr_scan", "ios": "https://dc.lft.to/lastmile_qr_scan"}, "fusion_lon": 0.0}, {"lat": 38.9540675, "is_disabled": 0, "type": "electric_scooter", "lon": -77.02748183333334, "bike_id": "365e0277092b0cb90687295bf219c0f5", "fusion_lat": 0.0, "name": "365e0277092b0cb90687295bf219c0f5", "is_reserved": 0, "rental_uris": {"android": "https://dc.lft.to/lastmile_qr_scan", "ios": "https://dc.lft.to/lastmile_qr_scan"}, "fusion_lon": 0.0}, {"lat": 38.8699615, "is_disabled": 0, "type": "electric_bike", "lon": -77.0656345, "bike_id": "28e65e6d2eed588f834935f04133c111", "fusion_lat": 0.0, "name": "28e65e6d2eed588f834935f04133c111", "is_reserved": 0, "rental_uris": {"android": "https://dc.lft.to/lastmile_qr_scan", "ios": "https://dc.lft.to/lastmile_qr_scan"}, "fusion_lon": 0.0}, {"lat": 38.946304833333336, "is_disabled": 0, "type": "electric_scooter", "lon": -77.018436, "bike_id": "5544faec0b79d1781bf92213a7986b27", "fusion_lat": 0.0, "name": "5544faec0b79d1781bf92213a7986b27", "is_reserved": 0, "rental_uris": {"android": "https://dc.lft.to/lastmile_qr_scan", "ios": "https://dc.lft.to/lastmile_qr_scan"}, "fusion_lon": 0.0}, {"lat": 38.89059, "is_disabled": 0, "type": "electric_scooter", "lon": -76.93757216666667, "bike_id": "7e4273032d2090aeba470522399898f9", "fusion_lat": 0.0, "name": "7e4273032d2090aeba470522399898f9", "is_reserved": 0, "rental_uris": {"android": "https://dc.lft.to/lastmile_qr_scan", "ios": "https://dc.lft.to/lastmile_qr_scan"}, "fusion_lon": 0.0}, {"lat": 38.92400933333333, "is_disabled": 0, "type": "electric_scooter", "lon": -77.02741666666667, "bike_id": "0a0dea75a009e3b6ccfd8c82ec366a3f", "fusion_lat": 0.0, "name": "0a0dea75a009e3b6ccfd8c82ec366a3f", "is_reserved": 0, "rental_uris": {"android": "https://dc.lft.to/lastmile_qr_scan", "ios": "https://dc.lft.to/lastmile_qr_scan"}, "fusion_lon": 0.0}, {"lat": 38.902382, "is_disabled": 0, "type": "electric_scooter", "lon": -77.017505, "bike_id": "2c771b8b7a15d6ec2bed01771de67c64", "fusion_lat": 0.0, "name": "2c771b8b7a15d6ec2bed01771de67c64", "is_reserved": 0, "rental_uris": {"android": "https://dc.lft.to/lastmile_qr_scan", "ios": "https://dc.lft.to/lastmile_qr_scan"}, "fusion_lon": 0.0},