{"data": {"bikes": [{"rental_uris": {"ios": "https://dc.lft.to/lastmile_qr_scan", "android": "https://dc.lft.to/lastmile_qr_scan"}, "type": "electric_scooter", "name": "43324f0fc3a5bf5b7c9f6e14dab12389", "is_reserved": 0, "lon": -77.00607716666667, "is_disabled": 0, "fusion_lat": 0.0, "lat": 38.871811666666666, "bike_id": "43324f0fc3a5bf5b7c9f6e14dab12389", "fusion_lon": 0.0}, {"rental_uris": {"ios": "https://dc.lft.to/lastmile_qr_scan", "android": "https://dc.lft.to/lastmile_qr_scan"}, "type": "electric_scooter", "name": "7740a98cffad860d0bc452ffc35e85db", "is_reserved": 0, "lon": -76.98885366666667, "is_disabled": 0, "fusion_lat": 0.0, "lat": 38.8666135, "bike_id": "7740a98cffad860d0bc452ffc35e85db", "fusion_lon": 0.0}, {"rental_uris": {"ios": "https://dc.lft.to/lastmile_qr_scan", "android": "https://dc.lft.to/lastmile_qr_scan"}, "type": "electric_scooter", "name": "b9326b84a84b9bbe7740171eed1815c2", "is_reserved": 0, "lon": -76.99954433333333, "is_disabled": 0, "fusion_lat": 0.0, "lat": 38.894205666666664, "bike_id": "b9326b84a84b9bbe7740171eed1815c2", "fusion_lon": 0.0}, {"rental_uris": {"ios": "https://dc.lft.to/lastmile_qr_scan", "android": "https://dc.lft.to/lastmile_qr_scan"}, "type": "electric_bike", "name": "e76680d02b56463f45101e22ebf514d6", "is_reserved": 0, "lon": -77.12973616666666, "is_disabled": 0, "fusion_lat": 0.0, "lat": 38.799890166666664, "bike_id": "e76680d02b56463f45101e22ebf514d6", "fusion_lon": 0.0}, {"rental_uris": {"ios": "https://dc.lft.to/lastmile_qr_scan", "android": "https://dc.lft.to/lastmile_qr_scan"}, "type": "electric_scooter", "name": "691578086abb6f8e3b6aa505221420f5", "is_reserved": 0, "lon": -77.03250016666667, "is_disabled": 0, "fusion_lat": 0.0, "lat": 38.905552666666665, "bike_id": "691578086abb6f8e3b6aa505221420f5", "fusion_lon": 0.0}, {"rental_uris": {"ios": "https://dc.lft.to/lastmile_qr_scan", "android": "https://dc.lft.to/lastmile_qr_scan"}, "type": "electric_scooter", "name": "ffb1adc94427e0d126d4b30f59171bf5", "is_reserved": 0, "lon": -77.03187833333334, "is_disabled": 0, "fusion_lat": 0.0, "lat": 38.9157475, "bike_id": "ffb1adc94427e0d126d4b30f59171bf5", "fusion_lon": 0.0}, {"rental_uris": {"ios": "https://dc.lft.to/lastmile_qr_scan", "android": "https://dc.lft.to/lastmile_qr_scan"}, "type": "electric_scooter", "name": "bc130172e202e6ae7e79e4d1999cde26", "is_reserved": 0, "lon": -77.0179795, "is_disabled": 0, "fusion_lat": 0.0, "lat": 38.885962, "bike_id": "bc130172e202e6ae7e79e4d1999cde26", "fusion_lon": 0.0}, {"rental_uris": {"ios": "https://dc.lft.to/lastmile_qr_scan", "android": "https://dc.lft.to/lastmile_qr_scan"}, "type": "electric_bike", "name": "16a083dbfeae9f9b6bf5353a71c0f52d", "is_reserved": 0, "lon": -76.91798933333334, "is_disabled": 0, "fusion_lat": 0.0, "lat": 38.999959, "bike_id": "16a083dbfeae9f9b6bf5353a71c0f52d", "fusion_lon": 0.0}, {"rental_uris": {"ios": "https://dc.lft.to/lastmile_qr_scan", "android": "https://dc.lft.to/lastmile_qr_scan"}, "type": "electric_scooter", "name": "3d6946e98307a546a572640597d5819f", "is_reserved": 0, "lon": -76.9329175, "is_disabled": 0, "fusion_lat": 0.0, "lat": 38.89685983333333, "bike_id": "3d6946e98307a546a572640597d5819f", "fusion_lon": 0.0}, {"rental_uris": {"ios": "https://dc.lft.to/lastmile_qr_scan", "android": "https://dc.lft.to/lastmile_qr_scan"}, "type": "electric_scooter", "name": "c6513f58943c4f29adc55ce748f6b81b", "is_reserved": 0, "lon": -77.032622, "is_disabled": 0, "fusion_lat": 0.0, "lat": 38.9373585, "bike_id": "c6513f58943c4f29adc55ce748f6b81b", "fusion_lon": 0.0}, {"rental_uris": {"ios": "https://dc.lft.to/lastmile_qr_scan", "android": "https://dc.lft.to/lastmile_qr_scan"}, "type": "electric_scooter", "name": "0dad2bf9b88a9416031b7081a5f27507", "is_reserved": 0, "lon": -77.03043616666666, "is_disabled": 0, "fusion_lat": 0.0, "lat": 38.9249195, "bike_id": "0dad2bf9b88a9416031b7081a5f27507", "fusion_lon": 0.0}, {"rental_uris": {"ios": "https://dc.lft.to/lastmile_qr_scan", "android": "https://dc.lft.to/lastmile_qr_scan"}, "type": "electric_scooter", "name": "f594c87ba21705e78b34e7e8cc5cf135", "is_reserved": 0, "lon": -77.02823233333334, "is_disabled": 0, "fusion_lat": 0.0, "lat": 38.917454666666664, "bike_id": "f594c87ba21705e78b34e7e8cc5cf135", "fusion_lon": 0.0}, {"rental_uris": {"ios": "https://dc.lft.to/lastmile_qr_scan", "android": "https://dc.lft.to/lastmile_qr_scan"}, "type": "electric_scooter", "name": "193a996aa9d2e1c3061d43132e0e174d", "is_reserved": 0, "lon": -77.035919, "is_disabled": 0, "fusion_lat": 0.0, "lat": 38.92788266666667, "bike_id": "193a996aa9d2e1c3061d43132e0e174d", "fusion_lon": 0.0}, {"rental_uris": {"ios": "https://dc.lft.to/lastmile_qr_scan", "android": "https://dc.lft.to/lastmile_qr_scan"}, "type": "electric_scooter", "name": "518817ecbfa9ba7bd6c9837228967428", "is_reserved": 0, "lon": -77.04006333333334, "is_disabled": 0, "fusion_lat": 0.0, "lat": 38.91195066666667, "bike_id": "518817ecbfa9ba7bd6c9837228967428", "fusion_lon": 0.0}, {"rental_uris": {"ios": "https://dc.lft.to/lastmile_qr_scan", "android": "https://dc.lft.to/lastmile_qr_scan"}, "type": "electric_bike", "name": "50588c9fe710fd7a9c997c87893bcd29", "is_reserved": 0, "lon": -77.0444935, "is_disabled": 0, "fusion_lat": 0.0, "lat": 38.91123116666667, "bike_id": "50588c9fe710fd7a9c997c87893bcd29", "fusion_lon": 0.0}, {"rental_uris": {"ios": "https://dc.lft.to/lastmile_qr_scan", "android": "https://dc.lft.to/lastmile_qr_scan"}, "type": "electric_scooter", "name": "5f2b2d7a04de7ed677fcbe204958c31a", "is_reserved": 0, "lon": -77.020233, "is_disabled": 0, "fusion_lat": 0.0, "lat": 38.924258, "bike_id": "5f2b2d7a04de7ed677fcbe204958c31a", "fusion_lon": 0.0}, {"rental_uris": {"ios": "https://dc.lft.to/lastmile_qr_scan", "android": "https://dc.lft.to/lastmile_qr_scan"}, "type": "electric_scooter", "name": "9a2c1683ffcf39928f2a6478c6595874", "is_reserved": 0, "lon": -77.03880816666667, "is_disabled": 0, "fusion_lat": 0.0, "lat": 38.92257083333333, "bike_id": "9a2c1683ffcf39928f2a6478c6595874", "fusion_lon": 0.0}, {"rental_uris": {"ios": "https://dc.lft.to/lastmile_qr_scan", "android": "https://dc.lft.to/lastmile_qr_scan"}, "type": "electric_scooter", "name": "baa4f4c5812e958a206b31bd458c3c5f", "is_reserved": 0, "lon": -77.03207933333333, "is_disabled": 0, "fusion_lat": 0.0, "lat": 38.9139525, "bike_id": "baa4f4c5812e958a206b31bd458c3c5f", "fusion_lon": 0.0}, {"rental_uris": {"ios": "https://dc.lft.to/lastmile_qr_scan", "android": "https://dc.lft.to/lastmile_qr_scan"}, "type": "electric_scooter", "name": "69f03bbb7e610c9ec358572f7114b9f0", "is_reserved": 0, "lon": -77.03218966666667, "is_disabled": 0, "fusion_lat": 0.0, "lat": 38.91968033333333, "bike_id": "69f03bbb7e610c9ec358572f7114b9f0", "fusion_lon": 0.0}, {"rental_uris": {"ios": "https://dc.lft.to/lastmile_qr_scan", "android": "https://dc.lft.to/lastmile_qr_scan"}, "type": "electric_scooter", "name": "187f23e939d5ab893f084fb7b9f526d8", "is_reserved": 0, "lon": -77.04704466666666, "is_disabled": 0, "fusion_lat": 0.0, "lat": 38.90586616666667, "bike_id": "187f23e939d5ab893f084fb7b9f526d8", "fusion_lon": 0.0}, {"rental_uris": {"ios": "https://dc.lft.to/lastmile_qr_scan", "android": "https://dc.lft.to/lastmile_qr_scan"}, "type": "electric_scooter", "name": "cf4bb3eff9a8701454a4a193e3ee1c09", "is_reserved": 0, "lon": -77.034627, "is_disabled": 0, "fusion_lat": 0.0, "lat": 38.90998366666667, "bike_id": "cf4bb3eff9a8701454a4a193e3ee1c09", "fusion_lon": 0.0}, {"rental_uris": {"ios": "https://dc.lft.to/lastmile_qr_scan", "android": "https://dc.lft.to/lastmile_qr_scan"}, "type": "electric_bike", "name": "99d2fcc4022566e3038813252991fbf2", "is_reserved": 0, "lon": -77.12977966666666, "is_disabled": 0, "fusion_lat": 0.0, "lat": 38.799885333333336, "bike_id": "99d2fcc4022566e3038813252991fbf2", "fusion_lon": 0.0}, {"rental_uris": {"ios": "https://dc.lft.to/lastmile_qr_scan", "android": "https://dc.lft.to/lastmile_qr_scan"}, "type": "electric_scooter", "name": "97563ec763d5698b72c7558d9152db5f", "is_reserved": 0, "lon": -77.00752833333334, "is_disabled": 0, "fusion_lat": 0.0, "lat": 38.89837133333333, "bike_id": "97563ec763d5698b72c7558d9152db5f", "fusion_lon": 0.0}, {"rental_uris": {"ios": "https://dc.lft.to/lastmile_qr_scan", "android": "https://dc.lft.to/lastmile_qr_scan"}, "type": "electric_scooter", "name": "d1ef129592220c69b6e4bdf5d416ce23", "is_reserved": 0, "lon": -77.04556, "is_disabled": 0, "fusion_lat": 0.0, "lat": 38.90565216666667, "bike_id": "d1ef129592220c69b6e4bdf5d416ce23", "fusion_lon": 0.0}, {"rental_uris": {"ios": "https://dc.lft.to/lastmile_qr_scan", "android": "https://dc.lft.to/lastmile_qr_scan"}, "type": "electric_scooter", "name": "d882db2a7c3956b86caef40932adbe21", "is_reserved": 0, "lon": -77.04994633333334, "is_disabled": 0, "fusion_lat": 0.0, "lat": 38.90088083333333, "bike_id": "d882db2a7c3956b86caef40932adbe21", "fusion_lon": 0.0}, {"rental_uris": {"ios": "https://dc.lft.to/lastmile_qr_scan", "android": "https://dc.lft.to/lastmile_qr_scan"}, "type": "electric_scooter", "name": "e414d6b4475d301ed23a97e4895c6352", "is_reserved": 0, "lon": -77.02532366666667, "is_disabled": 0, "fusion_lat": 0.0, "lat": 38.945319833333336, "bike_id": "e414d6b4475d301ed23a97e4895c6352", "fusion_lon": 0.0}, {"rental_uris": {"ios": "https://dc.lft.to/lastmile_qr_scan", "android": "https://dc.lft.to/lastmile_qr_scan"}, "type": "electric_scooter", "name": "41f0769fd0ab633773b35a76c7754fc4", "is_reserved": 0, "lon": -77.03145266666667, "is_disabled": 0, "fusion_lat": 0.0, "lat": 38.887455333333335, "bike_id": "41f0769fd0ab633773b35a76c7754fc4", "fusion_lon": 0.0}, {"rental_uris": {"ios": "https://dc.lft.to/lastmile_qr_scan", "android": "https://dc.lft.to/lastmile_qr_scan"}, "type": "electric_scooter", "name": "dad1b85b4e1d757b04428e4ad33420e9", "is_reserved": 0, "lon": -77.03181533333333, "is_disabled": 0, "fusion_lat": 0.0, "lat": 38.911692, "bike_id": "dad1b85b4e1d757b04428e4ad33420e9", "fusion_lon": 0.0}, {"rental_uris": {"ios": "https://dc.lft.to/lastmile_qr_scan", "android": "https://dc.lft.to/lastmile_qr_scan"}, "type": "electric_scooter", "name": "c81393424d2c1d0393f341746b5182d2", "is_reserved": 0, "lon": -77.04756066666667, "is_disabled": 0, "fusion_lat": 0.0, "lat": 38.8922255, "bike_id": "c81393424d2c1d0393f341746b5182d2", "fusion_lon": 0.0}, {"rental_uris": {"ios": "https://dc.lft.to/lastmile_qr_scan", "android": "https://dc.lft.to/lastmile_qr_scan"}, "type": "electric_scooter", "name": "aef895abf6cf7301b63e3bc719eed0aa", "is_reserved": 0, "lon": -77.0318265, "is_disabled": 0, "fusion_lat": 0.0, "lat": 38.91428166666667, "bike_id": "aef895abf6cf7301b63e3bc719eed0aa", "fusion_lon": 0.0}, {"rental_uris": {"ios": "https://dc.lft.to/lastmile_qr_scan", "android": "https://dc.lft.to/lastmile_qr_scan"}, "type": "electric_scooter", "name": "2bd376a6a94fc5677f306c71650d9371", "is_reserved": 0, "lon": -77.04095883333333, "is_disabled": 0, "fusion_lat": 0.0, "lat": 38.91779733333333, "bike_id": "2bd376a6a94fc5677f306c71650d9371", "fusion_lon": 0.0}, {"rental_uris": {"ios": "https://dc.lft.to/lastmile_qr_scan", "android": "https://dc.lft.to/lastmile_qr_scan"}, "type": "electric_scooter", "name": "5fdd2057226e2b0b169bef758d857305", "is_reserved": 0, "lon": -77.02225816666666, "is_disabled": 0, "fusion_lat": 0.0, "lat": 38.89839966666667, "bike_id": "5fdd2057226e2b0b169bef758d857305", "fusion_lon": 0.0}, {"rental_uris": {"ios": "https://dc.lft.to/lastmile_qr_scan", "android": "https://dc.lft.to/lastmile_qr_scan"}, "type": "electric_scooter", "name": "a979e14bb4351fe56121db61c4da07c7", "is_reserved": 0, "lon": -77.01779183333333, "is_disabled": 0, "fusion_lat": 0.0, "lat": 38.874724666666665, "bike_id": "a979e14bb4351fe56121db61c4da07c7", "fusion_lon": 0.0}, {"rental_uris": {"ios": "https://dc.lft.to/lastmile_qr_scan", "android": "https://dc.lft.to/lastmile_qr_scan"}, "type": "electric_scooter", "name": "dbcd92ce22904fdc41b3f9a4a69cecde", "is_reserved": 0, "lon": -77.019602, "is_disabled": 0, "fusion_lat": 0.0, "lat": 38.92330666666667, "bike_id": "dbcd92ce22904fdc41b3f9a4a69cecde", "fusion_lon": 0.0}, {"rental_uris": {"ios": "https://dc.lft.to/lastmile_qr_scan", "android": "https://dc.lft.to/lastmile_qr_scan"}, "type": "electric_bike", "name": "30e14fea7924484a106e2ec046d39cf8", "is_reserved": 0, "lon": -76.98281933333334, "is_disabled": 0, "fusion_lat": 0.0, "lat": 38.84680516666667, "bike_id": "30e14fea7924484a106e2ec046d39cf8", "fusion_lon": 0.0}, {"rental_uris": {"ios": "https://dc.lft.to/lastmile_qr_scan", "android": "https://dc.lft.to/lastmile_qr_scan"}, "type": "electric_scooter", "name": "205605e6db88b1b1a28b2392377ecd45", "is_reserved": 0, "lon": -77.08125683333333, "is_disabled": 0, "fusion_lat": 0.0, "lat": 38.91935433333333, "bike_id": "205605e6db88b1b1a28b2392377ecd45", "fusion_lon": 0.0}, {"rental_uris": {"ios": "https://dc.lft.to/lastmile_qr_scan", "android": "https://dc.lft.to/lastmile_qr_scan"}, "type": "electric_bike", "name": "1eb77d1b9734b9c33d304125980a628c", "is_reserved": 0, "lon": -77.108662, "is_disabled": 0, "fusion_lat": 0.0, "lat": 38.9358075, "bike_id": "1eb77d1b9734b9c33d304125980a628c", "fusion_lon": 0.0}, {"rental_uris": {"ios": "https://dc.lft.to/lastmile_qr_scan", "android": "https://dc.lft.to/lastmile_qr_scan"}, "type": "electric_scooter", "name": "0a315e2b6702875d085b7637aa02bbaf", "is_reserved": 0, "lon": -77.01757033333334, "is_disabled": 0, "fusion_lat": 0.0, "lat": 38.876682333333335, "bike_id": "0a315e2b6702875d085b7637aa02bbaf", "fusion_lon": 0.0}, {"rental_uris": {"ios": "https://dc.lft.to/lastmile_qr_scan", "android": "https://dc.lft.to/lastmile_qr_scan"}, "type": "electric_scooter", "name": "81ddee32c6df4ed1c0b9911c94a907ad", "is_reserved": 0, "lon": -77.05522266666667, "is_disabled": 0, "fusion_lat": 0.0, "lat": 38.89732016666667, "bike_id": "81ddee32c6df4ed1c0b9911c94a907ad", "fusion_lon": 0.0}, {"rental_uris": {"ios": "https://dc.lft.to/lastmile_qr_scan", "android": "https://dc.lft.to/lastmile_qr_scan"}, "type": "electric_scooter", "name": "a37a38f67caca6f1b1b802fc8df0e05d", "is_reserved": 0, "lon": -77.028892, "is_disabled": 0, "fusion_lat": 0.0, "lat": 38.919164333333335, "bike_id": "a37a38f67caca6f1b1b802fc8df0e05d", "fusion_lon": 0.0}, {"rental_uris": {"ios": "https://dc.lft.to/lastmile_qr_scan", "android": "https://dc.lft.to/lastmile_qr_scan"}, "type": "electric_scooter", "name": "5d8c1b6d94c55244e4d5e726ea37ab73", "is_reserved": 0, "lon": -77.02235183333333, "is_disabled": 0, "fusion_lat": 0.0, "lat": 38.87818466666667, "bike_id": "5d8c1b6d94c55244e4d5e726ea37ab73", "fusion_lon": 0.0}, {"rental_uris": {"ios": "https://dc.lft.to/lastmile_qr_scan", "android": "https://dc.lft.to/lastmile_qr_scan"}, "type": "electric_scooter", "name": "11fc0147cbccbc762d7c5b6f50c3d564", "is_reserved": 0, "lon": -77.03878983333334, "is_disabled": 0, "fusion_lat": 0.0, "lat": 38.91763866666667, "bike_id": "11fc0147cbccbc762d7c5b6f50c3d564", "fusion_lon": 0.0}, {"rental_uris": {"ios": "https://dc.lft.to/lastmile_qr_scan", "android": "https://dc.lft.to/lastmile_qr_scan"}, "type": "electric_scooter", "name": "edafbbbb9f251df3c74dbdd6b05a83b4", "is_reserved": 0, "lon": -77.03335783333333, "is_disabled": 0, "fusion_lat": 0.0, "lat": 38.9721255, "bike_id": "edafbbbb9f251df3c74dbdd6b05a83b4", "fusion_lon": 0.0}, {"rental_uris": {"ios": "https://dc.lft.to/lastmile_qr_scan", "android": "https://dc.lft.to/lastmile_qr_scan"}, "type": "electric_scooter", "name": "e2bc7d781fe449e73bf7e593a96bdf9c", "is_reserved": 0, "lon": -77.03665816666667, "is_disabled": 0, "fusion_lat": 0.0, "lat": 38.91255866666667, "bike_id": "e2bc7d781fe449e73bf7e593a96bdf9c", "fusion_lon": 0.0}, {"rental_uris": {"ios": "https://dc.lft.to/lastmile_qr_scan", "android": "https://dc.lft.to/lastmile_qr_scan"}, "type": "electric_scooter", "name": "5f629a8c0bb2d1a5739cab61d9ddd4be", "is_reserved": 0, "lon": -77.05167633333333, "is_disabled": 0, "fusion_lat": 0.0, "lat": 38.90545, "bike_id": "5f629a8c0bb2d1a5739cab61d9ddd4be", "fusion_lon": 0.0}, {"rental_uris": {"ios": "https://dc.lft.to/lastmile_qr_scan", "android": "https://dc.lft.to/lastmile_qr_scan"}, "type": "electric_scooter", "name": "a556d5089c048ef95309927864eb90fd", "is_reserved": 0, "lon": -76.925829, "is_disabled": 0, "fusion_lat": 0.0, "lat": 38.897644166666666, "bike_id": "a556d5089c048ef95309927864eb90fd", "fusion_lon": 0.0}, {"rental_uris": {"ios": "https://dc.lft.to/lastmile_qr_scan", "android": "https://dc.lft.to/lastmile_qr_scan"}, "type": "electric_scooter", "name": "8ff95f8211e0451891abe4640a4afe37", "is_reserved": 0, "lon": -77.03199433333333, "is_disabled": 0, "fusion_lat": 0.0, "lat": 38.917919166666664, "bike_id": "8ff95f8211e0451891abe4640a4afe37", "fusion_lon": 0.0}, {"rental_uris": {"ios": "https://dc.lft.to/lastmile_qr_scan", "android": "https://dc.lft.to/lastmile_qr_scan"}, "type": "electric_bike", "name": "845a10f290861efdb91568e383448f14", "is_reserved": 0, "lon": -77.04687066666666, "is_disabled": 0, "fusion_lat": 0.0, "lat": 38.907239, "bike_id": "845a10f290861efdb91568e383448f14", "fusion_lon": 0.0}, {"rental_uris": {"ios": "https://dc.lft.to/lastmile_qr_scan", "android": "https://dc.lft.to/lastmile_qr_scan"}, "type": "electric_scooter", "name": "9ff421565d59e351ddc5683104238200", "is_reserved": 0, "lon": -76.99630366666666, "is_disabled": 0, "fusion_lat": 0.0, "lat": 38.931586333333335, "bike_id": "9ff421565d59e351ddc5683104238200", "fusion_lon": 0.0}, {"rental_uris": {"ios": "https://dc.lft.to/lastmile_qr_scan", "android": "https://dc.lft.to/lastmile_qr_scan"}, "type": "electric_scooter", "name": "9f5a4b57d7b893859de11ab04be6ad66", "is_reserved": 0, "lon": -77.04872483333334, "is_disabled": 0, "fusion_lat": 0.0, "lat": 38.89234116666667, "bike_id": "9f5a4b57d7b893859de11ab04be6ad66", "fusion_lon": 0.0}, {"rental_uris": {"ios": "https://dc.lft.to/lastmile_qr_scan", "android": "https://dc.lft.to/lastmile_qr_scan"}, "type": "electric_scooter", "name": "a6d061b2737c2e2a99bf8694d3d848de", "is_reserved": 0, "lon": -77.0427105, "is_disabled": 0, "fusion_lat": 0.0, "lat": 38.9178935, "bike_id": "a6d061b2737c2e2a99bf8694d3d848de", "fusion_lon": 0.0}, {"rental_uris": {"ios": "https://dc.lft.to/lastmile_qr_scan", "android": "https://dc.lft.to/lastmile_qr_scan"}, "type": "electric_scooter", "name": "6ebce576768a8143e8af92354af4a608", "is_reserved": 0, "lon": -77.032051, "is_disabled": 0, "fusion_lat": 0.0, "lat": 38.914264, "bike_id": "6ebce576768a8143e8af92354af4a608", "fusion_lon": 0.0}, {"rental_uris": {"ios": "https://dc.lft.to/lastmile_qr_scan", "android": "https://dc.lft.to/lastmile_qr_scan"}, "type": "electric_scooter", "name": "62a9a0c969bb2c5e21031fe7c60ce0e4", "is_reserved": 0, "lon": -77.03392233333334, "is_disabled": 0, "fusion_lat": 0.0, "lat": 38.938491666666664, "bike_id": "62a9a0c969bb2c5e21031fe7c60ce0e4", "fusion_lon": 0.0}, {"rental_uris": {"ios": "https://dc.lft.to/lastmile_qr_scan", "android": "https://dc.lft.to/lastmile_qr_scan"}, "type": "electric_scooter", "name": "db008a76b6d132442a44ae7683075bde", "is_reserved": 0, "lon": -77.03189733333333, "is_disabled": 0, "fusion_lat": 0.0, "lat": 38.9159205, "bike_id": "db008a76b6d132442a44ae7683075bde", "fusion_lon": 0.0}, {"rental_uris": {"ios": "https://dc.lft.to/lastmile_qr_scan", "android": "https://dc.lft.to/lastmile_qr_scan"}, "type": "electric_scooter", "name": "5b8fbb3a516bc3f13f64627b393fb378", "is_reserved": 0, "lon": -77.03657316666667, "is_disabled": 0, "fusion_lat": 0.0, "lat": 38.91707516666666, "bike_id": "5b8fbb3a516bc3f13f64627b393fb378", "fusion_lon": 0.0}, {"rental_uris": {"ios": "https://dc.lft.to/lastmile_qr_scan", "android": "https://dc.lft.to/lastmile_qr_scan"}, "type": "electric_scooter", "name": "708d7c62ff00798e0de62aceadac2a3a", "is_reserved": 0, "lon": -77.044245, "is_disabled": 0, "fusion_lat": 0.0, "lat": 38.90121383333334, "bike_id": "708d7c62ff00798e0de62aceadac2a3a", "fusion_lon": 0.0}, {"rental_uris": {"ios": "https://dc.lft.to/lastmile_qr_scan", "android": "https://dc.lft.to/lastmile_qr_scan"}, "type": "electric_scooter", "name": "28c196c97e5cc49d94a6f8109ee116a7", "is_reserved": 0, "lon": -77.00887766666666, "is_disabled": 0, "fusion_lat": 0.0, "lat": 38.89987083333333, "bike_id": "28c196c97e5cc49d94a6f8109ee116a7", "fusion_lon": 0.0}, {"rental_uris": {"ios": "https://dc.lft.to/lastmile_qr_scan", "android": "https://dc.lft.to/lastmile_qr_scan"}, "type": "electric_scooter", "name": "1016d1e272cffb9e273447bce6923a92", "is_reserved": 0, "lon": -77.03867, "is_disabled": 0, "fusion_lat": 0.0, "lat": 38.942309, "bike_id": "1016d1e272cffb9e273447bce6923a92", "fusion_lon": 0.0}, {"rental_uris": {"ios": "https://dc.lft.to/lastmile_qr_scan", "android": "https://dc.lft.to/lastmile_qr_scan"}, "type": "electric_scooter", "name": "2849f14d734bfdbcde20270a59609d73", "is_reserved": 0, "lon": -77.04460316666666, "is_disabled": 0, "fusion_lat": 0.0, "lat": 38.91543266666667, "bike_id": "2849f14d734bfdbcde20270a59609d73", "fusion_lon": 0.0}, {"rental_uris": {"ios": "https://dc.lft.to/lastmile_qr_scan", "android": "https://dc.lft.to/lastmile_qr_scan"}, "type": "electric_scooter", "name": "92926605e85445f24fb16f6645a6bc7d", "is_reserved": 0, "lon": -77.02567833333333, "is_disabled": 0, "fusion_lat": 0.0, "lat": 38.9171445, "bike_id": "92926605e85445f24fb16f6645a6bc7d", "fusion_lon": 0.0}, {"rental_uris": {"ios": "https://dc.lft.to/lastmile_qr_scan", "android": "https://dc.lft.to/lastmile_qr_scan"}, "type": "electric_scooter", "name": "71813d84f083b5f3aa0a789cb963667f", "is_reserved": 0, "lon": -77.02954416666667, "is_disabled": 0, "fusion_lat": 0.0, "lat": 38.9180185, "bike_id": "71813d84f083b5f3aa0a789cb963667f", "fusion_lon": 0.0}, {"rental_uris": {"ios": "https://dc.lft.to/lastmile_qr_scan", "android": "https://dc.lft.to/lastmile_qr_scan"}, "type": "electric_scooter", "name": "4b440b87869a9f81de6e5daa9674891a", "is_reserved": 0, "lon": -77.0339865, "is_disabled": 0, "fusion_lat": 0.0, "lat": 38.923969666666665, "bike_id": "4b440b87869a9f81de6e5daa9674891a", "fusion_lon": 0.0}, {"rental_uris": {"ios": "https://dc.lft.to/lastmile_qr_scan", "android": "https://dc.lft.to/lastmile_qr_scan"}, "type": "electric_scooter", "name": "cbb2081345bd240a03ce4d8c6c4e5c1e", "is_reserved": 0, "lon": -77.02206666666666, "is_disabled": 0, "fusion_lat": 0.0, "lat": 38.88719233333333, "bike_id": "cbb2081345bd240a03ce4d8c6c4e5c1e", "fusion_lon": 0.0}, {"rental_uris": {"ios": "https://dc.lft.to/lastmile_qr_scan", "android": "https://dc.lft.to/lastmile_qr_scan"}, "type": "electric_bike", "name": "ab27c29c7414221ef16b84b8b53118b7", "is_reserved": 0, "lon": -76.95750616666666, "is_disabled": 0, "fusion_lat": 0.0, "lat": 38.8848565, "bike_id": "ab27c29c7414221ef16b84b8b53118b7", "fusion_lon": 0.0}, {"rental_uris": {"ios": "https://dc.lft.to/lastmile_qr_scan", "android": "https://dc.lft.to/lastmile_qr_scan"}, "type": "electric_scooter", "name": "a345ae266ca4ff2131f3fb639d8097cf", "is_reserved": 0, "lon": -77.04699216666667, "is_disabled": 0, "fusion_lat": 0.0, "lat": 38.92167416666667, "bike_id": "a345ae266ca4ff2131f3fb639d8097cf", "fusion_lon": 0.0}, {"rental_uris": {"ios": "https://dc.lft.to/lastmile_qr_scan", "android": "https://dc.lft.to/lastmile_qr_scan"}, "type": "electric_scooter", "name": "d1db05184ea39d3e7a744bebf220d588", "is_reserved": 0, "lon": -77.03173016666666, "is_disabled": 0, "fusion_lat": 0.0, "lat": 38.91420166666666, "bike_id": "d1db05184ea39d3e7a744bebf220d588", "fusion_lon": 0.0}, {"rental_uris": {"ios": "https://dc.lft.to/lastmile_qr_scan", "android": "https://dc.lft.to/lastmile_qr_scan"}, "type": "electric_bike", "name": "3a6b641746d44f6a94c2f4cd6e07693e", "is_reserved": 0, "lon": -76.98469633333333, "is_disabled": 0, "fusion_lat": 0.0, "lat": 38.90974216666667, "bike_id": "3a6b641746d44f6a94c2f4cd6e07693e", "fusion_lon": 0.0}, {"rental_uris": {"ios": "https://dc.lft.to/lastmile_qr_scan", "android": "https://dc.lft.to/lastmile_qr_scan"}, "type": "electric_scooter", "name": "020dcc0395fd57ee62c9bd2945139595", "is_reserved": 0, "lon": -77.002163, "is_disabled": 0, "fusion_lat": 0.0, "lat": 38.91105733333333, "bike_id": "020dcc0395fd57ee62c9bd2945139595", "fusion_lon": 0.0}, {"rental_uris": {"ios": "https://dc.lft.to/lastmile_qr_scan", "android": "https://dc.lft.to/lastmile_qr_scan"}, "type": "electric_scooter", "name": "08a196eabdca47b099f23f8c2fe5e6d9", "is_reserved": 0, "lon": -77.0238615, "is_disabled": 0, "fusion_lat": 0.0, "lat": 38.91905783333333, "bike_id": "08a196eabdca47b099f23f8c2fe5e6d9", "fusion_lon": 0.0}, {"rental_uris": {"ios": "https://dc.lft.to/lastmile_qr_scan", "android": "https://dc.lft.to/lastmile_qr_scan"}, "type": "electric_scooter", "name": "b174c0a29dcdba239bdf0dbca72294a1", "is_reserved": 0, "lon": -77.02118283333333, "is_disabled": 0, "fusion_lat": 0.0, "lat": 38.893984333333336, "bike_id": "b174c0a29dcdba239bdf0dbca72294a1", "fusion_lon": 0.0}, {"rental_uris": {"ios": "https://dc.lft.to/lastmile_qr_scan", "android": "https://dc.lft.to/lastmile_qr_scan"}, "type": "electric_scooter", "name": "7ea47ec361e03116b44abe4c24664fc6", "is_reserved": 0, "lon": -77.02594666666667, "is_disabled": 0, "fusion_lat": 0.0, "lat": 38.9049065, "bike_id": "7ea47ec361e03116b44abe4c24664fc6", "fusion_lon": 0.0}, {"rental_uris": {"ios": "https://dc.lft.to/lastmile_qr_scan", "android": "https://dc.lft.to/lastmile_qr_scan"}, "type": "electric_scooter", "name": "1869fc24d35e63d6b75caed55afdcb59", "is_reserved": 0, "lon": -77.02977, "is_disabled": 0, "fusion_lat": 0.0, "lat": 38.918189166666664, "bike_id": "1869fc24d35e63d6b75caed55afdcb59", "fusion_lon": 0.0}, {"rental_uris": {"ios": "https://dc.lft.to/lastmile_qr_scan", "android": "https://dc.lft.to/lastmile_qr_scan"}, "type": "electric_scooter", "name": "627ef54bac994ef4b730fe179416321b", "is_reserved": 0, "lon": -77.04454333333334, "is_disabled": 0, "fusion_lat": 0.0, "lat": 38.915426833333335, "bike_id": "627ef54bac994ef4b730fe179416321b", "fusion_lon": 0.0}, {"rental_uris": {"ios": "https://dc.lft.to/lastmile_qr_scan", "android": "https://dc.lft.to/lastmile_qr_scan"}, "type": "electric_scooter", "name": "957c7cbe350b12a6477dc8e43126eaa2", "is_reserved": 0, "lon": -77.04205083333333, "is_disabled": 0, "fusion_lat": 0.0, "lat": 38.9211335, "bike_id": "957c7cbe350b12a6477dc8e43126eaa2", "fusion_lon": 0.0}, {"rental_uris": {"ios": "https://dc.lft.to/lastmile_qr_scan", "android": "https://dc.lft.to/lastmile_qr_scan"}, "type": "electric_scooter", "name": "2fa511f01dfdf6e7d559c6d046b7722c", "is_reserved": 0, "lon": -77.02258216666667, "is_disabled": 0, "fusion_lat": 0.0, "lat": 38.915553333333335, "bike_id": "2fa511f01dfdf6e7d559c6d046b7722c", "fusion_lon": 0.0}, {"rental_uris": {"ios": "https://dc.lft.to/lastmile_qr_scan", "android": "https://dc.lft.to/lastmile_qr_scan"}, "type": "electric_scooter", "name": "9857b06994e0985811a8691379084f43", "is_reserved": 0, "lon": -77.0336445, "is_disabled": 0, "fusion_lat": 0.0, "lat": 38.9288815, "bike_id": "9857b06994e0985811a8691379084f43", "fusion_lon": 0.0}, {"rental_uris": {"ios": "https://dc.lft.to/lastmile_qr_scan", "android": "https://dc.lft.to/lastmile_qr_scan"}, "type": "electric_scooter", "name": "010af8785d43db66ce68b18e4e9b64b4", "is_reserved": 0, "lon": -77.00775416666667, "is_disabled": 0, "fusion_lat": 0.0, "lat": 38.897355, "bike_id": "010af8785d43db66ce68b18e4e9b64b4", "fusion_lon": 0.0}, {"rental_uris": {"ios": "https://dc.lft.to/lastmile_qr_scan", "android": "https://dc.lft.to/lastmile_qr_scan"}, "type": "electric_scooter", "name": "53940c0b2c9d63170a83d2cdc31fe9a9", "is_reserved": 0, "lon": -77.0420505, "is_disabled": 0, "fusion_lat": 0.0, "lat": 38.892703166666664, "bike_id": "53940c0b2c9d63170a83d2cdc31fe9a9", "fusion_lon": 0.0}, {"rental_uris": {"ios": "https://dc.lft.to/lastmile_qr_scan", "android": "https://dc.lft.to/lastmile_qr_scan"}, "type": "electric_bike", "name": "c292e385b696c71e20cdefca9b1ad0a1", "is_reserved": 0, "lon": -77.04422366666667, "is_disabled": 0, "fusion_lat": 0.0, "lat": 39.015652, "bike_id": "c292e385b696c71e20cdefca9b1ad0a1", "fusion_lon": 0.0}, {"rental_uris": {"ios": "https://dc.lft.to/lastmile_qr_scan", "android": "https://dc.lft.to/lastmile_qr_scan"}, "type": "electric_scooter", "name": "c7cf18c43db1774fd065acd2113e92f2", "is_reserved": 0, "lon": -76.99626516666666, "is_disabled": 0, "fusion_lat": 0.0, "lat": 38.89183416666667, "bike_id": "c7cf18c43db1774fd065acd2113e92f2", "fusion_lon": 0.0}, {"rental_uris": {"ios": "https://dc.lft.to/lastmile_qr_scan", "android": "https://dc.lft.to/lastmile_qr_scan"}, "type": "electric_scooter", "name": "1c9aa36ac4018ad76dc0ecf3b8656557", "is_reserved": 0, "lon": -77.012252, "is_disabled": 0, "fusion_lat": 0.0, "lat": 38.917637166666665, "bike_id": "1c9aa36ac4018ad76dc0ecf3b8656557", "fusion_lon": 0.0}, {"rental_uris": {"ios": "https://dc.lft.to/lastmile_qr_scan", "android": "https://dc.lft.to/lastmile_qr_scan"}, "type": "electric_scooter", "name": "1b9740b4cfd25a2b6a3bd81ec29f7e61", "is_reserved": 0, "lon": -77.03187716666666, "is_disabled": 0, "fusion_lat": 0.0, "lat": 38.912244666666666, "bike_id": "1b9740b4cfd25a2b6a3bd81ec29f7e61", "fusion_lon": 0.0}, {"rental_uris": {"ios": "https://dc.lft.to/lastmile_qr_scan", "android": "https://dc.lft.to/lastmile_qr_scan"}, "type": "electric_scooter", "name": "c41005d7f995a610bace6ea3d90c44f7", "is_reserved": 0, "lon": -76.99503166666666, "is_disabled": 0, "fusion_lat": 0.0, "lat": 38.904670833333334, "bike_id": "c41005d7f995a610bace6ea3d90c44f7", "fusion_lon": 0.0}, {"rental_uris": {"ios": "https://dc.lft.to/lastmile_qr_scan", "android": "https://dc.lft.to/lastmile_qr_scan"}, "type": "electric_scooter", "name": "4759412c2bc07728e85c666df4387f37", "is_reserved": 0, "lon": -77.07934933333334, "is_disabled": 0, "fusion_lat": 0.0, "lat": 38.9191935, "bike_id": "4759412c2bc07728e85c666df4387f37", "fusion_lon": 0.0}, {"rental_uris": {"ios": "https://dc.lft.to/lastmile_qr_scan", "android": "https://dc.lft.to/lastmile_qr_scan"}, "type": "electric_scooter", "name": "907540f3be93707538886104339bc89b", "is_reserved": 0, "lon": -77.02060666666667, "is_disabled": 0, "fusion_lat": 0.0, "lat": 38.87573016666666, "bike_id": "907540f3be93707538886104339bc89b", "fusion_lon": 0.0}, {"rental_uris": {"ios": "https://dc.lft.to/lastmile_qr_scan", "android": "https://dc.lft.to/lastmile_qr_scan"}, "type": "electric_scooter", "name": "607cddf68f9d5ecaa255f1e10bdc9a0e", "is_reserved": 0, "lon": -77.03492483333333, "is_disabled": 0, "fusion_lat": 0.0, "lat": 38.91694666666667, "bike_id": "607cddf68f9d5ecaa255f1e10bdc9a0e", "fusion_lon": 0.0}, {"rental_uris": {"ios": "https://dc.lft.to/lastmile_qr_scan", "android": "https://dc.lft.to/lastmile_qr_scan"}, "type": "electric_scooter", "name": "613c9e99dfc86fc7536a6026751a30d5", "is_reserved": 0, "lon": -77.00863066666666, "is_disabled": 0, "fusion_lat": 0.0, "lat": 38.897474833333334, "bike_id": "613c9e99dfc86fc7536a6026751a30d5", "fusion_lon": 0.0}, {"rental_uris": {"ios": "https://dc.lft.to/lastmile_qr_scan", "android": "https://dc.lft.to/lastmile_qr_scan"}, "type": "electric_scooter", "name": "28ddab51ea1f91465235765265901dd0", "is_reserved": 0, "lon": -77.0458945, "is_disabled": 0, "fusion_lat": 0.0, "lat": 38.9142605, "bike_id": "28ddab51ea1f91465235765265901dd0", "fusion_lon": 0.0}, {"rental_uris": {"ios": "https://dc.lft.to/lastmile_qr_scan", "android": "https://dc.lft.to/lastmile_qr_scan"}, "type": "electric_scooter", "name": "05652c71ba09a1a3352a3b30a6b0a332", "is_reserved": 0, "lon": -76.99104316666667, "is_disabled": 0, "fusion_lat": 0.0, "lat": 38.85723866666667, "bike_id": "05652c71ba09a1a3352a3b30a6b0a332", "fusion_lon": 0.0}, {"rental_uris": {"ios": "https://dc.lft.to/lastmile_qr_scan", "android": "https://dc.lft.to/lastmile_qr_scan"}, "type": "electric_scooter", "name": "dcca0517fc2252f117ac2cf48c232a6b", "is_reserved": 0, "lon": -77.03958233333333, "is_disabled": 0, "fusion_lat": 0.0, "lat": 38.924583166666665, "bike_id": "dcca0517fc2252f117ac2cf48c232a6b", "fusion_lon": 0.0}, {"rental_uris": {"ios": "https://dc.lft.to/lastmile_qr_scan", "android": "https://dc.lft.to/lastmile_qr_scan"}, "type": "electric_scooter", "name": "5a14d1e8231c31cb6f5f19e180f31031", "is_reserved": 0, "lon": -77.0200505, "is_disabled": 0, "fusion_lat": 0.0, "lat": 38.92249733333333, "bike_id": "5a14d1e8231c31cb6f5f19e180f31031", "fusion_lon": 0.0}, {"rental_uris": {"ios": "https://dc.lft.to/lastmile_qr_scan", "android": "https://dc.lft.to/lastmile_qr_scan"}, "type": "electric_scooter", "name": "0473f45a18d9dba2388e4de98b31e8e9", "is_reserved": 0, "lon": -77.0218555, "is_disabled": 0, "fusion_lat": 0.0, "lat": 38.91475783333333, "bike_id": "0473f45a18d9dba2388e4de98b31e8e9", "fusion_lon": 0.0}, {"rental_uris": {"ios": "https://dc.lft.to/lastmile_qr_scan", "android": "https://dc.lft.to/lastmile_qr_scan"}, "type": "electric_scooter", "name": "3daf6fc3a93ebebefc5fb1c02c0c8db6", "is_reserved": 0, "lon": -77.0310805, "is_disabled": 0, "fusion_lat": 0.0, "lat": 38.917048, "bike_id": "3daf6fc3a93ebebefc5fb1c02c0c8db6", "fusion_lon": 0.0}, {"rental_uris": {"ios": "https://dc.lft.to/lastmile_qr_scan", "android": "https://dc.lft.to/lastmile_qr_scan"}, "type": "electric_scooter", "name": "b3d20a7d1a5fee5cde347752d716532a", "is_reserved": 0, "lon": -77.02911283333333, "is_disabled": 0, "fusion_lat": 0.0, "lat": 38.93335783333333, "bike_id": "b3d20a7d1a5fee5cde347752d716532a", "fusion_lon": 0.0}, {"rental_uris": {"ios": "https://dc.lft.to/lastmile_qr_scan", "android": "https://dc.lft.to/lastmile_qr_scan"}, "type": "electric_scooter", "name": "a420aeded9496f30ac6e99daf6711bd0", "is_reserved": 0, "lon": -77.04703433333333, "is_disabled": 0, "fusion_lat": 0.0, "lat": 38.913209333333334, "bike_id": "a420aeded9496f30ac6e99daf6711bd0", "fusion_lon": 0.0}, {"rental_uris": {"ios": "https://dc.lft.to/lastmile_qr_scan", "android": "https://dc.lft.to/lastmile_qr_scan"}, "type": "electric_scooter", "name": "a9314a2407ae9fb32600496bbaed8d70", "is_reserved": 0, "lon": -77.02153566666667, "is_disabled": 0, "fusion_lat": 0.0, "lat": 38.92604733333334, "bike_id": "a9314a2407ae9fb32600496bbaed8d70", "fusion_lon": 0.0}, {"rental_uris": {"ios": "https://dc.lft.to/lastmile_qr_scan", "android": "https://dc.lft.to/lastmile_qr_scan"}, "type": "electric_scooter", "name": "9c2b048d715b61509dbfe564f2bfe7c1", "is_reserved": 0, "lon": -77.00608116666666, "is_disabled": 0, "fusion_lat": 0.0, "lat": 38.871786166666666, "bike_id": "9c2b048d715b61509dbfe564f2bfe7c1", "fusion_lon": 0.0}, {"rental_uris": {"ios": "https://dc.lft.to/lastmile_qr_scan", "android": "https://dc.lft.to/lastmile_qr_scan"}, "type": "electric_scooter", "name": "68999bb59c8fae9af0e7339736bbc21a", "is_reserved": 0, "lon": -77.01120533333334, "is_disabled": 0, "fusion_lat": 0.0, "lat": 38.895072166666665, "bike_id": "68999bb59c8fae9af0e7339736bbc21a", "fusion_lon": 0.0}, {"rental_uris": {"ios": "https://dc.lft.to/lastmile_qr_scan", "android": "https://dc.lft.to/lastmile_qr_scan"}, "type": "electric_scooter", "name": "67169dce733e6a63a09428cdde5a9638", "is_reserved": 0, "lon": -76.9917425, "is_disabled": 0, "fusion_lat": 0.0, "lat": 38.889285, "bike_id": "67169dce733e6a63a09428cdde5a9638", "fusion_lon": 0.0}, {"rental_uris": {"ios": "https://dc.lft.to/lastmile_qr_scan", "android": "https://dc.lft.to/lastmile_qr_scan"}, "type": "electric_scooter", "name": "9b4c0fe1e2171f5c70bc2a5cc388556d", "is_reserved": 0, "lon": -77.0220495, "is_disabled": 0, "fusion_lat": 0.0, "lat": 38.8871655, "bike_id": "9b4c0fe1e2171f5c70bc2a5cc388556d", "fusion_lon": 0.0}, {"rental_uris": {"ios": "https://dc.lft.to/lastmile_qr_scan", "android": "https://dc.lft.to/lastmile_qr_scan"}, "type": "electric_scooter", "name": "627184484d0be5082c094e09c97ba4eb", "is_reserved": 0, "lon": -77.09000433333334, "is_disabled": 0, "fusion_lat": 0.0, "lat": 38.91853566666666, "bike_id": "627184484d0be5082c094e09c97ba4eb", "fusion_lon": 0.0}, {"rental_uris": {"ios": "https://dc.lft.to/lastmile_qr_scan", "android": "https://dc.lft.to/lastmile_qr_scan"}, "type": "electric_scooter", "name": "0221ca20fc1d768d5e24b5359fd749db", "is_reserved": 0, "lon": -77.0257055, "is_disabled": 0, "fusion_lat": 0.0, "lat": 38.88060266666667, "bike_id": "0221ca20fc1d768d5e24b5359fd749db", "fusion_lon": 0.0}, {"rental_uris": {"ios": "https://dc.lft.to/lastmile_qr_scan", "android": "https://dc.lft.to/lastmile_qr_scan"}, "type": "electric_scooter", "name": "c5e883e6b1de621ac53026f982483ed3", "is_reserved": 0, "lon": -77.04510933333333, "is_disabled": 0, "fusion_lat": 0.0, "lat": 38.892231333333335, "bike_id": "c5e883e6b1de621ac53026f982483ed3", "fusion_lon": 0.0}, {"rental_uris": {"ios": "https://dc.lft.to/lastmile_qr_scan", "android": "https://dc.lft.to/lastmile_qr_scan"}, "type": "electric_scooter", "name": "81980d3bcb8e71b4e4553fae245c93e9", "is_reserved": 0, "lon": -76.99709366666667, "is_disabled": 0, "fusion_lat": 0.0, "lat": 38.90814666666667, "bike_id": "81980d3bcb8e71b4e4553fae245c93e9", "fusion_lon": 0.0}, {"rental_uris": {"ios": "https://dc.lft.to/lastmile_qr_scan", "android": "https://dc.lft.to/lastmile_qr_scan"}, "type": "electric_scooter", "name": "01ebda921863707bdd7089fdc253d727", "is_reserved": 0, "lon": -77.0407535, "is_disabled": 0, "fusion_lat": 0.0, "lat": 38.9198115, "bike_id": "01ebda921863707bdd7089fdc253d727", "fusion_lon": 0.0}, {"rental_uris": {"ios": "https://dc.lft.to/lastmile_qr_scan", "android": "https://dc.lft.to/lastmile_qr_scan"}, "type": "electric_scooter", "name": "31cd36b5e55f4de4c9ef2e19592dc552", "is_reserved": 0, "lon": -76.98767366666667, "is_disabled": 0, "fusion_lat": 0.0, "lat": 38.911962833333334, "bike_id": "31cd36b5e55f4de4c9ef2e19592dc552", "fusion_lon": 0.0}, {"rental_uris": {"ios": "https://dc.lft.to/lastmile_qr_scan", "android": "https://dc.lft.to/lastmile_qr_scan"}, "type": "electric_scooter", "name": "f92887bd3054df1e3398b9afd8858b8a", "is_reserved": 0, "lon": -77.005767, "is_disabled": 0, "fusion_lat": 0.0, "lat": 38.871738666666666, "bike_id": "f92887bd3054df1e3398b9afd8858b8a", "fusion_lon": 0.0}, {"rental_uris": {"ios": "https://dc.lft.to/lastmile_qr_scan", "android": "https://dc.lft.to/lastmile_qr_scan"}, "type": "electric_scooter", "name": "4ee858ba1401c22951364b6af7cb4838", "is_reserved": 0, "lon": -77.02887883333334, "is_disabled": 0, "fusion_lat": 0.0, "lat": 38.89749166666667, "bike_id": "4ee858ba1401c22951364b6af7cb4838", "fusion_lon": 0.0}, {"rental_uris": {"ios": "https://dc.lft.to/lastmile_qr_scan", "android": "https://dc.lft.to/lastmile_qr_scan"}, "type": "electric_scooter", "name": "51c0374ef8354043234bb909f4d9e0f9", "is_reserved": 0, "lon": -76.97333166666667, "is_disabled": 0, "fusion_lat": 0.0, "lat": 38.9041135, "bike_id": "51c0374ef8354043234bb909f4d9e0f9", "fusion_lon": 0.0}, {"rental_uris": {"ios": "https://dc.lft.to/lastmile_qr_scan", "android": "https://dc.lft.to/lastmile_qr_scan"}, "type": "electric_scooter", "name": "6f17b0e93678ee1dc5e2af4a74180642", "is_reserved": 0, "lon": -77.022773, "is_disabled": 0, "fusion_lat": 0.0, "lat": 38.8789625, "bike_id": "6f17b0e93678ee1dc5e2af4a74180642", "fusion_lon": 0.0}, {"rental_uris": {"ios": "https://dc.lft.to/lastmile_qr_scan", "android": "https://dc.lft.to/lastmile_qr_scan"}, "type": "electric_scooter", "name": "50184488d8943c66484fe1a997a2f723", "is_reserved": 0, "lon": -77.0270655, "is_disabled": 0, "fusion_lat": 0.0, "lat": 38.93583683333333, "bike_id": "50184488d8943c66484fe1a997a2f723", "fusion_lon": 0.0}, {"rental_uris": {"ios": "https://dc.lft.to/lastmile_qr_scan", "android": "https://dc.lft.to/lastmile_qr_scan"}, "type": "electric_scooter", "name": "da0faa5d6edc9d6dac57d2dcfb140cad", "is_reserved": 0, "lon": -77.03244933333333, "is_disabled": 0, "fusion_lat": 0.0, "lat": 38.92057033333333, "bike_id": "da0faa5d6edc9d6dac57d2dcfb140cad", "fusion_lon": 0.0}, {"rental_uris": {"ios": "https://dc.lft.to/lastmile_qr_scan", "android": "https://dc.lft.to/lastmile_qr_scan"}, "type": "electric_scooter", "name": "afa6e500c343fbfc4ad9fd92190db62a", "is_reserved": 0, "lon": -77.00284783333333, "is_disabled": 0, "fusion_lat": 0.0, "lat": 38.905562, "bike_id": "afa6e500c343fbfc4ad9fd92190db62a", "fusion_lon": 0.0}, {"rental_uris": {"ios": "https://dc.lft.to/lastmile_qr_scan", "android": "https://dc.lft.to/lastmile_qr_scan"}, "type": "electric_scooter", "name": "1be45eeb0fed6e7fe19b9728cfeafdd7", "is_reserved": 0, "lon": -77.038831, "is_disabled": 0, "fusion_lat": 0.0, "lat": 38.92511566666667, "bike_id": "1be45eeb0fed6e7fe19b9728cfeafdd7", "fusion_lon": 0.0}, {"rental_uris": {"ios": "https://dc.lft.to/lastmile_qr_scan", "android": "https://dc.lft.to/lastmile_qr_scan"}, "type": "electric_scooter", "name": "b5377c822118f04bdb8c0eabc107339c", "is_reserved": 0, "lon": -77.03859033333333, "is_disabled": 0, "fusion_lat": 0.0, "lat": 38.91691433333333, "bike_id": "b5377c822118f04bdb8c0eabc107339c", "fusion_lon": 0.0}, {"rental_uris": {"ios": "https://dc.lft.to/lastmile_qr_scan", "android": "https://dc.lft.to/lastmile_qr_scan"}, "type": "electric_scooter", "name": "0b6530719372c673c5a2eb4627b7bdbd", "is_reserved": 0, "lon": -77.0399245, "is_disabled": 0, "fusion_lat": 0.0, "lat": 38.91412166666667, "bike_id": "0b6530719372c673c5a2eb4627b7bdbd", "fusion_lon": 0.0}, {"rental_uris": {"ios": "https://dc.lft.to/lastmile_qr_scan", "android": "https://dc.lft.to/lastmile_qr_scan"}, "type": "electric_scooter", "name": "8d8a36f29897d099821d10c47b72672a", "is_reserved": 0, "lon": -77.0195625, "is_disabled": 0, "fusion_lat": 0.0, "lat": 38.92252333333333, "bike_id": "8d8a36f29897d099821d10c47b72672a", "fusion_lon": 0.0}, {"rental_uris": {"ios": "https://dc.lft.to/lastmile_qr_scan", "android": "https://dc.lft.to/lastmile_qr_scan"}, "type": "electric_scooter", "name": "ef771e7d8263fd72a6d0ae77ebc99af3", "is_reserved": 0, "lon": -77.033314, "is_disabled": 0, "fusion_lat": 0.0, "lat": 38.8988715, "bike_id": "ef771e7d8263fd72a6d0ae77ebc99af3", "fusion_lon": 0.0}, {"rental_uris": {"ios": "https://dc.lft.to/lastmile_qr_scan", "android": "https://dc.lft.to/lastmile_qr_scan"}, "type": "electric_scooter", "name": "890cf51de86e04dd90d5aadbb263a2c9", "is_reserved": 0, "lon": -77.0314445, "is_disabled": 0, "fusion_lat": 0.0, "lat": 38.914162833333336, "bike_id": "890cf51de86e04dd90d5aadbb263a2c9", "fusion_lon": 0.0}, {"rental_uris": {"ios": "https://dc.lft.to/lastmile_qr_scan", "android": "https://dc.lft.to/lastmile_qr_scan"}, "type": "electric_bike", "name": "cf59c675217edc0f71badf69356b40f2", "is_reserved": 0, "lon": -76.90741733333333, "is_disabled": 0, "fusion_lat": 0.0, "lat": 38.89619783333333, "bike_id": "cf59c675217edc0f71badf69356b40f2", "fusion_lon": 0.0}, {"rental_uris": {"ios": "https://dc.lft.to/lastmile_qr_scan", "android": "https://dc.lft.to/lastmile_qr_scan"}, "type": "electric_scooter", "name": "be89a230ef9556aff617bd62781f1011", "is_reserved": 0, "lon": -77.02320583333334, "is_disabled": 0, "fusion_lat": 0.0, "lat": 38.9194835, "bike_id": "be89a230ef9556aff617bd62781f1011", "fusion_lon": 0.0}, {"rental_uris": {"ios": "https://dc.lft.to/lastmile_qr_scan", "android": "https://dc.lft.to/lastmile_qr_scan"}, "type": "electric_scooter", "name": "363f32eaec8c2882cc15fcc32fba4694", "is_reserved": 0, "lon": -77.0226105, "is_disabled": 0, "fusion_lat": 0.0, "lat": 38.9241345, "bike_id": "363f32eaec8c2882cc15fcc32fba4694", "fusion_lon": 0.0}, {"rental_uris": {"ios": "https://dc.lft.to/lastmile_qr_scan", "android": "https://dc.lft.to/lastmile_qr_scan"}, "type": "electric_scooter", "name": "6cd2c60e95ada1af47514014d1460aef", "is_reserved": 0, "lon": -77.03864766666666, "is_disabled": 0, "fusion_lat": 0.0, "lat": 38.916946, "bike_id": "6cd2c60e95ada1af47514014d1460aef", "fusion_lon": 0.0}, {"rental_uris": {"ios": "https://dc.lft.to/lastmile_qr_scan", "android": "https://dc.lft.to/lastmile_qr_scan"}, "type": "electric_scooter", "name": "ce170b26087da4971f6a98e7ea7da2f4", "is_reserved": 0, "lon": -77.04335766666667, "is_disabled": 0, "fusion_lat": 0.0, "lat": 38.892243666666666, "bike_id": "ce170b26087da4971f6a98e7ea7da2f4", "fusion_lon": 0.0}, {"rental_uris": {"ios": "https://dc.lft.to/lastmile_qr_scan", "android": "https://dc.lft.to/lastmile_qr_scan"}, "type": "electric_scooter", "name": "b45d067fe88faa3d6b4635a18132068b", "is_reserved": 0, "lon": -77.019668, "is_disabled": 0, "fusion_lat": 0.0, "lat": 38.95646083333333, "bike_id": "b45d067fe88faa3d6b4635a18132068b", "fusion_lon": 0.0}, {"rental_uris": {"ios": "https://dc.lft.to/lastmile_qr_scan", "android": "https://dc.lft.to/lastmile_qr_scan"}, "type": "electric_scooter", "name": "2b492468e36e18c606a575297d8aa8a7", "is_reserved": 0, "lon": -77.0172595, "is_disabled": 0, "fusion_lat": 0.0, "lat": 38.89221116666667, "bike_id": "2b492468e36e18c606a575297d8aa8a7", "fusion_lon": 0.0}, {"rental_uris": {"ios": "https://dc.lft.to/lastmile_qr_scan", "android": "https://dc.lft.to/lastmile_qr_scan"}, "type": "electric_scooter", "name": "4dff5707d9087943cd5ab33f89bad9b2", "is_reserved": 0, "lon": -77.02694433333333, "is_disabled": 0, "fusion_lat": 0.0, "lat": 38.91716366666667, "bike_id": "4dff5707d9087943cd5ab33f89bad9b2", "fusion_lon": 0.0}, {"rental_uris": {"ios": "https://dc.lft.to/lastmile_qr_scan", "android": "https://dc.lft.to/lastmile_qr_scan"}, "type": "electric_scooter", "name": "63497f0bd4bc4dd38c90fc260def7266", "is_reserved": 0, "lon": -76.988282, "is_disabled": 0, "fusion_lat": 0.0, "lat": 38.900400166666664, "bike_id": "63497f0bd4bc4dd38c90fc260def7266", "fusion_lon": 0.0}, {"rental_uris": {"ios": "https://dc.lft.to/lastmile_qr_scan", "android": "https://dc.lft.to/lastmile_qr_scan"}, "type": "electric_scooter", "name": "d9154644446d277d1397cf5a4c2fc386", "is_reserved": 0, "lon": -77.04073683333333, "is_disabled": 0, "fusion_lat": 0.0, "lat": 38.947734, "bike_id": "d9154644446d277d1397cf5a4c2fc386", "fusion_lon": 0.0}, {"rental_uris": {"ios": "https://dc.lft.to/lastmile_qr_scan", "android": "https://dc.lft.to/lastmile_qr_scan"}, "type": "electric_bike", "name": "9e77cf307ea377fda7ff35939f031653", "is_reserved": 0, "lon": -76.9991405, "is_disabled": 0, "fusion_lat": 0.0, "lat": 38.8644695, "bike_id": "9e77cf307ea377fda7ff35939f031653", "fusion_lon": 0.0}, {"rental_uris": {"ios": "https://dc.lft.to/lastmile_qr_scan", "android": "https://dc.lft.to/lastmile_qr_scan"}, "type": "electric_scooter", "name": "a469a146efae4de673092b364c285410", "is_reserved": 0, "lon": -76.99542516666666, "is_disabled": 0, "fusion_lat": 0.0, "lat": 38.87924866666667, "bike_id": "a469a146efae4de673092b364c285410", "fusion_lon": 0.0}, {"rental_uris": {"ios": "https://dc.lft.to/lastmile_qr_scan", "android": "https://dc.lft.to/lastmile_qr_scan"}, "type": "electric_bike", "name": "25132537929af7c04d9e2a31b9278f39", "is_reserved": 0, "lon": -77.02713866666667, "is_disabled": 0, "fusion_lat": 0.0, "lat": 38.9719175, "bike_id": "25132537929af7c04d9e2a31b9278f39", "fusion_lon": 0.0}, {"rental_uris": {"ios": "https://dc.lft.to/lastmile_qr_scan", "android": "https://dc.lft.to/lastmile_qr_scan"}, "type": "electric_scooter", "name": "7f2696a49cb19c604a221c523456bf92", "is_reserved": 0, "lon": -77.00669833333333, "is_disabled": 0, "fusion_lat": 0.0, "lat": 38.87149933333333, "bike_id": "7f2696a49cb19c604a221c523456bf92", "fusion_lon": 0.0}, {"rental_uris": {"ios": "https://dc.lft.to/lastmile_qr_scan", "android": "https://dc.lft.to/lastmile_qr_scan"}, "type": "electric_scooter", "name": "82f244be4b5ffdff2dcc674023fb53f6", "is_reserved": 0, "lon": -77.02693666666667, "is_disabled": 0, "fusion_lat": 0.0, "lat": 38.98114, "bike_id": "82f244be4b5ffdff2dcc674023fb53f6", "fusion_lon": 0.0}, {"rental_uris": {"ios": "https://dc.lft.to/lastmile_qr_scan", "android": "https://dc.lft.to/lastmile_qr_scan"}, "type": "electric_scooter", "name": "a617f13ffef68433540557ae8157900d", "is_reserved": 0, "lon": -77.03955216666667, "is_disabled": 0, "fusion_lat": 0.0, "lat": 38.89246466666667, "bike_id": "a617f13ffef68433540557ae8157900d", "fusion_lon": 0.0}, {"rental_uris": {"ios": "https://dc.lft.to/lastmile_qr_scan", "android": "https://dc.lft.to/lastmile_qr_scan"}, "type": "electric_scooter", "name": "6598e558f0d9985dd354b88c92dacbb7", "is_reserved": 0, "lon": -77.03828433333334, "is_disabled": 0, "fusion_lat": 0.0, "lat": 38.912697666666666, "bike_id": "6598e558f0d9985dd354b88c92dacbb7", "fusion_lon": 0.0}, {"rental_uris": {"ios": "https://dc.lft.to/lastmile_qr_scan", "android": "https://dc.lft.to/lastmile_qr_scan"}, "type": "electric_scooter", "name": "6ab347bb418e6af1749f1beb076dc6ff", "is_reserved": 0, "lon": -77.04150883333334, "is_disabled": 0, "fusion_lat": 0.0, "lat": 38.914162, "bike_id": "6ab347bb418e6af1749f1beb076dc6ff", "fusion_lon": 0.0}, {"rental_uris": {"ios": "https://dc.lft.to/lastmile_qr_scan", "android": "https://dc.lft.to/lastmile_qr_scan"}, "type": "electric_scooter", "name": "4f96ccb60a31cf28cd8bf1bed222d187", "is_reserved": 0, "lon": -77.0318205, "is_disabled": 0, "fusion_lat": 0.0, "lat": 38.91351433333333, "bike_id": "4f96ccb60a31cf28cd8bf1bed222d187", "fusion_lon": 0.0}, {"rental_uris": {"ios": "https://dc.lft.to/lastmile_qr_scan", "android": "https://dc.lft.to/lastmile_qr_scan"}, "type": "electric_scooter", "name": "bf57c6a263cfb058434022fe28907f2d", "is_reserved": 0, "lon": -77.04161383333333, "is_disabled": 0, "fusion_lat": 0.0, "lat": 38.911140833333334, "bike_id": "bf57c6a263cfb058434022fe28907f2d", "fusion_lon": 0.0}, {"rental_uris": {"ios": "https://dc.lft.to/lastmile_qr_scan", "android": "https://dc.lft.to/lastmile_qr_scan"}, "type": "electric_scooter", "name": "d0b21e50f8b217d7f6ea7c1079e46967", "is_reserved": 0, "lon": -76.98531066666666, "is_disabled": 0, "fusion_lat": 0.0, "lat": 38.880790833333336, "bike_id": "d0b21e50f8b217d7f6ea7c1079e46967", "fusion_lon": 0.0}, {"rental_uris": {"ios": "https://dc.lft.to/lastmile_qr_scan", "android": "https://dc.lft.to/lastmile_qr_scan"}, "type": "electric_scooter", "name": "fa72b8addca9f72ccfd0fecf60f3ff2a", "is_reserved": 0, "lon": -77.01985083333334, "is_disabled": 0, "fusion_lat": 0.0, "lat": 38.9305755, "bike_id": "fa72b8addca9f72ccfd0fecf60f3ff2a", "fusion_lon": 0.0}, {"rental_uris": {"ios": "https://dc.lft.to/lastmile_qr_scan", "android": "https://dc.lft.to/lastmile_qr_scan"}, "type": "electric_scooter", "name": "7db54d296d71ac9fb6aaee047d115358", "is_reserved": 0, "lon": -77.00922266666667, "is_disabled": 0, "fusion_lat": 0.0, "lat": 38.881856, "bike_id": "7db54d296d71ac9fb6aaee047d115358", "fusion_lon": 0.0}, {"rental_uris": {"ios": "https://dc.lft.to/lastmile_qr_scan", "android": "https://dc.lft.to/lastmile_qr_scan"}, "type": "electric_scooter", "name": "da208f5c44d6da31ee861cef7c89b914", "is_reserved": 0, "lon": -77.0259925, "is_disabled": 0, "fusion_lat": 0.0, "lat": 38.91952916666666, "bike_id": "da208f5c44d6da31ee861cef7c89b914", "fusion_lon": 0.0}, {"rental_uris": {"ios": "https://dc.lft.to/lastmile_qr_scan", "android": "https://dc.lft.to/lastmile_qr_scan"}, "type": "electric_scooter", "name": "fb6aec9935957a88794b96dc5e69030e", "is_reserved": 0, "lon": -77.02115683333334, "is_disabled": 0, "fusion_lat": 0.0, "lat": 38.922484, "bike_id": "fb6aec9935957a88794b96dc5e69030e", "fusion_lon": 0.0}, {"rental_uris": {"ios": "https://dc.lft.to/lastmile_qr_scan", "android": "https://dc.lft.to/lastmile_qr_scan"}, "type": "electric_scooter", "name": "d50122350fa9a13f79553ab7a8371834", "is_reserved": 0, "lon": -77.02722383333334, "is_disabled": 0, "fusion_lat": 0.0, "lat": 38.90557033333333, "bike_id": "d50122350fa9a13f79553ab7a8371834", "fusion_lon": 0.0}, {"rental_uris": {"ios": "https://dc.lft.to/lastmile_qr_scan", "android": "https://dc.lft.to/lastmile_qr_scan"}, "type": "electric_bike", "name": "b06db3726e3baa033158e3e91ff27829", "is_reserved": 0, "lon": -77.00378416666666, "is_disabled": 0, "fusion_lat": 0.0, "lat": 38.8361275, "bike_id": "b06db3726e3baa033158e3e91ff27829", "fusion_lon": 0.0}, {"rental_uris": {"ios": "https://dc.lft.to/lastmile_qr_scan", "android": "https://dc.lft.to/lastmile_qr_scan"}, "type": "electric_scooter", "name": "e273a96b68316f4f7f3b597328171bc6", "is_reserved": 0, "lon": -77.04652233333333, "is_disabled": 0, "fusion_lat": 0.0, "lat": 38.91971766666666, "bike_id": "e273a96b68316f4f7f3b597328171bc6", "fusion_lon": 0.0}, {"rental_uris": {"ios": "https://dc.lft.to/lastmile_qr_scan", "android": "https://dc.lft.to/lastmile_qr_scan"}, "type": "electric_scooter", "name": "91a7c058bd8e2b08843604d004b2c6cb", "is_reserved": 0, "lon": -77.0496425, "is_disabled": 0, "fusion_lat": 0.0, "lat": 38.90060833333333, "bike_id": "91a7c058bd8e2b08843604d004b2c6cb", "fusion_lon": 0.0}, {"rental_uris": {"ios": "https://dc.lft.to/lastmile_qr_scan", "android": "https://dc.lft.to/lastmile_qr_scan"}, "type": "electric_scooter", "name": "9159ebb12dd76574df889e7742f7fc90", "is_reserved": 0, "lon": -77.0208635, "is_disabled": 0, "fusion_lat": 0.0, "lat": 38.88189116666667, "bike_id": "9159ebb12dd76574df889e7742f7fc90", "fusion_lon": 0.0}, {"rental_uris": {"ios": "https://dc.lft.to/lastmile_qr_scan", "android": "https://dc.lft.to/lastmile_qr_scan"}, "type": "electric_scooter", "name": "92495808c7af08d44785b5407ad530f3", "is_reserved": 0, "lon": -77.02597166666666, "is_disabled": 0, "fusion_lat": 0.0, "lat": 38.9169015, "bike_id": "92495808c7af08d44785b5407ad530f3", "fusion_lon": 0.0}, {"rental_uris": {"ios": "https://dc.lft.to/lastmile_qr_scan", "android": "https://dc.lft.to/lastmile_qr_scan"}, "type": "electric_scooter", "name": "bc3a35a2cbbbf7e4a21e046abdfd32e1", "is_reserved": 0, "lon": -77.02671566666666, "is_disabled": 0, "fusion_lat": 0.0, "lat": 38.89990816666667, "bike_id": "bc3a35a2cbbbf7e4a21e046abdfd32e1", "fusion_lon": 0.0}, {"rental_uris": {"ios": "https://dc.lft.to/lastmile_qr_scan", "android": "https://dc.lft.to/lastmile_qr_scan"}, "type": "electric_scooter", "name": "07549d9f3e43a22e0d3882b7d2cb7a20", "is_reserved": 0, "lon": -77.03440833333333, "is_disabled": 0, "fusion_lat": 0.0, "lat": 38.90472283333333, "bike_id": "07549d9f3e43a22e0d3882b7d2cb7a20", "fusion_lon": 0.0}, {"rental_uris": {"ios": "https://dc.lft.to/lastmile_qr_scan", "android": "https://dc.lft.to/lastmile_qr_scan"}, "type": "electric_scooter", "name": "44a0e2884138a1ce9e04012a66270056", "is_reserved": 0, "lon": -77.0340505, "is_disabled": 0, "fusion_lat": 0.0, "lat": 38.922638, "bike_id": "44a0e2884138a1ce9e04012a66270056", "fusion_lon": 0.0}, {"rental_uris": {"ios": "https://dc.lft.to/lastmile_qr_scan", "android": "https://dc.lft.to/lastmile_qr_scan"}, "type": "electric_scooter", "name": "ebbdadfee83a531dd6f34ec689a58148", "is_reserved": 0, "lon": -76.9837665, "is_disabled": 0, "fusion_lat": 0.0, "lat": 38.866855, "bike_id": "ebbdadfee83a531dd6f34ec689a58148", "fusion_lon": 0.0}, {"rental_uris": {"ios": "https://dc.lft.to/lastmile_qr_scan", "android": "https://dc.lft.to/lastmile_qr_scan"}, "type": "electric_bike", "name": "9d97a4aaf30c249761ae3dbcfb1f894a", "is_reserved": 0, "lon": -76.98765766666666, "is_disabled": 0, "fusion_lat": 0.0, "lat": 38.857697333333334, "bike_id": "9d97a4aaf30c249761ae3dbcfb1f894a", "fusion_lon": 0.0}, {"rental_uris": {"ios": "https://dc.lft.to/lastmile_qr_scan", "android": "https://dc.lft.to/lastmile_qr_scan"}, "type": "electric_scooter", "name": "80db4b2fe9f89f7344513d7a74d75447", "is_reserved": 0, "lon": -76.98832666666667, "is_disabled": 0, "fusion_lat": 0.0, "lat": 38.89492633333333, "bike_id": "80db4b2fe9f89f7344513d7a74d75447", "fusion_lon": 0.0}, {"rental_uris": {"ios": "https://dc.lft.to/lastmile_qr_scan", "android": "https://dc.lft.to/lastmile_qr_scan"}, "type": "electric_scooter", "name": "4fdf357b60035a40f630bba2030db5ba", "is_reserved": 0, "lon": -77.02320783333333, "is_disabled": 0, "fusion_lat": 0.0, "lat": 38.930604, "bike_id": "4fdf357b60035a40f630bba2030db5ba", "fusion_lon": 0.0}, {"rental_uris": {"ios": "https://dc.lft.to/lastmile_qr_scan", "android": "https://dc.lft.to/lastmile_qr_scan"}, "type": "electric_scooter", "name": "8688b7fe7bde647ad59cf60b5b26a0d4", "is_reserved": 0, "lon": -77.02961716666667, "is_disabled": 0, "fusion_lat": 0.0, "lat": 38.924379333333334, "bike_id": "8688b7fe7bde647ad59cf60b5b26a0d4", "fusion_lon": 0.0}, {"rental_uris": {"ios": "https://dc.lft.to/lastmile_qr_scan", "android": "https://dc.lft.to/lastmile_qr_scan"}, "type": "electric_scooter", "name": "ef10c173f876df4c73bfdca3aba18bc4", "is_reserved": 0, "lon": -77.02406483333333, "is_disabled": 0, "fusion_lat": 0.0, "lat": 38.89891016666667, "bike_id": "ef10c173f876df4c73bfdca3aba18bc4", "fusion_lon": 0.0}, {"rental_uris": {"ios": "https://dc.lft.to/lastmile_qr_scan", "android": "https://dc.lft.to/lastmile_qr_scan"}, "type": "electric_scooter", "name": "2bc68c27f0fcb8b0b5c9241247ef9966", "is_reserved": 0, "lon": -77.04157483333333, "is_disabled": 0, "fusion_lat": 0.0, "lat": 38.91651433333333, "bike_id": "2bc68c27f0fcb8b0b5c9241247ef9966", "fusion_lon": 0.0}, {"rental_uris": {"ios": "https://dc.lft.to/lastmile_qr_scan", "android": "https://dc.lft.to/lastmile_qr_scan"}, "type": "electric_scooter", "name": "33b8c00871f9d42052d903cc86e7ef1b", "is_reserved": 0, "lon": -77.02779216666667, "is_disabled": 0, "fusion_lat": 0.0, "lat": 38.8922085, "bike_id": "33b8c00871f9d42052d903cc86e7ef1b", "fusion_lon": 0.0}, {"rental_uris": {"ios": "https://dc.lft.to/lastmile_qr_scan", "android": "https://dc.lft.to/lastmile_qr_scan"}, "type": "electric_scooter", "name": "ceb348d3815c3e6adf2ae5450ce000ea", "is_reserved": 0, "lon": -77.006531, "is_disabled": 0, "fusion_lat": 0.0, "lat": 38.87675766666667, "bike_id": "ceb348d3815c3e6adf2ae5450ce000ea", "fusion_lon": 0.0}, {"rental_uris": {"ios": "https://dc.lft.to/lastmile_qr_scan", "android": "https://dc.lft.to/lastmile_qr_scan"}, "type": "electric_scooter", "name": "aa374bfb028afd202dbd436e5805a38e", "is_reserved": 0, "lon": -77.02298066666667, "is_disabled": 0, "fusion_lat": 0.0, "lat": 38.87856433333333, "bike_id": "aa374bfb028afd202dbd436e5805a38e", "fusion_lon": 0.0}, {"rental_uris": {"ios": "https://dc.lft.to/lastmile_qr_scan", "android": "https://dc.lft.to/lastmile_qr_scan"}, "type": "electric_scooter", "name": "ccfd1cefbcf340e928d9b0a10a2de968", "is_reserved": 0, "lon": -77.03348583333333, "is_disabled": 0, "fusion_lat": 0.0, "lat": 38.92234666666667, "bike_id": "ccfd1cefbcf340e928d9b0a10a2de968", "fusion_lon": 0.0}, {"rental_uris": {"ios": "https://dc.lft.to/lastmile_qr_scan", "android": "https://dc.lft.to/lastmile_qr_scan"}, "type": "electric_scooter", "name": "ce56fa228b9072316f5163dc38b2d62a", "is_reserved": 0, "lon": -77.0382925, "is_disabled": 0, "fusion_lat": 0.0, "lat": 38.911908833333335, "bike_id": "ce56fa228b9072316f5163dc38b2d62a", "fusion_lon": 0.0}, {"rental_uris": {"ios": "https://dc.lft.to/lastmile_qr_scan", "android": "https://dc.lft.to/lastmile_qr_scan"}, "type": "electric_scooter", "name": "1010a58bc94e1e2d3508b7066855ebcf", "is_reserved": 0, "lon": -77.03803683333334, "is_disabled": 0, "fusion_lat": 0.0, "lat": 38.93327983333333, "bike_id": "1010a58bc94e1e2d3508b7066855ebcf", "fusion_lon": 0.0}, {"rental_uris": {"ios": "https://dc.lft.to/lastmile_qr_scan", "android": "https://dc.lft.to/lastmile_qr_scan"}, "type": "electric_scooter", "name": "349121e8861f013656c8fd659b499dd5", "is_reserved": 0, "lon": -77.02475216666667, "is_disabled": 0, "fusion_lat": 0.0, "lat": 38.939565333333334, "bike_id": "349121e8861f013656c8fd659b499dd5", "fusion_lon": 0.0}, {"rental_uris": {"ios": "https://dc.lft.to/lastmile_qr_scan", "android": "https://dc.lft.to/lastmile_qr_scan"}, "type": "electric_scooter", "name": "f0f11d3d092f300b81c2d7279f73d268", "is_reserved": 0, "lon": -76.98556283333333, "is_disabled": 0, "fusion_lat": 0.0, "lat": 38.8599565, "bike_id": "f0f11d3d092f300b81c2d7279f73d268", "fusion_lon": 0.0}, {"rental_uris": {"ios": "https://dc.lft.to/lastmile_qr_scan", "android": "https://dc.lft.to/lastmile_qr_scan"}, "type": "electric_scooter", "name": "dd47e72b45a149e3d3b5286d029611cf", "is_reserved": 0, "lon": -77.04202683333334, "is_disabled": 0, "fusion_lat": 0.0, "lat": 38.899169, "bike_id": "dd47e72b45a149e3d3b5286d029611cf", "fusion_lon": 0.0}, {"rental_uris": {"ios": "https://dc.lft.to/lastmile_qr_scan", "android": "https://dc.lft.to/lastmile_qr_scan"}, "type": "electric_scooter", "name": "11bcbf740301228d77a7c3bd986bfc21", "is_reserved": 0, "lon": -77.02835466666667, "is_disabled": 0, "fusion_lat": 0.0, "lat": 38.8923195, "bike_id": "11bcbf740301228d77a7c3bd986bfc21", "fusion_lon": 0.0}, {"rental_uris": {"ios": "https://dc.lft.to/lastmile_qr_scan", "android": "https://dc.lft.to/lastmile_qr_scan"}, "type": "electric_scooter", "name": "4fa36ac78ef80f14bf17165927899516", "is_reserved": 0, "lon": -77.032984, "is_disabled": 0, "fusion_lat": 0.0, "lat": 38.9204575, "bike_id": "4fa36ac78ef80f14bf17165927899516", "fusion_lon": 0.0}, {"rental_uris": {"ios": "https://dc.lft.to/lastmile_qr_scan", "android": "https://dc.lft.to/lastmile_qr_scan"}, "type": "electric_scooter", "name": "448df77e79ae880e7ac2fbf20013fc30", "is_reserved": 0, "lon": -77.006127, "is_disabled": 0, "fusion_lat": 0.0, "lat": 38.87658483333333, "bike_id": "448df77e79ae880e7ac2fbf20013fc30", "fusion_lon": 0.0}, {"rental_uris": {"ios": "https://dc.lft.to/lastmile_qr_scan", "android": "https://dc.lft.to/lastmile_qr_scan"}, "type": "electric_scooter", "name": "75e694e39d0dc360612c8e15ef54fa16", "is_reserved": 0, "lon": -77.040166, "is_disabled": 0, "fusion_lat": 0.0, "lat": 38.92581783333333, "bike_id": "75e694e39d0dc360612c8e15ef54fa16", "fusion_lon": 0.0}, {"rental_uris": {"ios": "https://dc.lft.to/lastmile_qr_scan", "android": "https://dc.lft.to/lastmile_qr_scan"}, "type": "electric_scooter", "name": "91f27f1cef2403b798368a7d40199e6e", "is_reserved": 0, "lon": -77.046494, "is_disabled": 0, "fusion_lat": 0.0, "lat": 38.907233, "bike_id": "91f27f1cef2403b798368a7d40199e6e", "fusion_lon": 0.0}, {"rental_uris": {"ios": "https://dc.lft.to/lastmile_qr_scan", "android": "https://dc.lft.to/lastmile_qr_scan"}, "type": "electric_bike", "name": "750551130f2ae35b0c4140d3e385c7f5", "is_reserved": 0, "lon": -76.96891166666667, "is_disabled": 0, "fusion_lat": 0.0, "lat": 38.8698755, "bike_id": "750551130f2ae35b0c4140d3e385c7f5", "fusion_lon": 0.0}, {"rental_uris": {"ios": "https://dc.lft.to/lastmile_qr_scan", "android": "https://dc.lft.to/lastmile_qr_scan"}, "type": "electric_scooter", "name": "89350294bc75d317c6126081c7cd00e5", "is_reserved": 0, "lon": -77.04452783333333, "is_disabled": 0, "fusion_lat": 0.0, "lat": 38.910181, "bike_id": "89350294bc75d317c6126081c7cd00e5", "fusion_lon": 0.0}, {"rental_uris": {"ios": "https://dc.lft.to/lastmile_qr_scan", "android": "https://dc.lft.to/lastmile_qr_scan"}, "type": "electric_scooter", "name": "5db028e9cc1fca29402ece923aaf63d7", "is_reserved": 0, "lon": -77.03228466666667, "is_disabled": 0, "fusion_lat": 0.0, "lat": 38.916386833333334, "bike_id": "5db028e9cc1fca29402ece923aaf63d7", "fusion_lon": 0.0}, {"rental_uris": {"ios": "https://dc.lft.to/lastmile_qr_scan", "android": "https://dc.lft.to/lastmile_qr_scan"}, "type": "electric_scooter", "name": "4330c7919e03c540cda8bf7828c0305b", "is_reserved": 0, "lon": -77.03930966666667, "is_disabled": 0, "fusion_lat": 0.0, "lat": 38.90148883333333, "bike_id": "4330c7919e03c540cda8bf7828c0305b", "fusion_lon": 0.0}, {"rental_uris": {"ios": "https://dc.lft.to/lastmile_qr_scan", "android": "https://dc.lft.to/lastmile_qr_scan"}, "type": "electric_scooter", "name": "6373735fa7ce47ee59acfa74c186fccc", "is_reserved": 0, "lon": -77.03697716666667, "is_disabled": 0, "fusion_lat": 0.0, "lat": 38.932824833333335, "bike_id": "6373735fa7ce47ee59acfa74c186fccc", "fusion_lon": 0.0}, {"rental_uris": {"ios": "https://dc.lft.to/lastmile_qr_scan", "android": "https://dc.lft.to/lastmile_qr_scan"}, "type": "electric_scooter", "name": "347dd0b79d035b607ae1ffbe4418b48e", "is_reserved": 0, "lon": -77.03229783333333, "is_disabled": 0, "fusion_lat": 0.0, "lat": 38.89904383333333, "bike_id": "347dd0b79d035b607ae1ffbe4418b48e", "fusion_lon": 0.0}, {"rental_uris": {"ios": "https://dc.lft.to/lastmile_qr_scan", "android": "https://dc.lft.to/lastmile_qr_scan"}, "type": "electric_bike", "name": "eedd4b5ef2c2e307706d642a9b9d1697", "is_reserved": 0, "lon": -77.012095, "is_disabled": 0, "fusion_lat": 0.0, "lat": 38.87086216666667, "bike_id": "eedd4b5ef2c2e307706d642a9b9d1697", "fusion_lon": 0.0}, {"rental_uris": {"ios": "https://dc.lft.to/lastmile_qr_scan", "android": "https://dc.lft.to/lastmile_qr_scan"}, "type": "electric_scooter", "name": "e40115f87855f227937f7948e241341e", "is_reserved": 0, "lon": -77.03528383333334, "is_disabled": 0, "fusion_lat": 0.0, "lat": 38.90779333333333, "bike_id": "e40115f87855f227937f7948e241341e", "fusion_lon": 0.0}, {"rental_uris": {"ios": "https://dc.lft.to/lastmile_qr_scan", "android": "https://dc.lft.to/lastmile_qr_scan"}, "type": "electric_bike", "name": "34a9d6d88e61ebf273320de2ad12c119", "is_reserved": 0, "lon": -77.02330133333334, "is_disabled": 0, "fusion_lat": 0.0, "lat": 38.87878766666667, "bike_id": "34a9d6d88e61ebf273320de2ad12c119", "fusion_lon": 0.0}, {"rental_uris": {"ios": "https://dc.lft.to/lastmile_qr_scan", "android": "https://dc.lft.to/lastmile_qr_scan"}, "type": "electric_scooter", "name": "d8b0160876297f3d2b8dc03ef074f318", "is_reserved": 0, "lon": -77.05230866666666, "is_disabled": 0, "fusion_lat": 0.0, "lat": 38.89847416666667, "bike_id": "d8b0160876297f3d2b8dc03ef074f318", "fusion_lon": 0.0}, {"rental_uris": {"ios": "https://dc.lft.to/lastmile_qr_scan", "android": "https://dc.lft.to/lastmile_qr_scan"}, "type": "electric_bike", "name": "d38ad6bf4c142100ee67c9175f941a24", "is_reserved": 0, "lon": -76.98813833333334, "is_disabled": 0, "fusion_lat": 0.0, "lat": 38.84274383333333, "bike_id": "d38ad6bf4c142100ee67c9175f941a24", "fusion_lon": 0.0}, {"rental_uris": {"ios": "https://dc.lft.to/lastmile_qr_scan", "android": "https://dc.lft.to/lastmile_qr_scan"}, "type": "electric_scooter", "name": "ae50bf0382136bf6e6db4ceedeaacff0", "is_reserved": 0, "lon": -77.05023833333334, "is_disabled": 0, "fusion_lat": 0.0, "lat": 38.923573, "bike_id": "ae50bf0382136bf6e6db4ceedeaacff0", "fusion_lon": 0.0}, {"rental_uris": {"ios": "https://dc.lft.to/lastmile_qr_scan", "android": "https://dc.lft.to/lastmile_qr_scan"}, "type": "electric_scooter", "name": "6d2c839b177a64954bd2c5b399d21b3e", "is_reserved": 0, "lon": -77.04542016666667, "is_disabled": 0, "fusion_lat": 0.0, "lat": 38.91936183333333, "bike_id": "6d2c839b177a64954bd2c5b399d21b3e", "fusion_lon": 0.0}, {"rental_uris": {"ios": "https://dc.lft.to/lastmile_qr_scan", "android": "https://dc.lft.to/lastmile_qr_scan"}, "type": "electric_scooter", "name": "322a8e726fb1fc82a1f995f54819818b", "is_reserved": 0, "lon": -77.001322, "is_disabled": 0, "fusion_lat": 0.0, "lat": 38.87372883333333, "bike_id": "322a8e726fb1fc82a1f995f54819818b", "fusion_lon": 0.0}, {"rental_uris": {"ios": "https://dc.lft.to/lastmile_qr_scan", "android": "https://dc.lft.to/lastmile_qr_scan"}, "type": "electric_scooter", "name": "af2539c9e33238f17370d5fb998c4f8f", "is_reserved": 0, "lon": -77.04499033333333, "is_disabled": 0, "fusion_lat": 0.0, "lat": 38.8994115, "bike_id": "af2539c9e33238f17370d5fb998c4f8f", "fusion_lon": 0.0}, {"rental_uris": {"ios": "https://dc.lft.to/lastmile_qr_scan", "android": "https://dc.lft.to/lastmile_qr_scan"}, "type": "electric_scooter", "name": "1df4707b388f20d16085441e2a49e6d9", "is_reserved": 0, "lon": -77.04181766666666, "is_disabled": 0, "fusion_lat": 0.0, "lat": 38.92624216666667, "bike_id": "1df4707b388f20d16085441e2a49e6d9", "fusion_lon": 0.0}, {"rental_uris": {"ios": "https://dc.lft.to/lastmile_qr_scan", "android": "https://dc.lft.to/lastmile_qr_scan"}, "type": "electric_scooter", "name": "c55859f41ff9751fd4b3c6359b972e08", "is_reserved": 0, "lon": -77.030503, "is_disabled": 0, "fusion_lat": 0.0, "lat": 38.9321225, "bike_id": "c55859f41ff9751fd4b3c6359b972e08", "fusion_lon": 0.0}, {"rental_uris": {"ios": "https://dc.lft.to/lastmile_qr_scan", "android": "https://dc.lft.to/lastmile_qr_scan"}, "type": "electric_scooter", "name": "319cdcf4eb5a298b6ebf6b8c6052414f", "is_reserved": 0, "lon": -76.99847833333334, "is_disabled": 0, "fusion_lat": 0.0, "lat": 38.83772483333333, "bike_id": "319cdcf4eb5a298b6ebf6b8c6052414f", "fusion_lon": 0.0}, {"rental_uris": {"ios": "https://dc.lft.to/lastmile_qr_scan", "android": "https://dc.lft.to/lastmile_qr_scan"}, "type": "electric_scooter", "name": "595b38d685f7af30d77ea21eb20516a0", "is_reserved": 0, "lon": -77.06107533333333, "is_disabled": 0, "fusion_lat": 0.0, "lat": 38.9050415, "bike_id": "595b38d685f7af30d77ea21eb20516a0", "fusion_lon": 0.0}, {"rental_uris": {"ios": "https://dc.lft.to/lastmile_qr_scan", "android": "https://dc.lft.to/lastmile_qr_scan"}, "type": "electric_scooter", "name": "0c9869b18fb04717c552c1a7422723be", "is_reserved": 0, "lon": -77.0380735, "is_disabled": 0, "fusion_lat": 0.0, "lat": 38.911904166666666, "bike_id": "0c9869b18fb04717c552c1a7422723be", "fusion_lon": 0.0}, {"rental_uris": {"ios": "https://dc.lft.to/lastmile_qr_scan", "android": "https://dc.lft.to/lastmile_qr_scan"}, "type": "electric_scooter", "name": "ea03fbe6411f411939b1f1d933261030", "is_reserved": 0, "lon": -77.0324305, "is_disabled": 0, "fusion_lat": 0.0, "lat": 38.901349333333336, "bike_id": "ea03fbe6411f411939b1f1d933261030", "fusion_lon": 0.0}, {"rental_uris": {"ios": "https://dc.lft.to/lastmile_qr_scan", "android": "https://dc.lft.to/lastmile_qr_scan"}, "type": "electric_scooter", "name": "2a611fe898c1e4b35669b9bc27c1d62f", "is_reserved": 0, "lon": -76.955514, "is_disabled": 0, "fusion_lat": 0.0, "lat": 38.9274335, "bike_id": "2a611fe898c1e4b35669b9bc27c1d62f", "fusion_lon": 0.0}, {"rental_uris": {"ios": "https://dc.lft.to/lastmile_qr_scan", "android": "https://dc.lft.to/lastmile_qr_scan"}, "type": "electric_bike", "name": "1a49cc6459791077a41f46034ec230fe", "is_reserved": 0, "lon": -77.0239255, "is_disabled": 0, "fusion_lat": 0.0, "lat": 38.908594666666666, "bike_id": "1a49cc6459791077a41f46034ec230fe", "fusion_lon": 0.0}, {"rental_uris": {"ios": "https://dc.lft.to/lastmile_qr_scan", "android": "https://dc.lft.to/lastmile_qr_scan"}, "type": "electric_scooter", "name": "3b79f2d90b1b9eba283b4657c9955683", "is_reserved": 0, "lon": -77.01853783333334, "is_disabled": 0, "fusion_lat": 0.0, "lat": 38.948923666666666, "bike_id": "3b79f2d90b1b9eba283b4657c9955683", "fusion_lon": 0.0}, {"rental_uris": {"ios": "https://dc.lft.to/lastmile_qr_scan", "android": "https://dc.lft.to/lastmile_qr_scan"}, "type": "electric_scooter", "name": "28948f7547641ab2693849d38585f750", "is_reserved": 0, "lon": -77.042112, "is_disabled": 0, "fusion_lat": 0.0, "lat": 38.921338666666664, "bike_id": "28948f7547641ab2693849d38585f750", "fusion_lon": 0.0}, {"rental_uris": {"ios": "https://dc.lft.to/lastmile_qr_scan", "android": "https://dc.lft.to/lastmile_qr_scan"}, "type": "electric_scooter", "name": "f7d644300de43910654355f915307eba", "is_reserved": 0, "lon": -77.03025916666667, "is_disabled": 0, "fusion_lat": 0.0, "lat": 38.88400883333333, "bike_id": "f7d644300de43910654355f915307eba", "fusion_lon": 0.0}, {"rental_uris": {"ios": "https://dc.lft.to/lastmile_qr_scan", "android": "https://dc.lft.to/lastmile_qr_scan"}, "type": "electric_scooter", "name": "b84e2de7663fc8546cd95f550413c28f", "is_reserved": 0, "lon": -77.00283166666667, "is_disabled": 0, "fusion_lat": 0.0, "lat": 38.876803833333334, "bike_id": "b84e2de7663fc8546cd95f550413c28f", "fusion_lon": 0.0}, {"rental_uris": {"ios": "https://dc.lft.to/lastmile_qr_scan", "android": "https://dc.lft.to/lastmile_qr_scan"}, "type": "electric_scooter", "name": "9b5f80a6b210f06ac869adf8bb5128c7", "is_reserved": 0, "lon": -77.02880283333333, "is_disabled": 0, "fusion_lat": 0.0, "lat": 38.8984725, "bike_id": "9b5f80a6b210f06ac869adf8bb5128c7", "fusion_lon": 0.0}, {"rental_uris": {"ios": "https://dc.lft.to/lastmile_qr_scan", "android": "https://dc.lft.to/lastmile_qr_scan"}, "type": "electric_scooter", "name": "b5bd60dfbda94b5f73efe9389f702c57", "is_reserved": 0, "lon": -77.02290833333333, "is_disabled": 0, "fusion_lat": 0.0, "lat": 38.923307666666666, "bike_id": "b5bd60dfbda94b5f73efe9389f702c57", "fusion_lon": 0.0}, {"rental_uris": {"ios": "https://dc.lft.to/lastmile_qr_scan", "android": "https://dc.lft.to/lastmile_qr_scan"}, "type": "electric_scooter", "name": "82587e999b4348346331fdc9fe63e59e", "is_reserved": 0, "lon": -77.06376783333333, "is_disabled": 0, "fusion_lat": 0.0, "lat": 38.90520333333333, "bike_id": "82587e999b4348346331fdc9fe63e59e", "fusion_lon": 0.0}, {"rental_uris": {"ios": "https://dc.lft.to/lastmile_qr_scan", "android": "https://dc.lft.to/lastmile_qr_scan"}, "type": "electric_scooter", "name": "aa3c777019f6f1505b7bf4655d753bf8", "is_reserved": 0, "lon": -77.02033683333333, "is_disabled": 0, "fusion_lat": 0.0, "lat": 38.9243385, "bike_id": "aa3c777019f6f1505b7bf4655d753bf8", "fusion_lon": 0.0}, {"rental_uris": {"ios": "https://dc.lft.to/lastmile_qr_scan", "android": "https://dc.lft.to/lastmile_qr_scan"}, "type": "electric_scooter", "name": "bbfc7d03658a1cf1725c91b79dac3028", "is_reserved": 0, "lon": -77.00332516666667, "is_disabled": 0, "fusion_lat": 0.0, "lat": 38.895059833333335, "bike_id": "bbfc7d03658a1cf1725c91b79dac3028", "fusion_lon": 0.0}, {"rental_uris": {"ios": "https://dc.lft.to/lastmile_qr_scan", "android": "https://dc.lft.to/lastmile_qr_scan"}, "type": "electric_scooter", "name": "76dc4612ffdf087fb0b1a28370f90a8f", "is_reserved": 0, "lon": -76.98651933333333, "is_disabled": 0, "fusion_lat": 0.0, "lat": 38.90538466666667, "bike_id": "76dc4612ffdf087fb0b1a28370f90a8f", "fusion_lon": 0.0}, {"rental_uris": {"ios": "https://dc.lft.to/lastmile_qr_scan", "android": "https://dc.lft.to/lastmile_qr_scan"}, "type": "electric_scooter", "name": "a13e01add5755c95dcb0a8f4418396b9", "is_reserved": 0, "lon": -77.02460866666667, "is_disabled": 0, "fusion_lat": 0.0, "lat": 38.9578115, "bike_id": "a13e01add5755c95dcb0a8f4418396b9", "fusion_lon": 0.0}, {"rental_uris": {"ios": "https://dc.lft.to/lastmile_qr_scan", "android": "https://dc.lft.to/lastmile_qr_scan"}, "type": "electric_scooter", "name": "07f6840d71d4b60f29571af655bfda50", "is_reserved": 0, "lon": -77.00346, "is_disabled": 0, "fusion_lat": 0.0, "lat": 38.889992166666666, "bike_id": "07f6840d71d4b60f29571af655bfda50", "fusion_lon": 0.0}, {"rental_uris": {"ios": "https://dc.lft.to/lastmile_qr_scan", "android": "https://dc.lft.to/lastmile_qr_scan"}, "type": "electric_scooter", "name": "d60fd59d6b0ba63bbdc6551d66aa59ca", "is_reserved": 0, "lon": -77.03137033333333, "is_disabled": 0, "fusion_lat": 0.0, "lat": 38.9155035, "bike_id": "d60fd59d6b0ba63bbdc6551d66aa59ca", "fusion_lon": 0.0}, {"rental_uris": {"ios": "https://dc.lft.to/lastmile_qr_scan", "android": "https://dc.lft.to/lastmile_qr_scan"}, "type": "electric_scooter", "name": "823c56265edf36be56ffe1f585038877", "is_reserved": 0, "lon": -77.01509, "is_disabled": 0, "fusion_lat": 0.0, "lat": 38.912942, "bike_id": "823c56265edf36be56ffe1f585038877", "fusion_lon": 0.0}, {"rental_uris": {"ios": "https://dc.lft.to/lastmile_qr_scan", "android": "https://dc.lft.to/lastmile_qr_scan"}, "type": "electric_scooter", "name": "098d567bf89d59266a714c61ba7c8b8d", "is_reserved": 0, "lon": -77.02658883333334, "is_disabled": 0, "fusion_lat": 0.0, "lat": 38.938635166666664, "bike_id": "098d567bf89d59266a714c61ba7c8b8d", "fusion_lon": 0.0}, {"rental_uris": {"ios": "https://dc.lft.to/lastmile_qr_scan", "android": "https://dc.lft.to/lastmile_qr_scan"}, "type": "electric_scooter", "name": "0ac8bfec692b629010d589832c3590ce", "is_reserved": 0, "lon": -77.02341366666667, "is_disabled": 0, "fusion_lat": 0.0, "lat": 38.917656666666666, "bike_id": "0ac8bfec692b629010d589832c3590ce", "fusion_lon": 0.0}, {"rental_uris": {"ios": "https://dc.lft.to/lastmile_qr_scan", "android": "https://dc.lft.to/lastmile_qr_scan"}, "type": "electric_scooter", "name": "83c1fde9b8cbacd8a986bd124d990f56", "is_reserved": 0, "lon": -77.02340466666666, "is_disabled": 0, "fusion_lat": 0.0, "lat": 38.927076, "bike_id": "83c1fde9b8cbacd8a986bd124d990f56", "fusion_lon": 0.0}, {"rental_uris": {"ios": "https://dc.lft.to/lastmile_qr_scan", "android": "https://dc.lft.to/lastmile_qr_scan"}, "type": "electric_scooter", "name": "a53f7882d2719782e94049955e2dbf32", "is_reserved": 0, "lon": -77.03295566666667, "is_disabled": 0, "fusion_lat": 0.0, "lat": 38.92875316666667, "bike_id": "a53f7882d2719782e94049955e2dbf32", "fusion_lon": 0.0}, {"rental_uris": {"ios": "https://dc.lft.to/lastmile_qr_scan", "android": "https://dc.lft.to/lastmile_qr_scan"}, "type": "electric_scooter", "name": "c0f97d2c0f4d0f82b839d4ac9443fb3e", "is_reserved": 0, "lon": -77.07976216666667, "is_disabled": 0, "fusion_lat": 0.0, "lat": 38.9202, "bike_id": "c0f97d2c0f4d0f82b839d4ac9443fb3e", "fusion_lon": 0.0}, {"rental_uris": {"ios": "https://dc.lft.to/lastmile_qr_scan", "android": "https://dc.lft.to/lastmile_qr_scan"}, "type": "electric_scooter", "name": "db5eeaa606a2a062a5b1a684de12b250", "is_reserved": 0, "lon": -77.0705775, "is_disabled": 0, "fusion_lat": 0.0, "lat": 38.899112333333335, "bike_id": "db5eeaa606a2a062a5b1a684de12b250", "fusion_lon": 0.0}, {"rental_uris": {"ios": "https://dc.lft.to/lastmile_qr_scan", "android": "https://dc.lft.to/lastmile_qr_scan"}, "type": "electric_bike", "name": "259cb6f7a51142f786f28c5b06d6ca58", "is_reserved": 0, "lon": -77.106237, "is_disabled": 0, "fusion_lat": 0.0, "lat": 38.873253166666665, "bike_id": "259cb6f7a51142f786f28c5b06d6ca58", "fusion_lon": 0.0}, {"rental_uris": {"ios": "https://dc.lft.to/lastmile_qr_scan", "android": "https://dc.lft.to/lastmile_qr_scan"}, "type": "electric_bike", "name": "5365b65d6883a8dfa4fd08bf4348671f", "is_reserved": 0, "lon": -77.06579133333334, "is_disabled": 0, "fusion_lat": 0.0, "lat": 38.91134, "bike_id": "5365b65d6883a8dfa4fd08bf4348671f", "fusion_lon": 0.0}, {"rental_uris": {"ios": "https://dc.lft.to/lastmile_qr_scan", "android": "https://dc.lft.to/lastmile_qr_scan"}, "type": "electric_scooter", "name": "d5989a85ac8382abb20de2f6645a1333", "is_reserved": 0, "lon": -76.92299516666667, "is_disabled": 0, "fusion_lat": 0.0, "lat": 38.8938705, "bike_id": "d5989a85ac8382abb20de2f6645a1333", "fusion_lon": 0.0}, {"rental_uris": {"ios": "https://dc.lft.to/lastmile_qr_scan", "android": "https://dc.lft.to/lastmile_qr_scan"}, "type": "electric_scooter", "name": "9464887fdcfee3edefc8613775a2b8e2", "is_reserved": 0, "lon": -77.03185333333333, "is_disabled": 0, "fusion_lat": 0.0, "lat": 38.92491866666667, "bike_id": "9464887fdcfee3edefc8613775a2b8e2", "fusion_lon": 0.0}, {"rental_uris": {"ios": "https://dc.lft.to/lastmile_qr_scan", "android": "https://dc.lft.to/lastmile_qr_scan"}, "type": "electric_scooter", "name": "14102d730285188bff29e6d8a0982fd3", "is_reserved": 0, "lon": -77.03864633333333, "is_disabled": 0, "fusion_lat": 0.0, "lat": 38.9118455, "bike_id": "14102d730285188bff29e6d8a0982fd3", "fusion_lon": 0.0}, {"rental_uris": {"ios": "https://dc.lft.to/lastmile_qr_scan", "android": "https://dc.lft.to/lastmile_qr_scan"}, "type": "electric_scooter", "name": "3787a579eac42bfc2e46e366d7ad5855", "is_reserved": 0, "lon": -77.03673366666666, "is_disabled": 0, "fusion_lat": 0.0, "lat": 38.92266383333333, "bike_id": "3787a579eac42bfc2e46e366d7ad5855", "fusion_lon": 0.0}, {"rental_uris": {"ios": "https://dc.lft.to/lastmile_qr_scan", "android": "https://dc.lft.to/lastmile_qr_scan"}, "type": "electric_bike", "name": "b3b4b591f0b0c32e98bf198b658493d7", "is_reserved": 0, "lon": -77.05983016666667, "is_disabled": 0, "fusion_lat": 0.0, "lat": 38.92911383333333, "bike_id": "b3b4b591f0b0c32e98bf198b658493d7", "fusion_lon": 0.0}, {"rental_uris": {"ios": "https://dc.lft.to/lastmile_qr_scan", "android": "https://dc.lft.to/lastmile_qr_scan"}, "type": "electric_bike", "name": "589dec2e4dc7185d0a584e8275e206f4", "is_reserved": 0, "lon": -76.9700925, "is_disabled": 0, "fusion_lat": 0.0, "lat": 38.86371483333333, "bike_id": "589dec2e4dc7185d0a584e8275e206f4", "fusion_lon": 0.0}, {"rental_uris": {"ios": "https://dc.lft.to/lastmile_qr_scan", "android": "https://dc.lft.to/lastmile_qr_scan"}, "type": "electric_bike", "name": "ccbafac2cbb5d97d99d19381c39feec2", "is_reserved": 0, "lon": -76.96318783333334, "is_disabled": 0, "fusion_lat": 0.0, "lat": 38.9389615, "bike_id": "ccbafac2cbb5d97d99d19381c39feec2", "fusion_lon": 0.0}, {"rental_uris": {"ios": "https://dc.lft.to/lastmile_qr_scan", "android": "https://dc.lft.to/lastmile_qr_scan"}, "type": "electric_scooter", "name": "50e2aa36acc0a6d1bc12b9be13f286c1", "is_reserved": 0, "lon": -77.00197416666667, "is_disabled": 0, "fusion_lat": 0.0, "lat": 38.90038966666667, "bike_id": "50e2aa36acc0a6d1bc12b9be13f286c1", "fusion_lon": 0.0}, {"rental_uris": {"ios": "https://dc.lft.to/lastmile_qr_scan", "android": "https://dc.lft.to/lastmile_qr_scan"}, "type": "electric_scooter", "name": "9e461bac659f9196184b211a321f76d8", "is_reserved": 0, "lon": -77.03260966666667, "is_disabled": 0, "fusion_lat": 0.0, "lat": 38.911185, "bike_id": "9e461bac659f9196184b211a321f76d8", "fusion_lon": 0.0}, {"rental_uris": {"ios": "https://dc.lft.to/lastmile_qr_scan", "android": "https://dc.lft.to/lastmile_qr_scan"}, "type": "electric_scooter", "name": "3981a79a846272f4f47d1f445cf6e255", "is_reserved": 0, "lon": -77.039013, "is_disabled": 0, "fusion_lat": 0.0, "lat": 38.912659833333336, "bike_id": "3981a79a846272f4f47d1f445cf6e255", "fusion_lon": 0.0}, {"rental_uris": {"ios": "https://dc.lft.to/lastmile_qr_scan", "android": "https://dc.lft.to/lastmile_qr_scan"}, "type": "electric_bike", "name": "1af6367d9f8044b2d66b1bc31960dce5", "is_reserved": 0, "lon": -77.081408, "is_disabled": 0, "fusion_lat": 0.0, "lat": 38.822943, "bike_id": "1af6367d9f8044b2d66b1bc31960dce5", "fusion_lon": 0.0}, {"rental_uris": {"ios": "https://dc.lft.to/lastmile_qr_scan", "android": "https://dc.lft.to/lastmile_qr_scan"}, "type": "electric_scooter", "name": "da3d377c2f2e6777f0056fc96ef866a5", "is_reserved": 0, "lon": -77.02411533333333, "is_disabled": 0, "fusion_lat": 0.0, "lat": 38.898284333333336, "bike_id": "da3d377c2f2e6777f0056fc96ef866a5", "fusion_lon": 0.0}, {"rental_uris": {"ios": "https://dc.lft.to/lastmile_qr_scan", "android": "https://dc.lft.to/lastmile_qr_scan"}, "type": "electric_scooter", "name": "32d3f222857542bc99077ef1ccee8189", "is_reserved": 0, "lon": -77.07846833333333, "is_disabled": 0, "fusion_lat": 0.0, "lat": 38.931471333333334, "bike_id": "32d3f222857542bc99077ef1ccee8189", "fusion_lon": 0.0}, {"rental_uris": {"ios": "https://dc.lft.to/lastmile_qr_scan", "android": "https://dc.lft.to/lastmile_qr_scan"}, "type": "electric_scooter", "name": "a1a4a4ce376f1c92d69e580fc216ffda", "is_reserved": 0, "lon": -77.042471, "is_disabled": 0, "fusion_lat": 0.0, "lat": 38.920556, "bike_id": "a1a4a4ce376f1c92d69e580fc216ffda", "fusion_lon": 0.0}, {"rental_uris": {"ios": "https://dc.lft.to/lastmile_qr_scan", "android": "https://dc.lft.to/lastmile_qr_scan"}, "type": "electric_scooter", "name": "6ca4bcee2d085d70a5081205dc36b60b", "is_reserved": 0, "lon": -77.00942933333333, "is_disabled": 0, "fusion_lat": 0.0, "lat": 38.8976475, "bike_id": "6ca4bcee2d085d70a5081205dc36b60b", "fusion_lon": 0.0}, {"rental_uris": {"ios": "https://dc.lft.to/lastmile_qr_scan", "android": "https://dc.lft.to/lastmile_qr_scan"}, "type": "electric_scooter", "name": "476d430dfb4f1fedcaa1752d018bce75", "is_reserved": 0, "lon": -77.03186, "is_disabled": 0, "fusion_lat": 0.0, "lat": 38.921018833333335, "bike_id": "476d430dfb4f1fedcaa1752d018bce75", "fusion_lon": 0.0}, {"rental_uris": {"ios": "https://dc.lft.to/lastmile_qr_scan", "android": "https://dc.lft.to/lastmile_qr_scan"}, "type": "electric_scooter", "name": "5f23856d01c52a32944e6296facea257", "is_reserved": 0, "lon": -77.019037, "is_disabled": 0, "fusion_lat": 0.0, "lat": 38.9233815, "bike_id": "5f23856d01c52a32944e6296facea257", "fusion_lon": 0.0}, {"rental_uris": {"ios": "https://dc.lft.to/lastmile_qr_scan", "android": "https://dc.lft.to/lastmile_qr_scan"}, "type": "electric_scooter", "name": "fb2fac8fdb4a8f5f983913aa0db60877", "is_reserved": 0, "lon": -77.005711, "is_disabled": 0, "fusion_lat": 0.0, "lat": 38.874581, "bike_id": "fb2fac8fdb4a8f5f983913aa0db60877", "fusion_lon": 0.0}, {"rental_uris": {"ios": "https://dc.lft.to/lastmile_qr_scan", "android": "https://dc.lft.to/lastmile_qr_scan"}, "type": "electric_scooter", "name": "a0e326baf5d52bb4fa689280a6f738c7", "is_reserved": 0, "lon": -77.00408983333334, "is_disabled": 0, "fusion_lat": 0.0, "lat": 38.87449266666667, "bike_id": "a0e326baf5d52bb4fa689280a6f738c7", "fusion_lon": 0.0}, {"rental_uris": {"ios": "https://dc.lft.to/lastmile_qr_scan", "android": "https://dc.lft.to/lastmile_qr_scan"}, "type": "electric_scooter", "name": "d0335d828c21487260497089bbe03318", "is_reserved": 0, "lon": -76.9569725, "is_disabled": 0, "fusion_lat": 0.0, "lat": 38.89201416666667, "bike_id": "d0335d828c21487260497089bbe03318", "fusion_lon": 0.0}, {"rental_uris": {"ios": "https://dc.lft.to/lastmile_qr_scan", "android": "https://dc.lft.to/lastmile_qr_scan"}, "type": "electric_scooter", "name": "702ebb9f86a959bb60495112197ac469", "is_reserved": 0, "lon": -77.04358466666666, "is_disabled": 0, "fusion_lat": 0.0, "lat": 38.901238666666664, "bike_id": "702ebb9f86a959bb60495112197ac469", "fusion_lon": 0.0}, {"rental_uris": {"ios": "https://dc.lft.to/lastmile_qr_scan", "android": "https://dc.lft.to/lastmile_qr_scan"}, "type": "electric_scooter", "name": "91a2586b72d3210df3a2be7d8ca5e39b", "is_reserved": 0, "lon": -77.005825, "is_disabled": 0, "fusion_lat": 0.0, "lat": 38.8756745, "bike_id": "91a2586b72d3210df3a2be7d8ca5e39b", "fusion_lon": 0.0}, {"rental_uris": {"ios": "https://dc.lft.to/lastmile_qr_scan", "android": "https://dc.lft.to/lastmile_qr_scan"}, "type": "electric_bike", "name": "5385aef5cffce865048d89e8fbedbf50", "is_reserved": 0, "lon": -76.99792183333334, "is_disabled": 0, "fusion_lat": 0.0, "lat": 38.908652333333336, "bike_id": "5385aef5cffce865048d89e8fbedbf50", "fusion_lon": 0.0}, {"rental_uris": {"ios": "https://dc.lft.to/lastmile_qr_scan", "android": "https://dc.lft.to/lastmile_qr_scan"}, "type": "electric_scooter", "name": "c0237e857ff2125d16ef3c107a042c02", "is_reserved": 0, "lon": -76.99386383333334, "is_disabled": 0, "fusion_lat": 0.0, "lat": 38.90130416666667, "bike_id": "c0237e857ff2125d16ef3c107a042c02", "fusion_lon": 0.0}, {"rental_uris": {"ios": "https://dc.lft.to/lastmile_qr_scan", "android": "https://dc.lft.to/lastmile_qr_scan"}, "type": "electric_scooter", "name": "a1a0dd9c32aa3819150a7cf31b0fd496", "is_reserved": 0, "lon": -77.03161933333334, "is_disabled": 0, "fusion_lat": 0.0, "lat": 38.918174666666665, "bike_id": "a1a0dd9c32aa3819150a7cf31b0fd496", "fusion_lon": 0.0}, {"rental_uris": {"ios": "https://dc.lft.to/lastmile_qr_scan", "android": "https://dc.lft.to/lastmile_qr_scan"}, "type": "electric_scooter", "name": "cbf5c9e8c3eb0d7a5c9e374480121d9f", "is_reserved": 0, "lon": -77.04170383333333, "is_disabled": 0, "fusion_lat": 0.0, "lat": 38.9170195, "bike_id": "cbf5c9e8c3eb0d7a5c9e374480121d9f", "fusion_lon": 0.0}, {"rental_uris": {"ios": "https://dc.lft.to/lastmile_qr_scan", "android": "https://dc.lft.to/lastmile_qr_scan"}, "type": "electric_scooter", "name": "19ff5a4a8263428b1455658783266fbd", "is_reserved": 0, "lon": -77.01605533333333, "is_disabled": 0, "fusion_lat": 0.0, "lat": 38.91277216666667, "bike_id": "19ff5a4a8263428b1455658783266fbd", "fusion_lon": 0.0}, {"rental_uris": {"ios": "https://dc.lft.to/lastmile_qr_scan", "android": "https://dc.lft.to/lastmile_qr_scan"}, "type": "electric_scooter", "name": "618b53ea34094fdc52528826e301eb99", "is_reserved": 0, "lon": -77.01358383333333, "is_disabled": 0, "fusion_lat": 0.0, "lat": 38.9163035, "bike_id": "618b53ea34094fdc52528826e301eb99", "fusion_lon": 0.0}, {"rental_uris": {"ios": "https://dc.lft.to/lastmile_qr_scan", "android": "https://dc.lft.to/lastmile_qr_scan"}, "type": "electric_scooter", "name": "ef0eceb52a128aba6861ce11db1a2b79", "is_reserved": 0, "lon": -77.04024916666667, "is_disabled": 0, "fusion_lat": 0.0, "lat": 38.92462283333333, "bike_id": "ef0eceb52a128aba6861ce11db1a2b79", "fusion_lon": 0.0}, {"rental_uris": {"ios": "https://dc.lft.to/lastmile_qr_scan", "android": "https://dc.lft.to/lastmile_qr_scan"}, "type": "electric_scooter", "name": "c76b98022bb859960ae93dd87b1eb77e", "is_reserved": 0, "lon": -77.02815083333333, "is_disabled": 0, "fusion_lat": 0.0, "lat": 38.885174, "bike_id": "c76b98022bb859960ae93dd87b1eb77e", "fusion_lon": 0.0}, {"rental_uris": {"ios": "https://dc.lft.to/lastmile_qr_scan", "android": "https://dc.lft.to/lastmile_qr_scan"}, "type": "electric_scooter", "name": "7a50911b368fc1be7073c581c662f45f", "is_reserved": 0, "lon": -76.99739033333333, "is_disabled": 0, "fusion_lat": 0.0, "lat": 38.92072783333333, "bike_id": "7a50911b368fc1be7073c581c662f45f", "fusion_lon": 0.0}, {"rental_uris": {"ios": "https://dc.lft.to/lastmile_qr_scan", "android": "https://dc.lft.to/lastmile_qr_scan"}, "type": "electric_scooter", "name": "609bd62c432dd8fe253df033e78da11c", "is_reserved": 0, "lon": -77.04173033333333, "is_disabled": 0, "fusion_lat": 0.0, "lat": 38.917237, "bike_id": "609bd62c432dd8fe253df033e78da11c", "fusion_lon": 0.0}, {"rental_uris": {"ios": "https://dc.lft.to/lastmile_qr_scan", "android": "https://dc.lft.to/lastmile_qr_scan"}, "type": "electric_scooter", "name": "35d900ecaa85832f96907078d1042554", "is_reserved": 0, "lon": -77.0195355, "is_disabled": 0, "fusion_lat": 0.0, "lat": 38.92329866666667, "bike_id": "35d900ecaa85832f96907078d1042554", "fusion_lon": 0.0}, {"rental_uris": {"ios": "https://dc.lft.to/lastmile_qr_scan", "android": "https://dc.lft.to/lastmile_qr_scan"}, "type": "electric_scooter", "name": "cd09b12ca569bca5619916739d52f108", "is_reserved": 0, "lon": -77.0385055, "is_disabled": 0, "fusion_lat": 0.0, "lat": 38.9127785, "bike_id": "cd09b12ca569bca5619916739d52f108", "fusion_lon": 0.0}, {"rental_uris": {"ios": "https://dc.lft.to/lastmile_qr_scan", "android": "https://dc.lft.to/lastmile_qr_scan"}, "type": "electric_bike", "name": "b8ebb1ddf47ea474fd7306b30ba1bdcf", "is_reserved": 0, "lon": -77.16232183333334, "is_disabled": 0, "fusion_lat": 0.0, "lat": 38.88664633333333, "bike_id": "b8ebb1ddf47ea474fd7306b30ba1bdcf", "fusion_lon": 0.0}, {"rental_uris": {"ios": "https://dc.lft.to/lastmile_qr_scan", "android": "https://dc.lft.to/lastmile_qr_scan"}, "type": "electric_scooter", "name": "07e140e27b14abe0bc52ee59241463ed", "is_reserved": 0, "lon": -77.06775383333333, "is_disabled": 0, "fusion_lat": 0.0, "lat": 38.90464683333333, "bike_id": "07e140e27b14abe0bc52ee59241463ed", "fusion_lon": 0.0}, {"rental_uris": {"ios": "https://dc.lft.to/lastmile_qr_scan", "android": "https://dc.lft.to/lastmile_qr_scan"}, "type": "electric_scooter", "name": "ba9f888f47dfc86746831d3f68142a0c", "is_reserved": 0, "lon": -77.024346, "is_disabled": 0, "fusion_lat": 0.0, "lat": 38.9205365, "bike_id": "ba9f888f47dfc86746831d3f68142a0c", "fusion_lon": 0.0}, {"rental_uris": {"ios": "https://dc.lft.to/lastmile_qr_scan", "android": "https://dc.lft.to/lastmile_qr_scan"}, "type": "electric_scooter", "name": "f0d95dd62800034ea3854704ec77123b", "is_reserved": 0, "lon": -77.00923916666666, "is_disabled": 0, "fusion_lat": 0.0, "lat": 38.9076395, "bike_id": "f0d95dd62800034ea3854704ec77123b", "fusion_lon": 0.0}, {"rental_uris": {"ios": "https://dc.lft.to/lastmile_qr_scan", "android": "https://dc.lft.to/lastmile_qr_scan"}, "type": "electric_scooter", "name": "4491b5f6ee945422f9473dc658903057", "is_reserved": 0, "lon": -77.002203, "is_disabled": 0, "fusion_lat": 0.0, "lat": 38.8945085, "bike_id": "4491b5f6ee945422f9473dc658903057", "fusion_lon": 0.0}, {"rental_uris": {"ios": "https://dc.lft.to/lastmile_qr_scan", "android": "https://dc.lft.to/lastmile_qr_scan"}, "type": "electric_scooter", "name": "ea10aad585368f7adf01d98be4ff4ec1", "is_reserved": 0, "lon": -77.0220175, "is_disabled": 0, "fusion_lat": 0.0, "lat": 38.887172666666665, "bike_id": "ea10aad585368f7adf01d98be4ff4ec1", "fusion_lon": 0.0}, {"rental_uris": {"ios": "https://dc.lft.to/lastmile_qr_scan", "android": "https://dc.lft.to/lastmile_qr_scan"}, "type": "electric_scooter", "name": "11669357d7f47725e858020090b905e5", "is_reserved": 0, "lon": -77.04153133333334, "is_disabled": 0, "fusion_lat": 0.0, "lat": 38.9167785, "bike_id": "11669357d7f47725e858020090b905e5", "fusion_lon": 0.0}, {"rental_uris": {"ios": "https://dc.lft.to/lastmile_qr_scan", "android": "https://dc.lft.to/lastmile_qr_scan"}, "type": "electric_scooter", "name": "23c0e9677e7e7795af1612578f49d9f5", "is_reserved": 0, "lon": -76.98206633333334, "is_disabled": 0, "fusion_lat": 0.0, "lat": 38.886445, "bike_id": "23c0e9677e7e7795af1612578f49d9f5", "fusion_lon": 0.0}, {"rental_uris": {"ios": "https://dc.lft.to/lastmile_qr_scan", "android": "https://dc.lft.to/lastmile_qr_scan"}, "type": "electric_scooter", "name": "aeff10ef9d0a858b27543158e6f7679d", "is_reserved": 0, "lon": -77.01171916666667, "is_disabled": 0, "fusion_lat": 0.0, "lat": 38.900296, "bike_id": "aeff10ef9d0a858b27543158e6f7679d", "fusion_lon": 0.0}, {"rental_uris": {"ios": "https://dc.lft.to/lastmile_qr_scan", "android": "https://dc.lft.to/lastmile_qr_scan"}, "type": "electric_scooter", "name": "c57ddba659dafb736ac711a9b21a5b02", "is_reserved": 0, "lon": -77.04217333333334, "is_disabled": 0, "fusion_lat": 0.0, "lat": 38.913344, "bike_id": "c57ddba659dafb736ac711a9b21a5b02", "fusion_lon": 0.0}, {"rental_uris": {"ios": "https://dc.lft.to/lastmile_qr_scan", "android": "https://dc.lft.to/lastmile_qr_scan"}, "type": "electric_bike", "name": "5e6a497d6dfebdde1cfe1ffc637f73ac", "is_reserved": 0, "lon": -77.002925, "is_disabled": 0, "fusion_lat": 0.0, "lat": 38.916138, "bike_id": "5e6a497d6dfebdde1cfe1ffc637f73ac", "fusion_lon": 0.0}, {"rental_uris": {"ios": "https://dc.lft.to/lastmile_qr_scan", "android": "https://dc.lft.to/lastmile_qr_scan"}, "type": "electric_scooter", "name": "f400295aaf15bef7882c609a643ba9d3", "is_reserved": 0, "lon": -77.01959916666667, "is_disabled": 0, "fusion_lat": 0.0, "lat": 38.9338205, "bike_id": "f400295aaf15bef7882c609a643ba9d3", "fusion_lon": 0.0}, {"rental_uris": {"ios": "https://dc.lft.to/lastmile_qr_scan", "android": "https://dc.lft.to/lastmile_qr_scan"}, "type": "electric_scooter", "name": "71cc76fb0efafbb2d545c5e7b0bcd8a9", "is_reserved": 0, "lon": -76.9492325, "is_disabled": 0, "fusion_lat": 0.0, "lat": 38.895335833333334, "bike_id": "71cc76fb0efafbb2d545c5e7b0bcd8a9", "fusion_lon": 0.0}, {"rental_uris": {"ios": "https://dc.lft.to/lastmile_qr_scan", "android": "https://dc.lft.to/lastmile_qr_scan"}, "type": "electric_scooter", "name": "6818c83372fbc90eb00e01e138508eaf", "is_reserved": 0, "lon": -77.04070916666667, "is_disabled": 0, "fusion_lat": 0.0, "lat": 38.914155, "bike_id": "6818c83372fbc90eb00e01e138508eaf", "fusion_lon": 0.0}, {"rental_uris": {"ios": "https://dc.lft.to/lastmile_qr_scan", "android": "https://dc.lft.to/lastmile_qr_scan"}, "type": "electric_scooter", "name": "3ed66bbc8fbd3071659d02cc56a2dfea", "is_reserved": 0, "lon": -77.0261535, "is_disabled": 0, "fusion_lat": 0.0, "lat": 38.9191435, "bike_id": "3ed66bbc8fbd3071659d02cc56a2dfea", "fusion_lon": 0.0}, {"rental_uris": {"ios": "https://dc.lft.to/lastmile_qr_scan", "android": "https://dc.lft.to/lastmile_qr_scan"}, "type": "electric_scooter", "name": "c8de89a23ff3abdfd479440d54f59a11", "is_reserved": 0, "lon": -77.03853233333334, "is_disabled": 0, "fusion_lat": 0.0, "lat": 38.932498333333335, "bike_id": "c8de89a23ff3abdfd479440d54f59a11", "fusion_lon": 0.0}, {"rental_uris": {"ios": "https://dc.lft.to/lastmile_qr_scan", "android": "https://dc.lft.to/lastmile_qr_scan"}, "type": "electric_scooter", "name": "57dd6f42fce9e2f8e2669df1bd023d1c", "is_reserved": 0, "lon": -77.04031933333333, "is_disabled": 0, "fusion_lat": 0.0, "lat": 38.90479033333333, "bike_id": "57dd6f42fce9e2f8e2669df1bd023d1c", "fusion_lon": 0.0}, {"rental_uris": {"ios": "https://dc.lft.to/lastmile_qr_scan", "android": "https://dc.lft.to/lastmile_qr_scan"}, "type": "electric_scooter", "name": "39fa5b53bc1f005c7c4630cc6fd7ec0b", "is_reserved": 0, "lon": -77.02379383333333, "is_disabled": 0, "fusion_lat": 0.0, "lat": 38.9206585, "bike_id": "39fa5b53bc1f005c7c4630cc6fd7ec0b", "fusion_lon": 0.0}, {"rental_uris": {"ios": "https://dc.lft.to/lastmile_qr_scan", "android": "https://dc.lft.to/lastmile_qr_scan"}, "type": "electric_scooter", "name": "5613cc08fb16befa26a69dd18eae2bff", "is_reserved": 0, "lon": -77.03211233333333, "is_disabled": 0, "fusion_lat": 0.0, "lat": 38.9164035, "bike_id": "5613cc08fb16befa26a69dd18eae2bff", "fusion_lon": 0.0}, {"rental_uris": {"ios": "https://dc.lft.to/lastmile_qr_scan", "android": "https://dc.lft.to/lastmile_qr_scan"}, "type": "electric_scooter", "name": "4b6a8aa1108e5b0322dd96bd0ca05569", "is_reserved": 0, "lon": -77.02500283333333, "is_disabled": 0, "fusion_lat": 0.0, "lat": 38.95412366666667, "bike_id": "4b6a8aa1108e5b0322dd96bd0ca05569", "fusion_lon": 0.0}, {"rental_uris": {"ios": "https://dc.lft.to/lastmile_qr_scan", "android": "https://dc.lft.to/lastmile_qr_scan"}, "type": "electric_scooter", "name": "7378436aa1c2697a47df7ca2fbbf8394", "is_reserved": 0, "lon": -76.989834, "is_disabled": 0, "fusion_lat": 0.0, "lat": 38.865011, "bike_id": "7378436aa1c2697a47df7ca2fbbf8394", "fusion_lon": 0.0}, {"rental_uris": {"ios": "https://dc.lft.to/lastmile_qr_scan", "android": "https://dc.lft.to/lastmile_qr_scan"}, "type": "electric_scooter", "name": "65dbbe188df98ade1c03479268349a6b", "is_reserved": 0, "lon": -76.92945766666666, "is_disabled": 0, "fusion_lat": 0.0, "lat": 38.9033585, "bike_id": "65dbbe188df98ade1c03479268349a6b", "fusion_lon": 0.0}, {"rental_uris": {"ios": "https://dc.lft.to/lastmile_qr_scan", "android": "https://dc.lft.to/lastmile_qr_scan"}, "type": "electric_scooter", "name": "e367e1d0afefec8799f91d6ba322d824", "is_reserved": 0, "lon": -76.983204, "is_disabled": 0, "fusion_lat": 0.0, "lat": 38.88972166666667, "bike_id": "e367e1d0afefec8799f91d6ba322d824", "fusion_lon": 0.0}, {"rental_uris": {"ios": "https://dc.lft.to/lastmile_qr_scan", "android": "https://dc.lft.to/lastmile_qr_scan"}, "type": "electric_scooter", "name": "efcf38e08e1583894ecf70ed2afae634", "is_reserved": 0, "lon": -77.0227655, "is_disabled": 0, "fusion_lat": 0.0, "lat": 38.89035633333334, "bike_id": "efcf38e08e1583894ecf70ed2afae634", "fusion_lon": 0.0}, {"rental_uris": {"ios": "https://dc.lft.to/lastmile_qr_scan", "android": "https://dc.lft.to/lastmile_qr_scan"}, "type": "electric_scooter", "name": "88e3d5d4c1e4d034c7d049b8a7a1035b", "is_reserved": 0, "lon": -77.03503633333334, "is_disabled": 0, "fusion_lat": 0.0, "lat": 38.91880866666666, "bike_id": "88e3d5d4c1e4d034c7d049b8a7a1035b", "fusion_lon": 0.0}, {"rental_uris": {"ios": "https://dc.lft.to/lastmile_qr_scan", "android": "https://dc.lft.to/lastmile_qr_scan"}, "type": "electric_scooter", "name": "a71e955535dac2204b19b129f64ae69f", "is_reserved": 0, "lon": -77.02033366666667, "is_disabled": 0, "fusion_lat": 0.0, "lat": 38.924374666666665, "bike_id": "a71e955535dac2204b19b129f64ae69f", "fusion_lon": 0.0}, {"rental_uris": {"ios": "https://dc.lft.to/lastmile_qr_scan", "android": "https://dc.lft.to/lastmile_qr_scan"}, "type": "electric_scooter", "name": "29b85fb0f5a3626f49741c83900b44f3", "is_reserved": 0, "lon": -77.02081833333334, "is_disabled": 0, "fusion_lat": 0.0, "lat": 38.92405983333333, "bike_id": "29b85fb0f5a3626f49741c83900b44f3", "fusion_lon": 0.0}, {"rental_uris": {"ios": "https://dc.lft.to/lastmile_qr_scan", "android": "https://dc.lft.to/lastmile_qr_scan"}, "type": "electric_scooter", "name": "4e256b0a0b1c90689b20bc48c21ce3bc", "is_reserved": 0, "lon": -77.02572233333333, "is_disabled": 0, "fusion_lat": 0.0, "lat": 38.894580833333336, "bike_id": "4e256b0a0b1c90689b20bc48c21ce3bc", "fusion_lon": 0.0}, {"rental_uris": {"ios": "https://dc.lft.to/lastmile_qr_scan", "android": "https://dc.lft.to/lastmile_qr_scan"}, "type": "electric_scooter", "name": "2b1369c19e8e26bfb4e0d7570925c2a3", "is_reserved": 0, "lon": -77.01758883333333, "is_disabled": 0, "fusion_lat": 0.0, "lat": 38.8766695, "bike_id": "2b1369c19e8e26bfb4e0d7570925c2a3", "fusion_lon": 0.0}, {"rental_uris": {"ios": "https://dc.lft.to/lastmile_qr_scan", "android": "https://dc.lft.to/lastmile_qr_scan"},