{"data": {"bikes": [{"rental_uris": {"android": "https://dc.lft.to/lastmile_qr_scan", "ios": "https://dc.lft.to/lastmile_qr_scan"}, "type": "electric_bike", "lon": -76.98332566666667, "name": "3ca11ff2d92198d9e7fc932e99d8a1d5", "bike_id": "3ca11ff2d92198d9e7fc932e99d8a1d5", "fusion_lat": 0.0, "is_reserved": 0, "lat": 38.96600633333333, "fusion_lon": 0.0, "is_disabled": 0}, {"rental_uris": {"android": "https://dc.lft.to/lastmile_qr_scan", "ios": "https://dc.lft.to/lastmile_qr_scan"}, "type": "electric_bike", "lon": -77.08938433333333, "name": "f67bd646dc59120f3f0541865110c6d8", "bike_id": "f67bd646dc59120f3f0541865110c6d8", "fusion_lat": 0.0, "is_reserved": 0, "lat": 38.841015166666665, "fusion_lon": 0.0, "is_disabled": 0}, {"rental_uris": {"android": "https://dc.lft.to/lastmile_qr_scan", "ios": "https://dc.lft.to/lastmile_qr_scan"}, "type": "electric_scooter", "lon": -76.94943133333334, "name": "4eedb4a2a3e974a2c9f62bf0b342f77b", "bike_id": "4eedb4a2a3e974a2c9f62bf0b342f77b", "fusion_lat": 0.0, "is_reserved": 0, "lat": 38.883175666666666, "fusion_lon": 0.0, "is_disabled": 0}, {"rental_uris": {"android": "https://dc.lft.to/lastmile_qr_scan", "ios": "https://dc.lft.to/lastmile_qr_scan"}, "type": "electric_scooter", "lon": -76.9476925, "name": "9138aebb77725d9615d203f3d50f1347", "bike_id": "9138aebb77725d9615d203f3d50f1347", "fusion_lat": 0.0, "is_reserved": 0, "lat": 38.89619616666667, "fusion_lon": 0.0, "is_disabled": 0}, {"rental_uris": {"android": "https://dc.lft.to/lastmile_qr_scan", "ios": "https://dc.lft.to/lastmile_qr_scan"}, "type": "electric_bike", "lon": -77.03621783333334, "name": "2a1407b47e4714bc7777a69c0c9321c0", "bike_id": "2a1407b47e4714bc7777a69c0c9321c0", "fusion_lat": 0.0, "is_reserved": 0, "lat": 38.9729535, "fusion_lon": 0.0, "is_disabled": 0}, {"rental_uris": {"android": "https://dc.lft.to/lastmile_qr_scan", "ios": "https://dc.lft.to/lastmile_qr_scan"}, "type": "electric_scooter", "lon": -77.041727, "name": "56b335f7c073b2aa922c790082b13556", "bike_id": "56b335f7c073b2aa922c790082b13556", "fusion_lat": 0.0, "is_reserved": 0, "lat": 38.91586483333333, "fusion_lon": 0.0, "is_disabled": 0}, {"rental_uris": {"android": "https://dc.lft.to/lastmile_qr_scan", "ios": "https://dc.lft.to/lastmile_qr_scan"}, "type": "electric_scooter", "lon": -77.01820466666666, "name": "a476a32ae4549171928fdb3ccddb1be7", "bike_id": "a476a32ae4549171928fdb3ccddb1be7", "fusion_lat": 0.0, "is_reserved": 0, "lat": 38.90392816666667, "fusion_lon": 0.0, "is_disabled": 0}, {"rental_uris": {"android": "https://dc.lft.to/lastmile_qr_scan", "ios": "https://dc.lft.to/lastmile_qr_scan"}, "type": "electric_scooter", "lon": -76.99778733333333, "name": "c102882ad676ae42674bd09de857c733", "bike_id": "c102882ad676ae42674bd09de857c733", "fusion_lat": 0.0, "is_reserved": 0, "lat": 38.844229166666665, "fusion_lon": 0.0, "is_disabled": 0}, {"rental_uris": {"android": "https://dc.lft.to/lastmile_qr_scan", "ios": "https://dc.lft.to/lastmile_qr_scan"}, "type": "electric_scooter", "lon": -77.03286583333333, "name": "df0cde8c655db9f006c832a5424745ac", "bike_id": "df0cde8c655db9f006c832a5424745ac", "fusion_lat": 0.0, "is_reserved": 0, "lat": 38.956475166666664, "fusion_lon": 0.0, "is_disabled": 0}, {"rental_uris": {"android": "https://dc.lft.to/lastmile_qr_scan", "ios": "https://dc.lft.to/lastmile_qr_scan"}, "type": "electric_scooter", "lon": -77.03216733333333, "name": "8e85be4419d39f2cddad05d21a4cf7bf", "bike_id": "8e85be4419d39f2cddad05d21a4cf7bf", "fusion_lat": 0.0, "is_reserved": 0, "lat": 38.9188835, "fusion_lon": 0.0, "is_disabled": 0}, {"rental_uris": {"android": "https://dc.lft.to/lastmile_qr_scan", "ios": "https://dc.lft.to/lastmile_qr_scan"}, "type": "electric_bike", "lon": -77.0036615, "name": "1ed09d8a8d9e0d423c885663281bdbb4", "bike_id": "1ed09d8a8d9e0d423c885663281bdbb4", "fusion_lat": 0.0, "is_reserved": 0, "lat": 38.83605716666667, "fusion_lon": 0.0, "is_disabled": 0}, {"rental_uris": {"android": "https://dc.lft.to/lastmile_qr_scan", "ios": "https://dc.lft.to/lastmile_qr_scan"}, "type": "electric_scooter", "lon": -77.011425, "name": "b588f900b9edc581c484e40d19270d58", "bike_id": "b588f900b9edc581c484e40d19270d58", "fusion_lat": 0.0, "is_reserved": 0, "lat": 38.918067666666666, "fusion_lon": 0.0, "is_disabled": 0}, {"rental_uris": {"android": "https://dc.lft.to/lastmile_qr_scan", "ios": "https://dc.lft.to/lastmile_qr_scan"}, "type": "electric_scooter", "lon": -77.00198533333334, "name": "0003904a9226125214c42e80840c46f7", "bike_id": "0003904a9226125214c42e80840c46f7", "fusion_lat": 0.0, "is_reserved": 0, "lat": 38.9023735, "fusion_lon": 0.0, "is_disabled": 0}, {"rental_uris": {"android": "https://dc.lft.to/lastmile_qr_scan", "ios": "https://dc.lft.to/lastmile_qr_scan"}, "type": "electric_scooter", "lon": -77.040186, "name": "3fe6ab5ae373fe311d5eff81cbea89c1", "bike_id": "3fe6ab5ae373fe311d5eff81cbea89c1", "fusion_lat": 0.0, "is_reserved": 0, "lat": 38.925667, "fusion_lon": 0.0, "is_disabled": 0}, {"rental_uris": {"android": "https://dc.lft.to/lastmile_qr_scan", "ios": "https://dc.lft.to/lastmile_qr_scan"}, "type": "electric_scooter", "lon": -76.98727966666667, "name": "33f87252f0ef9b050dba5492711ccb37", "bike_id": "33f87252f0ef9b050dba5492711ccb37", "fusion_lat": 0.0, "is_reserved": 0, "lat": 38.86712383333333, "fusion_lon": 0.0, "is_disabled": 0}, {"rental_uris": {"android": "https://dc.lft.to/lastmile_qr_scan", "ios": "https://dc.lft.to/lastmile_qr_scan"}, "type": "electric_scooter", "lon": -77.040791, "name": "ef30d8c8f0ea5e32d567967010a9ec3d", "bike_id": "ef30d8c8f0ea5e32d567967010a9ec3d", "fusion_lat": 0.0, "is_reserved": 0, "lat": 38.9071915, "fusion_lon": 0.0, "is_disabled": 0}, {"rental_uris": {"android": "https://dc.lft.to/lastmile_qr_scan", "ios": "https://dc.lft.to/lastmile_qr_scan"}, "type": "electric_scooter", "lon": -77.02665466666667, "name": "c8f61dc58a53d6fee1090253881224b4", "bike_id": "c8f61dc58a53d6fee1090253881224b4", "fusion_lat": 0.0, "is_reserved": 0, "lat": 38.931019166666665, "fusion_lon": 0.0, "is_disabled": 0}, {"rental_uris": {"android": "https://dc.lft.to/lastmile_qr_scan", "ios": "https://dc.lft.to/lastmile_qr_scan"}, "type": "electric_bike", "lon": -76.97555683333333, "name": "5f7545008ab7ffcc24d00e8aac3ec2df", "bike_id": "5f7545008ab7ffcc24d00e8aac3ec2df", "fusion_lat": 0.0, "is_reserved": 0, "lat": 38.903175, "fusion_lon": 0.0, "is_disabled": 0}, {"rental_uris": {"android": "https://dc.lft.to/lastmile_qr_scan", "ios": "https://dc.lft.to/lastmile_qr_scan"}, "type": "electric_scooter", "lon": -77.0256855, "name": "363c0cc66ee8965a51f4a5104a8479da", "bike_id": "363c0cc66ee8965a51f4a5104a8479da", "fusion_lat": 0.0, "is_reserved": 0, "lat": 38.88591, "fusion_lon": 0.0, "is_disabled": 0}, {"rental_uris": {"android": "https://dc.lft.to/lastmile_qr_scan", "ios": "https://dc.lft.to/lastmile_qr_scan"}, "type": "electric_scooter", "lon": -77.02900616666666, "name": "de6ec529a034e1bd77055149333225dc", "bike_id": "de6ec529a034e1bd77055149333225dc", "fusion_lat": 0.0, "is_reserved": 0, "lat": 38.9584475, "fusion_lon": 0.0, "is_disabled": 0}, {"rental_uris": {"android": "https://dc.lft.to/lastmile_qr_scan", "ios": "https://dc.lft.to/lastmile_qr_scan"}, "type": "electric_scooter", "lon": -77.038218, "name": "61dfd11bf1e402488e8f3756ce05755a", "bike_id": "61dfd11bf1e402488e8f3756ce05755a", "fusion_lat": 0.0, "is_reserved": 0, "lat": 38.91415083333333, "fusion_lon": 0.0, "is_disabled": 0}, {"rental_uris": {"android": "https://dc.lft.to/lastmile_qr_scan", "ios": "https://dc.lft.to/lastmile_qr_scan"}, "type": "electric_bike", "lon": -77.08824383333334, "name": "537a985bcf124875e4dcc62244e01746", "bike_id": "537a985bcf124875e4dcc62244e01746", "fusion_lat": 0.0, "is_reserved": 0, "lat": 38.909707, "fusion_lon": 0.0, "is_disabled": 0}, {"rental_uris": {"android": "https://dc.lft.to/lastmile_qr_scan", "ios": "https://dc.lft.to/lastmile_qr_scan"}, "type": "electric_scooter", "lon": -77.03875466666666, "name": "490406ee17bb725874cf34785ec19f6f", "bike_id": "490406ee17bb725874cf34785ec19f6f", "fusion_lat": 0.0, "is_reserved": 0, "lat": 38.91267066666666, "fusion_lon": 0.0, "is_disabled": 0}, {"rental_uris": {"android": "https://dc.lft.to/lastmile_qr_scan", "ios": "https://dc.lft.to/lastmile_qr_scan"}, "type": "electric_scooter", "lon": -77.02340583333333, "name": "d0b985dc5f5d50be0490a3b48e1b46b1", "bike_id": "d0b985dc5f5d50be0490a3b48e1b46b1", "fusion_lat": 0.0, "is_reserved": 0, "lat": 38.88482333333333, "fusion_lon": 0.0, "is_disabled": 0}, {"rental_uris": {"android": "https://dc.lft.to/lastmile_qr_scan", "ios": "https://dc.lft.to/lastmile_qr_scan"}, "type": "electric_scooter", "lon": -77.052754, "name": "302f50e6740256e6d0ab261bf2ad3025", "bike_id": "302f50e6740256e6d0ab261bf2ad3025", "fusion_lat": 0.0, "is_reserved": 0, "lat": 38.92251, "fusion_lon": 0.0, "is_disabled": 0}, {"rental_uris": {"android": "https://dc.lft.to/lastmile_qr_scan", "ios": "https://dc.lft.to/lastmile_qr_scan"}, "type": "electric_scooter", "lon": -76.94157733333333, "name": "9e424e68bb7ecf5d6c21f91365d51793", "bike_id": "9e424e68bb7ecf5d6c21f91365d51793", "fusion_lat": 0.0, "is_reserved": 0, "lat": 38.88363283333333, "fusion_lon": 0.0, "is_disabled": 0}, {"rental_uris": {"android": "https://dc.lft.to/lastmile_qr_scan", "ios": "https://dc.lft.to/lastmile_qr_scan"}, "type": "electric_scooter", "lon": -77.03878566666667, "name": "d718db289614e8a8075d6ae2ace1276f", "bike_id": "d718db289614e8a8075d6ae2ace1276f", "fusion_lat": 0.0, "is_reserved": 0, "lat": 38.92222616666667, "fusion_lon": 0.0, "is_disabled": 0}, {"rental_uris": {"android": "https://dc.lft.to/lastmile_qr_scan", "ios": "https://dc.lft.to/lastmile_qr_scan"}, "type": "electric_scooter", "lon": -77.02847416666667, "name": "a81859d1cf248e0e20e5d0289c83bb75", "bike_id": "a81859d1cf248e0e20e5d0289c83bb75", "fusion_lat": 0.0, "is_reserved": 0, "lat": 38.92228633333333, "fusion_lon": 0.0, "is_disabled": 0}, {"rental_uris": {"android": "https://dc.lft.to/lastmile_qr_scan", "ios": "https://dc.lft.to/lastmile_qr_scan"}, "type": "electric_scooter", "lon": -77.03262966666667, "name": "539cdff5213e5688a06826c14cbe928f", "bike_id": "539cdff5213e5688a06826c14cbe928f", "fusion_lat": 0.0, "is_reserved": 0, "lat": 38.93665383333333, "fusion_lon": 0.0, "is_disabled": 0}, {"rental_uris": {"android": "https://dc.lft.to/lastmile_qr_scan", "ios": "https://dc.lft.to/lastmile_qr_scan"}, "type": "electric_scooter", "lon": -76.93431016666666, "name": "fc5daab237728d4b30b87c1f920c8a17", "bike_id": "fc5daab237728d4b30b87c1f920c8a17", "fusion_lat": 0.0, "is_reserved": 0, "lat": 38.899680000000004, "fusion_lon": 0.0, "is_disabled": 0}, {"rental_uris": {"android": "https://dc.lft.to/lastmile_qr_scan", "ios": "https://dc.lft.to/lastmile_qr_scan"}, "type": "electric_scooter", "lon": -76.94818233333334, "name": "b37f061d5ac2f87fe113b7058e450d9d", "bike_id": "b37f061d5ac2f87fe113b7058e450d9d", "fusion_lat": 0.0, "is_reserved": 0, "lat": 38.89339066666667, "fusion_lon": 0.0, "is_disabled": 0}, {"rental_uris": {"android": "https://dc.lft.to/lastmile_qr_scan", "ios": "https://dc.lft.to/lastmile_qr_scan"}, "type": "electric_scooter", "lon": -77.00227683333334, "name": "5e243225fc6b7b1c9c316e5805d4341e", "bike_id": "5e243225fc6b7b1c9c316e5805d4341e", "fusion_lat": 0.0, "is_reserved": 0, "lat": 38.908388333333335, "fusion_lon": 0.0, "is_disabled": 0}, {"rental_uris": {"android": "https://dc.lft.to/lastmile_qr_scan", "ios": "https://dc.lft.to/lastmile_qr_scan"}, "type": "electric_scooter", "lon": -77.00221633333334, "name": "75c048b18d4a29707bf93b799b4fe7fc", "bike_id": "75c048b18d4a29707bf93b799b4fe7fc", "fusion_lat": 0.0, "is_reserved": 0, "lat": 38.957263166666664, "fusion_lon": 0.0, "is_disabled": 0}, {"rental_uris": {"android": "https://dc.lft.to/lastmile_qr_scan", "ios": "https://dc.lft.to/lastmile_qr_scan"}, "type": "electric_scooter", "lon": -76.99005016666666, "name": "ceb2febab9481a95a228c95ced1c6fc4", "bike_id": "ceb2febab9481a95a228c95ced1c6fc4", "fusion_lat": 0.0, "is_reserved": 0, "lat": 38.8650755, "fusion_lon": 0.0, "is_disabled": 0}, {"rental_uris": {"android": "https://dc.lft.to/lastmile_qr_scan", "ios": "https://dc.lft.to/lastmile_qr_scan"}, "type": "electric_scooter", "lon": -77.01771383333333, "name": "e192fa4b7d45b21c5ecfacdd3f32557f", "bike_id": "e192fa4b7d45b21c5ecfacdd3f32557f", "fusion_lat": 0.0, "is_reserved": 0, "lat": 38.872921, "fusion_lon": 0.0, "is_disabled": 0}, {"rental_uris": {"android": "https://dc.lft.to/lastmile_qr_scan", "ios": "https://dc.lft.to/lastmile_qr_scan"}, "type": "electric_bike", "lon": -76.99492033333334, "name": "a0f6ce0b004b91c7e9d5718dceb3abc5", "bike_id": "a0f6ce0b004b91c7e9d5718dceb3abc5", "fusion_lat": 0.0, "is_reserved": 0, "lat": 38.9257835, "fusion_lon": 0.0, "is_disabled": 0}, {"rental_uris": {"android": "https://dc.lft.to/lastmile_qr_scan", "ios": "https://dc.lft.to/lastmile_qr_scan"}, "type": "electric_scooter", "lon": -77.011336, "name": "1ac9b948b278071aafd76d2ec5ec6853", "bike_id": "1ac9b948b278071aafd76d2ec5ec6853", "fusion_lat": 0.0, "is_reserved": 0, "lat": 38.90730833333333, "fusion_lon": 0.0, "is_disabled": 0}, {"rental_uris": {"android": "https://dc.lft.to/lastmile_qr_scan", "ios": "https://dc.lft.to/lastmile_qr_scan"}, "type": "electric_scooter", "lon": -77.0514165, "name": "1a6d73c86335548672d4b15d69ba0216", "bike_id": "1a6d73c86335548672d4b15d69ba0216", "fusion_lat": 0.0, "is_reserved": 0, "lat": 38.908007166666664, "fusion_lon": 0.0, "is_disabled": 0}, {"rental_uris": {"android": "https://dc.lft.to/lastmile_qr_scan", "ios": "https://dc.lft.to/lastmile_qr_scan"}, "type": "electric_bike", "lon": -76.97907333333333, "name": "0cd71a4da3e158438a9f5cfea6e5c142", "bike_id": "0cd71a4da3e158438a9f5cfea6e5c142", "fusion_lat": 0.0, "is_reserved": 0, "lat": 38.88834833333333, "fusion_lon": 0.0, "is_disabled": 0}, {"rental_uris": {"android": "https://dc.lft.to/lastmile_qr_scan", "ios": "https://dc.lft.to/lastmile_qr_scan"}, "type": "electric_scooter", "lon": -76.98847633333334, "name": "2c5b025bd51e463e47c06b05a77fe372", "bike_id": "2c5b025bd51e463e47c06b05a77fe372", "fusion_lat": 0.0, "is_reserved": 0, "lat": 38.90344566666667, "fusion_lon": 0.0, "is_disabled": 0}, {"rental_uris": {"android": "https://dc.lft.to/lastmile_qr_scan", "ios": "https://dc.lft.to/lastmile_qr_scan"}, "type": "electric_scooter", "lon": -77.0277295, "name": "2228ec8c94a811b67bfc9793f22592ef", "bike_id": "2228ec8c94a811b67bfc9793f22592ef", "fusion_lat": 0.0, "is_reserved": 0, "lat": 38.89222133333333, "fusion_lon": 0.0, "is_disabled": 0}, {"rental_uris": {"android": "https://dc.lft.to/lastmile_qr_scan", "ios": "https://dc.lft.to/lastmile_qr_scan"}, "type": "electric_scooter", "lon": -77.031818, "name": "84c63926625fa992534c7c2bab091747", "bike_id": "84c63926625fa992534c7c2bab091747", "fusion_lat": 0.0, "is_reserved": 0, "lat": 38.91545, "fusion_lon": 0.0, "is_disabled": 0}, {"rental_uris": {"android": "https://dc.lft.to/lastmile_qr_scan", "ios": "https://dc.lft.to/lastmile_qr_scan"}, "type": "electric_scooter", "lon": -77.02496066666667, "name": "45ba01ca52db5230ef790f1fba9eda5d", "bike_id": "45ba01ca52db5230ef790f1fba9eda5d", "fusion_lat": 0.0, "is_reserved": 0, "lat": 38.932850333333334, "fusion_lon": 0.0, "is_disabled": 0}, {"rental_uris": {"android": "https://dc.lft.to/lastmile_qr_scan", "ios": "https://dc.lft.to/lastmile_qr_scan"}, "type": "electric_scooter", "lon": -77.03290616666666, "name": "c7e5e5f1b0bbdfd0415de806bf7ee029", "bike_id": "c7e5e5f1b0bbdfd0415de806bf7ee029", "fusion_lat": 0.0, "is_reserved": 0, "lat": 38.956506166666664, "fusion_lon": 0.0, "is_disabled": 0}, {"rental_uris": {"android": "https://dc.lft.to/lastmile_qr_scan", "ios": "https://dc.lft.to/lastmile_qr_scan"}, "type": "electric_scooter", "lon": -77.0314055, "name": "5941e93128da90ea664cb42d5f20366a", "bike_id": "5941e93128da90ea664cb42d5f20366a", "fusion_lat": 0.0, "is_reserved": 0, "lat": 38.912571666666665, "fusion_lon": 0.0, "is_disabled": 0}, {"rental_uris": {"android": "https://dc.lft.to/lastmile_qr_scan", "ios": "https://dc.lft.to/lastmile_qr_scan"}, "type": "electric_scooter", "lon": -77.02704616666666, "name": "c66681d60305ec682d173c23f7cce4d7", "bike_id": "c66681d60305ec682d173c23f7cce4d7", "fusion_lat": 0.0, "is_reserved": 0, "lat": 38.9045285, "fusion_lon": 0.0, "is_disabled": 0}, {"rental_uris": {"android": "https://dc.lft.to/lastmile_qr_scan", "ios": "https://dc.lft.to/lastmile_qr_scan"}, "type": "electric_scooter", "lon": -76.97825933333333, "name": "10fa11a392452285aad45b19af40cb19", "bike_id": "10fa11a392452285aad45b19af40cb19", "fusion_lat": 0.0, "is_reserved": 0, "lat": 38.89604033333333, "fusion_lon": 0.0, "is_disabled": 0}, {"rental_uris": {"android": "https://dc.lft.to/lastmile_qr_scan", "ios": "https://dc.lft.to/lastmile_qr_scan"}, "type": "electric_scooter", "lon": -77.04000683333334, "name": "98b2a8ffa90501b6dda382c991855a29", "bike_id": "98b2a8ffa90501b6dda382c991855a29", "fusion_lat": 0.0, "is_reserved": 0, "lat": 38.918019, "fusion_lon": 0.0, "is_disabled": 0}, {"rental_uris": {"android": "https://dc.lft.to/lastmile_qr_scan", "ios": "https://dc.lft.to/lastmile_qr_scan"}, "type": "electric_scooter", "lon": -77.039751, "name": "176cd3c29779c96afc96a0c8eb99b618", "bike_id": "176cd3c29779c96afc96a0c8eb99b618", "fusion_lat": 0.0, "is_reserved": 0, "lat": 38.91632766666667, "fusion_lon": 0.0, "is_disabled": 0}, {"rental_uris": {"android": "https://dc.lft.to/lastmile_qr_scan", "ios": "https://dc.lft.to/lastmile_qr_scan"}, "type": "electric_bike", "lon": -77.127377, "name": "94739f9b89eb4d6944bbac26ba287fd3", "bike_id": "94739f9b89eb4d6944bbac26ba287fd3", "fusion_lat": 0.0, "is_reserved": 0, "lat": 38.89564466666667, "fusion_lon": 0.0, "is_disabled": 0}, {"rental_uris": {"android": "https://dc.lft.to/lastmile_qr_scan", "ios": "https://dc.lft.to/lastmile_qr_scan"}, "type": "electric_scooter", "lon": -77.03645983333334, "name": "4f0d625a74e14c11dcf62f262e23797d", "bike_id": "4f0d625a74e14c11dcf62f262e23797d", "fusion_lat": 0.0, "is_reserved": 0, "lat": 38.9177205, "fusion_lon": 0.0, "is_disabled": 0}, {"rental_uris": {"android": "https://dc.lft.to/lastmile_qr_scan", "ios": "https://dc.lft.to/lastmile_qr_scan"}, "type": "electric_scooter", "lon": -77.01013883333333, "name": "30c116af68681ac3ac8300dc57f55d61", "bike_id": "30c116af68681ac3ac8300dc57f55d61", "fusion_lat": 0.0, "is_reserved": 0, "lat": 38.867168, "fusion_lon": 0.0, "is_disabled": 0}, {"rental_uris": {"android": "https://dc.lft.to/lastmile_qr_scan", "ios": "https://dc.lft.to/lastmile_qr_scan"}, "type": "electric_scooter", "lon": -77.04986083333333, "name": "f09f8b00fee61f4d527cd31f9dac0f9c", "bike_id": "f09f8b00fee61f4d527cd31f9dac0f9c", "fusion_lat": 0.0, "is_reserved": 0, "lat": 38.904091333333334, "fusion_lon": 0.0, "is_disabled": 0}, {"rental_uris": {"android": "https://dc.lft.to/lastmile_qr_scan", "ios": "https://dc.lft.to/lastmile_qr_scan"}, "type": "electric_scooter", "lon": -76.9937185, "name": "f936484bbc16707204d9368229a4418a", "bike_id": "f936484bbc16707204d9368229a4418a", "fusion_lat": 0.0, "is_reserved": 0, "lat": 38.90046916666667, "fusion_lon": 0.0, "is_disabled": 0}, {"rental_uris": {"android": "https://dc.lft.to/lastmile_qr_scan", "ios": "https://dc.lft.to/lastmile_qr_scan"}, "type": "electric_scooter", "lon": -76.98778833333333, "name": "8aa426f10bf7ca7ed4e7186df52fb242", "bike_id": "8aa426f10bf7ca7ed4e7186df52fb242", "fusion_lat": 0.0, "is_reserved": 0, "lat": 38.90030433333333, "fusion_lon": 0.0, "is_disabled": 0}, {"rental_uris": {"android": "https://dc.lft.to/lastmile_qr_scan", "ios": "https://dc.lft.to/lastmile_qr_scan"}, "type": "electric_scooter", "lon": -77.02964983333334, "name": "6b767ae15d279a6e618acf8216dab9a1", "bike_id": "6b767ae15d279a6e618acf8216dab9a1", "fusion_lat": 0.0, "is_reserved": 0, "lat": 38.932376, "fusion_lon": 0.0, "is_disabled": 0}, {"rental_uris": {"android": "https://dc.lft.to/lastmile_qr_scan", "ios": "https://dc.lft.to/lastmile_qr_scan"}, "type": "electric_scooter", "lon": -76.98778533333333, "name": "e535a2013d595e92bc901de150cfae89", "bike_id": "e535a2013d595e92bc901de150cfae89", "fusion_lat": 0.0, "is_reserved": 0, "lat": 38.90029416666667, "fusion_lon": 0.0, "is_disabled": 0}, {"rental_uris": {"android": "https://dc.lft.to/lastmile_qr_scan", "ios": "https://dc.lft.to/lastmile_qr_scan"}, "type": "electric_bike", "lon": -76.87768766666667, "name": "86b259827dd7d281e7e48ae0648c29b1", "bike_id": "86b259827dd7d281e7e48ae0648c29b1", "fusion_lat": 0.0, "is_reserved": 0, "lat": 38.992251333333336, "fusion_lon": 0.0, "is_disabled": 0}, {"rental_uris": {"android": "https://dc.lft.to/lastmile_qr_scan", "ios": "https://dc.lft.to/lastmile_qr_scan"}, "type": "electric_scooter", "lon": -77.0378145, "name": "2a9a183ecfb8862e4631814b1d252072", "bike_id": "2a9a183ecfb8862e4631814b1d252072", "fusion_lat": 0.0, "is_reserved": 0, "lat": 38.92616666666667, "fusion_lon": 0.0, "is_disabled": 0}, {"rental_uris": {"android": "https://dc.lft.to/lastmile_qr_scan", "ios": "https://dc.lft.to/lastmile_qr_scan"}, "type": "electric_scooter", "lon": -77.03304, "name": "383bc77c03d703e5d71f37c6afebcfdd", "bike_id": "383bc77c03d703e5d71f37c6afebcfdd", "fusion_lat": 0.0, "is_reserved": 0, "lat": 38.898909333333336, "fusion_lon": 0.0, "is_disabled": 0}, {"rental_uris": {"android": "https://dc.lft.to/lastmile_qr_scan", "ios": "https://dc.lft.to/lastmile_qr_scan"}, "type": "electric_bike", "lon": -76.96388016666667, "name": "0c31bf12abead9bf6c5a657a06952750", "bike_id": "0c31bf12abead9bf6c5a657a06952750", "fusion_lat": 0.0, "is_reserved": 0, "lat": 38.975776, "fusion_lon": 0.0, "is_disabled": 0}, {"rental_uris": {"android": "https://dc.lft.to/lastmile_qr_scan", "ios": "https://dc.lft.to/lastmile_qr_scan"}, "type": "electric_scooter", "lon": -77.02379166666667, "name": "60d605b742facbab90827741d4b046a6", "bike_id": "60d605b742facbab90827741d4b046a6", "fusion_lat": 0.0, "is_reserved": 0, "lat": 38.90432633333333, "fusion_lon": 0.0, "is_disabled": 0}, {"rental_uris": {"android": "https://dc.lft.to/lastmile_qr_scan", "ios": "https://dc.lft.to/lastmile_qr_scan"}, "type": "electric_bike", "lon": -76.9487005, "name": "b1861c92900fed138f57816677cf6b6d", "bike_id": "b1861c92900fed138f57816677cf6b6d", "fusion_lat": 0.0, "is_reserved": 0, "lat": 38.88968, "fusion_lon": 0.0, "is_disabled": 0}, {"rental_uris": {"android": "https://dc.lft.to/lastmile_qr_scan", "ios": "https://dc.lft.to/lastmile_qr_scan"}, "type": "electric_bike", "lon": -76.98523633333333, "name": "43576aa82ae2e8972c9659db085aa334", "bike_id": "43576aa82ae2e8972c9659db085aa334", "fusion_lat": 0.0, "is_reserved": 0, "lat": 38.919957333333336, "fusion_lon": 0.0, "is_disabled": 0}, {"rental_uris": {"android": "https://dc.lft.to/lastmile_qr_scan", "ios": "https://dc.lft.to/lastmile_qr_scan"}, "type": "electric_bike", "lon": -77.01201583333334, "name": "ad9419b7ef115ecef151309072600a3d", "bike_id": "ad9419b7ef115ecef151309072600a3d", "fusion_lat": 0.0, "is_reserved": 0, "lat": 38.9507135, "fusion_lon": 0.0, "is_disabled": 0}, {"rental_uris": {"android": "https://dc.lft.to/lastmile_qr_scan", "ios": "https://dc.lft.to/lastmile_qr_scan"}, "type": "electric_scooter", "lon": -76.99823916666666, "name": "43dd13d0924e5fcc4a098ca5acd67ebb", "bike_id": "43dd13d0924e5fcc4a098ca5acd67ebb", "fusion_lat": 0.0, "is_reserved": 0, "lat": 38.882684166666664, "fusion_lon": 0.0, "is_disabled": 0}, {"rental_uris": {"android": "https://dc.lft.to/lastmile_qr_scan", "ios": "https://dc.lft.to/lastmile_qr_scan"}, "type": "electric_scooter", "lon": -77.04684883333333, "name": "3f950f9a010b6e8857ab6ee589bff635", "bike_id": "3f950f9a010b6e8857ab6ee589bff635", "fusion_lat": 0.0, "is_reserved": 0, "lat": 38.915725, "fusion_lon": 0.0, "is_disabled": 0}, {"rental_uris": {"android": "https://dc.lft.to/lastmile_qr_scan", "ios": "https://dc.lft.to/lastmile_qr_scan"}, "type": "electric_bike", "lon": -77.04984866666666, "name": "f0fa9c3fcc9f0ab35825be70c1f04560", "bike_id": "f0fa9c3fcc9f0ab35825be70c1f04560", "fusion_lat": 0.0, "is_reserved": 0, "lat": 38.992383833333335, "fusion_lon": 0.0, "is_disabled": 0}, {"rental_uris": {"android": "https://dc.lft.to/lastmile_qr_scan", "ios": "https://dc.lft.to/lastmile_qr_scan"}, "type": "electric_scooter", "lon": -76.99032333333334, "name": "e9dd461e1f53bd3692a97a2993127761", "bike_id": "e9dd461e1f53bd3692a97a2993127761", "fusion_lat": 0.0, "is_reserved": 0, "lat": 38.923413333333336, "fusion_lon": 0.0, "is_disabled": 0}, {"rental_uris": {"android": "https://dc.lft.to/lastmile_qr_scan", "ios": "https://dc.lft.to/lastmile_qr_scan"}, "type": "electric_scooter", "lon": -77.03581983333333, "name": "cc645b7918d8d9ff48468ffdfc2089d1", "bike_id": "cc645b7918d8d9ff48468ffdfc2089d1", "fusion_lat": 0.0, "is_reserved": 0, "lat": 38.92875816666667, "fusion_lon": 0.0, "is_disabled": 0}, {"rental_uris": {"android": "https://dc.lft.to/lastmile_qr_scan", "ios": "https://dc.lft.to/lastmile_qr_scan"}, "type": "electric_bike", "lon": -77.19543016666667, "name": "176a8044c4e9fd3a57e6caaac8035cb2", "bike_id": "176a8044c4e9fd3a57e6caaac8035cb2", "fusion_lat": 0.0, "is_reserved": 0, "lat": 39.115086833333336, "fusion_lon": 0.0, "is_disabled": 0}, {"rental_uris": {"android": "https://dc.lft.to/lastmile_qr_scan", "ios": "https://dc.lft.to/lastmile_qr_scan"}, "type": "electric_bike", "lon": -76.96700483333333, "name": "f80594db1f48f64a045184b19f5255c6", "bike_id": "f80594db1f48f64a045184b19f5255c6", "fusion_lat": 0.0, "is_reserved": 0, "lat": 38.86849866666667, "fusion_lon": 0.0, "is_disabled": 0}, {"rental_uris": {"android": "https://dc.lft.to/lastmile_qr_scan", "ios": "https://dc.lft.to/lastmile_qr_scan"}, "type": "electric_scooter", "lon": -77.009207, "name": "2a05d704c6ea8a6218c9d9f205ff71f1", "bike_id": "2a05d704c6ea8a6218c9d9f205ff71f1", "fusion_lat": 0.0, "is_reserved": 0, "lat": 38.87634383333334, "fusion_lon": 0.0, "is_disabled": 0}, {"rental_uris": {"android": "https://dc.lft.to/lastmile_qr_scan", "ios": "https://dc.lft.to/lastmile_qr_scan"}, "type": "electric_scooter", "lon": -77.01159133333333, "name": "5fd44ea91585930cbeb911c12d23fc93", "bike_id": "5fd44ea91585930cbeb911c12d23fc93", "fusion_lat": 0.0, "is_reserved": 0, "lat": 38.90318716666667, "fusion_lon": 0.0, "is_disabled": 0}, {"rental_uris": {"android": "https://dc.lft.to/lastmile_qr_scan", "ios": "https://dc.lft.to/lastmile_qr_scan"}, "type": "electric_scooter", "lon": -77.0618985, "name": "90919033e9863d3b4ce857243f695531", "bike_id": "90919033e9863d3b4ce857243f695531", "fusion_lat": 0.0, "is_reserved": 0, "lat": 38.9301545, "fusion_lon": 0.0, "is_disabled": 0}, {"rental_uris": {"android": "https://dc.lft.to/lastmile_qr_scan", "ios": "https://dc.lft.to/lastmile_qr_scan"}, "type": "electric_bike", "lon": -77.143256, "name": "b7e8f35e1fd787b71462b65c228491da", "bike_id": "b7e8f35e1fd787b71462b65c228491da", "fusion_lat": 0.0, "is_reserved": 0, "lat": 39.0545605, "fusion_lon": 0.0, "is_disabled": 0}, {"rental_uris": {"android": "https://dc.lft.to/lastmile_qr_scan", "ios": "https://dc.lft.to/lastmile_qr_scan"}, "type": "electric_scooter", "lon": -77.0345375, "name": "87db682dfae36064cf8be80529fd4def", "bike_id": "87db682dfae36064cf8be80529fd4def", "fusion_lat": 0.0, "is_reserved": 0, "lat": 38.918178, "fusion_lon": 0.0, "is_disabled": 0}, {"rental_uris": {"android": "https://dc.lft.to/lastmile_qr_scan", "ios": "https://dc.lft.to/lastmile_qr_scan"}, "type": "electric_scooter", "lon": -76.990283, "name": "bc910212e67f8ab266bf8a7b0a0f8ae7", "bike_id": "bc910212e67f8ab266bf8a7b0a0f8ae7", "fusion_lat": 0.0, "is_reserved": 0, "lat": 38.86070083333333, "fusion_lon": 0.0, "is_disabled": 0}, {"rental_uris": {"android": "https://dc.lft.to/lastmile_qr_scan", "ios": "https://dc.lft.to/lastmile_qr_scan"}, "type": "electric_scooter", "lon": -76.98009966666666, "name": "f4c24191fe1398c2d96d6c4cc3589211", "bike_id": "f4c24191fe1398c2d96d6c4cc3589211", "fusion_lat": 0.0, "is_reserved": 0, "lat": 38.85316266666667, "fusion_lon": 0.0, "is_disabled": 0}, {"rental_uris": {"android": "https://dc.lft.to/lastmile_qr_scan", "ios": "https://dc.lft.to/lastmile_qr_scan"}, "type": "electric_scooter", "lon": -77.01439983333333, "name": "6a24c23e4bc84309a63054d940fb46ec", "bike_id": "6a24c23e4bc84309a63054d940fb46ec", "fusion_lat": 0.0, "is_reserved": 0, "lat": 38.877764666666664, "fusion_lon": 0.0, "is_disabled": 0}, {"rental_uris": {"android": "https://dc.lft.to/lastmile_qr_scan", "ios": "https://dc.lft.to/lastmile_qr_scan"}, "type": "electric_scooter", "lon": -77.02667366666667, "name": "c251837396194cd4b272f5fb905e51f1", "bike_id": "c251837396194cd4b272f5fb905e51f1", "fusion_lat": 0.0, "is_reserved": 0, "lat": 38.9287225, "fusion_lon": 0.0, "is_disabled": 0}, {"rental_uris": {"android": "https://dc.lft.to/lastmile_qr_scan", "ios": "https://dc.lft.to/lastmile_qr_scan"}, "type": "electric_scooter", "lon": -77.03154916666666, "name": "7a0cbdd14e3054c4a211a74c2c85d050", "bike_id": "7a0cbdd14e3054c4a211a74c2c85d050", "fusion_lat": 0.0, "is_reserved": 0, "lat": 38.927906666666665, "fusion_lon": 0.0, "is_disabled": 0}, {"rental_uris": {"android": "https://dc.lft.to/lastmile_qr_scan", "ios": "https://dc.lft.to/lastmile_qr_scan"}, "type": "electric_scooter", "lon": -77.034698, "name": "d0e1a7236df6512b79e01330109dbca7", "bike_id": "d0e1a7236df6512b79e01330109dbca7", "fusion_lat": 0.0, "is_reserved": 0, "lat": 38.9287135, "fusion_lon": 0.0, "is_disabled": 0}, {"rental_uris": {"android": "https://dc.lft.to/lastmile_qr_scan", "ios": "https://dc.lft.to/lastmile_qr_scan"}, "type": "electric_scooter", "lon": -77.02953066666667, "name": "3df9727a61f2a0f64f3e501059442002", "bike_id": "3df9727a61f2a0f64f3e501059442002", "fusion_lat": 0.0, "is_reserved": 0, "lat": 38.917187, "fusion_lon": 0.0, "is_disabled": 0}, {"rental_uris": {"android": "https://dc.lft.to/lastmile_qr_scan", "ios": "https://dc.lft.to/lastmile_qr_scan"}, "type": "electric_bike", "lon": -76.97945366666667, "name": "b2c375e39e868858bc354f4cc633f77d", "bike_id": "b2c375e39e868858bc354f4cc633f77d", "fusion_lat": 0.0, "is_reserved": 0, "lat": 38.89802666666667, "fusion_lon": 0.0, "is_disabled": 0}, {"rental_uris": {"android": "https://dc.lft.to/lastmile_qr_scan", "ios": "https://dc.lft.to/lastmile_qr_scan"}, "type": "electric_scooter", "lon": -76.94854733333334, "name": "d7d785d25defd0b55d627647fbd6164c", "bike_id": "d7d785d25defd0b55d627647fbd6164c", "fusion_lat": 0.0, "is_reserved": 0, "lat": 38.882988166666664, "fusion_lon": 0.0, "is_disabled": 0}, {"rental_uris": {"android": "https://dc.lft.to/lastmile_qr_scan", "ios": "https://dc.lft.to/lastmile_qr_scan"}, "type": "electric_scooter", "lon": -77.048598, "name": "6526dcc1643921499bab3d28d4e834cd", "bike_id": "6526dcc1643921499bab3d28d4e834cd", "fusion_lat": 0.0, "is_reserved": 0, "lat": 38.90644183333333, "fusion_lon": 0.0, "is_disabled": 0}, {"rental_uris": {"android": "https://dc.lft.to/lastmile_qr_scan", "ios": "https://dc.lft.to/lastmile_qr_scan"}, "type": "electric_bike", "lon": -77.34416333333333, "name": "e8b01eaf80ef68935a4ea82f8bfc86ee", "bike_id": "e8b01eaf80ef68935a4ea82f8bfc86ee", "fusion_lat": 0.0, "is_reserved": 0, "lat": 38.94600066666667, "fusion_lon": 0.0, "is_disabled": 0}, {"rental_uris": {"android": "https://dc.lft.to/lastmile_qr_scan", "ios": "https://dc.lft.to/lastmile_qr_scan"}, "type": "electric_scooter", "lon": -77.0458505, "name": "64dd68e5c9056f78aff82870b0f9af15", "bike_id": "64dd68e5c9056f78aff82870b0f9af15", "fusion_lat": 0.0, "is_reserved": 0, "lat": 38.921396666666666, "fusion_lon": 0.0, "is_disabled": 0}, {"rental_uris": {"android": "https://dc.lft.to/lastmile_qr_scan", "ios": "https://dc.lft.to/lastmile_qr_scan"}, "type": "electric_scooter", "lon": -77.0236375, "name": "3b279e3b73b7b8a5db6ffa4b1c82872c", "bike_id": "3b279e3b73b7b8a5db6ffa4b1c82872c", "fusion_lat": 0.0, "is_reserved": 0, "lat": 38.917849, "fusion_lon": 0.0, "is_disabled": 0}, {"rental_uris": {"android": "https://dc.lft.to/lastmile_qr_scan", "ios": "https://dc.lft.to/lastmile_qr_scan"}, "type": "electric_bike", "lon": -76.98831783333333, "name": "b8769f988182df54bd62ca2a867dab19", "bike_id": "b8769f988182df54bd62ca2a867dab19", "fusion_lat": 0.0, "is_reserved": 0, "lat": 38.98560716666667, "fusion_lon": 0.0, "is_disabled": 0}, {"rental_uris": {"android": "https://dc.lft.to/lastmile_qr_scan", "ios": "https://dc.lft.to/lastmile_qr_scan"}, "type": "electric_scooter", "lon": -77.04631583333334, "name": "fe8c3d59e597d26cdb289b52df9c7936", "bike_id": "fe8c3d59e597d26cdb289b52df9c7936", "fusion_lat": 0.0, "is_reserved": 0, "lat": 38.90060233333333, "fusion_lon": 0.0, "is_disabled": 0}, {"rental_uris": {"android": "https://dc.lft.to/lastmile_qr_scan", "ios": "https://dc.lft.to/lastmile_qr_scan"}, "type": "electric_scooter", "lon": -77.02546216666667, "name": "658bcbd6d0cfef9aa7f76a68bc44207a", "bike_id": "658bcbd6d0cfef9aa7f76a68bc44207a", "fusion_lat": 0.0, "is_reserved": 0, "lat": 38.92746066666667, "fusion_lon": 0.0, "is_disabled": 0}, {"rental_uris": {"android": "https://dc.lft.to/lastmile_qr_scan", "ios": "https://dc.lft.to/lastmile_qr_scan"}, "type": "electric_scooter", "lon": -77.0235035, "name": "36e100a1f9b9da419579515d7f11dbd8", "bike_id": "36e100a1f9b9da419579515d7f11dbd8", "fusion_lat": 0.0, "is_reserved": 0, "lat": 38.93320633333333, "fusion_lon": 0.0, "is_disabled": 0}, {"rental_uris": {"android": "https://dc.lft.to/lastmile_qr_scan", "ios": "https://dc.lft.to/lastmile_qr_scan"}, "type": "electric_scooter", "lon": -77.0234875, "name": "c110295a29e9c5e902f9778165141941", "bike_id": "c110295a29e9c5e902f9778165141941", "fusion_lat": 0.0, "is_reserved": 0, "lat": 38.929879666666665, "fusion_lon": 0.0, "is_disabled": 0}, {"rental_uris": {"android": "https://dc.lft.to/lastmile_qr_scan", "ios": "https://dc.lft.to/lastmile_qr_scan"}, "type": "electric_scooter", "lon": -77.05012783333333, "name": "6714e9a15064c63b472660842cb8465d", "bike_id": "6714e9a15064c63b472660842cb8465d", "fusion_lat": 0.0, "is_reserved": 0, "lat": 38.892349333333335, "fusion_lon": 0.0, "is_disabled": 0}, {"rental_uris": {"android": "https://dc.lft.to/lastmile_qr_scan", "ios": "https://dc.lft.to/lastmile_qr_scan"}, "type": "electric_scooter", "lon": -77.02552683333333, "name": "ab2d7e911c8ccd0e88e0daf4ad06182f", "bike_id": "ab2d7e911c8ccd0e88e0daf4ad06182f", "fusion_lat": 0.0, "is_reserved": 0, "lat": 38.935144333333334, "fusion_lon": 0.0, "is_disabled": 0}, {"rental_uris": {"android": "https://dc.lft.to/lastmile_qr_scan", "ios": "https://dc.lft.to/lastmile_qr_scan"}, "type": "electric_scooter", "lon": -77.03275066666667, "name": "0f2fb303ca3690e98f2fc2f6b5940382", "bike_id": "0f2fb303ca3690e98f2fc2f6b5940382", "fusion_lat": 0.0, "is_reserved": 0, "lat": 38.92456383333333, "fusion_lon": 0.0, "is_disabled": 0}, {"rental_uris": {"android": "https://dc.lft.to/lastmile_qr_scan", "ios": "https://dc.lft.to/lastmile_qr_scan"}, "type": "electric_scooter", "lon": -77.048487, "name": "a6140207d4d9b945ab470d0ddedc7976", "bike_id": "a6140207d4d9b945ab470d0ddedc7976", "fusion_lat": 0.0, "is_reserved": 0, "lat": 38.90059216666667, "fusion_lon": 0.0, "is_disabled": 0}, {"rental_uris": {"android": "https://dc.lft.to/lastmile_qr_scan", "ios": "https://dc.lft.to/lastmile_qr_scan"}, "type": "electric_scooter", "lon": -77.021827, "name": "d99ea2ab7267e2d72bd6934692279251", "bike_id": "d99ea2ab7267e2d72bd6934692279251", "fusion_lat": 0.0, "is_reserved": 0, "lat": 38.892282, "fusion_lon": 0.0, "is_disabled": 0}, {"rental_uris": {"android": "https://dc.lft.to/lastmile_qr_scan", "ios": "https://dc.lft.to/lastmile_qr_scan"}, "type": "electric_bike", "lon": -77.09967183333333, "name": "35d2784ce83d70e92dbba4d0026997d8", "bike_id": "35d2784ce83d70e92dbba4d0026997d8", "fusion_lat": 0.0, "is_reserved": 0, "lat": 38.857877, "fusion_lon": 0.0, "is_disabled": 0}, {"rental_uris": {"android": "https://dc.lft.to/lastmile_qr_scan", "ios": "https://dc.lft.to/lastmile_qr_scan"}, "type": "electric_scooter", "lon": -77.03858533333333, "name": "136a63f3300e20e3573acdaef2af6ebc", "bike_id": "136a63f3300e20e3573acdaef2af6ebc", "fusion_lat": 0.0, "is_reserved": 0, "lat": 38.9128145, "fusion_lon": 0.0, "is_disabled": 0}, {"rental_uris": {"android": "https://dc.lft.to/lastmile_qr_scan", "ios": "https://dc.lft.to/lastmile_qr_scan"}, "type": "electric_scooter", "lon": -77.01986133333334, "name": "fadf17da040b7482b5f5d894ca9ca954", "bike_id": "fadf17da040b7482b5f5d894ca9ca954", "fusion_lat": 0.0, "is_reserved": 0, "lat": 38.900312, "fusion_lon": 0.0, "is_disabled": 0}, {"rental_uris": {"android": "https://dc.lft.to/lastmile_qr_scan", "ios": "https://dc.lft.to/lastmile_qr_scan"}, "type": "electric_scooter", "lon": -77.06165216666666, "name": "cf4efc8e6db755518702a8f36704ba27", "bike_id": "cf4efc8e6db755518702a8f36704ba27", "fusion_lat": 0.0, "is_reserved": 0, "lat": 38.942220666666664, "fusion_lon": 0.0, "is_disabled": 0}, {"rental_uris": {"android": "https://dc.lft.to/lastmile_qr_scan", "ios": "https://dc.lft.to/lastmile_qr_scan"}, "type": "electric_scooter", "lon": -76.987017, "name": "19f83e14eb45e03ead339ef99347ad41", "bike_id": "19f83e14eb45e03ead339ef99347ad41", "fusion_lat": 0.0, "is_reserved": 0, "lat": 38.855627, "fusion_lon": 0.0, "is_disabled": 0}, {"rental_uris": {"android": "https://dc.lft.to/lastmile_qr_scan", "ios": "https://dc.lft.to/lastmile_qr_scan"}, "type": "electric_scooter", "lon": -76.987746, "name": "9c1df9433f4cf522c19f7cc63ae553ce", "bike_id": "9c1df9433f4cf522c19f7cc63ae553ce", "fusion_lat": 0.0, "is_reserved": 0, "lat": 38.911717333333335, "fusion_lon": 0.0, "is_disabled": 0}, {"rental_uris": {"android": "https://dc.lft.to/lastmile_qr_scan", "ios": "https://dc.lft.to/lastmile_qr_scan"}, "type": "electric_scooter", "lon": -77.04357733333333, "name": "adb9580f5bdf38c19bdf5310e5b10c79", "bike_id": "adb9580f5bdf38c19bdf5310e5b10c79", "fusion_lat": 0.0, "is_reserved": 0, "lat": 38.92156716666667, "fusion_lon": 0.0, "is_disabled": 0}, {"rental_uris": {"android": "https://dc.lft.to/lastmile_qr_scan", "ios": "https://dc.lft.to/lastmile_qr_scan"}, "type": "electric_scooter", "lon": -77.03998, "name": "8911ac5e8fbc50f4b5868930891af549", "bike_id": "8911ac5e8fbc50f4b5868930891af549", "fusion_lat": 0.0, "is_reserved": 0, "lat": 38.91419233333333, "fusion_lon": 0.0, "is_disabled": 0}, {"rental_uris": {"android": "https://dc.lft.to/lastmile_qr_scan", "ios": "https://dc.lft.to/lastmile_qr_scan"}, "type": "electric_scooter", "lon": -77.0215185, "name": "1d48ddf8e3da8a819bb0719108e78291", "bike_id": "1d48ddf8e3da8a819bb0719108e78291", "fusion_lat": 0.0, "is_reserved": 0, "lat": 38.87912466666667, "fusion_lon": 0.0, "is_disabled": 0}, {"rental_uris": {"android": "https://dc.lft.to/lastmile_qr_scan", "ios": "https://dc.lft.to/lastmile_qr_scan"}, "type": "electric_scooter", "lon": -77.02453966666667, "name": "d2d49f251fc164761f8a1fe533ebf6e5", "bike_id": "d2d49f251fc164761f8a1fe533ebf6e5", "fusion_lat": 0.0, "is_reserved": 0, "lat": 38.8836175, "fusion_lon": 0.0, "is_disabled": 0}, {"rental_uris": {"android": "https://dc.lft.to/lastmile_qr_scan", "ios": "https://dc.lft.to/lastmile_qr_scan"}, "type": "electric_scooter", "lon": -77.04999283333333, "name": "95f6f1826534ec0f801aa4f5897b246b", "bike_id": "95f6f1826534ec0f801aa4f5897b246b", "fusion_lat": 0.0, "is_reserved": 0, "lat": 38.90535933333334, "fusion_lon": 0.0, "is_disabled": 0}, {"rental_uris": {"android": "https://dc.lft.to/lastmile_qr_scan", "ios": "https://dc.lft.to/lastmile_qr_scan"}, "type": "electric_scooter", "lon": -77.0417075, "name": "c5687cf3cddfbd36c2f60bf406bae63f", "bike_id": "c5687cf3cddfbd36c2f60bf406bae63f", "fusion_lat": 0.0, "is_reserved": 0, "lat": 38.91587216666667, "fusion_lon": 0.0, "is_disabled": 0}, {"rental_uris": {"android": "https://dc.lft.to/lastmile_qr_scan", "ios": "https://dc.lft.to/lastmile_qr_scan"}, "type": "electric_scooter", "lon": -76.9945065, "name": "ff602990ee78150b54d892bfd014b6e0", "bike_id": "ff602990ee78150b54d892bfd014b6e0", "fusion_lat": 0.0, "is_reserved": 0, "lat": 38.87658166666667, "fusion_lon": 0.0, "is_disabled": 0}, {"rental_uris": {"android": "https://dc.lft.to/lastmile_qr_scan", "ios": "https://dc.lft.to/lastmile_qr_scan"}, "type": "electric_scooter", "lon": -76.931571, "name": "f76f8ffc5ed7a0c9c7d1ce8825728e94", "bike_id": "f76f8ffc5ed7a0c9c7d1ce8825728e94", "fusion_lat": 0.0, "is_reserved": 0, "lat": 38.89879216666667, "fusion_lon": 0.0, "is_disabled": 0}, {"rental_uris": {"android": "https://dc.lft.to/lastmile_qr_scan", "ios": "https://dc.lft.to/lastmile_qr_scan"}, "type": "electric_bike", "lon": -76.9688115, "name": "268a3b8c736bce53091665102feb17b7", "bike_id": "268a3b8c736bce53091665102feb17b7", "fusion_lat": 0.0, "is_reserved": 0, "lat": 38.84602533333333, "fusion_lon": 0.0, "is_disabled": 0}, {"rental_uris": {"android": "https://dc.lft.to/lastmile_qr_scan", "ios": "https://dc.lft.to/lastmile_qr_scan"}, "type": "electric_scooter", "lon": -77.0658635, "name": "2b82c22885dce4baf012965cbfcd0fb6", "bike_id": "2b82c22885dce4baf012965cbfcd0fb6", "fusion_lat": 0.0, "is_reserved": 0, "lat": 38.913667, "fusion_lon": 0.0, "is_disabled": 0}, {"rental_uris": {"android": "https://dc.lft.to/lastmile_qr_scan", "ios": "https://dc.lft.to/lastmile_qr_scan"}, "type": "electric_scooter", "lon": -77.02406933333333, "name": "510c610139f99426d1781c18d242c0ff", "bike_id": "510c610139f99426d1781c18d242c0ff", "fusion_lat": 0.0, "is_reserved": 0, "lat": 38.9168545, "fusion_lon": 0.0, "is_disabled": 0}, {"rental_uris": {"android": "https://dc.lft.to/lastmile_qr_scan", "ios": "https://dc.lft.to/lastmile_qr_scan"}, "type": "electric_bike", "lon": -77.12743333333333, "name": "bb1661670ce1c4ddb5e1b479e3d08d23", "bike_id": "bb1661670ce1c4ddb5e1b479e3d08d23", "fusion_lat": 0.0, "is_reserved": 0, "lat": 38.888246, "fusion_lon": 0.0, "is_disabled": 0}, {"rental_uris": {"android": "https://dc.lft.to/lastmile_qr_scan", "ios": "https://dc.lft.to/lastmile_qr_scan"}, "type": "electric_scooter", "lon": -77.02390766666667, "name": "e33b0e6c3bb8e20bce094d37bde915d8", "bike_id": "e33b0e6c3bb8e20bce094d37bde915d8", "fusion_lat": 0.0, "is_reserved": 0, "lat": 38.88738683333333, "fusion_lon": 0.0, "is_disabled": 0}, {"rental_uris": {"android": "https://dc.lft.to/lastmile_qr_scan", "ios": "https://dc.lft.to/lastmile_qr_scan"}, "type": "electric_scooter", "lon": -76.94116966666667, "name": "a6d23a7f22fb71b2a39f5eb8c0e7ae83", "bike_id": "a6d23a7f22fb71b2a39f5eb8c0e7ae83", "fusion_lat": 0.0, "is_reserved": 0, "lat": 38.90789183333333, "fusion_lon": 0.0, "is_disabled": 0}, {"rental_uris": {"android": "https://dc.lft.to/lastmile_qr_scan", "ios": "https://dc.lft.to/lastmile_qr_scan"}, "type": "electric_scooter", "lon": -77.03525116666667, "name": "469bcdc8cb4b1ef51c3e6550485d5407", "bike_id": "469bcdc8cb4b1ef51c3e6550485d5407", "fusion_lat": 0.0, "is_reserved": 0, "lat": 38.923308, "fusion_lon": 0.0, "is_disabled": 0}, {"rental_uris": {"android": "https://dc.lft.to/lastmile_qr_scan", "ios": "https://dc.lft.to/lastmile_qr_scan"}, "type": "electric_scooter", "lon": -77.02404916666667, "name": "acc28d00e7508823143b1713118f0482", "bike_id": "acc28d00e7508823143b1713118f0482", "fusion_lat": 0.0, "is_reserved": 0, "lat": 38.92084716666667, "fusion_lon": 0.0, "is_disabled": 0}, {"rental_uris": {"android": "https://dc.lft.to/lastmile_qr_scan", "ios": "https://dc.lft.to/lastmile_qr_scan"}, "type": "electric_scooter", "lon": -77.04166733333334, "name": "1a67a79af8e95082fe7c278b543e8aa6", "bike_id": "1a67a79af8e95082fe7c278b543e8aa6", "fusion_lat": 0.0, "is_reserved": 0, "lat": 38.91589333333334, "fusion_lon": 0.0, "is_disabled": 0}, {"rental_uris": {"android": "https://dc.lft.to/lastmile_qr_scan", "ios": "https://dc.lft.to/lastmile_qr_scan"}, "type": "electric_scooter", "lon": -76.97464, "name": "4bed8e9676b4bfc88e4f8bb2490fcd83", "bike_id": "4bed8e9676b4bfc88e4f8bb2490fcd83", "fusion_lat": 0.0, "is_reserved": 0, "lat": 38.883957, "fusion_lon": 0.0, "is_disabled": 0}, {"rental_uris": {"android": "https://dc.lft.to/lastmile_qr_scan", "ios": "https://dc.lft.to/lastmile_qr_scan"}, "type": "electric_scooter", "lon": -77.03442733333333, "name": "7e2abd6d6a311019edc32f5e98510f21", "bike_id": "7e2abd6d6a311019edc32f5e98510f21", "fusion_lat": 0.0, "is_reserved": 0, "lat": 38.90275233333333, "fusion_lon": 0.0, "is_disabled": 0}, {"rental_uris": {"android": "https://dc.lft.to/lastmile_qr_scan", "ios": "https://dc.lft.to/lastmile_qr_scan"}, "type": "electric_scooter", "lon": -77.0269775, "name": "42d9d67538ce7fdc421a92ccfc2b6974", "bike_id": "42d9d67538ce7fdc421a92ccfc2b6974", "fusion_lat": 0.0, "is_reserved": 0, "lat": 38.908424833333335, "fusion_lon": 0.0, "is_disabled": 0}, {"rental_uris": {"android": "https://dc.lft.to/lastmile_qr_scan", "ios": "https://dc.lft.to/lastmile_qr_scan"}, "type": "electric_scooter", "lon": -76.94718916666666, "name": "ab1c03a69aa33c52fba90657663bca76", "bike_id": "ab1c03a69aa33c52fba90657663bca76", "fusion_lat": 0.0, "is_reserved": 0, "lat": 38.89735366666667, "fusion_lon": 0.0, "is_disabled": 0}, {"rental_uris": {"android": "https://dc.lft.to/lastmile_qr_scan", "ios": "https://dc.lft.to/lastmile_qr_scan"}, "type": "electric_scooter", "lon": -77.03337433333333, "name": "3bc0820d22b468021de821200bcd1055", "bike_id": "3bc0820d22b468021de821200bcd1055", "fusion_lat": 0.0, "is_reserved": 0, "lat": 38.90365583333333, "fusion_lon": 0.0, "is_disabled": 0}, {"rental_uris": {"android": "https://dc.lft.to/lastmile_qr_scan", "ios": "https://dc.lft.to/lastmile_qr_scan"}, "type": "electric_scooter", "lon": -76.99167316666667, "name": "84c278e18f3c6ca4b4b63f3be2837bb9", "bike_id": "84c278e18f3c6ca4b4b63f3be2837bb9", "fusion_lat": 0.0, "is_reserved": 0, "lat": 38.879243833333334, "fusion_lon": 0.0, "is_disabled": 0}, {"rental_uris": {"android": "https://dc.lft.to/lastmile_qr_scan", "ios": "https://dc.lft.to/lastmile_qr_scan"}, "type": "electric_bike", "lon": -77.01685233333333, "name": "f812354d17678f5a82065ec571d3c633", "bike_id": "f812354d17678f5a82065ec571d3c633", "fusion_lat": 0.0, "is_reserved": 0, "lat": 38.97527766666666, "fusion_lon": 0.0, "is_disabled": 0}, {"rental_uris": {"android": "https://dc.lft.to/lastmile_qr_scan", "ios": "https://dc.lft.to/lastmile_qr_scan"}, "type": "electric_bike", "lon": -77.0647745, "name": "aa64f271497dfd1622942aed6ddc659e", "bike_id": "aa64f271497dfd1622942aed6ddc659e", "fusion_lat": 0.0, "is_reserved": 0, "lat": 38.9738075, "fusion_lon": 0.0, "is_disabled": 0}, {"rental_uris": {"android": "https://dc.lft.to/lastmile_qr_scan", "ios": "https://dc.lft.to/lastmile_qr_scan"}, "type": "electric_scooter", "lon": -76.99504633333333, "name": "284b8992967f81a33f8fd8f75f41af58", "bike_id": "284b8992967f81a33f8fd8f75f41af58", "fusion_lat": 0.0, "is_reserved": 0, "lat": 38.926726333333335, "fusion_lon": 0.0, "is_disabled": 0}, {"rental_uris": {"android": "https://dc.lft.to/lastmile_qr_scan", "ios": "https://dc.lft.to/lastmile_qr_scan"}, "type": "electric_scooter", "lon": -77.0121355, "name": "6e8b07a8e6e31e1533eacbd692282b8b", "bike_id": "6e8b07a8e6e31e1533eacbd692282b8b", "fusion_lat": 0.0, "is_reserved": 0, "lat": 38.90666083333333, "fusion_lon": 0.0, "is_disabled": 0}, {"rental_uris": {"android": "https://dc.lft.to/lastmile_qr_scan", "ios": "https://dc.lft.to/lastmile_qr_scan"}, "type": "electric_scooter", "lon": -77.01056766666666, "name": "148b09310f18ae3dfb306721643f9d01", "bike_id": "148b09310f18ae3dfb306721643f9d01", "fusion_lat": 0.0, "is_reserved": 0, "lat": 38.929906333333335, "fusion_lon": 0.0, "is_disabled": 0}, {"rental_uris": {"android": "https://dc.lft.to/lastmile_qr_scan", "ios": "https://dc.lft.to/lastmile_qr_scan"}, "type": "electric_scooter", "lon": -76.9914205, "name": "e687d6b46497d1380bdd131b94e4d5b4", "bike_id": "e687d6b46497d1380bdd131b94e4d5b4", "fusion_lat": 0.0, "is_reserved": 0, "lat": 38.882166833333336, "fusion_lon": 0.0, "is_disabled": 0}, {"rental_uris": {"android": "https://dc.lft.to/lastmile_qr_scan", "ios": "https://dc.lft.to/lastmile_qr_scan"}, "type": "electric_scooter", "lon": -77.04322183333333, "name": "917c5e43379cb41b2e0ee27d72de34cb", "bike_id": "917c5e43379cb41b2e0ee27d72de34cb", "fusion_lat": 0.0, "is_reserved": 0, "lat": 38.892211833333334, "fusion_lon": 0.0, "is_disabled": 0}, {"rental_uris": {"android": "https://dc.lft.to/lastmile_qr_scan", "ios": "https://dc.lft.to/lastmile_qr_scan"}, "type": "electric_scooter", "lon": -77.03837233333333, "name": "3ec27b52f717f3fa3fc894bbcb8b8dd7", "bike_id": "3ec27b52f717f3fa3fc894bbcb8b8dd7", "fusion_lat": 0.0, "is_reserved": 0, "lat": 38.91559983333333, "fusion_lon": 0.0, "is_disabled": 0}, {"rental_uris": {"android": "https://dc.lft.to/lastmile_qr_scan", "ios": "https://dc.lft.to/lastmile_qr_scan"}, "type": "electric_scooter", "lon": -77.04670783333333, "name": "61a605d52445b0db6b8e61380ad139a7", "bike_id": "61a605d52445b0db6b8e61380ad139a7", "fusion_lat": 0.0, "is_reserved": 0, "lat": 38.90844516666667, "fusion_lon": 0.0, "is_disabled": 0}, {"rental_uris": {"android": "https://dc.lft.to/lastmile_qr_scan", "ios": "https://dc.lft.to/lastmile_qr_scan"}, "type": "electric_scooter", "lon": -77.04231716666666, "name": "09d387341391dcd31d8d8227fb0304e1", "bike_id": "09d387341391dcd31d8d8227fb0304e1", "fusion_lat": 0.0, "is_reserved": 0, "lat": 38.9110635, "fusion_lon": 0.0, "is_disabled": 0}, {"rental_uris": {"android": "https://dc.lft.to/lastmile_qr_scan", "ios": "https://dc.lft.to/lastmile_qr_scan"}, "type": "electric_scooter", "lon": -76.99459316666666, "name": "4a1f1d11c55e6d862ba2a12f4f62fc30", "bike_id": "4a1f1d11c55e6d862ba2a12f4f62fc30", "fusion_lat": 0.0, "is_reserved": 0, "lat": 38.922834333333334, "fusion_lon": 0.0, "is_disabled": 0}, {"rental_uris": {"android": "https://dc.lft.to/lastmile_qr_scan", "ios": "https://dc.lft.to/lastmile_qr_scan"}, "type": "electric_bike", "lon": -77.01765866666666, "name": "a9adf5767d6d38eedb70172c88bf7c80", "bike_id": "a9adf5767d6d38eedb70172c88bf7c80", "fusion_lat": 0.0, "is_reserved": 0, "lat": 38.88528483333333, "fusion_lon": 0.0, "is_disabled": 0}, {"rental_uris": {"android": "https://dc.lft.to/lastmile_qr_scan", "ios": "https://dc.lft.to/lastmile_qr_scan"}, "type": "electric_scooter", "lon": -77.04861266666667, "name": "4a72a875f35139f3abfb3d5c653ff72c", "bike_id": "4a72a875f35139f3abfb3d5c653ff72c", "fusion_lat": 0.0, "is_reserved": 0, "lat": 38.90297, "fusion_lon": 0.0, "is_disabled": 0}, {"rental_uris": {"android": "https://dc.lft.to/lastmile_qr_scan", "ios": "https://dc.lft.to/lastmile_qr_scan"}, "type": "electric_scooter", "lon": -77.03929983333333, "name": "958ff1353379f8a7d704401d367a5e46", "bike_id": "958ff1353379f8a7d704401d367a5e46", "fusion_lat": 0.0, "is_reserved": 0, "lat": 38.908321666666666, "fusion_lon": 0.0, "is_disabled": 0}, {"rental_uris": {"android": "https://dc.lft.to/lastmile_qr_scan", "ios": "https://dc.lft.to/lastmile_qr_scan"}, "type": "electric_scooter", "lon": -77.03285516666666, "name": "3d76370838375ca5236256ba5cb76466", "bike_id": "3d76370838375ca5236256ba5cb76466", "fusion_lat": 0.0, "is_reserved": 0, "lat": 38.92837383333333, "fusion_lon": 0.0, "is_disabled": 0}, {"rental_uris": {"android": "https://dc.lft.to/lastmile_qr_scan", "ios": "https://dc.lft.to/lastmile_qr_scan"}, "type": "electric_bike", "lon": -76.94621533333333, "name": "0465b779b417a791cc763bc78e05bed1", "bike_id": "0465b779b417a791cc763bc78e05bed1", "fusion_lat": 0.0, "is_reserved": 0, "lat": 38.832327166666666, "fusion_lon": 0.0, "is_disabled": 0}, {"rental_uris": {"android": "https://dc.lft.to/lastmile_qr_scan", "ios": "https://dc.lft.to/lastmile_qr_scan"}, "type": "electric_scooter", "lon": -77.053322, "name": "c3466f11e8e8a27a095e7c7fbae1d06e", "bike_id": "c3466f11e8e8a27a095e7c7fbae1d06e", "fusion_lat": 0.0, "is_reserved": 0, "lat": 38.906699833333334, "fusion_lon": 0.0, "is_disabled": 0}, {"rental_uris": {"android": "https://dc.lft.to/lastmile_qr_scan", "ios": "https://dc.lft.to/lastmile_qr_scan"}, "type": "electric_scooter", "lon": -77.02726016666666, "name": "aa9933bb3aee8dbf827ced6457138cd6", "bike_id": "aa9933bb3aee8dbf827ced6457138cd6", "fusion_lat": 0.0, "is_reserved": 0, "lat": 38.95130866666667, "fusion_lon": 0.0, "is_disabled": 0}, {"rental_uris": {"android": "https://dc.lft.to/lastmile_qr_scan", "ios": "https://dc.lft.to/lastmile_qr_scan"}, "type": "electric_scooter", "lon": -77.03796733333333, "name": "29c436882a525194e23695ca91c47346", "bike_id": "29c436882a525194e23695ca91c47346", "fusion_lat": 0.0, "is_reserved": 0, "lat": 38.933171333333334, "fusion_lon": 0.0, "is_disabled": 0}, {"rental_uris": {"android": "https://dc.lft.to/lastmile_qr_scan", "ios": "https://dc.lft.to/lastmile_qr_scan"}, "type": "electric_scooter", "lon": -77.02578316666667, "name": "2bed15ab6484c479929cc1740688b884", "bike_id": "2bed15ab6484c479929cc1740688b884", "fusion_lat": 0.0, "is_reserved": 0, "lat": 38.92505716666667, "fusion_lon": 0.0, "is_disabled": 0}, {"rental_uris": {"android": "https://dc.lft.to/lastmile_qr_scan", "ios": "https://dc.lft.to/lastmile_qr_scan"}, "type": "electric_scooter", "lon": -76.98772816666667, "name": "182e89e137616ec65651f658b114f99b", "bike_id": "182e89e137616ec65651f658b114f99b", "fusion_lat": 0.0, "is_reserved": 0, "lat": 38.883098833333335, "fusion_lon": 0.0, "is_disabled": 0}, {"rental_uris": {"android": "https://dc.lft.to/lastmile_qr_scan", "ios": "https://dc.lft.to/lastmile_qr_scan"}, "type": "electric_scooter", "lon": -77.01363266666667, "name": "6b9c9e3d9c82c5a5ec9d1aaf299ca08e", "bike_id": "6b9c9e3d9c82c5a5ec9d1aaf299ca08e", "fusion_lat": 0.0, "is_reserved": 0, "lat": 38.9192625, "fusion_lon": 0.0, "is_disabled": 0}, {"rental_uris": {"android": "https://dc.lft.to/lastmile_qr_scan", "ios": "https://dc.lft.to/lastmile_qr_scan"}, "type": "electric_scooter", "lon": -76.9936775, "name": "7b359d7983f78079033d56a0ec8b1260", "bike_id": "7b359d7983f78079033d56a0ec8b1260", "fusion_lat": 0.0, "is_reserved": 0, "lat": 38.92839566666667, "fusion_lon": 0.0, "is_disabled": 0}, {"rental_uris": {"android": "https://dc.lft.to/lastmile_qr_scan", "ios": "https://dc.lft.to/lastmile_qr_scan"}, "type": "electric_bike", "lon": -76.95808916666667, "name": "fcd6ddef12e4f17599b5cbdd2d6f367e", "bike_id": "fcd6ddef12e4f17599b5cbdd2d6f367e", "fusion_lat": 0.0, "is_reserved": 0, "lat": 38.980475, "fusion_lon": 0.0, "is_disabled": 0}, {"rental_uris": {"android": "https://dc.lft.to/lastmile_qr_scan", "ios": "https://dc.lft.to/lastmile_qr_scan"}, "type": "electric_scooter", "lon": -76.99403566666666, "name": "2818701737a8220219a800848ca251ef", "bike_id": "2818701737a8220219a800848ca251ef", "fusion_lat": 0.0, "is_reserved": 0, "lat": 38.92263766666667, "fusion_lon": 0.0, "is_disabled": 0}, {"rental_uris": {"android": "https://dc.lft.to/lastmile_qr_scan", "ios": "https://dc.lft.to/lastmile_qr_scan"}, "type": "electric_scooter", "lon": -76.9907725, "name": "3019d9025a22b2f46c2a6d9453dbb631", "bike_id": "3019d9025a22b2f46c2a6d9453dbb631", "fusion_lat": 0.0, "is_reserved": 0, "lat": 38.86053066666667, "fusion_lon": 0.0, "is_disabled": 0}, {"rental_uris": {"android": "https://dc.lft.to/lastmile_qr_scan", "ios": "https://dc.lft.to/lastmile_qr_scan"}, "type": "electric_scooter", "lon": -77.015036, "name": "9ff9e98466c2aa8c327262b7752278cb", "bike_id": "9ff9e98466c2aa8c327262b7752278cb", "fusion_lat": 0.0, "is_reserved": 0, "lat": 38.90041816666667, "fusion_lon": 0.0, "is_disabled": 0}, {"rental_uris": {"android": "https://dc.lft.to/lastmile_qr_scan", "ios": "https://dc.lft.to/lastmile_qr_scan"}, "type": "electric_scooter", "lon": -77.04349666666667, "name": "55b9fc762f2513281034854affac36d2", "bike_id": "55b9fc762f2513281034854affac36d2", "fusion_lat": 0.0, "is_reserved": 0, "lat": 38.9085845, "fusion_lon": 0.0, "is_disabled": 0}, {"rental_uris": {"android": "https://dc.lft.to/lastmile_qr_scan", "ios": "https://dc.lft.to/lastmile_qr_scan"}, "type": "electric_scooter", "lon": -76.99940433333333, "name": "eb94279066bfd7666f2caf5245ee21db", "bike_id": "eb94279066bfd7666f2caf5245ee21db", "fusion_lat": 0.0, "is_reserved": 0, "lat": 38.843179666666664, "fusion_lon": 0.0, "is_disabled": 0}, {"rental_uris": {"android": "https://dc.lft.to/lastmile_qr_scan", "ios": "https://dc.lft.to/lastmile_qr_scan"}, "type": "electric_scooter", "lon": -77.01995433333333, "name": "26c85de61f7c7267f00f3a3259247e62", "bike_id": "26c85de61f7c7267f00f3a3259247e62", "fusion_lat": 0.0, "is_reserved": 0, "lat": 38.96637283333333, "fusion_lon": 0.0, "is_disabled": 0}, {"rental_uris": {"android": "https://dc.lft.to/lastmile_qr_scan", "ios": "https://dc.lft.to/lastmile_qr_scan"}, "type": "electric_scooter", "lon": -77.04663533333333, "name": "e037e1608e330eda74ed4684a025ffd0", "bike_id": "e037e1608e330eda74ed4684a025ffd0", "fusion_lat": 0.0, "is_reserved": 0, "lat": 38.90009283333333, "fusion_lon": 0.0, "is_disabled": 0}, {"rental_uris": {"android": "https://dc.lft.to/lastmile_qr_scan", "ios": "https://dc.lft.to/lastmile_qr_scan"}, "type": "electric_scooter", "lon": -76.99004666666667, "name": "89188ff351ad98a119e54936e6c0d8e2", "bike_id": "89188ff351ad98a119e54936e6c0d8e2", "fusion_lat": 0.0, "is_reserved": 0, "lat": 38.86503883333334, "fusion_lon": 0.0, "is_disabled": 0}, {"rental_uris": {"android": "https://dc.lft.to/lastmile_qr_scan", "ios": "https://dc.lft.to/lastmile_qr_scan"}, "type": "electric_scooter", "lon": -77.04500916666667, "name": "642013165c3e62e70f1f507619630887", "bike_id": "642013165c3e62e70f1f507619630887", "fusion_lat": 0.0, "is_reserved": 0, "lat": 38.9185065, "fusion_lon": 0.0, "is_disabled": 0}, {"rental_uris": {"android": "https://dc.lft.to/lastmile_qr_scan", "ios": "https://dc.lft.to/lastmile_qr_scan"}, "type": "electric_scooter", "lon": -77.03455266666667, "name": "4b6401ea6bdd4884244f1ecbe315b6eb", "bike_id": "4b6401ea6bdd4884244f1ecbe315b6eb", "fusion_lat": 0.0, "is_reserved": 0, "lat": 38.907257333333334, "fusion_lon": 0.0, "is_disabled": 0}, {"rental_uris": {"android": "https://dc.lft.to/lastmile_qr_scan", "ios": "https://dc.lft.to/lastmile_qr_scan"}, "type": "electric_scooter", "lon": -77.02022933333333, "name": "c96c15f6adb81c6a4f29813f0c336400", "bike_id": "c96c15f6adb81c6a4f29813f0c336400", "fusion_lat": 0.0, "is_reserved": 0, "lat": 38.92436766666667, "fusion_lon": 0.0, "is_disabled": 0}, {"rental_uris": {"android": "https://dc.lft.to/lastmile_qr_scan", "ios": "https://dc.lft.to/lastmile_qr_scan"}, "type": "electric_scooter", "lon": -76.99028983333334, "name": "7f2a5249d9c1fd1c4694f884ea08e06e", "bike_id": "7f2a5249d9c1fd1c4694f884ea08e06e", "fusion_lat": 0.0, "is_reserved": 0, "lat": 38.864062, "fusion_lon": 0.0, "is_disabled": 0}, {"rental_uris": {"android": "https://dc.lft.to/lastmile_qr_scan", "ios": "https://dc.lft.to/lastmile_qr_scan"}, "type": "electric_scooter", "lon": -77.04772116666666, "name": "8ec9507cfa7224ea90c560fdc77eeb90", "bike_id": "8ec9507cfa7224ea90c560fdc77eeb90", "fusion_lat": 0.0, "is_reserved": 0, "lat": 38.91754533333334, "fusion_lon": 0.0, "is_disabled": 0}, {"rental_uris": {"android": "https://dc.lft.to/lastmile_qr_scan", "ios": "https://dc.lft.to/lastmile_qr_scan"}, "type": "electric_scooter", "lon": -77.040193, "name": "ebd294af1e4162b489c0f9f79de50200", "bike_id": "ebd294af1e4162b489c0f9f79de50200", "fusion_lat": 0.0, "is_reserved": 0, "lat": 38.924584, "fusion_lon": 0.0, "is_disabled": 0}, {"rental_uris": {"android": "https://dc.lft.to/lastmile_qr_scan", "ios": "https://dc.lft.to/lastmile_qr_scan"}, "type": "electric_scooter", "lon": -77.05159483333334, "name": "5cd34efccac32ad19433fd0847ea241d", "bike_id": "5cd34efccac32ad19433fd0847ea241d", "fusion_lat": 0.0, "is_reserved": 0, "lat": 38.903172166666664, "fusion_lon": 0.0, "is_disabled": 0}, {"rental_uris": {"android": "https://dc.lft.to/lastmile_qr_scan", "ios": "https://dc.lft.to/lastmile_qr_scan"}, "type": "electric_scooter", "lon": -76.99725783333334, "name": "1f52e0e5591ce5822fcaee982649040d", "bike_id": "1f52e0e5591ce5822fcaee982649040d", "fusion_lat": 0.0, "is_reserved": 0, "lat": 38.89896783333333, "fusion_lon": 0.0, "is_disabled": 0}, {"rental_uris": {"android": "https://dc.lft.to/lastmile_qr_scan", "ios": "https://dc.lft.to/lastmile_qr_scan"}, "type": "electric_scooter", "lon": -77.041477, "name": "f443de09413d06dc8937fc6734bbd093", "bike_id": "f443de09413d06dc8937fc6734bbd093", "fusion_lat": 0.0, "is_reserved": 0, "lat": 38.919608, "fusion_lon": 0.0, "is_disabled": 0}, {"rental_uris": {"android": "https://dc.lft.to/lastmile_qr_scan", "ios": "https://dc.lft.to/lastmile_qr_scan"}, "type": "electric_scooter", "lon": -77.03058516666667, "name": "6a0208d0d5a6670eb76fdd4eda4c7708", "bike_id": "6a0208d0d5a6670eb76fdd4eda4c7708", "fusion_lat": 0.0, "is_reserved": 0, "lat": 38.88409383333333, "fusion_lon": 0.0, "is_disabled": 0}, {"rental_uris": {"android": "https://dc.lft.to/lastmile_qr_scan", "ios": "https://dc.lft.to/lastmile_qr_scan"}, "type": "electric_scooter", "lon": -77.067646, "name": "b3135753de9aca00c7124ccac8040ec7", "bike_id": "b3135753de9aca00c7124ccac8040ec7", "fusion_lat": 0.0, "is_reserved": 0, "lat": 38.903727833333335, "fusion_lon": 0.0, "is_disabled": 0}, {"rental_uris": {"android": "https://dc.lft.to/lastmile_qr_scan", "ios": "https://dc.lft.to/lastmile_qr_scan"}, "type": "electric_scooter", "lon": -77.00598366666667, "name": "12d96ecc01b215774a4eede55b083c70", "bike_id": "12d96ecc01b215774a4eede55b083c70", "fusion_lat": 0.0, "is_reserved": 0, "lat": 38.90818483333334, "fusion_lon": 0.0, "is_disabled": 0}, {"rental_uris": {"android": "https://dc.lft.to/lastmile_qr_scan", "ios": "https://dc.lft.to/lastmile_qr_scan"}, "type": "electric_scooter", "lon": -77.0486785, "name": "4d1c9fffdd1d8a017d634ec324a1568d", "bike_id": "4d1c9fffdd1d8a017d634ec324a1568d", "fusion_lat": 0.0, "is_reserved": 0, "lat": 38.9008245, "fusion_lon": 0.0, "is_disabled": 0}, {"rental_uris": {"android": "https://dc.lft.to/lastmile_qr_scan", "ios": "https://dc.lft.to/lastmile_qr_scan"}, "type": "electric_scooter", "lon": -77.06106066666666, "name": "c3550d84f9fa04651062c36901589249", "bike_id": "c3550d84f9fa04651062c36901589249", "fusion_lat": 0.0, "is_reserved": 0, "lat": 38.9436845, "fusion_lon": 0.0, "is_disabled": 0}, {"rental_uris": {"android": "https://dc.lft.to/lastmile_qr_scan", "ios": "https://dc.lft.to/lastmile_qr_scan"}, "type": "electric_scooter", "lon": -77.01411033333333, "name": "2af0274c315454bd44733d7104c21e0f", "bike_id": "2af0274c315454bd44733d7104c21e0f", "fusion_lat": 0.0, "is_reserved": 0, "lat": 38.9284715, "fusion_lon": 0.0, "is_disabled": 0}, {"rental_uris": {"android": "https://dc.lft.to/lastmile_qr_scan", "ios": "https://dc.lft.to/lastmile_qr_scan"}, "type": "electric_scooter", "lon": -77.0367625, "name": "ea3a13201dc5896fbd96541d999a7a72", "bike_id": "ea3a13201dc5896fbd96541d999a7a72", "fusion_lat": 0.0, "is_reserved": 0, "lat": 38.9026945, "fusion_lon": 0.0, "is_disabled": 0}, {"rental_uris": {"android": "https://dc.lft.to/lastmile_qr_scan", "ios": "https://dc.lft.to/lastmile_qr_scan"}, "type": "electric_scooter", "lon": -77.02579883333334, "name": "f8cdea3468c438657cfec346157c0d6a", "bike_id": "f8cdea3468c438657cfec346157c0d6a", "fusion_lat": 0.0, "is_reserved": 0, "lat": 38.925069, "fusion_lon": 0.0, "is_disabled": 0}, {"rental_uris": {"android": "https://dc.lft.to/lastmile_qr_scan", "ios": "https://dc.lft.to/lastmile_qr_scan"}, "type": "electric_scooter", "lon": -77.060764, "name": "e97c08a6de45258e6e82e874825cb9b9", "bike_id": "e97c08a6de45258e6e82e874825cb9b9", "fusion_lat": 0.0, "is_reserved": 0, "lat": 38.90530616666667, "fusion_lon": 0.0, "is_disabled": 0}, {"rental_uris": {"android": "https://dc.lft.to/lastmile_qr_scan", "ios": "https://dc.lft.to/lastmile_qr_scan"}, "type": "electric_scooter", "lon": -76.954119, "name": "46c1489a111d1b6cff892d06e7166f03", "bike_id": "46c1489a111d1b6cff892d06e7166f03", "fusion_lat": 0.0, "is_reserved": 0, "lat": 38.891599, "fusion_lon": 0.0, "is_disabled": 0}, {"rental_uris": {"android": "https://dc.lft.to/lastmile_qr_scan", "ios": "https://dc.lft.to/lastmile_qr_scan"}, "type": "electric_scooter", "lon": -77.04369633333333, "name": "21e328d737b53a173d3a4c5579cbb5d9", "bike_id": "21e328d737b53a173d3a4c5579cbb5d9", "fusion_lat": 0.0, "is_reserved": 0, "lat": 38.906253166666666, "fusion_lon": 0.0, "is_disabled": 0}, {"rental_uris": {"android": "https://dc.lft.to/lastmile_qr_scan", "ios": "https://dc.lft.to/lastmile_qr_scan"}, "type": "electric_scooter", "lon": -77.040172, "name": "4cc1c1222903aa2315a00da051e1343e", "bike_id": "4cc1c1222903aa2315a00da051e1343e", "fusion_lat": 0.0, "is_reserved": 0, "lat": 38.913033166666665, "fusion_lon": 0.0, "is_disabled": 0}, {"rental_uris": {"android": "https://dc.lft.to/lastmile_qr_scan", "ios": "https://dc.lft.to/lastmile_qr_scan"}, "type": "electric_scooter", "lon": -77.0734895, "name": "f25d7e79536922cde2787a14b0031740", "bike_id": "f25d7e79536922cde2787a14b0031740", "fusion_lat": 0.0, "is_reserved": 0, "lat": 38.91102466666667, "fusion_lon": 0.0, "is_disabled": 0}, {"rental_uris": {"android": "https://dc.lft.to/lastmile_qr_scan", "ios": "https://dc.lft.to/lastmile_qr_scan"}, "type": "electric_bike", "lon": -77.232974, "name": "d692dcf9dd4501249b8006370f6cf377", "bike_id": "d692dcf9dd4501249b8006370f6cf377", "fusion_lat": 0.0, "is_reserved": 0, "lat": 38.92513433333333, "fusion_lon": 0.0, "is_disabled": 0}, {"rental_uris": {"android": "https://dc.lft.to/lastmile_qr_scan", "ios": "https://dc.lft.to/lastmile_qr_scan"}, "type": "electric_scooter", "lon": -77.04806866666667, "name": "4d2ee33910528347f23525cbc3ffb6f4", "bike_id": "4d2ee33910528347f23525cbc3ffb6f4", "fusion_lat": 0.0, "is_reserved": 0, "lat": 38.911073, "fusion_lon": 0.0, "is_disabled": 0}, {"rental_uris": {"android": "https://dc.lft.to/lastmile_qr_scan", "ios": "https://dc.lft.to/lastmile_qr_scan"}, "type": "electric_scooter", "lon": -76.942539, "name": "da1d35ad6ee1c7aca0ecf669aa49a086", "bike_id": "da1d35ad6ee1c7aca0ecf669aa49a086", "fusion_lat": 0.0, "is_reserved": 0, "lat": 38.89680383333334, "fusion_lon": 0.0, "is_disabled": 0}, {"rental_uris": {"android": "https://dc.lft.to/lastmile_qr_scan", "ios": "https://dc.lft.to/lastmile_qr_scan"}, "type": "electric_bike", "lon": -76.91657416666666, "name": "e421bdd2154d9df0f5d05f736d22b0e4", "bike_id": "e421bdd2154d9df0f5d05f736d22b0e4", "fusion_lat": 0.0, "is_reserved": 0, "lat": 38.86859, "fusion_lon": 0.0, "is_disabled": 0}, {"rental_uris": {"android": "https://dc.lft.to/lastmile_qr_scan", "ios": "https://dc.lft.to/lastmile_qr_scan"}, "type": "electric_bike", "lon": -77.12267516666667, "name": "04fbb6f9aac77401aa1c5dc8e63c0129", "bike_id": "04fbb6f9aac77401aa1c5dc8e63c0129", "fusion_lat": 0.0, "is_reserved": 0, "lat": 38.89733483333333, "fusion_lon": 0.0, "is_disabled": 0}, {"rental_uris": {"android": "https://dc.lft.to/lastmile_qr_scan", "ios": "https://dc.lft.to/lastmile_qr_scan"}, "type": "electric_scooter", "lon": -77.04167766666667, "name": "5e1ead54bdacb1e9e81d1a6a6ec9a58f", "bike_id": "5e1ead54bdacb1e9e81d1a6a6ec9a58f", "fusion_lat": 0.0, "is_reserved": 0, "lat": 38.9133715, "fusion_lon": 0.0, "is_disabled": 0}, {"rental_uris": {"android": "https://dc.lft.to/lastmile_qr_scan", "ios": "https://dc.lft.to/lastmile_qr_scan"}, "type": "electric_scooter", "lon": -77.03664016666667, "name": "41c0c44670c134bc8d68cae051c4ea59", "bike_id": "41c0c44670c134bc8d68cae051c4ea59", "fusion_lat": 0.0, "is_reserved": 0, "lat": 38.936454499999996, "fusion_lon": 0.0, "is_disabled": 0}, {"rental_uris": {"android": "https://dc.lft.to/lastmile_qr_scan", "ios": "https://dc.lft.to/lastmile_qr_scan"}, "type": "electric_scooter", "lon": -77.00563666666666, "name": "1a0a3f1b3cee35028988341146e70158", "bike_id": "1a0a3f1b3cee35028988341146e70158", "fusion_lat": 0.0, "is_reserved": 0, "lat": 38.87845033333333, "fusion_lon": 0.0, "is_disabled": 0}, {"rental_uris": {"android": "https://dc.lft.to/lastmile_qr_scan", "ios": "https://dc.lft.to/lastmile_qr_scan"}, "type": "electric_scooter", "lon": -77.02517433333334, "name": "98df4551bd8479f907d069b2ee67be68", "bike_id": "98df4551bd8479f907d069b2ee67be68", "fusion_lat": 0.0, "is_reserved": 0, "lat": 38.90168933333333, "fusion_lon": 0.0, "is_disabled": 0}, {"rental_uris": {"android": "https://dc.lft.to/lastmile_qr_scan", "ios": "https://dc.lft.to/lastmile_qr_scan"}, "type": "electric_scooter", "lon": -77.01925466666667, "name": "70195f4135706e6b9b548b5978c47203", "bike_id": "70195f4135706e6b9b548b5978c47203", "fusion_lat": 0.0, "is_reserved": 0, "lat": 38.93572783333333, "fusion_lon": 0.0, "is_disabled": 0}, {"rental_uris": {"android": "https://dc.lft.to/lastmile_qr_scan", "ios": "https://dc.lft.to/lastmile_qr_scan"}, "type": "electric_scooter", "lon": -76.96430883333333, "name": "3bb199e20ae7adb00b2c278262b773cc", "bike_id": "3bb199e20ae7adb00b2c278262b773cc", "fusion_lat": 0.0, "is_reserved": 0, "lat": 38.93441166666667, "fusion_lon": 0.0, "is_disabled": 0}, {"rental_uris": {"android": "https://dc.lft.to/lastmile_qr_scan", "ios": "https://dc.lft.to/lastmile_qr_scan"}, "type": "electric_bike", "lon": -77.10997583333334, "name": "51c813fb33198d693f121d43ac1cba9c", "bike_id": "51c813fb33198d693f121d43ac1cba9c", "fusion_lat": 0.0, "is_reserved": 0, "lat": 38.87050983333334, "fusion_lon": 0.0, "is_disabled": 0}, {"rental_uris": {"android": "https://dc.lft.to/lastmile_qr_scan", "ios": "https://dc.lft.to/lastmile_qr_scan"}, "type": "electric_scooter", "lon": -77.03436866666667, "name": "b89a8cbd32835e88f73c428559b2f36d", "bike_id": "b89a8cbd32835e88f73c428559b2f36d", "fusion_lat": 0.0, "is_reserved": 0, "lat": 38.918008666666665, "fusion_lon": 0.0, "is_disabled": 0}, {"rental_uris": {"android": "https://dc.lft.to/lastmile_qr_scan", "ios": "https://dc.lft.to/lastmile_qr_scan"}, "type": "electric_scooter", "lon": -77.04467783333334, "name": "f52a8d59e022f0e059893be695c25bd6", "bike_id": "f52a8d59e022f0e059893be695c25bd6", "fusion_lat": 0.0, "is_reserved": 0, "lat": 38.91877316666667, "fusion_lon": 0.0, "is_disabled": 0}, {"rental_uris": {"android": "https://dc.lft.to/lastmile_qr_scan", "ios": "https://dc.lft.to/lastmile_qr_scan"}, "type": "electric_scooter", "lon": -77.02342583333333, "name": "74d5a11387f8c14de084b94b2b5d2a2f", "bike_id": "74d5a11387f8c14de084b94b2b5d2a2f", "fusion_lat": 0.0, "is_reserved": 0, "lat": 38.96203883333333, "fusion_lon": 0.0, "is_disabled": 0}, {"rental_uris": {"android": "https://dc.lft.to/lastmile_qr_scan", "ios": "https://dc.lft.to/lastmile_qr_scan"}, "type": "electric_scooter", "lon": -77.0456675, "name": "070999f3cd75d793a518a24e44ccdb59", "bike_id": "070999f3cd75d793a518a24e44ccdb59", "fusion_lat": 0.0, "is_reserved": 0, "lat": 38.91943233333333, "fusion_lon": 0.0, "is_disabled": 0}, {"rental_uris": {"android": "https://dc.lft.to/lastmile_qr_scan", "ios": "https://dc.lft.to/lastmile_qr_scan"}, "type": "electric_scooter", "lon": -77.0346465, "name": "78108a1386d322e862e127bb21b8b178", "bike_id": "78108a1386d322e862e127bb21b8b178", "fusion_lat": 0.0, "is_reserved": 0, "lat": 38.90308666666667, "fusion_lon": 0.0, "is_disabled": 0}, {"rental_uris": {"android": "https://dc.lft.to/lastmile_qr_scan", "ios": "https://dc.lft.to/lastmile_qr_scan"}, "type": "electric_scooter", "lon": -76.9948135, "name": "162308a2737030468c42f77b2567447c", "bike_id": "162308a2737030468c42f77b2567447c", "fusion_lat": 0.0, "is_reserved": 0, "lat": 38.87732716666667, "fusion_lon": 0.0, "is_disabled": 0}, {"rental_uris": {"android": "https://dc.lft.to/lastmile_qr_scan", "ios": "https://dc.lft.to/lastmile_qr_scan"}, "type": "electric_scooter", "lon": -76.98994516666667, "name": "8b836800be6428640ade6aea0da8d9fa", "bike_id": "8b836800be6428640ade6aea0da8d9fa", "fusion_lat": 0.0, "is_reserved": 0, "lat": 38.864414, "fusion_lon": 0.0, "is_disabled": 0}, {"rental_uris": {"android": "https://dc.lft.to/lastmile_qr_scan", "ios": "https://dc.lft.to/lastmile_qr_scan"}, "type": "electric_scooter", "lon": -76.9463415, "name": "2df7c2b8c7d9731d1b8cdcc31aaa6e22", "bike_id": "2df7c2b8c7d9731d1b8cdcc31aaa6e22", "fusion_lat": 0.0, "is_reserved": 0, "lat": 38.898425, "fusion_lon": 0.0, "is_disabled": 0}, {"rental_uris": {"android": "https://dc.lft.to/lastmile_qr_scan", "ios": "https://dc.lft.to/lastmile_qr_scan"}, "type": "electric_scooter", "lon": -77.05727, "name": "63625869caa54eaa1aaf02dbcde66b54", "bike_id": "63625869caa54eaa1aaf02dbcde66b54", "fusion_lat": 0.0, "is_reserved": 0, "lat": 38.933702833333335, "fusion_lon": 0.0, "is_disabled": 0}, {"rental_uris": {"android": "https://dc.lft.to/lastmile_qr_scan", "ios": "https://dc.lft.to/lastmile_qr_scan"}, "type": "electric_scooter", "lon": -77.021575, "name": "2d766c7e5ab8c186f19928f6e760bf98", "bike_id": "2d766c7e5ab8c186f19928f6e760bf98", "fusion_lat": 0.0, "is_reserved": 0, "lat": 38.884913833333336, "fusion_lon": 0.0, "is_disabled": 0}, {"rental_uris": {"android": "https://dc.lft.to/lastmile_qr_scan", "ios": "https://dc.lft.to/lastmile_qr_scan"}, "type": "electric_scooter", "lon": -77.02355716666666, "name": "df78497635119bcf1edfa8d27b8b8ad3", "bike_id": "df78497635119bcf1edfa8d27b8b8ad3", "fusion_lat": 0.0, "is_reserved": 0, "lat": 38.892233166666664, "fusion_lon": 0.0, "is_disabled": 0}, {"rental_uris": {"android": "https://dc.lft.to/lastmile_qr_scan", "ios": "https://dc.lft.to/lastmile_qr_scan"}, "type": "electric_scooter", "lon": -76.9841145, "name": "1ffbe91ef70149c8d3510e710e2c27a0", "bike_id": "1ffbe91ef70149c8d3510e710e2c27a0", "fusion_lat": 0.0, "is_reserved": 0, "lat": 38.9138745, "fusion_lon": 0.0, "is_disabled": 0}, {"rental_uris": {"android": "https://dc.lft.to/lastmile_qr_scan", "ios": "https://dc.lft.to/lastmile_qr_scan"}, "type": "electric_scooter", "lon": -77.04099733333334, "name": "0685d95e34aa9367b8f161d26eab5758", "bike_id": "0685d95e34aa9367b8f161d26eab5758", "fusion_lat": 0.0, "is_reserved": 0, "lat": 38.91782033333333, "fusion_lon": 0.0, "is_disabled": 0}, {"rental_uris": {"android": "https://dc.lft.to/lastmile_qr_scan", "ios": "https://dc.lft.to/lastmile_qr_scan"}, "type": "electric_scooter", "lon": -76.9383785, "name": "637b0aed3ca9e97d87309173af1c3170", "bike_id": "637b0aed3ca9e97d87309173af1c3170", "fusion_lat": 0.0, "is_reserved": 0, "lat": 38.89759433333333, "fusion_lon": 0.0, "is_disabled": 0}, {"rental_uris": {"android": "https://dc.lft.to/lastmile_qr_scan", "ios": "https://dc.lft.to/lastmile_qr_scan"}, "type": "electric_scooter", "lon": -77.00923416666667, "name": "4614d3b5253b999fab108b0700dd5f6b", "bike_id": "4614d3b5253b999fab108b0700dd5f6b", "fusion_lat": 0.0, "is_reserved": 0, "lat": 38.910527, "fusion_lon": 0.0, "is_disabled": 0}, {"rental_uris": {"android": "https://dc.lft.to/lastmile_qr_scan", "ios": "https://dc.lft.to/lastmile_qr_scan"}, "type": "electric_scooter", "lon": -77.0306315, "name": "7e4c2f8876effda60d4df87309299325", "bike_id": "7e4c2f8876effda60d4df87309299325", "fusion_lat": 0.0, "is_reserved": 0, "lat": 38.919310833333334, "fusion_lon": 0.0, "is_disabled": 0}, {"rental_uris": {"android": "https://dc.lft.to/lastmile_qr_scan", "ios": "https://dc.lft.to/lastmile_qr_scan"}, "type": "electric_scooter", "lon": -77.02515233333334, "name": "f922c2355fd794c3ab0bf93ecc1c7df7", "bike_id": "f922c2355fd794c3ab0bf93ecc1c7df7", "fusion_lat": 0.0, "is_reserved": 0, "lat": 38.941743833333334, "fusion_lon": 0.0, "is_disabled": 0}, {"rental_uris": {"android": "https://dc.lft.to/lastmile_qr_scan", "ios": "https://dc.lft.to/lastmile_qr_scan"}, "type": "electric_scooter", "lon": -77.08217983333333, "name": "d2fbb23e659e91b1d7740a49c0519f09", "bike_id": "d2fbb23e659e91b1d7740a49c0519f09", "fusion_lat": 0.0, "is_reserved": 0, "lat": 38.9354975, "fusion_lon": 0.0, "is_disabled": 0}, {"rental_uris": {"android": "https://dc.lft.to/lastmile_qr_scan", "ios": "https://dc.lft.to/lastmile_qr_scan"}, "type": "electric_scooter", "lon": -77.00340816666667, "name": "f91bcc84883e8bda87c6f1c206023e46", "bike_id": "f91bcc84883e8bda87c6f1c206023e46", "fusion_lat": 0.0, "is_reserved": 0, "lat": 38.913448833333334, "fusion_lon": 0.0, "is_disabled": 0}, {"rental_uris": {"android": "https://dc.lft.to/lastmile_qr_scan", "ios": "https://dc.lft.to/lastmile_qr_scan"}, "type": "electric_scooter", "lon": -76.94845733333334, "name": "369a4e38cb440571688fbb9690e3295f", "bike_id": "369a4e38cb440571688fbb9690e3295f", "fusion_lat": 0.0, "is_reserved": 0, "lat": 38.894838166666666, "fusion_lon": 0.0, "is_disabled": 0}, {"rental_uris": {"android": "https://dc.lft.to/lastmile_qr_scan", "ios": "https://dc.lft.to/lastmile_qr_scan"}, "type": "electric_scooter", "lon": -76.992152, "name": "b25b4bb915bd52c5dab6d22bb2328e5d", "bike_id": "b25b4bb915bd52c5dab6d22bb2328e5d", "fusion_lat": 0.0, "is_reserved": 0, "lat": 38.904724, "fusion_lon": 0.0, "is_disabled": 0}, {"rental_uris": {"android": "https://dc.lft.to/lastmile_qr_scan", "ios": "https://dc.lft.to/lastmile_qr_scan"}, "type": "electric_scooter", "lon": -76.99473766666667, "name": "6cb03385c63a5825a318f42ff0d9cae0", "bike_id": "6cb03385c63a5825a318f42ff0d9cae0", "fusion_lat": 0.0, "is_reserved": 0, "lat": 38.8961605, "fusion_lon": 0.0, "is_disabled": 0}, {"rental_uris": {"android": "https://dc.lft.to/lastmile_qr_scan", "ios": "https://dc.lft.to/lastmile_qr_scan"}, "type": "electric_scooter", "lon": -77.06149516666666, "name": "12dae4a7348380bfa12f22c29fd4366e", "bike_id": "12dae4a7348380bfa12f22c29fd4366e", "fusion_lat": 0.0, "is_reserved": 0, "lat": 38.910561, "fusion_lon": 0.0, "is_disabled": 0}, {"rental_uris": {"android": "https://dc.lft.to/lastmile_qr_scan", "ios": "https://dc.lft.to/lastmile_qr_scan"}, "type": "electric_scooter", "lon": -77.02473416666666, "name": "17a896e740a7798013af5c11999e1e5f", "bike_id": "17a896e740a7798013af5c11999e1e5f", "fusion_lat": 0.0, "is_reserved": 0, "lat": 38.9385155, "fusion_lon": 0.0, "is_disabled": 0}, {"rental_uris": {"android": "https://dc.lft.to/lastmile_qr_scan", "ios": "https://dc.lft.to/lastmile_qr_scan"}, "type": "electric_scooter", "lon": -77.032743, "name": "83e3d56b35890126f8325a9f2578c121", "bike_id": "83e3d56b35890126f8325a9f2578c121", "fusion_lat": 0.0, "is_reserved": 0, "lat": 38.896369666666665, "fusion_lon": 0.0, "is_disabled": 0}, {"rental_uris": {"android": "https://dc.lft.to/lastmile_qr_scan", "ios": "https://dc.lft.to/lastmile_qr_scan"}, "type": "electric_scooter", "lon": -77.042533, "name": "924ea02d684909ebcebeabd4b736fa5d", "bike_id": "924ea02d684909ebcebeabd4b736fa5d", "fusion_lat": 0.0, "is_reserved": 0, "lat": 38.9220295, "fusion_lon": 0.0, "is_disabled": 0}, {"rental_uris": {"android": "https://dc.lft.to/lastmile_qr_scan", "ios": "https://dc.lft.to/lastmile_qr_scan"}, "type": "electric_scooter", "lon": -77.02440766666666, "name": "074df7b468a683c4d17c05395faac713", "bike_id": "074df7b468a683c4d17c05395faac713", "fusion_lat": 0.0, "is_reserved": 0, "lat": 38.93292833333334, "fusion_lon": 0.0, "is_disabled": 0}, {"rental_uris": {"android": "https://dc.lft.to/lastmile_qr_scan", "ios": "https://dc.lft.to/lastmile_qr_scan"}, "type": "electric_scooter", "lon": -76.9930555, "name": "9c619914ede3dfbd1ee77ee232e6ae08", "bike_id": "9c619914ede3dfbd1ee77ee232e6ae08", "fusion_lat": 0.0, "is_reserved": 0, "lat": 38.857618, "fusion_lon": 0.0, "is_disabled": 0}, {"rental_uris": {"android": "https://dc.lft.to/lastmile_qr_scan", "ios": "https://dc.lft.to/lastmile_qr_scan"}, "type": "electric_scooter", "lon": -77.01503016666666, "name": "6d865bb2365fe8621e4646bc04616a98", "bike_id": "6d865bb2365fe8621e4646bc04616a98", "fusion_lat": 0.0, "is_reserved": 0, "lat": 38.917674, "fusion_lon": 0.0, "is_disabled": 0}, {"rental_uris": {"android": "https://dc.lft.to/lastmile_qr_scan", "ios": "https://dc.lft.to/lastmile_qr_scan"}, "type": "electric_bike", "lon": -77.1308925, "name": "94b6a9c337148d41be0d0b88944f2592", "bike_id": "94b6a9c337148d41be0d0b88944f2592", "fusion_lat": 0.0, "is_reserved": 0, "lat": 38.8616265, "fusion_lon": 0.0, "is_disabled": 0}, {"rental_uris": {"android": "https://dc.lft.to/lastmile_qr_scan", "ios": "https://dc.lft.to/lastmile_qr_scan"}, "type": "electric_scooter", "lon": -77.0315415, "name": "1cfc58698f1bbffa03d394eca23970fc", "bike_id": "1cfc58698f1bbffa03d394eca23970fc", "fusion_lat": 0.0, "is_reserved": 0, "lat": 38.89705716666667, "fusion_lon": 0.0, "is_disabled": 0}, {"rental_uris": {"android": "https://dc.lft.to/lastmile_qr_scan", "ios": "https://dc.lft.to/lastmile_qr_scan"}, "type": "electric_scooter", "lon": -77.0057365, "name": "57757cb6e727ddd9599156c14c0eb162", "bike_id": "57757cb6e727ddd9599156c14c0eb162", "fusion_lat": 0.0, "is_reserved": 0, "lat": 38.905748333333335, "fusion_lon": 0.0, "is_disabled": 0}, {"rental_uris": {"android": "https://dc.lft.to/lastmile_qr_scan", "ios": "https://dc.lft.to/lastmile_qr_scan"}, "type": "electric_scooter", "lon": -77.00706483333333, "name": "de04c51b3ee95a214579ca0190418e18", "bike_id": "de04c51b3ee95a214579ca0190418e18", "fusion_lat": 0.0, "is_reserved": 0, "lat": 38.876620833333334, "fusion_lon": 0.0, "is_disabled": 0}, {"rental_uris": {"android": "https://dc.lft.to/lastmile_qr_scan", "ios": "https://dc.lft.to/lastmile_qr_scan"}, "type": "electric_scooter", "lon": -77.0383415, "name": "d1d98801ecd2a466d3fd184cc03748d3", "bike_id": "d1d98801ecd2a466d3fd184cc03748d3", "fusion_lat": 0.0, "is_reserved": 0, "lat": 38.91551466666667, "fusion_lon": 0.0, "is_disabled": 0}, {"rental_uris": {"android": "https://dc.lft.to/lastmile_qr_scan", "ios": "https://dc.lft.to/lastmile_qr_scan"}, "type": "electric_scooter", "lon": -77.0280465, "name": "805537f921454dd460fbc982f5eecacd", "bike_id": "805537f921454dd460fbc982f5eecacd", "fusion_lat": 0.0, "is_reserved": 0, "lat": 38.919546, "fusion_lon": 0.0, "is_disabled": 0}, {"rental_uris": {"android": "https://dc.lft.to/lastmile_qr_scan", "ios": "https://dc.lft.to/lastmile_qr_scan"}, "type": "electric_scooter", "lon": -77.06045316666666, "name": "329bc49d73c8942cdc7e825a6a71f6f4", "bike_id": "329bc49d73c8942cdc7e825a6a71f6f4", "fusion_lat": 0.0, "is_reserved": 0, "lat": 38.939117833333334, "fusion_lon": 0.0, "is_disabled": 0}, {"rental_uris": {"android": "https://dc.lft.to/lastmile_qr_scan", "ios": "https://dc.lft.to/lastmile_qr_scan"}, "type": "electric_scooter", "lon": -77.02302383333334, "name": "980dcdbf62e239c7d7f2b400180e474d", "bike_id": "980dcdbf62e239c7d7f2b400180e474d", "fusion_lat": 0.0, "is_reserved": 0, "lat": 38.9088115, "fusion_lon": 0.0, "is_disabled": 0}, {"rental_uris": {"android": "https://dc.lft.to/lastmile_qr_scan", "ios": "https://dc.lft.to/lastmile_qr_scan"}, "type": "electric_scooter", "lon": -77.05091016666667, "name": "88d7462b983331326b61a3b6647bf74a", "bike_id": "88d7462b983331326b61a3b6647bf74a", "fusion_lat": 0.0, "is_reserved": 0, "lat": 38.924541166666664, "fusion_lon": 0.0, "is_disabled": 0}, {"rental_uris": {"android": "https://dc.lft.to/lastmile_qr_scan", "ios": "https://dc.lft.to/lastmile_qr_scan"}, "type": "electric_scooter", "lon": -77.05149083333333, "name": "2701f79393adf652b3aba2e6111e1d01", "bike_id": "2701f79393adf652b3aba2e6111e1d01", "fusion_lat": 0.0, "is_reserved": 0, "lat": 38.90429733333333, "fusion_lon": 0.0, "is_disabled": 0}, {"rental_uris": {"android": "https://dc.lft.to/lastmile_qr_scan", "ios": "https://dc.lft.to/lastmile_qr_scan"}, "type": "electric_scooter", "lon": -77.02940033333333, "name": "b075257f8adf1c8ce98bd90507c3e381", "bike_id": "b075257f8adf1c8ce98bd90507c3e381", "fusion_lat": 0.0, "is_reserved": 0, "lat": 38.9170845, "fusion_lon": 0.0, "is_disabled": 0}, {"rental_uris": {"android": "https://dc.lft.to/lastmile_qr_scan", "ios": "https://dc.lft.to/lastmile_qr_scan"}, "type": "electric_scooter", "lon": -77.02995283333334, "name": "1801d7d027d0731011f94448e9af51da", "bike_id": "1801d7d027d0731011f94448e9af51da", "fusion_lat": 0.0, "is_reserved": 0, "lat": 38.90729533333333, "fusion_lon": 0.0, "is_disabled": 0}, {"rental_uris": {"android": "https://dc.lft.to/lastmile_qr_scan", "ios": "https://dc.lft.to/lastmile_qr_scan"}, "type": "electric_scooter", "lon": -77.04246216666667, "name": "90eece2312b5f9c3346b8857c48c305e", "bike_id": "90eece2312b5f9c3346b8857c48c305e", "fusion_lat": 0.0, "is_reserved": 0, "lat": 38.94545083333333, "fusion_lon": 0.0, "is_disabled": 0}, {"rental_uris": {"android": "https://dc.lft.to/lastmile_qr_scan", "ios": "https://dc.lft.to/lastmile_qr_scan"}, "type": "electric_scooter", "lon": -77.03871316666667, "name": "6c897a0c736f243c8c3cf41e0ad81bb2", "bike_id": "6c897a0c736f243c8c3cf41e0ad81bb2", "fusion_lat": 0.0, "is_reserved": 0, "lat": 38.912671333333336, "fusion_lon": 0.0, "is_disabled": 0}, {"rental_uris": {"android": "https://dc.lft.to/lastmile_qr_scan", "ios": "https://dc.lft.to/lastmile_qr_scan"}, "type": "electric_scooter", "lon": -77.063911, "name": "b10f1719fdf621c1274ba0a4f7ecdc20", "bike_id": "b10f1719fdf621c1274ba0a4f7ecdc20", "fusion_lat": 0.0, "is_reserved": 0, "lat": 38.92902466666666, "fusion_lon": 0.0, "is_disabled": 0}, {"rental_uris": {"android": "https://dc.lft.to/lastmile_qr_scan", "ios": "https://dc.lft.to/lastmile_qr_scan"}, "type": "electric_scooter", "lon": -77.00150266666667, "name": "18ad92b0fad771d16697252b7da087ee", "bike_id": "18ad92b0fad771d16697252b7da087ee", "fusion_lat": 0.0, "is_reserved": 0, "lat": 38.90003183333334, "fusion_lon": 0.0, "is_disabled": 0}, {"rental_uris": {"android": "https://dc.lft.to/lastmile_qr_scan", "ios": "https://dc.lft.to/lastmile_qr_scan"}, "type": "electric_scooter", "lon": -77.03205983333334, "name": "c795f9b9dfb50c29148e02844db3e5a7", "bike_id": "c795f9b9dfb50c29148e02844db3e5a7", "fusion_lat": 0.0, "is_reserved": 0, "lat": 38.913405166666664, "fusion_lon": 0.0, "is_disabled": 0}, {"rental_uris": {"android": "https://dc.lft.to/lastmile_qr_scan", "ios": "https://dc.lft.to/lastmile_qr_scan"}, "type": "electric_scooter", "lon": -77.021614, "name": "b5476bcd6bbbeba851ce6c87e91f3788", "bike_id": "b5476bcd6bbbeba851ce6c87e91f3788", "fusion_lat": 0.0, "is_reserved": 0, "lat": 38.926128, "fusion_lon": 0.0, "is_disabled": 0}, {"rental_uris": {"android": "https://dc.lft.to/lastmile_qr_scan", "ios": "https://dc.lft.to/lastmile_qr_scan"}, "type": "electric_scooter", "lon": -76.941202, "name": "dabf1baf6ae8b82fc16f19a0b14f30a5", "bike_id": "dabf1baf6ae8b82fc16f19a0b14f30a5", "fusion_lat": 0.0, "is_reserved": 0, "lat": 38.907935333333334, "fusion_lon": 0.0, "is_disabled": 0}, {"rental_uris": {"android": "https://dc.lft.to/lastmile_qr_scan", "ios": "https://dc.lft.to/lastmile_qr_scan"}, "type": "electric_scooter", "lon": -77.015819, "name": "72c3d230688363a5f915dc7b79a2aa18", "bike_id": "72c3d230688363a5f915dc7b79a2aa18", "fusion_lat": 0.0, "is_reserved": 0, "lat": 38.916753, "fusion_lon": 0.0, "is_disabled": 0}, {"rental_uris": {"android": "https://dc.lft.to/lastmile_qr_scan", "ios": "https://dc.lft.to/lastmile_qr_scan"}, "type": "electric_scooter", "lon": -77.03156833333334, "name": "6fa9b97a965875f39da2bdce03c501ca", "bike_id": "6fa9b97a965875f39da2bdce03c501ca", "fusion_lat": 0.0, "is_reserved": 0, "lat": 38.89720283333333, "fusion_lon": 0.0, "is_disabled": 0}, {"rental_uris": {"android": "https://dc.lft.to/lastmile_qr_scan", "ios": "https://dc.lft.to/lastmile_qr_scan"}, "type": "electric_scooter", "lon": -77.02558783333333, "name": "2c0454d10d37776fd017134cd054a29f", "bike_id": "2c0454d10d37776fd017134cd054a29f", "fusion_lat": 0.0, "is_reserved": 0, "lat": 38.9416315, "fusion_lon": 0.0, "is_disabled": 0}, {"rental_uris": {"android": "https://dc.lft.to/lastmile_qr_scan", "ios": "https://dc.lft.to/lastmile_qr_scan"}, "type": "electric_scooter", "lon": -77.048718, "name": "016e4dbc9aeecabf4d782e1c08edcc30", "bike_id": "016e4dbc9aeecabf4d782e1c08edcc30", "fusion_lat": 0.0, "is_reserved": 0, "lat": 38.909723666666665, "fusion_lon": 0.0, "is_disabled": 0}, {"rental_uris": {"android": "https://dc.lft.to/lastmile_qr_scan", "ios": "https://dc.lft.to/lastmile_qr_scan"}, "type": "electric_scooter", "lon": -76.9921345, "name": "7b0deccd96492008d60d161ddd36d163", "bike_id": "7b0deccd96492008d60d161ddd36d163", "fusion_lat": 0.0, "is_reserved": 0, "lat": 38.89511233333333, "fusion_lon": 0.0, "is_disabled": 0}, {"rental_uris": {"android": "https://dc.lft.to/lastmile_qr_scan", "ios": "https://dc.lft.to/lastmile_qr_scan"}, "type": "electric_scooter", "lon": -77.02937033333333, "name": "8ed8b3610ca2875cedbbc92c273050db", "bike_id": "8ed8b3610ca2875cedbbc92c273050db", "fusion_lat": 0.0, "is_reserved": 0, "lat": 38.89799933333333, "fusion_lon": 0.0, "is_disabled": 0}, {"rental_uris": {"android": "https://dc.lft.to/lastmile_qr_scan", "ios": "https://dc.lft.to/lastmile_qr_scan"}, "type": "electric_scooter", "lon": -77.024067, "name": "dba5bdde5853368f01a52df3f1a8fed8", "bike_id": "dba5bdde5853368f01a52df3f1a8fed8", "fusion_lat": 0.0, "is_reserved": 0, "lat": 38.9208535, "fusion_lon": 0.0, "is_disabled": 0}, {"rental_uris": {"android": "https://dc.lft.to/lastmile_qr_scan", "ios": "https://dc.lft.to/lastmile_qr_scan"}, "type": "electric_scooter", "lon": -77.0318185, "name": "adfb1c6837c9f1560bc2a6443064667b", "bike_id": "adfb1c6837c9f1560bc2a6443064667b", "fusion_lat": 0.0, "is_reserved": 0, "lat": 38.8865695, "fusion_lon": 0.0, "is_disabled": 0}, {"rental_uris": {"android": "https://dc.lft.to/lastmile_qr_scan", "ios": "https://dc.lft.to/lastmile_qr_scan"}, "type": "electric_scooter", "lon": -77.04585666666667, "name": "5556209582c43892c5693c0cce01f611", "bike_id": "5556209582c43892c5693c0cce01f611", "fusion_lat": 0.0, "is_reserved": 0, "lat": 38.921356, "fusion_lon": 0.0, "is_disabled": 0}, {"rental_uris": {"android": "https://dc.lft.to/lastmile_qr_scan", "ios": "https://dc.lft.to/lastmile_qr_scan"}, "type": "electric_bike", "lon": -77.09520566666667, "name": "3f2df7c19ea18eb2424f5edcaaef47ee", "bike_id": "3f2df7c19ea18eb2424f5edcaaef47ee", "fusion_lat": 0.0, "is_reserved": 0, "lat": 38.8381045, "fusion_lon": 0.0, "is_disabled": 0}, {"rental_uris": {"android": "https://dc.lft.to/lastmile_qr_scan", "ios": "https://dc.lft.to/lastmile_qr_scan"}, "type": "electric_scooter", "lon": -77.05450333333333, "name": "b04e5352cc160f349557155ccec1154f", "bike_id": "b04e5352cc160f349557155ccec1154f", "fusion_lat": 0.0, "is_reserved": 0, "lat": 38.92843533333333, "fusion_lon": 0.0, "is_disabled": 0}, {"rental_uris": {"android": "https://dc.lft.to/lastmile_qr_scan", "ios": "https://dc.lft.to/lastmile_qr_scan"}, "type": "electric_scooter", "lon": -77.02177583333334, "name": "5326e2b8c326e30e3c96637cb3579a72", "bike_id": "5326e2b8c326e30e3c96637cb3579a72", "fusion_lat": 0.0, "is_reserved": 0, "lat": 38.9431175, "fusion_lon": 0.0, "is_disabled": 0}, {"rental_uris": {"android": "https://dc.lft.to/lastmile_qr_scan", "ios": "https://dc.lft.to/lastmile_qr_scan"}, "type": "electric_scooter", "lon": -77.05443683333333, "name": "909ded36c6fa6e47ccf62fc2d7c3c5b0", "bike_id": "909ded36c6fa6e47ccf62fc2d7c3c5b0", "fusion_lat": 0.0, "is_reserved": 0, "lat": 38.92852933333333, "fusion_lon": 0.0, "is_disabled": 0}, {"rental_uris": {"android": "https://dc.lft.to/lastmile_qr_scan", "ios": "https://dc.lft.to/lastmile_qr_scan"}, "type": "electric_scooter", "lon": -77.05286083333333, "name": "855d3203ac623e3603c022424bc4a6fa", "bike_id": "855d3203ac623e3603c022424bc4a6fa", "fusion_lat": 0.0, "is_reserved": 0, "lat": 38.91051183333333, "fusion_lon": 0.0, "is_disabled": 0}, {"rental_uris": {"android": "https://dc.lft.to/lastmile_qr_scan", "ios": "https://dc.lft.to/lastmile_qr_scan"}, "type": "electric_scooter", "lon": -76.99552916666667, "name": "cf9737f049787968b7906aefcf3839b5", "bike_id": "cf9737f049787968b7906aefcf3839b5", "fusion_lat": 0.0, "is_reserved": 0, "lat": 38.884181833333336, "fusion_lon": 0.0, "is_disabled": 0}, {"rental_uris": {"android": "https://dc.lft.to/lastmile_qr_scan", "ios": "https://dc.lft.to/lastmile_qr_scan"}, "type": "electric_scooter", "lon": -77.036361, "name": "23a2527a91d3639b474944abbd43d459", "bike_id": "23a2527a91d3639b474944abbd43d459", "fusion_lat": 0.0, "is_reserved": 0, "lat": 38.902687, "fusion_lon": 0.0, "is_disabled": 0}, {"rental_uris": {"android": "https://dc.lft.to/lastmile_qr_scan", "ios": "https://dc.lft.to/lastmile_qr_scan"}, "type": "electric_scooter", "lon": -77.03454583333334, "name": "900a2b32166b075c303baf65a232e158", "bike_id": "900a2b32166b075c303baf65a232e158", "fusion_lat": 0.0, "is_reserved": 0, "lat": 38.91468733333333, "fusion_lon": 0.0, "is_disabled": 0}, {"rental_uris": {"android": "https://dc.lft.to/lastmile_qr_scan", "ios": "https://dc.lft.to/lastmile_qr_scan"}, "type": "electric_scooter", "lon": -76.988526, "name": "a1516d36cbb1e4363d97164c275751d8", "bike_id": "a1516d36cbb1e4363d97164c275751d8", "fusion_lat": 0.0, "is_reserved": 0, "lat": 38.900297, "fusion_lon": 0.0, "is_disabled": 0}, {"rental_uris": {"android": "https://dc.lft.to/lastmile_qr_scan", "ios": "https://dc.lft.to/lastmile_qr_scan"}, "type": "electric_scooter", "lon": -77.042096, "name": "65bb11ed42e294bdc9ced8b68800dc4d", "bike_id": "65bb11ed42e294bdc9ced8b68800dc4d", "fusion_lat": 0.0, "is_reserved": 0, "lat": 38.921271833333336, "fusion_lon": 0.0, "is_disabled": 0}, {"rental_uris": {"android": "https://dc.lft.to/lastmile_qr_scan", "ios": "https://dc.lft.to/lastmile_qr_scan"}, "type": "electric_scooter", "lon": -77.03332316666666, "name": "86ef7d1320bc2bc0c3d6066352c5917c", "bike_id": "86ef7d1320bc2bc0c3d6066352c5917c", "fusion_lat": 0.0, "is_reserved": 0, "lat": 38.9036975, "fusion_lon": 0.0, "is_disabled": 0}, {"rental_uris": {"android": "https://dc.lft.to/lastmile_qr_scan", "ios": "https://dc.lft.to/lastmile_qr_scan"}, "type": "electric_scooter", "lon": -77.0344155, "name": "ad40e3bf4fa71479f528d9868fab946b", "bike_id": "ad40e3bf4fa71479f528d9868fab946b", "fusion_lat": 0.0, "is_reserved": 0, "lat": 38.9287215, "fusion_lon": 0.0, "is_disabled": 0}, {"rental_uris": {"android": "https://dc.lft.to/lastmile_qr_scan", "ios": "https://dc.lft.to/lastmile_qr_scan"}, "type": "electric_scooter", "lon": -77.02405, "name": "661c903729d443b3f87824dc16a63f87", "bike_id": "661c903729d443b3f87824dc16a63f87", "fusion_lat": 0.0, "is_reserved": 0, "lat": 38.92002333333333, "fusion_lon": 0.0, "is_disabled": 0}, {"rental_uris": {"android": "https://dc.lft.to/lastmile_qr_scan", "ios": "https://dc.lft.to/lastmile_qr_scan"}, "type": "electric_scooter", "lon": -77.07993633333334, "name": "61e528e1e20dabedbf3fcaa7e25d0c71", "bike_id": "61e528e1e20dabedbf3fcaa7e25d0c71", "fusion_lat": 0.0, "is_reserved": 0, "lat": 38.923668166666666, "fusion_lon": 0.0, "is_disabled": 0}, {"rental_uris": {"android": "https://dc.lft.to/lastmile_qr_scan", "ios": "https://dc.lft.to/lastmile_qr_scan"}, "type": "electric_bike", "lon": -76.97330366666667, "name": "dcd6d8557c5bd9d90a579a1c6debec93", "bike_id": "dcd6d8557c5bd9d90a579a1c6debec93", "fusion_lat": 0.0, "is_reserved": 0, "lat": 38.850620166666666, "fusion_lon": 0.0, "is_disabled": 0}, {"rental_uris": {"android": "https://dc.lft.to/lastmile_qr_scan", "ios": "https://dc.lft.to/lastmile_qr_scan"}, "type": "electric_scooter", "lon": -77.02424783333333, "name": "e9f5c392ff6e8d9bfd74ebd4992983f2", "bike_id": "e9f5c392ff6e8d9bfd74ebd4992983f2", "fusion_lat": 0.0, "is_reserved": 0, "lat": 38.909611166666664, "fusion_lon": 0.0, "is_disabled": 0}, {"rental_uris": {"android": "https://dc.lft.to/lastmile_qr_scan", "ios": "https://dc.lft.to/lastmile_qr_scan"}, "type": "electric_scooter", "lon": -77.04026033333334, "name": "b280a410fcb5df82e14178f57d596796", "bike_id": "b280a410fcb5df82e14178f57d596796", "fusion_lat": 0.0, "is_reserved": 0, "lat": 38.9245285, "fusion_lon": 0.0, "is_disabled": 0}, {"rental_uris": {"android": "https://dc.lft.to/lastmile_qr_scan", "ios": "https://dc.lft.to/lastmile_qr_scan"}, "type": "electric_scooter", "lon": -77.02504783333333, "name": "eee137b26d713440b13d2320cbcf7129", "bike_id": "eee137b26d713440b13d2320cbcf7129", "fusion_lat": 0.0, "is_reserved": 0, "lat": 38.94198883333333, "fusion_lon": 0.0, "is_disabled": 0}, {"rental_uris": {"android": "https://dc.lft.to/lastmile_qr_scan", "ios": "https://dc.lft.to/lastmile_qr_scan"}, "type": "electric_scooter", "lon": -77.03523683333333, "name": "bce48a53fa40d698ea1c168549e1906d", "bike_id": "bce48a53fa40d698ea1c168549e1906d", "fusion_lat": 0.0, "is_reserved": 0, "lat": 38.92330366666667, "fusion_lon": 0.0, "is_disabled": 0}, {"rental_uris": {"android": "https://dc.lft.to/lastmile_qr_scan", "ios": "https://dc.lft.to/lastmile_qr_scan"}, "type": "electric_scooter", "lon": -77.03977633333334, "name": "3493c9ead936660def86b10b9d544815", "bike_id": "3493c9ead936660def86b10b9d544815", "fusion_lat": 0.0, "is_reserved": 0, "lat": 38.90630383333333, "fusion_lon": 0.0, "is_disabled": 0}, {"rental_uris": {"android": "https://dc.lft.to/lastmile_qr_scan", "ios": "https://dc.lft.to/lastmile_qr_scan"}, "type": "electric_scooter", "lon": -77.02172, "name": "7134ce6c1cf0cdc2530649264a2e75f1", "bike_id": "7134ce6c1cf0cdc2530649264a2e75f1", "fusion_lat": 0.0, "is_reserved": 0, "lat": 38.88743016666667, "fusion_lon": 0.0, "is_disabled": 0}, {"rental_uris": {"android": "https://dc.lft.to/lastmile_qr_scan", "ios": "https://dc.lft.to/lastmile_qr_scan"}, "type": "electric_scooter", "lon": -77.0472035, "name": "529de5e5d7d3a4119c1b074604eb3447", "bike_id": "529de5e5d7d3a4119c1b074604eb3447", "fusion_lat": 0.0, "is_reserved": 0, "lat": 38.89611216666667, "fusion_lon": 0.0, "is_disabled": 0}, {"rental_uris": {"android": "https://dc.lft.to/lastmile_qr_scan", "ios": "https://dc.lft.to/lastmile_qr_scan"}, "type": "electric_scooter", "lon": -77.01961816666666, "name": "4ae926526f3af398fe79c40cb4eaa29e", "bike_id": "4ae926526f3af398fe79c40cb4eaa29e", "fusion_lat": 0.0, "is_reserved": 0, "lat": 38.93575766666667, "fusion_lon": 0.0, "is_disabled": 0}, {"rental_uris": {"android": "https://dc.lft.to/lastmile_qr_scan", "ios": "https://dc.lft.to/lastmile_qr_scan"}, "type": "electric_scooter", "lon": -77.04660966666667, "name": "ff7fd33cea2724d6d2efd793f66e85a5", "bike_id": "ff7fd33cea2724d6d2efd793f66e85a5", "fusion_lat": 0.0, "is_reserved": 0, "lat": 38.90511816666667, "fusion_lon": 0.0, "is_disabled": 0}, {"rental_uris": {"android": "https://dc.lft.to/lastmile_qr_scan", "ios": "https://dc.lft.to/lastmile_qr_scan"}, "type": "electric_scooter", "lon": -77.04614883333333, "name": "0d673e2bb549442e124f9cb195d14753", "bike_id": "0d673e2bb549442e124f9cb195d14753", "fusion_lat": 0.0, "is_reserved": 0, "lat": 38.9027985, "fusion_lon": 0.0, "is_disabled": 0}, {"rental_uris": {"android": "https://dc.lft.to/lastmile_qr_scan", "ios": "https://dc.lft.to/lastmile_qr_scan"}, "type": "electric_scooter", "lon": -77.008754, "name": "d1d80c7a9ade6cdea91a0e6d3eac4c27", "bike_id": "d1d80c7a9ade6cdea91a0e6d3eac4c27", "fusion_lat": 0.0, "is_reserved": 0, "lat": 38.90575716666667, "fusion_lon": 0.0, "is_disabled": 0}, {"rental_uris": {"android": "https://dc.lft.to/lastmile_qr_scan", "ios": "https://dc.lft.to/lastmile_qr_scan"}, "type": "electric_scooter", "lon": -77.0327935, "name": "4455c47e32ecd197bf18b5bb9010220a", "bike_id": "4455c47e32ecd197bf18b5bb9010220a", "fusion_lat": 0.0, "is_reserved": 0, "lat": 38.932522666666664, "fusion_lon": 0.0, "is_disabled": 0}, {"rental_uris": {"android": "https://dc.lft.to/lastmile_qr_scan", "ios": "https://dc.lft.to/lastmile_qr_scan"}, "type": "electric_scooter", "lon": -77.03393616666666, "name": "91a5c0c40d11a228155982f417a03f5d", "bike_id": "91a5c0c40d11a228155982f417a03f5d", "fusion_lat": 0.0, "is_reserved": 0, "lat": 38.91914216666667, "fusion_lon": 0.0, "is_disabled": 0}, {"rental_uris": {"android": "https://dc.lft.to/lastmile_qr_scan", "ios": "https://dc.lft.to/lastmile_qr_scan"}, "type": "electric_scooter", "lon": -77.02712183333334, "name": "8de8e2f82815a87116495cbefb57b14e", "bike_id": "8de8e2f82815a87116495cbefb57b14e", "fusion_lat": 0.0, "is_reserved": 0, "lat": 38.94996833333333, "fusion_lon": 0.0, "is_disabled": 0}, {"rental_uris": {"android": "https://dc.lft.to/lastmile_qr_scan", "ios": "https://dc.lft.to/lastmile_qr_scan"}, "type": "electric_scooter", "lon": -77.01245783333333, "name": "572d240d786add058afce0fbbf84b5f8", "bike_id": "572d240d786add058afce0fbbf84b5f8", "fusion_lat": 0.0, "is_reserved": 0, "lat": 38.908625666666666, "fusion_lon": 0.0, "is_disabled": 0}, {"rental_uris": {"android": "https://dc.lft.to/lastmile_qr_scan", "ios": "https://dc.lft.to/lastmile_qr_scan"},