{"data": {"bikes": [{"bike_id": "6e4f7da9531c4c5a5d27c1674d305a9b", "type": "electric_scooter", "is_disabled": 0, "lat": 38.9155135, "rental_uris": {"ios": "https://dc.lft.to/lastmile_qr_scan", "android": "https://dc.lft.to/lastmile_qr_scan"}, "is_reserved": 0, "fusion_lon": 0.0, "fusion_lat": 0.0, "lon": -77.03212066666667, "name": "6e4f7da9531c4c5a5d27c1674d305a9b"}, {"bike_id": "4e3295af7eadc291f8922694fb6c2d53", "type": "electric_scooter", "is_disabled": 0, "lat": 38.91823383333333, "rental_uris": {"ios": "https://dc.lft.to/lastmile_qr_scan", "android": "https://dc.lft.to/lastmile_qr_scan"}, "is_reserved": 0, "fusion_lon": 0.0, "fusion_lat": 0.0, "lon": -77.04942166666666, "name": "4e3295af7eadc291f8922694fb6c2d53"}, {"bike_id": "809e201bf9517260519ce3e35cb2bff4", "type": "electric_scooter", "is_disabled": 0, "lat": 38.94311583333333, "rental_uris": {"ios": "https://dc.lft.to/lastmile_qr_scan", "android": "https://dc.lft.to/lastmile_qr_scan"}, "is_reserved": 0, "fusion_lon": 0.0, "fusion_lat": 0.0, "lon": -77.061711, "name": "809e201bf9517260519ce3e35cb2bff4"}, {"bike_id": "ca5ed4704ddfdf4355aeb215acbcf013", "type": "electric_scooter", "is_disabled": 0, "lat": 38.90738966666667, "rental_uris": {"ios": "https://dc.lft.to/lastmile_qr_scan", "android": "https://dc.lft.to/lastmile_qr_scan"}, "is_reserved": 0, "fusion_lon": 0.0, "fusion_lat": 0.0, "lon": -77.02185466666667, "name": "ca5ed4704ddfdf4355aeb215acbcf013"}, {"bike_id": "731ba29abeeeb4279bc0feacdbe7e9ad", "type": "electric_scooter", "is_disabled": 0, "lat": 38.9250505, "rental_uris": {"ios": "https://dc.lft.to/lastmile_qr_scan", "android": "https://dc.lft.to/lastmile_qr_scan"}, "is_reserved": 0, "fusion_lon": 0.0, "fusion_lat": 0.0, "lon": -77.021618, "name": "731ba29abeeeb4279bc0feacdbe7e9ad"}, {"bike_id": "d43bc02ea9d450a3da73d1ef0a503e65", "type": "electric_scooter", "is_disabled": 0, "lat": 38.925035333333334, "rental_uris": {"ios": "https://dc.lft.to/lastmile_qr_scan", "android": "https://dc.lft.to/lastmile_qr_scan"}, "is_reserved": 0, "fusion_lon": 0.0, "fusion_lat": 0.0, "lon": -77.037905, "name": "d43bc02ea9d450a3da73d1ef0a503e65"}, {"bike_id": "645b7139443ab2dbfee037e7123240dc", "type": "electric_scooter", "is_disabled": 0, "lat": 38.90968266666667, "rental_uris": {"ios": "https://dc.lft.to/lastmile_qr_scan", "android": "https://dc.lft.to/lastmile_qr_scan"}, "is_reserved": 0, "fusion_lon": 0.0, "fusion_lat": 0.0, "lon": -77.02177916666666, "name": "645b7139443ab2dbfee037e7123240dc"}, {"bike_id": "58a002367a31c11b7828baaf99ff2330", "type": "electric_scooter", "is_disabled": 0, "lat": 38.905617666666664, "rental_uris": {"ios": "https://dc.lft.to/lastmile_qr_scan", "android": "https://dc.lft.to/lastmile_qr_scan"}, "is_reserved": 0, "fusion_lon": 0.0, "fusion_lat": 0.0, "lon": -77.0307445, "name": "58a002367a31c11b7828baaf99ff2330"}, {"bike_id": "3673708574e8b9179e7281f049f6c487", "type": "electric_scooter", "is_disabled": 0, "lat": 38.89238066666667, "rental_uris": {"ios": "https://dc.lft.to/lastmile_qr_scan", "android": "https://dc.lft.to/lastmile_qr_scan"}, "is_reserved": 0, "fusion_lon": 0.0, "fusion_lat": 0.0, "lon": -77.04163383333334, "name": "3673708574e8b9179e7281f049f6c487"}, {"bike_id": "04b9cdb97e750e551d81e41ef0762cad", "type": "electric_scooter", "is_disabled": 0, "lat": 38.89833516666667, "rental_uris": {"ios": "https://dc.lft.to/lastmile_qr_scan", "android": "https://dc.lft.to/lastmile_qr_scan"}, "is_reserved": 0, "fusion_lon": 0.0, "fusion_lat": 0.0, "lon": -77.02198716666666, "name": "04b9cdb97e750e551d81e41ef0762cad"}, {"bike_id": "9e287af45165d547e207dbbc1347887c", "type": "electric_scooter", "is_disabled": 0, "lat": 38.8840895, "rental_uris": {"ios": "https://dc.lft.to/lastmile_qr_scan", "android": "https://dc.lft.to/lastmile_qr_scan"}, "is_reserved": 0, "fusion_lon": 0.0, "fusion_lat": 0.0, "lon": -77.01958216666667, "name": "9e287af45165d547e207dbbc1347887c"}, {"bike_id": "7d5949021b6cbe079df93fb5f5d1458b", "type": "electric_scooter", "is_disabled": 0, "lat": 38.9120085, "rental_uris": {"ios": "https://dc.lft.to/lastmile_qr_scan", "android": "https://dc.lft.to/lastmile_qr_scan"}, "is_reserved": 0, "fusion_lon": 0.0, "fusion_lat": 0.0, "lon": -77.03217133333334, "name": "7d5949021b6cbe079df93fb5f5d1458b"}, {"bike_id": "3b0b5840545796d4b54dc77b27cb3268", "type": "electric_bike", "is_disabled": 0, "lat": 38.897416666666665, "rental_uris": {"ios": "https://dc.lft.to/lastmile_qr_scan", "android": "https://dc.lft.to/lastmile_qr_scan"}, "is_reserved": 0, "fusion_lon": 0.0, "fusion_lat": 0.0, "lon": -76.920463, "name": "3b0b5840545796d4b54dc77b27cb3268"}, {"bike_id": "a4f71c332480c0e6c96484475dd6f55b", "type": "electric_scooter", "is_disabled": 0, "lat": 38.88715466666667, "rental_uris": {"ios": "https://dc.lft.to/lastmile_qr_scan", "android": "https://dc.lft.to/lastmile_qr_scan"}, "is_reserved": 0, "fusion_lon": 0.0, "fusion_lat": 0.0, "lon": -77.01774316666666, "name": "a4f71c332480c0e6c96484475dd6f55b"}, {"bike_id": "78aeace2d2181abfba65c7a0e636dde6", "type": "electric_scooter", "is_disabled": 0, "lat": 38.91470233333333, "rental_uris": {"ios": "https://dc.lft.to/lastmile_qr_scan", "android": "https://dc.lft.to/lastmile_qr_scan"}, "is_reserved": 0, "fusion_lon": 0.0, "fusion_lat": 0.0, "lon": -77.045888, "name": "78aeace2d2181abfba65c7a0e636dde6"}, {"bike_id": "454a34590310e444b989f60e7c0ba002", "type": "electric_scooter", "is_disabled": 0, "lat": 38.90264616666666, "rental_uris": {"ios": "https://dc.lft.to/lastmile_qr_scan", "android": "https://dc.lft.to/lastmile_qr_scan"}, "is_reserved": 0, "fusion_lon": 0.0, "fusion_lat": 0.0, "lon": -76.98120633333333, "name": "454a34590310e444b989f60e7c0ba002"}, {"bike_id": "98e65bad707836cb8bcfae958a30d01e", "type": "electric_scooter", "is_disabled": 0, "lat": 38.874714833333336, "rental_uris": {"ios": "https://dc.lft.to/lastmile_qr_scan", "android": "https://dc.lft.to/lastmile_qr_scan"}, "is_reserved": 0, "fusion_lon": 0.0, "fusion_lat": 0.0, "lon": -77.00559083333333, "name": "98e65bad707836cb8bcfae958a30d01e"}, {"bike_id": "76eea1673431f309bcc86e24e006d72c", "type": "electric_scooter", "is_disabled": 0, "lat": 38.909613, "rental_uris": {"ios": "https://dc.lft.to/lastmile_qr_scan", "android": "https://dc.lft.to/lastmile_qr_scan"}, "is_reserved": 0, "fusion_lon": 0.0, "fusion_lat": 0.0, "lon": -77.03633883333333, "name": "76eea1673431f309bcc86e24e006d72c"}, {"bike_id": "2eb032444fdcbc972c413583d9ed3acb", "type": "electric_scooter", "is_disabled": 0, "lat": 38.903048166666665, "rental_uris": {"ios": "https://dc.lft.to/lastmile_qr_scan", "android": "https://dc.lft.to/lastmile_qr_scan"}, "is_reserved": 0, "fusion_lon": 0.0, "fusion_lat": 0.0, "lon": -77.03345683333333, "name": "2eb032444fdcbc972c413583d9ed3acb"}, {"bike_id": "e433b4e2598b221cccd69c9a934c016d", "type": "electric_scooter", "is_disabled": 0, "lat": 38.88740966666667, "rental_uris": {"ios": "https://dc.lft.to/lastmile_qr_scan", "android": "https://dc.lft.to/lastmile_qr_scan"}, "is_reserved": 0, "fusion_lon": 0.0, "fusion_lat": 0.0, "lon": -77.01531183333333, "name": "e433b4e2598b221cccd69c9a934c016d"}, {"bike_id": "8062bb61c0b4622eaf1c393064d6cf17", "type": "electric_scooter", "is_disabled": 0, "lat": 38.922150333333335, "rental_uris": {"ios": "https://dc.lft.to/lastmile_qr_scan", "android": "https://dc.lft.to/lastmile_qr_scan"}, "is_reserved": 0, "fusion_lon": 0.0, "fusion_lat": 0.0, "lon": -77.0328955, "name": "8062bb61c0b4622eaf1c393064d6cf17"}, {"bike_id": "6a756f9461b24aa66a43e7c41b58c987", "type": "electric_scooter", "is_disabled": 0, "lat": 38.909754, "rental_uris": {"ios": "https://dc.lft.to/lastmile_qr_scan", "android": "https://dc.lft.to/lastmile_qr_scan"}, "is_reserved": 0, "fusion_lon": 0.0, "fusion_lat": 0.0, "lon": -77.02694916666667, "name": "6a756f9461b24aa66a43e7c41b58c987"}, {"bike_id": "e0bfb27a5d3a9b9e0c2fae27c9f5fdad", "type": "electric_scooter", "is_disabled": 0, "lat": 38.92046966666667, "rental_uris": {"ios": "https://dc.lft.to/lastmile_qr_scan", "android": "https://dc.lft.to/lastmile_qr_scan"}, "is_reserved": 0, "fusion_lon": 0.0, "fusion_lat": 0.0, "lon": -77.042554, "name": "e0bfb27a5d3a9b9e0c2fae27c9f5fdad"}, {"bike_id": "5e4d091ec1b1adccebe3f829c8fcea56", "type": "electric_scooter", "is_disabled": 0, "lat": 38.860250666666666, "rental_uris": {"ios": "https://dc.lft.to/lastmile_qr_scan", "android": "https://dc.lft.to/lastmile_qr_scan"}, "is_reserved": 0, "fusion_lon": 0.0, "fusion_lat": 0.0, "lon": -76.9968655, "name": "5e4d091ec1b1adccebe3f829c8fcea56"}, {"bike_id": "562dd9726e815f9f058f9764cce101ec", "type": "electric_bike", "is_disabled": 0, "lat": 38.87981966666667, "rental_uris": {"ios": "https://dc.lft.to/lastmile_qr_scan", "android": "https://dc.lft.to/lastmile_qr_scan"}, "is_reserved": 0, "fusion_lon": 0.0, "fusion_lat": 0.0, "lon": -76.91599666666667, "name": "562dd9726e815f9f058f9764cce101ec"}, {"bike_id": "066eb38b35b84211b7fc02742d20f7c1", "type": "electric_scooter", "is_disabled": 0, "lat": 38.892228, "rental_uris": {"ios": "https://dc.lft.to/lastmile_qr_scan", "android": "https://dc.lft.to/lastmile_qr_scan"}, "is_reserved": 0, "fusion_lon": 0.0, "fusion_lat": 0.0, "lon": -77.04310016666666, "name": "066eb38b35b84211b7fc02742d20f7c1"}, {"bike_id": "c2b159b42c7c0307ebbebb77ac35b97c", "type": "electric_scooter", "is_disabled": 0, "lat": 38.92621583333333, "rental_uris": {"ios": "https://dc.lft.to/lastmile_qr_scan", "android": "https://dc.lft.to/lastmile_qr_scan"}, "is_reserved": 0, "fusion_lon": 0.0, "fusion_lat": 0.0, "lon": -77.037133, "name": "c2b159b42c7c0307ebbebb77ac35b97c"}, {"bike_id": "a7ba2c7eae8c92275e460d7c0bd64555", "type": "electric_scooter", "is_disabled": 0, "lat": 38.898334, "rental_uris": {"ios": "https://dc.lft.to/lastmile_qr_scan", "android": "https://dc.lft.to/lastmile_qr_scan"}, "is_reserved": 0, "fusion_lon": 0.0, "fusion_lat": 0.0, "lon": -77.02219166666667, "name": "a7ba2c7eae8c92275e460d7c0bd64555"}, {"bike_id": "3511388ef6a302db5dee9175afb5eb83", "type": "electric_scooter", "is_disabled": 0, "lat": 38.888644666666664, "rental_uris": {"ios": "https://dc.lft.to/lastmile_qr_scan", "android": "https://dc.lft.to/lastmile_qr_scan"}, "is_reserved": 0, "fusion_lon": 0.0, "fusion_lat": 0.0, "lon": -77.00055333333333, "name": "3511388ef6a302db5dee9175afb5eb83"}, {"bike_id": "9991bfce7c3afcb38eea1ea0032f9a07", "type": "electric_scooter", "is_disabled": 0, "lat": 38.8769615, "rental_uris": {"ios": "https://dc.lft.to/lastmile_qr_scan", "android": "https://dc.lft.to/lastmile_qr_scan"}, "is_reserved": 0, "fusion_lon": 0.0, "fusion_lat": 0.0, "lon": -76.931308, "name": "9991bfce7c3afcb38eea1ea0032f9a07"}, {"bike_id": "a266325e4afbbce245650b298cd67879", "type": "electric_scooter", "is_disabled": 0, "lat": 38.918832333333334, "rental_uris": {"ios": "https://dc.lft.to/lastmile_qr_scan", "android": "https://dc.lft.to/lastmile_qr_scan"}, "is_reserved": 0, "fusion_lon": 0.0, "fusion_lat": 0.0, "lon": -77.04831716666666, "name": "a266325e4afbbce245650b298cd67879"}, {"bike_id": "fbddd731dd122419fae09d12a9f3b74b", "type": "electric_scooter", "is_disabled": 0, "lat": 38.9180295, "rental_uris": {"ios": "https://dc.lft.to/lastmile_qr_scan", "android": "https://dc.lft.to/lastmile_qr_scan"}, "is_reserved": 0, "fusion_lon": 0.0, "fusion_lat": 0.0, "lon": -77.03442433333333, "name": "fbddd731dd122419fae09d12a9f3b74b"}, {"bike_id": "498003da4e9cd185678cee6fff85cd4c", "type": "electric_scooter", "is_disabled": 0, "lat": 38.950385833333335, "rental_uris": {"ios": "https://dc.lft.to/lastmile_qr_scan", "android": "https://dc.lft.to/lastmile_qr_scan"}, "is_reserved": 0, "fusion_lon": 0.0, "fusion_lat": 0.0, "lon": -77.027145, "name": "498003da4e9cd185678cee6fff85cd4c"}, {"bike_id": "0384bbbe43ccc180585f5923286cb890", "type": "electric_scooter", "is_disabled": 0, "lat": 38.92149883333333, "rental_uris": {"ios": "https://dc.lft.to/lastmile_qr_scan", "android": "https://dc.lft.to/lastmile_qr_scan"}, "is_reserved": 0, "fusion_lon": 0.0, "fusion_lat": 0.0, "lon": -77.03869333333333, "name": "0384bbbe43ccc180585f5923286cb890"}, {"bike_id": "70f0c0e466eedaf687dd512529d2ed30", "type": "electric_scooter", "is_disabled": 0, "lat": 38.89208816666667, "rental_uris": {"ios": "https://dc.lft.to/lastmile_qr_scan", "android": "https://dc.lft.to/lastmile_qr_scan"}, "is_reserved": 0, "fusion_lon": 0.0, "fusion_lat": 0.0, "lon": -76.99931933333333, "name": "70f0c0e466eedaf687dd512529d2ed30"}, {"bike_id": "5afdf9d1a6bedf722610264fc5c76c2b", "type": "electric_scooter", "is_disabled": 0, "lat": 38.938605, "rental_uris": {"ios": "https://dc.lft.to/lastmile_qr_scan", "android": "https://dc.lft.to/lastmile_qr_scan"}, "is_reserved": 0, "fusion_lon": 0.0, "fusion_lat": 0.0, "lon": -77.02462483333333, "name": "5afdf9d1a6bedf722610264fc5c76c2b"}, {"bike_id": "493a8d0a2f10ec40cb26854b91db1c75", "type": "electric_scooter", "is_disabled": 0, "lat": 38.91555133333333, "rental_uris": {"ios": "https://dc.lft.to/lastmile_qr_scan", "android": "https://dc.lft.to/lastmile_qr_scan"}, "is_reserved": 0, "fusion_lon": 0.0, "fusion_lat": 0.0, "lon": -77.03324616666667, "name": "493a8d0a2f10ec40cb26854b91db1c75"}, {"bike_id": "feaf4a2fb7ae1b74cffac4a34c6214d7", "type": "electric_scooter", "is_disabled": 0, "lat": 38.9655775, "rental_uris": {"ios": "https://dc.lft.to/lastmile_qr_scan", "android": "https://dc.lft.to/lastmile_qr_scan"}, "is_reserved": 0, "fusion_lon": 0.0, "fusion_lat": 0.0, "lon": -77.00203616666667, "name": "feaf4a2fb7ae1b74cffac4a34c6214d7"}, {"bike_id": "80a8a5ef2b7516f8c714f223cbdf4b75", "type": "electric_scooter", "is_disabled": 0, "lat": 38.91993883333333, "rental_uris": {"ios": "https://dc.lft.to/lastmile_qr_scan", "android": "https://dc.lft.to/lastmile_qr_scan"}, "is_reserved": 0, "fusion_lon": 0.0, "fusion_lat": 0.0, "lon": -77.03974066666666, "name": "80a8a5ef2b7516f8c714f223cbdf4b75"}, {"bike_id": "7f4997450ecff55bebf3fdebe24d015e", "type": "electric_scooter", "is_disabled": 0, "lat": 38.887482, "rental_uris": {"ios": "https://dc.lft.to/lastmile_qr_scan", "android": "https://dc.lft.to/lastmile_qr_scan"}, "is_reserved": 0, "fusion_lon": 0.0, "fusion_lat": 0.0, "lon": -77.02567116666667, "name": "7f4997450ecff55bebf3fdebe24d015e"}, {"bike_id": "96c31e44498b7d14a6f131f32f02964c", "type": "electric_scooter", "is_disabled": 0, "lat": 38.924740666666665, "rental_uris": {"ios": "https://dc.lft.to/lastmile_qr_scan", "android": "https://dc.lft.to/lastmile_qr_scan"}, "is_reserved": 0, "fusion_lon": 0.0, "fusion_lat": 0.0, "lon": -77.0379275, "name": "96c31e44498b7d14a6f131f32f02964c"}, {"bike_id": "e6707319c63fde78e96c220204ebbb23", "type": "electric_scooter", "is_disabled": 0, "lat": 38.932489333333336, "rental_uris": {"ios": "https://dc.lft.to/lastmile_qr_scan", "android": "https://dc.lft.to/lastmile_qr_scan"}, "is_reserved": 0, "fusion_lon": 0.0, "fusion_lat": 0.0, "lon": -77.03272166666666, "name": "e6707319c63fde78e96c220204ebbb23"}, {"bike_id": "20bbc01a9ee7d794bcfebe3bafbe3995", "type": "electric_scooter", "is_disabled": 0, "lat": 38.91413466666667, "rental_uris": {"ios": "https://dc.lft.to/lastmile_qr_scan", "android": "https://dc.lft.to/lastmile_qr_scan"}, "is_reserved": 0, "fusion_lon": 0.0, "fusion_lat": 0.0, "lon": -77.03997983333333, "name": "20bbc01a9ee7d794bcfebe3bafbe3995"}, {"bike_id": "57257335d6466140846c68b78207edc9", "type": "electric_scooter", "is_disabled": 0, "lat": 38.920778166666665, "rental_uris": {"ios": "https://dc.lft.to/lastmile_qr_scan", "android": "https://dc.lft.to/lastmile_qr_scan"}, "is_reserved": 0, "fusion_lon": 0.0, "fusion_lat": 0.0, "lon": -77.02369733333333, "name": "57257335d6466140846c68b78207edc9"}, {"bike_id": "a8d3ee5b527ab8d977cdd927eb316aee", "type": "electric_scooter", "is_disabled": 0, "lat": 38.88303, "rental_uris": {"ios": "https://dc.lft.to/lastmile_qr_scan", "android": "https://dc.lft.to/lastmile_qr_scan"}, "is_reserved": 0, "fusion_lon": 0.0, "fusion_lat": 0.0, "lon": -76.9420455, "name": "a8d3ee5b527ab8d977cdd927eb316aee"}, {"bike_id": "184faf7d3d8a742e703d4d8a09071103", "type": "electric_scooter", "is_disabled": 0, "lat": 38.9214655, "rental_uris": {"ios": "https://dc.lft.to/lastmile_qr_scan", "android": "https://dc.lft.to/lastmile_qr_scan"}, "is_reserved": 0, "fusion_lon": 0.0, "fusion_lat": 0.0, "lon": -77.034381, "name": "184faf7d3d8a742e703d4d8a09071103"}, {"bike_id": "e9d116d09c28c88b3924167e82b46681", "type": "electric_scooter", "is_disabled": 0, "lat": 38.902311, "rental_uris": {"ios": "https://dc.lft.to/lastmile_qr_scan", "android": "https://dc.lft.to/lastmile_qr_scan"}, "is_reserved": 0, "fusion_lon": 0.0, "fusion_lat": 0.0, "lon": -77.01808166666666, "name": "e9d116d09c28c88b3924167e82b46681"}, {"bike_id": "63d90c62b3f8a28b6eb8a592619613e5", "type": "electric_scooter", "is_disabled": 0, "lat": 38.915988166666665, "rental_uris": {"ios": "https://dc.lft.to/lastmile_qr_scan", "android": "https://dc.lft.to/lastmile_qr_scan"}, "is_reserved": 0, "fusion_lon": 0.0, "fusion_lat": 0.0, "lon": -77.00197016666667, "name": "63d90c62b3f8a28b6eb8a592619613e5"}, {"bike_id": "59c24be8e274e9dd5143a5d6d5680be2", "type": "electric_scooter", "is_disabled": 0, "lat": 38.923255166666664, "rental_uris": {"ios": "https://dc.lft.to/lastmile_qr_scan", "android": "https://dc.lft.to/lastmile_qr_scan"}, "is_reserved": 0, "fusion_lon": 0.0, "fusion_lat": 0.0, "lon": -77.02961383333333, "name": "59c24be8e274e9dd5143a5d6d5680be2"}, {"bike_id": "ac97db5f0dce50d28407330f24a10cce", "type": "electric_scooter", "is_disabled": 0, "lat": 38.91191583333333, "rental_uris": {"ios": "https://dc.lft.to/lastmile_qr_scan", "android": "https://dc.lft.to/lastmile_qr_scan"}, "is_reserved": 0, "fusion_lon": 0.0, "fusion_lat": 0.0, "lon": -77.01195966666667, "name": "ac97db5f0dce50d28407330f24a10cce"}, {"bike_id": "58bf5cbe8f6a2d3ff353272856f3e54a", "type": "electric_scooter", "is_disabled": 0, "lat": 38.923579, "rental_uris": {"ios": "https://dc.lft.to/lastmile_qr_scan", "android": "https://dc.lft.to/lastmile_qr_scan"}, "is_reserved": 0, "fusion_lon": 0.0, "fusion_lat": 0.0, "lon": -77.07641633333333, "name": "58bf5cbe8f6a2d3ff353272856f3e54a"}, {"bike_id": "80f17162795558f7a81982585a275569", "type": "electric_bike", "is_disabled": 0, "lat": 38.973990666666666, "rental_uris": {"ios": "https://dc.lft.to/lastmile_qr_scan", "android": "https://dc.lft.to/lastmile_qr_scan"}, "is_reserved": 0, "fusion_lon": 0.0, "fusion_lat": 0.0, "lon": -77.06451583333333, "name": "80f17162795558f7a81982585a275569"}, {"bike_id": "b9acaa5da2932736d5258ff9b4f8f786", "type": "electric_scooter", "is_disabled": 0, "lat": 38.957867666666665, "rental_uris": {"ios": "https://dc.lft.to/lastmile_qr_scan", "android": "https://dc.lft.to/lastmile_qr_scan"}, "is_reserved": 0, "fusion_lon": 0.0, "fusion_lat": 0.0, "lon": -77.032155, "name": "b9acaa5da2932736d5258ff9b4f8f786"}, {"bike_id": "ea360c966d11e67efe62530ee4a9d4c4", "type": "electric_scooter", "is_disabled": 0, "lat": 38.923410833333335, "rental_uris": {"ios": "https://dc.lft.to/lastmile_qr_scan", "android": "https://dc.lft.to/lastmile_qr_scan"}, "is_reserved": 0, "fusion_lon": 0.0, "fusion_lat": 0.0, "lon": -77.0512065, "name": "ea360c966d11e67efe62530ee4a9d4c4"}, {"bike_id": "29426f98d78f367ac7f142d077918eeb", "type": "electric_scooter", "is_disabled": 0, "lat": 38.922490833333335, "rental_uris": {"ios": "https://dc.lft.to/lastmile_qr_scan", "android": "https://dc.lft.to/lastmile_qr_scan"}, "is_reserved": 0, "fusion_lon": 0.0, "fusion_lat": 0.0, "lon": -77.03087383333333, "name": "29426f98d78f367ac7f142d077918eeb"}, {"bike_id": "27d48c705177b04564bdd60dccd22d50", "type": "electric_scooter", "is_disabled": 0, "lat": 38.92384083333334, "rental_uris": {"ios": "https://dc.lft.to/lastmile_qr_scan", "android": "https://dc.lft.to/lastmile_qr_scan"}, "is_reserved": 0, "fusion_lon": 0.0, "fusion_lat": 0.0, "lon": -77.02980216666667, "name": "27d48c705177b04564bdd60dccd22d50"}, {"bike_id": "e18095b02385d9a531f014e603fc1316", "type": "electric_scooter", "is_disabled": 0, "lat": 38.897308833333334, "rental_uris": {"ios": "https://dc.lft.to/lastmile_qr_scan", "android": "https://dc.lft.to/lastmile_qr_scan"}, "is_reserved": 0, "fusion_lon": 0.0, "fusion_lat": 0.0, "lon": -77.01764866666667, "name": "e18095b02385d9a531f014e603fc1316"}, {"bike_id": "a7bb96cb11b4fca91e06eafef656c156", "type": "electric_scooter", "is_disabled": 0, "lat": 38.923271166666666, "rental_uris": {"ios": "https://dc.lft.to/lastmile_qr_scan", "android": "https://dc.lft.to/lastmile_qr_scan"}, "is_reserved": 0, "fusion_lon": 0.0, "fusion_lat": 0.0, "lon": -77.03782133333333, "name": "a7bb96cb11b4fca91e06eafef656c156"}, {"bike_id": "13247bcece24447e9853d24067c63039", "type": "electric_scooter", "is_disabled": 0, "lat": 38.910388, "rental_uris": {"ios": "https://dc.lft.to/lastmile_qr_scan", "android": "https://dc.lft.to/lastmile_qr_scan"}, "is_reserved": 0, "fusion_lon": 0.0, "fusion_lat": 0.0, "lon": -77.03800783333334, "name": "13247bcece24447e9853d24067c63039"}, {"bike_id": "ac4e563313909e4bbc932d770cf23e29", "type": "electric_scooter", "is_disabled": 0, "lat": 38.92093666666667, "rental_uris": {"ios": "https://dc.lft.to/lastmile_qr_scan", "android": "https://dc.lft.to/lastmile_qr_scan"}, "is_reserved": 0, "fusion_lon": 0.0, "fusion_lat": 0.0, "lon": -77.023432, "name": "ac4e563313909e4bbc932d770cf23e29"}, {"bike_id": "846088bc7a364aa1d4cc0619b7055b51", "type": "electric_scooter", "is_disabled": 0, "lat": 38.92330883333333, "rental_uris": {"ios": "https://dc.lft.to/lastmile_qr_scan", "android": "https://dc.lft.to/lastmile_qr_scan"}, "is_reserved": 0, "fusion_lon": 0.0, "fusion_lat": 0.0, "lon": -77.0537165, "name": "846088bc7a364aa1d4cc0619b7055b51"}, {"bike_id": "419528ae33dcd37ceccfebc365e01a17", "type": "electric_scooter", "is_disabled": 0, "lat": 38.91180416666667, "rental_uris": {"ios": "https://dc.lft.to/lastmile_qr_scan", "android": "https://dc.lft.to/lastmile_qr_scan"}, "is_reserved": 0, "fusion_lon": 0.0, "fusion_lat": 0.0, "lon": -77.01208633333333, "name": "419528ae33dcd37ceccfebc365e01a17"}, {"bike_id": "73bc6169a90237753b3751d6c90e93a4", "type": "electric_scooter", "is_disabled": 0, "lat": 38.91818516666667, "rental_uris": {"ios": "https://dc.lft.to/lastmile_qr_scan", "android": "https://dc.lft.to/lastmile_qr_scan"}, "is_reserved": 0, "fusion_lon": 0.0, "fusion_lat": 0.0, "lon": -77.012058, "name": "73bc6169a90237753b3751d6c90e93a4"}, {"bike_id": "e48887c555c2d1174c78eb51ce4b1bd2", "type": "electric_scooter", "is_disabled": 0, "lat": 38.872433666666666, "rental_uris": {"ios": "https://dc.lft.to/lastmile_qr_scan", "android": "https://dc.lft.to/lastmile_qr_scan"}, "is_reserved": 0, "fusion_lon": 0.0, "fusion_lat": 0.0, "lon": -76.97722133333333, "name": "e48887c555c2d1174c78eb51ce4b1bd2"}, {"bike_id": "fb4d3f09033da773c43195392322eb89", "type": "electric_scooter", "is_disabled": 0, "lat": 38.885321, "rental_uris": {"ios": "https://dc.lft.to/lastmile_qr_scan", "android": "https://dc.lft.to/lastmile_qr_scan"}, "is_reserved": 0, "fusion_lon": 0.0, "fusion_lat": 0.0, "lon": -76.99824433333333, "name": "fb4d3f09033da773c43195392322eb89"}, {"bike_id": "c9a70c6ae288883b597e334142332a6c", "type": "electric_scooter", "is_disabled": 0, "lat": 38.91923883333333, "rental_uris": {"ios": "https://dc.lft.to/lastmile_qr_scan", "android": "https://dc.lft.to/lastmile_qr_scan"}, "is_reserved": 0, "fusion_lon": 0.0, "fusion_lat": 0.0, "lon": -77.03175733333333, "name": "c9a70c6ae288883b597e334142332a6c"}, {"bike_id": "f77cc1948ddcfe21acaababb38cdd41e", "type": "electric_scooter", "is_disabled": 0, "lat": 38.91266866666667, "rental_uris": {"ios": "https://dc.lft.to/lastmile_qr_scan", "android": "https://dc.lft.to/lastmile_qr_scan"}, "is_reserved": 0, "fusion_lon": 0.0, "fusion_lat": 0.0, "lon": -77.02214883333333, "name": "f77cc1948ddcfe21acaababb38cdd41e"}, {"bike_id": "c521639b6535e1e99761acbe73dcd3c7", "type": "electric_bike", "is_disabled": 0, "lat": 38.9257505, "rental_uris": {"ios": "https://dc.lft.to/lastmile_qr_scan", "android": "https://dc.lft.to/lastmile_qr_scan"}, "is_reserved": 0, "fusion_lon": 0.0, "fusion_lat": 0.0, "lon": -77.04372433333333, "name": "c521639b6535e1e99761acbe73dcd3c7"}, {"bike_id": "009c8862dd3cfae7c9e67ef44043ea7b", "type": "electric_scooter", "is_disabled": 0, "lat": 38.92901583333333, "rental_uris": {"ios": "https://dc.lft.to/lastmile_qr_scan", "android": "https://dc.lft.to/lastmile_qr_scan"}, "is_reserved": 0, "fusion_lon": 0.0, "fusion_lat": 0.0, "lon": -77.02746, "name": "009c8862dd3cfae7c9e67ef44043ea7b"}, {"bike_id": "94afc4da9ca6b0e750d049ccbd8aa45e", "type": "electric_scooter", "is_disabled": 0, "lat": 38.92245916666667, "rental_uris": {"ios": "https://dc.lft.to/lastmile_qr_scan", "android": "https://dc.lft.to/lastmile_qr_scan"}, "is_reserved": 0, "fusion_lon": 0.0, "fusion_lat": 0.0, "lon": -77.042696, "name": "94afc4da9ca6b0e750d049ccbd8aa45e"}, {"bike_id": "1b29489f35f8fd7de87c8e5baacb037a", "type": "electric_scooter", "is_disabled": 0, "lat": 38.9213195, "rental_uris": {"ios": "https://dc.lft.to/lastmile_qr_scan", "android": "https://dc.lft.to/lastmile_qr_scan"}, "is_reserved": 0, "fusion_lon": 0.0, "fusion_lat": 0.0, "lon": -77.04410283333333, "name": "1b29489f35f8fd7de87c8e5baacb037a"}, {"bike_id": "32288d59b5ef9098f7e6d5f7e06640d8", "type": "electric_scooter", "is_disabled": 0, "lat": 38.9206285, "rental_uris": {"ios": "https://dc.lft.to/lastmile_qr_scan", "android": "https://dc.lft.to/lastmile_qr_scan"}, "is_reserved": 0, "fusion_lon": 0.0, "fusion_lat": 0.0, "lon": -77.033468, "name": "32288d59b5ef9098f7e6d5f7e06640d8"}, {"bike_id": "c6cfc93da9b7bbebe060af17b722c5f9", "type": "electric_scooter", "is_disabled": 0, "lat": 38.862463166666664, "rental_uris": {"ios": "https://dc.lft.to/lastmile_qr_scan", "android": "https://dc.lft.to/lastmile_qr_scan"}, "is_reserved": 0, "fusion_lon": 0.0, "fusion_lat": 0.0, "lon": -76.9950165, "name": "c6cfc93da9b7bbebe060af17b722c5f9"}, {"bike_id": "303b12826e36b67d9c33dc597b43442e", "type": "electric_scooter", "is_disabled": 0, "lat": 38.883775666666665, "rental_uris": {"ios": "https://dc.lft.to/lastmile_qr_scan", "android": "https://dc.lft.to/lastmile_qr_scan"}, "is_reserved": 0, "fusion_lon": 0.0, "fusion_lat": 0.0, "lon": -77.01997166666666, "name": "303b12826e36b67d9c33dc597b43442e"}, {"bike_id": "681f9f3825004588a6a4535d4c5d5763", "type": "electric_scooter", "is_disabled": 0, "lat": 38.928742, "rental_uris": {"ios": "https://dc.lft.to/lastmile_qr_scan", "android": "https://dc.lft.to/lastmile_qr_scan"}, "is_reserved": 0, "fusion_lon": 0.0, "fusion_lat": 0.0, "lon": -77.034098, "name": "681f9f3825004588a6a4535d4c5d5763"}, {"bike_id": "4618337ca2a7e6d8f3dee4119b4bee58", "type": "electric_scooter", "is_disabled": 0, "lat": 38.898509, "rental_uris": {"ios": "https://dc.lft.to/lastmile_qr_scan", "android": "https://dc.lft.to/lastmile_qr_scan"}, "is_reserved": 0, "fusion_lon": 0.0, "fusion_lat": 0.0, "lon": -76.92912233333334, "name": "4618337ca2a7e6d8f3dee4119b4bee58"}, {"bike_id": "a71cbc8de272ce2de7965a4dc488a56c", "type": "electric_scooter", "is_disabled": 0, "lat": 38.906811, "rental_uris": {"ios": "https://dc.lft.to/lastmile_qr_scan", "android": "https://dc.lft.to/lastmile_qr_scan"}, "is_reserved": 0, "fusion_lon": 0.0, "fusion_lat": 0.0, "lon": -76.98003616666666, "name": "a71cbc8de272ce2de7965a4dc488a56c"}, {"bike_id": "118cb8c459bdff739c3dc0d25f5ba08c", "type": "electric_scooter", "is_disabled": 0, "lat": 38.93110183333334, "rental_uris": {"ios": "https://dc.lft.to/lastmile_qr_scan", "android": "https://dc.lft.to/lastmile_qr_scan"}, "is_reserved": 0, "fusion_lon": 0.0, "fusion_lat": 0.0, "lon": -77.04116366666666, "name": "118cb8c459bdff739c3dc0d25f5ba08c"}, {"bike_id": "8d9a61160a282dc495f3239cf234db2c", "type": "electric_scooter", "is_disabled": 0, "lat": 38.9482315, "rental_uris": {"ios": "https://dc.lft.to/lastmile_qr_scan", "android": "https://dc.lft.to/lastmile_qr_scan"}, "is_reserved": 0, "fusion_lon": 0.0, "fusion_lat": 0.0, "lon": -77.02485666666666, "name": "8d9a61160a282dc495f3239cf234db2c"}, {"bike_id": "dd3e93efb93955510bbd1a0fcf373e09", "type": "electric_scooter", "is_disabled": 0, "lat": 38.89384666666667, "rental_uris": {"ios": "https://dc.lft.to/lastmile_qr_scan", "android": "https://dc.lft.to/lastmile_qr_scan"}, "is_reserved": 0, "fusion_lon": 0.0, "fusion_lat": 0.0, "lon": -77.02271633333334, "name": "dd3e93efb93955510bbd1a0fcf373e09"}, {"bike_id": "a74e67341f62271055b1d878ec159db1", "type": "electric_scooter", "is_disabled": 0, "lat": 38.914254666666665, "rental_uris": {"ios": "https://dc.lft.to/lastmile_qr_scan", "android": "https://dc.lft.to/lastmile_qr_scan"}, "is_reserved": 0, "fusion_lon": 0.0, "fusion_lat": 0.0, "lon": -77.03183866666667, "name": "a74e67341f62271055b1d878ec159db1"}, {"bike_id": "92c25afd04576fbe209a3c05099ea11d", "type": "electric_scooter", "is_disabled": 0, "lat": 38.90344916666667, "rental_uris": {"ios": "https://dc.lft.to/lastmile_qr_scan", "android": "https://dc.lft.to/lastmile_qr_scan"}, "is_reserved": 0, "fusion_lon": 0.0, "fusion_lat": 0.0, "lon": -77.06265216666667, "name": "92c25afd04576fbe209a3c05099ea11d"}, {"bike_id": "7b1410bf75d1e8f8af69da9e0ef3499b", "type": "electric_scooter", "is_disabled": 0, "lat": 38.930104, "rental_uris": {"ios": "https://dc.lft.to/lastmile_qr_scan", "android": "https://dc.lft.to/lastmile_qr_scan"}, "is_reserved": 0, "fusion_lon": 0.0, "fusion_lat": 0.0, "lon": -77.0209495, "name": "7b1410bf75d1e8f8af69da9e0ef3499b"}, {"bike_id": "47dcfed7a37eea735801ba7baf2a00e4", "type": "electric_scooter", "is_disabled": 0, "lat": 38.9010155, "rental_uris": {"ios": "https://dc.lft.to/lastmile_qr_scan", "android": "https://dc.lft.to/lastmile_qr_scan"}, "is_reserved": 0, "fusion_lon": 0.0, "fusion_lat": 0.0, "lon": -77.01229466666666, "name": "47dcfed7a37eea735801ba7baf2a00e4"}, {"bike_id": "a47b1f5fadac39f8f68922bc083083ba", "type": "electric_scooter", "is_disabled": 0, "lat": 38.9057005, "rental_uris": {"ios": "https://dc.lft.to/lastmile_qr_scan", "android": "https://dc.lft.to/lastmile_qr_scan"}, "is_reserved": 0, "fusion_lon": 0.0, "fusion_lat": 0.0, "lon": -77.00566566666667, "name": "a47b1f5fadac39f8f68922bc083083ba"}, {"bike_id": "3770486f0e89237879f286b88a2a8a3b", "type": "electric_scooter", "is_disabled": 0, "lat": 38.916796, "rental_uris": {"ios": "https://dc.lft.to/lastmile_qr_scan", "android": "https://dc.lft.to/lastmile_qr_scan"}, "is_reserved": 0, "fusion_lon": 0.0, "fusion_lat": 0.0, "lon": -77.02307783333333, "name": "3770486f0e89237879f286b88a2a8a3b"}, {"bike_id": "35dc17675e55cac2ffd3cf6ba21d3b97", "type": "electric_scooter", "is_disabled": 0, "lat": 38.9095635, "rental_uris": {"ios": "https://dc.lft.to/lastmile_qr_scan", "android": "https://dc.lft.to/lastmile_qr_scan"}, "is_reserved": 0, "fusion_lon": 0.0, "fusion_lat": 0.0, "lon": -77.04542566666667, "name": "35dc17675e55cac2ffd3cf6ba21d3b97"}, {"bike_id": "32e671697026d738e6e13c8ed6820fea", "type": "electric_scooter", "is_disabled": 0, "lat": 38.907374833333336, "rental_uris": {"ios": "https://dc.lft.to/lastmile_qr_scan", "android": "https://dc.lft.to/lastmile_qr_scan"}, "is_reserved": 0, "fusion_lon": 0.0, "fusion_lat": 0.0, "lon": -77.02970283333333, "name": "32e671697026d738e6e13c8ed6820fea"}, {"bike_id": "c6e72a768c62165fbd9bfd58cc1b341f", "type": "electric_scooter", "is_disabled": 0, "lat": 38.917116666666665, "rental_uris": {"ios": "https://dc.lft.to/lastmile_qr_scan", "android": "https://dc.lft.to/lastmile_qr_scan"}, "is_reserved": 0, "fusion_lon": 0.0, "fusion_lat": 0.0, "lon": -77.0386865, "name": "c6e72a768c62165fbd9bfd58cc1b341f"}, {"bike_id": "73b4cac888900c262ef182cdb667eb14", "type": "electric_scooter", "is_disabled": 0, "lat": 38.93551316666667, "rental_uris": {"ios": "https://dc.lft.to/lastmile_qr_scan", "android": "https://dc.lft.to/lastmile_qr_scan"}, "is_reserved": 0, "fusion_lon": 0.0, "fusion_lat": 0.0, "lon": -77.02498816666666, "name": "73b4cac888900c262ef182cdb667eb14"}, {"bike_id": "dd4bf84422b9c47a55cefb8c1c6ae40b", "type": "electric_scooter", "is_disabled": 0, "lat": 38.90500866666667, "rental_uris": {"ios": "https://dc.lft.to/lastmile_qr_scan", "android": "https://dc.lft.to/lastmile_qr_scan"}, "is_reserved": 0, "fusion_lon": 0.0, "fusion_lat": 0.0, "lon": -77.06884133333334, "name": "dd4bf84422b9c47a55cefb8c1c6ae40b"}, {"bike_id": "7ef14ae07ed72e49a40d31b72b178f89", "type": "electric_scooter", "is_disabled": 0, "lat": 38.920536, "rental_uris": {"ios": "https://dc.lft.to/lastmile_qr_scan", "android": "https://dc.lft.to/lastmile_qr_scan"}, "is_reserved": 0, "fusion_lon": 0.0, "fusion_lat": 0.0, "lon": -77.0340935, "name": "7ef14ae07ed72e49a40d31b72b178f89"}, {"bike_id": "d89c1c82c55d0dc2ef85432c5059ac7e", "type": "electric_scooter", "is_disabled": 0, "lat": 38.88713383333333, "rental_uris": {"ios": "https://dc.lft.to/lastmile_qr_scan", "android": "https://dc.lft.to/lastmile_qr_scan"}, "is_reserved": 0, "fusion_lon": 0.0, "fusion_lat": 0.0, "lon": -77.01778183333333, "name": "d89c1c82c55d0dc2ef85432c5059ac7e"}, {"bike_id": "825083da2416dec316b69aa23521e60a", "type": "electric_bike", "is_disabled": 0, "lat": 38.937032333333335, "rental_uris": {"ios": "https://dc.lft.to/lastmile_qr_scan", "android": "https://dc.lft.to/lastmile_qr_scan"}, "is_reserved": 0, "fusion_lon": 0.0, "fusion_lat": 0.0, "lon": -77.05608483333333, "name": "825083da2416dec316b69aa23521e60a"}, {"bike_id": "399e4f98daf2c29ad43ed84f5236c61e", "type": "electric_bike", "is_disabled": 0, "lat": 38.8315785, "rental_uris": {"ios": "https://dc.lft.to/lastmile_qr_scan", "android": "https://dc.lft.to/lastmile_qr_scan"}, "is_reserved": 0, "fusion_lon": 0.0, "fusion_lat": 0.0, "lon": -76.9954235, "name": "399e4f98daf2c29ad43ed84f5236c61e"}, {"bike_id": "655dda03e599eba14f8b2e6270f174f8", "type": "electric_scooter", "is_disabled": 0, "lat": 38.900788166666665, "rental_uris": {"ios": "https://dc.lft.to/lastmile_qr_scan", "android": "https://dc.lft.to/lastmile_qr_scan"}, "is_reserved": 0, "fusion_lon": 0.0, "fusion_lat": 0.0, "lon": -77.03077533333334, "name": "655dda03e599eba14f8b2e6270f174f8"}, {"bike_id": "3923b791fe51a81a10b049efa5d8c201", "type": "electric_scooter", "is_disabled": 0, "lat": 38.90817216666667, "rental_uris": {"ios": "https://dc.lft.to/lastmile_qr_scan", "android": "https://dc.lft.to/lastmile_qr_scan"}, "is_reserved": 0, "fusion_lon": 0.0, "fusion_lat": 0.0, "lon": -77.0435675, "name": "3923b791fe51a81a10b049efa5d8c201"}, {"bike_id": "f8073794757eb514654b091054ab63e8", "type": "electric_scooter", "is_disabled": 0, "lat": 38.92311816666667, "rental_uris": {"ios": "https://dc.lft.to/lastmile_qr_scan", "android": "https://dc.lft.to/lastmile_qr_scan"}, "is_reserved": 0, "fusion_lon": 0.0, "fusion_lat": 0.0, "lon": -77.02965316666666, "name": "f8073794757eb514654b091054ab63e8"}, {"bike_id": "a77b9964e3e892af5aefa9f147cb60d1", "type": "electric_scooter", "is_disabled": 0, "lat": 38.9213095, "rental_uris": {"ios": "https://dc.lft.to/lastmile_qr_scan", "android": "https://dc.lft.to/lastmile_qr_scan"}, "is_reserved": 0, "fusion_lon": 0.0, "fusion_lat": 0.0, "lon": -77.044084, "name": "a77b9964e3e892af5aefa9f147cb60d1"}, {"bike_id": "b53a3b8288bf41764ec3ac76a08b637b", "type": "electric_scooter", "is_disabled": 0, "lat": 38.9077255, "rental_uris": {"ios": "https://dc.lft.to/lastmile_qr_scan", "android": "https://dc.lft.to/lastmile_qr_scan"}, "is_reserved": 0, "fusion_lon": 0.0, "fusion_lat": 0.0, "lon": -77.04335483333334, "name": "b53a3b8288bf41764ec3ac76a08b637b"}, {"bike_id": "75204e66377db89f39be3120f981bbcf", "type": "electric_scooter", "is_disabled": 0, "lat": 38.9138355, "rental_uris": {"ios": "https://dc.lft.to/lastmile_qr_scan", "android": "https://dc.lft.to/lastmile_qr_scan"}, "is_reserved": 0, "fusion_lon": 0.0, "fusion_lat": 0.0, "lon": -77.01707783333333, "name": "75204e66377db89f39be3120f981bbcf"}, {"bike_id": "72e7c29aefd3e2951cc849417066d4ca", "type": "electric_scooter", "is_disabled": 0, "lat": 38.927477, "rental_uris": {"ios": "https://dc.lft.to/lastmile_qr_scan", "android": "https://dc.lft.to/lastmile_qr_scan"}, "is_reserved": 0, "fusion_lon": 0.0, "fusion_lat": 0.0, "lon": -77.025401, "name": "72e7c29aefd3e2951cc849417066d4ca"}, {"bike_id": "212e68e05a6dfc706cc71caee0e95b0f", "type": "electric_scooter", "is_disabled": 0, "lat": 38.934605166666664, "rental_uris": {"ios": "https://dc.lft.to/lastmile_qr_scan", "android": "https://dc.lft.to/lastmile_qr_scan"}, "is_reserved": 0, "fusion_lon": 0.0, "fusion_lat": 0.0, "lon": -77.0276685, "name": "212e68e05a6dfc706cc71caee0e95b0f"}, {"bike_id": "58a506f048e3a7044fdbbc4e3801cc11", "type": "electric_scooter", "is_disabled": 0, "lat": 38.91697466666667, "rental_uris": {"ios": "https://dc.lft.to/lastmile_qr_scan", "android": "https://dc.lft.to/lastmile_qr_scan"}, "is_reserved": 0, "fusion_lon": 0.0, "fusion_lat": 0.0, "lon": -77.04110116666666, "name": "58a506f048e3a7044fdbbc4e3801cc11"}, {"bike_id": "a18f9b7e6c68e7c4767bf3e26479b5d3", "type": "electric_scooter", "is_disabled": 0, "lat": 38.866839166666665, "rental_uris": {"ios": "https://dc.lft.to/lastmile_qr_scan", "android": "https://dc.lft.to/lastmile_qr_scan"}, "is_reserved": 0, "fusion_lon": 0.0, "fusion_lat": 0.0, "lon": -76.985753, "name": "a18f9b7e6c68e7c4767bf3e26479b5d3"}, {"bike_id": "dce9373333b8a5c79b6928d185bdd33b", "type": "electric_bike", "is_disabled": 0, "lat": 38.984602333333335, "rental_uris": {"ios": "https://dc.lft.to/lastmile_qr_scan", "android": "https://dc.lft.to/lastmile_qr_scan"}, "is_reserved": 0, "fusion_lon": 0.0, "fusion_lat": 0.0, "lon": -76.97052733333334, "name": "dce9373333b8a5c79b6928d185bdd33b"}, {"bike_id": "72a28b779a3739dc9ed9b6f7753ecb9a", "type": "electric_scooter", "is_disabled": 0, "lat": 38.86646733333333, "rental_uris": {"ios": "https://dc.lft.to/lastmile_qr_scan", "android": "https://dc.lft.to/lastmile_qr_scan"}, "is_reserved": 0, "fusion_lon": 0.0, "fusion_lat": 0.0, "lon": -76.98820983333333, "name": "72a28b779a3739dc9ed9b6f7753ecb9a"}, {"bike_id": "be3775c8d940b2f2dd442b3095205947", "type": "electric_scooter", "is_disabled": 0, "lat": 38.952521833333336, "rental_uris": {"ios": "https://dc.lft.to/lastmile_qr_scan", "android": "https://dc.lft.to/lastmile_qr_scan"}, "is_reserved": 0, "fusion_lon": 0.0, "fusion_lat": 0.0, "lon": -77.01965283333334, "name": "be3775c8d940b2f2dd442b3095205947"}, {"bike_id": "ef1ae1e9433065d2de8412a45c03a0c7", "type": "electric_scooter", "is_disabled": 0, "lat": 38.90723466666667, "rental_uris": {"ios": "https://dc.lft.to/lastmile_qr_scan", "android": "https://dc.lft.to/lastmile_qr_scan"}, "is_reserved": 0, "fusion_lon": 0.0, "fusion_lat": 0.0, "lon": -77.032548, "name": "ef1ae1e9433065d2de8412a45c03a0c7"}, {"bike_id": "037bda1fc2e85b7b5615c0fdb2303ba2", "type": "electric_scooter", "is_disabled": 0, "lat": 38.930010333333335, "rental_uris": {"ios": "https://dc.lft.to/lastmile_qr_scan", "android": "https://dc.lft.to/lastmile_qr_scan"}, "is_reserved": 0, "fusion_lon": 0.0, "fusion_lat": 0.0, "lon": -77.02372983333333, "name": "037bda1fc2e85b7b5615c0fdb2303ba2"}, {"bike_id": "dafddb9294a0f9fb384c0fcd5ccb74f6", "type": "electric_bike", "is_disabled": 0, "lat": 39.0528015, "rental_uris": {"ios": "https://dc.lft.to/lastmile_qr_scan", "android": "https://dc.lft.to/lastmile_qr_scan"}, "is_reserved": 0, "fusion_lon": 0.0, "fusion_lat": 0.0, "lon": -77.08068066666667, "name": "dafddb9294a0f9fb384c0fcd5ccb74f6"}, {"bike_id": "65e98c9ae91bf8f3a0a035a5e8b8ee61", "type": "electric_scooter", "is_disabled": 0, "lat": 38.8812195, "rental_uris": {"ios": "https://dc.lft.to/lastmile_qr_scan", "android": "https://dc.lft.to/lastmile_qr_scan"}, "is_reserved": 0, "fusion_lon": 0.0, "fusion_lat": 0.0, "lon": -77.001791, "name": "65e98c9ae91bf8f3a0a035a5e8b8ee61"}, {"bike_id": "d92ac8722b8960fb7649f7dbb36f7af9", "type": "electric_scooter", "is_disabled": 0, "lat": 38.8670315, "rental_uris": {"ios": "https://dc.lft.to/lastmile_qr_scan", "android": "https://dc.lft.to/lastmile_qr_scan"}, "is_reserved": 0, "fusion_lon": 0.0, "fusion_lat": 0.0, "lon": -76.987114, "name": "d92ac8722b8960fb7649f7dbb36f7af9"}, {"bike_id": "fd8fadaa78bca5af470e69a9aa4657d0", "type": "electric_scooter", "is_disabled": 0, "lat": 38.911845, "rental_uris": {"ios": "https://dc.lft.to/lastmile_qr_scan", "android": "https://dc.lft.to/lastmile_qr_scan"}, "is_reserved": 0, "fusion_lon": 0.0, "fusion_lat": 0.0, "lon": -77.038326, "name": "fd8fadaa78bca5af470e69a9aa4657d0"}, {"bike_id": "e3ff94d300732439fe1c60457eaa4987", "type": "electric_scooter", "is_disabled": 0, "lat": 38.933437833333336, "rental_uris": {"ios": "https://dc.lft.to/lastmile_qr_scan", "android": "https://dc.lft.to/lastmile_qr_scan"}, "is_reserved": 0, "fusion_lon": 0.0, "fusion_lat": 0.0, "lon": -77.0205745, "name": "e3ff94d300732439fe1c60457eaa4987"}, {"bike_id": "5d28d353bf58bb7f0c039266fb71dc01", "type": "electric_scooter", "is_disabled": 0, "lat": 38.91689916666667, "rental_uris": {"ios": "https://dc.lft.to/lastmile_qr_scan", "android": "https://dc.lft.to/lastmile_qr_scan"}, "is_reserved": 0, "fusion_lon": 0.0, "fusion_lat": 0.0, "lon": -77.02952966666666, "name": "5d28d353bf58bb7f0c039266fb71dc01"}, {"bike_id": "0f5d2acea376ad2043ff54262df718a5", "type": "electric_scooter", "is_disabled": 0, "lat": 38.918202666666666, "rental_uris": {"ios": "https://dc.lft.to/lastmile_qr_scan", "android": "https://dc.lft.to/lastmile_qr_scan"}, "is_reserved": 0, "fusion_lon": 0.0, "fusion_lat": 0.0, "lon": -77.04943, "name": "0f5d2acea376ad2043ff54262df718a5"}, {"bike_id": "13e53db2ae67c7747086196e23864c11", "type": "electric_scooter", "is_disabled": 0, "lat": 38.906736333333335, "rental_uris": {"ios": "https://dc.lft.to/lastmile_qr_scan", "android": "https://dc.lft.to/lastmile_qr_scan"}, "is_reserved": 0, "fusion_lon": 0.0, "fusion_lat": 0.0, "lon": -77.01053433333334, "name": "13e53db2ae67c7747086196e23864c11"}, {"bike_id": "91b16ad70d877ac2f679b9cd47799cf5", "type": "electric_scooter", "is_disabled": 0, "lat": 38.90659016666667, "rental_uris": {"ios": "https://dc.lft.to/lastmile_qr_scan", "android": "https://dc.lft.to/lastmile_qr_scan"}, "is_reserved": 0, "fusion_lon": 0.0, "fusion_lat": 0.0, "lon": -77.04610933333333, "name": "91b16ad70d877ac2f679b9cd47799cf5"}, {"bike_id": "b3dc18ecb735ffd5137874756234a8ef", "type": "electric_scooter", "is_disabled": 0, "lat": 38.9401885, "rental_uris": {"ios": "https://dc.lft.to/lastmile_qr_scan", "android": "https://dc.lft.to/lastmile_qr_scan"}, "is_reserved": 0, "fusion_lon": 0.0, "fusion_lat": 0.0, "lon": -77.0263785, "name": "b3dc18ecb735ffd5137874756234a8ef"}, {"bike_id": "f9444e3591bab7308dabd87a3395af17", "type": "electric_scooter", "is_disabled": 0, "lat": 38.87667366666667, "rental_uris": {"ios": "https://dc.lft.to/lastmile_qr_scan", "android": "https://dc.lft.to/lastmile_qr_scan"}, "is_reserved": 0, "fusion_lon": 0.0, "fusion_lat": 0.0, "lon": -77.00821983333333, "name": "f9444e3591bab7308dabd87a3395af17"}, {"bike_id": "c96854e5228404ae21c927fbb40e09e4", "type": "electric_scooter", "is_disabled": 0, "lat": 38.875073666666665, "rental_uris": {"ios": "https://dc.lft.to/lastmile_qr_scan", "android": "https://dc.lft.to/lastmile_qr_scan"}, "is_reserved": 0, "fusion_lon": 0.0, "fusion_lat": 0.0, "lon": -77.0124095, "name": "c96854e5228404ae21c927fbb40e09e4"}, {"bike_id": "8622d1ec55498ea4b5a6ea1c3fbd9416", "type": "electric_scooter", "is_disabled": 0, "lat": 38.905322166666664, "rental_uris": {"ios": "https://dc.lft.to/lastmile_qr_scan", "android": "https://dc.lft.to/lastmile_qr_scan"}, "is_reserved": 0, "fusion_lon": 0.0, "fusion_lat": 0.0, "lon": -77.0488655, "name": "8622d1ec55498ea4b5a6ea1c3fbd9416"}, {"bike_id": "22b52ec7a4d4c0638df4eec3fd1db498", "type": "electric_scooter", "is_disabled": 0, "lat": 38.9001295, "rental_uris": {"ios": "https://dc.lft.to/lastmile_qr_scan", "android": "https://dc.lft.to/lastmile_qr_scan"}, "is_reserved": 0, "fusion_lon": 0.0, "fusion_lat": 0.0, "lon": -77.02936583333333, "name": "22b52ec7a4d4c0638df4eec3fd1db498"}, {"bike_id": "7ca671c77840e10e3f552acfbb909c1e", "type": "electric_scooter", "is_disabled": 0, "lat": 38.9052825, "rental_uris": {"ios": "https://dc.lft.to/lastmile_qr_scan", "android": "https://dc.lft.to/lastmile_qr_scan"}, "is_reserved": 0, "fusion_lon": 0.0, "fusion_lat": 0.0, "lon": -77.04881233333333, "name": "7ca671c77840e10e3f552acfbb909c1e"}, {"bike_id": "3e0fdbf21e02061eee3114a78b01033c", "type": "electric_scooter", "is_disabled": 0, "lat": 38.956164666666666, "rental_uris": {"ios": "https://dc.lft.to/lastmile_qr_scan", "android": "https://dc.lft.to/lastmile_qr_scan"}, "is_reserved": 0, "fusion_lon": 0.0, "fusion_lat": 0.0, "lon": -77.01020583333333, "name": "3e0fdbf21e02061eee3114a78b01033c"}, {"bike_id": "4b3c17c86b577917fa1a23067e4a6c3f", "type": "electric_scooter", "is_disabled": 0, "lat": 38.9205755, "rental_uris": {"ios": "https://dc.lft.to/lastmile_qr_scan", "android": "https://dc.lft.to/lastmile_qr_scan"}, "is_reserved": 0, "fusion_lon": 0.0, "fusion_lat": 0.0, "lon": -77.03388916666667, "name": "4b3c17c86b577917fa1a23067e4a6c3f"}, {"bike_id": "a2275ec30ad35b3a2e46799e12be3ad6", "type": "electric_scooter", "is_disabled": 0, "lat": 38.91727516666667, "rental_uris": {"ios": "https://dc.lft.to/lastmile_qr_scan", "android": "https://dc.lft.to/lastmile_qr_scan"}, "is_reserved": 0, "fusion_lon": 0.0, "fusion_lat": 0.0, "lon": -77.01920483333333, "name": "a2275ec30ad35b3a2e46799e12be3ad6"}, {"bike_id": "fc123be5eb40640141992feaa88bf8a3", "type": "electric_scooter", "is_disabled": 0, "lat": 38.9073485, "rental_uris": {"ios": "https://dc.lft.to/lastmile_qr_scan", "android": "https://dc.lft.to/lastmile_qr_scan"}, "is_reserved": 0, "fusion_lon": 0.0, "fusion_lat": 0.0, "lon": -77.0218465, "name": "fc123be5eb40640141992feaa88bf8a3"}, {"bike_id": "21b7d340da5587e9c3288f1fc48d26bf", "type": "electric_scooter", "is_disabled": 0, "lat": 38.8762465, "rental_uris": {"ios": "https://dc.lft.to/lastmile_qr_scan", "android": "https://dc.lft.to/lastmile_qr_scan"}, "is_reserved": 0, "fusion_lon": 0.0, "fusion_lat": 0.0, "lon": -76.96528066666667, "name": "21b7d340da5587e9c3288f1fc48d26bf"}, {"bike_id": "111afbf652216c295bc9a14c0a845ff7", "type": "electric_scooter", "is_disabled": 0, "lat": 38.920525, "rental_uris": {"ios": "https://dc.lft.to/lastmile_qr_scan", "android": "https://dc.lft.to/lastmile_qr_scan"}, "is_reserved": 0, "fusion_lon": 0.0, "fusion_lat": 0.0, "lon": -76.99876983333333, "name": "111afbf652216c295bc9a14c0a845ff7"}, {"bike_id": "48764c36c7c3cc4afba48f2a52f3feb9", "type": "electric_scooter", "is_disabled": 0, "lat": 38.976054500000004, "rental_uris": {"ios": "https://dc.lft.to/lastmile_qr_scan", "android": "https://dc.lft.to/lastmile_qr_scan"}, "is_reserved": 0, "fusion_lon": 0.0, "fusion_lat": 0.0, "lon": -77.026494, "name": "48764c36c7c3cc4afba48f2a52f3feb9"}, {"bike_id": "18ea0cbb9f147b44e448292f171572ea", "type": "electric_scooter", "is_disabled": 0, "lat": 38.903712166666665, "rental_uris": {"ios": "https://dc.lft.to/lastmile_qr_scan", "android": "https://dc.lft.to/lastmile_qr_scan"}, "is_reserved": 0, "fusion_lon": 0.0, "fusion_lat": 0.0, "lon": -77.03182983333333, "name": "18ea0cbb9f147b44e448292f171572ea"}, {"bike_id": "73c6b90c9e3507f4296c08bf1fdfeddf", "type": "electric_scooter", "is_disabled": 0, "lat": 38.88428783333333, "rental_uris": {"ios": "https://dc.lft.to/lastmile_qr_scan", "android": "https://dc.lft.to/lastmile_qr_scan"}, "is_reserved": 0, "fusion_lon": 0.0, "fusion_lat": 0.0, "lon": -76.9575585, "name": "73c6b90c9e3507f4296c08bf1fdfeddf"}, {"bike_id": "e83b851935d0c6ed96117007795b4f6a", "type": "electric_scooter", "is_disabled": 0, "lat": 38.88759616666667, "rental_uris": {"ios": "https://dc.lft.to/lastmile_qr_scan", "android": "https://dc.lft.to/lastmile_qr_scan"}, "is_reserved": 0, "fusion_lon": 0.0, "fusion_lat": 0.0, "lon": -77.029423, "name": "e83b851935d0c6ed96117007795b4f6a"}, {"bike_id": "a51059867df9ce1908ca0e9d31138424", "type": "electric_scooter", "is_disabled": 0, "lat": 38.901113, "rental_uris": {"ios": "https://dc.lft.to/lastmile_qr_scan", "android": "https://dc.lft.to/lastmile_qr_scan"}, "is_reserved": 0, "fusion_lon": 0.0, "fusion_lat": 0.0, "lon": -77.01789133333334, "name": "a51059867df9ce1908ca0e9d31138424"}, {"bike_id": "1d0ddee95fcf6d3583548a2f10f82ad7", "type": "electric_scooter", "is_disabled": 0, "lat": 38.9050495, "rental_uris": {"ios": "https://dc.lft.to/lastmile_qr_scan", "android": "https://dc.lft.to/lastmile_qr_scan"}, "is_reserved": 0, "fusion_lon": 0.0, "fusion_lat": 0.0, "lon": -77.02950716666666, "name": "1d0ddee95fcf6d3583548a2f10f82ad7"}, {"bike_id": "8d2e3b6b85a8f90a0546e2f1a04fa873", "type": "electric_scooter", "is_disabled": 0, "lat": 38.92247233333333, "rental_uris": {"ios": "https://dc.lft.to/lastmile_qr_scan", "android": "https://dc.lft.to/lastmile_qr_scan"}, "is_reserved": 0, "fusion_lon": 0.0, "fusion_lat": 0.0, "lon": -77.03020416666666, "name": "8d2e3b6b85a8f90a0546e2f1a04fa873"}, {"bike_id": "4f533e5cba6ec4f6621d05aa4f35d3c4", "type": "electric_scooter", "is_disabled": 0, "lat": 38.91033183333333, "rental_uris": {"ios": "https://dc.lft.to/lastmile_qr_scan", "android": "https://dc.lft.to/lastmile_qr_scan"}, "is_reserved": 0, "fusion_lon": 0.0, "fusion_lat": 0.0, "lon": -77.037997, "name": "4f533e5cba6ec4f6621d05aa4f35d3c4"}, {"bike_id": "59b63b56abdc84ecd1420c676ce3c82e", "type": "electric_scooter", "is_disabled": 0, "lat": 38.897608166666664, "rental_uris": {"ios": "https://dc.lft.to/lastmile_qr_scan", "android": "https://dc.lft.to/lastmile_qr_scan"}, "is_reserved": 0, "fusion_lon": 0.0, "fusion_lat": 0.0, "lon": -76.94706266666667, "name": "59b63b56abdc84ecd1420c676ce3c82e"}, {"bike_id": "974dce7cacf1656f9e6c1305d91e29c4", "type": "electric_scooter", "is_disabled": 0, "lat": 38.91469933333333, "rental_uris": {"ios": "https://dc.lft.to/lastmile_qr_scan", "android": "https://dc.lft.to/lastmile_qr_scan"}, "is_reserved": 0, "fusion_lon": 0.0, "fusion_lat": 0.0, "lon": -77.04590116666667, "name": "974dce7cacf1656f9e6c1305d91e29c4"}, {"bike_id": "a02f18d3991751759ec192949c9814f4", "type": "electric_scooter", "is_disabled": 0, "lat": 38.91579633333333, "rental_uris": {"ios": "https://dc.lft.to/lastmile_qr_scan", "android": "https://dc.lft.to/lastmile_qr_scan"}, "is_reserved": 0, "fusion_lon": 0.0, "fusion_lat": 0.0, "lon": -77.01234666666667, "name": "a02f18d3991751759ec192949c9814f4"}, {"bike_id": "da847e1747b8c5b0f27fe20e4f190441", "type": "electric_scooter", "is_disabled": 0, "lat": 38.91442816666667, "rental_uris": {"ios": "https://dc.lft.to/lastmile_qr_scan", "android": "https://dc.lft.to/lastmile_qr_scan"}, "is_reserved": 0, "fusion_lon": 0.0, "fusion_lat": 0.0, "lon": -77.02592583333333, "name": "da847e1747b8c5b0f27fe20e4f190441"}, {"bike_id": "db65c84ab67a2ccaccea901a8f167e3c", "type": "electric_scooter", "is_disabled": 0, "lat": 38.90735033333333, "rental_uris": {"ios": "https://dc.lft.to/lastmile_qr_scan", "android": "https://dc.lft.to/lastmile_qr_scan"}, "is_reserved": 0, "fusion_lon": 0.0, "fusion_lat": 0.0, "lon": -77.00061916666667, "name": "db65c84ab67a2ccaccea901a8f167e3c"}, {"bike_id": "0d35458bbdf7c73e31654cc036887dda", "type": "electric_scooter", "is_disabled": 0, "lat": 38.86660933333334, "rental_uris": {"ios": "https://dc.lft.to/lastmile_qr_scan", "android": "https://dc.lft.to/lastmile_qr_scan"}, "is_reserved": 0, "fusion_lon": 0.0, "fusion_lat": 0.0, "lon": -76.98888283333334, "name": "0d35458bbdf7c73e31654cc036887dda"}, {"bike_id": "897e6fd670d45a3c2797577995b3f992", "type": "electric_scooter", "is_disabled": 0, "lat": 38.92578966666667, "rental_uris": {"ios": "https://dc.lft.to/lastmile_qr_scan", "android": "https://dc.lft.to/lastmile_qr_scan"}, "is_reserved": 0, "fusion_lon": 0.0, "fusion_lat": 0.0, "lon": -77.054226, "name": "897e6fd670d45a3c2797577995b3f992"}, {"bike_id": "b4c342546eb93fe46f356e9319db4b40", "type": "electric_scooter", "is_disabled": 0, "lat": 38.904209333333334, "rental_uris": {"ios": "https://dc.lft.to/lastmile_qr_scan", "android": "https://dc.lft.to/lastmile_qr_scan"}, "is_reserved": 0, "fusion_lon": 0.0, "fusion_lat": 0.0, "lon": -76.973749, "name": "b4c342546eb93fe46f356e9319db4b40"}, {"bike_id": "a5aff599c70c0e1457586de0306361e7", "type": "electric_bike", "is_disabled": 0, "lat": 38.8920145, "rental_uris": {"ios": "https://dc.lft.to/lastmile_qr_scan", "android": "https://dc.lft.to/lastmile_qr_scan"}, "is_reserved": 0, "fusion_lon": 0.0, "fusion_lat": 0.0, "lon": -76.97641566666667, "name": "a5aff599c70c0e1457586de0306361e7"}, {"bike_id": "b3c5d4cb85fb2e95fd86484ba527b3cb", "type": "electric_bike", "is_disabled": 0, "lat": 38.85423816666667, "rental_uris": {"ios": "https://dc.lft.to/lastmile_qr_scan", "android": "https://dc.lft.to/lastmile_qr_scan"}, "is_reserved": 0, "fusion_lon": 0.0, "fusion_lat": 0.0, "lon": -77.1207785, "name": "b3c5d4cb85fb2e95fd86484ba527b3cb"}, {"bike_id": "6b92767cd56c87080040b9d1284ea65f", "type": "electric_scooter", "is_disabled": 0, "lat": 38.9133475, "rental_uris": {"ios": "https://dc.lft.to/lastmile_qr_scan", "android": "https://dc.lft.to/lastmile_qr_scan"}, "is_reserved": 0, "fusion_lon": 0.0, "fusion_lat": 0.0, "lon": -77.0398865, "name": "6b92767cd56c87080040b9d1284ea65f"}, {"bike_id": "c4a8c7b37f71e4e2cd8c53f22930054f", "type": "electric_scooter", "is_disabled": 0, "lat": 38.92334683333333, "rental_uris": {"ios": "https://dc.lft.to/lastmile_qr_scan", "android": "https://dc.lft.to/lastmile_qr_scan"}, "is_reserved": 0, "fusion_lon": 0.0, "fusion_lat": 0.0, "lon": -77.036151, "name": "c4a8c7b37f71e4e2cd8c53f22930054f"}, {"bike_id": "602683c62507ce5294efd199733bfbe7", "type": "electric_scooter", "is_disabled": 0, "lat": 38.86570966666667, "rental_uris": {"ios": "https://dc.lft.to/lastmile_qr_scan", "android": "https://dc.lft.to/lastmile_qr_scan"}, "is_reserved": 0, "fusion_lon": 0.0, "fusion_lat": 0.0, "lon": -76.98218833333334, "name": "602683c62507ce5294efd199733bfbe7"}, {"bike_id": "2ce60f376686171353f66d792defd5e7", "type": "electric_scooter", "is_disabled": 0, "lat": 38.91782933333333, "rental_uris": {"ios": "https://dc.lft.to/lastmile_qr_scan", "android": "https://dc.lft.to/lastmile_qr_scan"}, "is_reserved": 0, "fusion_lon": 0.0, "fusion_lat": 0.0, "lon": -77.04248, "name": "2ce60f376686171353f66d792defd5e7"}, {"bike_id": "6f3e1f9df76e90d995d5c0f00bf8a354", "type": "electric_scooter", "is_disabled": 0, "lat": 38.89220383333333, "rental_uris": {"ios": "https://dc.lft.to/lastmile_qr_scan", "android": "https://dc.lft.to/lastmile_qr_scan"}, "is_reserved": 0, "fusion_lon": 0.0, "fusion_lat": 0.0, "lon": -77.024479, "name": "6f3e1f9df76e90d995d5c0f00bf8a354"}, {"bike_id": "0f5baab76d06e3a03c5d1799209a121f", "type": "electric_scooter", "is_disabled": 0, "lat": 38.899594666666665, "rental_uris": {"ios": "https://dc.lft.to/lastmile_qr_scan", "android": "https://dc.lft.to/lastmile_qr_scan"}, "is_reserved": 0, "fusion_lon": 0.0, "fusion_lat": 0.0, "lon": -76.97534983333334, "name": "0f5baab76d06e3a03c5d1799209a121f"}, {"bike_id": "39e1583329cc5e2cab4dea9c61b65a19", "type": "electric_scooter", "is_disabled": 0, "lat": 38.9001625, "rental_uris": {"ios": "https://dc.lft.to/lastmile_qr_scan", "android": "https://dc.lft.to/lastmile_qr_scan"}, "is_reserved": 0, "fusion_lon": 0.0, "fusion_lat": 0.0, "lon": -77.03815266666666, "name": "39e1583329cc5e2cab4dea9c61b65a19"}, {"bike_id": "60d8fa07b42e251c7b71eebf248184a8", "type": "electric_scooter", "is_disabled": 0, "lat": 38.924509666666665, "rental_uris": {"ios": "https://dc.lft.to/lastmile_qr_scan", "android": "https://dc.lft.to/lastmile_qr_scan"}, "is_reserved": 0, "fusion_lon": 0.0, "fusion_lat": 0.0, "lon": -77.02415233333333, "name": "60d8fa07b42e251c7b71eebf248184a8"}, {"bike_id": "46448d35f88e607ca6a156f0caa46924", "type": "electric_scooter", "is_disabled": 0, "lat": 38.92650183333333, "rental_uris": {"ios": "https://dc.lft.to/lastmile_qr_scan", "android": "https://dc.lft.to/lastmile_qr_scan"}, "is_reserved": 0, "fusion_lon": 0.0, "fusion_lat": 0.0, "lon": -77.0247765, "name": "46448d35f88e607ca6a156f0caa46924"}, {"bike_id": "4ec7dc328cce78b0e4470c305cee3ab3", "type": "electric_scooter", "is_disabled": 0, "lat": 38.91571716666667, "rental_uris": {"ios": "https://dc.lft.to/lastmile_qr_scan", "android": "https://dc.lft.to/lastmile_qr_scan"}, "is_reserved": 0, "fusion_lon": 0.0, "fusion_lat": 0.0, "lon": -77.02289816666666, "name": "4ec7dc328cce78b0e4470c305cee3ab3"}, {"bike_id": "62173ae18f6b988e5edecec5c9d017e0", "type": "electric_scooter", "is_disabled": 0, "lat": 38.90972216666667, "rental_uris": {"ios": "https://dc.lft.to/lastmile_qr_scan", "android": "https://dc.lft.to/lastmile_qr_scan"}, "is_reserved": 0, "fusion_lon": 0.0, "fusion_lat": 0.0, "lon": -77.02381883333334, "name": "62173ae18f6b988e5edecec5c9d017e0"}, {"bike_id": "0d2ce22944d21d75372a24d7dae6fd59", "type": "electric_scooter", "is_disabled": 0, "lat": 38.91954416666667, "rental_uris": {"ios": "https://dc.lft.to/lastmile_qr_scan", "android": "https://dc.lft.to/lastmile_qr_scan"}, "is_reserved": 0, "fusion_lon": 0.0, "fusion_lat": 0.0, "lon": -77.025221, "name": "0d2ce22944d21d75372a24d7dae6fd59"}, {"bike_id": "e056e47a3e917e3111c9da70f11c91cf", "type": "electric_scooter", "is_disabled": 0, "lat": 38.901795666666665, "rental_uris": {"ios": "https://dc.lft.to/lastmile_qr_scan", "android": "https://dc.lft.to/lastmile_qr_scan"}, "is_reserved": 0, "fusion_lon": 0.0, "fusion_lat": 0.0, "lon": -76.984461, "name": "e056e47a3e917e3111c9da70f11c91cf"}, {"bike_id": "99edf70559693b17b0533c13f79c4ac9", "type": "electric_bike", "is_disabled": 0, "lat": 38.846095166666665, "rental_uris": {"ios": "https://dc.lft.to/lastmile_qr_scan", "android": "https://dc.lft.to/lastmile_qr_scan"}, "is_reserved": 0, "fusion_lon": 0.0, "fusion_lat": 0.0, "lon": -76.96912, "name": "99edf70559693b17b0533c13f79c4ac9"}, {"bike_id": "0f85f1c30fe3ca3e9be959f12b5239ef", "type": "electric_scooter", "is_disabled": 0, "lat": 38.897367333333335, "rental_uris": {"ios": "https://dc.lft.to/lastmile_qr_scan", "android": "https://dc.lft.to/lastmile_qr_scan"}, "is_reserved": 0, "fusion_lon": 0.0, "fusion_lat": 0.0, "lon": -77.04547083333334, "name": "0f85f1c30fe3ca3e9be959f12b5239ef"}, {"bike_id": "7e994bb6bf585ef25765180761456298", "type": "electric_scooter", "is_disabled": 0, "lat": 38.911908833333335, "rental_uris": {"ios": "https://dc.lft.to/lastmile_qr_scan", "android": "https://dc.lft.to/lastmile_qr_scan"}, "is_reserved": 0, "fusion_lon": 0.0, "fusion_lat": 0.0, "lon": -77.03971733333333, "name": "7e994bb6bf585ef25765180761456298"}, {"bike_id": "d66d44fd87d00a3f7fa376d0ae889147", "type": "electric_scooter", "is_disabled": 0, "lat": 38.876877666666665, "rental_uris": {"ios": "https://dc.lft.to/lastmile_qr_scan", "android": "https://dc.lft.to/lastmile_qr_scan"}, "is_reserved": 0, "fusion_lon": 0.0, "fusion_lat": 0.0, "lon": -77.01755283333334, "name": "d66d44fd87d00a3f7fa376d0ae889147"}, {"bike_id": "8426fbb72578608ba9c35c1002c4ff72", "type": "electric_scooter", "is_disabled": 0, "lat": 38.90910083333333, "rental_uris": {"ios": "https://dc.lft.to/lastmile_qr_scan", "android": "https://dc.lft.to/lastmile_qr_scan"}, "is_reserved": 0, "fusion_lon": 0.0, "fusion_lat": 0.0, "lon": -77.02713433333334, "name": "8426fbb72578608ba9c35c1002c4ff72"}, {"bike_id": "b4b1f979f2e650613c4d1f5ae29317e7", "type": "electric_scooter", "is_disabled": 0, "lat": 38.9338895, "rental_uris": {"ios": "https://dc.lft.to/lastmile_qr_scan", "android": "https://dc.lft.to/lastmile_qr_scan"}, "is_reserved": 0, "fusion_lon": 0.0, "fusion_lat": 0.0, "lon": -77.03219966666667, "name": "b4b1f979f2e650613c4d1f5ae29317e7"}, {"bike_id": "0c37ff6e5e4d21720a2cb9ecde75ae16", "type": "electric_bike", "is_disabled": 0, "lat": 38.839334, "rental_uris": {"ios": "https://dc.lft.to/lastmile_qr_scan", "android": "https://dc.lft.to/lastmile_qr_scan"}, "is_reserved": 0, "fusion_lon": 0.0, "fusion_lat": 0.0, "lon": -77.07901, "name": "0c37ff6e5e4d21720a2cb9ecde75ae16"}, {"bike_id": "7d60b105f402f5a3f649a58d4da3861c", "type": "electric_scooter", "is_disabled": 0, "lat": 38.89749783333333, "rental_uris": {"ios": "https://dc.lft.to/lastmile_qr_scan", "android": "https://dc.lft.to/lastmile_qr_scan"}, "is_reserved": 0, "fusion_lon": 0.0, "fusion_lat": 0.0, "lon": -77.021839, "name": "7d60b105f402f5a3f649a58d4da3861c"}, {"bike_id": "80c1b56114a9eaf6548ff604ccf317f3", "type": "electric_scooter", "is_disabled": 0, "lat": 38.9199005, "rental_uris": {"ios": "https://dc.lft.to/lastmile_qr_scan", "android": "https://dc.lft.to/lastmile_qr_scan"}, "is_reserved": 0, "fusion_lon": 0.0, "fusion_lat": 0.0, "lon": -77.03242983333334, "name": "80c1b56114a9eaf6548ff604ccf317f3"}, {"bike_id": "b039ee3033c218e73a6ebd8b07baffff", "type": "electric_scooter", "is_disabled": 0, "lat": 38.8843025, "rental_uris": {"ios": "https://dc.lft.to/lastmile_qr_scan", "android": "https://dc.lft.to/lastmile_qr_scan"}, "is_reserved": 0, "fusion_lon": 0.0, "fusion_lat": 0.0, "lon": -76.957545, "name": "b039ee3033c218e73a6ebd8b07baffff"}, {"bike_id": "8fd1c633d42d701afa64f4938ef7d132", "type": "electric_scooter", "is_disabled": 0, "lat": 38.905524, "rental_uris": {"ios": "https://dc.lft.to/lastmile_qr_scan", "android": "https://dc.lft.to/lastmile_qr_scan"}, "is_reserved": 0, "fusion_lon": 0.0, "fusion_lat": 0.0, "lon": -76.996213, "name": "8fd1c633d42d701afa64f4938ef7d132"}, {"bike_id": "52ec0d31617eaf75b1d6378f28b57d5d", "type": "electric_scooter", "is_disabled": 0, "lat": 38.9067885, "rental_uris": {"ios": "https://dc.lft.to/lastmile_qr_scan", "android": "https://dc.lft.to/lastmile_qr_scan"}, "is_reserved": 0, "fusion_lon": 0.0, "fusion_lat": 0.0, "lon": -77.03453333333333, "name": "52ec0d31617eaf75b1d6378f28b57d5d"}, {"bike_id": "1c76b28a5f6766b91780f801c55a23f9", "type": "electric_bike", "is_disabled": 0, "lat": 38.811627, "rental_uris": {"ios": "https://dc.lft.to/lastmile_qr_scan", "android": "https://dc.lft.to/lastmile_qr_scan"}, "is_reserved": 0, "fusion_lon": 0.0, "fusion_lat": 0.0, "lon": -77.06959433333333, "name": "1c76b28a5f6766b91780f801c55a23f9"}, {"bike_id": "4cb27ff260c18c9f35e42b95cae2e7a0", "type": "electric_bike", "is_disabled": 0, "lat": 38.9508615, "rental_uris": {"ios": "https://dc.lft.to/lastmile_qr_scan", "android": "https://dc.lft.to/lastmile_qr_scan"}, "is_reserved": 0, "fusion_lon": 0.0, "fusion_lat": 0.0, "lon": -76.99791833333333, "name": "4cb27ff260c18c9f35e42b95cae2e7a0"}, {"bike_id": "f4e950d47808b292edfeea731aa39976", "type": "electric_scooter", "is_disabled": 0, "lat": 38.905369, "rental_uris": {"ios": "https://dc.lft.to/lastmile_qr_scan", "android": "https://dc.lft.to/lastmile_qr_scan"}, "is_reserved": 0, "fusion_lon": 0.0, "fusion_lat": 0.0, "lon": -77.04880516666667, "name": "f4e950d47808b292edfeea731aa39976"}, {"bike_id": "fdf6cbf82f6623a3e54d7c182b0a8033", "type": "electric_bike", "is_disabled": 0, "lat": 38.804451, "rental_uris": {"ios": "https://dc.lft.to/lastmile_qr_scan", "android": "https://dc.lft.to/lastmile_qr_scan"}, "is_reserved": 0, "fusion_lon": 0.0, "fusion_lat": 0.0, "lon": -77.05391733333333, "name": "fdf6cbf82f6623a3e54d7c182b0a8033"}, {"bike_id": "b16f41a55e6898e83924f92355d53cea", "type": "electric_bike", "is_disabled": 0, "lat": 38.953375333333334, "rental_uris": {"ios": "https://dc.lft.to/lastmile_qr_scan", "android": "https://dc.lft.to/lastmile_qr_scan"}, "is_reserved": 0, "fusion_lon": 0.0, "fusion_lat": 0.0, "lon": -76.98250866666666, "name": "b16f41a55e6898e83924f92355d53cea"}, {"bike_id": "ce0d6e74fd0b0a620f11acffcded70a8", "type": "electric_scooter", "is_disabled": 0, "lat": 38.91867233333333, "rental_uris": {"ios": "https://dc.lft.to/lastmile_qr_scan", "android": "https://dc.lft.to/lastmile_qr_scan"}, "is_reserved": 0, "fusion_lon": 0.0, "fusion_lat": 0.0, "lon": -77.02300883333334, "name": "ce0d6e74fd0b0a620f11acffcded70a8"}, {"bike_id": "b08e4046ea1d66df72916d8987eca94a", "type": "electric_scooter", "is_disabled": 0, "lat": 38.919788833333335, "rental_uris": {"ios": "https://dc.lft.to/lastmile_qr_scan", "android": "https://dc.lft.to/lastmile_qr_scan"}, "is_reserved": 0, "fusion_lon": 0.0, "fusion_lat": 0.0, "lon": -77.01198816666667, "name": "b08e4046ea1d66df72916d8987eca94a"}, {"bike_id": "45538d3bbf9b21388828152f127c6433", "type": "electric_scooter", "is_disabled": 0, "lat": 38.919709833333336, "rental_uris": {"ios": "https://dc.lft.to/lastmile_qr_scan", "android": "https://dc.lft.to/lastmile_qr_scan"}, "is_reserved": 0, "fusion_lon": 0.0, "fusion_lat": 0.0, "lon": -77.04221266666667, "name": "45538d3bbf9b21388828152f127c6433"}, {"bike_id": "d30d131c94c093f99e702a801cb046b1", "type": "electric_scooter", "is_disabled": 0, "lat": 38.90532266666666, "rental_uris": {"ios": "https://dc.lft.to/lastmile_qr_scan", "android": "https://dc.lft.to/lastmile_qr_scan"}, "is_reserved": 0, "fusion_lon": 0.0, "fusion_lat": 0.0, "lon": -77.0500605, "name": "d30d131c94c093f99e702a801cb046b1"}, {"bike_id": "bbe89df85d743d0cf9878da681e795b3", "type": "electric_scooter", "is_disabled": 0, "lat": 38.92236333333334, "rental_uris": {"ios": "https://dc.lft.to/lastmile_qr_scan", "android": "https://dc.lft.to/lastmile_qr_scan"}, "is_reserved": 0, "fusion_lon": 0.0, "fusion_lat": 0.0, "lon": -77.04717983333333, "name": "bbe89df85d743d0cf9878da681e795b3"}, {"bike_id": "a885d05df25420fd3683cc852119dc6c", "type": "electric_scooter", "is_disabled": 0, "lat": 38.95636833333333, "rental_uris": {"ios": "https://dc.lft.to/lastmile_qr_scan", "android": "https://dc.lft.to/lastmile_qr_scan"}, "is_reserved": 0, "fusion_lon": 0.0, "fusion_lat": 0.0, "lon": -77.03630316666667, "name": "a885d05df25420fd3683cc852119dc6c"}, {"bike_id": "ade39de12733953789aedd141fbc04c0", "type": "electric_scooter", "is_disabled": 0, "lat": 38.895109166666664, "rental_uris": {"ios": "https://dc.lft.to/lastmile_qr_scan", "android": "https://dc.lft.to/lastmile_qr_scan"}, "is_reserved": 0, "fusion_lon": 0.0, "fusion_lat": 0.0, "lon": -77.04333183333334, "name": "ade39de12733953789aedd141fbc04c0"}, {"bike_id": "bd7ae3bb683000d12d93506b5ecb5a2d", "type": "electric_scooter", "is_disabled": 0, "lat": 38.907933, "rental_uris": {"ios": "https://dc.lft.to/lastmile_qr_scan", "android": "https://dc.lft.to/lastmile_qr_scan"}, "is_reserved": 0, "fusion_lon": 0.0, "fusion_lat": 0.0, "lon": -77.026908, "name": "bd7ae3bb683000d12d93506b5ecb5a2d"}, {"bike_id": "624ec67b55ede69d89802e5e8482f9f9", "type": "electric_scooter", "is_disabled": 0, "lat": 38.88539, "rental_uris": {"ios": "https://dc.lft.to/lastmile_qr_scan", "android": "https://dc.lft.to/lastmile_qr_scan"}, "is_reserved": 0, "fusion_lon": 0.0, "fusion_lat": 0.0, "lon": -77.00581866666667, "name": "624ec67b55ede69d89802e5e8482f9f9"}, {"bike_id": "85e8fd143359ef92a77725182e54ef50", "type": "electric_scooter", "is_disabled": 0, "lat": 38.937108333333335, "rental_uris": {"ios": "https://dc.lft.to/lastmile_qr_scan", "android": "https://dc.lft.to/lastmile_qr_scan"}, "is_reserved": 0, "fusion_lon": 0.0, "fusion_lat": 0.0, "lon": -77.03636133333333, "name": "85e8fd143359ef92a77725182e54ef50"}, {"bike_id": "209fab53b36cecde459125a100ad3de3", "type": "electric_scooter", "is_disabled": 0, "lat": 38.90351033333334, "rental_uris": {"ios": "https://dc.lft.to/lastmile_qr_scan", "android": "https://dc.lft.to/lastmile_qr_scan"}, "is_reserved": 0, "fusion_lon": 0.0, "fusion_lat": 0.0, "lon": -76.99225183333333, "name": "209fab53b36cecde459125a100ad3de3"}, {"bike_id": "53ed3adc49f3c687bac103b2208c5c08", "type": "electric_scooter", "is_disabled": 0, "lat": 38.900129666666665, "rental_uris": {"ios": "https://dc.lft.to/lastmile_qr_scan", "android": "https://dc.lft.to/lastmile_qr_scan"}, "is_reserved": 0, "fusion_lon": 0.0, "fusion_lat": 0.0, "lon": -77.03809483333333, "name": "53ed3adc49f3c687bac103b2208c5c08"}, {"bike_id": "76dbb3828c7c2dad1a4ef89e071da941", "type": "electric_bike", "is_disabled": 0, "lat": 39.051114166666665, "rental_uris": {"ios": "https://dc.lft.to/lastmile_qr_scan", "android": "https://dc.lft.to/lastmile_qr_scan"}, "is_reserved": 0, "fusion_lon": 0.0, "fusion_lat": 0.0, "lon": -77.1174155, "name": "76dbb3828c7c2dad1a4ef89e071da941"}, {"bike_id": "1a7742ac019cff0cce2a359bea96b455", "type": "electric_scooter", "is_disabled": 0, "lat": 38.887146333333334, "rental_uris": {"ios": "https://dc.lft.to/lastmile_qr_scan", "android": "https://dc.lft.to/lastmile_qr_scan"}, "is_reserved": 0, "fusion_lon": 0.0, "fusion_lat": 0.0, "lon": -77.0217885, "name": "1a7742ac019cff0cce2a359bea96b455"}, {"bike_id": "2c246f5350d11b6dda4f51e5ec0e27fe", "type": "electric_scooter", "is_disabled": 0, "lat": 38.90618666666667, "rental_uris": {"ios": "https://dc.lft.to/lastmile_qr_scan", "android": "https://dc.lft.to/lastmile_qr_scan"}, "is_reserved": 0, "fusion_lon": 0.0, "fusion_lat": 0.0, "lon": -77.01493683333334, "name": "2c246f5350d11b6dda4f51e5ec0e27fe"}, {"bike_id": "b84d0e8b1940949890df343347d2b9bf", "type": "electric_scooter", "is_disabled": 0, "lat": 38.93490366666666, "rental_uris": {"ios": "https://dc.lft.to/lastmile_qr_scan", "android": "https://dc.lft.to/lastmile_qr_scan"}, "is_reserved": 0, "fusion_lon": 0.0, "fusion_lat": 0.0, "lon": -77.032884, "name": "b84d0e8b1940949890df343347d2b9bf"}, {"bike_id": "d4c2ef56b4c9adce4262a88e4fcbb3f1", "type": "electric_scooter", "is_disabled": 0, "lat": 38.91862833333333, "rental_uris": {"ios": "https://dc.lft.to/lastmile_qr_scan", "android": "https://dc.lft.to/lastmile_qr_scan"}, "is_reserved": 0, "fusion_lon": 0.0, "fusion_lat": 0.0, "lon": -77.0251185, "name": "d4c2ef56b4c9adce4262a88e4fcbb3f1"}, {"bike_id": "a25082715d1462c95f4d68d8c714b77b", "type": "electric_scooter", "is_disabled": 0, "lat": 38.90839866666666, "rental_uris": {"ios": "https://dc.lft.to/lastmile_qr_scan", "android": "https://dc.lft.to/lastmile_qr_scan"}, "is_reserved": 0, "fusion_lon": 0.0, "fusion_lat": 0.0, "lon": -77.04261333333334, "name": "a25082715d1462c95f4d68d8c714b77b"}, {"bike_id": "ddef4d68116248d4979c6d45ea8acd0b", "type": "electric_bike", "is_disabled": 0, "lat": 38.91013816666667, "rental_uris": {"ios": "https://dc.lft.to/lastmile_qr_scan", "android": "https://dc.lft.to/lastmile_qr_scan"}, "is_reserved": 0, "fusion_lon": 0.0, "fusion_lat": 0.0, "lon": -77.22797983333334, "name": "ddef4d68116248d4979c6d45ea8acd0b"}, {"bike_id": "e39940b409a014b37f0f77a8af58b1fd", "type": "electric_scooter", "is_disabled": 0, "lat": 38.869767, "rental_uris": {"ios": "https://dc.lft.to/lastmile_qr_scan", "android": "https://dc.lft.to/lastmile_qr_scan"}, "is_reserved": 0, "fusion_lon": 0.0, "fusion_lat": 0.0, "lon": -76.98171583333334, "name": "e39940b409a014b37f0f77a8af58b1fd"}, {"bike_id": "bb5b0b16aa4513d1e105dcc9b916d82b", "type": "electric_scooter", "is_disabled": 0, "lat": 38.900345333333334, "rental_uris": {"ios": "https://dc.lft.to/lastmile_qr_scan", "android": "https://dc.lft.to/lastmile_qr_scan"}, "is_reserved": 0, "fusion_lon": 0.0, "fusion_lat": 0.0, "lon": -77.03807616666667, "name": "bb5b0b16aa4513d1e105dcc9b916d82b"}, {"bike_id": "7a3d6eef363291168e66c07ad5fa3e40", "type": "electric_scooter", "is_disabled": 0, "lat": 38.918215833333335, "rental_uris": {"ios": "https://dc.lft.to/lastmile_qr_scan", "android": "https://dc.lft.to/lastmile_qr_scan"}, "is_reserved": 0, "fusion_lon": 0.0, "fusion_lat": 0.0, "lon": -77.01206166666667, "name": "7a3d6eef363291168e66c07ad5fa3e40"}, {"bike_id": "3363642d086815643e911a0af257a639", "type": "electric_scooter", "is_disabled": 0, "lat": 38.89785666666667, "rental_uris": {"ios": "https://dc.lft.to/lastmile_qr_scan", "android": "https://dc.lft.to/lastmile_qr_scan"}, "is_reserved": 0, "fusion_lon": 0.0, "fusion_lat": 0.0, "lon": -77.0014885, "name": "3363642d086815643e911a0af257a639"}, {"bike_id": "a28d5ffdd5177cabd1165599e4c4471c", "type": "electric_scooter", "is_disabled": 0, "lat": 38.92453866666666, "rental_uris": {"ios": "https://dc.lft.to/lastmile_qr_scan", "android": "https://dc.lft.to/lastmile_qr_scan"}, "is_reserved": 0, "fusion_lon": 0.0, "fusion_lat": 0.0, "lon": -77.04115466666667, "name": "a28d5ffdd5177cabd1165599e4c4471c"}, {"bike_id": "b7c1ade73f0d4b0b2e70a2cd41aae8f4", "type": "electric_scooter", "is_disabled": 0, "lat": 38.918144, "rental_uris": {"ios": "https://dc.lft.to/lastmile_qr_scan", "android": "https://dc.lft.to/lastmile_qr_scan"}, "is_reserved": 0, "fusion_lon": 0.0, "fusion_lat": 0.0, "lon": -77.01208566666666, "name": "b7c1ade73f0d4b0b2e70a2cd41aae8f4"}, {"bike_id": "e21c38fae77d53f73e73b6d3e71fead2", "type": "electric_scooter", "is_disabled": 0, "lat": 38.93401316666667, "rental_uris": {"ios": "https://dc.lft.to/lastmile_qr_scan", "android": "https://dc.lft.to/lastmile_qr_scan"}, "is_reserved": 0, "fusion_lon": 0.0, "fusion_lat": 0.0, "lon": -77.0220895, "name": "e21c38fae77d53f73e73b6d3e71fead2"}, {"bike_id": "5dde484f0911211579460d874c33a34f", "type": "electric_scooter", "is_disabled": 0, "lat": 38.912700666666666, "rental_uris": {"ios": "https://dc.lft.to/lastmile_qr_scan", "android": "https://dc.lft.to/lastmile_qr_scan"}, "is_reserved": 0, "fusion_lon": 0.0, "fusion_lat": 0.0, "lon": -77.03755416666667, "name": "5dde484f0911211579460d874c33a34f"}, {"bike_id": "fa643ac34fa8adeca17720cd8e1a9b06", "type": "electric_scooter", "is_disabled": 0, "lat": 38.866576333333335, "rental_uris": {"ios": "https://dc.lft.to/lastmile_qr_scan", "android": "https://dc.lft.to/lastmile_qr_scan"}, "is_reserved": 0, "fusion_lon": 0.0, "fusion_lat": 0.0, "lon": -76.98878983333333, "name": "fa643ac34fa8adeca17720cd8e1a9b06"}, {"bike_id": "a0d436d3b99ed81843384184f5e51f90", "type": "electric_bike", "is_disabled": 0, "lat": 38.872698666666665, "rental_uris": {"ios": "https://dc.lft.to/lastmile_qr_scan", "android": "https://dc.lft.to/lastmile_qr_scan"}, "is_reserved": 0, "fusion_lon": 0.0, "fusion_lat": 0.0, "lon": -77.23247833333333, "name": "a0d436d3b99ed81843384184f5e51f90"}, {"bike_id": "ca3808b180316da0e113e929e8d35661", "type": "electric_scooter", "is_disabled": 0, "lat": 38.914268, "rental_uris": {"ios": "https://dc.lft.to/lastmile_qr_scan", "android": "https://dc.lft.to/lastmile_qr_scan"}, "is_reserved": 0, "fusion_lon": 0.0, "fusion_lat": 0.0, "lon": -77.04807866666667, "name": "ca3808b180316da0e113e929e8d35661"}, {"bike_id": "d8d8382404da16548b189a391cf2f0f8", "type": "electric_scooter", "is_disabled": 0, "lat": 38.90653266666666, "rental_uris": {"ios": "https://dc.lft.to/lastmile_qr_scan", "android": "https://dc.lft.to/lastmile_qr_scan"}, "is_reserved": 0, "fusion_lon": 0.0, "fusion_lat": 0.0, "lon": -77.00997733333334, "name": "d8d8382404da16548b189a391cf2f0f8"}, {"bike_id": "b14c00712e8c4976704be5e619313c58", "type": "electric_scooter", "is_disabled": 0, "lat": 38.90737566666667, "rental_uris": {"ios": "https://dc.lft.to/lastmile_qr_scan", "android": "https://dc.lft.to/lastmile_qr_scan"}, "is_reserved": 0, "fusion_lon": 0.0, "fusion_lat": 0.0, "lon": -77.02190533333334, "name": "b14c00712e8c4976704be5e619313c58"}, {"bike_id": "0b17924d8762dc01c413222c3a688142", "type": "electric_scooter", "is_disabled": 0, "lat": 38.93740433333333, "rental_uris": {"ios": "https://dc.lft.to/lastmile_qr_scan", "android": "https://dc.lft.to/lastmile_qr_scan"}, "is_reserved": 0, "fusion_lon": 0.0, "fusion_lat": 0.0, "lon": -77.03273383333334, "name": "0b17924d8762dc01c413222c3a688142"}, {"bike_id": "d1026eb809434299301d35797a00573e", "type": "electric_scooter", "is_disabled": 0, "lat": 38.921216666666666, "rental_uris": {"ios": "https://dc.lft.to/lastmile_qr_scan", "android": "https://dc.lft.to/lastmile_qr_scan"}, "is_reserved": 0, "fusion_lon": 0.0, "fusion_lat": 0.0, "lon": -77.01210566666667, "name": "d1026eb809434299301d35797a00573e"}, {"bike_id": "844f1b229f8a8b0015d04a881974d8c4", "type": "electric_scooter", "is_disabled": 0, "lat": 38.906917666666665, "rental_uris": {"ios": "https://dc.lft.to/lastmile_qr_scan", "android": "https://dc.lft.to/lastmile_qr_scan"}, "is_reserved": 0, "fusion_lon": 0.0, "fusion_lat": 0.0, "lon": -77.0153805, "name": "844f1b229f8a8b0015d04a881974d8c4"}, {"bike_id": "4000f48efecd92c5f06da31160800c5a", "type": "electric_scooter", "is_disabled": 0, "lat": 38.98697216666667, "rental_uris": {"ios": "https://dc.lft.to/lastmile_qr_scan", "android": "https://dc.lft.to/lastmile_qr_scan"}, "is_reserved": 0, "fusion_lon": 0.0, "fusion_lat": 0.0, "lon": -77.02979766666667, "name": "4000f48efecd92c5f06da31160800c5a"}, {"bike_id": "3281098853363bebb3cb4e1a8af32c9f", "type": "electric_scooter", "is_disabled": 0, "lat": 38.93093966666667, "rental_uris": {"ios": "https://dc.lft.to/lastmile_qr_scan", "android": "https://dc.lft.to/lastmile_qr_scan"}, "is_reserved": 0, "fusion_lon": 0.0, "fusion_lat": 0.0, "lon": -77.025531, "name": "3281098853363bebb3cb4e1a8af32c9f"}, {"bike_id": "1cf590d2742dc420a4d3557bf9bf13e0", "type": "electric_scooter", "is_disabled": 0, "lat": 38.88708333333334, "rental_uris": {"ios": "https://dc.lft.to/lastmile_qr_scan", "android": "https://dc.lft.to/lastmile_qr_scan"}, "is_reserved": 0, "fusion_lon": 0.0, "fusion_lat": 0.0, "lon": -77.02211066666666, "name": "1cf590d2742dc420a4d3557bf9bf13e0"}, {"bike_id": "118822f95a4293fa8a0a1c58f06f518e", "type": "electric_scooter", "is_disabled": 0, "lat": 38.88064983333334, "rental_uris": {"ios": "https://dc.lft.to/lastmile_qr_scan", "android": "https://dc.lft.to/lastmile_qr_scan"}, "is_reserved": 0, "fusion_lon": 0.0, "fusion_lat": 0.0, "lon": -77.0153705, "name": "118822f95a4293fa8a0a1c58f06f518e"}, {"bike_id": "20f0540112295a0c5af577b3557d40e4", "type": "electric_scooter", "is_disabled": 0, "lat": 38.9324165, "rental_uris": {"ios": "https://dc.lft.to/lastmile_qr_scan", "android": "https://dc.lft.to/lastmile_qr_scan"}, "is_reserved": 0, "fusion_lon": 0.0, "fusion_lat": 0.0, "lon": -76.99512816666666, "name": "20f0540112295a0c5af577b3557d40e4"}, {"bike_id": "7d6d08518577cb7e856e642e36e25550", "type": "electric_scooter", "is_disabled": 0, "lat": 38.91020683333333, "rental_uris": {"ios": "https://dc.lft.to/lastmile_qr_scan", "android": "https://dc.lft.to/lastmile_qr_scan"}, "is_reserved": 0, "fusion_lon": 0.0, "fusion_lat": 0.0, "lon": -77.02840633333334, "name": "7d6d08518577cb7e856e642e36e25550"}, {"bike_id": "d7c5307228f8948b046b0438839c73d1", "type": "electric_scooter", "is_disabled": 0, "lat": 38.92868633333333, "rental_uris": {"ios": "https://dc.lft.to/lastmile_qr_scan", "android": "https://dc.lft.to/lastmile_qr_scan"}, "is_reserved": 0, "fusion_lon": 0.0, "fusion_lat": 0.0, "lon": -77.0329755, "name": "d7c5307228f8948b046b0438839c73d1"}, {"bike_id": "35f6181c03f2a304eb9389e5bac6c54d", "type": "electric_scooter", "is_disabled": 0, "lat": 38.915559333333334, "rental_uris": {"ios": "https://dc.lft.to/lastmile_qr_scan", "android": "https://dc.lft.to/lastmile_qr_scan"}, "is_reserved": 0, "fusion_lon": 0.0, "fusion_lat": 0.0, "lon": -77.0243195, "name": "35f6181c03f2a304eb9389e5bac6c54d"}, {"bike_id": "56584974879a606bcedd69cbaf52ddc5", "type": "electric_scooter", "is_disabled": 0, "lat": 38.88658083333333, "rental_uris": {"ios": "https://dc.lft.to/lastmile_qr_scan", "android": "https://dc.lft.to/lastmile_qr_scan"}, "is_reserved": 0, "fusion_lon": 0.0, "fusion_lat": 0.0, "lon": -77.02836033333334, "name": "56584974879a606bcedd69cbaf52ddc5"}, {"bike_id": "b9ecab2ba7b74b8a2fc980550e523499", "type": "electric_scooter", "is_disabled": 0, "lat": 38.920617166666666, "rental_uris": {"ios": "https://dc.lft.to/lastmile_qr_scan", "android": "https://dc.lft.to/lastmile_qr_scan"}, "is_reserved": 0, "fusion_lon": 0.0, "fusion_lat": 0.0, "lon": -77.08054733333333, "name": "b9ecab2ba7b74b8a2fc980550e523499"}, {"bike_id": "21be8b99cb434c13c5d2c80863538d24", "type": "electric_bike", "is_disabled": 0, "lat": 38.87479016666666, "rental_uris": {"ios": "https://dc.lft.to/lastmile_qr_scan", "android": "https://dc.lft.to/lastmile_qr_scan"}, "is_reserved": 0, "fusion_lon": 0.0, "fusion_lat": 0.0, "lon": -76.96532133333334, "name": "21be8b99cb434c13c5d2c80863538d24"}, {"bike_id": "39c65a18537643c8b430b6da6433e049", "type": "electric_scooter", "is_disabled": 0, "lat": 38.932094666666664, "rental_uris": {"ios": "https://dc.lft.to/lastmile_qr_scan", "android": "https://dc.lft.to/lastmile_qr_scan"}, "is_reserved": 0, "fusion_lon": 0.0, "fusion_lat": 0.0, "lon": -77.03261216666667, "name": "39c65a18537643c8b430b6da6433e049"}, {"bike_id": "5954a2fbf02e2709a9520071438263ef", "type": "electric_scooter", "is_disabled": 0, "lat": 38.907578666666666, "rental_uris": {"ios": "https://dc.lft.to/lastmile_qr_scan", "android": "https://dc.lft.to/lastmile_qr_scan"}, "is_reserved": 0, "fusion_lon": 0.0, "fusion_lat": 0.0, "lon": -77.0169825, "name": "5954a2fbf02e2709a9520071438263ef"}, {"bike_id": "705ddcc47a0acb7cc109255a5e84a94f", "type": "electric_scooter", "is_disabled": 0, "lat": 38.937286, "rental_uris": {"ios": "https://dc.lft.to/lastmile_qr_scan", "android": "https://dc.lft.to/lastmile_qr_scan"}, "is_reserved": 0, "fusion_lon": 0.0, "fusion_lat": 0.0, "lon": -77.02006883333334, "name": "705ddcc47a0acb7cc109255a5e84a94f"}, {"bike_id": "7821c8abab5c87ed2965a96ecf4877c2", "type": "electric_scooter", "is_disabled": 0, "lat": 38.90867133333333, "rental_uris": {"ios": "https://dc.lft.to/lastmile_qr_scan", "android": "https://dc.lft.to/lastmile_qr_scan"}, "is_reserved": 0, "fusion_lon": 0.0, "fusion_lat": 0.0, "lon": -77.08588933333333, "name": "7821c8abab5c87ed2965a96ecf4877c2"}, {"bike_id": "56ac2d9cc1847e73774c897b44eba4a5", "type": "electric_scooter", "is_disabled": 0, "lat": 38.914895666666666, "rental_uris": {"ios": "https://dc.lft.to/lastmile_qr_scan", "android": "https://dc.lft.to/lastmile_qr_scan"}, "is_reserved": 0, "fusion_lon": 0.0, "fusion_lat": 0.0, "lon": -77.03764766666667, "name": "56ac2d9cc1847e73774c897b44eba4a5"}, {"bike_id": "646f9c5394191b9e313852b13306b5c5", "type": "electric_scooter", "is_disabled": 0, "lat": 38.892470333333335, "rental_uris": {"ios": "https://dc.lft.to/lastmile_qr_scan", "android": "https://dc.lft.to/lastmile_qr_scan"}, "is_reserved": 0, "fusion_lon": 0.0, "fusion_lat": 0.0, "lon": -77.05028183333333, "name": "646f9c5394191b9e313852b13306b5c5"}, {"bike_id": "1776957b203e874f6819fcc3193b28bd", "type": "electric_scooter", "is_disabled": 0, "lat": 38.90959466666666, "rental_uris": {"ios": "https://dc.lft.to/lastmile_qr_scan", "android": "https://dc.lft.to/lastmile_qr_scan"}, "is_reserved": 0, "fusion_lon": 0.0, "fusion_lat": 0.0, "lon": -77.04459233333333, "name": "1776957b203e874f6819fcc3193b28bd"}, {"bike_id": "b514820b13d0d38e05f6a3e8db8a4d4b", "type": "electric_scooter", "is_disabled": 0, "lat": 38.913266, "rental_uris": {"ios": "https://dc.lft.to/lastmile_qr_scan", "android": "https://dc.lft.to/lastmile_qr_scan"}, "is_reserved": 0, "fusion_lon": 0.0, "fusion_lat": 0.0, "lon": -77.031808, "name": "b514820b13d0d38e05f6a3e8db8a4d4b"}, {"bike_id": "adf636ab848d5f7e787d010b55d9b33f", "type": "electric_scooter", "is_disabled": 0, "lat": 38.89477483333334, "rental_uris": {"ios": "https://dc.lft.to/lastmile_qr_scan", "android": "https://dc.lft.to/lastmile_qr_scan"}, "is_reserved": 0, "fusion_lon": 0.0, "fusion_lat": 0.0, "lon": -76.94860683333333, "name": "adf636ab848d5f7e787d010b55d9b33f"}, {"bike_id": "873b180e7f78d21da1cfe695e1d0ae89", "type": "electric_bike", "is_disabled": 0, "lat": 38.92373216666667, "rental_uris": {"ios": "https://dc.lft.to/lastmile_qr_scan", "android": "https://dc.lft.to/lastmile_qr_scan"}, "is_reserved": 0, "fusion_lon": 0.0, "fusion_lat": 0.0, "lon": -77.0303335, "name": "873b180e7f78d21da1cfe695e1d0ae89"}, {"bike_id": "4aa5d2a4dd344a16a2c803a9a3309cc2", "type": "electric_scooter", "is_disabled": 0, "lat": 38.9111915, "rental_uris": {"ios": "https://dc.lft.to/lastmile_qr_scan", "android": "https://dc.lft.to/lastmile_qr_scan"}, "is_reserved": 0, "fusion_lon": 0.0, "fusion_lat": 0.0, "lon": -77.022062, "name": "4aa5d2a4dd344a16a2c803a9a3309cc2"}, {"bike_id": "9f85a9015b978686b0b2e72708be4a0c", "type": "electric_scooter", "is_disabled": 0, "lat": 38.912664166666666, "rental_uris": {"ios": "https://dc.lft.to/lastmile_qr_scan", "android": "https://dc.lft.to/lastmile_qr_scan"}, "is_reserved": 0, "fusion_lon": 0.0, "fusion_lat": 0.0, "lon": -77.03873366666667, "name": "9f85a9015b978686b0b2e72708be4a0c"}, {"bike_id": "45d61a54ae4d4797834f77cb79f8db34", "type": "electric_scooter", "is_disabled": 0, "lat": 38.892199833333336, "rental_uris": {"ios": "https://dc.lft.to/lastmile_qr_scan", "android": "https://dc.lft.to/lastmile_qr_scan"}, "is_reserved": 0, "fusion_lon": 0.0, "fusion_lat": 0.0, "lon": -77.0317395, "name": "45d61a54ae4d4797834f77cb79f8db34"}, {"bike_id": "767d0bedeefcf6848123ebee2364d33f", "type": "electric_scooter", "is_disabled": 0, "lat": 38.901945, "rental_uris": {"ios": "https://dc.lft.to/lastmile_qr_scan", "android": "https://dc.lft.to/lastmile_qr_scan"}, "is_reserved": 0, "fusion_lon": 0.0, "fusion_lat": 0.0, "lon": -76.98203066666667, "name": "767d0bedeefcf6848123ebee2364d33f"}, {"bike_id": "2058c781c1281350d8a02bfcc2a6ef37", "type": "electric_scooter", "is_disabled": 0, "lat": 38.89845116666667, "rental_uris": {"ios": "https://dc.lft.to/lastmile_qr_scan", "android": "https://dc.lft.to/lastmile_qr_scan"}, "is_reserved": 0, "fusion_lon": 0.0, "fusion_lat": 0.0, "lon": -76.94628166666666, "name": "2058c781c1281350d8a02bfcc2a6ef37"}, {"bike_id": "4f5dcf6ea11636c19ae34c4025b046c7", "type": "electric_scooter", "is_disabled": 0, "lat": 38.907311666666665, "rental_uris": {"ios": "https://dc.lft.to/lastmile_qr_scan", "android": "https://dc.lft.to/lastmile_qr_scan"}, "is_reserved": 0, "fusion_lon": 0.0, "fusion_lat": 0.0, "lon": -77.02385883333334, "name": "4f5dcf6ea11636c19ae34c4025b046c7"}, {"bike_id": "4a938fd0edd4ea5c0c89739ac184b84b", "type": "electric_scooter", "is_disabled": 0, "lat": 38.90514316666667, "rental_uris": {"ios": "https://dc.lft.to/lastmile_qr_scan", "android": "https://dc.lft.to/lastmile_qr_scan"}, "is_reserved": 0, "fusion_lon": 0.0, "fusion_lat": 0.0, "lon": -77.01723983333333, "name": "4a938fd0edd4ea5c0c89739ac184b84b"}, {"bike_id": "797434d903dbe461ec17cf8bf8d35608", "type": "electric_scooter", "is_disabled": 0, "lat": 38.910145, "rental_uris": {"ios": "https://dc.lft.to/lastmile_qr_scan", "android": "https://dc.lft.to/lastmile_qr_scan"}, "is_reserved": 0, "fusion_lon": 0.0, "fusion_lat": 0.0, "lon": -77.03193333333333, "name": "797434d903dbe461ec17cf8bf8d35608"}, {"bike_id": "6d8193a969d003b0f75d0277cb7097a8", "type": "electric_scooter", "is_disabled": 0, "lat": 38.86701733333334, "rental_uris": {"ios": "https://dc.lft.to/lastmile_qr_scan", "android": "https://dc.lft.to/lastmile_qr_scan"}, "is_reserved": 0, "fusion_lon": 0.0, "fusion_lat": 0.0, "lon": -76.98712566666667, "name": "6d8193a969d003b0f75d0277cb7097a8"}, {"bike_id": "bff0c257f0418962e6a5e805565e63d4", "type": "electric_scooter", "is_disabled": 0, "lat": 38.9214935, "rental_uris": {"ios": "https://dc.lft.to/lastmile_qr_scan", "android": "https://dc.lft.to/lastmile_qr_scan"}, "is_reserved": 0, "fusion_lon": 0.0, "fusion_lat": 0.0, "lon": -77.043533, "name": "bff0c257f0418962e6a5e805565e63d4"}, {"bike_id": "f9d9a0a03758d7dbeee33cd76972bec9", "type": "electric_scooter", "is_disabled": 0, "lat": 38.87877816666666, "rental_uris": {"ios": "https://dc.lft.to/lastmile_qr_scan", "android": "https://dc.lft.to/lastmile_qr_scan"}, "is_reserved": 0, "fusion_lon": 0.0, "fusion_lat": 0.0, "lon": -77.01914633333334, "name": "f9d9a0a03758d7dbeee33cd76972bec9"}, {"bike_id": "374c71125f36b6035048a17ca8e1999b", "type": "electric_scooter", "is_disabled": 0, "lat": 38.9176695, "rental_uris": {"ios": "https://dc.lft.to/lastmile_qr_scan", "android": "https://dc.lft.to/lastmile_qr_scan"}, "is_reserved": 0, "fusion_lon": 0.0, "fusion_lat": 0.0, "lon": -77.04766433333333, "name": "374c71125f36b6035048a17ca8e1999b"}, {"bike_id": "d5139174aa3e9afe8013a2d549101a5f", "type": "electric_scooter", "is_disabled": 0, "lat": 38.9307875, "rental_uris": {"ios": "https://dc.lft.to/lastmile_qr_scan", "android": "https://dc.lft.to/lastmile_qr_scan"}, "is_reserved": 0, "fusion_lon": 0.0, "fusion_lat": 0.0, "lon": -77.02793416666667, "name": "d5139174aa3e9afe8013a2d549101a5f"}, {"bike_id": "9d7aa763a137fc29895d2f6f87349c82", "type": "electric_scooter", "is_disabled": 0, "lat": 38.92824433333333, "rental_uris": {"ios": "https://dc.lft.to/lastmile_qr_scan", "android": "https://dc.lft.to/lastmile_qr_scan"}, "is_reserved": 0, "fusion_lon": 0.0, "fusion_lat": 0.0, "lon": -77.02258316666666, "name": "9d7aa763a137fc29895d2f6f87349c82"}, {"bike_id": "ec0196b9547c62d57b2a25df55dc3489", "type": "electric_scooter", "is_disabled": 0, "lat": 38.892224666666664, "rental_uris": {"ios": "https://dc.lft.to/lastmile_qr_scan", "android": "https://dc.lft.to/lastmile_qr_scan"}, "is_reserved": 0, "fusion_lon": 0.0, "fusion_lat": 0.0, "lon": -77.02262516666667, "name": "ec0196b9547c62d57b2a25df55dc3489"}, {"bike_id": "24c43d1ed8b17fcfa1bd220a054a921f", "type": "electric_scooter", "is_disabled": 0, "lat": 38.867038, "rental_uris": {"ios": "https://dc.lft.to/lastmile_qr_scan", "android": "https://dc.lft.to/lastmile_qr_scan"}, "is_reserved": 0, "fusion_lon": 0.0, "fusion_lat": 0.0, "lon": -76.98710533333333, "name": "24c43d1ed8b17fcfa1bd220a054a921f"}, {"bike_id": "0c4fc1e78d48a0921bc7d11d04eea25d", "type": "electric_scooter", "is_disabled": 0, "lat": 38.902987833333334, "rental_uris": {"ios": "https://dc.lft.to/lastmile_qr_scan", "android": "https://dc.lft.to/lastmile_qr_scan"}, "is_reserved": 0, "fusion_lon": 0.0, "fusion_lat": 0.0, "lon": -77.033602, "name": "0c4fc1e78d48a0921bc7d11d04eea25d"}, {"bike_id": "40cd7dbf52ec5454b142a8e7a5047450", "type": "electric_bike", "is_disabled": 0, "lat": 38.978584833333336, "rental_uris": {"ios": "https://dc.lft.to/lastmile_qr_scan", "android": "https://dc.lft.to/lastmile_qr_scan"}, "is_reserved": 0, "fusion_lon": 0.0, "fusion_lat": 0.0, "lon": -76.94046733333333, "name": "40cd7dbf52ec5454b142a8e7a5047450"}, {"bike_id": "349d57f3643bd55399bfaea97861882e", "type": "electric_scooter", "is_disabled": 0, "lat": 38.89882133333333, "rental_uris": {"ios": "https://dc.lft.to/lastmile_qr_scan", "android": "https://dc.lft.to/lastmile_qr_scan"}, "is_reserved": 0, "fusion_lon": 0.0, "fusion_lat": 0.0, "lon": -76.9317545, "name": "349d57f3643bd55399bfaea97861882e"}, {"bike_id": "b66585b36c6c61f07cf49e4d8cf6ed0a", "type": "electric_scooter", "is_disabled": 0, "lat": 38.89551983333333, "rental_uris": {"ios": "https://dc.lft.to/lastmile_qr_scan", "android": "https://dc.lft.to/lastmile_qr_scan"}, "is_reserved": 0, "fusion_lon": 0.0, "fusion_lat": 0.0, "lon": -76.9494265, "name": "b66585b36c6c61f07cf49e4d8cf6ed0a"}, {"bike_id": "cc93b4560a48b037a63dcaf3bf91d248", "type": "electric_scooter", "is_disabled": 0, "lat": 38.912716333333336, "rental_uris": {"ios": "https://dc.lft.to/lastmile_qr_scan", "android": "https://dc.lft.to/lastmile_qr_scan"}, "is_reserved": 0, "fusion_lon": 0.0, "fusion_lat": 0.0, "lon": -77.04495066666667, "name": "cc93b4560a48b037a63dcaf3bf91d248"}, {"bike_id": "8083518a8a9cf15f57982c39a4646d66", "type": "electric_bike", "is_disabled": 0, "lat": 38.857722333333335, "rental_uris": {"ios": "https://dc.lft.to/lastmile_qr_scan", "android": "https://dc.lft.to/lastmile_qr_scan"}, "is_reserved": 0, "fusion_lon": 0.0, "fusion_lat": 0.0, "lon": -76.98771983333333, "name": "8083518a8a9cf15f57982c39a4646d66"}, {"bike_id": "f2bdd04ed4207813aa7e069f654a4ae8", "type": "electric_bike", "is_disabled": 0, "lat": 38.92068666666667, "rental_uris": {"ios": "https://dc.lft.to/lastmile_qr_scan", "android": "https://dc.lft.to/lastmile_qr_scan"}, "is_reserved": 0, "fusion_lon": 0.0, "fusion_lat": 0.0, "lon": -76.89070583333333, "name": "f2bdd04ed4207813aa7e069f654a4ae8"}, {"bike_id": "14bed1f8905b1c769d40739013074cfc", "type": "electric_scooter", "is_disabled": 0, "lat": 38.91283583333333, "rental_uris": {"ios": "https://dc.lft.to/lastmile_qr_scan", "android": "https://dc.lft.to/lastmile_qr_scan"}, "is_reserved": 0, "fusion_lon": 0.0, "fusion_lat": 0.0, "lon": -77.0611955, "name": "14bed1f8905b1c769d40739013074cfc"}, {"bike_id": "09e4430ad24560af7c2bfd422ec3b95e", "type": "electric_scooter", "is_disabled": 0, "lat": 38.91927866666666, "rental_uris": {"ios": "https://dc.lft.to/lastmile_qr_scan", "android": "https://dc.lft.to/lastmile_qr_scan"}, "is_reserved": 0, "fusion_lon": 0.0, "fusion_lat": 0.0, "lon": -77.031721, "name": "09e4430ad24560af7c2bfd422ec3b95e"}, {"bike_id": "f4fa9b485c76ca6b39ec9316ed165988", "type": "electric_scooter", "is_disabled": 0, "lat": 38.90736716666667, "rental_uris": {"ios": "https://dc.lft.to/lastmile_qr_scan", "android": "https://dc.lft.to/lastmile_qr_scan"}, "is_reserved": 0, "fusion_lon": 0.0, "fusion_lat": 0.0, "lon": -77.02188533333333, "name": "f4fa9b485c76ca6b39ec9316ed165988"}, {"bike_id": "7d256ace78ca3fffbd0bf45b5f882d7b", "type": "electric_scooter", "is_disabled": 0, "lat": 38.89750266666667, "rental_uris": {"ios": "https://dc.lft.to/lastmile_qr_scan", "android": "https://dc.lft.to/lastmile_qr_scan"}, "is_reserved": 0, "fusion_lon": 0.0, "fusion_lat": 0.0, "lon": -76.94184466666667, "name": "7d256ace78ca3fffbd0bf45b5f882d7b"}, {"bike_id": "e185c3a75a0c9903841f0addfddceaa2", "type": "electric_scooter", "is_disabled": 0, "lat": 38.915503333333334, "rental_uris": {"ios": "https://dc.lft.to/lastmile_qr_scan", "android": "https://dc.lft.to/lastmile_qr_scan"}, "is_reserved": 0, "fusion_lon": 0.0, "fusion_lat": 0.0, "lon": -77.0364085, "name": "e185c3a75a0c9903841f0addfddceaa2"}, {"bike_id": "3c664ba02100481e0c43288710ae2b7d", "type": "electric_scooter", "is_disabled": 0, "lat": 38.923372666666666, "rental_uris": {"ios": "https://dc.lft.to/lastmile_qr_scan", "android": "https://dc.lft.to/lastmile_qr_scan"}, "is_reserved": 0, "fusion_lon": 0.0, "fusion_lat": 0.0, "lon": -77.03488966666667, "name": "3c664ba02100481e0c43288710ae2b7d"}, {"bike_id": "3a78b3b5b14aecaaafe05c301d6e7455", "type": "electric_scooter", "is_disabled": 0, "lat": 38.914817166666666, "rental_uris": {"ios": "https://dc.lft.to/lastmile_qr_scan", "android": "https://dc.lft.to/lastmile_qr_scan"}, "is_reserved": 0, "fusion_lon": 0.0, "fusion_lat": 0.0, "lon": -77.02585433333333, "name": "3a78b3b5b14aecaaafe05c301d6e7455"}, {"bike_id": "cf49c42fbac88fc06afb9262a3f2fa55", "type": "electric_scooter", "is_disabled": 0, "lat": 38.911786, "rental_uris": {"ios": "https://dc.lft.to/lastmile_qr_scan", "android": "https://dc.lft.to/lastmile_qr_scan"}, "is_reserved": 0, "fusion_lon": 0.0, "fusion_lat": 0.0, "lon": -77.0169485, "name": "cf49c42fbac88fc06afb9262a3f2fa55"}, {"bike_id": "37ce0a68e2be5bcf4fef74b4b5069cf1", "type": "electric_scooter", "is_disabled": 0, "lat": 38.91692116666667, "rental_uris": {"ios": "https://dc.lft.to/lastmile_qr_scan", "android": "https://dc.lft.to/lastmile_qr_scan"}, "is_reserved": 0, "fusion_lon": 0.0, "fusion_lat": 0.0, "lon": -77.008161, "name": "37ce0a68e2be5bcf4fef74b4b5069cf1"}, {"bike_id": "e267d78490ad19620a3f17e08780a0a6", "type": "electric_scooter", "is_disabled": 0, "lat": 38.86247566666667, "rental_uris": {"ios": "https://dc.lft.to/lastmile_qr_scan", "android": "https://dc.lft.to/lastmile_qr_scan"}, "is_reserved": 0, "fusion_lon": 0.0, "fusion_lat": 0.0, "lon": -76.9950105, "name": "e267d78490ad19620a3f17e08780a0a6"}, {"bike_id": "ef716a7f1e70b59fe9b7e75f601462da", "type": "electric_scooter", "is_disabled": 0, "lat": 38.91264066666667, "rental_uris": {"ios": "https://dc.lft.to/lastmile_qr_scan", "android": "https://dc.lft.to/lastmile_qr_scan"}, "is_reserved": 0, "fusion_lon": 0.0, "fusion_lat": 0.0, "lon": -77.04707833333333, "name": "ef716a7f1e70b59fe9b7e75f601462da"}, {"bike_id": "8eef08db235a71200ced4cd50d3b0210", "type": "electric_scooter", "is_disabled": 0, "lat": 38.903635, "rental_uris": {"ios": "https://dc.lft.to/lastmile_qr_scan", "android": "https://dc.lft.to/lastmile_qr_scan"}, "is_reserved": 0, "fusion_lon": 0.0, "fusion_lat": 0.0, "lon": -77.0317645, "name": "8eef08db235a71200ced4cd50d3b0210"}, {"bike_id": "8670388618866265d6c638ecfd059e35", "type": "electric_scooter", "is_disabled": 0, "lat": 38.925215333333334, "rental_uris": {"ios": "https://dc.lft.to/lastmile_qr_scan", "android": "https://dc.lft.to/lastmile_qr_scan"}, "is_reserved": 0, "fusion_lon": 0.0, "fusion_lat": 0.0, "lon": -77.04118116666666, "name": "8670388618866265d6c638ecfd059e35"}, {"bike_id": "28c1a38f51fcf0db66bb99d1dc71ff3e", "type": "electric_scooter", "is_disabled": 0, "lat": 38.91173216666667, "rental_uris": {"ios": "https://dc.lft.to/lastmile_qr_scan", "android": "https://dc.lft.to/lastmile_qr_scan"}, "is_reserved": 0, "fusion_lon": 0.0, "fusion_lat": 0.0, "lon": -77.03182266666667, "name": "28c1a38f51fcf0db66bb99d1dc71ff3e"}, {"bike_id": "8a59245caf1873523983b70578a9a23b", "type": "electric_scooter", "is_disabled": 0, "lat": 38.919920833333336, "rental_uris": {"ios": "https://dc.lft.to/lastmile_qr_scan", "android": "https://dc.lft.to/lastmile_qr_scan"}, "is_reserved": 0, "fusion_lon": 0.0, "fusion_lat": 0.0, "lon": -77.032479, "name": "8a59245caf1873523983b70578a9a23b"}, {"bike_id": "de80b8becb8fcce683af0de155c8375f", "type": "electric_scooter", "is_disabled": 0, "lat": 38.89725583333333, "rental_uris": {"ios": "https://dc.lft.to/lastmile_qr_scan", "android": "https://dc.lft.to/lastmile_qr_scan"}, "is_reserved": 0, "fusion_lon": 0.0, "fusion_lat": 0.0, "lon": -77.02166866666667, "name": "de80b8becb8fcce683af0de155c8375f"}, {"bike_id": "394c578035162f0ff8528601c992b8cf", "type": "electric_scooter", "is_disabled": 0, "lat": 38.93098166666667, "rental_uris": {"ios": "https://dc.lft.to/lastmile_qr_scan", "android": "https://dc.lft.to/lastmile_qr_scan"}, "is_reserved": 0, "fusion_lon": 0.0, "fusion_lat": 0.0, "lon": -77.02665983333333, "name": "394c578035162f0ff8528601c992b8cf"}, {"bike_id": "eaf1b1e1e572cc70bd6be6829f15cb41", "type": "electric_scooter", "is_disabled": 0, "lat": 38.909203833333336, "rental_uris": {"ios": "https://dc.lft.to/lastmile_qr_scan", "android": "https://dc.lft.to/lastmile_qr_scan"}, "is_reserved": 0, "fusion_lon": 0.0, "fusion_lat": 0.0, "lon": -77.0317795, "name": "eaf1b1e1e572cc70bd6be6829f15cb41"}, {"bike_id": "bd8be320d94451a79c952354f241b894", "type": "electric_scooter", "is_disabled": 0, "lat": 38.913156666666666, "rental_uris": {"ios": "https://dc.lft.to/lastmile_qr_scan", "android": "https://dc.lft.to/lastmile_qr_scan"}, "is_reserved": 0, "fusion_lon": 0.0, "fusion_lat": 0.0, "lon": -77.0385455, "name": "bd8be320d94451a79c952354f241b894"}, {"bike_id": "a8954f6284022d32e12eacb8b2fad6c3", "type": "electric_bike", "is_disabled": 0, "lat": 38.905323833333334, "rental_uris": {"ios": "https://dc.lft.to/lastmile_qr_scan", "android": "https://dc.lft.to/lastmile_qr_scan"}, "is_reserved": 0, "fusion_lon": 0.0, "fusion_lat": 0.0, "lon": -77.02918733333334, "name": "a8954f6284022d32e12eacb8b2fad6c3"}, {"bike_id": "da5da5d92a9e94f11f906d7cac5e7633", "type": "electric_scooter", "is_disabled": 0, "lat": 38.915318, "rental_uris": {"ios": "https://dc.lft.to/lastmile_qr_scan", "android": "https://dc.lft.to/lastmile_qr_scan"}, "is_reserved": 0, "fusion_lon": 0.0, "fusion_lat": 0.0, "lon": -77.03188033333333, "name": "da5da5d92a9e94f11f906d7cac5e7633"}, {"bike_id": "fbd2ee878e2303ba7e293c3d9ed4dc34", "type": "electric_scooter", "is_disabled": 0, "lat": 38.916042, "rental_uris": {"ios": "https://dc.lft.to/lastmile_qr_scan", "android": "https://dc.lft.to/lastmile_qr_scan"}, "is_reserved": 0, "fusion_lon": 0.0, "fusion_lat": 0.0, "lon": -77.03136566666667, "name": "fbd2ee878e2303ba7e293c3d9ed4dc34"}, {"bike_id": "aeb49236747b3217836c4c852769fb71", "type": "electric_scooter", "is_disabled": 0, "lat": 38.9479135, "rental_uris": {"ios": "https://dc.lft.to/lastmile_qr_scan", "android": "https://dc.lft.to/lastmile_qr_scan"}, "is_reserved": 0, "fusion_lon": 0.0, "fusion_lat": 0.0, "lon": -77.02136966666667, "name": "aeb49236747b3217836c4c852769fb71"}, {"bike_id": "5faaa5084d646965ad5096b1ed2d369e", "type": "electric_scooter", "is_disabled": 0, "lat": 38.9736595, "rental_uris": {"ios": "https://dc.lft.to/lastmile_qr_scan", "android": "https://dc.lft.to/lastmile_qr_scan"}, "is_reserved": 0, "fusion_lon": 0.0, "fusion_lat": 0.0, "lon": -77.01863266666666, "name": "5faaa5084d646965ad5096b1ed2d369e"},