{"data": {"bikes": [{"rental_uris": {"ios": "https://dc.lft.to/lastmile_qr_scan", "android": "https://dc.lft.to/lastmile_qr_scan"}, "lon": -76.99863033333334, "type": "electric_scooter", "fusion_lat": 0.0, "lat": 38.90000166666667, "name": "9ae160b66fd999d90789d731f70390fe", "fusion_lon": 0.0, "bike_id": "9ae160b66fd999d90789d731f70390fe", "is_disabled": 0, "is_reserved": 0}, {"rental_uris": {"ios": "https://dc.lft.to/lastmile_qr_scan", "android": "https://dc.lft.to/lastmile_qr_scan"}, "lon": -76.97933916666666, "type": "electric_scooter", "fusion_lat": 0.0, "lat": 38.906716, "name": "0644f82c0bd3ceada0e72fdb6142243a", "fusion_lon": 0.0, "bike_id": "0644f82c0bd3ceada0e72fdb6142243a", "is_disabled": 0, "is_reserved": 0}, {"rental_uris": {"ios": "https://dc.lft.to/lastmile_qr_scan", "android": "https://dc.lft.to/lastmile_qr_scan"}, "lon": -77.03471666666667, "type": "electric_scooter", "fusion_lat": 0.0, "lat": 38.912662, "name": "2fa11a92fdcd8ea22109456cfb4a2f6b", "fusion_lon": 0.0, "bike_id": "2fa11a92fdcd8ea22109456cfb4a2f6b", "is_disabled": 0, "is_reserved": 0}, {"rental_uris": {"ios": "https://dc.lft.to/lastmile_qr_scan", "android": "https://dc.lft.to/lastmile_qr_scan"}, "lon": -77.029463, "type": "electric_scooter", "fusion_lat": 0.0, "lat": 38.907408333333336, "name": "5c641567819b647b2dcc81ce2e713a9a", "fusion_lon": 0.0, "bike_id": "5c641567819b647b2dcc81ce2e713a9a", "is_disabled": 0, "is_reserved": 0}, {"rental_uris": {"ios": "https://dc.lft.to/lastmile_qr_scan", "android": "https://dc.lft.to/lastmile_qr_scan"}, "lon": -77.033648, "type": "electric_scooter", "fusion_lat": 0.0, "lat": 38.91964433333333, "name": "2c2b079463e2d3970ed742124fea667e", "fusion_lon": 0.0, "bike_id": "2c2b079463e2d3970ed742124fea667e", "is_disabled": 0, "is_reserved": 0}, {"rental_uris": {"ios": "https://dc.lft.to/lastmile_qr_scan", "android": "https://dc.lft.to/lastmile_qr_scan"}, "lon": -76.97492933333334, "type": "electric_bike", "fusion_lat": 0.0, "lat": 38.92004983333333, "name": "8d2f41cd25ce0df562acb8a117255170", "fusion_lon": 0.0, "bike_id": "8d2f41cd25ce0df562acb8a117255170", "is_disabled": 0, "is_reserved": 0}, {"rental_uris": {"ios": "https://dc.lft.to/lastmile_qr_scan", "android": "https://dc.lft.to/lastmile_qr_scan"}, "lon": -77.0324985, "type": "electric_scooter", "fusion_lat": 0.0, "lat": 38.90458683333333, "name": "6fe59195e358b6b52cb3d299377bd5a2", "fusion_lon": 0.0, "bike_id": "6fe59195e358b6b52cb3d299377bd5a2", "is_disabled": 0, "is_reserved": 0}, {"rental_uris": {"ios": "https://dc.lft.to/lastmile_qr_scan", "android": "https://dc.lft.to/lastmile_qr_scan"}, "lon": -77.002593, "type": "electric_scooter", "fusion_lat": 0.0, "lat": 38.9119095, "name": "4355cf6a2c9bb2f29f9792addad0c708", "fusion_lon": 0.0, "bike_id": "4355cf6a2c9bb2f29f9792addad0c708", "is_disabled": 0, "is_reserved": 0}, {"rental_uris": {"ios": "https://dc.lft.to/lastmile_qr_scan", "android": "https://dc.lft.to/lastmile_qr_scan"}, "lon": -77.01795566666667, "type": "electric_scooter", "fusion_lat": 0.0, "lat": 38.8923825, "name": "7382a724ffba9c56e42904be9390a425", "fusion_lon": 0.0, "bike_id": "7382a724ffba9c56e42904be9390a425", "is_disabled": 0, "is_reserved": 0}, {"rental_uris": {"ios": "https://dc.lft.to/lastmile_qr_scan", "android": "https://dc.lft.to/lastmile_qr_scan"}, "lon": -77.0346195, "type": "electric_scooter", "fusion_lat": 0.0, "lat": 38.90359433333333, "name": "e3efd7b3587dbc068359a99685354a4e", "fusion_lon": 0.0, "bike_id": "e3efd7b3587dbc068359a99685354a4e", "is_disabled": 0, "is_reserved": 0}, {"rental_uris": {"ios": "https://dc.lft.to/lastmile_qr_scan", "android": "https://dc.lft.to/lastmile_qr_scan"}, "lon": -76.93719433333334, "type": "electric_scooter", "fusion_lat": 0.0, "lat": 38.89589133333333, "name": "3cd77e7202d1d0a57c8c0a7e9e07c717", "fusion_lon": 0.0, "bike_id": "3cd77e7202d1d0a57c8c0a7e9e07c717", "is_disabled": 0, "is_reserved": 0}, {"rental_uris": {"ios": "https://dc.lft.to/lastmile_qr_scan", "android": "https://dc.lft.to/lastmile_qr_scan"}, "lon": -77.04180966666667, "type": "electric_scooter", "fusion_lat": 0.0, "lat": 38.90559833333333, "name": "166af55bc40ddcf3342bc2e4d0b5baeb", "fusion_lon": 0.0, "bike_id": "166af55bc40ddcf3342bc2e4d0b5baeb", "is_disabled": 0, "is_reserved": 0}, {"rental_uris": {"ios": "https://dc.lft.to/lastmile_qr_scan", "android": "https://dc.lft.to/lastmile_qr_scan"}, "lon": -77.03973516666667, "type": "electric_scooter", "fusion_lat": 0.0, "lat": 38.903787333333334, "name": "75c3a41af92dc08fb5a53055ed7b82d6", "fusion_lon": 0.0, "bike_id": "75c3a41af92dc08fb5a53055ed7b82d6", "is_disabled": 0, "is_reserved": 0}, {"rental_uris": {"ios": "https://dc.lft.to/lastmile_qr_scan", "android": "https://dc.lft.to/lastmile_qr_scan"}, "lon": -77.04118416666667, "type": "electric_scooter", "fusion_lat": 0.0, "lat": 38.924455, "name": "12a300da2ccc018eecdc2e6f69a9e8b0", "fusion_lon": 0.0, "bike_id": "12a300da2ccc018eecdc2e6f69a9e8b0", "is_disabled": 0, "is_reserved": 0}, {"rental_uris": {"ios": "https://dc.lft.to/lastmile_qr_scan", "android": "https://dc.lft.to/lastmile_qr_scan"}, "lon": -77.01953033333334, "type": "electric_scooter", "fusion_lat": 0.0, "lat": 38.90367583333333, "name": "dfd1c4bf1b87de0bd2628d45c9e8248e", "fusion_lon": 0.0, "bike_id": "dfd1c4bf1b87de0bd2628d45c9e8248e", "is_disabled": 0, "is_reserved": 0}, {"rental_uris": {"ios": "https://dc.lft.to/lastmile_qr_scan", "android": "https://dc.lft.to/lastmile_qr_scan"}, "lon": -77.03349233333333, "type": "electric_scooter", "fusion_lat": 0.0, "lat": 38.911792166666665, "name": "86772b26929c7c2fd68c6741833413c7", "fusion_lon": 0.0, "bike_id": "86772b26929c7c2fd68c6741833413c7", "is_disabled": 0, "is_reserved": 0}, {"rental_uris": {"ios": "https://dc.lft.to/lastmile_qr_scan", "android": "https://dc.lft.to/lastmile_qr_scan"}, "lon": -76.97409783333333, "type": "electric_scooter", "fusion_lat": 0.0, "lat": 38.90156366666667, "name": "6e29e1b659a25fa8ebf2324d926d964d", "fusion_lon": 0.0, "bike_id": "6e29e1b659a25fa8ebf2324d926d964d", "is_disabled": 0, "is_reserved": 0}, {"rental_uris": {"ios": "https://dc.lft.to/lastmile_qr_scan", "android": "https://dc.lft.to/lastmile_qr_scan"}, "lon": -77.01272066666667, "type": "electric_scooter", "fusion_lat": 0.0, "lat": 38.915425166666665, "name": "b99c6207f9ff5da1d3e033cbd904609e", "fusion_lon": 0.0, "bike_id": "b99c6207f9ff5da1d3e033cbd904609e", "is_disabled": 0, "is_reserved": 0}, {"rental_uris": {"ios": "https://dc.lft.to/lastmile_qr_scan", "android": "https://dc.lft.to/lastmile_qr_scan"}, "lon": -77.038474, "type": "electric_scooter", "fusion_lat": 0.0, "lat": 38.90976083333334, "name": "32aaea3cae05b8920dbf01a84cd48252", "fusion_lon": 0.0, "bike_id": "32aaea3cae05b8920dbf01a84cd48252", "is_disabled": 0, "is_reserved": 0}, {"rental_uris": {"ios": "https://dc.lft.to/lastmile_qr_scan", "android": "https://dc.lft.to/lastmile_qr_scan"}, "lon": -77.02289933333333, "type": "electric_scooter", "fusion_lat": 0.0, "lat": 38.91967483333333, "name": "edeaa205df6dcb8a3aa66149e0453972", "fusion_lon": 0.0, "bike_id": "edeaa205df6dcb8a3aa66149e0453972", "is_disabled": 0, "is_reserved": 0}, {"rental_uris": {"ios": "https://dc.lft.to/lastmile_qr_scan", "android": "https://dc.lft.to/lastmile_qr_scan"}, "lon": -77.03712866666666, "type": "electric_scooter", "fusion_lat": 0.0, "lat": 38.92635683333334, "name": "60bed3a8bcee2c0ecc284b4801cbab36", "fusion_lon": 0.0, "bike_id": "60bed3a8bcee2c0ecc284b4801cbab36", "is_disabled": 0, "is_reserved": 0}, {"rental_uris": {"ios": "https://dc.lft.to/lastmile_qr_scan", "android": "https://dc.lft.to/lastmile_qr_scan"}, "lon": -77.0215415, "type": "electric_scooter", "fusion_lat": 0.0, "lat": 38.897160666666664, "name": "cda36c62c084626db7084d55b4a26e38", "fusion_lon": 0.0, "bike_id": "cda36c62c084626db7084d55b4a26e38", "is_disabled": 0, "is_reserved": 0}, {"rental_uris": {"ios": "https://dc.lft.to/lastmile_qr_scan", "android": "https://dc.lft.to/lastmile_qr_scan"}, "lon": -77.125012, "type": "electric_bike", "fusion_lat": 0.0, "lat": 39.024227333333336, "name": "e56ad6a436dd449b1518a639fbd5ed67", "fusion_lon": 0.0, "bike_id": "e56ad6a436dd449b1518a639fbd5ed67", "is_disabled": 0, "is_reserved": 0}, {"rental_uris": {"ios": "https://dc.lft.to/lastmile_qr_scan", "android": "https://dc.lft.to/lastmile_qr_scan"}, "lon": -77.0263835, "type": "electric_scooter", "fusion_lat": 0.0, "lat": 38.898419, "name": "ef72e014977dc3a3e6070cde9064af2c", "fusion_lon": 0.0, "bike_id": "ef72e014977dc3a3e6070cde9064af2c", "is_disabled": 0, "is_reserved": 0}, {"rental_uris": {"ios": "https://dc.lft.to/lastmile_qr_scan", "android": "https://dc.lft.to/lastmile_qr_scan"}, "lon": -77.0318455, "type": "electric_scooter", "fusion_lat": 0.0, "lat": 38.886263166666666, "name": "3a812bb7df11dfeca36fae8bf80e8820", "fusion_lon": 0.0, "bike_id": "3a812bb7df11dfeca36fae8bf80e8820", "is_disabled": 0, "is_reserved": 0}, {"rental_uris": {"ios": "https://dc.lft.to/lastmile_qr_scan", "android": "https://dc.lft.to/lastmile_qr_scan"}, "lon": -76.9317695, "type": "electric_scooter", "fusion_lat": 0.0, "lat": 38.898852166666664, "name": "35f45747694b1ffb9378d4b7bfed4187", "fusion_lon": 0.0, "bike_id": "35f45747694b1ffb9378d4b7bfed4187", "is_disabled": 0, "is_reserved": 0}, {"rental_uris": {"ios": "https://dc.lft.to/lastmile_qr_scan", "android": "https://dc.lft.to/lastmile_qr_scan"}, "lon": -77.04672583333333, "type": "electric_scooter", "fusion_lat": 0.0, "lat": 38.893292833333334, "name": "c5e150d56047818d9699262224aad634", "fusion_lon": 0.0, "bike_id": "c5e150d56047818d9699262224aad634", "is_disabled": 0, "is_reserved": 0}, {"rental_uris": {"ios": "https://dc.lft.to/lastmile_qr_scan", "android": "https://dc.lft.to/lastmile_qr_scan"}, "lon": -77.00211233333333, "type": "electric_scooter", "fusion_lat": 0.0, "lat": 38.90219033333333, "name": "6a0653300d950f2cc9a8f2d0600e8ccd", "fusion_lon": 0.0, "bike_id": "6a0653300d950f2cc9a8f2d0600e8ccd", "is_disabled": 0, "is_reserved": 0}, {"rental_uris": {"ios": "https://dc.lft.to/lastmile_qr_scan", "android": "https://dc.lft.to/lastmile_qr_scan"}, "lon": -77.051403, "type": "electric_scooter", "fusion_lat": 0.0, "lat": 38.89788433333333, "name": "bd25e25c586e1c9c7b9a3325022cb1e2", "fusion_lon": 0.0, "bike_id": "bd25e25c586e1c9c7b9a3325022cb1e2", "is_disabled": 0, "is_reserved": 0}, {"rental_uris": {"ios": "https://dc.lft.to/lastmile_qr_scan", "android": "https://dc.lft.to/lastmile_qr_scan"}, "lon": -77.01860133333334, "type": "electric_scooter", "fusion_lat": 0.0, "lat": 38.9007995, "name": "57d1856232fe9dc6aa8885e676554d95", "fusion_lon": 0.0, "bike_id": "57d1856232fe9dc6aa8885e676554d95", "is_disabled": 0, "is_reserved": 0}, {"rental_uris": {"ios": "https://dc.lft.to/lastmile_qr_scan", "android": "https://dc.lft.to/lastmile_qr_scan"}, "lon": -77.12016633333333, "type": "electric_bike", "fusion_lat": 0.0, "lat": 38.85510083333333, "name": "39297669df69aed31e28b3bf00852602", "fusion_lon": 0.0, "bike_id": "39297669df69aed31e28b3bf00852602", "is_disabled": 0, "is_reserved": 0}, {"rental_uris": {"ios": "https://dc.lft.to/lastmile_qr_scan", "android": "https://dc.lft.to/lastmile_qr_scan"}, "lon": -76.94973683333333, "type": "electric_scooter", "fusion_lat": 0.0, "lat": 38.8937315, "name": "4517a4521cbcefb9245c3dcac44e5de6", "fusion_lon": 0.0, "bike_id": "4517a4521cbcefb9245c3dcac44e5de6", "is_disabled": 0, "is_reserved": 0}, {"rental_uris": {"ios": "https://dc.lft.to/lastmile_qr_scan", "android": "https://dc.lft.to/lastmile_qr_scan"}, "lon": -76.94792583333333, "type": "electric_scooter", "fusion_lat": 0.0, "lat": 38.8963185, "name": "1a10b2f28f447537193e971cef1563cc", "fusion_lon": 0.0, "bike_id": "1a10b2f28f447537193e971cef1563cc", "is_disabled": 0, "is_reserved": 0}, {"rental_uris": {"ios": "https://dc.lft.to/lastmile_qr_scan", "android": "https://dc.lft.to/lastmile_qr_scan"}, "lon": -77.0297505, "type": "electric_scooter", "fusion_lat": 0.0, "lat": 38.9622785, "name": "9b170222e64d076918f6645b9d15a84e", "fusion_lon": 0.0, "bike_id": "9b170222e64d076918f6645b9d15a84e", "is_disabled": 0, "is_reserved": 0}, {"rental_uris": {"ios": "https://dc.lft.to/lastmile_qr_scan", "android": "https://dc.lft.to/lastmile_qr_scan"}, "lon": -77.00135966666667, "type": "electric_scooter", "fusion_lat": 0.0, "lat": 38.90403166666667, "name": "c8a1c0c5e94030dd03c86e0a699c24ae", "fusion_lon": 0.0, "bike_id": "c8a1c0c5e94030dd03c86e0a699c24ae", "is_disabled": 0, "is_reserved": 0}, {"rental_uris": {"ios": "https://dc.lft.to/lastmile_qr_scan", "android": "https://dc.lft.to/lastmile_qr_scan"}, "lon": -77.00885366666667, "type": "electric_scooter", "fusion_lat": 0.0, "lat": 38.9140415, "name": "5505e71c650522daf00451ec0eecc2d2", "fusion_lon": 0.0, "bike_id": "5505e71c650522daf00451ec0eecc2d2", "is_disabled": 0, "is_reserved": 0}, {"rental_uris": {"ios": "https://dc.lft.to/lastmile_qr_scan", "android": "https://dc.lft.to/lastmile_qr_scan"}, "lon": -77.103413, "type": "electric_bike", "fusion_lat": 0.0, "lat": 38.852257, "name": "24a26f6aa0cc835ed3e0e3ce24d182a3", "fusion_lon": 0.0, "bike_id": "24a26f6aa0cc835ed3e0e3ce24d182a3", "is_disabled": 0, "is_reserved": 0}, {"rental_uris": {"ios": "https://dc.lft.to/lastmile_qr_scan", "android": "https://dc.lft.to/lastmile_qr_scan"}, "lon": -77.09164266666667, "type": "electric_bike", "fusion_lat": 0.0, "lat": 38.9675665, "name": "17d6456c898be36fa755031889e66c0e", "fusion_lon": 0.0, "bike_id": "17d6456c898be36fa755031889e66c0e", "is_disabled": 0, "is_reserved": 0}, {"rental_uris": {"ios": "https://dc.lft.to/lastmile_qr_scan", "android": "https://dc.lft.to/lastmile_qr_scan"}, "lon": -76.9617785, "type": "electric_bike", "fusion_lat": 0.0, "lat": 38.918621, "name": "8fd21809d904f1ac86bc5ac6add060c5", "fusion_lon": 0.0, "bike_id": "8fd21809d904f1ac86bc5ac6add060c5", "is_disabled": 0, "is_reserved": 0}, {"rental_uris": {"ios": "https://dc.lft.to/lastmile_qr_scan", "android": "https://dc.lft.to/lastmile_qr_scan"}, "lon": -77.02339733333334, "type": "electric_scooter", "fusion_lat": 0.0, "lat": 38.883364, "name": "5448d17c6866cb2a5021f47ab0e36bb3", "fusion_lon": 0.0, "bike_id": "5448d17c6866cb2a5021f47ab0e36bb3", "is_disabled": 0, "is_reserved": 0}, {"rental_uris": {"ios": "https://dc.lft.to/lastmile_qr_scan", "android": "https://dc.lft.to/lastmile_qr_scan"}, "lon": -77.13093666666667, "type": "electric_bike", "fusion_lat": 0.0, "lat": 38.86160533333333, "name": "955bd8ed2c223861c2882bbb3b5936fb", "fusion_lon": 0.0, "bike_id": "955bd8ed2c223861c2882bbb3b5936fb", "is_disabled": 0, "is_reserved": 0}, {"rental_uris": {"ios": "https://dc.lft.to/lastmile_qr_scan", "android": "https://dc.lft.to/lastmile_qr_scan"}, "lon": -77.03988083333333, "type": "electric_scooter", "fusion_lat": 0.0, "lat": 38.90264633333334, "name": "71f8f244eaa868a4e39b0d0ae96753fd", "fusion_lon": 0.0, "bike_id": "71f8f244eaa868a4e39b0d0ae96753fd", "is_disabled": 0, "is_reserved": 0}, {"rental_uris": {"ios": "https://dc.lft.to/lastmile_qr_scan", "android": "https://dc.lft.to/lastmile_qr_scan"}, "lon": -77.03448833333333, "type": "electric_scooter", "fusion_lat": 0.0, "lat": 38.907351166666665, "name": "a2ee9de7d727ab9f78df1a534073b743", "fusion_lon": 0.0, "bike_id": "a2ee9de7d727ab9f78df1a534073b743", "is_disabled": 0, "is_reserved": 0}, {"rental_uris": {"ios": "https://dc.lft.to/lastmile_qr_scan", "android": "https://dc.lft.to/lastmile_qr_scan"}, "lon": -77.0470275, "type": "electric_scooter", "fusion_lat": 0.0, "lat": 38.9210185, "name": "a0e416eaa6573a873ed44e3f4f77be45", "fusion_lon": 0.0, "bike_id": "a0e416eaa6573a873ed44e3f4f77be45", "is_disabled": 0, "is_reserved": 0}, {"rental_uris": {"ios": "https://dc.lft.to/lastmile_qr_scan", "android": "https://dc.lft.to/lastmile_qr_scan"}, "lon": -77.04165916666666, "type": "electric_scooter", "fusion_lat": 0.0, "lat": 38.918580666666664, "name": "0d1315134a13b8619094a8487e3d3285", "fusion_lon": 0.0, "bike_id": "0d1315134a13b8619094a8487e3d3285", "is_disabled": 0, "is_reserved": 0}, {"rental_uris": {"ios": "https://dc.lft.to/lastmile_qr_scan", "android": "https://dc.lft.to/lastmile_qr_scan"}, "lon": -77.03460466666667, "type": "electric_scooter", "fusion_lat": 0.0, "lat": 38.921412333333336, "name": "91b4fe56cbaad60afec934e7bf568d6a", "fusion_lon": 0.0, "bike_id": "91b4fe56cbaad60afec934e7bf568d6a", "is_disabled": 0, "is_reserved": 0}, {"rental_uris": {"ios": "https://dc.lft.to/lastmile_qr_scan", "android": "https://dc.lft.to/lastmile_qr_scan"}, "lon": -77.05601233333333, "type": "electric_scooter", "fusion_lat": 0.0, "lat": 38.93696, "name": "79b7d51539351c1cd534858e6459c510", "fusion_lon": 0.0, "bike_id": "79b7d51539351c1cd534858e6459c510", "is_disabled": 0, "is_reserved": 0}, {"rental_uris": {"ios": "https://dc.lft.to/lastmile_qr_scan", "android": "https://dc.lft.to/lastmile_qr_scan"}, "lon": -77.028846, "type": "electric_scooter", "fusion_lat": 0.0, "lat": 38.904608, "name": "f81c81f8f00f3013bc866b829ae92e54", "fusion_lon": 0.0, "bike_id": "f81c81f8f00f3013bc866b829ae92e54", "is_disabled": 0, "is_reserved": 0}, {"rental_uris": {"ios": "https://dc.lft.to/lastmile_qr_scan", "android": "https://dc.lft.to/lastmile_qr_scan"}, "lon": -77.03237483333334, "type": "electric_scooter", "fusion_lat": 0.0, "lat": 38.89640266666667, "name": "01dd1c27e9d2c56b123e88fc00ecb777", "fusion_lon": 0.0, "bike_id": "01dd1c27e9d2c56b123e88fc00ecb777", "is_disabled": 0, "is_reserved": 0}, {"rental_uris": {"ios": "https://dc.lft.to/lastmile_qr_scan", "android": "https://dc.lft.to/lastmile_qr_scan"}, "lon": -77.03792216666666, "type": "electric_scooter", "fusion_lat": 0.0, "lat": 38.93596316666667, "name": "ab9823ece4f13e49f2a11d23a2a8f2db", "fusion_lon": 0.0, "bike_id": "ab9823ece4f13e49f2a11d23a2a8f2db", "is_disabled": 0, "is_reserved": 0}, {"rental_uris": {"ios": "https://dc.lft.to/lastmile_qr_scan", "android": "https://dc.lft.to/lastmile_qr_scan"}, "lon": -77.02220983333333, "type": "electric_bike", "fusion_lat": 0.0, "lat": 38.89605616666667, "name": "6f39214fa5c0a8821a4a2bd155382f3e", "fusion_lon": 0.0, "bike_id": "6f39214fa5c0a8821a4a2bd155382f3e", "is_disabled": 0, "is_reserved": 0}, {"rental_uris": {"ios": "https://dc.lft.to/lastmile_qr_scan", "android": "https://dc.lft.to/lastmile_qr_scan"}, "lon": -77.0246595, "type": "electric_scooter", "fusion_lat": 0.0, "lat": 38.899872333333334, "name": "8dd825d13ae57b642bacc72327fb344a", "fusion_lon": 0.0, "bike_id": "8dd825d13ae57b642bacc72327fb344a", "is_disabled": 0, "is_reserved": 0}, {"rental_uris": {"ios": "https://dc.lft.to/lastmile_qr_scan", "android": "https://dc.lft.to/lastmile_qr_scan"}, "lon": -77.00588933333333, "type": "electric_scooter", "fusion_lat": 0.0, "lat": 38.872145, "name": "b42827e54a92292d66a4e5c07830e86a", "fusion_lon": 0.0, "bike_id": "b42827e54a92292d66a4e5c07830e86a", "is_disabled": 0, "is_reserved": 0}, {"rental_uris": {"ios": "https://dc.lft.to/lastmile_qr_scan", "android": "https://dc.lft.to/lastmile_qr_scan"}, "lon": -77.03572183333333, "type": "electric_scooter", "fusion_lat": 0.0, "lat": 38.923213, "name": "cd7175ddd4d285014ba26800df9abd6a", "fusion_lon": 0.0, "bike_id": "cd7175ddd4d285014ba26800df9abd6a", "is_disabled": 0, "is_reserved": 0}, {"rental_uris": {"ios": "https://dc.lft.to/lastmile_qr_scan", "android": "https://dc.lft.to/lastmile_qr_scan"}, "lon": -76.9489095, "type": "electric_scooter", "fusion_lat": 0.0, "lat": 38.89529116666667, "name": "81b97e44958041bb5d5ddfec8e4a4af3", "fusion_lon": 0.0, "bike_id": "81b97e44958041bb5d5ddfec8e4a4af3", "is_disabled": 0, "is_reserved": 0}, {"rental_uris": {"ios": "https://dc.lft.to/lastmile_qr_scan", "android": "https://dc.lft.to/lastmile_qr_scan"}, "lon": -77.02420216666667, "type": "electric_scooter", "fusion_lat": 0.0, "lat": 38.918218, "name": "da7333bb49a994c8ec805ab555c1d383", "fusion_lon": 0.0, "bike_id": "da7333bb49a994c8ec805ab555c1d383", "is_disabled": 0, "is_reserved": 0}, {"rental_uris": {"ios": "https://dc.lft.to/lastmile_qr_scan", "android": "https://dc.lft.to/lastmile_qr_scan"}, "lon": -77.07472333333334, "type": "electric_bike", "fusion_lat": 0.0, "lat": 38.92060933333333, "name": "0883183d8f47d4e2ba4f4d53c572fab5", "fusion_lon": 0.0, "bike_id": "0883183d8f47d4e2ba4f4d53c572fab5", "is_disabled": 0, "is_reserved": 0}, {"rental_uris": {"ios": "https://dc.lft.to/lastmile_qr_scan", "android": "https://dc.lft.to/lastmile_qr_scan"}, "lon": -76.91662, "type": "electric_bike", "fusion_lat": 0.0, "lat": 38.86860266666667, "name": "d6f6f2e1c68032bde76769dd05cd74e3", "fusion_lon": 0.0, "bike_id": "d6f6f2e1c68032bde76769dd05cd74e3", "is_disabled": 0, "is_reserved": 0}, {"rental_uris": {"ios": "https://dc.lft.to/lastmile_qr_scan", "android": "https://dc.lft.to/lastmile_qr_scan"}, "lon": -77.05024083333333, "type": "electric_scooter", "fusion_lat": 0.0, "lat": 38.903777, "name": "b7c21ee9ad94cde37228ba5c20ec92a9", "fusion_lon": 0.0, "bike_id": "b7c21ee9ad94cde37228ba5c20ec92a9", "is_disabled": 0, "is_reserved": 0}, {"rental_uris": {"ios": "https://dc.lft.to/lastmile_qr_scan", "android": "https://dc.lft.to/lastmile_qr_scan"}, "lon": -77.03467883333333, "type": "electric_scooter", "fusion_lat": 0.0, "lat": 38.9055535, "name": "1cda08b8324bad08771ada7f283d6174", "fusion_lon": 0.0, "bike_id": "1cda08b8324bad08771ada7f283d6174", "is_disabled": 0, "is_reserved": 0}, {"rental_uris": {"ios": "https://dc.lft.to/lastmile_qr_scan", "android": "https://dc.lft.to/lastmile_qr_scan"}, "lon": -77.0956, "type": "electric_bike", "fusion_lat": 0.0, "lat": 38.917064333333336, "name": "7f734343c3ec3ab5a292f76926631bb8", "fusion_lon": 0.0, "bike_id": "7f734343c3ec3ab5a292f76926631bb8", "is_disabled": 0, "is_reserved": 0}, {"rental_uris": {"ios": "https://dc.lft.to/lastmile_qr_scan", "android": "https://dc.lft.to/lastmile_qr_scan"}, "lon": -77.12735733333334, "type": "electric_bike", "fusion_lat": 0.0, "lat": 38.89559233333333, "name": "e222b19a769a49c680b904f4268f2092", "fusion_lon": 0.0, "bike_id": "e222b19a769a49c680b904f4268f2092", "is_disabled": 0, "is_reserved": 0}, {"rental_uris": {"ios": "https://dc.lft.to/lastmile_qr_scan", "android": "https://dc.lft.to/lastmile_qr_scan"}, "lon": -77.04487466666667, "type": "electric_scooter", "fusion_lat": 0.0, "lat": 38.91916333333333, "name": "2f6685f7f1f9179883b843d6b75cec00", "fusion_lon": 0.0, "bike_id": "2f6685f7f1f9179883b843d6b75cec00", "is_disabled": 0, "is_reserved": 0}, {"rental_uris": {"ios": "https://dc.lft.to/lastmile_qr_scan", "android": "https://dc.lft.to/lastmile_qr_scan"}, "lon": -77.00210416666667, "type": "electric_scooter", "fusion_lat": 0.0, "lat": 38.90217616666666, "name": "cba7686fb351bb81d5cf4accad880e80", "fusion_lon": 0.0, "bike_id": "cba7686fb351bb81d5cf4accad880e80", "is_disabled": 0, "is_reserved": 0}, {"rental_uris": {"ios": "https://dc.lft.to/lastmile_qr_scan", "android": "https://dc.lft.to/lastmile_qr_scan"}, "lon": -77.04459016666667, "type": "electric_scooter", "fusion_lat": 0.0, "lat": 38.905719, "name": "34bf67ad81f7c60f66f25906c2944dad", "fusion_lon": 0.0, "bike_id": "34bf67ad81f7c60f66f25906c2944dad", "is_disabled": 0, "is_reserved": 0}, {"rental_uris": {"ios": "https://dc.lft.to/lastmile_qr_scan", "android": "https://dc.lft.to/lastmile_qr_scan"}, "lon": -77.0319185, "type": "electric_scooter", "fusion_lat": 0.0, "lat": 38.913450833333336, "name": "4ca62f62a5ab478037f72fe0d73dcfc9", "fusion_lon": 0.0, "bike_id": "4ca62f62a5ab478037f72fe0d73dcfc9", "is_disabled": 0, "is_reserved": 0}, {"rental_uris": {"ios": "https://dc.lft.to/lastmile_qr_scan", "android": "https://dc.lft.to/lastmile_qr_scan"}, "lon": -77.03191616666666, "type": "electric_scooter", "fusion_lat": 0.0, "lat": 38.907860166666666, "name": "2e3faa27203ad171448530f99dc09d68", "fusion_lon": 0.0, "bike_id": "2e3faa27203ad171448530f99dc09d68", "is_disabled": 0, "is_reserved": 0}, {"rental_uris": {"ios": "https://dc.lft.to/lastmile_qr_scan", "android": "https://dc.lft.to/lastmile_qr_scan"}, "lon": -76.98982733333334, "type": "electric_scooter", "fusion_lat": 0.0, "lat": 38.89043183333333, "name": "b3175e670136bdb51267bf03be95c270", "fusion_lon": 0.0, "bike_id": "b3175e670136bdb51267bf03be95c270", "is_disabled": 0, "is_reserved": 0}, {"rental_uris": {"ios": "https://dc.lft.to/lastmile_qr_scan", "android": "https://dc.lft.to/lastmile_qr_scan"}, "lon": -77.05122466666667, "type": "electric_scooter", "fusion_lat": 0.0, "lat": 38.9236045, "name": "4fb9cf81b24fea4c5722567b865e483a", "fusion_lon": 0.0, "bike_id": "4fb9cf81b24fea4c5722567b865e483a", "is_disabled": 0, "is_reserved": 0}, {"rental_uris": {"ios": "https://dc.lft.to/lastmile_qr_scan", "android": "https://dc.lft.to/lastmile_qr_scan"}, "lon": -77.00137483333333, "type": "electric_scooter", "fusion_lat": 0.0, "lat": 38.9041305, "name": "3a5c4add1fafe1af1a2312cd1cc1b776", "fusion_lon": 0.0, "bike_id": "3a5c4add1fafe1af1a2312cd1cc1b776", "is_disabled": 0, "is_reserved": 0}, {"rental_uris": {"ios": "https://dc.lft.to/lastmile_qr_scan", "android": "https://dc.lft.to/lastmile_qr_scan"}, "lon": -76.96493616666666, "type": "electric_bike", "fusion_lat": 0.0, "lat": 38.87549533333333, "name": "9e71e8048a1d56ce8352f273a14212ab", "fusion_lon": 0.0, "bike_id": "9e71e8048a1d56ce8352f273a14212ab", "is_disabled": 0, "is_reserved": 0}, {"rental_uris": {"ios": "https://dc.lft.to/lastmile_qr_scan", "android": "https://dc.lft.to/lastmile_qr_scan"}, "lon": -77.01966433333334, "type": "electric_scooter", "fusion_lat": 0.0, "lat": 38.8784025, "name": "1331ddcb41bb4c1aa91fbe3a57eb4437", "fusion_lon": 0.0, "bike_id": "1331ddcb41bb4c1aa91fbe3a57eb4437", "is_disabled": 0, "is_reserved": 0}, {"rental_uris": {"ios": "https://dc.lft.to/lastmile_qr_scan", "android": "https://dc.lft.to/lastmile_qr_scan"}, "lon": -77.0059705, "type": "electric_scooter", "fusion_lat": 0.0, "lat": 38.905549, "name": "42b9baf5021f317555474ac49d5f6167", "fusion_lon": 0.0, "bike_id": "42b9baf5021f317555474ac49d5f6167", "is_disabled": 0, "is_reserved": 0}, {"rental_uris": {"ios": "https://dc.lft.to/lastmile_qr_scan", "android": "https://dc.lft.to/lastmile_qr_scan"}, "lon": -77.03438066666666, "type": "electric_scooter", "fusion_lat": 0.0, "lat": 38.91834816666667, "name": "523ca2434b20afbd57f1f64ec83d0965", "fusion_lon": 0.0, "bike_id": "523ca2434b20afbd57f1f64ec83d0965", "is_disabled": 0, "is_reserved": 0}, {"rental_uris": {"ios": "https://dc.lft.to/lastmile_qr_scan", "android": "https://dc.lft.to/lastmile_qr_scan"}, "lon": -77.02460483333333, "type": "electric_scooter", "fusion_lat": 0.0, "lat": 38.8972235, "name": "b3147ac9fde767998996205981a81b14", "fusion_lon": 0.0, "bike_id": "b3147ac9fde767998996205981a81b14", "is_disabled": 0, "is_reserved": 0}, {"rental_uris": {"ios": "https://dc.lft.to/lastmile_qr_scan", "android": "https://dc.lft.to/lastmile_qr_scan"}, "lon": -77.07160916666666, "type": "electric_scooter", "fusion_lat": 0.0, "lat": 38.90740916666667, "name": "dd2db5858df56dd691666887e69708f5", "fusion_lon": 0.0, "bike_id": "dd2db5858df56dd691666887e69708f5", "is_disabled": 0, "is_reserved": 0}, {"rental_uris": {"ios": "https://dc.lft.to/lastmile_qr_scan", "android": "https://dc.lft.to/lastmile_qr_scan"}, "lon": -76.99870983333334, "type": "electric_scooter", "fusion_lat": 0.0, "lat": 38.90016416666667, "name": "7a99441d7ecd5bb29aad9d99976a1de5", "fusion_lon": 0.0, "bike_id": "7a99441d7ecd5bb29aad9d99976a1de5", "is_disabled": 0, "is_reserved": 0}, {"rental_uris": {"ios": "https://dc.lft.to/lastmile_qr_scan", "android": "https://dc.lft.to/lastmile_qr_scan"}, "lon": -77.00876066666666, "type": "electric_scooter", "fusion_lat": 0.0, "lat": 38.9117745, "name": "e52a98afba7a8a4be439d4ad3a5c5000", "fusion_lon": 0.0, "bike_id": "e52a98afba7a8a4be439d4ad3a5c5000", "is_disabled": 0, "is_reserved": 0}, {"rental_uris": {"ios": "https://dc.lft.to/lastmile_qr_scan", "android": "https://dc.lft.to/lastmile_qr_scan"}, "lon": -77.03148666666667, "type": "electric_scooter", "fusion_lat": 0.0, "lat": 38.897196666666666, "name": "52db8943965db6974793a79a18eee115", "fusion_lon": 0.0, "bike_id": "52db8943965db6974793a79a18eee115", "is_disabled": 0, "is_reserved": 0}, {"rental_uris": {"ios": "https://dc.lft.to/lastmile_qr_scan", "android": "https://dc.lft.to/lastmile_qr_scan"}, "lon": -77.044879, "type": "electric_scooter", "fusion_lat": 0.0, "lat": 38.9056765, "name": "f3ad5d18c0d2e8446156ce2313f67b7e", "fusion_lon": 0.0, "bike_id": "f3ad5d18c0d2e8446156ce2313f67b7e", "is_disabled": 0, "is_reserved": 0}, {"rental_uris": {"ios": "https://dc.lft.to/lastmile_qr_scan", "android": "https://dc.lft.to/lastmile_qr_scan"}, "lon": -76.95207516666666, "type": "electric_bike", "fusion_lat": 0.0, "lat": 38.93673966666667, "name": "8d7496c4f2c572bca36ed863ce749bc3", "fusion_lon": 0.0, "bike_id": "8d7496c4f2c572bca36ed863ce749bc3", "is_disabled": 0, "is_reserved": 0}, {"rental_uris": {"ios": "https://dc.lft.to/lastmile_qr_scan", "android": "https://dc.lft.to/lastmile_qr_scan"}, "lon": -77.03851133333333, "type": "electric_scooter", "fusion_lat": 0.0, "lat": 38.91336883333334, "name": "98d9c3c578000a9b2992df664c9d3a86", "fusion_lon": 0.0, "bike_id": "98d9c3c578000a9b2992df664c9d3a86", "is_disabled": 0, "is_reserved": 0}, {"rental_uris": {"ios": "https://dc.lft.to/lastmile_qr_scan", "android": "https://dc.lft.to/lastmile_qr_scan"}, "lon": -77.03852783333333, "type": "electric_scooter", "fusion_lat": 0.0, "lat": 38.915370333333335, "name": "5d227c1281e14cfc0ead82393dd13419", "fusion_lon": 0.0, "bike_id": "5d227c1281e14cfc0ead82393dd13419", "is_disabled": 0, "is_reserved": 0}, {"rental_uris": {"ios": "https://dc.lft.to/lastmile_qr_scan", "android": "https://dc.lft.to/lastmile_qr_scan"}, "lon": -77.03563483333333, "type": "electric_bike", "fusion_lat": 0.0, "lat": 38.96466133333333, "name": "db6274beb27d96ab788237ae005fa1da", "fusion_lon": 0.0, "bike_id": "db6274beb27d96ab788237ae005fa1da", "is_disabled": 0, "is_reserved": 0}, {"rental_uris": {"ios": "https://dc.lft.to/lastmile_qr_scan", "android": "https://dc.lft.to/lastmile_qr_scan"}, "lon": -77.04372566666666, "type": "electric_scooter", "fusion_lat": 0.0, "lat": 38.91781183333333, "name": "1477ad3cb8e5114de385799ecac86fad", "fusion_lon": 0.0, "bike_id": "1477ad3cb8e5114de385799ecac86fad", "is_disabled": 0, "is_reserved": 0}, {"rental_uris": {"ios": "https://dc.lft.to/lastmile_qr_scan", "android": "https://dc.lft.to/lastmile_qr_scan"}, "lon": -77.02767933333334, "type": "electric_bike", "fusion_lat": 0.0, "lat": 38.90484416666666, "name": "c35469679fc2a40c8039480d7b152f1c", "fusion_lon": 0.0, "bike_id": "c35469679fc2a40c8039480d7b152f1c", "is_disabled": 0, "is_reserved": 0}, {"rental_uris": {"ios": "https://dc.lft.to/lastmile_qr_scan", "android": "https://dc.lft.to/lastmile_qr_scan"}, "lon": -77.02551133333333, "type": "electric_scooter", "fusion_lat": 0.0, "lat": 38.884347, "name": "ade3afae354428e214929ea3d2476d80", "fusion_lon": 0.0, "bike_id": "ade3afae354428e214929ea3d2476d80", "is_disabled": 0, "is_reserved": 0}, {"rental_uris": {"ios": "https://dc.lft.to/lastmile_qr_scan", "android": "https://dc.lft.to/lastmile_qr_scan"}, "lon": -77.04340766666667, "type": "electric_scooter", "fusion_lat": 0.0, "lat": 38.89647216666667, "name": "3ce1da1e43e5954877abed807e3307a6", "fusion_lon": 0.0, "bike_id": "3ce1da1e43e5954877abed807e3307a6", "is_disabled": 0, "is_reserved": 0}, {"rental_uris": {"ios": "https://dc.lft.to/lastmile_qr_scan", "android": "https://dc.lft.to/lastmile_qr_scan"}, "lon": -76.9851205, "type": "electric_scooter", "fusion_lat": 0.0, "lat": 38.906045, "name": "0f637167a80d8669f24b36c8f3a405fd", "fusion_lon": 0.0, "bike_id": "0f637167a80d8669f24b36c8f3a405fd", "is_disabled": 0, "is_reserved": 0}, {"rental_uris": {"ios": "https://dc.lft.to/lastmile_qr_scan", "android": "https://dc.lft.to/lastmile_qr_scan"}, "lon": -76.99973133333333, "type": "electric_scooter", "fusion_lat": 0.0, "lat": 38.909388666666665, "name": "e836c988c53b46c7ca4cbe578b9ab7be", "fusion_lon": 0.0, "bike_id": "e836c988c53b46c7ca4cbe578b9ab7be", "is_disabled": 0, "is_reserved": 0}, {"rental_uris": {"ios": "https://dc.lft.to/lastmile_qr_scan", "android": "https://dc.lft.to/lastmile_qr_scan"}, "lon": -77.033523, "type": "electric_scooter", "fusion_lat": 0.0, "lat": 38.89821583333333, "name": "4b995a2f3b5e5a95006e0838a4b55a31", "fusion_lon": 0.0, "bike_id": "4b995a2f3b5e5a95006e0838a4b55a31", "is_disabled": 0, "is_reserved": 0}, {"rental_uris": {"ios": "https://dc.lft.to/lastmile_qr_scan", "android": "https://dc.lft.to/lastmile_qr_scan"}, "lon": -77.04166733333334, "type": "electric_scooter", "fusion_lat": 0.0, "lat": 38.9194285, "name": "e8768d8d106c3e57fb58c5405d0d21cd", "fusion_lon": 0.0, "bike_id": "e8768d8d106c3e57fb58c5405d0d21cd", "is_disabled": 0, "is_reserved": 0}, {"rental_uris": {"ios": "https://dc.lft.to/lastmile_qr_scan", "android": "https://dc.lft.to/lastmile_qr_scan"}, "lon": -77.035257, "type": "electric_scooter", "fusion_lat": 0.0, "lat": 38.92220116666667, "name": "2d788a3ba07b8600fe7fb0a30aee6c94", "fusion_lon": 0.0, "bike_id": "2d788a3ba07b8600fe7fb0a30aee6c94", "is_disabled": 0, "is_reserved": 0}, {"rental_uris": {"ios": "https://dc.lft.to/lastmile_qr_scan", "android": "https://dc.lft.to/lastmile_qr_scan"}, "lon": -77.00208416666666, "type": "electric_scooter", "fusion_lat": 0.0, "lat": 38.900362, "name": "17b73bcf1dc0a68b897e5635fb02f1a6", "fusion_lon": 0.0, "bike_id": "17b73bcf1dc0a68b897e5635fb02f1a6", "is_disabled": 0, "is_reserved": 0}, {"rental_uris": {"ios": "https://dc.lft.to/lastmile_qr_scan", "android": "https://dc.lft.to/lastmile_qr_scan"}, "lon": -76.99815283333334, "type": "electric_scooter", "fusion_lat": 0.0, "lat": 38.88879, "name": "bbebdfc52e645c7b428f91e080dc58af", "fusion_lon": 0.0, "bike_id": "bbebdfc52e645c7b428f91e080dc58af", "is_disabled": 0, "is_reserved": 0}, {"rental_uris": {"ios": "https://dc.lft.to/lastmile_qr_scan", "android": "https://dc.lft.to/lastmile_qr_scan"}, "lon": -77.0162805, "type": "electric_scooter", "fusion_lat": 0.0, "lat": 38.907115833333336, "name": "d729619f8461283365f233446ce83bfa", "fusion_lon": 0.0, "bike_id": "d729619f8461283365f233446ce83bfa", "is_disabled": 0, "is_reserved": 0}, {"rental_uris": {"ios": "https://dc.lft.to/lastmile_qr_scan", "android": "https://dc.lft.to/lastmile_qr_scan"}, "lon": -77.018905, "type": "electric_scooter", "fusion_lat": 0.0, "lat": 38.911894833333335, "name": "c670ca031579d414dd8e6675e85423cf", "fusion_lon": 0.0, "bike_id": "c670ca031579d414dd8e6675e85423cf", "is_disabled": 0, "is_reserved": 0}, {"rental_uris": {"ios": "https://dc.lft.to/lastmile_qr_scan", "android": "https://dc.lft.to/lastmile_qr_scan"}, "lon": -77.00601716666667, "type": "electric_scooter", "fusion_lat": 0.0, "lat": 38.8771375, "name": "fc16ac001dffb7295bd1f5031cd7f7f9", "fusion_lon": 0.0, "bike_id": "fc16ac001dffb7295bd1f5031cd7f7f9", "is_disabled": 0, "is_reserved": 0}, {"rental_uris": {"ios": "https://dc.lft.to/lastmile_qr_scan", "android": "https://dc.lft.to/lastmile_qr_scan"}, "lon": -77.060189, "type": "electric_bike", "fusion_lat": 0.0, "lat": 38.904131666666665, "name": "e9ed6b9426b43ace6edad8a22c853699", "fusion_lon": 0.0, "bike_id": "e9ed6b9426b43ace6edad8a22c853699", "is_disabled": 0, "is_reserved": 0}, {"rental_uris": {"ios": "https://dc.lft.to/lastmile_qr_scan", "android": "https://dc.lft.to/lastmile_qr_scan"}, "lon": -77.0327, "type": "electric_scooter", "fusion_lat": 0.0, "lat": 38.904083, "name": "8d948ca822475653a02411173d4b76fc", "fusion_lon": 0.0, "bike_id": "8d948ca822475653a02411173d4b76fc", "is_disabled": 0, "is_reserved": 0}, {"rental_uris": {"ios": "https://dc.lft.to/lastmile_qr_scan", "android": "https://dc.lft.to/lastmile_qr_scan"}, "lon": -77.0488465, "type": "electric_scooter", "fusion_lat": 0.0, "lat": 38.90602416666667, "name": "74027a224dade2da87cddbc93412d351", "fusion_lon": 0.0, "bike_id": "74027a224dade2da87cddbc93412d351", "is_disabled": 0, "is_reserved": 0}, {"rental_uris": {"ios": "https://dc.lft.to/lastmile_qr_scan", "android": "https://dc.lft.to/lastmile_qr_scan"}, "lon": -77.0447885, "type": "electric_scooter", "fusion_lat": 0.0, "lat": 38.911086833333336, "name": "9d9899c10b14273d8b7f734c07c52ea1", "fusion_lon": 0.0, "bike_id": "9d9899c10b14273d8b7f734c07c52ea1", "is_disabled": 0, "is_reserved": 0}, {"rental_uris": {"ios": "https://dc.lft.to/lastmile_qr_scan", "android": "https://dc.lft.to/lastmile_qr_scan"}, "lon": -77.04675833333333, "type": "electric_scooter", "fusion_lat": 0.0, "lat": 38.90033566666666, "name": "437b07d65925441d8e0967bf22bcaccb", "fusion_lon": 0.0, "bike_id": "437b07d65925441d8e0967bf22bcaccb", "is_disabled": 0, "is_reserved": 0}, {"rental_uris": {"ios": "https://dc.lft.to/lastmile_qr_scan", "android": "https://dc.lft.to/lastmile_qr_scan"}, "lon": -77.052992, "type": "electric_scooter", "fusion_lat": 0.0, "lat": 38.927910833333335, "name": "fc5db30cdb14c9a2206e7e14453ebe04", "fusion_lon": 0.0, "bike_id": "fc5db30cdb14c9a2206e7e14453ebe04", "is_disabled": 0, "is_reserved": 0}, {"rental_uris": {"ios": "https://dc.lft.to/lastmile_qr_scan", "android": "https://dc.lft.to/lastmile_qr_scan"}, "lon": -77.0211455, "type": "electric_scooter", "fusion_lat": 0.0, "lat": 38.894529666666664, "name": "d20e00585a5fe5955544ad6fb2973e22", "fusion_lon": 0.0, "bike_id": "d20e00585a5fe5955544ad6fb2973e22", "is_disabled": 0, "is_reserved": 0}, {"rental_uris": {"ios": "https://dc.lft.to/lastmile_qr_scan", "android": "https://dc.lft.to/lastmile_qr_scan"}, "lon": -77.12901566666666, "type": "electric_bike", "fusion_lat": 0.0, "lat": 38.863754, "name": "c37a3d9b62f1deb57b257f92d7d9945e", "fusion_lon": 0.0, "bike_id": "c37a3d9b62f1deb57b257f92d7d9945e", "is_disabled": 0, "is_reserved": 0}, {"rental_uris": {"ios": "https://dc.lft.to/lastmile_qr_scan", "android": "https://dc.lft.to/lastmile_qr_scan"}, "lon": -77.020868, "type": "electric_scooter", "fusion_lat": 0.0, "lat": 38.881873166666665, "name": "4b24c33c91bf80a5341e5c3d6b8f3526", "fusion_lon": 0.0, "bike_id": "4b24c33c91bf80a5341e5c3d6b8f3526", "is_disabled": 0, "is_reserved": 0}, {"rental_uris": {"ios": "https://dc.lft.to/lastmile_qr_scan", "android": "https://dc.lft.to/lastmile_qr_scan"}, "lon": -77.02837266666667, "type": "electric_scooter", "fusion_lat": 0.0, "lat": 38.89525366666667, "name": "48adf43b20f4f99456e85ba864df9ca0", "fusion_lon": 0.0, "bike_id": "48adf43b20f4f99456e85ba864df9ca0", "is_disabled": 0, "is_reserved": 0}, {"rental_uris": {"ios": "https://dc.lft.to/lastmile_qr_scan", "android": "https://dc.lft.to/lastmile_qr_scan"}, "lon": -77.02703116666666, "type": "electric_scooter", "fusion_lat": 0.0, "lat": 38.906394, "name": "1dba1dbf0cf856162703a6975cfbfc21", "fusion_lon": 0.0, "bike_id": "1dba1dbf0cf856162703a6975cfbfc21", "is_disabled": 0, "is_reserved": 0}, {"rental_uris": {"ios": "https://dc.lft.to/lastmile_qr_scan", "android": "https://dc.lft.to/lastmile_qr_scan"}, "lon": -77.02396216666666, "type": "electric_scooter", "fusion_lat": 0.0, "lat": 38.9159095, "name": "3974c3c4f66391f60bd5fc45f9b3e5c7", "fusion_lon": 0.0, "bike_id": "3974c3c4f66391f60bd5fc45f9b3e5c7", "is_disabled": 0, "is_reserved": 0}, {"rental_uris": {"ios": "https://dc.lft.to/lastmile_qr_scan", "android": "https://dc.lft.to/lastmile_qr_scan"}, "lon": -77.023852, "type": "electric_scooter", "fusion_lat": 0.0, "lat": 38.89232633333334, "name": "090458e8bc6b6eb772820ce4605b39cf", "fusion_lon": 0.0, "bike_id": "090458e8bc6b6eb772820ce4605b39cf", "is_disabled": 0, "is_reserved": 0}, {"rental_uris": {"ios": "https://dc.lft.to/lastmile_qr_scan", "android": "https://dc.lft.to/lastmile_qr_scan"}, "lon": -77.05361783333333, "type": "electric_scooter", "fusion_lat": 0.0, "lat": 38.9279165, "name": "6d5a6543d786cbdfcf068f1c992c75fc", "fusion_lon": 0.0, "bike_id": "6d5a6543d786cbdfcf068f1c992c75fc", "is_disabled": 0, "is_reserved": 0}, {"rental_uris": {"ios": "https://dc.lft.to/lastmile_qr_scan", "android": "https://dc.lft.to/lastmile_qr_scan"}, "lon": -77.05219633333333, "type": "electric_scooter", "fusion_lat": 0.0, "lat": 38.925016166666666, "name": "7e4e9268311f499f3dee90954103d95d", "fusion_lon": 0.0, "bike_id": "7e4e9268311f499f3dee90954103d95d", "is_disabled": 0, "is_reserved": 0}, {"rental_uris": {"ios": "https://dc.lft.to/lastmile_qr_scan", "android": "https://dc.lft.to/lastmile_qr_scan"}, "lon": -77.02700166666666, "type": "electric_scooter", "fusion_lat": 0.0, "lat": 38.908704166666666, "name": "55bd713f8e6269b4b60e02e6cd58560b", "fusion_lon": 0.0, "bike_id": "55bd713f8e6269b4b60e02e6cd58560b", "is_disabled": 0, "is_reserved": 0}, {"rental_uris": {"ios": "https://dc.lft.to/lastmile_qr_scan", "android": "https://dc.lft.to/lastmile_qr_scan"}, "lon": -76.99461816666667, "type": "electric_scooter", "fusion_lat": 0.0, "lat": 38.851605, "name": "93214b61f83554bb496a290906be04dd", "fusion_lon": 0.0, "bike_id": "93214b61f83554bb496a290906be04dd", "is_disabled": 0, "is_reserved": 0}, {"rental_uris": {"ios": "https://dc.lft.to/lastmile_qr_scan", "android": "https://dc.lft.to/lastmile_qr_scan"}, "lon": -76.9288325, "type": "electric_scooter", "fusion_lat": 0.0, "lat": 38.88440333333333, "name": "190d936c1dd3ead14f13739dcf381772", "fusion_lon": 0.0, "bike_id": "190d936c1dd3ead14f13739dcf381772", "is_disabled": 0, "is_reserved": 0}, {"rental_uris": {"ios": "https://dc.lft.to/lastmile_qr_scan", "android": "https://dc.lft.to/lastmile_qr_scan"}, "lon": -77.03577816666666, "type": "electric_scooter", "fusion_lat": 0.0, "lat": 38.939711833333334, "name": "e3b2471979e79ea80200d213d94ac82e", "fusion_lon": 0.0, "bike_id": "e3b2471979e79ea80200d213d94ac82e", "is_disabled": 0, "is_reserved": 0}, {"rental_uris": {"ios": "https://dc.lft.to/lastmile_qr_scan", "android": "https://dc.lft.to/lastmile_qr_scan"}, "lon": -76.93162783333334, "type": "electric_scooter", "fusion_lat": 0.0, "lat": 38.898791833333334, "name": "3620c5a273add2155a733df7eecc052e", "fusion_lon": 0.0, "bike_id": "3620c5a273add2155a733df7eecc052e", "is_disabled": 0, "is_reserved": 0}, {"rental_uris": {"ios": "https://dc.lft.to/lastmile_qr_scan", "android": "https://dc.lft.to/lastmile_qr_scan"}, "lon": -77.04832633333334, "type": "electric_scooter", "fusion_lat": 0.0, "lat": 38.90961516666667, "name": "2b3e856b9276e5b43b26c62c847f67e7", "fusion_lon": 0.0, "bike_id": "2b3e856b9276e5b43b26c62c847f67e7", "is_disabled": 0, "is_reserved": 0}, {"rental_uris": {"ios": "https://dc.lft.to/lastmile_qr_scan", "android": "https://dc.lft.to/lastmile_qr_scan"}, "lon": -76.98749533333333, "type": "electric_scooter", "fusion_lat": 0.0, "lat": 38.910168, "name": "aec40f111f106270103508b06b4cbbeb", "fusion_lon": 0.0, "bike_id": "aec40f111f106270103508b06b4cbbeb", "is_disabled": 0, "is_reserved": 0}, {"rental_uris": {"ios": "https://dc.lft.to/lastmile_qr_scan", "android": "https://dc.lft.to/lastmile_qr_scan"}, "lon": -76.94843, "type": "electric_scooter", "fusion_lat": 0.0, "lat": 38.88407, "name": "120a6a0ca31d59219a95562523f0ad84", "fusion_lon": 0.0, "bike_id": "120a6a0ca31d59219a95562523f0ad84", "is_disabled": 0, "is_reserved": 0}, {"rental_uris": {"ios": "https://dc.lft.to/lastmile_qr_scan", "android": "https://dc.lft.to/lastmile_qr_scan"}, "lon": -77.03658116666666, "type": "electric_scooter", "fusion_lat": 0.0, "lat": 38.902776333333335, "name": "2e7757cc2ce59517d724845534d6bed0", "fusion_lon": 0.0, "bike_id": "2e7757cc2ce59517d724845534d6bed0", "is_disabled": 0, "is_reserved": 0}, {"rental_uris": {"ios": "https://dc.lft.to/lastmile_qr_scan", "android": "https://dc.lft.to/lastmile_qr_scan"}, "lon": -76.9567965, "type": "electric_bike", "fusion_lat": 0.0, "lat": 38.947287833333334, "name": "5f7a67f8a51f8449bbf0acb1a9d1be83", "fusion_lon": 0.0, "bike_id": "5f7a67f8a51f8449bbf0acb1a9d1be83", "is_disabled": 0, "is_reserved": 0}, {"rental_uris": {"ios": "https://dc.lft.to/lastmile_qr_scan", "android": "https://dc.lft.to/lastmile_qr_scan"}, "lon": -77.03863216666667, "type": "electric_scooter", "fusion_lat": 0.0, "lat": 38.915738, "name": "397cc4dea3448a5ec563d53fefb691fb", "fusion_lon": 0.0, "bike_id": "397cc4dea3448a5ec563d53fefb691fb", "is_disabled": 0, "is_reserved": 0}, {"rental_uris": {"ios": "https://dc.lft.to/lastmile_qr_scan", "android": "https://dc.lft.to/lastmile_qr_scan"}, "lon": -77.03852233333333, "type": "electric_scooter", "fusion_lat": 0.0, "lat": 38.90751133333333, "name": "24931500b5a368f53c98ff6bf9969a8a", "fusion_lon": 0.0, "bike_id": "24931500b5a368f53c98ff6bf9969a8a", "is_disabled": 0, "is_reserved": 0}, {"rental_uris": {"ios": "https://dc.lft.to/lastmile_qr_scan", "android": "https://dc.lft.to/lastmile_qr_scan"}, "lon": -77.02022033333333, "type": "electric_bike", "fusion_lat": 0.0, "lat": 38.93722666666667, "name": "055b8b577df9dc5ad63a9377231c4edb", "fusion_lon": 0.0, "bike_id": "055b8b577df9dc5ad63a9377231c4edb", "is_disabled": 0, "is_reserved": 0}, {"rental_uris": {"ios": "https://dc.lft.to/lastmile_qr_scan", "android": "https://dc.lft.to/lastmile_qr_scan"}, "lon": -77.0296665, "type": "electric_scooter", "fusion_lat": 0.0, "lat": 38.9171375, "name": "d686dfc71c644d7be5d1670c8ed9410b", "fusion_lon": 0.0, "bike_id": "d686dfc71c644d7be5d1670c8ed9410b", "is_disabled": 0, "is_reserved": 0}, {"rental_uris": {"ios": "https://dc.lft.to/lastmile_qr_scan", "android": "https://dc.lft.to/lastmile_qr_scan"}, "lon": -77.08051016666667, "type": "electric_bike", "fusion_lat": 0.0, "lat": 38.848453666666664, "name": "19e6c547f1d70b105c71ed6ae6411f45", "fusion_lon": 0.0, "bike_id": "19e6c547f1d70b105c71ed6ae6411f45", "is_disabled": 0, "is_reserved": 0}, {"rental_uris": {"ios": "https://dc.lft.to/lastmile_qr_scan", "android": "https://dc.lft.to/lastmile_qr_scan"}, "lon": -76.9741695, "type": "electric_scooter", "fusion_lat": 0.0, "lat": 38.9023805, "name": "a4333dd05778037d01080953d35d9736", "fusion_lon": 0.0, "bike_id": "a4333dd05778037d01080953d35d9736", "is_disabled": 0, "is_reserved": 0}, {"rental_uris": {"ios": "https://dc.lft.to/lastmile_qr_scan", "android": "https://dc.lft.to/lastmile_qr_scan"}, "lon": -77.03413316666666, "type": "electric_scooter", "fusion_lat": 0.0, "lat": 38.924276166666665, "name": "8bf4617b72a11262db7bf4a3bd74a9cb", "fusion_lon": 0.0, "bike_id": "8bf4617b72a11262db7bf4a3bd74a9cb", "is_disabled": 0, "is_reserved": 0}, {"rental_uris": {"ios": "https://dc.lft.to/lastmile_qr_scan", "android": "https://dc.lft.to/lastmile_qr_scan"}, "lon": -76.98610116666667, "type": "electric_scooter", "fusion_lat": 0.0, "lat": 38.878354333333334, "name": "21f7dcca9179711b5acb19399c72d005", "fusion_lon": 0.0, "bike_id": "21f7dcca9179711b5acb19399c72d005", "is_disabled": 0, "is_reserved": 0}, {"rental_uris": {"ios": "https://dc.lft.to/lastmile_qr_scan", "android": "https://dc.lft.to/lastmile_qr_scan"}, "lon": -77.03173433333333, "type": "electric_scooter", "fusion_lat": 0.0, "lat": 38.893491833333336, "name": "16a785210a75ce8c0db072e015fd69b0", "fusion_lon": 0.0, "bike_id": "16a785210a75ce8c0db072e015fd69b0", "is_disabled": 0, "is_reserved": 0}, {"rental_uris": {"ios": "https://dc.lft.to/lastmile_qr_scan", "android": "https://dc.lft.to/lastmile_qr_scan"}, "lon": -76.9284895, "type": "electric_scooter", "fusion_lat": 0.0, "lat": 38.883597333333334, "name": "71a891ecc8c9f1f093c79307d7835fe0", "fusion_lon": 0.0, "bike_id": "71a891ecc8c9f1f093c79307d7835fe0", "is_disabled": 0, "is_reserved": 0}, {"rental_uris": {"ios": "https://dc.lft.to/lastmile_qr_scan", "android": "https://dc.lft.to/lastmile_qr_scan"}, "lon": -77.0111695, "type": "electric_scooter", "fusion_lat": 0.0, "lat": 38.87085283333333, "name": "0d0fa23c630e8213d83ff6142921bd43", "fusion_lon": 0.0, "bike_id": "0d0fa23c630e8213d83ff6142921bd43", "is_disabled": 0, "is_reserved": 0}, {"rental_uris": {"ios": "https://dc.lft.to/lastmile_qr_scan", "android": "https://dc.lft.to/lastmile_qr_scan"}, "lon": -77.03943666666666, "type": "electric_scooter", "fusion_lat": 0.0, "lat": 38.9027805, "name": "73eda772dae6b57a52745743668fef4d", "fusion_lon": 0.0, "bike_id": "73eda772dae6b57a52745743668fef4d", "is_disabled": 0, "is_reserved": 0}, {"rental_uris": {"ios": "https://dc.lft.to/lastmile_qr_scan", "android": "https://dc.lft.to/lastmile_qr_scan"}, "lon": -77.003339, "type": "electric_bike", "fusion_lat": 0.0, "lat": 38.87656, "name": "0beaebf8a39ec6583dc6e5da1ceb1eee", "fusion_lon": 0.0, "bike_id": "0beaebf8a39ec6583dc6e5da1ceb1eee", "is_disabled": 0, "is_reserved": 0}, {"rental_uris": {"ios": "https://dc.lft.to/lastmile_qr_scan", "android": "https://dc.lft.to/lastmile_qr_scan"}, "lon": -77.0346855, "type": "electric_scooter", "fusion_lat": 0.0, "lat": 38.920590833333335, "name": "a717cdfb042e069e2e541293fc7eb4e4", "fusion_lon": 0.0, "bike_id": "a717cdfb042e069e2e541293fc7eb4e4", "is_disabled": 0, "is_reserved": 0}, {"rental_uris": {"ios": "https://dc.lft.to/lastmile_qr_scan", "android": "https://dc.lft.to/lastmile_qr_scan"}, "lon": -76.98360883333334, "type": "electric_scooter", "fusion_lat": 0.0, "lat": 38.8648765, "name": "bfae655f7cd61193d368d77b23eefd75", "fusion_lon": 0.0, "bike_id": "bfae655f7cd61193d368d77b23eefd75", "is_disabled": 0, "is_reserved": 0}, {"rental_uris": {"ios": "https://dc.lft.to/lastmile_qr_scan", "android": "https://dc.lft.to/lastmile_qr_scan"}, "lon": -76.983569, "type": "electric_scooter", "fusion_lat": 0.0, "lat": 38.915427666666666, "name": "c4e8ea38b15bed9eec61338f1b854de9", "fusion_lon": 0.0, "bike_id": "c4e8ea38b15bed9eec61338f1b854de9", "is_disabled": 0, "is_reserved": 0}, {"rental_uris": {"ios": "https://dc.lft.to/lastmile_qr_scan", "android": "https://dc.lft.to/lastmile_qr_scan"}, "lon": -77.02945366666667, "type": "electric_scooter", "fusion_lat": 0.0, "lat": 38.907458166666665, "name": "b1653f0eff7526d72cfd010c55ef692c", "fusion_lon": 0.0, "bike_id": "b1653f0eff7526d72cfd010c55ef692c", "is_disabled": 0, "is_reserved": 0}, {"rental_uris": {"ios": "https://dc.lft.to/lastmile_qr_scan", "android": "https://dc.lft.to/lastmile_qr_scan"}, "lon": -77.01750816666667, "type": "electric_scooter", "fusion_lat": 0.0, "lat": 38.877182166666664, "name": "6589e46df9b67ab82c5f61877f683af7", "fusion_lon": 0.0, "bike_id": "6589e46df9b67ab82c5f61877f683af7", "is_disabled": 0, "is_reserved": 0}, {"rental_uris": {"ios": "https://dc.lft.to/lastmile_qr_scan", "android": "https://dc.lft.to/lastmile_qr_scan"}, "lon": -77.11430216666666, "type": "electric_bike", "fusion_lat": 0.0, "lat": 38.8524545, "name": "7147f007cfe92ccbbf85b500293c3435", "fusion_lon": 0.0, "bike_id": "7147f007cfe92ccbbf85b500293c3435", "is_disabled": 0, "is_reserved": 0}, {"rental_uris": {"ios": "https://dc.lft.to/lastmile_qr_scan", "android": "https://dc.lft.to/lastmile_qr_scan"}, "lon": -76.984113, "type": "electric_scooter", "fusion_lat": 0.0, "lat": 38.91386833333333, "name": "a49afdc119f7c7733598b3dc80c95bf2", "fusion_lon": 0.0, "bike_id": "a49afdc119f7c7733598b3dc80c95bf2", "is_disabled": 0, "is_reserved": 0}, {"rental_uris": {"ios": "https://dc.lft.to/lastmile_qr_scan", "android": "https://dc.lft.to/lastmile_qr_scan"}, "lon": -76.97085516666667, "type": "electric_scooter", "fusion_lat": 0.0, "lat": 38.878787, "name": "8c74d01a6d08ab2ca8ea0864faab4a69", "fusion_lon": 0.0, "bike_id": "8c74d01a6d08ab2ca8ea0864faab4a69", "is_disabled": 0, "is_reserved": 0}, {"rental_uris": {"ios": "https://dc.lft.to/lastmile_qr_scan", "android": "https://dc.lft.to/lastmile_qr_scan"}, "lon": -77.051235, "type": "electric_scooter", "fusion_lat": 0.0, "lat": 38.92357883333333, "name": "33bf5ba434526f5dac65202c84b14931", "fusion_lon": 0.0, "bike_id": "33bf5ba434526f5dac65202c84b14931", "is_disabled": 0, "is_reserved": 0}, {"rental_uris": {"ios": "https://dc.lft.to/lastmile_qr_scan", "android": "https://dc.lft.to/lastmile_qr_scan"}, "lon": -77.07814483333334, "type": "electric_scooter", "fusion_lat": 0.0, "lat": 38.92618983333333, "name": "b1047edb6bf1555684865f6fef824678", "fusion_lon": 0.0, "bike_id": "b1047edb6bf1555684865f6fef824678", "is_disabled": 0, "is_reserved": 0}, {"rental_uris": {"ios": "https://dc.lft.to/lastmile_qr_scan", "android": "https://dc.lft.to/lastmile_qr_scan"}, "lon": -77.02203266666666, "type": "electric_scooter", "fusion_lat": 0.0, "lat": 38.9085505, "name": "afb5f5962147534e47f5c643e5f965de", "fusion_lon": 0.0, "bike_id": "afb5f5962147534e47f5c643e5f965de", "is_disabled": 0, "is_reserved": 0}, {"rental_uris": {"ios": "https://dc.lft.to/lastmile_qr_scan", "android": "https://dc.lft.to/lastmile_qr_scan"}, "lon": -77.02213816666666, "type": "electric_scooter", "fusion_lat": 0.0, "lat": 38.8877045, "name": "63bf80516381be98aec63c2ce41e3a21", "fusion_lon": 0.0, "bike_id": "63bf80516381be98aec63c2ce41e3a21", "is_disabled": 0, "is_reserved": 0}, {"rental_uris": {"ios": "https://dc.lft.to/lastmile_qr_scan", "android": "https://dc.lft.to/lastmile_qr_scan"}, "lon": -77.03078166666667, "type": "electric_scooter", "fusion_lat": 0.0, "lat": 38.899619, "name": "7c64ba17a7d6ec949a177d672a162b9f", "fusion_lon": 0.0, "bike_id": "7c64ba17a7d6ec949a177d672a162b9f", "is_disabled": 0, "is_reserved": 0}, {"rental_uris": {"ios": "https://dc.lft.to/lastmile_qr_scan", "android": "https://dc.lft.to/lastmile_qr_scan"}, "lon": -76.9678455, "type": "electric_scooter", "fusion_lat": 0.0, "lat": 38.86133366666667, "name": "b3250e024dfd04ebc45b9bdc930bf47c", "fusion_lon": 0.0, "bike_id": "b3250e024dfd04ebc45b9bdc930bf47c", "is_disabled": 0, "is_reserved": 0}, {"rental_uris": {"ios": "https://dc.lft.to/lastmile_qr_scan", "android": "https://dc.lft.to/lastmile_qr_scan"}, "lon": -77.01956383333334, "type": "electric_scooter", "fusion_lat": 0.0, "lat": 38.90417583333333, "name": "f035413e8fdc40c9f2f8f0b455505122", "fusion_lon": 0.0, "bike_id": "f035413e8fdc40c9f2f8f0b455505122", "is_disabled": 0, "is_reserved": 0}, {"rental_uris": {"ios": "https://dc.lft.to/lastmile_qr_scan", "android": "https://dc.lft.to/lastmile_qr_scan"}, "lon": -77.0322205, "type": "electric_scooter", "fusion_lat": 0.0, "lat": 38.892309833333336, "name": "e308bec381a422e9b391edc532ba9e7b", "fusion_lon": 0.0, "bike_id": "e308bec381a422e9b391edc532ba9e7b", "is_disabled": 0, "is_reserved": 0}, {"rental_uris": {"ios": "https://dc.lft.to/lastmile_qr_scan", "android": "https://dc.lft.to/lastmile_qr_scan"}, "lon": -77.03181733333334, "type": "electric_scooter", "fusion_lat": 0.0, "lat": 38.91653683333333, "name": "ee6ed88a6c061d34749f22880cedff09", "fusion_lon": 0.0, "bike_id": "ee6ed88a6c061d34749f22880cedff09", "is_disabled": 0, "is_reserved": 0}, {"rental_uris": {"ios": "https://dc.lft.to/lastmile_qr_scan", "android": "https://dc.lft.to/lastmile_qr_scan"}, "lon": -76.9357375, "type": "electric_bike", "fusion_lat": 0.0, "lat": 38.885282833333335, "name": "a0334e235d692cfcb899d52dbad4abe6", "fusion_lon": 0.0, "bike_id": "a0334e235d692cfcb899d52dbad4abe6", "is_disabled": 0, "is_reserved": 0}, {"rental_uris": {"ios": "https://dc.lft.to/lastmile_qr_scan", "android": "https://dc.lft.to/lastmile_qr_scan"}, "lon": -76.94975033333333, "type": "electric_scooter", "fusion_lat": 0.0, "lat": 38.89370533333334, "name": "636344766d11f2a92efc252446eb426b", "fusion_lon": 0.0, "bike_id": "636344766d11f2a92efc252446eb426b", "is_disabled": 0, "is_reserved": 0}, {"rental_uris": {"ios": "https://dc.lft.to/lastmile_qr_scan", "android": "https://dc.lft.to/lastmile_qr_scan"}, "lon": -76.99530033333333, "type": "electric_bike", "fusion_lat": 0.0, "lat": 38.88451283333333, "name": "e7e34bfde33eaa5baa4d1b48e32535db", "fusion_lon": 0.0, "bike_id": "e7e34bfde33eaa5baa4d1b48e32535db", "is_disabled": 0, "is_reserved": 0}, {"rental_uris": {"ios": "https://dc.lft.to/lastmile_qr_scan", "android": "https://dc.lft.to/lastmile_qr_scan"}, "lon": -77.04150733333333, "type": "electric_scooter", "fusion_lat": 0.0, "lat": 38.91781983333333, "name": "3bdc1bbd5650c2547e6229fb9934a665", "fusion_lon": 0.0, "bike_id": "3bdc1bbd5650c2547e6229fb9934a665", "is_disabled": 0, "is_reserved": 0}, {"rental_uris": {"ios": "https://dc.lft.to/lastmile_qr_scan", "android": "https://dc.lft.to/lastmile_qr_scan"}, "lon": -76.98022783333333, "type": "electric_scooter", "fusion_lat": 0.0, "lat": 38.90378283333333, "name": "ebcf1ebcb5c8dd76dac509168fac4d34", "fusion_lon": 0.0, "bike_id": "ebcf1ebcb5c8dd76dac509168fac4d34", "is_disabled": 0, "is_reserved": 0}, {"rental_uris": {"ios": "https://dc.lft.to/lastmile_qr_scan", "android": "https://dc.lft.to/lastmile_qr_scan"}, "lon": -77.03214316666667, "type": "electric_scooter", "fusion_lat": 0.0, "lat": 38.925797, "name": "cf99648a6fd2b8f08381e43c444f72ea", "fusion_lon": 0.0, "bike_id": "cf99648a6fd2b8f08381e43c444f72ea", "is_disabled": 0, "is_reserved": 0}, {"rental_uris": {"ios": "https://dc.lft.to/lastmile_qr_scan", "android": "https://dc.lft.to/lastmile_qr_scan"}, "lon": -77.01102533333334, "type": "electric_scooter", "fusion_lat": 0.0, "lat": 38.89459816666667, "name": "8d1bcaa66f89dc814d69fa8737b2f405", "fusion_lon": 0.0, "bike_id": "8d1bcaa66f89dc814d69fa8737b2f405", "is_disabled": 0, "is_reserved": 0}, {"rental_uris": {"ios": "https://dc.lft.to/lastmile_qr_scan", "android": "https://dc.lft.to/lastmile_qr_scan"}, "lon": -76.999711, "type": "electric_scooter", "fusion_lat": 0.0, "lat": 38.908478833333334, "name": "51eb631b9953d05113748b85d99b77e7", "fusion_lon": 0.0, "bike_id": "51eb631b9953d05113748b85d99b77e7", "is_disabled": 0, "is_reserved": 0}, {"rental_uris": {"ios": "https://dc.lft.to/lastmile_qr_scan", "android": "https://dc.lft.to/lastmile_qr_scan"}, "lon": -77.07569116666667, "type": "electric_scooter", "fusion_lat": 0.0, "lat": 38.920899166666665, "name": "35a2b3e78c0f9cdc3073f7bfa259ffff", "fusion_lon": 0.0, "bike_id": "35a2b3e78c0f9cdc3073f7bfa259ffff", "is_disabled": 0, "is_reserved": 0}, {"rental_uris": {"ios": "https://dc.lft.to/lastmile_qr_scan", "android": "https://dc.lft.to/lastmile_qr_scan"}, "lon": -77.014174, "type": "electric_scooter", "fusion_lat": 0.0, "lat": 38.91692533333333, "name": "e2ce4a989f2342c326ff1dc377d0076a", "fusion_lon": 0.0, "bike_id": "e2ce4a989f2342c326ff1dc377d0076a", "is_disabled": 0, "is_reserved": 0}, {"rental_uris": {"ios": "https://dc.lft.to/lastmile_qr_scan", "android": "https://dc.lft.to/lastmile_qr_scan"}, "lon": -77.01804733333333, "type": "electric_scooter", "fusion_lat": 0.0, "lat": 38.94199583333334, "name": "b26e7e53a09abab07d7145a05bc46cfc", "fusion_lon": 0.0, "bike_id": "b26e7e53a09abab07d7145a05bc46cfc", "is_disabled": 0, "is_reserved": 0}, {"rental_uris": {"ios": "https://dc.lft.to/lastmile_qr_scan", "android": "https://dc.lft.to/lastmile_qr_scan"}, "lon": -77.005, "type": "electric_scooter", "fusion_lat": 0.0, "lat": 38.87890983333333, "name": "d3e6a88567c0ac5f0794b824c7063cba", "fusion_lon": 0.0, "bike_id": "d3e6a88567c0ac5f0794b824c7063cba", "is_disabled": 0, "is_reserved": 0}, {"rental_uris": {"ios": "https://dc.lft.to/lastmile_qr_scan", "android": "https://dc.lft.to/lastmile_qr_scan"}, "lon": -77.03002333333333, "type": "electric_scooter", "fusion_lat": 0.0, "lat": 38.934484, "name": "6c504356fe132929eb5f9026a641aec1", "fusion_lon": 0.0, "bike_id": "6c504356fe132929eb5f9026a641aec1", "is_disabled": 0, "is_reserved": 0}, {"rental_uris": {"ios": "https://dc.lft.to/lastmile_qr_scan", "android": "https://dc.lft.to/lastmile_qr_scan"}, "lon": -77.03662516666667, "type": "electric_scooter", "fusion_lat": 0.0, "lat": 38.912959666666666, "name": "46102bed7e9d4e0a8db5cd68ad30e14e", "fusion_lon": 0.0, "bike_id": "46102bed7e9d4e0a8db5cd68ad30e14e", "is_disabled": 0, "is_reserved": 0}, {"rental_uris": {"ios": "https://dc.lft.to/lastmile_qr_scan", "android": "https://dc.lft.to/lastmile_qr_scan"}, "lon": -77.025721, "type": "electric_scooter", "fusion_lat": 0.0, "lat": 38.88745466666667, "name": "391e8614da0f36bf3218435b8024004e", "fusion_lon": 0.0, "bike_id": "391e8614da0f36bf3218435b8024004e", "is_disabled": 0, "is_reserved": 0}, {"rental_uris": {"ios": "https://dc.lft.to/lastmile_qr_scan", "android": "https://dc.lft.to/lastmile_qr_scan"}, "lon": -77.05132333333333, "type": "electric_scooter", "fusion_lat": 0.0, "lat": 38.90516, "name": "60605d06a592a2d95c6b13bd8ee973b6", "fusion_lon": 0.0, "bike_id": "60605d06a592a2d95c6b13bd8ee973b6", "is_disabled": 0, "is_reserved": 0}, {"rental_uris": {"ios": "https://dc.lft.to/lastmile_qr_scan", "android": "https://dc.lft.to/lastmile_qr_scan"}, "lon": -76.99842, "type": "electric_bike", "fusion_lat": 0.0, "lat": 38.83917316666667, "name": "abfd5a7fee4b78bc54a36057c8f1d29c", "fusion_lon": 0.0, "bike_id": "abfd5a7fee4b78bc54a36057c8f1d29c", "is_disabled": 0, "is_reserved": 0}, {"rental_uris": {"ios": "https://dc.lft.to/lastmile_qr_scan", "android": "https://dc.lft.to/lastmile_qr_scan"}, "lon": -77.00233766666666, "type": "electric_bike", "fusion_lat": 0.0, "lat": 38.908832333333336, "name": "c1067408fa70af4a5ffc968733986891", "fusion_lon": 0.0, "bike_id": "c1067408fa70af4a5ffc968733986891", "is_disabled": 0, "is_reserved": 0}, {"rental_uris": {"ios": "https://dc.lft.to/lastmile_qr_scan", "android": "https://dc.lft.to/lastmile_qr_scan"}, "lon": -77.0512975, "type": "electric_scooter", "fusion_lat": 0.0, "lat": 38.89921, "name": "c147ec011ee909311cfa304739f41111", "fusion_lon": 0.0, "bike_id": "c147ec011ee909311cfa304739f41111", "is_disabled": 0, "is_reserved": 0}, {"rental_uris": {"ios": "https://dc.lft.to/lastmile_qr_scan", "android": "https://dc.lft.to/lastmile_qr_scan"}, "lon": -77.043687, "type": "electric_scooter", "fusion_lat": 0.0, "lat": 38.933371, "name": "1a4f6d0faa99008cfb762f92373ef014", "fusion_lon": 0.0, "bike_id": "1a4f6d0faa99008cfb762f92373ef014", "is_disabled": 0, "is_reserved": 0}, {"rental_uris": {"ios": "https://dc.lft.to/lastmile_qr_scan", "android": "https://dc.lft.to/lastmile_qr_scan"}, "lon": -77.04148216666667, "type": "electric_scooter", "fusion_lat": 0.0, "lat": 38.90256, "name": "313b4d6bf0c2cb1856f3a4285c1d8d53", "fusion_lon": 0.0, "bike_id": "313b4d6bf0c2cb1856f3a4285c1d8d53", "is_disabled": 0, "is_reserved": 0}, {"rental_uris": {"ios": "https://dc.lft.to/lastmile_qr_scan", "android": "https://dc.lft.to/lastmile_qr_scan"}, "lon": -77.04180333333333, "type": "electric_scooter", "fusion_lat": 0.0, "lat": 38.911871, "name": "4f762344760581449ba63de965e4191c", "fusion_lon": 0.0, "bike_id": "4f762344760581449ba63de965e4191c", "is_disabled": 0, "is_reserved": 0}, {"rental_uris": {"ios": "https://dc.lft.to/lastmile_qr_scan", "android": "https://dc.lft.to/lastmile_qr_scan"}, "lon": -76.9759745, "type": "electric_scooter", "fusion_lat": 0.0, "lat": 38.903295, "name": "97aac4d16283bd35ac4cf0a8dcbdfb6c", "fusion_lon": 0.0, "bike_id": "97aac4d16283bd35ac4cf0a8dcbdfb6c", "is_disabled": 0, "is_reserved": 0}, {"rental_uris": {"ios": "https://dc.lft.to/lastmile_qr_scan", "android": "https://dc.lft.to/lastmile_qr_scan"}, "lon": -77.0260165, "type": "electric_scooter", "fusion_lat": 0.0, "lat": 38.88739783333333, "name": "1bf19037e4ee84de8ee52745c4084e77", "fusion_lon": 0.0, "bike_id": "1bf19037e4ee84de8ee52745c4084e77", "is_disabled": 0, "is_reserved": 0}, {"rental_uris": {"ios": "https://dc.lft.to/lastmile_qr_scan", "android": "https://dc.lft.to/lastmile_qr_scan"}, "lon": -76.94620333333333, "type": "electric_bike", "fusion_lat": 0.0, "lat": 38.83238133333333, "name": "34108e60b3397d55f7b57e1503dfaef1", "fusion_lon": 0.0, "bike_id": "34108e60b3397d55f7b57e1503dfaef1", "is_disabled": 0, "is_reserved": 0}, {"rental_uris": {"ios": "https://dc.lft.to/lastmile_qr_scan", "android": "https://dc.lft.to/lastmile_qr_scan"}, "lon": -77.00338, "type": "electric_scooter", "fusion_lat": 0.0, "lat": 38.893542833333335, "name": "228e1b43e3a05c5ff7e5c96a3022925d", "fusion_lon": 0.0, "bike_id": "228e1b43e3a05c5ff7e5c96a3022925d", "is_disabled": 0, "is_reserved": 0}, {"rental_uris": {"ios": "https://dc.lft.to/lastmile_qr_scan", "android": "https://dc.lft.to/lastmile_qr_scan"}, "lon": -77.02402483333333, "type": "electric_scooter", "fusion_lat": 0.0, "lat": 38.915959, "name": "0bee5367ed2d0aba368ba4fd17b1d4cb", "fusion_lon": 0.0, "bike_id": "0bee5367ed2d0aba368ba4fd17b1d4cb", "is_disabled": 0, "is_reserved": 0}, {"rental_uris": {"ios": "https://dc.lft.to/lastmile_qr_scan", "android": "https://dc.lft.to/lastmile_qr_scan"}, "lon": -77.0221905, "type": "electric_scooter", "fusion_lat": 0.0, "lat": 38.891931, "name": "33ae5f958d2462d9c99a6517b9764457", "fusion_lon": 0.0, "bike_id": "33ae5f958d2462d9c99a6517b9764457", "is_disabled": 0, "is_reserved": 0}, {"rental_uris": {"ios": "https://dc.lft.to/lastmile_qr_scan", "android": "https://dc.lft.to/lastmile_qr_scan"}, "lon": -77.0254935, "type": "electric_scooter", "fusion_lat": 0.0, "lat": 38.892290833333334, "name": "8d923c20374d98784e9405a507606290", "fusion_lon": 0.0, "bike_id": "8d923c20374d98784e9405a507606290", "is_disabled": 0, "is_reserved": 0}, {"rental_uris": {"ios": "https://dc.lft.to/lastmile_qr_scan", "android": "https://dc.lft.to/lastmile_qr_scan"}, "lon": -77.05749633333333, "type": "electric_scooter", "fusion_lat": 0.0, "lat": 38.93535583333333, "name": "c72caa596a5ce8d6fcf5d340da13bda5", "fusion_lon": 0.0, "bike_id": "c72caa596a5ce8d6fcf5d340da13bda5", "is_disabled": 0, "is_reserved": 0}, {"rental_uris": {"ios": "https://dc.lft.to/lastmile_qr_scan", "android": "https://dc.lft.to/lastmile_qr_scan"}, "lon": -77.0884475, "type": "electric_bike", "fusion_lat": 0.0, "lat": 38.840772666666666, "name": "fdf05513480fe3fc1a13f2e44481e82d", "fusion_lon": 0.0, "bike_id": "fdf05513480fe3fc1a13f2e44481e82d", "is_disabled": 0, "is_reserved": 0}, {"rental_uris": {"ios": "https://dc.lft.to/lastmile_qr_scan", "android": "https://dc.lft.to/lastmile_qr_scan"}, "lon": -77.0755025, "type": "electric_bike", "fusion_lat": 0.0, "lat": 38.910651333333334, "name": "e844045c13194df79305c1376ac1ea5b", "fusion_lon": 0.0, "bike_id": "e844045c13194df79305c1376ac1ea5b", "is_disabled": 0, "is_reserved": 0}, {"rental_uris": {"ios": "https://dc.lft.to/lastmile_qr_scan", "android": "https://dc.lft.to/lastmile_qr_scan"}, "lon": -77.0170095, "type": "electric_scooter", "fusion_lat": 0.0, "lat": 38.879196, "name": "4645e13483d013f4003fbd963d5cdb39", "fusion_lon": 0.0, "bike_id": "4645e13483d013f4003fbd963d5cdb39", "is_disabled": 0, "is_reserved": 0}, {"rental_uris": {"ios": "https://dc.lft.to/lastmile_qr_scan", "android": "https://dc.lft.to/lastmile_qr_scan"}, "lon": -77.00058166666666, "type": "electric_scooter", "fusion_lat": 0.0, "lat": 38.888994, "name": "2f780c78c9fbf5133dd189a9d36823e3", "fusion_lon": 0.0, "bike_id": "2f780c78c9fbf5133dd189a9d36823e3", "is_disabled": 0, "is_reserved": 0}, {"rental_uris": {"ios": "https://dc.lft.to/lastmile_qr_scan", "android": "https://dc.lft.to/lastmile_qr_scan"}, "lon": -77.01835683333333, "type": "electric_scooter", "fusion_lat": 0.0, "lat": 38.9093255, "name": "c5dbee4a3496e4cd318e89f6abe28c64", "fusion_lon": 0.0, "bike_id": "c5dbee4a3496e4cd318e89f6abe28c64", "is_disabled": 0, "is_reserved": 0}, {"rental_uris": {"ios": "https://dc.lft.to/lastmile_qr_scan", "android": "https://dc.lft.to/lastmile_qr_scan"}, "lon": -77.01116516666667, "type": "electric_scooter", "fusion_lat": 0.0, "lat": 38.9036885, "name": "c7de87976c15fc7bd2ee8bb034c0ea59", "fusion_lon": 0.0, "bike_id": "c7de87976c15fc7bd2ee8bb034c0ea59", "is_disabled": 0, "is_reserved": 0}, {"rental_uris": {"ios": "https://dc.lft.to/lastmile_qr_scan", "android": "https://dc.lft.to/lastmile_qr_scan"}, "lon": -77.03471566666667, "type": "electric_scooter", "fusion_lat": 0.0, "lat": 38.916974, "name": "546c10eefb5c5172d50ddbd8132d93af", "fusion_lon": 0.0, "bike_id": "546c10eefb5c5172d50ddbd8132d93af", "is_disabled": 0, "is_reserved": 0}, {"rental_uris": {"ios": "https://dc.lft.to/lastmile_qr_scan", "android": "https://dc.lft.to/lastmile_qr_scan"}, "lon": -77.09965366666667, "type": "electric_bike", "fusion_lat": 0.0, "lat": 38.857933333333335, "name": "81a9f3f32130b8836dcd79d2ea5cbc0e", "fusion_lon": 0.0, "bike_id": "81a9f3f32130b8836dcd79d2ea5cbc0e", "is_disabled": 0, "is_reserved": 0}, {"rental_uris": {"ios": "https://dc.lft.to/lastmile_qr_scan", "android": "https://dc.lft.to/lastmile_qr_scan"}, "lon": -76.947628, "type": "electric_scooter", "fusion_lat": 0.0, "lat": 38.896795, "name": "cc16ce56f2c5a06ed13b7ea17c7c782e", "fusion_lon": 0.0, "bike_id": "cc16ce56f2c5a06ed13b7ea17c7c782e", "is_disabled": 0, "is_reserved": 0}, {"rental_uris": {"ios": "https://dc.lft.to/lastmile_qr_scan", "android": "https://dc.lft.to/lastmile_qr_scan"}, "lon": -77.0808, "type": "electric_bike", "fusion_lat": 0.0, "lat": 38.906920666666664, "name": "59b1dba8f724e477239b2bf5e9346e2b", "fusion_lon": 0.0, "bike_id": "59b1dba8f724e477239b2bf5e9346e2b", "is_disabled": 0, "is_reserved": 0}, {"rental_uris": {"ios": "https://dc.lft.to/lastmile_qr_scan", "android": "https://dc.lft.to/lastmile_qr_scan"}, "lon": -77.036757, "type": "electric_scooter", "fusion_lat": 0.0, "lat": 38.90685533333333, "name": "8548404742952004bf2e53bdeef00680", "fusion_lon": 0.0, "bike_id": "8548404742952004bf2e53bdeef00680", "is_disabled": 0, "is_reserved": 0}, {"rental_uris": {"ios": "https://dc.lft.to/lastmile_qr_scan", "android": "https://dc.lft.to/lastmile_qr_scan"}, "lon": -77.03305533333334, "type": "electric_scooter", "fusion_lat": 0.0, "lat": 38.917998, "name": "88d1571329101f3258b10691d14178fe", "fusion_lon": 0.0, "bike_id": "88d1571329101f3258b10691d14178fe", "is_disabled": 0, "is_reserved": 0}, {"rental_uris": {"ios": "https://dc.lft.to/lastmile_qr_scan", "android": "https://dc.lft.to/lastmile_qr_scan"}, "lon": -77.022045, "type": "electric_scooter", "fusion_lat": 0.0, "lat": 38.91538383333334, "name": "f1b909bfc08a5ac617eb0e792ba5deff", "fusion_lon": 0.0, "bike_id": "f1b909bfc08a5ac617eb0e792ba5deff", "is_disabled": 0, "is_reserved": 0}, {"rental_uris": {"ios": "https://dc.lft.to/lastmile_qr_scan", "android": "https://dc.lft.to/lastmile_qr_scan"}, "lon": -77.04502583333333, "type": "electric_scooter", "fusion_lat": 0.0, "lat": 38.90542883333333, "name": "8e39c3dbbc55d8c6674ba7cd4925a4e3", "fusion_lon": 0.0, "bike_id": "8e39c3dbbc55d8c6674ba7cd4925a4e3", "is_disabled": 0, "is_reserved": 0}, {"rental_uris": {"ios": "https://dc.lft.to/lastmile_qr_scan", "android": "https://dc.lft.to/lastmile_qr_scan"}, "lon": -77.03190016666667, "type": "electric_scooter", "fusion_lat": 0.0, "lat": 38.9043175, "name": "13d9908c45395ac5933833ac2589b582", "fusion_lon": 0.0, "bike_id": "13d9908c45395ac5933833ac2589b582", "is_disabled": 0, "is_reserved": 0}, {"rental_uris": {"ios": "https://dc.lft.to/lastmile_qr_scan", "android": "https://dc.lft.to/lastmile_qr_scan"}, "lon": -77.088262, "type": "electric_bike", "fusion_lat": 0.0, "lat": 38.909680333333334, "name": "4455395d988cc382c6ffa6fa92481bbf", "fusion_lon": 0.0, "bike_id": "4455395d988cc382c6ffa6fa92481bbf", "is_disabled": 0, "is_reserved": 0}, {"rental_uris": {"ios": "https://dc.lft.to/lastmile_qr_scan", "android": "https://dc.lft.to/lastmile_qr_scan"}, "lon": -77.10334116666667, "type": "electric_bike", "fusion_lat": 0.0, "lat": 38.965068333333335, "name": "f7afa37aef0eb3aae4be77eb65de1926", "fusion_lon": 0.0, "bike_id": "f7afa37aef0eb3aae4be77eb65de1926", "is_disabled": 0, "is_reserved": 0}, {"rental_uris": {"ios": "https://dc.lft.to/lastmile_qr_scan", "android": "https://dc.lft.to/lastmile_qr_scan"}, "lon": -77.022208, "type": "electric_scooter", "fusion_lat": 0.0, "lat": 38.89197816666667, "name": "17967e5b73690497b15aa8d318b4a39a", "fusion_lon": 0.0, "bike_id": "17967e5b73690497b15aa8d318b4a39a", "is_disabled": 0, "is_reserved": 0}, {"rental_uris": {"ios": "https://dc.lft.to/lastmile_qr_scan", "android": "https://dc.lft.to/lastmile_qr_scan"}, "lon": -77.03564783333333, "type": "electric_scooter", "fusion_lat": 0.0, "lat": 38.9081975, "name": "81a2b54c6b20cd7530c3b6038efc835a", "fusion_lon": 0.0, "bike_id": "81a2b54c6b20cd7530c3b6038efc835a", "is_disabled": 0, "is_reserved": 0}, {"rental_uris": {"ios": "https://dc.lft.to/lastmile_qr_scan", "android": "https://dc.lft.to/lastmile_qr_scan"}, "lon": -77.02393733333334, "type": "electric_scooter", "fusion_lat": 0.0, "lat": 38.90696916666667, "name": "fcc66dfb2dc6a5ffb575cc6d2f4a3fa0", "fusion_lon": 0.0, "bike_id": "fcc66dfb2dc6a5ffb575cc6d2f4a3fa0", "is_disabled": 0, "is_reserved": 0}, {"rental_uris": {"ios": "https://dc.lft.to/lastmile_qr_scan", "android": "https://dc.lft.to/lastmile_qr_scan"}, "lon": -77.0405525, "type": "electric_scooter", "fusion_lat": 0.0, "lat": 38.927048, "name": "71343f5a087f8cf3507c31b6659d09fa", "fusion_lon": 0.0, "bike_id": "71343f5a087f8cf3507c31b6659d09fa", "is_disabled": 0, "is_reserved": 0}, {"rental_uris": {"ios": "https://dc.lft.to/lastmile_qr_scan", "android": "https://dc.lft.to/lastmile_qr_scan"}, "lon": -77.0417895, "type": "electric_scooter", "fusion_lat": 0.0, "lat": 38.919881, "name": "7eb197f9c985f59231a1204f8eb2eed9", "fusion_lon": 0.0, "bike_id": "7eb197f9c985f59231a1204f8eb2eed9", "is_disabled": 0, "is_reserved": 0}, {"rental_uris": {"ios": "https://dc.lft.to/lastmile_qr_scan", "android": "https://dc.lft.to/lastmile_qr_scan"}, "lon": -77.049836, "type": "electric_scooter", "fusion_lat": 0.0, "lat": 38.90795, "name": "b31898c8bd782721793f95d13fbc42ac", "fusion_lon": 0.0, "bike_id": "b31898c8bd782721793f95d13fbc42ac", "is_disabled": 0, "is_reserved": 0}, {"rental_uris": {"ios": "https://dc.lft.to/lastmile_qr_scan", "android": "https://dc.lft.to/lastmile_qr_scan"}, "lon": -77.12502233333333, "type": "electric_bike", "fusion_lat": 0.0, "lat": 39.024167, "name": "932c4e27454c195663a0cd81a9a2de85", "fusion_lon": 0.0, "bike_id": "932c4e27454c195663a0cd81a9a2de85", "is_disabled": 0, "is_reserved": 0}, {"rental_uris": {"ios": "https://dc.lft.to/lastmile_qr_scan", "android": "https://dc.lft.to/lastmile_qr_scan"}, "lon": -77.03007566666666, "type": "electric_scooter", "fusion_lat": 0.0, "lat": 38.91923833333333, "name": "e4b9ac21aa87b070e3bdd5995f23822f", "fusion_lon": 0.0, "bike_id": "e4b9ac21aa87b070e3bdd5995f23822f", "is_disabled": 0, "is_reserved": 0}, {"rental_uris": {"ios": "https://dc.lft.to/lastmile_qr_scan", "android": "https://dc.lft.to/lastmile_qr_scan"}, "lon": -77.03267033333333, "type": "electric_scooter", "fusion_lat": 0.0, "lat": 38.9293985, "name": "74f9abe1fec5eb2907ff08209d9194ee", "fusion_lon": 0.0, "bike_id": "74f9abe1fec5eb2907ff08209d9194ee", "is_disabled": 0, "is_reserved": 0}, {"rental_uris": {"ios": "https://dc.lft.to/lastmile_qr_scan", "android": "https://dc.lft.to/lastmile_qr_scan"}, "lon": -77.0347445, "type": "electric_scooter", "fusion_lat": 0.0, "lat": 38.917055166666664, "name": "bbfa6d746f45459e8f61d1ec1a6044ed", "fusion_lon": 0.0, "bike_id": "bbfa6d746f45459e8f61d1ec1a6044ed", "is_disabled": 0, "is_reserved": 0}, {"rental_uris": {"ios": "https://dc.lft.to/lastmile_qr_scan", "android": "https://dc.lft.to/lastmile_qr_scan"}, "lon": -77.22214583333333, "type": "electric_bike", "fusion_lat": 0.0, "lat": 38.920778, "name": "f5417161c4727bbfb4a398803f3118e6", "fusion_lon": 0.0, "bike_id": "f5417161c4727bbfb4a398803f3118e6", "is_disabled": 0, "is_reserved": 0}, {"rental_uris": {"ios": "https://dc.lft.to/lastmile_qr_scan", "android": "https://dc.lft.to/lastmile_qr_scan"}, "lon": -77.02346966666667, "type": "electric_scooter", "fusion_lat": 0.0, "lat": 38.962056833333335, "name": "87b30f51cae1c2276fdbfe879fa6ca0b", "fusion_lon": 0.0, "bike_id": "87b30f51cae1c2276fdbfe879fa6ca0b", "is_disabled": 0, "is_reserved": 0}, {"rental_uris": {"ios": "https://dc.lft.to/lastmile_qr_scan", "android": "https://dc.lft.to/lastmile_qr_scan"}, "lon": -77.039028, "type": "electric_scooter", "fusion_lat": 0.0, "lat": 38.92329466666666, "name": "de6cc94aab6e0d1f5208524e36004712", "fusion_lon": 0.0, "bike_id": "de6cc94aab6e0d1f5208524e36004712", "is_disabled": 0, "is_reserved": 0}, {"rental_uris": {"ios": "https://dc.lft.to/lastmile_qr_scan", "android": "https://dc.lft.to/lastmile_qr_scan"}, "lon": -77.04197616666667, "type": "electric_scooter", "fusion_lat": 0.0, "lat": 38.907674166666666, "name": "be2b254a87adb9d25b41701d828688dd", "fusion_lon": 0.0, "bike_id": "be2b254a87adb9d25b41701d828688dd", "is_disabled": 0, "is_reserved": 0}, {"rental_uris": {"ios": "https://dc.lft.to/lastmile_qr_scan", "android": "https://dc.lft.to/lastmile_qr_scan"}, "lon": -77.0284725, "type": "electric_scooter", "fusion_lat": 0.0, "lat": 38.930756, "name": "26b4f7e0203aef9de167df0c8e1ed7a5", "fusion_lon": 0.0, "bike_id": "26b4f7e0203aef9de167df0c8e1ed7a5", "is_disabled": 0, "is_reserved": 0}, {"rental_uris": {"ios": "https://dc.lft.to/lastmile_qr_scan", "android": "https://dc.lft.to/lastmile_qr_scan"}, "lon": -77.04389366666666, "type": "electric_scooter", "fusion_lat": 0.0, "lat": 38.92942266666667, "name": "7d9a2c2f88b9d4856dc39c84a2581692", "fusion_lon": 0.0, "bike_id": "7d9a2c2f88b9d4856dc39c84a2581692", "is_disabled": 0, "is_reserved": 0}, {"rental_uris": {"ios": "https://dc.lft.to/lastmile_qr_scan", "android": "https://dc.lft.to/lastmile_qr_scan"}, "lon": -77.0138025, "type": "electric_scooter", "fusion_lat": 0.0, "lat": 38.928677, "name": "f550c060c40c73058dffc1841d304d32", "fusion_lon": 0.0, "bike_id": "f550c060c40c73058dffc1841d304d32", "is_disabled": 0, "is_reserved": 0}, {"rental_uris": {"ios": "https://dc.lft.to/lastmile_qr_scan", "android": "https://dc.lft.to/lastmile_qr_scan"}, "lon": -77.00592883333333, "type": "electric_scooter", "fusion_lat": 0.0, "lat": 38.9156025, "name": "787bda570a9e2cc5dbc22c7b9944d906", "fusion_lon": 0.0, "bike_id": "787bda570a9e2cc5dbc22c7b9944d906", "is_disabled": 0, "is_reserved": 0}, {"rental_uris": {"ios": "https://dc.lft.to/lastmile_qr_scan", "android": "https://dc.lft.to/lastmile_qr_scan"}, "lon": -77.0075395, "type": "electric_bike", "fusion_lat": 0.0, "lat": 38.89801466666667, "name": "582a07f5813b7316403f06dd79c86407", "fusion_lon": 0.0, "bike_id": "582a07f5813b7316403f06dd79c86407", "is_disabled": 0, "is_reserved": 0}, {"rental_uris": {"ios": "https://dc.lft.to/lastmile_qr_scan", "android": "https://dc.lft.to/lastmile_qr_scan"}, "lon": -77.0419435, "type": "electric_scooter", "fusion_lat": 0.0, "lat": 38.9126805, "name": "28963f4fbfe0c2c3e07d68d1dddad497", "fusion_lon": 0.0, "bike_id": "28963f4fbfe0c2c3e07d68d1dddad497", "is_disabled": 0, "is_reserved": 0}, {"rental_uris": {"ios": "https://dc.lft.to/lastmile_qr_scan", "android": "https://dc.lft.to/lastmile_qr_scan"}, "lon": -77.016172, "type": "electric_scooter", "fusion_lat": 0.0, "lat": 38.89975, "name": "7db0478c5463bbedc6c476df0a95be96", "fusion_lon": 0.0, "bike_id": "7db0478c5463bbedc6c476df0a95be96", "is_disabled": 0, "is_reserved": 0}, {"rental_uris": {"ios": "https://dc.lft.to/lastmile_qr_scan", "android": "https://dc.lft.to/lastmile_qr_scan"}, "lon": -77.0330065, "type": "electric_scooter", "fusion_lat": 0.0, "lat": 38.91117, "name": "2d443554bbd6cf96cd108044ced6003d", "fusion_lon": 0.0, "bike_id": "2d443554bbd6cf96cd108044ced6003d", "is_disabled": 0, "is_reserved": 0}, {"rental_uris": {"ios": "https://dc.lft.to/lastmile_qr_scan", "android": "https://dc.lft.to/lastmile_qr_scan"}, "lon": -77.0111615, "type": "electric_scooter", "fusion_lat": 0.0, "lat": 38.9035295, "name": "0a8ed63424631ce825259442b87011b8", "fusion_lon": 0.0, "bike_id": "0a8ed63424631ce825259442b87011b8", "is_disabled": 0, "is_reserved": 0}, {"rental_uris": {"ios": "https://dc.lft.to/lastmile_qr_scan", "android": "https://dc.lft.to/lastmile_qr_scan"}, "lon": -76.96528183333334, "type": "electric_scooter", "fusion_lat": 0.0, "lat": 38.87626066666667, "name": "14ef434292c78614a6083a84704c3808", "fusion_lon": 0.0, "bike_id": "14ef434292c78614a6083a84704c3808", "is_disabled": 0, "is_reserved": 0}, {"rental_uris": {"ios": "https://dc.lft.to/lastmile_qr_scan", "android": "https://dc.lft.to/lastmile_qr_scan"}, "lon": -77.02835066666667, "type": "electric_scooter", "fusion_lat": 0.0, "lat": 38.89904516666667, "name": "e7acc00f13b62346ca512bde38cd2172", "fusion_lon": 0.0, "bike_id": "e7acc00f13b62346ca512bde38cd2172", "is_disabled": 0, "is_reserved": 0}, {"rental_uris": {"ios": "https://dc.lft.to/lastmile_qr_scan", "android": "https://dc.lft.to/lastmile_qr_scan"}, "lon": -77.018641, "type": "electric_scooter", "fusion_lat": 0.0, "lat": 38.90263516666667, "name": "42caa6bbd0e6a05c285d7bf8329bc94a", "fusion_lon": 0.0, "bike_id": "42caa6bbd0e6a05c285d7bf8329bc94a", "is_disabled": 0, "is_reserved": 0}, {"rental_uris": {"ios": "https://dc.lft.to/lastmile_qr_scan", "android": "https://dc.lft.to/lastmile_qr_scan"}, "lon": -77.031487, "type": "electric_scooter", "fusion_lat": 0.0, "lat": 38.91403866666667, "name": "f2e7db7bd6887725c150a61b49227799", "fusion_lon": 0.0, "bike_id": "f2e7db7bd6887725c150a61b49227799", "is_disabled": 0, "is_reserved": 0}, {"rental_uris": {"ios": "https://dc.lft.to/lastmile_qr_scan", "android": "https://dc.lft.to/lastmile_qr_scan"}, "lon": -77.0346915, "type": "electric_scooter", "fusion_lat": 0.0, "lat": 38.934459833333335, "name": "c1bebe3c40718cbd6fe895caa7acf0d2", "fusion_lon": 0.0, "bike_id": "c1bebe3c40718cbd6fe895caa7acf0d2", "is_disabled": 0, "is_reserved": 0}, {"rental_uris": {"ios": "https://dc.lft.to/lastmile_qr_scan", "android": "https://dc.lft.to/lastmile_qr_scan"}, "lon": -77.01021683333333, "type": "electric_scooter", "fusion_lat": 0.0, "lat": 38.918115, "name": "8457fd30de0462f3c49e7717f4b49575", "fusion_lon": 0.0, "bike_id": "8457fd30de0462f3c49e7717f4b49575", "is_disabled": 0, "is_reserved": 0}, {"rental_uris": {"ios": "https://dc.lft.to/lastmile_qr_scan", "android": "https://dc.lft.to/lastmile_qr_scan"}, "lon": -76.98994666666667, "type": "electric_scooter", "fusion_lat": 0.0, "lat": 38.90391966666667, "name": "0b87147f11f616caec62d90679831766", "fusion_lon": 0.0, "bike_id": "0b87147f11f616caec62d90679831766", "is_disabled": 0, "is_reserved": 0}, {"rental_uris": {"ios": "https://dc.lft.to/lastmile_qr_scan", "android": "https://dc.lft.to/lastmile_qr_scan"}, "lon": -76.998437, "type": "electric_scooter", "fusion_lat": 0.0, "lat": 38.900296833333336, "name": "76170d1667d41f4e9d0de83743d24dc0", "fusion_lon": 0.0, "bike_id": "76170d1667d41f4e9d0de83743d24dc0", "is_disabled": 0, "is_reserved": 0}, {"rental_uris": {"ios": "https://dc.lft.to/lastmile_qr_scan", "android": "https://dc.lft.to/lastmile_qr_scan"}, "lon": -77.03756833333334, "type": "electric_scooter", "fusion_lat": 0.0, "lat": 38.91257183333333, "name": "8f149aa8dca698a6bc0dce6272709b42", "fusion_lon": 0.0, "bike_id": "8f149aa8dca698a6bc0dce6272709b42", "is_disabled": 0, "is_reserved": 0}, {"rental_uris": {"ios": "https://dc.lft.to/lastmile_qr_scan", "android": "https://dc.lft.to/lastmile_qr_scan"}, "lon": -76.98311016666666, "type": "electric_scooter", "fusion_lat": 0.0, "lat": 38.899790833333334, "name": "20dce1cced9c43e14ef4ac27c049fdb5", "fusion_lon": 0.0, "bike_id": "20dce1cced9c43e14ef4ac27c049fdb5", "is_disabled": 0, "is_reserved": 0}, {"rental_uris": {"ios": "https://dc.lft.to/lastmile_qr_scan", "android": "https://dc.lft.to/lastmile_qr_scan"}, "lon": -77.057587, "type": "electric_scooter", "fusion_lat": 0.0, "lat": 38.93414416666667, "name": "ff342be003c8f68dcce01ae118d38e70", "fusion_lon": 0.0, "bike_id": "ff342be003c8f68dcce01ae118d38e70", "is_disabled": 0, "is_reserved": 0}, {"rental_uris": {"ios": "https://dc.lft.to/lastmile_qr_scan", "android": "https://dc.lft.to/lastmile_qr_scan"}, "lon": -76.99552033333333, "type": "electric_scooter", "fusion_lat": 0.0, "lat": 38.862349333333334, "name": "190b116f2300ead8359bcff9a82f7183", "fusion_lon": 0.0, "bike_id": "190b116f2300ead8359bcff9a82f7183", "is_disabled": 0, "is_reserved": 0}, {"rental_uris": {"ios": "https://dc.lft.to/lastmile_qr_scan", "android": "https://dc.lft.to/lastmile_qr_scan"}, "lon": -77.0199475, "type": "electric_scooter", "fusion_lat": 0.0, "lat": 38.9377705, "name": "3b02953b9d20b1d3475c8c2a126fee77", "fusion_lon": 0.0, "bike_id": "3b02953b9d20b1d3475c8c2a126fee77", "is_disabled": 0, "is_reserved": 0}, {"rental_uris": {"ios": "https://dc.lft.to/lastmile_qr_scan", "android": "https://dc.lft.to/lastmile_qr_scan"}, "lon": -77.05929766666667, "type": "electric_scooter", "fusion_lat": 0.0, "lat": 38.909556333333335, "name": "cbf1667bf173459b47bf261f4975411a", "fusion_lon": 0.0, "bike_id": "cbf1667bf173459b47bf261f4975411a", "is_disabled": 0, "is_reserved": 0}, {"rental_uris": {"ios": "https://dc.lft.to/lastmile_qr_scan", "android": "https://dc.lft.to/lastmile_qr_scan"}, "lon": -77.09505616666667, "type": "electric_bike", "fusion_lat": 0.0, "lat": 38.887542, "name": "52ba8cd8298001c071f9d8098d0b20f4", "fusion_lon": 0.0, "bike_id": "52ba8cd8298001c071f9d8098d0b20f4", "is_disabled": 0, "is_reserved": 0}, {"rental_uris": {"ios": "https://dc.lft.to/lastmile_qr_scan", "android": "https://dc.lft.to/lastmile_qr_scan"}, "lon": -77.03820366666666, "type": "electric_scooter", "fusion_lat": 0.0, "lat": 38.92063266666667, "name": "ace5b27cfba80a0185317853a668791b", "fusion_lon": 0.0, "bike_id": "ace5b27cfba80a0185317853a668791b", "is_disabled": 0, "is_reserved": 0}, {"rental_uris": {"ios": "https://dc.lft.to/lastmile_qr_scan", "android": "https://dc.lft.to/lastmile_qr_scan"}, "lon": -77.0025095, "type": "electric_scooter", "fusion_lat": 0.0, "lat": 38.91193883333333, "name": "274a1a85fd60817a80d3f4e993ff2f48", "fusion_lon": 0.0, "bike_id": "274a1a85fd60817a80d3f4e993ff2f48", "is_disabled": 0, "is_reserved": 0}, {"rental_uris": {"ios": "https://dc.lft.to/lastmile_qr_scan", "android": "https://dc.lft.to/lastmile_qr_scan"}, "lon": -77.07370933333333, "type": "electric_bike", "fusion_lat": 0.0, "lat": 38.9618325, "name": "0ac8fbad1db9c0c0fce553aca016df95", "fusion_lon": 0.0, "bike_id": "0ac8fbad1db9c0c0fce553aca016df95", "is_disabled": 0, "is_reserved": 0}, {"rental_uris": {"ios": "https://dc.lft.to/lastmile_qr_scan", "android": "https://dc.lft.to/lastmile_qr_scan"}, "lon": -77.03043083333333, "type": "electric_scooter", "fusion_lat": 0.0, "lat": 38.88390283333333, "name": "9c0741ff33dce1c9dc8d56d0457e5bb9", "fusion_lon": 0.0, "bike_id": "9c0741ff33dce1c9dc8d56d0457e5bb9", "is_disabled": 0, "is_reserved": 0}, {"rental_uris": {"ios": "https://dc.lft.to/lastmile_qr_scan", "android": "https://dc.lft.to/lastmile_qr_scan"}, "lon": -77.04489866666667, "type": "electric_scooter", "fusion_lat": 0.0, "lat": 38.9033095, "name": "f5fd76e810f54f63c2e6d92862ba2c18", "fusion_lon": 0.0, "bike_id": "f5fd76e810f54f63c2e6d92862ba2c18", "is_disabled": 0, "is_reserved": 0}, {"rental_uris": {"ios": "https://dc.lft.to/lastmile_qr_scan", "android": "https://dc.lft.to/lastmile_qr_scan"}, "lon": -77.04783316666666, "type": "electric_scooter", "fusion_lat": 0.0, "lat": 38.893759833333334, "name": "3b0a681c8a5b498619405f3fbe04e5ab", "fusion_lon": 0.0, "bike_id": "3b0a681c8a5b498619405f3fbe04e5ab", "is_disabled": 0, "is_reserved": 0}, {"rental_uris": {"ios": "https://dc.lft.to/lastmile_qr_scan", "android": "https://dc.lft.to/lastmile_qr_scan"}, "lon": -76.99579633333333, "type": "electric_scooter", "fusion_lat": 0.0, "lat": 38.90029366666667, "name": "5b5024d60fb97c9841687eb05f3c5bf8", "fusion_lon": 0.0, "bike_id": "5b5024d60fb97c9841687eb05f3c5bf8", "is_disabled": 0, "is_reserved": 0}, {"rental_uris": {"ios": "https://dc.lft.to/lastmile_qr_scan", "android": "https://dc.lft.to/lastmile_qr_scan"}, "lon": -77.0236135, "type": "electric_scooter", "fusion_lat": 0.0, "lat": 38.92062583333333, "name": "fe5302425060be3a457bf8580e6275c9", "fusion_lon": 0.0, "bike_id": "fe5302425060be3a457bf8580e6275c9", "is_disabled": 0, "is_reserved": 0}, {"rental_uris": {"ios": "https://dc.lft.to/lastmile_qr_scan", "android": "https://dc.lft.to/lastmile_qr_scan"}, "lon": -77.00805683333333, "type": "electric_scooter", "fusion_lat": 0.0, "lat": 38.90556266666667, "name": "abb8e15c1c978fe1ebc4b52ff3b23e12", "fusion_lon": 0.0, "bike_id": "abb8e15c1c978fe1ebc4b52ff3b23e12", "is_disabled": 0, "is_reserved": 0}, {"rental_uris": {"ios": "https://dc.lft.to/lastmile_qr_scan", "android": "https://dc.lft.to/lastmile_qr_scan"}, "lon": -77.04297283333334, "type": "electric_scooter", "fusion_lat": 0.0, "lat": 38.90878816666667, "name": "7dc79d9581cb026ff5097086f8464ee0", "fusion_lon": 0.0, "bike_id": "7dc79d9581cb026ff5097086f8464ee0", "is_disabled": 0, "is_reserved": 0}, {"rental_uris": {"ios": "https://dc.lft.to/lastmile_qr_scan", "android": "https://dc.lft.to/lastmile_qr_scan"}, "lon": -76.92372916666666, "type": "electric_bike", "fusion_lat": 0.0, "lat": 38.8837575, "name": "54a9c466830a6840f08a3607ea358577", "fusion_lon": 0.0, "bike_id": "54a9c466830a6840f08a3607ea358577", "is_disabled": 0, "is_reserved": 0}, {"rental_uris": {"ios": "https://dc.lft.to/lastmile_qr_scan", "android": "https://dc.lft.to/lastmile_qr_scan"}, "lon": -77.04502616666667, "type": "electric_scooter", "fusion_lat": 0.0, "lat": 38.91109433333333, "name": "5638be4351ca8ec03ba6f80429436bb4", "fusion_lon": 0.0, "bike_id": "5638be4351ca8ec03ba6f80429436bb4", "is_disabled": 0, "is_reserved": 0}, {"rental_uris": {"ios": "https://dc.lft.to/lastmile_qr_scan", "android": "https://dc.lft.to/lastmile_qr_scan"}, "lon": -77.02277583333333, "type": "electric_scooter", "fusion_lat": 0.0, "lat": 38.90150933333334, "name": "58d5c6ddddefd4fa91c8235e165d7b72", "fusion_lon": 0.0, "bike_id": "58d5c6ddddefd4fa91c8235e165d7b72", "is_disabled": 0, "is_reserved": 0}, {"rental_uris": {"ios": "https://dc.lft.to/lastmile_qr_scan", "android": "https://dc.lft.to/lastmile_qr_scan"}, "lon": -77.09876533333333, "type": "electric_bike", "fusion_lat": 0.0, "lat": 38.94786583333333, "name": "7e53397e37b8ac44a40f7c638dac29c2", "fusion_lon": 0.0, "bike_id": "7e53397e37b8ac44a40f7c638dac29c2", "is_disabled": 0, "is_reserved": 0}, {"rental_uris": {"ios": "https://dc.lft.to/lastmile_qr_scan", "android": "https://dc.lft.to/lastmile_qr_scan"}, "lon": -76.99585516666667, "type": "electric_scooter", "fusion_lat": 0.0, "lat": 38.955025666666664, "name": "31a1c3353b77dc092a3ce19cf3038507", "fusion_lon": 0.0, "bike_id": "31a1c3353b77dc092a3ce19cf3038507", "is_disabled": 0, "is_reserved": 0}, {"rental_uris": {"ios": "https://dc.lft.to/lastmile_qr_scan", "android": "https://dc.lft.to/lastmile_qr_scan"}, "lon": -77.04225033333333, "type": "electric_scooter", "fusion_lat": 0.0, "lat": 38.911188833333334, "name": "445f246f9e07d4edc9c33c8f2aecfcd9", "fusion_lon": 0.0, "bike_id": "445f246f9e07d4edc9c33c8f2aecfcd9", "is_disabled": 0, "is_reserved": 0}, {"rental_uris": {"ios": "https://dc.lft.to/lastmile_qr_scan", "android": "https://dc.lft.to/lastmile_qr_scan"}, "lon": -77.0115, "type": "electric_scooter", "fusion_lat": 0.0, "lat": 38.900179, "name": "18ce838d8c18097c05135017f2f304aa", "fusion_lon": 0.0, "bike_id": "18ce838d8c18097c05135017f2f304aa", "is_disabled": 0, "is_reserved": 0}, {"rental_uris": {"ios": "https://dc.lft.to/lastmile_qr_scan", "android": "https://dc.lft.to/lastmile_qr_scan"}, "lon": -77.04182, "type": "electric_scooter", "fusion_lat": 0.0, "lat": 38.91193916666667, "name": "cb0b204facfbb691fb5f6e28a1a63940", "fusion_lon": 0.0, "bike_id": "cb0b204facfbb691fb5f6e28a1a63940", "is_disabled": 0, "is_reserved": 0}, {"rental_uris": {"ios": "https://dc.lft.to/lastmile_qr_scan", "android": "https://dc.lft.to/lastmile_qr_scan"}, "lon": -77.05024183333333, "type": "electric_scooter", "fusion_lat": 0.0, "lat": 38.923504, "name": "6e8e7ca2e431acfdf7e79c423cf1e9a4", "fusion_lon": 0.0, "bike_id": "6e8e7ca2e431acfdf7e79c423cf1e9a4", "is_disabled": 0, "is_reserved": 0}, {"rental_uris": {"ios": "https://dc.lft.to/lastmile_qr_scan", "android": "https://dc.lft.to/lastmile_qr_scan"}, "lon": -77.0216805, "type": "electric_scooter", "fusion_lat": 0.0, "lat": 38.9260815, "name": "310cad4992d063d0ef92272e0a9d46ea", "fusion_lon": 0.0, "bike_id": "310cad4992d063d0ef92272e0a9d46ea", "is_disabled": 0, "is_reserved": 0}, {"rental_uris": {"ios": "https://dc.lft.to/lastmile_qr_scan", "android": "https://dc.lft.to/lastmile_qr_scan"}, "lon": -76.93177316666667, "type": "electric_scooter", "fusion_lat": 0.0, "lat": 38.898850833333334, "name": "5dd6d547258e5fad62d8bd69b566cc85", "fusion_lon": 0.0, "bike_id": "5dd6d547258e5fad62d8bd69b566cc85", "is_disabled": 0, "is_reserved": 0}, {"rental_uris": {"ios": "https://dc.lft.to/lastmile_qr_scan", "android": "https://dc.lft.to/lastmile_qr_scan"}, "lon": -77.02764583333334, "type": "electric_scooter", "fusion_lat": 0.0, "lat": 38.913435, "name": "14eea0f07b18e0efc957ef434b05e7f1", "fusion_lon": 0.0, "bike_id": "14eea0f07b18e0efc957ef434b05e7f1", "is_disabled": 0, "is_reserved": 0}, {"rental_uris": {"ios": "https://dc.lft.to/lastmile_qr_scan", "android": "https://dc.lft.to/lastmile_qr_scan"}, "lon": -77.00221666666667, "type": "electric_scooter", "fusion_lat": 0.0, "lat": 38.90037816666667, "name": "6e886f376b61840bf754b1a4f96c3198", "fusion_lon": 0.0, "bike_id": "6e886f376b61840bf754b1a4f96c3198", "is_disabled": 0, "is_reserved": 0}, {"rental_uris": {"ios": "https://dc.lft.to/lastmile_qr_scan", "android": "https://dc.lft.to/lastmile_qr_scan"}, "lon": -77.10685766666667, "type": "electric_bike", "fusion_lat": 0.0, "lat": 38.935803666666665, "name": "d7f92a4c86aebe1d0dc17708e90a5ba2", "fusion_lon": 0.0, "bike_id": "d7f92a4c86aebe1d0dc17708e90a5ba2", "is_disabled": 0, "is_reserved": 0}, {"rental_uris": {"ios": "https://dc.lft.to/lastmile_qr_scan", "android": "https://dc.lft.to/lastmile_qr_scan"}, "lon": -77.010788, "type": "electric_scooter", "fusion_lat": 0.0, "lat": 38.89482483333333, "name": "21779528affaa050baf01e7bdd55d992", "fusion_lon": 0.0, "bike_id": "21779528affaa050baf01e7bdd55d992", "is_disabled": 0, "is_reserved": 0}, {"rental_uris": {"ios": "https://dc.lft.to/lastmile_qr_scan", "android": "https://dc.lft.to/lastmile_qr_scan"}, "lon": -77.0429815, "type": "electric_scooter", "fusion_lat": 0.0, "lat": 38.902793833333334, "name": "9315df591b419aa82ae81c38fda0507c", "fusion_lon": 0.0, "bike_id": "9315df591b419aa82ae81c38fda0507c", "is_disabled": 0, "is_reserved": 0}, {"rental_uris": {"ios": "https://dc.lft.to/lastmile_qr_scan", "android": "https://dc.lft.to/lastmile_qr_scan"}, "lon": -76.99689266666667, "type": "electric_scooter", "fusion_lat": 0.0, "lat": 38.90493466666667, "name": "7d58010032b4f29f6e7a4a56e43e9148", "fusion_lon": 0.0, "bike_id": "7d58010032b4f29f6e7a4a56e43e9148", "is_disabled": 0, "is_reserved": 0}, {"rental_uris": {"ios": "https://dc.lft.to/lastmile_qr_scan", "android": "https://dc.lft.to/lastmile_qr_scan"}, "lon": -77.05124883333333, "type": "electric_scooter", "fusion_lat": 0.0, "lat": 38.92361316666667, "name": "f1209f3351e0e963182f7987baae74e6", "fusion_lon": 0.0, "bike_id": "f1209f3351e0e963182f7987baae74e6", "is_disabled": 0, "is_reserved": 0}, {"rental_uris": {"ios": "https://dc.lft.to/lastmile_qr_scan", "android": "https://dc.lft.to/lastmile_qr_scan"}, "lon": -77.0183715, "type": "electric_bike", "fusion_lat": 0.0, "lat": 38.9086495, "name": "7dd68af4019ff1e29c145eceedfd51cd", "fusion_lon": 0.0, "bike_id": "7dd68af4019ff1e29c145eceedfd51cd", "is_disabled": 0, "is_reserved": 0}, {"rental_uris": {"ios": "https://dc.lft.to/lastmile_qr_scan", "android": "https://dc.lft.to/lastmile_qr_scan"}, "lon": -77.031876, "type": "electric_scooter", "fusion_lat": 0.0, "lat": 38.9185945, "name": "996f5a52ba2c1c2959aa462916ec9563", "fusion_lon": 0.0, "bike_id": "996f5a52ba2c1c2959aa462916ec9563", "is_disabled": 0, "is_reserved": 0}, {"rental_uris": {"ios": "https://dc.lft.to/lastmile_qr_scan", "android": "https://dc.lft.to/lastmile_qr_scan"}, "lon": -77.04660466666667, "type": "electric_scooter", "fusion_lat": 0.0, "lat": 38.89337583333333, "name": "cd9e279475007f37f632021b26f205e8", "fusion_lon": 0.0, "bike_id": "cd9e279475007f37f632021b26f205e8", "is_disabled": 0, "is_reserved": 0}, {"rental_uris": {"ios": "https://dc.lft.to/lastmile_qr_scan", "android": "https://dc.lft.to/lastmile_qr_scan"}, "lon": -77.03226133333334, "type": "electric_scooter", "fusion_lat": 0.0, "lat": 38.918111833333334, "name": "9e2200ec3e2210035577f98853aa3033", "fusion_lon": 0.0, "bike_id": "9e2200ec3e2210035577f98853aa3033", "is_disabled": 0, "is_reserved": 0}, {"rental_uris": {"ios": "https://dc.lft.to/lastmile_qr_scan", "android": "https://dc.lft.to/lastmile_qr_scan"}, "lon": -77.02217283333333, "type": "electric_scooter", "fusion_lat": 0.0, "lat": 38.9057075, "name": "fc0a9431a98facca55b9e1f855823e33", "fusion_lon": 0.0, "bike_id": "fc0a9431a98facca55b9e1f855823e33", "is_disabled": 0, "is_reserved": 0}, {"rental_uris": {"ios": "https://dc.lft.to/lastmile_qr_scan", "android": "https://dc.lft.to/lastmile_qr_scan"}, "lon": -77.04907766666666, "type": "electric_scooter", "fusion_lat": 0.0, "lat": 38.90538316666667, "name": "ffe795bb341026f03368387cac095439", "fusion_lon": 0.0, "bike_id": "ffe795bb341026f03368387cac095439", "is_disabled": 0, "is_reserved": 0}, {"rental_uris": {"ios": "https://dc.lft.to/lastmile_qr_scan", "android": "https://dc.lft.to/lastmile_qr_scan"}, "lon": -77.0007115, "type": "electric_scooter", "fusion_lat": 0.0, "lat": 38.900495, "name": "0f7ba9c044472f2d0934e0a24a00db4a", "fusion_lon": 0.0, "bike_id": "0f7ba9c044472f2d0934e0a24a00db4a", "is_disabled": 0, "is_reserved": 0}, {"rental_uris": {"ios": "https://dc.lft.to/lastmile_qr_scan", "android": "https://dc.lft.to/lastmile_qr_scan"}, "lon": -77.03213416666667, "type": "electric_scooter", "fusion_lat": 0.0, "lat": 38.91251366666667, "name": "c168ca64b9688fdf62366610a4a3e609", "fusion_lon": 0.0, "bike_id": "c168ca64b9688fdf62366610a4a3e609", "is_disabled": 0, "is_reserved": 0}, {"rental_uris": {"ios": "https://dc.lft.to/lastmile_qr_scan", "android": "https://dc.lft.to/lastmile_qr_scan"}, "lon": -77.00337383333333, "type": "electric_bike", "fusion_lat": 0.0, "lat": 38.91984883333333, "name": "9f4ec58c7531772b9abf0a8fcacb36e6", "fusion_lon": 0.0, "bike_id": "9f4ec58c7531772b9abf0a8fcacb36e6", "is_disabled": 0, "is_reserved": 0}, {"rental_uris": {"ios": "https://dc.lft.to/lastmile_qr_scan", "android": "https://dc.lft.to/lastmile_qr_scan"}, "lon": -77.06677466666666, "type": "electric_scooter", "fusion_lat": 0.0, "lat": 38.914038, "name": "026776fefedd02a0b968cda0fd1a9648", "fusion_lon": 0.0, "bike_id": "026776fefedd02a0b968cda0fd1a9648", "is_disabled": 0, "is_reserved": 0}, {"rental_uris": {"ios": "https://dc.lft.to/lastmile_qr_scan", "android": "https://dc.lft.to/lastmile_qr_scan"}, "lon": -77.06607383333333, "type": "electric_scooter", "fusion_lat": 0.0, "lat": 38.905211333333334, "name": "5e6bea8d3bcb9585d6b3b19756020854", "fusion_lon": 0.0, "bike_id": "5e6bea8d3bcb9585d6b3b19756020854", "is_disabled": 0, "is_reserved": 0}, {"rental_uris": {"ios": "https://dc.lft.to/lastmile_qr_scan", "android": "https://dc.lft.to/lastmile_qr_scan"}, "lon": -77.05226233333333, "type": "electric_scooter", "fusion_lat": 0.0, "lat": 38.89819683333333, "name": "6d83ec2947598d8430eda4d90d2227a9", "fusion_lon": 0.0, "bike_id": "6d83ec2947598d8430eda4d90d2227a9", "is_disabled": 0, "is_reserved": 0}, {"rental_uris": {"ios": "https://dc.lft.to/lastmile_qr_scan", "android": "https://dc.lft.to/lastmile_qr_scan"}, "lon": -77.01155283333334, "type": "electric_scooter", "fusion_lat": 0.0, "lat": 38.90022733333333, "name": "6cb79c1770c9c669823c3293f85294aa", "fusion_lon": 0.0, "bike_id": "6cb79c1770c9c669823c3293f85294aa", "is_disabled": 0, "is_reserved": 0}, {"rental_uris": {"ios": "https://dc.lft.to/lastmile_qr_scan", "android": "https://dc.lft.to/lastmile_qr_scan"}, "lon": -76.9756425, "type": "electric_scooter", "fusion_lat": 0.0, "lat": 38.90445233333333, "name": "39fdfd25f6023f4719b054fb2d07b0a9", "fusion_lon": 0.0, "bike_id": "39fdfd25f6023f4719b054fb2d07b0a9", "is_disabled": 0, "is_reserved": 0}, {"rental_uris": {"ios": "https://dc.lft.to/lastmile_qr_scan", "android": "https://dc.lft.to/lastmile_qr_scan"}, "lon": -77.0383595, "type": "electric_scooter", "fusion_lat": 0.0, "lat": 38.911189666666665, "name": "ecd89c035e316a644e728dc6be921a05", "fusion_lon": 0.0, "bike_id": "ecd89c035e316a644e728dc6be921a05", "is_disabled": 0, "is_reserved": 0}, {"rental_uris": {"ios": "https://dc.lft.to/lastmile_qr_scan", "android": "https://dc.lft.to/lastmile_qr_scan"}, "lon": -77.04332383333333, "type": "electric_scooter", "fusion_lat": 0.0, "lat": 38.926184, "name": "84ee91a890f20d0c6d45204988d280a5", "fusion_lon": 0.0, "bike_id": "84ee91a890f20d0c6d45204988d280a5", "is_disabled": 0, "is_reserved": 0}, {"rental_uris": {"ios": "https://dc.lft.to/lastmile_qr_scan", "android": "https://dc.lft.to/lastmile_qr_scan"}, "lon": -77.046458, "type": "electric_scooter", "fusion_lat": 0.0, "lat": 38.896491833333336, "name": "1e8f05c7c396691b0afe655b81221c59", "fusion_lon": 0.0, "bike_id": "1e8f05c7c396691b0afe655b81221c59", "is_disabled": 0, "is_reserved": 0},