{"data": {"bikes": [{"name": "14671a4ff020bbda39ddeaa47af61ab4", "type": "electric_scooter", "lat": 38.96723933333333, "is_reserved": 0, "lon": -77.023473, "fusion_lon": 0.0, "is_disabled": 0, "fusion_lat": 0.0, "bike_id": "14671a4ff020bbda39ddeaa47af61ab4", "rental_uris": {"ios": "https://dc.lft.to/lastmile_qr_scan", "android": "https://dc.lft.to/lastmile_qr_scan"}}, {"name": "a30203e5c5ed95092d453916ce01ff0c", "type": "electric_scooter", "lat": 38.92756983333334, "is_reserved": 0, "lon": -77.0538355, "fusion_lon": 0.0, "is_disabled": 0, "fusion_lat": 0.0, "bike_id": "a30203e5c5ed95092d453916ce01ff0c", "rental_uris": {"ios": "https://dc.lft.to/lastmile_qr_scan", "android": "https://dc.lft.to/lastmile_qr_scan"}}, {"name": "12e7277be911d380e45e325f73af9164", "type": "electric_bike", "lat": 38.852464833333336, "is_reserved": 0, "lon": -77.11423783333333, "fusion_lon": 0.0, "is_disabled": 0, "fusion_lat": 0.0, "bike_id": "12e7277be911d380e45e325f73af9164", "rental_uris": {"ios": "https://dc.lft.to/lastmile_qr_scan", "android": "https://dc.lft.to/lastmile_qr_scan"}}, {"name": "eef68170ade949dcc7f23daf346711d6", "type": "electric_scooter", "lat": 38.92859966666666, "is_reserved": 0, "lon": -77.02606683333333, "fusion_lon": 0.0, "is_disabled": 0, "fusion_lat": 0.0, "bike_id": "eef68170ade949dcc7f23daf346711d6", "rental_uris": {"ios": "https://dc.lft.to/lastmile_qr_scan", "android": "https://dc.lft.to/lastmile_qr_scan"}}, {"name": "945e09e8e434ba02460a6fb37ed73bbd", "type": "electric_scooter", "lat": 38.88715116666667, "is_reserved": 0, "lon": -77.0177525, "fusion_lon": 0.0, "is_disabled": 0, "fusion_lat": 0.0, "bike_id": "945e09e8e434ba02460a6fb37ed73bbd", "rental_uris": {"ios": "https://dc.lft.to/lastmile_qr_scan", "android": "https://dc.lft.to/lastmile_qr_scan"}}, {"name": "9b6a82c40f7b8140c045a16fd5e3a4d9", "type": "electric_scooter", "lat": 38.90481666666667, "is_reserved": 0, "lon": -77.04179583333334, "fusion_lon": 0.0, "is_disabled": 0, "fusion_lat": 0.0, "bike_id": "9b6a82c40f7b8140c045a16fd5e3a4d9", "rental_uris": {"ios": "https://dc.lft.to/lastmile_qr_scan", "android": "https://dc.lft.to/lastmile_qr_scan"}}, {"name": "be40d2cdf0dbec2bcaa450384b143dec", "type": "electric_scooter", "lat": 38.93520183333333, "is_reserved": 0, "lon": -77.03316533333333, "fusion_lon": 0.0, "is_disabled": 0, "fusion_lat": 0.0, "bike_id": "be40d2cdf0dbec2bcaa450384b143dec", "rental_uris": {"ios": "https://dc.lft.to/lastmile_qr_scan", "android": "https://dc.lft.to/lastmile_qr_scan"}}, {"name": "d870cdc1f755c0f115af93ff741b04b8", "type": "electric_scooter", "lat": 38.90284916666667, "is_reserved": 0, "lon": -77.03851383333334, "fusion_lon": 0.0, "is_disabled": 0, "fusion_lat": 0.0, "bike_id": "d870cdc1f755c0f115af93ff741b04b8", "rental_uris": {"ios": "https://dc.lft.to/lastmile_qr_scan", "android": "https://dc.lft.to/lastmile_qr_scan"}}, {"name": "7ea8befdbf71f7dbade4324c2994d080", "type": "electric_scooter", "lat": 38.90128816666667, "is_reserved": 0, "lon": -77.04968583333333, "fusion_lon": 0.0, "is_disabled": 0, "fusion_lat": 0.0, "bike_id": "7ea8befdbf71f7dbade4324c2994d080", "rental_uris": {"ios": "https://dc.lft.to/lastmile_qr_scan", "android": "https://dc.lft.to/lastmile_qr_scan"}}, {"name": "d26af304d0af5095912407ff8bbbfe0a", "type": "electric_scooter", "lat": 38.9211485, "is_reserved": 0, "lon": -77.036575, "fusion_lon": 0.0, "is_disabled": 0, "fusion_lat": 0.0, "bike_id": "d26af304d0af5095912407ff8bbbfe0a", "rental_uris": {"ios": "https://dc.lft.to/lastmile_qr_scan", "android": "https://dc.lft.to/lastmile_qr_scan"}}, {"name": "2aa97462e6b3e5f4c7b21a3b9ff84c17", "type": "electric_scooter", "lat": 38.899560666666666, "is_reserved": 0, "lon": -77.02948383333333, "fusion_lon": 0.0, "is_disabled": 0, "fusion_lat": 0.0, "bike_id": "2aa97462e6b3e5f4c7b21a3b9ff84c17", "rental_uris": {"ios": "https://dc.lft.to/lastmile_qr_scan", "android": "https://dc.lft.to/lastmile_qr_scan"}}, {"name": "1a0ceea8e4be65845f28f72bd02c4f12", "type": "electric_scooter", "lat": 38.84286216666667, "is_reserved": 0, "lon": -76.99942566666667, "fusion_lon": 0.0, "is_disabled": 0, "fusion_lat": 0.0, "bike_id": "1a0ceea8e4be65845f28f72bd02c4f12", "rental_uris": {"ios": "https://dc.lft.to/lastmile_qr_scan", "android": "https://dc.lft.to/lastmile_qr_scan"}}, {"name": "387222cfe93e6aecd9fdb66f1d157699", "type": "electric_scooter", "lat": 38.919102333333335, "is_reserved": 0, "lon": -77.030091, "fusion_lon": 0.0, "is_disabled": 0, "fusion_lat": 0.0, "bike_id": "387222cfe93e6aecd9fdb66f1d157699", "rental_uris": {"ios": "https://dc.lft.to/lastmile_qr_scan", "android": "https://dc.lft.to/lastmile_qr_scan"}}, {"name": "defdfedb1c70b11fc3181ae26058f6a0", "type": "electric_scooter", "lat": 38.90195, "is_reserved": 0, "lon": -77.02156916666667, "fusion_lon": 0.0, "is_disabled": 0, "fusion_lat": 0.0, "bike_id": "defdfedb1c70b11fc3181ae26058f6a0", "rental_uris": {"ios": "https://dc.lft.to/lastmile_qr_scan", "android": "https://dc.lft.to/lastmile_qr_scan"}}, {"name": "356d87dfd3cc443f81d604ff8a1e9972", "type": "electric_scooter", "lat": 38.876348166666666, "is_reserved": 0, "lon": -77.00917216666667, "fusion_lon": 0.0, "is_disabled": 0, "fusion_lat": 0.0, "bike_id": "356d87dfd3cc443f81d604ff8a1e9972", "rental_uris": {"ios": "https://dc.lft.to/lastmile_qr_scan", "android": "https://dc.lft.to/lastmile_qr_scan"}}, {"name": "f3019f07bb87f39a3709aebaf54b1275", "type": "electric_scooter", "lat": 38.8770905, "is_reserved": 0, "lon": -77.01829816666667, "fusion_lon": 0.0, "is_disabled": 0, "fusion_lat": 0.0, "bike_id": "f3019f07bb87f39a3709aebaf54b1275", "rental_uris": {"ios": "https://dc.lft.to/lastmile_qr_scan", "android": "https://dc.lft.to/lastmile_qr_scan"}}, {"name": "8b247773852fb55f065067f284b1f3c1", "type": "electric_scooter", "lat": 38.92875016666667, "is_reserved": 0, "lon": -77.04048016666667, "fusion_lon": 0.0, "is_disabled": 0, "fusion_lat": 0.0, "bike_id": "8b247773852fb55f065067f284b1f3c1", "rental_uris": {"ios": "https://dc.lft.to/lastmile_qr_scan", "android": "https://dc.lft.to/lastmile_qr_scan"}}, {"name": "ed5993fc6cc4bd8eadc858ef494c5516", "type": "electric_bike", "lat": 38.936669, "is_reserved": 0, "lon": -76.95207066666667, "fusion_lon": 0.0, "is_disabled": 0, "fusion_lat": 0.0, "bike_id": "ed5993fc6cc4bd8eadc858ef494c5516", "rental_uris": {"ios": "https://dc.lft.to/lastmile_qr_scan", "android": "https://dc.lft.to/lastmile_qr_scan"}}, {"name": "d8cbed0acd9ddc558fb1c51e9ad722af", "type": "electric_bike", "lat": 38.95467766666667, "is_reserved": 0, "lon": -76.99008983333333, "fusion_lon": 0.0, "is_disabled": 0, "fusion_lat": 0.0, "bike_id": "d8cbed0acd9ddc558fb1c51e9ad722af", "rental_uris": {"ios": "https://dc.lft.to/lastmile_qr_scan", "android": "https://dc.lft.to/lastmile_qr_scan"}}, {"name": "ff2490fa18afca5895e0b5c0656c48b5", "type": "electric_bike", "lat": 38.880025833333335, "is_reserved": 0, "lon": -76.91591133333333, "fusion_lon": 0.0, "is_disabled": 0, "fusion_lat": 0.0, "bike_id": "ff2490fa18afca5895e0b5c0656c48b5", "rental_uris": {"ios": "https://dc.lft.to/lastmile_qr_scan", "android": "https://dc.lft.to/lastmile_qr_scan"}}, {"name": "b93d6a981fc980b19f8c8c826b34988f", "type": "electric_bike", "lat": 38.91858083333333, "is_reserved": 0, "lon": -76.96091066666666, "fusion_lon": 0.0, "is_disabled": 0, "fusion_lat": 0.0, "bike_id": "b93d6a981fc980b19f8c8c826b34988f", "rental_uris": {"ios": "https://dc.lft.to/lastmile_qr_scan", "android": "https://dc.lft.to/lastmile_qr_scan"}}, {"name": "33b12eb095df99a89b890729d8785a60", "type": "electric_bike", "lat": 38.9066455, "is_reserved": 0, "lon": -76.99959033333333, "fusion_lon": 0.0, "is_disabled": 0, "fusion_lat": 0.0, "bike_id": "33b12eb095df99a89b890729d8785a60", "rental_uris": {"ios": "https://dc.lft.to/lastmile_qr_scan", "android": "https://dc.lft.to/lastmile_qr_scan"}}, {"name": "de0a10a70a88f4c9f74ba95ee200cffd", "type": "electric_scooter", "lat": 38.92240966666667, "is_reserved": 0, "lon": -77.041421, "fusion_lon": 0.0, "is_disabled": 0, "fusion_lat": 0.0, "bike_id": "de0a10a70a88f4c9f74ba95ee200cffd", "rental_uris": {"ios": "https://dc.lft.to/lastmile_qr_scan", "android": "https://dc.lft.to/lastmile_qr_scan"}}, {"name": "72ba54bf8caeff11b3ff699a3f38524f", "type": "electric_scooter", "lat": 38.923156, "is_reserved": 0, "lon": -77.0447955, "fusion_lon": 0.0, "is_disabled": 0, "fusion_lat": 0.0, "bike_id": "72ba54bf8caeff11b3ff699a3f38524f", "rental_uris": {"ios": "https://dc.lft.to/lastmile_qr_scan", "android": "https://dc.lft.to/lastmile_qr_scan"}}, {"name": "1ec58e2e27d32dbcb4e572f55cd772a4", "type": "electric_scooter", "lat": 38.89247116666667, "is_reserved": 0, "lon": -77.03183633333333, "fusion_lon": 0.0, "is_disabled": 0, "fusion_lat": 0.0, "bike_id": "1ec58e2e27d32dbcb4e572f55cd772a4", "rental_uris": {"ios": "https://dc.lft.to/lastmile_qr_scan", "android": "https://dc.lft.to/lastmile_qr_scan"}}, {"name": "395fc55061ddbb07cee7e13e30e6a225", "type": "electric_bike", "lat": 38.898107833333334, "is_reserved": 0, "lon": -76.9906415, "fusion_lon": 0.0, "is_disabled": 0, "fusion_lat": 0.0, "bike_id": "395fc55061ddbb07cee7e13e30e6a225", "rental_uris": {"ios": "https://dc.lft.to/lastmile_qr_scan", "android": "https://dc.lft.to/lastmile_qr_scan"}}, {"name": "25c32a3e030574d1728de03c0dd11b84", "type": "electric_scooter", "lat": 38.92142033333333, "is_reserved": 0, "lon": -77.0345085, "fusion_lon": 0.0, "is_disabled": 0, "fusion_lat": 0.0, "bike_id": "25c32a3e030574d1728de03c0dd11b84", "rental_uris": {"ios": "https://dc.lft.to/lastmile_qr_scan", "android": "https://dc.lft.to/lastmile_qr_scan"}}, {"name": "b8d0413bba46462be7022d9ecf0982f1", "type": "electric_scooter", "lat": 38.917185333333336, "is_reserved": 0, "lon": -77.02296733333333, "fusion_lon": 0.0, "is_disabled": 0, "fusion_lat": 0.0, "bike_id": "b8d0413bba46462be7022d9ecf0982f1", "rental_uris": {"ios": "https://dc.lft.to/lastmile_qr_scan", "android": "https://dc.lft.to/lastmile_qr_scan"}}, {"name": "f5e8409d6ce285620a86e422dfafff5d", "type": "electric_scooter", "lat": 38.903703166666666, "is_reserved": 0, "lon": -77.016303, "fusion_lon": 0.0, "is_disabled": 0, "fusion_lat": 0.0, "bike_id": "f5e8409d6ce285620a86e422dfafff5d", "rental_uris": {"ios": "https://dc.lft.to/lastmile_qr_scan", "android": "https://dc.lft.to/lastmile_qr_scan"}}, {"name": "9433acc86268dffc3514fb3b719424ff", "type": "electric_scooter", "lat": 38.908966166666666, "is_reserved": 0, "lon": -77.08612383333333, "fusion_lon": 0.0, "is_disabled": 0, "fusion_lat": 0.0, "bike_id": "9433acc86268dffc3514fb3b719424ff", "rental_uris": {"ios": "https://dc.lft.to/lastmile_qr_scan", "android": "https://dc.lft.to/lastmile_qr_scan"}}, {"name": "9a73f88d2f3dc87d3a23723d4b94a1f2", "type": "electric_scooter", "lat": 38.899147, "is_reserved": 0, "lon": -76.93381383333333, "fusion_lon": 0.0, "is_disabled": 0, "fusion_lat": 0.0, "bike_id": "9a73f88d2f3dc87d3a23723d4b94a1f2", "rental_uris": {"ios": "https://dc.lft.to/lastmile_qr_scan", "android": "https://dc.lft.to/lastmile_qr_scan"}}, {"name": "419105023a4155fff16e8acc1a48fc52", "type": "electric_bike", "lat": 38.82447916666667, "is_reserved": 0, "lon": -77.0703985, "fusion_lon": 0.0, "is_disabled": 0, "fusion_lat": 0.0, "bike_id": "419105023a4155fff16e8acc1a48fc52", "rental_uris": {"ios": "https://dc.lft.to/lastmile_qr_scan", "android": "https://dc.lft.to/lastmile_qr_scan"}}, {"name": "6c4c5cbda206b60eb4e8f14c4ed15bbf", "type": "electric_scooter", "lat": 38.95647966666667, "is_reserved": 0, "lon": -77.03286233333333, "fusion_lon": 0.0, "is_disabled": 0, "fusion_lat": 0.0, "bike_id": "6c4c5cbda206b60eb4e8f14c4ed15bbf", "rental_uris": {"ios": "https://dc.lft.to/lastmile_qr_scan", "android": "https://dc.lft.to/lastmile_qr_scan"}}, {"name": "97933385558d39f6b72cfe18dd4d3247", "type": "electric_scooter", "lat": 38.935405833333334, "is_reserved": 0, "lon": -77.03418516666666, "fusion_lon": 0.0, "is_disabled": 0, "fusion_lat": 0.0, "bike_id": "97933385558d39f6b72cfe18dd4d3247", "rental_uris": {"ios": "https://dc.lft.to/lastmile_qr_scan", "android": "https://dc.lft.to/lastmile_qr_scan"}}, {"name": "5b910f7612d524b8c83d41c5ad0b63b8", "type": "electric_scooter", "lat": 38.95748716666667, "is_reserved": 0, "lon": -77.02417866666667, "fusion_lon": 0.0, "is_disabled": 0, "fusion_lat": 0.0, "bike_id": "5b910f7612d524b8c83d41c5ad0b63b8", "rental_uris": {"ios": "https://dc.lft.to/lastmile_qr_scan", "android": "https://dc.lft.to/lastmile_qr_scan"}}, {"name": "19ccecd97506bbd4cc4103e72dc6ee5b", "type": "electric_scooter", "lat": 38.86535383333333, "is_reserved": 0, "lon": -76.9870575, "fusion_lon": 0.0, "is_disabled": 0, "fusion_lat": 0.0, "bike_id": "19ccecd97506bbd4cc4103e72dc6ee5b", "rental_uris": {"ios": "https://dc.lft.to/lastmile_qr_scan", "android": "https://dc.lft.to/lastmile_qr_scan"}}, {"name": "2c393926f0b5e2bda1c88b6ebcef79ca", "type": "electric_scooter", "lat": 38.915511, "is_reserved": 0, "lon": -77.02259233333334, "fusion_lon": 0.0, "is_disabled": 0, "fusion_lat": 0.0, "bike_id": "2c393926f0b5e2bda1c88b6ebcef79ca", "rental_uris": {"ios": "https://dc.lft.to/lastmile_qr_scan", "android": "https://dc.lft.to/lastmile_qr_scan"}}, {"name": "b1cbe37b22c7e1902701b3af2bf2b631", "type": "electric_bike", "lat": 38.901772333333334, "is_reserved": 0, "lon": -77.05102933333333, "fusion_lon": 0.0, "is_disabled": 0, "fusion_lat": 0.0, "bike_id": "b1cbe37b22c7e1902701b3af2bf2b631", "rental_uris": {"ios": "https://dc.lft.to/lastmile_qr_scan", "android": "https://dc.lft.to/lastmile_qr_scan"}}, {"name": "37abb7cb0e6a873c621ca8eb14d143cd", "type": "electric_bike", "lat": 38.928572, "is_reserved": 0, "lon": -77.22214516666666, "fusion_lon": 0.0, "is_disabled": 0, "fusion_lat": 0.0, "bike_id": "37abb7cb0e6a873c621ca8eb14d143cd", "rental_uris": {"ios": "https://dc.lft.to/lastmile_qr_scan", "android": "https://dc.lft.to/lastmile_qr_scan"}}, {"name": "812bcdb8dddde04a345a1a2e99a1ae11", "type": "electric_bike", "lat": 38.938803, "is_reserved": 0, "lon": -76.95408333333333, "fusion_lon": 0.0, "is_disabled": 0, "fusion_lat": 0.0, "bike_id": "812bcdb8dddde04a345a1a2e99a1ae11", "rental_uris": {"ios": "https://dc.lft.to/lastmile_qr_scan", "android": "https://dc.lft.to/lastmile_qr_scan"}}, {"name": "09d019c2fcc4242ec2ae4f66c93d1975", "type": "electric_bike", "lat": 39.08853216666667, "is_reserved": 0, "lon": -77.178333, "fusion_lon": 0.0, "is_disabled": 0, "fusion_lat": 0.0, "bike_id": "09d019c2fcc4242ec2ae4f66c93d1975", "rental_uris": {"ios": "https://dc.lft.to/lastmile_qr_scan", "android": "https://dc.lft.to/lastmile_qr_scan"}}, {"name": "8555320f171b02aed18b561dc3f96901", "type": "electric_bike", "lat": 38.9508115, "is_reserved": 0, "lon": -77.01224816666667, "fusion_lon": 0.0, "is_disabled": 0, "fusion_lat": 0.0, "bike_id": "8555320f171b02aed18b561dc3f96901", "rental_uris": {"ios": "https://dc.lft.to/lastmile_qr_scan", "android": "https://dc.lft.to/lastmile_qr_scan"}}, {"name": "50ecbf2851863d3c6220371bd54d4701", "type": "electric_bike", "lat": 38.9248705, "is_reserved": 0, "lon": -77.07329366666667, "fusion_lon": 0.0, "is_disabled": 0, "fusion_lat": 0.0, "bike_id": "50ecbf2851863d3c6220371bd54d4701", "rental_uris": {"ios": "https://dc.lft.to/lastmile_qr_scan", "android": "https://dc.lft.to/lastmile_qr_scan"}}, {"name": "16632e7bb77782862534a5af23ce057a", "type": "electric_scooter", "lat": 38.9032325, "is_reserved": 0, "lon": -77.03334583333333, "fusion_lon": 0.0, "is_disabled": 0, "fusion_lat": 0.0, "bike_id": "16632e7bb77782862534a5af23ce057a", "rental_uris": {"ios": "https://dc.lft.to/lastmile_qr_scan", "android": "https://dc.lft.to/lastmile_qr_scan"}}, {"name": "deee0118fefe5b12508d8b9545af473c", "type": "electric_scooter", "lat": 38.8981595, "is_reserved": 0, "lon": -77.0329965, "fusion_lon": 0.0, "is_disabled": 0, "fusion_lat": 0.0, "bike_id": "deee0118fefe5b12508d8b9545af473c", "rental_uris": {"ios": "https://dc.lft.to/lastmile_qr_scan", "android": "https://dc.lft.to/lastmile_qr_scan"}}, {"name": "787068f05678646ac32733c3ba1eeb5b", "type": "electric_scooter", "lat": 38.915538833333336, "is_reserved": 0, "lon": -77.021672, "fusion_lon": 0.0, "is_disabled": 0, "fusion_lat": 0.0, "bike_id": "787068f05678646ac32733c3ba1eeb5b", "rental_uris": {"ios": "https://dc.lft.to/lastmile_qr_scan", "android": "https://dc.lft.to/lastmile_qr_scan"}}, {"name": "af43caf6241a4c13d11df52bacc19e51", "type": "electric_scooter", "lat": 38.91422516666667, "is_reserved": 0, "lon": -77.022021, "fusion_lon": 0.0, "is_disabled": 0, "fusion_lat": 0.0, "bike_id": "af43caf6241a4c13d11df52bacc19e51", "rental_uris": {"ios": "https://dc.lft.to/lastmile_qr_scan", "android": "https://dc.lft.to/lastmile_qr_scan"}}, {"name": "6bc97def41cb5eec6f907c22b356b584", "type": "electric_scooter", "lat": 38.92674383333333, "is_reserved": 0, "lon": -77.0149755, "fusion_lon": 0.0, "is_disabled": 0, "fusion_lat": 0.0, "bike_id": "6bc97def41cb5eec6f907c22b356b584", "rental_uris": {"ios": "https://dc.lft.to/lastmile_qr_scan", "android": "https://dc.lft.to/lastmile_qr_scan"}}, {"name": "0a8f18e89b52e416ca026d75e4dda6c6", "type": "electric_bike", "lat": 38.880371833333335, "is_reserved": 0, "lon": -77.0132305, "fusion_lon": 0.0, "is_disabled": 0, "fusion_lat": 0.0, "bike_id": "0a8f18e89b52e416ca026d75e4dda6c6", "rental_uris": {"ios": "https://dc.lft.to/lastmile_qr_scan", "android": "https://dc.lft.to/lastmile_qr_scan"}}, {"name": "ecbb8c1138ae6de65298e782ca3bb0a0", "type": "electric_scooter", "lat": 38.90594133333333, "is_reserved": 0, "lon": -77.01606866666667, "fusion_lon": 0.0, "is_disabled": 0, "fusion_lat": 0.0, "bike_id": "ecbb8c1138ae6de65298e782ca3bb0a0", "rental_uris": {"ios": "https://dc.lft.to/lastmile_qr_scan", "android": "https://dc.lft.to/lastmile_qr_scan"}}, {"name": "37eaa8707bdbd705a6fea970c198f986", "type": "electric_scooter", "lat": 38.91458866666667, "is_reserved": 0, "lon": -77.03843066666667, "fusion_lon": 0.0, "is_disabled": 0, "fusion_lat": 0.0, "bike_id": "37eaa8707bdbd705a6fea970c198f986", "rental_uris": {"ios": "https://dc.lft.to/lastmile_qr_scan", "android": "https://dc.lft.to/lastmile_qr_scan"}}, {"name": "391d03325e03d61df19a69fbcce6b292", "type": "electric_scooter", "lat": 38.910931833333336, "is_reserved": 0, "lon": -77.04478833333333, "fusion_lon": 0.0, "is_disabled": 0, "fusion_lat": 0.0, "bike_id": "391d03325e03d61df19a69fbcce6b292", "rental_uris": {"ios": "https://dc.lft.to/lastmile_qr_scan", "android": "https://dc.lft.to/lastmile_qr_scan"}}, {"name": "8d98e0e36870fc09aab6860298f0f89d", "type": "electric_bike", "lat": 38.842743666666664, "is_reserved": 0, "lon": -76.9884275, "fusion_lon": 0.0, "is_disabled": 0, "fusion_lat": 0.0, "bike_id": "8d98e0e36870fc09aab6860298f0f89d", "rental_uris": {"ios": "https://dc.lft.to/lastmile_qr_scan", "android": "https://dc.lft.to/lastmile_qr_scan"}}, {"name": "bcc9eea58cc644d362c5d19033615880", "type": "electric_scooter", "lat": 38.90011283333333, "is_reserved": 0, "lon": -77.01173, "fusion_lon": 0.0, "is_disabled": 0, "fusion_lat": 0.0, "bike_id": "bcc9eea58cc644d362c5d19033615880", "rental_uris": {"ios": "https://dc.lft.to/lastmile_qr_scan", "android": "https://dc.lft.to/lastmile_qr_scan"}}, {"name": "6ab0345f11d984ac9f4d6a2f9362dfa6", "type": "electric_bike", "lat": 38.83931233333333, "is_reserved": 0, "lon": -77.07902333333334, "fusion_lon": 0.0, "is_disabled": 0, "fusion_lat": 0.0, "bike_id": "6ab0345f11d984ac9f4d6a2f9362dfa6", "rental_uris": {"ios": "https://dc.lft.to/lastmile_qr_scan", "android": "https://dc.lft.to/lastmile_qr_scan"}}, {"name": "04ee429aaf2da5a0315d535a1f6fec4b", "type": "electric_scooter", "lat": 38.893253333333334, "is_reserved": 0, "lon": -76.92992716666667, "fusion_lon": 0.0, "is_disabled": 0, "fusion_lat": 0.0, "bike_id": "04ee429aaf2da5a0315d535a1f6fec4b", "rental_uris": {"ios": "https://dc.lft.to/lastmile_qr_scan", "android": "https://dc.lft.to/lastmile_qr_scan"}}, {"name": "49e18e7a28591d8127f586f424235098", "type": "electric_scooter", "lat": 38.92283116666667, "is_reserved": 0, "lon": -77.036612, "fusion_lon": 0.0, "is_disabled": 0, "fusion_lat": 0.0, "bike_id": "49e18e7a28591d8127f586f424235098", "rental_uris": {"ios": "https://dc.lft.to/lastmile_qr_scan", "android": "https://dc.lft.to/lastmile_qr_scan"}}, {"name": "f10655d6e88b1c78c30b8c086f6a7103", "type": "electric_scooter", "lat": 38.906650666666664, "is_reserved": 0, "lon": -77.03857883333333, "fusion_lon": 0.0, "is_disabled": 0, "fusion_lat": 0.0, "bike_id": "f10655d6e88b1c78c30b8c086f6a7103", "rental_uris": {"ios": "https://dc.lft.to/lastmile_qr_scan", "android": "https://dc.lft.to/lastmile_qr_scan"}}, {"name": "9ddd7a289624e51bb174c7cf3bd645ab", "type": "electric_scooter", "lat": 38.9363115, "is_reserved": 0, "lon": -77.03691116666667, "fusion_lon": 0.0, "is_disabled": 0, "fusion_lat": 0.0, "bike_id": "9ddd7a289624e51bb174c7cf3bd645ab", "rental_uris": {"ios": "https://dc.lft.to/lastmile_qr_scan", "android": "https://dc.lft.to/lastmile_qr_scan"}}, {"name": "4ac4a71a78020abfb42e7623363a97c0", "type": "electric_scooter", "lat": 38.90997216666667, "is_reserved": 0, "lon": -77.0400535, "fusion_lon": 0.0, "is_disabled": 0, "fusion_lat": 0.0, "bike_id": "4ac4a71a78020abfb42e7623363a97c0", "rental_uris": {"ios": "https://dc.lft.to/lastmile_qr_scan", "android": "https://dc.lft.to/lastmile_qr_scan"}}, {"name": "b634a95af4af7f60861956e471b172c7", "type": "electric_scooter", "lat": 38.828977333333334, "is_reserved": 0, "lon": -76.99693666666667, "fusion_lon": 0.0, "is_disabled": 0, "fusion_lat": 0.0, "bike_id": "b634a95af4af7f60861956e471b172c7", "rental_uris": {"ios": "https://dc.lft.to/lastmile_qr_scan", "android": "https://dc.lft.to/lastmile_qr_scan"}}, {"name": "fbd472e659ab41e59f8943b79e15d3c5", "type": "electric_scooter", "lat": 38.8861065, "is_reserved": 0, "lon": -76.995123, "fusion_lon": 0.0, "is_disabled": 0, "fusion_lat": 0.0, "bike_id": "fbd472e659ab41e59f8943b79e15d3c5", "rental_uris": {"ios": "https://dc.lft.to/lastmile_qr_scan", "android": "https://dc.lft.to/lastmile_qr_scan"}}, {"name": "4be2623ee66ca91f19acb6859f627188", "type": "electric_scooter", "lat": 38.9074985, "is_reserved": 0, "lon": -77.030751, "fusion_lon": 0.0, "is_disabled": 0, "fusion_lat": 0.0, "bike_id": "4be2623ee66ca91f19acb6859f627188", "rental_uris": {"ios": "https://dc.lft.to/lastmile_qr_scan", "android": "https://dc.lft.to/lastmile_qr_scan"}}, {"name": "ba2e586bf69be4ece7968710485b8040", "type": "electric_bike", "lat": 38.941510666666666, "is_reserved": 0, "lon": -77.00200866666667, "fusion_lon": 0.0, "is_disabled": 0, "fusion_lat": 0.0, "bike_id": "ba2e586bf69be4ece7968710485b8040", "rental_uris": {"ios": "https://dc.lft.to/lastmile_qr_scan", "android": "https://dc.lft.to/lastmile_qr_scan"}}, {"name": "28a1062785d923fc6ecacf68c0acdf29", "type": "electric_scooter", "lat": 38.9215665, "is_reserved": 0, "lon": -77.03856783333333, "fusion_lon": 0.0, "is_disabled": 0, "fusion_lat": 0.0, "bike_id": "28a1062785d923fc6ecacf68c0acdf29", "rental_uris": {"ios": "https://dc.lft.to/lastmile_qr_scan", "android": "https://dc.lft.to/lastmile_qr_scan"}}, {"name": "40dc11a5f8a22bd1bea44bf1aa8715c3", "type": "electric_scooter", "lat": 38.905289833333335, "is_reserved": 0, "lon": -77.05017416666666, "fusion_lon": 0.0, "is_disabled": 0, "fusion_lat": 0.0, "bike_id": "40dc11a5f8a22bd1bea44bf1aa8715c3", "rental_uris": {"ios": "https://dc.lft.to/lastmile_qr_scan", "android": "https://dc.lft.to/lastmile_qr_scan"}}, {"name": "44dc37c9b42ffee0a98bd590580ed854", "type": "electric_scooter", "lat": 38.8997585, "is_reserved": 0, "lon": -76.99143216666667, "fusion_lon": 0.0, "is_disabled": 0, "fusion_lat": 0.0, "bike_id": "44dc37c9b42ffee0a98bd590580ed854", "rental_uris": {"ios": "https://dc.lft.to/lastmile_qr_scan", "android": "https://dc.lft.to/lastmile_qr_scan"}}, {"name": "d4c15899c2b82f5382e431654e14b38c", "type": "electric_scooter", "lat": 38.8762435, "is_reserved": 0, "lon": -76.9652165, "fusion_lon": 0.0, "is_disabled": 0, "fusion_lat": 0.0, "bike_id": "d4c15899c2b82f5382e431654e14b38c", "rental_uris": {"ios": "https://dc.lft.to/lastmile_qr_scan", "android": "https://dc.lft.to/lastmile_qr_scan"}}, {"name": "adccb4f83d0a1cc15a07485481d74a10", "type": "electric_scooter", "lat": 38.938980666666666, "is_reserved": 0, "lon": -77.0772985, "fusion_lon": 0.0, "is_disabled": 0, "fusion_lat": 0.0, "bike_id": "adccb4f83d0a1cc15a07485481d74a10", "rental_uris": {"ios": "https://dc.lft.to/lastmile_qr_scan", "android": "https://dc.lft.to/lastmile_qr_scan"}}, {"name": "6f29aca50e5198e53f542351b4bc427c", "type": "electric_scooter", "lat": 38.9337785, "is_reserved": 0, "lon": -77.03461966666667, "fusion_lon": 0.0, "is_disabled": 0, "fusion_lat": 0.0, "bike_id": "6f29aca50e5198e53f542351b4bc427c", "rental_uris": {"ios": "https://dc.lft.to/lastmile_qr_scan", "android": "https://dc.lft.to/lastmile_qr_scan"}}, {"name": "6ba5dd0bbd2e30dc5d82b48b4a1bff0c", "type": "electric_scooter", "lat": 38.88109, "is_reserved": 0, "lon": -77.01671916666666, "fusion_lon": 0.0, "is_disabled": 0, "fusion_lat": 0.0, "bike_id": "6ba5dd0bbd2e30dc5d82b48b4a1bff0c", "rental_uris": {"ios": "https://dc.lft.to/lastmile_qr_scan", "android": "https://dc.lft.to/lastmile_qr_scan"}}, {"name": "f792e62ff6ed53ad550938b78d1e5093", "type": "electric_scooter", "lat": 38.92727716666667, "is_reserved": 0, "lon": -77.02976766666667, "fusion_lon": 0.0, "is_disabled": 0, "fusion_lat": 0.0, "bike_id": "f792e62ff6ed53ad550938b78d1e5093", "rental_uris": {"ios": "https://dc.lft.to/lastmile_qr_scan", "android": "https://dc.lft.to/lastmile_qr_scan"}}, {"name": "814a85cbe06131c430c81ee6f0097a6f", "type": "electric_scooter", "lat": 38.91210216666666, "is_reserved": 0, "lon": -77.0447315, "fusion_lon": 0.0, "is_disabled": 0, "fusion_lat": 0.0, "bike_id": "814a85cbe06131c430c81ee6f0097a6f", "rental_uris": {"ios": "https://dc.lft.to/lastmile_qr_scan", "android": "https://dc.lft.to/lastmile_qr_scan"}}, {"name": "425390b92fcc9450cbf664623adb4d15", "type": "electric_bike", "lat": 38.948318666666665, "is_reserved": 0, "lon": -77.03898733333334, "fusion_lon": 0.0, "is_disabled": 0, "fusion_lat": 0.0, "bike_id": "425390b92fcc9450cbf664623adb4d15", "rental_uris": {"ios": "https://dc.lft.to/lastmile_qr_scan", "android": "https://dc.lft.to/lastmile_qr_scan"}}, {"name": "c3e9a9f1d1e5aff27fe9b4ccec2daa46", "type": "electric_scooter", "lat": 38.894665833333335, "is_reserved": 0, "lon": -77.03042233333333, "fusion_lon": 0.0, "is_disabled": 0, "fusion_lat": 0.0, "bike_id": "c3e9a9f1d1e5aff27fe9b4ccec2daa46", "rental_uris": {"ios": "https://dc.lft.to/lastmile_qr_scan", "android": "https://dc.lft.to/lastmile_qr_scan"}}, {"name": "36403afd7b5db848c92d8ff7e68c3765", "type": "electric_scooter", "lat": 38.91213283333333, "is_reserved": 0, "lon": -77.075883, "fusion_lon": 0.0, "is_disabled": 0, "fusion_lat": 0.0, "bike_id": "36403afd7b5db848c92d8ff7e68c3765", "rental_uris": {"ios": "https://dc.lft.to/lastmile_qr_scan", "android": "https://dc.lft.to/lastmile_qr_scan"}}, {"name": "1c3408905f16b28b8b1ca48b6748e585", "type": "electric_scooter", "lat": 38.9349135, "is_reserved": 0, "lon": -77.03281516666667, "fusion_lon": 0.0, "is_disabled": 0, "fusion_lat": 0.0, "bike_id": "1c3408905f16b28b8b1ca48b6748e585", "rental_uris": {"ios": "https://dc.lft.to/lastmile_qr_scan", "android": "https://dc.lft.to/lastmile_qr_scan"}}, {"name": "ce798ee61afd8ac162cdcc09b177f601", "type": "electric_scooter", "lat": 38.903009833333336, "is_reserved": 0, "lon": -77.02364616666667, "fusion_lon": 0.0, "is_disabled": 0, "fusion_lat": 0.0, "bike_id": "ce798ee61afd8ac162cdcc09b177f601", "rental_uris": {"ios": "https://dc.lft.to/lastmile_qr_scan", "android": "https://dc.lft.to/lastmile_qr_scan"}}, {"name": "273240f6dc14ead6165ec82952d981ce", "type": "electric_scooter", "lat": 38.9021285, "is_reserved": 0, "lon": -77.05031633333333, "fusion_lon": 0.0, "is_disabled": 0, "fusion_lat": 0.0, "bike_id": "273240f6dc14ead6165ec82952d981ce", "rental_uris": {"ios": "https://dc.lft.to/lastmile_qr_scan", "android": "https://dc.lft.to/lastmile_qr_scan"}}, {"name": "ae0a1294fa0717215ee091c414322f08", "type": "electric_scooter", "lat": 38.9310565, "is_reserved": 0, "lon": -77.03835283333333, "fusion_lon": 0.0, "is_disabled": 0, "fusion_lat": 0.0, "bike_id": "ae0a1294fa0717215ee091c414322f08", "rental_uris": {"ios": "https://dc.lft.to/lastmile_qr_scan", "android": "https://dc.lft.to/lastmile_qr_scan"}}, {"name": "77fe7a7cb5ee836760ce021ca56e254b", "type": "electric_scooter", "lat": 38.92363683333333, "is_reserved": 0, "lon": -77.05044933333333, "fusion_lon": 0.0, "is_disabled": 0, "fusion_lat": 0.0, "bike_id": "77fe7a7cb5ee836760ce021ca56e254b", "rental_uris": {"ios": "https://dc.lft.to/lastmile_qr_scan", "android": "https://dc.lft.to/lastmile_qr_scan"}}, {"name": "889e3a836fec51d494fb256eca79fe60", "type": "electric_bike", "lat": 39.03045866666667, "is_reserved": 0, "lon": -77.094741, "fusion_lon": 0.0, "is_disabled": 0, "fusion_lat": 0.0, "bike_id": "889e3a836fec51d494fb256eca79fe60", "rental_uris": {"ios": "https://dc.lft.to/lastmile_qr_scan", "android": "https://dc.lft.to/lastmile_qr_scan"}}, {"name": "ff3d784c5c50c43e52fee536a6ee161e", "type": "electric_bike", "lat": 38.91354066666667, "is_reserved": 0, "lon": -77.02871866666666, "fusion_lon": 0.0, "is_disabled": 0, "fusion_lat": 0.0, "bike_id": "ff3d784c5c50c43e52fee536a6ee161e", "rental_uris": {"ios": "https://dc.lft.to/lastmile_qr_scan", "android": "https://dc.lft.to/lastmile_qr_scan"}}, {"name": "dda830836abce4fb4a0432dd4d08f24a", "type": "electric_scooter", "lat": 38.90515533333333, "is_reserved": 0, "lon": -77.05192, "fusion_lon": 0.0, "is_disabled": 0, "fusion_lat": 0.0, "bike_id": "dda830836abce4fb4a0432dd4d08f24a", "rental_uris": {"ios": "https://dc.lft.to/lastmile_qr_scan", "android": "https://dc.lft.to/lastmile_qr_scan"}}, {"name": "695a69daef613529461c990bfdcc31c9", "type": "electric_bike", "lat": 38.9047865, "is_reserved": 0, "lon": -77.02742966666666, "fusion_lon": 0.0, "is_disabled": 0, "fusion_lat": 0.0, "bike_id": "695a69daef613529461c990bfdcc31c9", "rental_uris": {"ios": "https://dc.lft.to/lastmile_qr_scan", "android": "https://dc.lft.to/lastmile_qr_scan"}}, {"name": "e51c00f5983a3a2ec77309f7790138a2", "type": "electric_bike", "lat": 38.97064566666667, "is_reserved": 0, "lon": -76.9361375, "fusion_lon": 0.0, "is_disabled": 0, "fusion_lat": 0.0, "bike_id": "e51c00f5983a3a2ec77309f7790138a2", "rental_uris": {"ios": "https://dc.lft.to/lastmile_qr_scan", "android": "https://dc.lft.to/lastmile_qr_scan"}}, {"name": "6e518aa6031a7cdd0520884154ba0a89", "type": "electric_scooter", "lat": 38.895068, "is_reserved": 0, "lon": -77.0109695, "fusion_lon": 0.0, "is_disabled": 0, "fusion_lat": 0.0, "bike_id": "6e518aa6031a7cdd0520884154ba0a89", "rental_uris": {"ios": "https://dc.lft.to/lastmile_qr_scan", "android": "https://dc.lft.to/lastmile_qr_scan"}}, {"name": "f3832e04512ab9e77df43bfbe1c44642", "type": "electric_scooter", "lat": 38.9080865, "is_reserved": 0, "lon": -77.03869433333334, "fusion_lon": 0.0, "is_disabled": 0, "fusion_lat": 0.0, "bike_id": "f3832e04512ab9e77df43bfbe1c44642", "rental_uris": {"ios": "https://dc.lft.to/lastmile_qr_scan", "android": "https://dc.lft.to/lastmile_qr_scan"}}, {"name": "feaae9de1577eaabeafb7cb1e75bcc2f", "type": "electric_scooter", "lat": 38.89832033333333, "is_reserved": 0, "lon": -76.9463465, "fusion_lon": 0.0, "is_disabled": 0, "fusion_lat": 0.0, "bike_id": "feaae9de1577eaabeafb7cb1e75bcc2f", "rental_uris": {"ios": "https://dc.lft.to/lastmile_qr_scan", "android": "https://dc.lft.to/lastmile_qr_scan"}}, {"name": "fcaf62dbff260e49e531766107dc488e", "type": "electric_scooter", "lat": 38.92420116666667, "is_reserved": 0, "lon": -77.01945383333333, "fusion_lon": 0.0, "is_disabled": 0, "fusion_lat": 0.0, "bike_id": "fcaf62dbff260e49e531766107dc488e", "rental_uris": {"ios": "https://dc.lft.to/lastmile_qr_scan", "android": "https://dc.lft.to/lastmile_qr_scan"}}, {"name": "920b2cc2b928f21e6e097d0c549970e3", "type": "electric_scooter", "lat": 38.863542, "is_reserved": 0, "lon": -76.990673, "fusion_lon": 0.0, "is_disabled": 0, "fusion_lat": 0.0, "bike_id": "920b2cc2b928f21e6e097d0c549970e3", "rental_uris": {"ios": "https://dc.lft.to/lastmile_qr_scan", "android": "https://dc.lft.to/lastmile_qr_scan"}}, {"name": "7d6c4358a81da19fe7f898bf14244b26", "type": "electric_scooter", "lat": 38.92063233333333, "is_reserved": 0, "lon": -77.04252783333334, "fusion_lon": 0.0, "is_disabled": 0, "fusion_lat": 0.0, "bike_id": "7d6c4358a81da19fe7f898bf14244b26", "rental_uris": {"ios": "https://dc.lft.to/lastmile_qr_scan", "android": "https://dc.lft.to/lastmile_qr_scan"}}, {"name": "bc9aa67b1d7761234861e87dd90c6aa4", "type": "electric_scooter", "lat": 38.904509166666664, "is_reserved": 0, "lon": -77.04873966666666, "fusion_lon": 0.0, "is_disabled": 0, "fusion_lat": 0.0, "bike_id": "bc9aa67b1d7761234861e87dd90c6aa4", "rental_uris": {"ios": "https://dc.lft.to/lastmile_qr_scan", "android": "https://dc.lft.to/lastmile_qr_scan"}}, {"name": "485abcc2f4a1fd6fb19fd84df473130d", "type": "electric_scooter", "lat": 38.92774816666667, "is_reserved": 0, "lon": -77.026501, "fusion_lon": 0.0, "is_disabled": 0, "fusion_lat": 0.0, "bike_id": "485abcc2f4a1fd6fb19fd84df473130d", "rental_uris": {"ios": "https://dc.lft.to/lastmile_qr_scan", "android": "https://dc.lft.to/lastmile_qr_scan"}}, {"name": "ca05e7efc0fc9e9b1ac94166132b236a", "type": "electric_scooter", "lat": 38.917043166666666, "is_reserved": 0, "lon": -77.0268265, "fusion_lon": 0.0, "is_disabled": 0, "fusion_lat": 0.0, "bike_id": "ca05e7efc0fc9e9b1ac94166132b236a", "rental_uris": {"ios": "https://dc.lft.to/lastmile_qr_scan", "android": "https://dc.lft.to/lastmile_qr_scan"}}, {"name": "0543021d81f561b356f519ef21df08eb", "type": "electric_scooter", "lat": 38.920314, "is_reserved": 0, "lon": -77.04173783333333, "fusion_lon": 0.0, "is_disabled": 0, "fusion_lat": 0.0, "bike_id": "0543021d81f561b356f519ef21df08eb", "rental_uris": {"ios": "https://dc.lft.to/lastmile_qr_scan", "android": "https://dc.lft.to/lastmile_qr_scan"}}, {"name": "6059b9a741314ed1306e2399fa9aebb2", "type": "electric_scooter", "lat": 38.9259835, "is_reserved": 0, "lon": -77.00483133333333, "fusion_lon": 0.0, "is_disabled": 0, "fusion_lat": 0.0, "bike_id": "6059b9a741314ed1306e2399fa9aebb2", "rental_uris": {"ios": "https://dc.lft.to/lastmile_qr_scan", "android": "https://dc.lft.to/lastmile_qr_scan"}}, {"name": "bfde6223ddc2235f762d243dc66358b5", "type": "electric_scooter", "lat": 38.928735, "is_reserved": 0, "lon": -77.0412425, "fusion_lon": 0.0, "is_disabled": 0, "fusion_lat": 0.0, "bike_id": "bfde6223ddc2235f762d243dc66358b5", "rental_uris": {"ios": "https://dc.lft.to/lastmile_qr_scan", "android": "https://dc.lft.to/lastmile_qr_scan"}}, {"name": "b6020d1a55a19dfa83f842e60d1b24c6", "type": "electric_bike", "lat": 38.95477, "is_reserved": 0, "lon": -77.08237483333333, "fusion_lon": 0.0, "is_disabled": 0, "fusion_lat": 0.0, "bike_id": "b6020d1a55a19dfa83f842e60d1b24c6", "rental_uris": {"ios": "https://dc.lft.to/lastmile_qr_scan", "android": "https://dc.lft.to/lastmile_qr_scan"}}, {"name": "e6c36b021c581e10c15fd1619cf12df5", "type": "electric_scooter", "lat": 38.913381333333334, "is_reserved": 0, "lon": -77.00221416666666, "fusion_lon": 0.0, "is_disabled": 0, "fusion_lat": 0.0, "bike_id": "e6c36b021c581e10c15fd1619cf12df5", "rental_uris": {"ios": "https://dc.lft.to/lastmile_qr_scan", "android": "https://dc.lft.to/lastmile_qr_scan"}}, {"name": "7a71c9484f1c110a72127581020ebd26", "type": "electric_scooter", "lat": 38.901941, "is_reserved": 0, "lon": -76.9819345, "fusion_lon": 0.0, "is_disabled": 0, "fusion_lat": 0.0, "bike_id": "7a71c9484f1c110a72127581020ebd26", "rental_uris": {"ios": "https://dc.lft.to/lastmile_qr_scan", "android": "https://dc.lft.to/lastmile_qr_scan"}}, {"name": "aed1e3c2c1230a0d9ae02bcbb52e8079", "type": "electric_scooter", "lat": 38.92826933333333, "is_reserved": 0, "lon": -77.01410683333333, "fusion_lon": 0.0, "is_disabled": 0, "fusion_lat": 0.0, "bike_id": "aed1e3c2c1230a0d9ae02bcbb52e8079", "rental_uris": {"ios": "https://dc.lft.to/lastmile_qr_scan", "android": "https://dc.lft.to/lastmile_qr_scan"}}, {"name": "c381bf4b964c9d82e643907a7366e836", "type": "electric_scooter", "lat": 38.920906, "is_reserved": 0, "lon": -77.01363, "fusion_lon": 0.0, "is_disabled": 0, "fusion_lat": 0.0, "bike_id": "c381bf4b964c9d82e643907a7366e836", "rental_uris": {"ios": "https://dc.lft.to/lastmile_qr_scan", "android": "https://dc.lft.to/lastmile_qr_scan"}}, {"name": "47367a3b472cab5202baa11d900100a1", "type": "electric_scooter", "lat": 38.905645666666665, "is_reserved": 0, "lon": -77.04869216666667, "fusion_lon": 0.0, "is_disabled": 0, "fusion_lat": 0.0, "bike_id": "47367a3b472cab5202baa11d900100a1", "rental_uris": {"ios": "https://dc.lft.to/lastmile_qr_scan", "android": "https://dc.lft.to/lastmile_qr_scan"}}, {"name": "b90c75a55e7794bd3548ef9d99593c79", "type": "electric_scooter", "lat": 38.88275433333333, "is_reserved": 0, "lon": -76.98616066666666, "fusion_lon": 0.0, "is_disabled": 0, "fusion_lat": 0.0, "bike_id": "b90c75a55e7794bd3548ef9d99593c79", "rental_uris": {"ios": "https://dc.lft.to/lastmile_qr_scan", "android": "https://dc.lft.to/lastmile_qr_scan"}}, {"name": "b6ff42cd44714faff16e674fd62ce61e", "type": "electric_scooter", "lat": 38.93282633333333, "is_reserved": 0, "lon": -77.02978433333334, "fusion_lon": 0.0, "is_disabled": 0, "fusion_lat": 0.0, "bike_id": "b6ff42cd44714faff16e674fd62ce61e", "rental_uris": {"ios": "https://dc.lft.to/lastmile_qr_scan", "android": "https://dc.lft.to/lastmile_qr_scan"}}, {"name": "60ceb070f9538e167325b38610c0bf67", "type": "electric_scooter", "lat": 38.868261333333336, "is_reserved": 0, "lon": -76.98611916666667, "fusion_lon": 0.0, "is_disabled": 0, "fusion_lat": 0.0, "bike_id": "60ceb070f9538e167325b38610c0bf67", "rental_uris": {"ios": "https://dc.lft.to/lastmile_qr_scan", "android": "https://dc.lft.to/lastmile_qr_scan"}}, {"name": "7503954a256fab650b77a705b2d264a5", "type": "electric_scooter", "lat": 38.9019325, "is_reserved": 0, "lon": -77.02159016666667, "fusion_lon": 0.0, "is_disabled": 0, "fusion_lat": 0.0, "bike_id": "7503954a256fab650b77a705b2d264a5", "rental_uris": {"ios": "https://dc.lft.to/lastmile_qr_scan", "android": "https://dc.lft.to/lastmile_qr_scan"}}, {"name": "d3de30fe654e96f000a6ee73c2e45fef", "type": "electric_scooter", "lat": 38.91719, "is_reserved": 0, "lon": -77.03663366666666, "fusion_lon": 0.0, "is_disabled": 0, "fusion_lat": 0.0, "bike_id": "d3de30fe654e96f000a6ee73c2e45fef", "rental_uris": {"ios": "https://dc.lft.to/lastmile_qr_scan", "android": "https://dc.lft.to/lastmile_qr_scan"}}, {"name": "217b3f55bfc6fb022524a85498f3a85e", "type": "electric_scooter", "lat": 38.92714816666667, "is_reserved": 0, "lon": -77.02076683333334, "fusion_lon": 0.0, "is_disabled": 0, "fusion_lat": 0.0, "bike_id": "217b3f55bfc6fb022524a85498f3a85e", "rental_uris": {"ios": "https://dc.lft.to/lastmile_qr_scan", "android": "https://dc.lft.to/lastmile_qr_scan"}}, {"name": "384915f1cbc047a858a27ef5b8177ea4", "type": "electric_scooter", "lat": 38.908652333333336, "is_reserved": 0, "lon": -77.08596616666667, "fusion_lon": 0.0, "is_disabled": 0, "fusion_lat": 0.0, "bike_id": "384915f1cbc047a858a27ef5b8177ea4", "rental_uris": {"ios": "https://dc.lft.to/lastmile_qr_scan", "android": "https://dc.lft.to/lastmile_qr_scan"}}, {"name": "4f948a70cdde92d24021a37266465bd7", "type": "electric_scooter", "lat": 38.86651766666667, "is_reserved": 0, "lon": -76.98880316666667, "fusion_lon": 0.0, "is_disabled": 0, "fusion_lat": 0.0, "bike_id": "4f948a70cdde92d24021a37266465bd7", "rental_uris": {"ios": "https://dc.lft.to/lastmile_qr_scan", "android": "https://dc.lft.to/lastmile_qr_scan"}}, {"name": "d22afcab808c4dc23b403c69690d652d", "type": "electric_bike", "lat": 38.80743966666667, "is_reserved": 0, "lon": -77.09424016666667, "fusion_lon": 0.0, "is_disabled": 0, "fusion_lat": 0.0, "bike_id": "d22afcab808c4dc23b403c69690d652d", "rental_uris": {"ios": "https://dc.lft.to/lastmile_qr_scan", "android": "https://dc.lft.to/lastmile_qr_scan"}}, {"name": "f9a1ea3cc0c50ae1dcc7698b06677a2b", "type": "electric_scooter", "lat": 38.88639583333333, "is_reserved": 0, "lon": -77.021361, "fusion_lon": 0.0, "is_disabled": 0, "fusion_lat": 0.0, "bike_id": "f9a1ea3cc0c50ae1dcc7698b06677a2b", "rental_uris": {"ios": "https://dc.lft.to/lastmile_qr_scan", "android": "https://dc.lft.to/lastmile_qr_scan"}}, {"name": "7cebb7c6a9cce16a49e90347736c1d93", "type": "electric_scooter", "lat": 38.90034516666667, "is_reserved": 0, "lon": -77.00204066666667, "fusion_lon": 0.0, "is_disabled": 0, "fusion_lat": 0.0, "bike_id": "7cebb7c6a9cce16a49e90347736c1d93", "rental_uris": {"ios": "https://dc.lft.to/lastmile_qr_scan", "android": "https://dc.lft.to/lastmile_qr_scan"}}, {"name": "d8fd472e214aa30c6b8273d83ec24498", "type": "electric_scooter", "lat": 38.929082666666666, "is_reserved": 0, "lon": -77.02186266666666, "fusion_lon": 0.0, "is_disabled": 0, "fusion_lat": 0.0, "bike_id": "d8fd472e214aa30c6b8273d83ec24498", "rental_uris": {"ios": "https://dc.lft.to/lastmile_qr_scan", "android": "https://dc.lft.to/lastmile_qr_scan"}}, {"name": "9befe56bf9830c4d747824f1930f6e48", "type": "electric_scooter", "lat": 38.90031466666667, "is_reserved": 0, "lon": -77.00210383333334, "fusion_lon": 0.0, "is_disabled": 0, "fusion_lat": 0.0, "bike_id": "9befe56bf9830c4d747824f1930f6e48", "rental_uris": {"ios": "https://dc.lft.to/lastmile_qr_scan", "android": "https://dc.lft.to/lastmile_qr_scan"}}, {"name": "3c7650b93fab082e8cb48d33efb49063", "type": "electric_scooter", "lat": 38.9002745, "is_reserved": 0, "lon": -76.99449166666666, "fusion_lon": 0.0, "is_disabled": 0, "fusion_lat": 0.0, "bike_id": "3c7650b93fab082e8cb48d33efb49063", "rental_uris": {"ios": "https://dc.lft.to/lastmile_qr_scan", "android": "https://dc.lft.to/lastmile_qr_scan"}}, {"name": "ed9585d0f553c7fc9bd510dfb365362c", "type": "electric_bike", "lat": 38.97323166666666, "is_reserved": 0, "lon": -77.02149816666666, "fusion_lon": 0.0, "is_disabled": 0, "fusion_lat": 0.0, "bike_id": "ed9585d0f553c7fc9bd510dfb365362c", "rental_uris": {"ios": "https://dc.lft.to/lastmile_qr_scan", "android": "https://dc.lft.to/lastmile_qr_scan"}}, {"name": "e4f31ac5955ada26157c84ccf6da4d45", "type": "electric_scooter", "lat": 38.9032545, "is_reserved": 0, "lon": -77.03835066666667, "fusion_lon": 0.0, "is_disabled": 0, "fusion_lat": 0.0, "bike_id": "e4f31ac5955ada26157c84ccf6da4d45", "rental_uris": {"ios": "https://dc.lft.to/lastmile_qr_scan", "android": "https://dc.lft.to/lastmile_qr_scan"}}, {"name": "3b8ce030d123336dee8f9fcb8e8db2d6", "type": "electric_scooter", "lat": 38.9041275, "is_reserved": 0, "lon": -77.0294765, "fusion_lon": 0.0, "is_disabled": 0, "fusion_lat": 0.0, "bike_id": "3b8ce030d123336dee8f9fcb8e8db2d6", "rental_uris": {"ios": "https://dc.lft.to/lastmile_qr_scan", "android": "https://dc.lft.to/lastmile_qr_scan"}}, {"name": "8e67b148e2cdbc67c13d14b05e8a6578", "type": "electric_scooter", "lat": 38.932248, "is_reserved": 0, "lon": -77.03542983333334, "fusion_lon": 0.0, "is_disabled": 0, "fusion_lat": 0.0, "bike_id": "8e67b148e2cdbc67c13d14b05e8a6578", "rental_uris": {"ios": "https://dc.lft.to/lastmile_qr_scan", "android": "https://dc.lft.to/lastmile_qr_scan"}}, {"name": "4079b3d17b078787c63d2abba46cf287", "type": "electric_bike", "lat": 38.83860633333333, "is_reserved": 0, "lon": -77.08864616666666, "fusion_lon": 0.0, "is_disabled": 0, "fusion_lat": 0.0, "bike_id": "4079b3d17b078787c63d2abba46cf287", "rental_uris": {"ios": "https://dc.lft.to/lastmile_qr_scan", "android": "https://dc.lft.to/lastmile_qr_scan"}}, {"name": "6693437c9edce72590c14d9d60dbd901", "type": "electric_bike", "lat": 38.90081383333333, "is_reserved": 0, "lon": -76.98002666666666, "fusion_lon": 0.0, "is_disabled": 0, "fusion_lat": 0.0, "bike_id": "6693437c9edce72590c14d9d60dbd901", "rental_uris": {"ios": "https://dc.lft.to/lastmile_qr_scan", "android": "https://dc.lft.to/lastmile_qr_scan"}}, {"name": "583c19925dcf46ea7206f831c66aa664", "type": "electric_scooter", "lat": 38.88937, "is_reserved": 0, "lon": -76.9481395, "fusion_lon": 0.0, "is_disabled": 0, "fusion_lat": 0.0, "bike_id": "583c19925dcf46ea7206f831c66aa664", "rental_uris": {"ios": "https://dc.lft.to/lastmile_qr_scan", "android": "https://dc.lft.to/lastmile_qr_scan"}}, {"name": "a2675611216eb72a4ffc196313650c2d", "type": "electric_bike", "lat": 38.95877633333333, "is_reserved": 0, "lon": -76.92499533333333, "fusion_lon": 0.0, "is_disabled": 0, "fusion_lat": 0.0, "bike_id": "a2675611216eb72a4ffc196313650c2d", "rental_uris": {"ios": "https://dc.lft.to/lastmile_qr_scan", "android": "https://dc.lft.to/lastmile_qr_scan"}}, {"name": "3cbed519fad97694f57ce0c82ff1d461", "type": "electric_scooter", "lat": 38.9262805, "is_reserved": 0, "lon": -77.035018, "fusion_lon": 0.0, "is_disabled": 0, "fusion_lat": 0.0, "bike_id": "3cbed519fad97694f57ce0c82ff1d461", "rental_uris": {"ios": "https://dc.lft.to/lastmile_qr_scan", "android": "https://dc.lft.to/lastmile_qr_scan"}}, {"name": "5640ba4e97c952a4ea1119456d53fa9c", "type": "electric_scooter", "lat": 38.919688, "is_reserved": 0, "lon": -77.001059, "fusion_lon": 0.0, "is_disabled": 0, "fusion_lat": 0.0, "bike_id": "5640ba4e97c952a4ea1119456d53fa9c", "rental_uris": {"ios": "https://dc.lft.to/lastmile_qr_scan", "android": "https://dc.lft.to/lastmile_qr_scan"}}, {"name": "b12da010146c3673f3d3ef273417af4b", "type": "electric_scooter", "lat": 38.902377666666666, "is_reserved": 0, "lon": -77.01762, "fusion_lon": 0.0, "is_disabled": 0, "fusion_lat": 0.0, "bike_id": "b12da010146c3673f3d3ef273417af4b", "rental_uris": {"ios": "https://dc.lft.to/lastmile_qr_scan", "android": "https://dc.lft.to/lastmile_qr_scan"}}, {"name": "bc072fe5a53f8c81f39c62e491791e8a", "type": "electric_scooter", "lat": 38.9058505, "is_reserved": 0, "lon": -77.065196, "fusion_lon": 0.0, "is_disabled": 0, "fusion_lat": 0.0, "bike_id": "bc072fe5a53f8c81f39c62e491791e8a", "rental_uris": {"ios": "https://dc.lft.to/lastmile_qr_scan", "android": "https://dc.lft.to/lastmile_qr_scan"}}, {"name": "51bb803844a765caf9d83a929e4f6ad4", "type": "electric_scooter", "lat": 38.920541, "is_reserved": 0, "lon": -77.0297495, "fusion_lon": 0.0, "is_disabled": 0, "fusion_lat": 0.0, "bike_id": "51bb803844a765caf9d83a929e4f6ad4", "rental_uris": {"ios": "https://dc.lft.to/lastmile_qr_scan", "android": "https://dc.lft.to/lastmile_qr_scan"}}, {"name": "ab924e4f069e836356036ae3531f690d", "type": "electric_scooter", "lat": 38.92345366666667, "is_reserved": 0, "lon": -77.01902316666667, "fusion_lon": 0.0, "is_disabled": 0, "fusion_lat": 0.0, "bike_id": "ab924e4f069e836356036ae3531f690d", "rental_uris": {"ios": "https://dc.lft.to/lastmile_qr_scan", "android": "https://dc.lft.to/lastmile_qr_scan"}}, {"name": "4f671ff9d251c69a2d0cd7e89c1686bb", "type": "electric_scooter", "lat": 38.92062266666667, "is_reserved": 0, "lon": -76.97810766666667, "fusion_lon": 0.0, "is_disabled": 0, "fusion_lat": 0.0, "bike_id": "4f671ff9d251c69a2d0cd7e89c1686bb", "rental_uris": {"ios": "https://dc.lft.to/lastmile_qr_scan", "android": "https://dc.lft.to/lastmile_qr_scan"}}, {"name": "fd90fdc751427c9d49437b61ba65edb0", "type": "electric_scooter", "lat": 38.905218, "is_reserved": 0, "lon": -77.0638815, "fusion_lon": 0.0, "is_disabled": 0, "fusion_lat": 0.0, "bike_id": "fd90fdc751427c9d49437b61ba65edb0", "rental_uris": {"ios": "https://dc.lft.to/lastmile_qr_scan", "android": "https://dc.lft.to/lastmile_qr_scan"}}, {"name": "8eb7901cac75bb8174645eb619480618", "type": "electric_scooter", "lat": 38.90966616666667, "is_reserved": 0, "lon": -77.01121333333333, "fusion_lon": 0.0, "is_disabled": 0, "fusion_lat": 0.0, "bike_id": "8eb7901cac75bb8174645eb619480618", "rental_uris": {"ios": "https://dc.lft.to/lastmile_qr_scan", "android": "https://dc.lft.to/lastmile_qr_scan"}}, {"name": "d61f58562754d51ec4bba59035f0f47f", "type": "electric_scooter", "lat": 38.90585083333333, "is_reserved": 0, "lon": -77.06512483333333, "fusion_lon": 0.0, "is_disabled": 0, "fusion_lat": 0.0, "bike_id": "d61f58562754d51ec4bba59035f0f47f", "rental_uris": {"ios": "https://dc.lft.to/lastmile_qr_scan", "android": "https://dc.lft.to/lastmile_qr_scan"}}, {"name": "b3cc6c859ddc9ff8d99758545acb9a03", "type": "electric_bike", "lat": 38.955351, "is_reserved": 0, "lon": -77.02290416666666, "fusion_lon": 0.0, "is_disabled": 0, "fusion_lat": 0.0, "bike_id": "b3cc6c859ddc9ff8d99758545acb9a03", "rental_uris": {"ios": "https://dc.lft.to/lastmile_qr_scan", "android": "https://dc.lft.to/lastmile_qr_scan"}}, {"name": "10c7e6fcda537aecbd39eca36d28393d", "type": "electric_scooter", "lat": 38.913281, "is_reserved": 0, "lon": -77.03035266666667, "fusion_lon": 0.0, "is_disabled": 0, "fusion_lat": 0.0, "bike_id": "10c7e6fcda537aecbd39eca36d28393d", "rental_uris": {"ios": "https://dc.lft.to/lastmile_qr_scan", "android": "https://dc.lft.to/lastmile_qr_scan"}}, {"name": "5f58bb818104e949b27ddf610f3b8167", "type": "electric_scooter", "lat": 38.94148883333333, "is_reserved": 0, "lon": -77.03645883333333, "fusion_lon": 0.0, "is_disabled": 0, "fusion_lat": 0.0, "bike_id": "5f58bb818104e949b27ddf610f3b8167", "rental_uris": {"ios": "https://dc.lft.to/lastmile_qr_scan", "android": "https://dc.lft.to/lastmile_qr_scan"}}, {"name": "dcb505e3168e3ba240a7e33e0979fbfd", "type": "electric_scooter", "lat": 38.8982885, "is_reserved": 0, "lon": -76.92642816666667, "fusion_lon": 0.0, "is_disabled": 0, "fusion_lat": 0.0, "bike_id": "dcb505e3168e3ba240a7e33e0979fbfd", "rental_uris": {"ios": "https://dc.lft.to/lastmile_qr_scan", "android": "https://dc.lft.to/lastmile_qr_scan"}}, {"name": "61ea603339d57c7e27d94c736cfd766c", "type": "electric_scooter", "lat": 38.896720333333334, "is_reserved": 0, "lon": -77.0539605, "fusion_lon": 0.0, "is_disabled": 0, "fusion_lat": 0.0, "bike_id": "61ea603339d57c7e27d94c736cfd766c", "rental_uris": {"ios": "https://dc.lft.to/lastmile_qr_scan", "android": "https://dc.lft.to/lastmile_qr_scan"}}, {"name": "a98fa6f904941dfe1e7c6682d50e4e5d", "type": "electric_scooter", "lat": 38.89900733333333, "is_reserved": 0, "lon": -77.00722333333333, "fusion_lon": 0.0, "is_disabled": 0, "fusion_lat": 0.0, "bike_id": "a98fa6f904941dfe1e7c6682d50e4e5d", "rental_uris": {"ios": "https://dc.lft.to/lastmile_qr_scan", "android": "https://dc.lft.to/lastmile_qr_scan"}}, {"name": "3d28cc3e7e7cd0728ee0398db16d9cf8", "type": "electric_bike", "lat": 38.9053715, "is_reserved": 0, "lon": -76.99805616666667, "fusion_lon": 0.0, "is_disabled": 0, "fusion_lat": 0.0, "bike_id": "3d28cc3e7e7cd0728ee0398db16d9cf8", "rental_uris": {"ios": "https://dc.lft.to/lastmile_qr_scan", "android": "https://dc.lft.to/lastmile_qr_scan"}}, {"name": "bc6a68e726e0397932bb8a92291c6a01", "type": "electric_scooter", "lat": 38.922895833333335, "is_reserved": 0, "lon": -77.0319495, "fusion_lon": 0.0, "is_disabled": 0, "fusion_lat": 0.0, "bike_id": "bc6a68e726e0397932bb8a92291c6a01", "rental_uris": {"ios": "https://dc.lft.to/lastmile_qr_scan", "android": "https://dc.lft.to/lastmile_qr_scan"}}, {"name": "4f03278f4805f349dca9f71f5a057607", "type": "electric_scooter", "lat": 38.866981, "is_reserved": 0, "lon": -76.98712333333333, "fusion_lon": 0.0, "is_disabled": 0, "fusion_lat": 0.0, "bike_id": "4f03278f4805f349dca9f71f5a057607", "rental_uris": {"ios": "https://dc.lft.to/lastmile_qr_scan", "android": "https://dc.lft.to/lastmile_qr_scan"}}, {"name": "16b8ac9ed2d2ed00cdbdffa34c8a8607", "type": "electric_bike", "lat": 38.990900833333335, "is_reserved": 0, "lon": -76.8749935, "fusion_lon": 0.0, "is_disabled": 0, "fusion_lat": 0.0, "bike_id": "16b8ac9ed2d2ed00cdbdffa34c8a8607", "rental_uris": {"ios": "https://dc.lft.to/lastmile_qr_scan", "android": "https://dc.lft.to/lastmile_qr_scan"}}, {"name": "8c983f1732c8431b281fb1817e19674a", "type": "electric_scooter", "lat": 38.906689166666666, "is_reserved": 0, "lon": -77.0382525, "fusion_lon": 0.0, "is_disabled": 0, "fusion_lat": 0.0, "bike_id": "8c983f1732c8431b281fb1817e19674a", "rental_uris": {"ios": "https://dc.lft.to/lastmile_qr_scan", "android": "https://dc.lft.to/lastmile_qr_scan"}}, {"name": "8ced9280617c8afa35a75bcd791cdbd4", "type": "electric_scooter", "lat": 38.93713416666667, "is_reserved": 0, "lon": -77.036491, "fusion_lon": 0.0, "is_disabled": 0, "fusion_lat": 0.0, "bike_id": "8ced9280617c8afa35a75bcd791cdbd4", "rental_uris": {"ios": "https://dc.lft.to/lastmile_qr_scan", "android": "https://dc.lft.to/lastmile_qr_scan"}}, {"name": "c6535e323a2e4f13279d008a48bd44a9", "type": "electric_scooter", "lat": 38.922930666666666, "is_reserved": 0, "lon": -77.02075933333333, "fusion_lon": 0.0, "is_disabled": 0, "fusion_lat": 0.0, "bike_id": "c6535e323a2e4f13279d008a48bd44a9", "rental_uris": {"ios": "https://dc.lft.to/lastmile_qr_scan", "android": "https://dc.lft.to/lastmile_qr_scan"}}, {"name": "c2eacb69d3141ca096e92a0e0103bf3c", "type": "electric_bike", "lat": 38.970898166666665, "is_reserved": 0, "lon": -77.06968883333333, "fusion_lon": 0.0, "is_disabled": 0, "fusion_lat": 0.0, "bike_id": "c2eacb69d3141ca096e92a0e0103bf3c", "rental_uris": {"ios": "https://dc.lft.to/lastmile_qr_scan", "android": "https://dc.lft.to/lastmile_qr_scan"}}, {"name": "7ea0791b6adbcc510be39b1c671ff89b", "type": "electric_scooter", "lat": 38.938855833333335, "is_reserved": 0, "lon": -77.02460233333333, "fusion_lon": 0.0, "is_disabled": 0, "fusion_lat": 0.0, "bike_id": "7ea0791b6adbcc510be39b1c671ff89b", "rental_uris": {"ios": "https://dc.lft.to/lastmile_qr_scan", "android": "https://dc.lft.to/lastmile_qr_scan"}}, {"name": "acf85cffdee0812473d9bb099b8bb7b7", "type": "electric_scooter", "lat": 38.926336166666665, "is_reserved": 0, "lon": -77.03786733333334, "fusion_lon": 0.0, "is_disabled": 0, "fusion_lat": 0.0, "bike_id": "acf85cffdee0812473d9bb099b8bb7b7", "rental_uris": {"ios": "https://dc.lft.to/lastmile_qr_scan", "android": "https://dc.lft.to/lastmile_qr_scan"}}, {"name": "b4756d8d23fccdfb162f88a0499d541e", "type": "electric_scooter", "lat": 38.92579666666666, "is_reserved": 0, "lon": -77.004689, "fusion_lon": 0.0, "is_disabled": 0, "fusion_lat": 0.0, "bike_id": "b4756d8d23fccdfb162f88a0499d541e", "rental_uris": {"ios": "https://dc.lft.to/lastmile_qr_scan", "android": "https://dc.lft.to/lastmile_qr_scan"}}, {"name": "65f3f4bfb1a9238a2caa49b886c7b667", "type": "electric_scooter", "lat": 38.93140366666667, "is_reserved": 0, "lon": -77.038471, "fusion_lon": 0.0, "is_disabled": 0, "fusion_lat": 0.0, "bike_id": "65f3f4bfb1a9238a2caa49b886c7b667", "rental_uris": {"ios": "https://dc.lft.to/lastmile_qr_scan", "android": "https://dc.lft.to/lastmile_qr_scan"}}, {"name": "a4a2ea2727c85a2b34a8a63090c5e47b", "type": "electric_scooter", "lat": 38.90213166666667, "is_reserved": 0, "lon": -77.04604133333333, "fusion_lon": 0.0, "is_disabled": 0, "fusion_lat": 0.0, "bike_id": "a4a2ea2727c85a2b34a8a63090c5e47b", "rental_uris": {"ios": "https://dc.lft.to/lastmile_qr_scan", "android": "https://dc.lft.to/lastmile_qr_scan"}}, {"name": "f180d8789cfb61fded1907c22d0816c7", "type": "electric_scooter", "lat": 38.87712283333333, "is_reserved": 0, "lon": -76.993868, "fusion_lon": 0.0, "is_disabled": 0, "fusion_lat": 0.0, "bike_id": "f180d8789cfb61fded1907c22d0816c7", "rental_uris": {"ios": "https://dc.lft.to/lastmile_qr_scan", "android": "https://dc.lft.to/lastmile_qr_scan"}}, {"name": "af3727b1a47d08df16bcbe66b7b16ef5", "type": "electric_scooter", "lat": 38.898723833333335, "is_reserved": 0, "lon": -77.03286166666666, "fusion_lon": 0.0, "is_disabled": 0, "fusion_lat": 0.0, "bike_id": "af3727b1a47d08df16bcbe66b7b16ef5", "rental_uris": {"ios": "https://dc.lft.to/lastmile_qr_scan", "android": "https://dc.lft.to/lastmile_qr_scan"}}, {"name": "5936fd9c03a400222113e718bd74c67a", "type": "electric_scooter", "lat": 38.887682833333336, "is_reserved": 0, "lon": -76.92710183333334, "fusion_lon": 0.0, "is_disabled": 0, "fusion_lat": 0.0, "bike_id": "5936fd9c03a400222113e718bd74c67a", "rental_uris": {"ios": "https://dc.lft.to/lastmile_qr_scan", "android": "https://dc.lft.to/lastmile_qr_scan"}}, {"name": "a263fa89fb67d8beeaf8250aa08ee5cb", "type": "electric_scooter", "lat": 38.90657433333333, "is_reserved": 0, "lon": -77.01151166666666, "fusion_lon": 0.0, "is_disabled": 0, "fusion_lat": 0.0, "bike_id": "a263fa89fb67d8beeaf8250aa08ee5cb", "rental_uris": {"ios": "https://dc.lft.to/lastmile_qr_scan", "android": "https://dc.lft.to/lastmile_qr_scan"}}, {"name": "3a0fc31479b9a77c7ecce302350e1e2e", "type": "electric_scooter", "lat": 38.90234683333333, "is_reserved": 0, "lon": -77.01633766666667, "fusion_lon": 0.0, "is_disabled": 0, "fusion_lat": 0.0, "bike_id": "3a0fc31479b9a77c7ecce302350e1e2e", "rental_uris": {"ios": "https://dc.lft.to/lastmile_qr_scan", "android": "https://dc.lft.to/lastmile_qr_scan"}}, {"name": "e876a729899626fc1e6dfdc0411f9450", "type": "electric_scooter", "lat": 38.91875483333333, "is_reserved": 0, "lon": -77.01620033333333, "fusion_lon": 0.0, "is_disabled": 0, "fusion_lat": 0.0, "bike_id": "e876a729899626fc1e6dfdc0411f9450", "rental_uris": {"ios": "https://dc.lft.to/lastmile_qr_scan", "android": "https://dc.lft.to/lastmile_qr_scan"}}, {"name": "14e8ce170a2d5ab37bf2304d4b2f2ed2", "type": "electric_scooter", "lat": 38.91328933333333, "is_reserved": 0, "lon": -77.04867316666666, "fusion_lon": 0.0, "is_disabled": 0, "fusion_lat": 0.0, "bike_id": "14e8ce170a2d5ab37bf2304d4b2f2ed2", "rental_uris": {"ios": "https://dc.lft.to/lastmile_qr_scan", "android": "https://dc.lft.to/lastmile_qr_scan"}}, {"name": "7eb59cf3542669467cab1c84175bd856", "type": "electric_scooter", "lat": 38.905544666666664, "is_reserved": 0, "lon": -77.002478, "fusion_lon": 0.0, "is_disabled": 0, "fusion_lat": 0.0, "bike_id": "7eb59cf3542669467cab1c84175bd856", "rental_uris": {"ios": "https://dc.lft.to/lastmile_qr_scan", "android": "https://dc.lft.to/lastmile_qr_scan"}}, {"name": "68ade14340f214331695f358e2aa0974", "type": "electric_scooter", "lat": 38.89865483333333, "is_reserved": 0, "lon": -77.02608766666667, "fusion_lon": 0.0, "is_disabled": 0, "fusion_lat": 0.0, "bike_id": "68ade14340f214331695f358e2aa0974", "rental_uris": {"ios": "https://dc.lft.to/lastmile_qr_scan", "android": "https://dc.lft.to/lastmile_qr_scan"}}, {"name": "d4310d91ad23e6f2ed99c317040e1d71", "type": "electric_scooter", "lat": 38.892194333333336, "is_reserved": 0, "lon": -77.04368133333334, "fusion_lon": 0.0, "is_disabled": 0, "fusion_lat": 0.0, "bike_id": "d4310d91ad23e6f2ed99c317040e1d71", "rental_uris": {"ios": "https://dc.lft.to/lastmile_qr_scan", "android": "https://dc.lft.to/lastmile_qr_scan"}}, {"name": "6e32f285acfddbf8a1dd1b7e123fd02d", "type": "electric_bike", "lat": 38.90471, "is_reserved": 0, "lon": -76.929436, "fusion_lon": 0.0, "is_disabled": 0, "fusion_lat": 0.0, "bike_id": "6e32f285acfddbf8a1dd1b7e123fd02d", "rental_uris": {"ios": "https://dc.lft.to/lastmile_qr_scan", "android": "https://dc.lft.to/lastmile_qr_scan"}}, {"name": "e556d3077624b4d6bc6801e64ad22ccf", "type": "electric_scooter", "lat": 38.89534916666667, "is_reserved": 0, "lon": -77.04847416666667, "fusion_lon": 0.0, "is_disabled": 0, "fusion_lat": 0.0, "bike_id": "e556d3077624b4d6bc6801e64ad22ccf", "rental_uris": {"ios": "https://dc.lft.to/lastmile_qr_scan", "android": "https://dc.lft.to/lastmile_qr_scan"}}, {"name": "e616205106fa91903fac845d4bdf2a3e", "type": "electric_scooter", "lat": 38.900012333333336, "is_reserved": 0, "lon": -77.05231516666667, "fusion_lon": 0.0, "is_disabled": 0, "fusion_lat": 0.0, "bike_id": "e616205106fa91903fac845d4bdf2a3e", "rental_uris": {"ios": "https://dc.lft.to/lastmile_qr_scan", "android": "https://dc.lft.to/lastmile_qr_scan"}}, {"name": "d28c70fa3f3420036a016b1ffe3f5f50", "type": "electric_scooter", "lat": 38.90361983333333, "is_reserved": 0, "lon": -77.03375533333333, "fusion_lon": 0.0, "is_disabled": 0, "fusion_lat": 0.0, "bike_id": "d28c70fa3f3420036a016b1ffe3f5f50", "rental_uris": {"ios": "https://dc.lft.to/lastmile_qr_scan", "android": "https://dc.lft.to/lastmile_qr_scan"}}, {"name": "745731db33cf7ac8ba7b7a5fd9cb964c", "type": "electric_scooter", "lat": 38.914023666666665, "is_reserved": 0, "lon": -77.03900283333333, "fusion_lon": 0.0, "is_disabled": 0, "fusion_lat": 0.0, "bike_id": "745731db33cf7ac8ba7b7a5fd9cb964c", "rental_uris": {"ios": "https://dc.lft.to/lastmile_qr_scan", "android": "https://dc.lft.to/lastmile_qr_scan"}}, {"name": "27aeeb429d458df1508bd474a5e7a06c", "type": "electric_scooter", "lat": 38.87548533333333, "is_reserved": 0, "lon": -76.9648595, "fusion_lon": 0.0, "is_disabled": 0, "fusion_lat": 0.0, "bike_id": "27aeeb429d458df1508bd474a5e7a06c", "rental_uris": {"ios": "https://dc.lft.to/lastmile_qr_scan", "android": "https://dc.lft.to/lastmile_qr_scan"}}, {"name": "b7a4adfa3361d451783c8d7cf73f30dc", "type": "electric_scooter", "lat": 38.91531116666667, "is_reserved": 0, "lon": -77.04602916666667, "fusion_lon": 0.0, "is_disabled": 0, "fusion_lat": 0.0, "bike_id": "b7a4adfa3361d451783c8d7cf73f30dc", "rental_uris": {"ios": "https://dc.lft.to/lastmile_qr_scan", "android": "https://dc.lft.to/lastmile_qr_scan"}}, {"name": "e0584acd6ad73218219981c0b55509ea", "type": "electric_scooter", "lat": 38.899887166666666, "is_reserved": 0, "lon": -76.98548983333333, "fusion_lon": 0.0, "is_disabled": 0, "fusion_lat": 0.0, "bike_id": "e0584acd6ad73218219981c0b55509ea", "rental_uris": {"ios": "https://dc.lft.to/lastmile_qr_scan", "android": "https://dc.lft.to/lastmile_qr_scan"}}, {"name": "905b2ea60f4c55db28cf096fff59ee53", "type": "electric_scooter", "lat": 38.91489466666667, "is_reserved": 0, "lon": -77.01848883333334, "fusion_lon": 0.0, "is_disabled": 0, "fusion_lat": 0.0, "bike_id": "905b2ea60f4c55db28cf096fff59ee53", "rental_uris": {"ios": "https://dc.lft.to/lastmile_qr_scan", "android": "https://dc.lft.to/lastmile_qr_scan"}}, {"name": "31158f1cdce7977e5786dcb2d3c0d1be", "type": "electric_scooter", "lat": 38.9125875, "is_reserved": 0, "lon": -77.00361983333333, "fusion_lon": 0.0, "is_disabled": 0, "fusion_lat": 0.0, "bike_id": "31158f1cdce7977e5786dcb2d3c0d1be", "rental_uris": {"ios": "https://dc.lft.to/lastmile_qr_scan", "android": "https://dc.lft.to/lastmile_qr_scan"}}, {"name": "38f66c196eaa3afc08245438b4cef7b3", "type": "electric_scooter", "lat": 38.9306805, "is_reserved": 0, "lon": -77.04128433333334, "fusion_lon": 0.0, "is_disabled": 0, "fusion_lat": 0.0, "bike_id": "38f66c196eaa3afc08245438b4cef7b3", "rental_uris": {"ios": "https://dc.lft.to/lastmile_qr_scan", "android": "https://dc.lft.to/lastmile_qr_scan"}}, {"name": "cff71afd9aa653db74cffa5afff939e2", "type": "electric_scooter", "lat": 38.89480566666667, "is_reserved": 0, "lon": -76.94867366666666, "fusion_lon": 0.0, "is_disabled": 0, "fusion_lat": 0.0, "bike_id": "cff71afd9aa653db74cffa5afff939e2", "rental_uris": {"ios": "https://dc.lft.to/lastmile_qr_scan", "android": "https://dc.lft.to/lastmile_qr_scan"}}, {"name": "3b7676051075615f9d30d001d100bf5b", "type": "electric_scooter", "lat": 38.91265383333333, "is_reserved": 0, "lon": -77.03144533333334, "fusion_lon": 0.0, "is_disabled": 0, "fusion_lat": 0.0, "bike_id": "3b7676051075615f9d30d001d100bf5b", "rental_uris": {"ios": "https://dc.lft.to/lastmile_qr_scan", "android": "https://dc.lft.to/lastmile_qr_scan"}}, {"name": "55a857f80de1aa84de9912f589f82f4e", "type": "electric_scooter", "lat": 38.9254695, "is_reserved": 0, "lon": -77.00091033333334, "fusion_lon": 0.0, "is_disabled": 0, "fusion_lat": 0.0, "bike_id": "55a857f80de1aa84de9912f589f82f4e", "rental_uris": {"ios": "https://dc.lft.to/lastmile_qr_scan", "android": "https://dc.lft.to/lastmile_qr_scan"}}, {"name": "61995330a4a78181a784f88e0980b642", "type": "electric_scooter", "lat": 38.905303, "is_reserved": 0, "lon": -77.065083, "fusion_lon": 0.0, "is_disabled": 0, "fusion_lat": 0.0, "bike_id": "61995330a4a78181a784f88e0980b642", "rental_uris": {"ios": "https://dc.lft.to/lastmile_qr_scan", "android": "https://dc.lft.to/lastmile_qr_scan"}}, {"name": "9e45abdb32094c600a31bb2a004e15a8", "type": "electric_scooter", "lat": 38.927233666666666, "is_reserved": 0, "lon": -77.039852, "fusion_lon": 0.0, "is_disabled": 0, "fusion_lat": 0.0, "bike_id": "9e45abdb32094c600a31bb2a004e15a8", "rental_uris": {"ios": "https://dc.lft.to/lastmile_qr_scan", "android": "https://dc.lft.to/lastmile_qr_scan"}}, {"name": "332ac46a14fe6a945f418737abd51a46", "type": "electric_scooter", "lat": 38.89954816666667, "is_reserved": 0, "lon": -77.052674, "fusion_lon": 0.0, "is_disabled": 0, "fusion_lat": 0.0, "bike_id": "332ac46a14fe6a945f418737abd51a46", "rental_uris": {"ios": "https://dc.lft.to/lastmile_qr_scan", "android": "https://dc.lft.to/lastmile_qr_scan"}}, {"name": "45a4c9e388b3d69f93f3174713cdfb19", "type": "electric_scooter", "lat": 38.92268766666667, "is_reserved": 0, "lon": -77.01817933333334, "fusion_lon": 0.0, "is_disabled": 0, "fusion_lat": 0.0, "bike_id": "45a4c9e388b3d69f93f3174713cdfb19", "rental_uris": {"ios": "https://dc.lft.to/lastmile_qr_scan", "android": "https://dc.lft.to/lastmile_qr_scan"}}, {"name": "c4108408b192cb8c97f40958bad4f0cc", "type": "electric_scooter", "lat": 38.90497666666667, "is_reserved": 0, "lon": -77.02954266666667, "fusion_lon": 0.0, "is_disabled": 0, "fusion_lat": 0.0, "bike_id": "c4108408b192cb8c97f40958bad4f0cc", "rental_uris": {"ios": "https://dc.lft.to/lastmile_qr_scan", "android": "https://dc.lft.to/lastmile_qr_scan"}}, {"name": "5bda780593947b5676446f7e19b9808e", "type": "electric_scooter", "lat": 38.9010785, "is_reserved": 0, "lon": -77.033239, "fusion_lon": 0.0, "is_disabled": 0, "fusion_lat": 0.0, "bike_id": "5bda780593947b5676446f7e19b9808e", "rental_uris": {"ios": "https://dc.lft.to/lastmile_qr_scan", "android": "https://dc.lft.to/lastmile_qr_scan"}}, {"name": "8c04b3e744e547911c138685c7f76d34", "type": "electric_scooter", "lat": 38.904774333333336, "is_reserved": 0, "lon": -77.04868783333333, "fusion_lon": 0.0, "is_disabled": 0, "fusion_lat": 0.0, "bike_id": "8c04b3e744e547911c138685c7f76d34", "rental_uris": {"ios": "https://dc.lft.to/lastmile_qr_scan", "android": "https://dc.lft.to/lastmile_qr_scan"}}, {"name": "f36f480c48b699f943cb6709aa3acd91", "type": "electric_scooter", "lat": 38.942082, "is_reserved": 0, "lon": -77.03586616666666, "fusion_lon": 0.0, "is_disabled": 0, "fusion_lat": 0.0, "bike_id": "f36f480c48b699f943cb6709aa3acd91", "rental_uris": {"ios": "https://dc.lft.to/lastmile_qr_scan", "android": "https://dc.lft.to/lastmile_qr_scan"}}, {"name": "7e4dd669fb5fadf2415db2b20dabb0ef", "type": "electric_scooter", "lat": 38.931513833333334, "is_reserved": 0, "lon": -77.03833716666666, "fusion_lon": 0.0, "is_disabled": 0, "fusion_lat": 0.0, "bike_id": "7e4dd669fb5fadf2415db2b20dabb0ef", "rental_uris": {"ios": "https://dc.lft.to/lastmile_qr_scan", "android": "https://dc.lft.to/lastmile_qr_scan"}}, {"name": "7c9674f7a12617379d89767c6dcd1ad3", "type": "electric_scooter", "lat": 38.902421333333336, "is_reserved": 0, "lon": -77.01722216666667, "fusion_lon": 0.0, "is_disabled": 0, "fusion_lat": 0.0, "bike_id": "7c9674f7a12617379d89767c6dcd1ad3", "rental_uris": {"ios": "https://dc.lft.to/lastmile_qr_scan", "android": "https://dc.lft.to/lastmile_qr_scan"}}, {"name": "b2e533612074b66b01b034913a066c85", "type": "electric_scooter", "lat": 38.903623, "is_reserved": 0, "lon": -77.04006583333333, "fusion_lon": 0.0, "is_disabled": 0, "fusion_lat": 0.0, "bike_id": "b2e533612074b66b01b034913a066c85", "rental_uris": {"ios": "https://dc.lft.to/lastmile_qr_scan", "android": "https://dc.lft.to/lastmile_qr_scan"}}, {"name": "3b082b5b46baf260b815f9b585391180", "type": "electric_scooter", "lat": 38.90663033333333, "is_reserved": 0, "lon": -77.038538, "fusion_lon": 0.0, "is_disabled": 0, "fusion_lat": 0.0, "bike_id": "3b082b5b46baf260b815f9b585391180", "rental_uris": {"ios": "https://dc.lft.to/lastmile_qr_scan", "android": "https://dc.lft.to/lastmile_qr_scan"}}, {"name": "462635169e0fdc599be55a624a9353b1", "type": "electric_scooter", "lat": 38.9211925, "is_reserved": 0, "lon": -77.03659516666667, "fusion_lon": 0.0, "is_disabled": 0, "fusion_lat": 0.0, "bike_id": "462635169e0fdc599be55a624a9353b1", "rental_uris": {"ios": "https://dc.lft.to/lastmile_qr_scan", "android": "https://dc.lft.to/lastmile_qr_scan"}}, {"name": "35b530ae286bb34328bc0b3196a4e5be", "type": "electric_scooter", "lat": 38.863544166666664, "is_reserved": 0, "lon": -76.9907265, "fusion_lon": 0.0, "is_disabled": 0, "fusion_lat": 0.0, "bike_id": "35b530ae286bb34328bc0b3196a4e5be", "rental_uris": {"ios": "https://dc.lft.to/lastmile_qr_scan", "android": "https://dc.lft.to/lastmile_qr_scan"}}, {"name": "2f30aa266c61129a3210f6b77ee08164", "type": "electric_bike", "lat": 38.935763333333334, "is_reserved": 0, "lon": -77.02123183333333, "fusion_lon": 0.0, "is_disabled": 0, "fusion_lat": 0.0, "bike_id": "2f30aa266c61129a3210f6b77ee08164", "rental_uris": {"ios": "https://dc.lft.to/lastmile_qr_scan", "android": "https://dc.lft.to/lastmile_qr_scan"}}, {"name": "e38c879c33036df86bb026ed56c97fb4", "type": "electric_scooter", "lat": 38.892195, "is_reserved": 0, "lon": -77.032095, "fusion_lon": 0.0, "is_disabled": 0, "fusion_lat": 0.0, "bike_id": "e38c879c33036df86bb026ed56c97fb4", "rental_uris": {"ios": "https://dc.lft.to/lastmile_qr_scan", "android": "https://dc.lft.to/lastmile_qr_scan"}}, {"name": "ae0ac558b1420695657bce5fe5c262d0", "type": "electric_scooter", "lat": 38.9237435, "is_reserved": 0, "lon": -77.0313075, "fusion_lon": 0.0, "is_disabled": 0, "fusion_lat": 0.0, "bike_id": "ae0ac558b1420695657bce5fe5c262d0", "rental_uris": {"ios": "https://dc.lft.to/lastmile_qr_scan", "android": "https://dc.lft.to/lastmile_qr_scan"}}, {"name": "c464c9f86ef37253d6a5d2ae6e026f78", "type": "electric_scooter", "lat": 38.9025675, "is_reserved": 0, "lon": -77.017677, "fusion_lon": 0.0, "is_disabled": 0, "fusion_lat": 0.0, "bike_id": "c464c9f86ef37253d6a5d2ae6e026f78", "rental_uris": {"ios": "https://dc.lft.to/lastmile_qr_scan", "android": "https://dc.lft.to/lastmile_qr_scan"}}, {"name": "60af65dc7e818854d35caf1e30c9c7e8", "type": "electric_scooter", "lat": 38.913359166666666, "is_reserved": 0, "lon": -77.04834366666667, "fusion_lon": 0.0, "is_disabled": 0, "fusion_lat": 0.0, "bike_id": "60af65dc7e818854d35caf1e30c9c7e8", "rental_uris": {"ios": "https://dc.lft.to/lastmile_qr_scan", "android": "https://dc.lft.to/lastmile_qr_scan"}}, {"name": "cd73068e88a658903559488c61d347c7", "type": "electric_scooter", "lat": 38.87835716666667, "is_reserved": 0, "lon": -76.988373, "fusion_lon": 0.0, "is_disabled": 0, "fusion_lat": 0.0, "bike_id": "cd73068e88a658903559488c61d347c7", "rental_uris": {"ios": "https://dc.lft.to/lastmile_qr_scan", "android": "https://dc.lft.to/lastmile_qr_scan"}}, {"name": "8e18d0a1157d8b279f844b597b66bdf8", "type": "electric_scooter", "lat": 38.880514, "is_reserved": 0, "lon": -77.01327583333334, "fusion_lon": 0.0, "is_disabled": 0, "fusion_lat": 0.0, "bike_id": "8e18d0a1157d8b279f844b597b66bdf8", "rental_uris": {"ios": "https://dc.lft.to/lastmile_qr_scan", "android": "https://dc.lft.to/lastmile_qr_scan"}}, {"name": "623efe6405bf872915b2261798c14910", "type": "electric_scooter", "lat": 38.895148166666665, "is_reserved": 0, "lon": -76.99147316666667, "fusion_lon": 0.0, "is_disabled": 0, "fusion_lat": 0.0, "bike_id": "623efe6405bf872915b2261798c14910", "rental_uris": {"ios": "https://dc.lft.to/lastmile_qr_scan", "android": "https://dc.lft.to/lastmile_qr_scan"}}, {"name": "3c6eb11de4ba2f326e7ca2c6e30891b4", "type": "electric_scooter", "lat": 38.898859, "is_reserved": 0, "lon": -76.9317165, "fusion_lon": 0.0, "is_disabled": 0, "fusion_lat": 0.0, "bike_id": "3c6eb11de4ba2f326e7ca2c6e30891b4", "rental_uris": {"ios": "https://dc.lft.to/lastmile_qr_scan", "android": "https://dc.lft.to/lastmile_qr_scan"}}, {"name": "e98eee2251aaaa0bce3b6d6d1ad3ad48", "type": "electric_scooter", "lat": 38.894741333333336, "is_reserved": 0, "lon": -76.98404216666667, "fusion_lon": 0.0, "is_disabled": 0, "fusion_lat": 0.0, "bike_id": "e98eee2251aaaa0bce3b6d6d1ad3ad48", "rental_uris": {"ios": "https://dc.lft.to/lastmile_qr_scan", "android": "https://dc.lft.to/lastmile_qr_scan"}}, {"name": "f90695a8be3e00f5102e876efc9bd6aa", "type": "electric_scooter", "lat": 38.86569383333333, "is_reserved": 0, "lon": -76.98949166666667, "fusion_lon": 0.0, "is_disabled": 0, "fusion_lat": 0.0, "bike_id": "f90695a8be3e00f5102e876efc9bd6aa", "rental_uris": {"ios": "https://dc.lft.to/lastmile_qr_scan", "android": "https://dc.lft.to/lastmile_qr_scan"}}, {"name": "800f067c4a2eab5471f47ab307bc8623", "type": "electric_scooter", "lat": 38.93063016666667, "is_reserved": 0, "lon": -77.039412, "fusion_lon": 0.0, "is_disabled": 0, "fusion_lat": 0.0, "bike_id": "800f067c4a2eab5471f47ab307bc8623", "rental_uris": {"ios": "https://dc.lft.to/lastmile_qr_scan", "android": "https://dc.lft.to/lastmile_qr_scan"}}, {"name": "b3ca10394d465a573bc5c636a38f7d87", "type": "electric_scooter", "lat": 38.943127833333335, "is_reserved": 0, "lon": -77.05917383333333, "fusion_lon": 0.0, "is_disabled": 0, "fusion_lat": 0.0, "bike_id": "b3ca10394d465a573bc5c636a38f7d87", "rental_uris": {"ios": "https://dc.lft.to/lastmile_qr_scan", "android": "https://dc.lft.to/lastmile_qr_scan"}}, {"name": "13521fb688e7deff939fa191797a3ed6", "type": "electric_bike", "lat": 38.89839516666667, "is_reserved": 0, "lon": -77.00576216666667, "fusion_lon": 0.0, "is_disabled": 0, "fusion_lat": 0.0, "bike_id": "13521fb688e7deff939fa191797a3ed6", "rental_uris": {"ios": "https://dc.lft.to/lastmile_qr_scan", "android": "https://dc.lft.to/lastmile_qr_scan"}}, {"name": "2c02927000f31557b9e68ff44675d76e", "type": "electric_scooter", "lat": 38.91639816666667, "is_reserved": 0, "lon": -77.03192016666667, "fusion_lon": 0.0, "is_disabled": 0, "fusion_lat": 0.0, "bike_id": "2c02927000f31557b9e68ff44675d76e", "rental_uris": {"ios": "https://dc.lft.to/lastmile_qr_scan", "android": "https://dc.lft.to/lastmile_qr_scan"}}, {"name": "8eb4b8857c4dd3da62dc8ffd699e9ff0", "type": "electric_scooter", "lat": 38.89916216666667, "is_reserved": 0, "lon": -76.93380583333334, "fusion_lon": 0.0, "is_disabled": 0, "fusion_lat": 0.0, "bike_id": "8eb4b8857c4dd3da62dc8ffd699e9ff0", "rental_uris": {"ios": "https://dc.lft.to/lastmile_qr_scan", "android": "https://dc.lft.to/lastmile_qr_scan"}}, {"name": "ae039739c497589e1b50ba229c951f97", "type": "electric_bike", "lat": 38.91168233333333, "is_reserved": 0, "lon": -77.00275583333334, "fusion_lon": 0.0, "is_disabled": 0, "fusion_lat": 0.0, "bike_id": "ae039739c497589e1b50ba229c951f97", "rental_uris": {"ios": "https://dc.lft.to/lastmile_qr_scan", "android": "https://dc.lft.to/lastmile_qr_scan"}}, {"name": "bfb1ae8994b3b4e6f3b68cdb6208a0a0", "type": "electric_scooter", "lat": 38.922237333333335, "is_reserved": 0, "lon": -77.04616683333333, "fusion_lon": 0.0, "is_disabled": 0, "fusion_lat": 0.0, "bike_id": "bfb1ae8994b3b4e6f3b68cdb6208a0a0", "rental_uris": {"ios": "https://dc.lft.to/lastmile_qr_scan", "android": "https://dc.lft.to/lastmile_qr_scan"}}, {"name": "02e8447e23b29b8676022cb1a00153b0", "type": "electric_scooter", "lat": 38.90134066666667, "is_reserved": 0, "lon": -77.04501783333333, "fusion_lon": 0.0, "is_disabled": 0, "fusion_lat": 0.0, "bike_id": "02e8447e23b29b8676022cb1a00153b0", "rental_uris": {"ios": "https://dc.lft.to/lastmile_qr_scan", "android": "https://dc.lft.to/lastmile_qr_scan"}}, {"name": "e2756e95ec47eef9865bfd2d88e85973", "type": "electric_scooter", "lat": 38.90248716666667, "is_reserved": 0, "lon": -76.97927583333333, "fusion_lon": 0.0, "is_disabled": 0, "fusion_lat": 0.0, "bike_id": "e2756e95ec47eef9865bfd2d88e85973", "rental_uris": {"ios": "https://dc.lft.to/lastmile_qr_scan", "android": "https://dc.lft.to/lastmile_qr_scan"}}, {"name": "a59b9ddff4c8c30b9cd707d2a3fe6abd", "type": "electric_bike", "lat": 38.851566, "is_reserved": 0, "lon": -77.12875283333334, "fusion_lon": 0.0, "is_disabled": 0, "fusion_lat": 0.0, "bike_id": "a59b9ddff4c8c30b9cd707d2a3fe6abd", "rental_uris": {"ios": "https://dc.lft.to/lastmile_qr_scan", "android": "https://dc.lft.to/lastmile_qr_scan"}}, {"name": "9b7fcaaf4b018ee71732d11da7410add", "type": "electric_scooter", "lat": 38.906536833333334, "is_reserved": 0, "lon": -77.04293033333333, "fusion_lon": 0.0, "is_disabled": 0, "fusion_lat": 0.0, "bike_id": "9b7fcaaf4b018ee71732d11da7410add", "rental_uris": {"ios": "https://dc.lft.to/lastmile_qr_scan", "android": "https://dc.lft.to/lastmile_qr_scan"}}, {"name": "846f0f779d1687b003114fff0182341e", "type": "electric_scooter", "lat": 38.9285845, "is_reserved": 0, "lon": -77.03306066666667, "fusion_lon": 0.0, "is_disabled": 0, "fusion_lat": 0.0, "bike_id": "846f0f779d1687b003114fff0182341e", "rental_uris": {"ios": "https://dc.lft.to/lastmile_qr_scan", "android": "https://dc.lft.to/lastmile_qr_scan"}}, {"name": "c8647174365196da1756bbaac5e2583a", "type": "electric_bike", "lat": 38.884023, "is_reserved": 0, "lon": -77.04643, "fusion_lon": 0.0, "is_disabled": 0, "fusion_lat": 0.0, "bike_id": "c8647174365196da1756bbaac5e2583a", "rental_uris": {"ios": "https://dc.lft.to/lastmile_qr_scan", "android": "https://dc.lft.to/lastmile_qr_scan"}}, {"name": "261ba350b46b4407cc1a20b8a5886d7d", "type": "electric_scooter", "lat": 38.905355166666666, "is_reserved": 0, "lon": -77.05925483333333, "fusion_lon": 0.0, "is_disabled": 0, "fusion_lat": 0.0, "bike_id": "261ba350b46b4407cc1a20b8a5886d7d", "rental_uris": {"ios": "https://dc.lft.to/lastmile_qr_scan", "android": "https://dc.lft.to/lastmile_qr_scan"}}, {"name": "2317d630ff80d2dcbc609cdfe8110c24", "type": "electric_bike", "lat": 38.828726833333334, "is_reserved": 0, "lon": -77.11219283333334, "fusion_lon": 0.0, "is_disabled": 0, "fusion_lat": 0.0, "bike_id": "2317d630ff80d2dcbc609cdfe8110c24", "rental_uris": {"ios": "https://dc.lft.to/lastmile_qr_scan", "android": "https://dc.lft.to/lastmile_qr_scan"}}, {"name": "c2e07f6d0ed0ec41a84ba8cb9d4fbb4a", "type": "electric_scooter", "lat": 38.919179166666666, "is_reserved": 0, "lon": -77.03124166666667, "fusion_lon": 0.0, "is_disabled": 0, "fusion_lat": 0.0, "bike_id": "c2e07f6d0ed0ec41a84ba8cb9d4fbb4a", "rental_uris": {"ios": "https://dc.lft.to/lastmile_qr_scan", "android": "https://dc.lft.to/lastmile_qr_scan"}}, {"name": "abe330f5381d17a42a7677cd05c83b9a", "type": "electric_scooter", "lat": 38.900127, "is_reserved": 0, "lon": -77.01109716666667, "fusion_lon": 0.0, "is_disabled": 0, "fusion_lat": 0.0, "bike_id": "abe330f5381d17a42a7677cd05c83b9a", "rental_uris": {"ios": "https://dc.lft.to/lastmile_qr_scan", "android": "https://dc.lft.to/lastmile_qr_scan"}}, {"name": "ae0b85a75d4d8188da811d52cb7a32f6", "type": "electric_scooter", "lat": 38.90575833333333, "is_reserved": 0, "lon": -77.04855983333333, "fusion_lon": 0.0, "is_disabled": 0, "fusion_lat": 0.0, "bike_id": "ae0b85a75d4d8188da811d52cb7a32f6", "rental_uris": {"ios": "https://dc.lft.to/lastmile_qr_scan", "android": "https://dc.lft.to/lastmile_qr_scan"}}, {"name": "2cd02906a27cd5fd08a836c91b0b9b27", "type": "electric_scooter", "lat": 38.876315166666664, "is_reserved": 0, "lon": -77.00912883333334, "fusion_lon": 0.0, "is_disabled": 0, "fusion_lat": 0.0, "bike_id": "2cd02906a27cd5fd08a836c91b0b9b27", "rental_uris": {"ios": "https://dc.lft.to/lastmile_qr_scan", "android": "https://dc.lft.to/lastmile_qr_scan"}}, {"name": "166c1edf38fca59dc1cd20c6d213c3a9", "type": "electric_scooter", "lat": 38.92436983333333, "is_reserved": 0, "lon": -77.03348966666667, "fusion_lon": 0.0, "is_disabled": 0, "fusion_lat": 0.0, "bike_id": "166c1edf38fca59dc1cd20c6d213c3a9", "rental_uris": {"ios": "https://dc.lft.to/lastmile_qr_scan", "android": "https://dc.lft.to/lastmile_qr_scan"}}, {"name": "1e1b0a98aeff5160b8228ecbc8308006", "type": "electric_scooter", "lat": 38.884054666666664, "is_reserved": 0, "lon": -77.01520816666667, "fusion_lon": 0.0, "is_disabled": 0, "fusion_lat": 0.0, "bike_id": "1e1b0a98aeff5160b8228ecbc8308006", "rental_uris": {"ios": "https://dc.lft.to/lastmile_qr_scan", "android": "https://dc.lft.to/lastmile_qr_scan"}}, {"name": "bbae701d3977479c3ede271b64325f8b", "type": "electric_scooter", "lat": 38.90142316666667, "is_reserved": 0, "lon": -77.043928, "fusion_lon": 0.0, "is_disabled": 0, "fusion_lat": 0.0, "bike_id": "bbae701d3977479c3ede271b64325f8b", "rental_uris": {"ios": "https://dc.lft.to/lastmile_qr_scan", "android": "https://dc.lft.to/lastmile_qr_scan"}}, {"name": "03056da6f2d962b3193d23b397bcf222", "type": "electric_scooter", "lat": 38.89231683333333, "is_reserved": 0, "lon": -77.02204366666666, "fusion_lon": 0.0, "is_disabled": 0, "fusion_lat": 0.0, "bike_id": "03056da6f2d962b3193d23b397bcf222", "rental_uris": {"ios": "https://dc.lft.to/lastmile_qr_scan", "android": "https://dc.lft.to/lastmile_qr_scan"}}, {"name": "4b4ba2b3f7b4d8226537a5da91cc61d1", "type": "electric_bike", "lat": 38.99089466666667, "is_reserved": 0, "lon": -76.87493633333334, "fusion_lon": 0.0, "is_disabled": 0, "fusion_lat": 0.0, "bike_id": "4b4ba2b3f7b4d8226537a5da91cc61d1", "rental_uris": {"ios": "https://dc.lft.to/lastmile_qr_scan", "android": "https://dc.lft.to/lastmile_qr_scan"}}, {"name": "5947f31e24b5fa18820d5ee4ac93a412", "type": "electric_scooter", "lat": 38.89454883333333, "is_reserved": 0, "lon": -77.01921483333334, "fusion_lon": 0.0, "is_disabled": 0, "fusion_lat": 0.0, "bike_id": "5947f31e24b5fa18820d5ee4ac93a412", "rental_uris": {"ios": "https://dc.lft.to/lastmile_qr_scan", "android": "https://dc.lft.to/lastmile_qr_scan"}}, {"name": "85c721d342a4bbb23c77c9b22633475c", "type": "electric_scooter", "lat": 38.8973725, "is_reserved": 0, "lon": -76.93841816666666, "fusion_lon": 0.0, "is_disabled": 0, "fusion_lat": 0.0, "bike_id": "85c721d342a4bbb23c77c9b22633475c", "rental_uris": {"ios": "https://dc.lft.to/lastmile_qr_scan", "android": "https://dc.lft.to/lastmile_qr_scan"}}, {"name": "08d12e1d28644240fec6c33433b3bc23", "type": "electric_bike", "lat": 38.8382845, "is_reserved": 0, "lon": -76.996845, "fusion_lon": 0.0, "is_disabled": 0, "fusion_lat": 0.0, "bike_id": "08d12e1d28644240fec6c33433b3bc23", "rental_uris": {"ios": "https://dc.lft.to/lastmile_qr_scan", "android": "https://dc.lft.to/lastmile_qr_scan"}}, {"name": "bf74d4dec800f4ade1f260c0e79fe816", "type": "electric_scooter", "lat": 38.90281, "is_reserved": 0, "lon": -77.0390895, "fusion_lon": 0.0, "is_disabled": 0, "fusion_lat": 0.0, "bike_id": "bf74d4dec800f4ade1f260c0e79fe816", "rental_uris": {"ios": "https://dc.lft.to/lastmile_qr_scan", "android": "https://dc.lft.to/lastmile_qr_scan"}}, {"name": "cd9903194fdf17798d346ffdbcfcb564", "type": "electric_scooter", "lat": 38.87629666666667, "is_reserved": 0, "lon": -76.96524933333333, "fusion_lon": 0.0, "is_disabled": 0, "fusion_lat": 0.0, "bike_id": "cd9903194fdf17798d346ffdbcfcb564", "rental_uris": {"ios": "https://dc.lft.to/lastmile_qr_scan", "android": "https://dc.lft.to/lastmile_qr_scan"}}, {"name": "63870bf67c89479f5361fa2d2328edff", "type": "electric_scooter", "lat": 38.923526833333334, "is_reserved": 0, "lon": -77.05309183333334, "fusion_lon": 0.0, "is_disabled": 0, "fusion_lat": 0.0, "bike_id": "63870bf67c89479f5361fa2d2328edff", "rental_uris": {"ios": "https://dc.lft.to/lastmile_qr_scan", "android": "https://dc.lft.to/lastmile_qr_scan"}}, {"name": "5dd040000df2db5bbafbed7687adb370", "type": "electric_scooter", "lat": 38.89234916666667, "is_reserved": 0, "lon": -77.0152875, "fusion_lon": 0.0, "is_disabled": 0, "fusion_lat": 0.0, "bike_id": "5dd040000df2db5bbafbed7687adb370", "rental_uris": {"ios": "https://dc.lft.to/lastmile_qr_scan", "android": "https://dc.lft.to/lastmile_qr_scan"}}, {"name": "41c9dd08044020ca48e9e43fe0c0cecf", "type": "electric_scooter", "lat": 38.932876, "is_reserved": 0, "lon": -77.039792, "fusion_lon": 0.0, "is_disabled": 0, "fusion_lat": 0.0, "bike_id": "41c9dd08044020ca48e9e43fe0c0cecf", "rental_uris": {"ios": "https://dc.lft.to/lastmile_qr_scan", "android": "https://dc.lft.to/lastmile_qr_scan"}}, {"name": "835758568092f43b15fdcb1e208d368b", "type": "electric_scooter", "lat": 38.928641666666664, "is_reserved": 0, "lon": -77.01379816666666, "fusion_lon": 0.0, "is_disabled": 0, "fusion_lat": 0.0, "bike_id": "835758568092f43b15fdcb1e208d368b", "rental_uris": {"ios": "https://dc.lft.to/lastmile_qr_scan", "android": "https://dc.lft.to/lastmile_qr_scan"}}, {"name": "b21551fcc95204305d36697035eee6dc", "type": "electric_scooter", "lat": 38.908418, "is_reserved": 0, "lon": -77.026916, "fusion_lon": 0.0, "is_disabled": 0, "fusion_lat": 0.0, "bike_id": "b21551fcc95204305d36697035eee6dc", "rental_uris": {"ios": "https://dc.lft.to/lastmile_qr_scan", "android": "https://dc.lft.to/lastmile_qr_scan"}}, {"name": "4608530d484a03161150fc042ef51b20", "type": "electric_scooter", "lat": 38.865210833333336, "is_reserved": 0, "lon": -76.99031733333334, "fusion_lon": 0.0, "is_disabled": 0, "fusion_lat": 0.0, "bike_id": "4608530d484a03161150fc042ef51b20", "rental_uris": {"ios": "https://dc.lft.to/lastmile_qr_scan", "android": "https://dc.lft.to/lastmile_qr_scan"}}, {"name": "434d6c62f59785ecb9cd9c2dae8287b0", "type": "electric_scooter", "lat": 38.88685366666667, "is_reserved": 0, "lon": -76.95762333333333, "fusion_lon": 0.0, "is_disabled": 0, "fusion_lat": 0.0, "bike_id": "434d6c62f59785ecb9cd9c2dae8287b0", "rental_uris": {"ios": "https://dc.lft.to/lastmile_qr_scan", "android": "https://dc.lft.to/lastmile_qr_scan"}}, {"name": "896f18d5c1249fbfee0d7b68e8a97e05", "type": "electric_scooter", "lat": 38.8620925, "is_reserved": 0, "lon": -76.99465016666667, "fusion_lon": 0.0, "is_disabled": 0, "fusion_lat": 0.0, "bike_id": "896f18d5c1249fbfee0d7b68e8a97e05", "rental_uris": {"ios": "https://dc.lft.to/lastmile_qr_scan", "android": "https://dc.lft.to/lastmile_qr_scan"}}, {"name": "8a505ef8b16f60b8d4375331c2b6c754", "type": "electric_bike", "lat": 38.929025833333334, "is_reserved": 0, "lon": -77.023826, "fusion_lon": 0.0, "is_disabled": 0, "fusion_lat": 0.0, "bike_id": "8a505ef8b16f60b8d4375331c2b6c754", "rental_uris": {"ios": "https://dc.lft.to/lastmile_qr_scan", "android": "https://dc.lft.to/lastmile_qr_scan"}}, {"name": "969ea5cb879eba739d729fc5239453fa", "type": "electric_scooter", "lat": 38.95922016666667, "is_reserved": 0, "lon": -77.03320583333333, "fusion_lon": 0.0, "is_disabled": 0, "fusion_lat": 0.0, "bike_id": "969ea5cb879eba739d729fc5239453fa", "rental_uris": {"ios": "https://dc.lft.to/lastmile_qr_scan", "android": "https://dc.lft.to/lastmile_qr_scan"}}, {"name": "58636e32fc47fb01ef06616cb000f8d2", "type": "electric_scooter", "lat": 38.900383, "is_reserved": 0, "lon": -76.91913933333333, "fusion_lon": 0.0, "is_disabled": 0, "fusion_lat": 0.0, "bike_id": "58636e32fc47fb01ef06616cb000f8d2", "rental_uris": {"ios": "https://dc.lft.to/lastmile_qr_scan", "android": "https://dc.lft.to/lastmile_qr_scan"}}, {"name": "8d87bd1ccf363b78f697a163c92a8cd4", "type": "electric_scooter", "lat": 38.9011105, "is_reserved": 0, "lon": -77.05158566666667, "fusion_lon": 0.0, "is_disabled": 0, "fusion_lat": 0.0, "bike_id": "8d87bd1ccf363b78f697a163c92a8cd4", "rental_uris": {"ios": "https://dc.lft.to/lastmile_qr_scan", "android": "https://dc.lft.to/lastmile_qr_scan"}}, {"name": "e7a262a5f5fa983aab196c953db5ea29", "type": "electric_scooter", "lat": 38.92340883333333, "is_reserved": 0, "lon": -77.05041966666667, "fusion_lon": 0.0, "is_disabled": 0, "fusion_lat": 0.0, "bike_id": "e7a262a5f5fa983aab196c953db5ea29", "rental_uris": {"ios": "https://dc.lft.to/lastmile_qr_scan", "android": "https://dc.lft.to/lastmile_qr_scan"}}, {"name": "de87e12394bf1776fb02131c29782bc9", "type": "electric_scooter", "lat": 38.897977, "is_reserved": 0, "lon": -76.9950375, "fusion_lon": 0.0, "is_disabled": 0, "fusion_lat": 0.0, "bike_id": "de87e12394bf1776fb02131c29782bc9", "rental_uris": {"ios": "https://dc.lft.to/lastmile_qr_scan", "android": "https://dc.lft.to/lastmile_qr_scan"}}, {"name": "7b636c44a0a61f90fdf41f855bc9a2af", "type": "electric_scooter", "lat": 38.903445833333336, "is_reserved": 0, "lon": -77.03827433333333, "fusion_lon": 0.0, "is_disabled": 0, "fusion_lat": 0.0, "bike_id": "7b636c44a0a61f90fdf41f855bc9a2af", "rental_uris": {"ios": "https://dc.lft.to/lastmile_qr_scan", "android": "https://dc.lft.to/lastmile_qr_scan"}}, {"name": "fba434010bc218fe20f30fd3a39d5e90", "type": "electric_scooter", "lat": 38.9057165, "is_reserved": 0, "lon": -77.03983466666666, "fusion_lon": 0.0, "is_disabled": 0, "fusion_lat": 0.0, "bike_id": "fba434010bc218fe20f30fd3a39d5e90", "rental_uris": {"ios": "https://dc.lft.to/lastmile_qr_scan", "android": "https://dc.lft.to/lastmile_qr_scan"}}, {"name": "84f202cb6521056598f89df8c4c37730", "type": "electric_scooter", "lat": 38.89504566666667, "is_reserved": 0, "lon": -77.02283616666666, "fusion_lon": 0.0, "is_disabled": 0, "fusion_lat": 0.0, "bike_id": "84f202cb6521056598f89df8c4c37730", "rental_uris": {"ios": "https://dc.lft.to/lastmile_qr_scan", "android": "https://dc.lft.to/lastmile_qr_scan"}}, {"name": "271b2adeda0abd7ff1ef31168a4b5092", "type": "electric_scooter", "lat": 38.898764, "is_reserved": 0, "lon": -76.93156766666667, "fusion_lon": 0.0, "is_disabled": 0, "fusion_lat": 0.0, "bike_id": "271b2adeda0abd7ff1ef31168a4b5092", "rental_uris": {"ios": "https://dc.lft.to/lastmile_qr_scan", "android": "https://dc.lft.to/lastmile_qr_scan"}}, {"name": "477b3480180177b973a9d050932bc14c", "type": "electric_scooter", "lat": 38.943953666666665, "is_reserved": 0, "lon": -77.03889433333333, "fusion_lon": 0.0, "is_disabled": 0, "fusion_lat": 0.0, "bike_id": "477b3480180177b973a9d050932bc14c", "rental_uris": {"ios": "https://dc.lft.to/lastmile_qr_scan", "android": "https://dc.lft.to/lastmile_qr_scan"}}, {"name": "5d278f602044324703a0458a6464068d", "type": "electric_scooter", "lat": 38.905593, "is_reserved": 0, "lon": -77.02814383333333, "fusion_lon": 0.0, "is_disabled": 0, "fusion_lat": 0.0, "bike_id": "5d278f602044324703a0458a6464068d", "rental_uris": {"ios": "https://dc.lft.to/lastmile_qr_scan", "android": "https://dc.lft.to/lastmile_qr_scan"}}, {"name": "6a8b989dbd0df1ba455cd6c5129254e6", "type": "electric_scooter", "lat": 38.92747883333333, "is_reserved": 0, "lon": -77.024182, "fusion_lon": 0.0, "is_disabled": 0, "fusion_lat": 0.0, "bike_id": "6a8b989dbd0df1ba455cd6c5129254e6", "rental_uris": {"ios": "https://dc.lft.to/lastmile_qr_scan", "android": "https://dc.lft.to/lastmile_qr_scan"}}, {"name": "2a293af202c09509b952f3af61b20a40", "type": "electric_scooter", "lat": 38.9189535, "is_reserved": 0, "lon": -77.04155333333334, "fusion_lon": 0.0, "is_disabled": 0, "fusion_lat": 0.0, "bike_id": "2a293af202c09509b952f3af61b20a40", "rental_uris": {"ios": "https://dc.lft.to/lastmile_qr_scan", "android": "https://dc.lft.to/lastmile_qr_scan"}}, {"name": "7d13cd130f5b05645f3f83de7e40a0ed", "type": "electric_scooter", "lat": 38.9173175, "is_reserved": 0, "lon": -77.01023766666667, "fusion_lon": 0.0, "is_disabled": 0, "fusion_lat": 0.0, "bike_id": "7d13cd130f5b05645f3f83de7e40a0ed", "rental_uris": {"ios": "https://dc.lft.to/lastmile_qr_scan", "android": "https://dc.lft.to/lastmile_qr_scan"}}, {"name": "80570989aecd1e0d831235a16303e8f8", "type": "electric_bike", "lat": 38.96122116666667, "is_reserved": 0, "lon": -77.032705, "fusion_lon": 0.0, "is_disabled": 0, "fusion_lat": 0.0, "bike_id": "80570989aecd1e0d831235a16303e8f8", "rental_uris": {"ios": "https://dc.lft.to/lastmile_qr_scan", "android": "https://dc.lft.to/lastmile_qr_scan"}}, {"name": "f20c3eee7d6cc13ab6097c4682821a09", "type": "electric_scooter", "lat": 38.92442066666667, "is_reserved": 0, "lon": -76.9932935, "fusion_lon": 0.0, "is_disabled": 0, "fusion_lat": 0.0, "bike_id": "f20c3eee7d6cc13ab6097c4682821a09", "rental_uris": {"ios": "https://dc.lft.to/lastmile_qr_scan", "android": "https://dc.lft.to/lastmile_qr_scan"}}, {"name": "5f37bb4250773c02eb4ef5b20cdb5e5f", "type": "electric_scooter", "lat": 38.912594166666665, "is_reserved": 0, "lon": -77.03324566666667, "fusion_lon": 0.0, "is_disabled": 0, "fusion_lat": 0.0, "bike_id": "5f37bb4250773c02eb4ef5b20cdb5e5f", "rental_uris": {"ios": "https://dc.lft.to/lastmile_qr_scan", "android": "https://dc.lft.to/lastmile_qr_scan"}}, {"name": "3baa7e0420c06a9b3a92f8e771f0f969", "type": "electric_scooter", "lat": 38.9155425, "is_reserved": 0, "lon": -77.0461345, "fusion_lon": 0.0, "is_disabled": 0, "fusion_lat": 0.0, "bike_id": "3baa7e0420c06a9b3a92f8e771f0f969", "rental_uris": {"ios": "https://dc.lft.to/lastmile_qr_scan", "android": "https://dc.lft.to/lastmile_qr_scan"}}, {"name": "2643838a65243e7890889d013a84c371", "type": "electric_scooter", "lat": 38.90887433333333, "is_reserved": 0, "lon": -77.00562233333333, "fusion_lon": 0.0, "is_disabled": 0, "fusion_lat": 0.0, "bike_id": "2643838a65243e7890889d013a84c371", "rental_uris": {"ios": "https://dc.lft.to/lastmile_qr_scan", "android": "https://dc.lft.to/lastmile_qr_scan"}}, {"name": "704321b7692cb297e35aeb0f6653d990", "type": "electric_scooter", "lat": 38.9063495, "is_reserved": 0, "lon": -77.05130716666666, "fusion_lon": 0.0, "is_disabled": 0, "fusion_lat": 0.0, "bike_id": "704321b7692cb297e35aeb0f6653d990", "rental_uris": {"ios": "https://dc.lft.to/lastmile_qr_scan", "android": "https://dc.lft.to/lastmile_qr_scan"}}, {"name": "c252247922ae939a6ab75459282529f9", "type": "electric_scooter", "lat": 38.906604333333334, "is_reserved": 0, "lon": -77.051498, "fusion_lon": 0.0, "is_disabled": 0, "fusion_lat": 0.0, "bike_id": "c252247922ae939a6ab75459282529f9", "rental_uris": {"ios": "https://dc.lft.to/lastmile_qr_scan", "android": "https://dc.lft.to/lastmile_qr_scan"}}, {"name": "ae5fd553ad84d3273fe4b690a7994366", "type": "electric_scooter", "lat": 38.900006166666664, "is_reserved": 0, "lon": -77.04027516666666, "fusion_lon": 0.0, "is_disabled": 0, "fusion_lat": 0.0, "bike_id": "ae5fd553ad84d3273fe4b690a7994366", "rental_uris": {"ios": "https://dc.lft.to/lastmile_qr_scan", "android": "https://dc.lft.to/lastmile_qr_scan"}}, {"name": "d4ba2168ac943ba7eca9c88e8adb1f16", "type": "electric_scooter", "lat": 38.93010733333333, "is_reserved": 0, "lon": -77.02323933333334, "fusion_lon": 0.0, "is_disabled": 0, "fusion_lat": 0.0, "bike_id": "d4ba2168ac943ba7eca9c88e8adb1f16", "rental_uris": {"ios": "https://dc.lft.to/lastmile_qr_scan", "android": "https://dc.lft.to/lastmile_qr_scan"}}, {"name": "b323dadc896c3ccded48f6af29c0f8a3", "type": "electric_scooter", "lat": 38.9056965, "is_reserved": 0, "lon": -77.03441983333333, "fusion_lon": 0.0, "is_disabled": 0, "fusion_lat": 0.0, "bike_id": "b323dadc896c3ccded48f6af29c0f8a3", "rental_uris": {"ios": "https://dc.lft.to/lastmile_qr_scan", "android": "https://dc.lft.to/lastmile_qr_scan"}}, {"name": "efc929decd7d86236f04bff2cb464b6c", "type": "electric_scooter", "lat": 38.900246833333334, "is_reserved": 0, "lon": -77.01183916666666, "fusion_lon": 0.0, "is_disabled": 0, "fusion_lat": 0.0, "bike_id": "efc929decd7d86236f04bff2cb464b6c", "rental_uris": {"ios": "https://dc.lft.to/lastmile_qr_scan", "android": "https://dc.lft.to/lastmile_qr_scan"}}, {"name": "7fb5fc29acf99fbf760e5c59a44e358e", "type": "electric_scooter", "lat": 38.907472, "is_reserved": 0, "lon": -77.04151033333333, "fusion_lon": 0.0, "is_disabled": 0, "fusion_lat": 0.0, "bike_id": "7fb5fc29acf99fbf760e5c59a44e358e", "rental_uris": {"ios": "https://dc.lft.to/lastmile_qr_scan", "android": "https://dc.lft.to/lastmile_qr_scan"}}, {"name": "115576e1ffef5b96d94cd75fc6dc46fb", "type": "electric_scooter", "lat": 38.89725, "is_reserved": 0, "lon": -77.04332, "fusion_lon": 0.0, "is_disabled": 0, "fusion_lat": 0.0, "bike_id": "115576e1ffef5b96d94cd75fc6dc46fb", "rental_uris": {"ios": "https://dc.lft.to/lastmile_qr_scan", "android": "https://dc.lft.to/lastmile_qr_scan"}}, {"name": "27e744f1e2f3eeb29e5a43135355c523", "type": "electric_scooter", "lat": 38.91588766666667, "is_reserved": 0, "lon": -76.98359583333334, "fusion_lon": 0.0, "is_disabled": 0, "fusion_lat": 0.0, "bike_id": "27e744f1e2f3eeb29e5a43135355c523", "rental_uris": {"ios": "https://dc.lft.to/lastmile_qr_scan", "android": "https://dc.lft.to/lastmile_qr_scan"}}, {"name": "6209d4fdef94939df263bd33090cf288", "type": "electric_bike", "lat": 38.871296666666666, "is_reserved": 0, "lon": -76.937292, "fusion_lon": 0.0, "is_disabled": 0, "fusion_lat": 0.0, "bike_id": "6209d4fdef94939df263bd33090cf288", "rental_uris": {"ios": "https://dc.lft.to/lastmile_qr_scan", "android": "https://dc.lft.to/lastmile_qr_scan"}}, {"name": "e47e3c180d84ba0b0bd1ce3b86fc86d2", "type": "electric_scooter", "lat": 38.924848, "is_reserved": 0, "lon": -77.02711516666666, "fusion_lon": 0.0, "is_disabled": 0, "fusion_lat": 0.0, "bike_id": "e47e3c180d84ba0b0bd1ce3b86fc86d2", "rental_uris": {"ios": "https://dc.lft.to/lastmile_qr_scan", "android": "https://dc.lft.to/lastmile_qr_scan"}}, {"name": "c031aedae312fb4e984f29ade56e1bbb", "type": "electric_scooter", "lat": 38.929857166666665, "is_reserved": 0, "lon": -77.07944166666667, "fusion_lon": 0.0, "is_disabled": 0, "fusion_lat": 0.0, "bike_id": "c031aedae312fb4e984f29ade56e1bbb", "rental_uris": {"ios": "https://dc.lft.to/lastmile_qr_scan", "android": "https://dc.lft.to/lastmile_qr_scan"}}, {"name": "a00205f05ad51010d0a818aad85537f0", "type": "electric_scooter", "lat": 38.941334833333336, "is_reserved": 0, "lon": -77.015437, "fusion_lon": 0.0, "is_disabled": 0, "fusion_lat": 0.0, "bike_id": "a00205f05ad51010d0a818aad85537f0", "rental_uris": {"ios": "https://dc.lft.to/lastmile_qr_scan", "android": "https://dc.lft.to/lastmile_qr_scan"}}, {"name": "fe29afd1da2bf07c1210f5888815d601", "type": "electric_scooter", "lat": 38.909557666666664, "is_reserved": 0, "lon": -77.03375533333333, "fusion_lon": 0.0, "is_disabled": 0, "fusion_lat": 0.0, "bike_id": "fe29afd1da2bf07c1210f5888815d601", "rental_uris": {"ios": "https://dc.lft.to/lastmile_qr_scan", "android": "https://dc.lft.to/lastmile_qr_scan"}}, {"name": "6f6ac0e434be35be0b1f01060af447b5", "type": "electric_scooter", "lat": 38.8981635, "is_reserved": 0, "lon": -77.03282966666667, "fusion_lon": 0.0, "is_disabled": 0, "fusion_lat": 0.0, "bike_id": "6f6ac0e434be35be0b1f01060af447b5", "rental_uris": {"ios": "https://dc.lft.to/lastmile_qr_scan", "android": "https://dc.lft.to/lastmile_qr_scan"}}, {"name": "f6dcf0254ecc35072e0a784c1603174e", "type": "electric_bike", "lat": 38.83241266666667, "is_reserved": 0, "lon": -76.94623366666667, "fusion_lon": 0.0, "is_disabled": 0, "fusion_lat": 0.0, "bike_id": "f6dcf0254ecc35072e0a784c1603174e", "rental_uris": {"ios": "https://dc.lft.to/lastmile_qr_scan", "android": "https://dc.lft.to/lastmile_qr_scan"}}, {"name": "fa238717ebc1ad8af2781ffa080d835c", "type": "electric_scooter", "lat": 38.92164966666667, "is_reserved": 0, "lon": -77.032575, "fusion_lon": 0.0, "is_disabled": 0, "fusion_lat": 0.0, "bike_id": "fa238717ebc1ad8af2781ffa080d835c", "rental_uris": {"ios": "https://dc.lft.to/lastmile_qr_scan", "android": "https://dc.lft.to/lastmile_qr_scan"}}, {"name": "b2aea09146353cc75798a6a5b3c0209b", "type": "electric_scooter", "lat": 38.9095165, "is_reserved": 0, "lon": -77.04320433333334, "fusion_lon": 0.0, "is_disabled": 0, "fusion_lat": 0.0, "bike_id": "b2aea09146353cc75798a6a5b3c0209b", "rental_uris": {"ios": "https://dc.lft.to/lastmile_qr_scan", "android": "https://dc.lft.to/lastmile_qr_scan"}}, {"name": "fd6bb76600aa79331335a14ca0c344dd", "type": "electric_scooter", "lat": 38.93436233333333, "is_reserved": 0, "lon": -77.0724815, "fusion_lon": 0.0, "is_disabled": 0, "fusion_lat": 0.0, "bike_id": "fd6bb76600aa79331335a14ca0c344dd", "rental_uris": {"ios": "https://dc.lft.to/lastmile_qr_scan", "android": "https://dc.lft.to/lastmile_qr_scan"}}, {"name": "443ab5714688bf62ef58acf5d9c693e0", "type": "electric_scooter", "lat": 38.90125916666667, "is_reserved": 0, "lon": -77.04985366666666, "fusion_lon": 0.0, "is_disabled": 0, "fusion_lat": 0.0, "bike_id": "443ab5714688bf62ef58acf5d9c693e0", "rental_uris": {"ios": "https://dc.lft.to/lastmile_qr_scan", "android": "https://dc.lft.to/lastmile_qr_scan"}}, {"name": "df12a5c02f83b49018bcdda6cbfc54e0", "type": "electric_scooter", "lat": 38.916835666666664, "is_reserved": 0, "lon": -77.01190733333334, "fusion_lon": 0.0, "is_disabled": 0, "fusion_lat": 0.0, "bike_id": "df12a5c02f83b49018bcdda6cbfc54e0", "rental_uris": {"ios": "https://dc.lft.to/lastmile_qr_scan", "android": "https://dc.lft.to/lastmile_qr_scan"}},