{"data": {"bikes": [{"rental_uris": {"android": "https://dc.lft.to/lastmile_qr_scan", "ios": "https://dc.lft.to/lastmile_qr_scan"}, "lon": -76.97684266666667, "name": "27c7f28de9ef9ab4792069cd94bf041a", "fusion_lon": 0.0, "bike_id": "27c7f28de9ef9ab4792069cd94bf041a", "is_reserved": 0, "type": "electric_scooter", "lat": 38.89619116666667, "fusion_lat": 0.0, "is_disabled": 0}, {"rental_uris": {"android": "https://dc.lft.to/lastmile_qr_scan", "ios": "https://dc.lft.to/lastmile_qr_scan"}, "lon": -76.929999, "name": "031337a89d9defd65a0a2cb44ddc3e8f", "fusion_lon": 0.0, "bike_id": "031337a89d9defd65a0a2cb44ddc3e8f", "is_reserved": 0, "type": "electric_scooter", "lat": 38.8926995, "fusion_lat": 0.0, "is_disabled": 0}, {"rental_uris": {"android": "https://dc.lft.to/lastmile_qr_scan", "ios": "https://dc.lft.to/lastmile_qr_scan"}, "lon": -76.930467, "name": "71cc3fbd513a2c91569d507eca1d40f4", "fusion_lon": 0.0, "bike_id": "71cc3fbd513a2c91569d507eca1d40f4", "is_reserved": 0, "type": "electric_scooter", "lat": 38.8839695, "fusion_lat": 0.0, "is_disabled": 0}, {"rental_uris": {"android": "https://dc.lft.to/lastmile_qr_scan", "ios": "https://dc.lft.to/lastmile_qr_scan"}, "lon": -76.93023783333334, "name": "7e6c4ca6dd28279a484ec748c028a469", "fusion_lon": 0.0, "bike_id": "7e6c4ca6dd28279a484ec748c028a469", "is_reserved": 0, "type": "electric_scooter", "lat": 38.9001385, "fusion_lat": 0.0, "is_disabled": 0}, {"rental_uris": {"android": "https://dc.lft.to/lastmile_qr_scan", "ios": "https://dc.lft.to/lastmile_qr_scan"}, "lon": -77.021534, "name": "6fdedde99f3ef1bf14a8b44b886553a3", "fusion_lon": 0.0, "bike_id": "6fdedde99f3ef1bf14a8b44b886553a3", "is_reserved": 0, "type": "electric_scooter", "lat": 38.879175000000004, "fusion_lat": 0.0, "is_disabled": 0}, {"rental_uris": {"android": "https://dc.lft.to/lastmile_qr_scan", "ios": "https://dc.lft.to/lastmile_qr_scan"}, "lon": -77.02591016666666, "name": "7655fe89e24b91b6d77787f7588b2a01", "fusion_lon": 0.0, "bike_id": "7655fe89e24b91b6d77787f7588b2a01", "is_reserved": 0, "type": "electric_scooter", "lat": 38.908428, "fusion_lat": 0.0, "is_disabled": 0}, {"rental_uris": {"android": "https://dc.lft.to/lastmile_qr_scan", "ios": "https://dc.lft.to/lastmile_qr_scan"}, "lon": -77.020009, "name": "d1a7f4f829144b3d33cffd2b7cbca000", "fusion_lon": 0.0, "bike_id": "d1a7f4f829144b3d33cffd2b7cbca000", "is_reserved": 0, "type": "electric_scooter", "lat": 38.91906016666667, "fusion_lat": 0.0, "is_disabled": 0}, {"rental_uris": {"android": "https://dc.lft.to/lastmile_qr_scan", "ios": "https://dc.lft.to/lastmile_qr_scan"}, "lon": -76.99327366666667, "name": "9c4538a37182bd71eb4df850ceede60a", "fusion_lon": 0.0, "bike_id": "9c4538a37182bd71eb4df850ceede60a", "is_reserved": 0, "type": "electric_scooter", "lat": 38.906216, "fusion_lat": 0.0, "is_disabled": 0}, {"rental_uris": {"android": "https://dc.lft.to/lastmile_qr_scan", "ios": "https://dc.lft.to/lastmile_qr_scan"}, "lon": -77.01029283333334, "name": "41843a7a8984cde21a16c9b0b29834d1", "fusion_lon": 0.0, "bike_id": "41843a7a8984cde21a16c9b0b29834d1", "is_reserved": 0, "type": "electric_scooter", "lat": 38.916504, "fusion_lat": 0.0, "is_disabled": 0}, {"rental_uris": {"android": "https://dc.lft.to/lastmile_qr_scan", "ios": "https://dc.lft.to/lastmile_qr_scan"}, "lon": -76.98072233333333, "name": "0a143b5df324c51990a7b0458d331627", "fusion_lon": 0.0, "bike_id": "0a143b5df324c51990a7b0458d331627", "is_reserved": 0, "type": "electric_scooter", "lat": 38.90173516666667, "fusion_lat": 0.0, "is_disabled": 0}, {"rental_uris": {"android": "https://dc.lft.to/lastmile_qr_scan", "ios": "https://dc.lft.to/lastmile_qr_scan"}, "lon": -77.03186616666666, "name": "708ed3679f70b998e43a0bee751463b2", "fusion_lon": 0.0, "bike_id": "708ed3679f70b998e43a0bee751463b2", "is_reserved": 0, "type": "electric_scooter", "lat": 38.901242833333335, "fusion_lat": 0.0, "is_disabled": 0}, {"rental_uris": {"android": "https://dc.lft.to/lastmile_qr_scan", "ios": "https://dc.lft.to/lastmile_qr_scan"}, "lon": -77.02188566666666, "name": "f8a23fcc6f076cb42670c77ea0f25a82", "fusion_lon": 0.0, "bike_id": "f8a23fcc6f076cb42670c77ea0f25a82", "is_reserved": 0, "type": "electric_scooter", "lat": 38.90180383333333, "fusion_lat": 0.0, "is_disabled": 0}, {"rental_uris": {"android": "https://dc.lft.to/lastmile_qr_scan", "ios": "https://dc.lft.to/lastmile_qr_scan"}, "lon": -77.00065866666667, "name": "f7cd763d3cf0e46516de59843ef822b8", "fusion_lon": 0.0, "bike_id": "f7cd763d3cf0e46516de59843ef822b8", "is_reserved": 0, "type": "electric_scooter", "lat": 38.89993166666667, "fusion_lat": 0.0, "is_disabled": 0}, {"rental_uris": {"android": "https://dc.lft.to/lastmile_qr_scan", "ios": "https://dc.lft.to/lastmile_qr_scan"}, "lon": -77.002517, "name": "5ce52a92a2350519d2ecf486b7122c51", "fusion_lon": 0.0, "bike_id": "5ce52a92a2350519d2ecf486b7122c51", "is_reserved": 0, "type": "electric_scooter", "lat": 38.90748133333334, "fusion_lat": 0.0, "is_disabled": 0}, {"rental_uris": {"android": "https://dc.lft.to/lastmile_qr_scan", "ios": "https://dc.lft.to/lastmile_qr_scan"}, "lon": -77.00354183333333, "name": "f5aeb36d95e9a78ccd5088a3b699d9d0", "fusion_lon": 0.0, "bike_id": "f5aeb36d95e9a78ccd5088a3b699d9d0", "is_reserved": 0, "type": "electric_scooter", "lat": 38.90859183333333, "fusion_lat": 0.0, "is_disabled": 0}, {"rental_uris": {"android": "https://dc.lft.to/lastmile_qr_scan", "ios": "https://dc.lft.to/lastmile_qr_scan"}, "lon": -77.03647916666667, "name": "f67fc231bdaf8b2a7c1b07b48a3ea031", "fusion_lon": 0.0, "bike_id": "f67fc231bdaf8b2a7c1b07b48a3ea031", "is_reserved": 0, "type": "electric_scooter", "lat": 38.9237475, "fusion_lat": 0.0, "is_disabled": 0}, {"rental_uris": {"android": "https://dc.lft.to/lastmile_qr_scan", "ios": "https://dc.lft.to/lastmile_qr_scan"}, "lon": -77.02031466666666, "name": "88bbb370798de4d7f83c3340c52e0cc5", "fusion_lon": 0.0, "bike_id": "88bbb370798de4d7f83c3340c52e0cc5", "is_reserved": 0, "type": "electric_scooter", "lat": 38.92202533333333, "fusion_lat": 0.0, "is_disabled": 0}, {"rental_uris": {"android": "https://dc.lft.to/lastmile_qr_scan", "ios": "https://dc.lft.to/lastmile_qr_scan"}, "lon": -77.04293316666667, "name": "892f39450690bfc7c407108834854d80", "fusion_lon": 0.0, "bike_id": "892f39450690bfc7c407108834854d80", "is_reserved": 0, "type": "electric_scooter", "lat": 38.9226145, "fusion_lat": 0.0, "is_disabled": 0}, {"rental_uris": {"android": "https://dc.lft.to/lastmile_qr_scan", "ios": "https://dc.lft.to/lastmile_qr_scan"}, "lon": -76.993705, "name": "409d1ba3874e7e95d2cfc27a1f787230", "fusion_lon": 0.0, "bike_id": "409d1ba3874e7e95d2cfc27a1f787230", "is_reserved": 0, "type": "electric_scooter", "lat": 38.9101935, "fusion_lat": 0.0, "is_disabled": 0}, {"rental_uris": {"android": "https://dc.lft.to/lastmile_qr_scan", "ios": "https://dc.lft.to/lastmile_qr_scan"}, "lon": -77.02872283333333, "name": "1d03c1c019f76f51cb23ed55e04786d4", "fusion_lon": 0.0, "bike_id": "1d03c1c019f76f51cb23ed55e04786d4", "is_reserved": 0, "type": "electric_scooter", "lat": 38.92664833333333, "fusion_lat": 0.0, "is_disabled": 0}, {"rental_uris": {"android": "https://dc.lft.to/lastmile_qr_scan", "ios": "https://dc.lft.to/lastmile_qr_scan"}, "lon": -77.03072783333333, "name": "06639cd39a4164402df5f52ff7d964ff", "fusion_lon": 0.0, "bike_id": "06639cd39a4164402df5f52ff7d964ff", "is_reserved": 0, "type": "electric_scooter", "lat": 38.920222333333335, "fusion_lat": 0.0, "is_disabled": 0}, {"rental_uris": {"android": "https://dc.lft.to/lastmile_qr_scan", "ios": "https://dc.lft.to/lastmile_qr_scan"}, "lon": -77.05217366666666, "name": "cf63ad7b27e5014b43618672bc4d6328", "fusion_lon": 0.0, "bike_id": "cf63ad7b27e5014b43618672bc4d6328", "is_reserved": 0, "type": "electric_scooter", "lat": 38.92447083333333, "fusion_lat": 0.0, "is_disabled": 0}, {"rental_uris": {"android": "https://dc.lft.to/lastmile_qr_scan", "ios": "https://dc.lft.to/lastmile_qr_scan"}, "lon": -77.03784766666666, "name": "1f3e592491db5f73415db48e774a7340", "fusion_lon": 0.0, "bike_id": "1f3e592491db5f73415db48e774a7340", "is_reserved": 0, "type": "electric_scooter", "lat": 38.929680833333336, "fusion_lat": 0.0, "is_disabled": 0}, {"rental_uris": {"android": "https://dc.lft.to/lastmile_qr_scan", "ios": "https://dc.lft.to/lastmile_qr_scan"}, "lon": -77.04616933333334, "name": "d01ceb452206d30aecf59b6da430b293", "fusion_lon": 0.0, "bike_id": "d01ceb452206d30aecf59b6da430b293", "is_reserved": 0, "type": "electric_bike", "lat": 38.91525033333333, "fusion_lat": 0.0, "is_disabled": 0}, {"rental_uris": {"android": "https://dc.lft.to/lastmile_qr_scan", "ios": "https://dc.lft.to/lastmile_qr_scan"}, "lon": -76.99563733333333, "name": "df2273eb56720f5fb516215900d7c368", "fusion_lon": 0.0, "bike_id": "df2273eb56720f5fb516215900d7c368", "is_reserved": 0, "type": "electric_scooter", "lat": 38.920241833333336, "fusion_lat": 0.0, "is_disabled": 0}, {"rental_uris": {"android": "https://dc.lft.to/lastmile_qr_scan", "ios": "https://dc.lft.to/lastmile_qr_scan"}, "lon": -77.05920866666666, "name": "91d603434a8417fb9d67f57999cee01e", "fusion_lon": 0.0, "bike_id": "91d603434a8417fb9d67f57999cee01e", "is_reserved": 0, "type": "electric_scooter", "lat": 38.9112055, "fusion_lat": 0.0, "is_disabled": 0}, {"rental_uris": {"android": "https://dc.lft.to/lastmile_qr_scan", "ios": "https://dc.lft.to/lastmile_qr_scan"}, "lon": -77.0162505, "name": "ec34553b0ec51e600b7879e81471d816", "fusion_lon": 0.0, "bike_id": "ec34553b0ec51e600b7879e81471d816", "is_reserved": 0, "type": "electric_scooter", "lat": 38.8962295, "fusion_lat": 0.0, "is_disabled": 0}, {"rental_uris": {"android": "https://dc.lft.to/lastmile_qr_scan", "ios": "https://dc.lft.to/lastmile_qr_scan"}, "lon": -76.984295, "name": "efb1482a49285c56f03bfb18011a9796", "fusion_lon": 0.0, "bike_id": "efb1482a49285c56f03bfb18011a9796", "is_reserved": 0, "type": "electric_scooter", "lat": 38.92056216666667, "fusion_lat": 0.0, "is_disabled": 0}, {"rental_uris": {"android": "https://dc.lft.to/lastmile_qr_scan", "ios": "https://dc.lft.to/lastmile_qr_scan"}, "lon": -77.04661866666666, "name": "e04a1baa49f7d3c86cbb29ef85f8b598", "fusion_lon": 0.0, "bike_id": "e04a1baa49f7d3c86cbb29ef85f8b598", "is_reserved": 0, "type": "electric_scooter", "lat": 38.90136183333333, "fusion_lat": 0.0, "is_disabled": 0}, {"rental_uris": {"android": "https://dc.lft.to/lastmile_qr_scan", "ios": "https://dc.lft.to/lastmile_qr_scan"}, "lon": -76.99736466666667, "name": "2e6fe2732266feb7f6a56872e6114b9b", "fusion_lon": 0.0, "bike_id": "2e6fe2732266feb7f6a56872e6114b9b", "is_reserved": 0, "type": "electric_bike", "lat": 39.04237, "fusion_lat": 0.0, "is_disabled": 0}, {"rental_uris": {"android": "https://dc.lft.to/lastmile_qr_scan", "ios": "https://dc.lft.to/lastmile_qr_scan"}, "lon": -76.9958845, "name": "759cfa39a0f1b8493bfa8cce9d0ee0de", "fusion_lon": 0.0, "bike_id": "759cfa39a0f1b8493bfa8cce9d0ee0de", "is_reserved": 0, "type": "electric_bike", "lat": 38.973366666666664, "fusion_lat": 0.0, "is_disabled": 0}, {"rental_uris": {"android": "https://dc.lft.to/lastmile_qr_scan", "ios": "https://dc.lft.to/lastmile_qr_scan"}, "lon": -77.02496933333333, "name": "4d3dd9524ceeecc7467edb7cd93c6a35", "fusion_lon": 0.0, "bike_id": "4d3dd9524ceeecc7467edb7cd93c6a35", "is_reserved": 0, "type": "electric_scooter", "lat": 38.898241, "fusion_lat": 0.0, "is_disabled": 0}, {"rental_uris": {"android": "https://dc.lft.to/lastmile_qr_scan", "ios": "https://dc.lft.to/lastmile_qr_scan"}, "lon": -77.036489, "name": "452fa7052520f9f219b5d1255caed2d9", "fusion_lon": 0.0, "bike_id": "452fa7052520f9f219b5d1255caed2d9", "is_reserved": 0, "type": "electric_scooter", "lat": 38.91869, "fusion_lat": 0.0, "is_disabled": 0}, {"rental_uris": {"android": "https://dc.lft.to/lastmile_qr_scan", "ios": "https://dc.lft.to/lastmile_qr_scan"}, "lon": -77.039061, "name": "9978d1ae96b4d6d9c84190991b7978a2", "fusion_lon": 0.0, "bike_id": "9978d1ae96b4d6d9c84190991b7978a2", "is_reserved": 0, "type": "electric_scooter", "lat": 38.91402466666667, "fusion_lat": 0.0, "is_disabled": 0}, {"rental_uris": {"android": "https://dc.lft.to/lastmile_qr_scan", "ios": "https://dc.lft.to/lastmile_qr_scan"}, "lon": -77.01598333333334, "name": "85bf852e5bc01dca05eca89242a0df81", "fusion_lon": 0.0, "bike_id": "85bf852e5bc01dca05eca89242a0df81", "is_reserved": 0, "type": "electric_scooter", "lat": 38.952156333333335, "fusion_lat": 0.0, "is_disabled": 0}, {"rental_uris": {"android": "https://dc.lft.to/lastmile_qr_scan", "ios": "https://dc.lft.to/lastmile_qr_scan"}, "lon": -77.018611, "name": "00a85c7f93fa028694928f07df754329", "fusion_lon": 0.0, "bike_id": "00a85c7f93fa028694928f07df754329", "is_reserved": 0, "type": "electric_scooter", "lat": 38.9736755, "fusion_lat": 0.0, "is_disabled": 0}, {"rental_uris": {"android": "https://dc.lft.to/lastmile_qr_scan", "ios": "https://dc.lft.to/lastmile_qr_scan"}, "lon": -77.0161365, "name": "94aaf3c39a59833ff48277318384fbda", "fusion_lon": 0.0, "bike_id": "94aaf3c39a59833ff48277318384fbda", "is_reserved": 0, "type": "electric_scooter", "lat": 38.899561166666665, "fusion_lat": 0.0, "is_disabled": 0}, {"rental_uris": {"android": "https://dc.lft.to/lastmile_qr_scan", "ios": "https://dc.lft.to/lastmile_qr_scan"}, "lon": -76.94284233333333, "name": "f4a1402ca940799760351a7c51ab33a2", "fusion_lon": 0.0, "bike_id": "f4a1402ca940799760351a7c51ab33a2", "is_reserved": 0, "type": "electric_scooter", "lat": 38.883439333333335, "fusion_lat": 0.0, "is_disabled": 0}, {"rental_uris": {"android": "https://dc.lft.to/lastmile_qr_scan", "ios": "https://dc.lft.to/lastmile_qr_scan"}, "lon": -77.02530016666667, "name": "cadc4887f2b423e8be000f7acccca2b8", "fusion_lon": 0.0, "bike_id": "cadc4887f2b423e8be000f7acccca2b8", "is_reserved": 0, "type": "electric_scooter", "lat": 38.91848133333333, "fusion_lat": 0.0, "is_disabled": 0}, {"rental_uris": {"android": "https://dc.lft.to/lastmile_qr_scan", "ios": "https://dc.lft.to/lastmile_qr_scan"}, "lon": -77.0254985, "name": "fa95146caf0ff809050743ad87c65cc0", "fusion_lon": 0.0, "bike_id": "fa95146caf0ff809050743ad87c65cc0", "is_reserved": 0, "type": "electric_scooter", "lat": 38.884277, "fusion_lat": 0.0, "is_disabled": 0}, {"rental_uris": {"android": "https://dc.lft.to/lastmile_qr_scan", "ios": "https://dc.lft.to/lastmile_qr_scan"}, "lon": -77.08395583333333, "name": "3449d5afea4984730e0f1de0eb36ecd3", "fusion_lon": 0.0, "bike_id": "3449d5afea4984730e0f1de0eb36ecd3", "is_reserved": 0, "type": "electric_scooter", "lat": 38.90804416666667, "fusion_lat": 0.0, "is_disabled": 0}, {"rental_uris": {"android": "https://dc.lft.to/lastmile_qr_scan", "ios": "https://dc.lft.to/lastmile_qr_scan"}, "lon": -77.00376166666666, "name": "a1a688bb45991aa87e56e6212a4530cc", "fusion_lon": 0.0, "bike_id": "a1a688bb45991aa87e56e6212a4530cc", "is_reserved": 0, "type": "electric_scooter", "lat": 38.87938333333334, "fusion_lat": 0.0, "is_disabled": 0}, {"rental_uris": {"android": "https://dc.lft.to/lastmile_qr_scan", "ios": "https://dc.lft.to/lastmile_qr_scan"}, "lon": -77.1106305, "name": "2d68cec481c423316dedb72bb5144399", "fusion_lon": 0.0, "bike_id": "2d68cec481c423316dedb72bb5144399", "is_reserved": 0, "type": "electric_bike", "lat": 38.87059716666667, "fusion_lat": 0.0, "is_disabled": 0}, {"rental_uris": {"android": "https://dc.lft.to/lastmile_qr_scan", "ios": "https://dc.lft.to/lastmile_qr_scan"}, "lon": -77.03646866666666, "name": "2a1b41a21959af9e7a4b90a08ad892a7", "fusion_lon": 0.0, "bike_id": "2a1b41a21959af9e7a4b90a08ad892a7", "is_reserved": 0, "type": "electric_scooter", "lat": 38.90283066666667, "fusion_lat": 0.0, "is_disabled": 0}, {"rental_uris": {"android": "https://dc.lft.to/lastmile_qr_scan", "ios": "https://dc.lft.to/lastmile_qr_scan"}, "lon": -77.00598183333334, "name": "ee148370735b081ca5fcad2e0589066d", "fusion_lon": 0.0, "bike_id": "ee148370735b081ca5fcad2e0589066d", "is_reserved": 0, "type": "electric_scooter", "lat": 38.875541, "fusion_lat": 0.0, "is_disabled": 0}, {"rental_uris": {"android": "https://dc.lft.to/lastmile_qr_scan", "ios": "https://dc.lft.to/lastmile_qr_scan"}, "lon": -77.02316283333333, "name": "b290012b120bf17b157ec74e004ff1b4", "fusion_lon": 0.0, "bike_id": "b290012b120bf17b157ec74e004ff1b4", "is_reserved": 0, "type": "electric_scooter", "lat": 38.925149, "fusion_lat": 0.0, "is_disabled": 0}, {"rental_uris": {"android": "https://dc.lft.to/lastmile_qr_scan", "ios": "https://dc.lft.to/lastmile_qr_scan"}, "lon": -77.021952, "name": "67b759975cf3604c17f782bcfe48d52e", "fusion_lon": 0.0, "bike_id": "67b759975cf3604c17f782bcfe48d52e", "is_reserved": 0, "type": "electric_scooter", "lat": 38.91788283333333, "fusion_lat": 0.0, "is_disabled": 0}, {"rental_uris": {"android": "https://dc.lft.to/lastmile_qr_scan", "ios": "https://dc.lft.to/lastmile_qr_scan"}, "lon": -77.018785, "name": "8e393aceda25552441b2899a9e4d6313", "fusion_lon": 0.0, "bike_id": "8e393aceda25552441b2899a9e4d6313", "is_reserved": 0, "type": "electric_scooter", "lat": 38.95095033333333, "fusion_lat": 0.0, "is_disabled": 0}, {"rental_uris": {"android": "https://dc.lft.to/lastmile_qr_scan", "ios": "https://dc.lft.to/lastmile_qr_scan"}, "lon": -77.02369416666667, "name": "6b52635aca59cd7d1f4af2d8540f527d", "fusion_lon": 0.0, "bike_id": "6b52635aca59cd7d1f4af2d8540f527d", "is_reserved": 0, "type": "electric_scooter", "lat": 38.9018905, "fusion_lat": 0.0, "is_disabled": 0}, {"rental_uris": {"android": "https://dc.lft.to/lastmile_qr_scan", "ios": "https://dc.lft.to/lastmile_qr_scan"}, "lon": -77.02352933333333, "name": "b19c9bb5d1d59488411d1742a23aca18", "fusion_lon": 0.0, "bike_id": "b19c9bb5d1d59488411d1742a23aca18", "is_reserved": 0, "type": "electric_scooter", "lat": 38.90847733333333, "fusion_lat": 0.0, "is_disabled": 0}, {"rental_uris": {"android": "https://dc.lft.to/lastmile_qr_scan", "ios": "https://dc.lft.to/lastmile_qr_scan"}, "lon": -77.03184133333333, "name": "e07f2eb4aff46f4b0546f7ca129b5d09", "fusion_lon": 0.0, "bike_id": "e07f2eb4aff46f4b0546f7ca129b5d09", "is_reserved": 0, "type": "electric_scooter", "lat": 38.893493166666666, "fusion_lat": 0.0, "is_disabled": 0}, {"rental_uris": {"android": "https://dc.lft.to/lastmile_qr_scan", "ios": "https://dc.lft.to/lastmile_qr_scan"}, "lon": -77.02755133333334, "name": "439f653aff79009b69c823ee227ee935", "fusion_lon": 0.0, "bike_id": "439f653aff79009b69c823ee227ee935", "is_reserved": 0, "type": "electric_scooter", "lat": 38.92666166666667, "fusion_lat": 0.0, "is_disabled": 0}, {"rental_uris": {"android": "https://dc.lft.to/lastmile_qr_scan", "ios": "https://dc.lft.to/lastmile_qr_scan"}, "lon": -77.0267185, "name": "571fe6979e918b075c7923255c68ad9f", "fusion_lon": 0.0, "bike_id": "571fe6979e918b075c7923255c68ad9f", "is_reserved": 0, "type": "electric_scooter", "lat": 38.8979425, "fusion_lat": 0.0, "is_disabled": 0}, {"rental_uris": {"android": "https://dc.lft.to/lastmile_qr_scan", "ios": "https://dc.lft.to/lastmile_qr_scan"}, "lon": -77.0318695, "name": "f614a81d33abeab36749d982cf5022ca", "fusion_lon": 0.0, "bike_id": "f614a81d33abeab36749d982cf5022ca", "is_reserved": 0, "type": "electric_scooter", "lat": 38.924822166666665, "fusion_lat": 0.0, "is_disabled": 0}, {"rental_uris": {"android": "https://dc.lft.to/lastmile_qr_scan", "ios": "https://dc.lft.to/lastmile_qr_scan"}, "lon": -77.041956, "name": "ebbe99c381e6051fc5f36fbbe1b1be6a", "fusion_lon": 0.0, "bike_id": "ebbe99c381e6051fc5f36fbbe1b1be6a", "is_reserved": 0, "type": "electric_scooter", "lat": 38.902677, "fusion_lat": 0.0, "is_disabled": 0}, {"rental_uris": {"android": "https://dc.lft.to/lastmile_qr_scan", "ios": "https://dc.lft.to/lastmile_qr_scan"}, "lon": -77.01799733333333, "name": "5adc42a3b274c0ca8d069eedd1a695f3", "fusion_lon": 0.0, "bike_id": "5adc42a3b274c0ca8d069eedd1a695f3", "is_reserved": 0, "type": "electric_scooter", "lat": 38.914215166666665, "fusion_lat": 0.0, "is_disabled": 0}, {"rental_uris": {"android": "https://dc.lft.to/lastmile_qr_scan", "ios": "https://dc.lft.to/lastmile_qr_scan"}, "lon": -77.08046566666667, "name": "7c05df3fac043874f053f388f4a38e45", "fusion_lon": 0.0, "bike_id": "7c05df3fac043874f053f388f4a38e45", "is_reserved": 0, "type": "electric_scooter", "lat": 38.92371983333334, "fusion_lat": 0.0, "is_disabled": 0}, {"rental_uris": {"android": "https://dc.lft.to/lastmile_qr_scan", "ios": "https://dc.lft.to/lastmile_qr_scan"}, "lon": -77.13459083333333, "name": "8c978258e853e6d0886575fd029a709c", "fusion_lon": 0.0, "bike_id": "8c978258e853e6d0886575fd029a709c", "is_reserved": 0, "type": "electric_bike", "lat": 39.09445566666667, "fusion_lat": 0.0, "is_disabled": 0}, {"rental_uris": {"android": "https://dc.lft.to/lastmile_qr_scan", "ios": "https://dc.lft.to/lastmile_qr_scan"}, "lon": -77.016939, "name": "1a2648745f82ff57e60fec138e8c484e", "fusion_lon": 0.0, "bike_id": "1a2648745f82ff57e60fec138e8c484e", "is_reserved": 0, "type": "electric_scooter", "lat": 38.974963333333335, "fusion_lat": 0.0, "is_disabled": 0}, {"rental_uris": {"android": "https://dc.lft.to/lastmile_qr_scan", "ios": "https://dc.lft.to/lastmile_qr_scan"}, "lon": -77.0107085, "name": "97e79bac5715064d2aa9c006122a8c7a", "fusion_lon": 0.0, "bike_id": "97e79bac5715064d2aa9c006122a8c7a", "is_reserved": 0, "type": "electric_scooter", "lat": 38.917093333333334, "fusion_lat": 0.0, "is_disabled": 0}, {"rental_uris": {"android": "https://dc.lft.to/lastmile_qr_scan", "ios": "https://dc.lft.to/lastmile_qr_scan"}, "lon": -76.9911565, "name": "8ac2b8487da9bd766c3778e1e5ab87b3", "fusion_lon": 0.0, "bike_id": "8ac2b8487da9bd766c3778e1e5ab87b3", "is_reserved": 0, "type": "electric_scooter", "lat": 38.897089666666666, "fusion_lat": 0.0, "is_disabled": 0}, {"rental_uris": {"android": "https://dc.lft.to/lastmile_qr_scan", "ios": "https://dc.lft.to/lastmile_qr_scan"}, "lon": -77.06002, "name": "f2e8cf2581ec50c10b10204740195c8f", "fusion_lon": 0.0, "bike_id": "f2e8cf2581ec50c10b10204740195c8f", "is_reserved": 0, "type": "electric_scooter", "lat": 38.936505833333335, "fusion_lat": 0.0, "is_disabled": 0}, {"rental_uris": {"android": "https://dc.lft.to/lastmile_qr_scan", "ios": "https://dc.lft.to/lastmile_qr_scan"}, "lon": -76.99854566666667, "name": "d32bc2680e13d4656b4e87e734aa807b", "fusion_lon": 0.0, "bike_id": "d32bc2680e13d4656b4e87e734aa807b", "is_reserved": 0, "type": "electric_scooter", "lat": 38.903786833333335, "fusion_lat": 0.0, "is_disabled": 0}, {"rental_uris": {"android": "https://dc.lft.to/lastmile_qr_scan", "ios": "https://dc.lft.to/lastmile_qr_scan"}, "lon": -76.9911205, "name": "6bc031d5ea25d09e474eb595f81431bd", "fusion_lon": 0.0, "bike_id": "6bc031d5ea25d09e474eb595f81431bd", "is_reserved": 0, "type": "electric_scooter", "lat": 38.8644505, "fusion_lat": 0.0, "is_disabled": 0}, {"rental_uris": {"android": "https://dc.lft.to/lastmile_qr_scan", "ios": "https://dc.lft.to/lastmile_qr_scan"}, "lon": -77.03792966666667, "name": "1d3e09d0b0931f2ebe88b7db419a8ef2", "fusion_lon": 0.0, "bike_id": "1d3e09d0b0931f2ebe88b7db419a8ef2", "is_reserved": 0, "type": "electric_scooter", "lat": 38.929938166666666, "fusion_lat": 0.0, "is_disabled": 0}, {"rental_uris": {"android": "https://dc.lft.to/lastmile_qr_scan", "ios": "https://dc.lft.to/lastmile_qr_scan"}, "lon": -77.0300155, "name": "f7464091eb0de307ab41a1b5a025296e", "fusion_lon": 0.0, "bike_id": "f7464091eb0de307ab41a1b5a025296e", "is_reserved": 0, "type": "electric_scooter", "lat": 38.895562166666664, "fusion_lat": 0.0, "is_disabled": 0}, {"rental_uris": {"android": "https://dc.lft.to/lastmile_qr_scan", "ios": "https://dc.lft.to/lastmile_qr_scan"}, "lon": -77.031902, "name": "c4315c2119aa8f4a48d235297829cd78", "fusion_lon": 0.0, "bike_id": "c4315c2119aa8f4a48d235297829cd78", "is_reserved": 0, "type": "electric_scooter", "lat": 38.916825833333334, "fusion_lat": 0.0, "is_disabled": 0}, {"rental_uris": {"android": "https://dc.lft.to/lastmile_qr_scan", "ios": "https://dc.lft.to/lastmile_qr_scan"}, "lon": -77.01740716666667, "name": "cb74f682c6a5035f51b284d0dbd0a16c", "fusion_lon": 0.0, "bike_id": "cb74f682c6a5035f51b284d0dbd0a16c", "is_reserved": 0, "type": "electric_scooter", "lat": 38.950057, "fusion_lat": 0.0, "is_disabled": 0}, {"rental_uris": {"android": "https://dc.lft.to/lastmile_qr_scan", "ios": "https://dc.lft.to/lastmile_qr_scan"}, "lon": -77.02756133333334, "name": "23144d55f4e2d6c9ce3f86d7b58d4a53", "fusion_lon": 0.0, "bike_id": "23144d55f4e2d6c9ce3f86d7b58d4a53", "is_reserved": 0, "type": "electric_scooter", "lat": 38.9266705, "fusion_lat": 0.0, "is_disabled": 0}, {"rental_uris": {"android": "https://dc.lft.to/lastmile_qr_scan", "ios": "https://dc.lft.to/lastmile_qr_scan"}, "lon": -77.0436505, "name": "b058baee755a85461c42601d3c739683", "fusion_lon": 0.0, "bike_id": "b058baee755a85461c42601d3c739683", "is_reserved": 0, "type": "electric_scooter", "lat": 38.91120316666667, "fusion_lat": 0.0, "is_disabled": 0}, {"rental_uris": {"android": "https://dc.lft.to/lastmile_qr_scan", "ios": "https://dc.lft.to/lastmile_qr_scan"}, "lon": -77.03328883333333, "name": "4f1c882ad94667ab309418dc84b0b409", "fusion_lon": 0.0, "bike_id": "4f1c882ad94667ab309418dc84b0b409", "is_reserved": 0, "type": "electric_scooter", "lat": 38.940887333333336, "fusion_lat": 0.0, "is_disabled": 0}, {"rental_uris": {"android": "https://dc.lft.to/lastmile_qr_scan", "ios": "https://dc.lft.to/lastmile_qr_scan"}, "lon": -77.01991166666667, "name": "f716f3682a5c5203b33cd0bb0e52cea4", "fusion_lon": 0.0, "bike_id": "f716f3682a5c5203b33cd0bb0e52cea4", "is_reserved": 0, "type": "electric_scooter", "lat": 38.91493283333333, "fusion_lat": 0.0, "is_disabled": 0}, {"rental_uris": {"android": "https://dc.lft.to/lastmile_qr_scan", "ios": "https://dc.lft.to/lastmile_qr_scan"}, "lon": -77.0226875, "name": "a5bf46b8728f3d48f77badce40948e30", "fusion_lon": 0.0, "bike_id": "a5bf46b8728f3d48f77badce40948e30", "is_reserved": 0, "type": "electric_scooter", "lat": 38.927225166666666, "fusion_lat": 0.0, "is_disabled": 0}, {"rental_uris": {"android": "https://dc.lft.to/lastmile_qr_scan", "ios": "https://dc.lft.to/lastmile_qr_scan"}, "lon": -77.027074, "name": "f566c8d1a80e0b90477b157314cb21a8", "fusion_lon": 0.0, "bike_id": "f566c8d1a80e0b90477b157314cb21a8", "is_reserved": 0, "type": "electric_scooter", "lat": 38.91816633333333, "fusion_lat": 0.0, "is_disabled": 0}, {"rental_uris": {"android": "https://dc.lft.to/lastmile_qr_scan", "ios": "https://dc.lft.to/lastmile_qr_scan"}, "lon": -77.03462133333333, "name": "53b0961ef4c61c927234ef46d6c90071", "fusion_lon": 0.0, "bike_id": "53b0961ef4c61c927234ef46d6c90071", "is_reserved": 0, "type": "electric_scooter", "lat": 38.92231783333333, "fusion_lat": 0.0, "is_disabled": 0}, {"rental_uris": {"android": "https://dc.lft.to/lastmile_qr_scan", "ios": "https://dc.lft.to/lastmile_qr_scan"}, "lon": -77.03372566666667, "name": "298c94bfdd2c3f7b30e9eebcfa1eab1c", "fusion_lon": 0.0, "bike_id": "298c94bfdd2c3f7b30e9eebcfa1eab1c", "is_reserved": 0, "type": "electric_scooter", "lat": 38.89826716666666, "fusion_lat": 0.0, "is_disabled": 0}, {"rental_uris": {"android": "https://dc.lft.to/lastmile_qr_scan", "ios": "https://dc.lft.to/lastmile_qr_scan"}, "lon": -77.00332416666667, "name": "bf84ffa7b41f1fef9b185e61edf7293f", "fusion_lon": 0.0, "bike_id": "bf84ffa7b41f1fef9b185e61edf7293f", "is_reserved": 0, "type": "electric_scooter", "lat": 38.8898625, "fusion_lat": 0.0, "is_disabled": 0}, {"rental_uris": {"android": "https://dc.lft.to/lastmile_qr_scan", "ios": "https://dc.lft.to/lastmile_qr_scan"}, "lon": -77.0423935, "name": "1207b2fc89ba63ac40f660463eca7439", "fusion_lon": 0.0, "bike_id": "1207b2fc89ba63ac40f660463eca7439", "is_reserved": 0, "type": "electric_scooter", "lat": 38.89822366666667, "fusion_lat": 0.0, "is_disabled": 0}, {"rental_uris": {"android": "https://dc.lft.to/lastmile_qr_scan", "ios": "https://dc.lft.to/lastmile_qr_scan"}, "lon": -77.07302716666666, "name": "d158c8d16106135b9339bfd503b41261", "fusion_lon": 0.0, "bike_id": "d158c8d16106135b9339bfd503b41261", "is_reserved": 0, "type": "electric_bike", "lat": 38.923156166666665, "fusion_lat": 0.0, "is_disabled": 0}, {"rental_uris": {"android": "https://dc.lft.to/lastmile_qr_scan", "ios": "https://dc.lft.to/lastmile_qr_scan"}, "lon": -77.00229066666667, "name": "b59e63cf4ec3483d2db1844194c9c8ed", "fusion_lon": 0.0, "bike_id": "b59e63cf4ec3483d2db1844194c9c8ed", "is_reserved": 0, "type": "electric_scooter", "lat": 38.8729555, "fusion_lat": 0.0, "is_disabled": 0}, {"rental_uris": {"android": "https://dc.lft.to/lastmile_qr_scan", "ios": "https://dc.lft.to/lastmile_qr_scan"}, "lon": -76.98746483333333, "name": "4c2d9df92d0cc023e3b3f2edec79ce64", "fusion_lon": 0.0, "bike_id": "4c2d9df92d0cc023e3b3f2edec79ce64", "is_reserved": 0, "type": "electric_scooter", "lat": 38.87832183333333, "fusion_lat": 0.0, "is_disabled": 0}, {"rental_uris": {"android": "https://dc.lft.to/lastmile_qr_scan", "ios": "https://dc.lft.to/lastmile_qr_scan"}, "lon": -77.02582766666667, "name": "9bb68d2a66f483a7186792a0ca3f1eed", "fusion_lon": 0.0, "bike_id": "9bb68d2a66f483a7186792a0ca3f1eed", "is_reserved": 0, "type": "electric_scooter", "lat": 38.9268995, "fusion_lat": 0.0, "is_disabled": 0}, {"rental_uris": {"android": "https://dc.lft.to/lastmile_qr_scan", "ios": "https://dc.lft.to/lastmile_qr_scan"}, "lon": -77.029947, "name": "ce80727c7a9275f78ad9e86ef323a8d4", "fusion_lon": 0.0, "bike_id": "ce80727c7a9275f78ad9e86ef323a8d4", "is_reserved": 0, "type": "electric_scooter", "lat": 38.91708633333333, "fusion_lat": 0.0, "is_disabled": 0}, {"rental_uris": {"android": "https://dc.lft.to/lastmile_qr_scan", "ios": "https://dc.lft.to/lastmile_qr_scan"}, "lon": -77.02084016666667, "name": "4fb720dfb9b28b2e17e448732f9931fc", "fusion_lon": 0.0, "bike_id": "4fb720dfb9b28b2e17e448732f9931fc", "is_reserved": 0, "type": "electric_scooter", "lat": 38.91552933333333, "fusion_lat": 0.0, "is_disabled": 0}, {"rental_uris": {"android": "https://dc.lft.to/lastmile_qr_scan", "ios": "https://dc.lft.to/lastmile_qr_scan"}, "lon": -76.92416566666667, "name": "f201ec9639264038e6fa9742ed8c2d40", "fusion_lon": 0.0, "bike_id": "f201ec9639264038e6fa9742ed8c2d40", "is_reserved": 0, "type": "electric_scooter", "lat": 38.883731, "fusion_lat": 0.0, "is_disabled": 0}, {"rental_uris": {"android": "https://dc.lft.to/lastmile_qr_scan", "ios": "https://dc.lft.to/lastmile_qr_scan"}, "lon": -76.93852233333334, "name": "c2358ce301614006d8010c74566ef07d", "fusion_lon": 0.0, "bike_id": "c2358ce301614006d8010c74566ef07d", "is_reserved": 0, "type": "electric_scooter", "lat": 38.899684666666666, "fusion_lat": 0.0, "is_disabled": 0}, {"rental_uris": {"android": "https://dc.lft.to/lastmile_qr_scan", "ios": "https://dc.lft.to/lastmile_qr_scan"}, "lon": -77.03656616666666, "name": "ce9289a3df575d21fb252f59ba2752bf", "fusion_lon": 0.0, "bike_id": "ce9289a3df575d21fb252f59ba2752bf", "is_reserved": 0, "type": "electric_scooter", "lat": 38.930135666666665, "fusion_lat": 0.0, "is_disabled": 0}, {"rental_uris": {"android": "https://dc.lft.to/lastmile_qr_scan", "ios": "https://dc.lft.to/lastmile_qr_scan"}, "lon": -77.07271216666666, "name": "d3d9010f792280a7315eceea85b9fed0", "fusion_lon": 0.0, "bike_id": "d3d9010f792280a7315eceea85b9fed0", "is_reserved": 0, "type": "electric_scooter", "lat": 38.93531083333333, "fusion_lat": 0.0, "is_disabled": 0}, {"rental_uris": {"android": "https://dc.lft.to/lastmile_qr_scan", "ios": "https://dc.lft.to/lastmile_qr_scan"}, "lon": -77.0340915, "name": "a6abe6ecd3632a9997c84f0f4e771809", "fusion_lon": 0.0, "bike_id": "a6abe6ecd3632a9997c84f0f4e771809", "is_reserved": 0, "type": "electric_scooter", "lat": 38.92048416666667, "fusion_lat": 0.0, "is_disabled": 0}, {"rental_uris": {"android": "https://dc.lft.to/lastmile_qr_scan", "ios": "https://dc.lft.to/lastmile_qr_scan"}, "lon": -77.0469445, "name": "83fd17084292eeabb3ebade9403d8b1c", "fusion_lon": 0.0, "bike_id": "83fd17084292eeabb3ebade9403d8b1c", "is_reserved": 0, "type": "electric_scooter", "lat": 38.92258416666667, "fusion_lat": 0.0, "is_disabled": 0}, {"rental_uris": {"android": "https://dc.lft.to/lastmile_qr_scan", "ios": "https://dc.lft.to/lastmile_qr_scan"}, "lon": -77.04670333333334, "name": "a04ed87ec6722136ad3019d8995f7620", "fusion_lon": 0.0, "bike_id": "a04ed87ec6722136ad3019d8995f7620", "is_reserved": 0, "type": "electric_scooter", "lat": 38.90016383333333, "fusion_lat": 0.0, "is_disabled": 0}, {"rental_uris": {"android": "https://dc.lft.to/lastmile_qr_scan", "ios": "https://dc.lft.to/lastmile_qr_scan"}, "lon": -77.04748816666667, "name": "4a0f5555f0a41c610cd2dc41e31b356c", "fusion_lon": 0.0, "bike_id": "4a0f5555f0a41c610cd2dc41e31b356c", "is_reserved": 0, "type": "electric_scooter", "lat": 38.9019885, "fusion_lat": 0.0, "is_disabled": 0}, {"rental_uris": {"android": "https://dc.lft.to/lastmile_qr_scan", "ios": "https://dc.lft.to/lastmile_qr_scan"}, "lon": -77.02426616666666, "name": "f263ef511bf86e5e181f60dea56a5e7b", "fusion_lon": 0.0, "bike_id": "f263ef511bf86e5e181f60dea56a5e7b", "is_reserved": 0, "type": "electric_scooter", "lat": 38.935362, "fusion_lat": 0.0, "is_disabled": 0}, {"rental_uris": {"android": "https://dc.lft.to/lastmile_qr_scan", "ios": "https://dc.lft.to/lastmile_qr_scan"}, "lon": -77.0415975, "name": "62b3696830c788ba0c8d11bb691faccd", "fusion_lon": 0.0, "bike_id": "62b3696830c788ba0c8d11bb691faccd", "is_reserved": 0, "type": "electric_scooter", "lat": 38.921192, "fusion_lat": 0.0, "is_disabled": 0}, {"rental_uris": {"android": "https://dc.lft.to/lastmile_qr_scan", "ios": "https://dc.lft.to/lastmile_qr_scan"}, "lon": -77.03621, "name": "e183d9b1f55f9ec12a4e6fcfff15c3c1", "fusion_lon": 0.0, "bike_id": "e183d9b1f55f9ec12a4e6fcfff15c3c1", "is_reserved": 0, "type": "electric_scooter", "lat": 38.931624666666664, "fusion_lat": 0.0, "is_disabled": 0}, {"rental_uris": {"android": "https://dc.lft.to/lastmile_qr_scan", "ios": "https://dc.lft.to/lastmile_qr_scan"}, "lon": -77.0275515, "name": "4811d8d661331470c7d7252c96af7540", "fusion_lon": 0.0, "bike_id": "4811d8d661331470c7d7252c96af7540", "is_reserved": 0, "type": "electric_scooter", "lat": 38.92669, "fusion_lat": 0.0, "is_disabled": 0}, {"rental_uris": {"android": "https://dc.lft.to/lastmile_qr_scan", "ios": "https://dc.lft.to/lastmile_qr_scan"}, "lon": -77.03791433333333, "name": "c6c216ae0691d901ba6cf60531358aca", "fusion_lon": 0.0, "bike_id": "c6c216ae0691d901ba6cf60531358aca", "is_reserved": 0, "type": "electric_scooter", "lat": 38.922973999999996, "fusion_lat": 0.0, "is_disabled": 0}, {"rental_uris": {"android": "https://dc.lft.to/lastmile_qr_scan", "ios": "https://dc.lft.to/lastmile_qr_scan"}, "lon": -77.0169365, "name": "cfdd9bc0dee1da54b8877bf1f22701a3", "fusion_lon": 0.0, "bike_id": "cfdd9bc0dee1da54b8877bf1f22701a3", "is_reserved": 0, "type": "electric_scooter", "lat": 38.97487233333333, "fusion_lat": 0.0, "is_disabled": 0}, {"rental_uris": {"android": "https://dc.lft.to/lastmile_qr_scan", "ios": "https://dc.lft.to/lastmile_qr_scan"}, "lon": -77.04799766666666, "name": "fa3f9b080cdb62d107bfbe8d2816d580", "fusion_lon": 0.0, "bike_id": "fa3f9b080cdb62d107bfbe8d2816d580", "is_reserved": 0, "type": "electric_scooter", "lat": 38.9133295, "fusion_lat": 0.0, "is_disabled": 0}, {"rental_uris": {"android": "https://dc.lft.to/lastmile_qr_scan", "ios": "https://dc.lft.to/lastmile_qr_scan"}, "lon": -77.042187, "name": "0df9872e406840a0fb083f29400ba552", "fusion_lon": 0.0, "bike_id": "0df9872e406840a0fb083f29400ba552", "is_reserved": 0, "type": "electric_scooter", "lat": 38.9052935, "fusion_lat": 0.0, "is_disabled": 0}, {"rental_uris": {"android": "https://dc.lft.to/lastmile_qr_scan", "ios": "https://dc.lft.to/lastmile_qr_scan"}, "lon": -77.02206516666666, "name": "987ebfe09861b7563d12108181c596e3", "fusion_lon": 0.0, "bike_id": "987ebfe09861b7563d12108181c596e3", "is_reserved": 0, "type": "electric_scooter", "lat": 38.914242333333334, "fusion_lat": 0.0, "is_disabled": 0}, {"rental_uris": {"android": "https://dc.lft.to/lastmile_qr_scan", "ios": "https://dc.lft.to/lastmile_qr_scan"}, "lon": -77.02346433333334, "name": "f60d8f0d001d302815d706f008b0b023", "fusion_lon": 0.0, "bike_id": "f60d8f0d001d302815d706f008b0b023", "is_reserved": 0, "type": "electric_scooter", "lat": 38.9301265, "fusion_lat": 0.0, "is_disabled": 0}, {"rental_uris": {"android": "https://dc.lft.to/lastmile_qr_scan", "ios": "https://dc.lft.to/lastmile_qr_scan"}, "lon": -77.02976533333333, "name": "92cf533c2500f6d97dea7c83f3788c1a", "fusion_lon": 0.0, "bike_id": "92cf533c2500f6d97dea7c83f3788c1a", "is_reserved": 0, "type": "electric_scooter", "lat": 38.934549833333335, "fusion_lat": 0.0, "is_disabled": 0}, {"rental_uris": {"android": "https://dc.lft.to/lastmile_qr_scan", "ios": "https://dc.lft.to/lastmile_qr_scan"}, "lon": -77.04487966666667, "name": "5f9ddc111dd4c702d014f6d3215b9686", "fusion_lon": 0.0, "bike_id": "5f9ddc111dd4c702d014f6d3215b9686", "is_reserved": 0, "type": "electric_scooter", "lat": 38.896135, "fusion_lat": 0.0, "is_disabled": 0}, {"rental_uris": {"android": "https://dc.lft.to/lastmile_qr_scan", "ios": "https://dc.lft.to/lastmile_qr_scan"}, "lon": -76.9234125, "name": "dcaa9c6a3cc958cd1e6010e7a20774ca", "fusion_lon": 0.0, "bike_id": "dcaa9c6a3cc958cd1e6010e7a20774ca", "is_reserved": 0, "type": "electric_bike", "lat": 38.88782333333333, "fusion_lat": 0.0, "is_disabled": 0}, {"rental_uris": {"android": "https://dc.lft.to/lastmile_qr_scan", "ios": "https://dc.lft.to/lastmile_qr_scan"}, "lon": -77.04898183333333, "name": "1fdaf87a0a3b5674df8ec0b356cf9ecd", "fusion_lon": 0.0, "bike_id": "1fdaf87a0a3b5674df8ec0b356cf9ecd", "is_reserved": 0, "type": "electric_scooter", "lat": 38.890004166666664, "fusion_lat": 0.0, "is_disabled": 0}, {"rental_uris": {"android": "https://dc.lft.to/lastmile_qr_scan", "ios": "https://dc.lft.to/lastmile_qr_scan"}, "lon": -76.96755633333333, "name": "8ab73380ad973d6d70972fcbe96b41bd", "fusion_lon": 0.0, "bike_id": "8ab73380ad973d6d70972fcbe96b41bd", "is_reserved": 0, "type": "electric_bike", "lat": 38.95757483333333, "fusion_lat": 0.0, "is_disabled": 0}, {"rental_uris": {"android": "https://dc.lft.to/lastmile_qr_scan", "ios": "https://dc.lft.to/lastmile_qr_scan"}, "lon": -77.01707566666667, "name": "4cfcfd29cc31404ee969ffefd4e66fb2", "fusion_lon": 0.0, "bike_id": "4cfcfd29cc31404ee969ffefd4e66fb2", "is_reserved": 0, "type": "electric_scooter", "lat": 38.87269966666667, "fusion_lat": 0.0, "is_disabled": 0}, {"rental_uris": {"android": "https://dc.lft.to/lastmile_qr_scan", "ios": "https://dc.lft.to/lastmile_qr_scan"}, "lon": -77.0552155, "name": "a8e274becde9173a8b3cfb9b64dbfbbc", "fusion_lon": 0.0, "bike_id": "a8e274becde9173a8b3cfb9b64dbfbbc", "is_reserved": 0, "type": "electric_scooter", "lat": 38.897260833333334, "fusion_lat": 0.0, "is_disabled": 0}, {"rental_uris": {"android": "https://dc.lft.to/lastmile_qr_scan", "ios": "https://dc.lft.to/lastmile_qr_scan"}, "lon": -77.04474983333333, "name": "f1a81a860e869e3e8438a5a15e2fc590", "fusion_lon": 0.0, "bike_id": "f1a81a860e869e3e8438a5a15e2fc590", "is_reserved": 0, "type": "electric_scooter", "lat": 38.91146483333333, "fusion_lat": 0.0, "is_disabled": 0}, {"rental_uris": {"android": "https://dc.lft.to/lastmile_qr_scan", "ios": "https://dc.lft.to/lastmile_qr_scan"}, "lon": -77.01909333333333, "name": "e7275b52e29dd65b4e86b742be71ef90", "fusion_lon": 0.0, "bike_id": "e7275b52e29dd65b4e86b742be71ef90", "is_reserved": 0, "type": "electric_scooter", "lat": 38.923672, "fusion_lat": 0.0, "is_disabled": 0}, {"rental_uris": {"android": "https://dc.lft.to/lastmile_qr_scan", "ios": "https://dc.lft.to/lastmile_qr_scan"}, "lon": -77.04491116666667, "name": "8f433a47a651c822bf170f3ce2e8abb3", "fusion_lon": 0.0, "bike_id": "8f433a47a651c822bf170f3ce2e8abb3", "is_reserved": 0, "type": "electric_scooter", "lat": 38.913677666666665, "fusion_lat": 0.0, "is_disabled": 0}, {"rental_uris": {"android": "https://dc.lft.to/lastmile_qr_scan", "ios": "https://dc.lft.to/lastmile_qr_scan"}, "lon": -77.031841, "name": "48d6de44824aec687ac6ed6c5ae3c213", "fusion_lon": 0.0, "bike_id": "48d6de44824aec687ac6ed6c5ae3c213", "is_reserved": 0, "type": "electric_scooter", "lat": 38.91347583333334, "fusion_lat": 0.0, "is_disabled": 0}, {"rental_uris": {"android": "https://dc.lft.to/lastmile_qr_scan", "ios": "https://dc.lft.to/lastmile_qr_scan"}, "lon": -77.0588035, "name": "2c83045bc7449508d3731c4cc61cfd80", "fusion_lon": 0.0, "bike_id": "2c83045bc7449508d3731c4cc61cfd80", "is_reserved": 0, "type": "electric_scooter", "lat": 38.936044833333334, "fusion_lat": 0.0, "is_disabled": 0}, {"rental_uris": {"android": "https://dc.lft.to/lastmile_qr_scan", "ios": "https://dc.lft.to/lastmile_qr_scan"}, "lon": -77.02599433333333, "name": "76e864a2b97472333b8a999188e27154", "fusion_lon": 0.0, "bike_id": "76e864a2b97472333b8a999188e27154", "is_reserved": 0, "type": "electric_scooter", "lat": 38.92797216666666, "fusion_lat": 0.0, "is_disabled": 0}, {"rental_uris": {"android": "https://dc.lft.to/lastmile_qr_scan", "ios": "https://dc.lft.to/lastmile_qr_scan"}, "lon": -77.01319583333333, "name": "9e76f61e84ed92bf0a47219fa88907dc", "fusion_lon": 0.0, "bike_id": "9e76f61e84ed92bf0a47219fa88907dc", "is_reserved": 0, "type": "electric_scooter", "lat": 38.871605333333335, "fusion_lat": 0.0, "is_disabled": 0}, {"rental_uris": {"android": "https://dc.lft.to/lastmile_qr_scan", "ios": "https://dc.lft.to/lastmile_qr_scan"}, "lon": -77.11252733333333, "name": "7b17faa306e86566c987b901a70c2fb3", "fusion_lon": 0.0, "bike_id": "7b17faa306e86566c987b901a70c2fb3", "is_reserved": 0, "type": "electric_bike", "lat": 38.80866616666667, "fusion_lat": 0.0, "is_disabled": 0}, {"rental_uris": {"android": "https://dc.lft.to/lastmile_qr_scan", "ios": "https://dc.lft.to/lastmile_qr_scan"}, "lon": -77.032809, "name": "1fb6860ac15b39ffcde0ad8f0a4f8b9f", "fusion_lon": 0.0, "bike_id": "1fb6860ac15b39ffcde0ad8f0a4f8b9f", "is_reserved": 0, "type": "electric_scooter", "lat": 38.95086933333333, "fusion_lat": 0.0, "is_disabled": 0}, {"rental_uris": {"android": "https://dc.lft.to/lastmile_qr_scan", "ios": "https://dc.lft.to/lastmile_qr_scan"}, "lon": -77.07556083333333, "name": "0480e735d9a73d98af050440e9d7b4a5", "fusion_lon": 0.0, "bike_id": "0480e735d9a73d98af050440e9d7b4a5", "is_reserved": 0, "type": "electric_bike", "lat": 38.9157515, "fusion_lat": 0.0, "is_disabled": 0}, {"rental_uris": {"android": "https://dc.lft.to/lastmile_qr_scan", "ios": "https://dc.lft.to/lastmile_qr_scan"}, "lon": -76.988284, "name": "e95338afa77c67844be3648ed4218ac3", "fusion_lon": 0.0, "bike_id": "e95338afa77c67844be3648ed4218ac3", "is_reserved": 0, "type": "electric_scooter", "lat": 38.9003095, "fusion_lat": 0.0, "is_disabled": 0}, {"rental_uris": {"android": "https://dc.lft.to/lastmile_qr_scan", "ios": "https://dc.lft.to/lastmile_qr_scan"}, "lon": -77.04900183333334, "name": "aa7d9297ac3c0eb918f3ea5c5423bf58", "fusion_lon": 0.0, "bike_id": "aa7d9297ac3c0eb918f3ea5c5423bf58", "is_reserved": 0, "type": "electric_scooter", "lat": 38.89002683333333, "fusion_lat": 0.0, "is_disabled": 0}, {"rental_uris": {"android": "https://dc.lft.to/lastmile_qr_scan", "ios": "https://dc.lft.to/lastmile_qr_scan"}, "lon": -76.92921466666667, "name": "afb78c2760a7e50b9068830e9c9e4c8f", "fusion_lon": 0.0, "bike_id": "afb78c2760a7e50b9068830e9c9e4c8f", "is_reserved": 0, "type": "electric_scooter", "lat": 38.89203883333333, "fusion_lat": 0.0, "is_disabled": 0}, {"rental_uris": {"android": "https://dc.lft.to/lastmile_qr_scan", "ios": "https://dc.lft.to/lastmile_qr_scan"}, "lon": -77.023983, "name": "7b64464481664f74ad06da910edacaa4", "fusion_lon": 0.0, "bike_id": "7b64464481664f74ad06da910edacaa4", "is_reserved": 0, "type": "electric_scooter", "lat": 38.92072833333334, "fusion_lat": 0.0, "is_disabled": 0}, {"rental_uris": {"android": "https://dc.lft.to/lastmile_qr_scan", "ios": "https://dc.lft.to/lastmile_qr_scan"}, "lon": -76.99133866666666, "name": "e10bcf2d83cc9d4d13891d3019134df3", "fusion_lon": 0.0, "bike_id": "e10bcf2d83cc9d4d13891d3019134df3", "is_reserved": 0, "type": "electric_scooter", "lat": 38.910698333333336, "fusion_lat": 0.0, "is_disabled": 0}, {"rental_uris": {"android": "https://dc.lft.to/lastmile_qr_scan", "ios": "https://dc.lft.to/lastmile_qr_scan"}, "lon": -77.0397115, "name": "5876f11fe1aa612da30a38b3fee49135", "fusion_lon": 0.0, "bike_id": "5876f11fe1aa612da30a38b3fee49135", "is_reserved": 0, "type": "electric_scooter", "lat": 38.89350983333333, "fusion_lat": 0.0, "is_disabled": 0}, {"rental_uris": {"android": "https://dc.lft.to/lastmile_qr_scan", "ios": "https://dc.lft.to/lastmile_qr_scan"}, "lon": -77.02802233333334, "name": "732a90e11ecdafa6c7f77237e041efe0", "fusion_lon": 0.0, "bike_id": "732a90e11ecdafa6c7f77237e041efe0", "is_reserved": 0, "type": "electric_scooter", "lat": 38.923194333333335, "fusion_lat": 0.0, "is_disabled": 0}, {"rental_uris": {"android": "https://dc.lft.to/lastmile_qr_scan", "ios": "https://dc.lft.to/lastmile_qr_scan"}, "lon": -77.02090716666666, "name": "ad3a801fd240797e756fe5f23ba66c4c", "fusion_lon": 0.0, "bike_id": "ad3a801fd240797e756fe5f23ba66c4c", "is_reserved": 0, "type": "electric_scooter", "lat": 38.902006666666665, "fusion_lat": 0.0, "is_disabled": 0}, {"rental_uris": {"android": "https://dc.lft.to/lastmile_qr_scan", "ios": "https://dc.lft.to/lastmile_qr_scan"}, "lon": -77.041922, "name": "4bf4300860b16d2d7464c4d21d146b25", "fusion_lon": 0.0, "bike_id": "4bf4300860b16d2d7464c4d21d146b25", "is_reserved": 0, "type": "electric_scooter", "lat": 38.903294, "fusion_lat": 0.0, "is_disabled": 0}, {"rental_uris": {"android": "https://dc.lft.to/lastmile_qr_scan", "ios": "https://dc.lft.to/lastmile_qr_scan"}, "lon": -77.08364433333334, "name": "d8daef94741c6ab1ba468a0a745062f9", "fusion_lon": 0.0, "bike_id": "d8daef94741c6ab1ba468a0a745062f9", "is_reserved": 0, "type": "electric_bike", "lat": 38.8492505, "fusion_lat": 0.0, "is_disabled": 0}, {"rental_uris": {"android": "https://dc.lft.to/lastmile_qr_scan", "ios": "https://dc.lft.to/lastmile_qr_scan"}, "lon": -76.99770633333333, "name": "ada306696112385981cbaaa76d853046", "fusion_lon": 0.0, "bike_id": "ada306696112385981cbaaa76d853046", "is_reserved": 0, "type": "electric_scooter", "lat": 38.9070015, "fusion_lat": 0.0, "is_disabled": 0}, {"rental_uris": {"android": "https://dc.lft.to/lastmile_qr_scan", "ios": "https://dc.lft.to/lastmile_qr_scan"}, "lon": -77.04992416666667, "name": "2239d20cef27eb274d63ee8cdf2b4c6a", "fusion_lon": 0.0, "bike_id": "2239d20cef27eb274d63ee8cdf2b4c6a", "is_reserved": 0, "type": "electric_scooter", "lat": 38.901039833333336, "fusion_lat": 0.0, "is_disabled": 0}, {"rental_uris": {"android": "https://dc.lft.to/lastmile_qr_scan", "ios": "https://dc.lft.to/lastmile_qr_scan"}, "lon": -76.9822765, "name": "f7af51263cffb6eede6b0bd5de96c8bc", "fusion_lon": 0.0, "bike_id": "f7af51263cffb6eede6b0bd5de96c8bc", "is_reserved": 0, "type": "electric_scooter", "lat": 38.895420333333334, "fusion_lat": 0.0, "is_disabled": 0}, {"rental_uris": {"android": "https://dc.lft.to/lastmile_qr_scan", "ios": "https://dc.lft.to/lastmile_qr_scan"}, "lon": -77.02209716666667, "name": "b27d7eb259f8af31dcafdc7d599ef0f7", "fusion_lon": 0.0, "bike_id": "b27d7eb259f8af31dcafdc7d599ef0f7", "is_reserved": 0, "type": "electric_scooter", "lat": 38.91252083333333, "fusion_lat": 0.0, "is_disabled": 0}, {"rental_uris": {"android": "https://dc.lft.to/lastmile_qr_scan", "ios": "https://dc.lft.to/lastmile_qr_scan"}, "lon": -77.02579866666666, "name": "a664a16fc8ccbc19fc8f5f8e0ecc2f2f", "fusion_lon": 0.0, "bike_id": "a664a16fc8ccbc19fc8f5f8e0ecc2f2f", "is_reserved": 0, "type": "electric_scooter", "lat": 38.90417433333333, "fusion_lat": 0.0, "is_disabled": 0}, {"rental_uris": {"android": "https://dc.lft.to/lastmile_qr_scan", "ios": "https://dc.lft.to/lastmile_qr_scan"}, "lon": -77.01918416666666, "name": "0f87c90ee1d37d67eb21bcfbcec1a0cd", "fusion_lon": 0.0, "bike_id": "0f87c90ee1d37d67eb21bcfbcec1a0cd", "is_reserved": 0, "type": "electric_scooter", "lat": 38.92250833333333, "fusion_lat": 0.0, "is_disabled": 0}, {"rental_uris": {"android": "https://dc.lft.to/lastmile_qr_scan", "ios": "https://dc.lft.to/lastmile_qr_scan"}, "lon": -77.0453835, "name": "e9c3f115c16252dcf858601e41d20fbc", "fusion_lon": 0.0, "bike_id": "e9c3f115c16252dcf858601e41d20fbc", "is_reserved": 0, "type": "electric_scooter", "lat": 38.894512166666665, "fusion_lat": 0.0, "is_disabled": 0}, {"rental_uris": {"android": "https://dc.lft.to/lastmile_qr_scan", "ios": "https://dc.lft.to/lastmile_qr_scan"}, "lon": -77.03785966666666, "name": "99365b297588a83c351002c3ea90a2fb", "fusion_lon": 0.0, "bike_id": "99365b297588a83c351002c3ea90a2fb", "is_reserved": 0, "type": "electric_scooter", "lat": 38.9023585, "fusion_lat": 0.0, "is_disabled": 0}, {"rental_uris": {"android": "https://dc.lft.to/lastmile_qr_scan", "ios": "https://dc.lft.to/lastmile_qr_scan"}, "lon": -77.03756716666666, "name": "4802ef115d0fa6ca84f7bacde587a972", "fusion_lon": 0.0, "bike_id": "4802ef115d0fa6ca84f7bacde587a972", "is_reserved": 0, "type": "electric_scooter", "lat": 38.922272666666665, "fusion_lat": 0.0, "is_disabled": 0}, {"rental_uris": {"android": "https://dc.lft.to/lastmile_qr_scan", "ios": "https://dc.lft.to/lastmile_qr_scan"}, "lon": -77.01797466666666, "name": "96d5c3d2ee0260182182a77e9fd8dd13", "fusion_lon": 0.0, "bike_id": "96d5c3d2ee0260182182a77e9fd8dd13", "is_reserved": 0, "type": "electric_scooter", "lat": 38.9142035, "fusion_lat": 0.0, "is_disabled": 0}, {"rental_uris": {"android": "https://dc.lft.to/lastmile_qr_scan", "ios": "https://dc.lft.to/lastmile_qr_scan"}, "lon": -77.02208, "name": "966f57c7cacd54c6019f7c0edb2ec0ca", "fusion_lon": 0.0, "bike_id": "966f57c7cacd54c6019f7c0edb2ec0ca", "is_reserved": 0, "type": "electric_scooter", "lat": 38.912699, "fusion_lat": 0.0, "is_disabled": 0}, {"rental_uris": {"android": "https://dc.lft.to/lastmile_qr_scan", "ios": "https://dc.lft.to/lastmile_qr_scan"}, "lon": -77.0267015, "name": "50e8ac26d42a1276aa2c6a1dd860122a", "fusion_lon": 0.0, "bike_id": "50e8ac26d42a1276aa2c6a1dd860122a", "is_reserved": 0, "type": "electric_scooter", "lat": 38.97365216666667, "fusion_lat": 0.0, "is_disabled": 0}, {"rental_uris": {"android": "https://dc.lft.to/lastmile_qr_scan", "ios": "https://dc.lft.to/lastmile_qr_scan"}, "lon": -77.016111, "name": "6b7c53777f51284f622aea607a412cd8", "fusion_lon": 0.0, "bike_id": "6b7c53777f51284f622aea607a412cd8", "is_reserved": 0, "type": "electric_scooter", "lat": 38.89955366666667, "fusion_lat": 0.0, "is_disabled": 0}, {"rental_uris": {"android": "https://dc.lft.to/lastmile_qr_scan", "ios": "https://dc.lft.to/lastmile_qr_scan"}, "lon": -77.0070515, "name": "dd330d335bc5181d36d323a67a13d1f2", "fusion_lon": 0.0, "bike_id": "dd330d335bc5181d36d323a67a13d1f2", "is_reserved": 0, "type": "electric_scooter", "lat": 38.90552366666667, "fusion_lat": 0.0, "is_disabled": 0}, {"rental_uris": {"android": "https://dc.lft.to/lastmile_qr_scan", "ios": "https://dc.lft.to/lastmile_qr_scan"}, "lon": -76.98610466666666, "name": "eeb7f626c987dc7974bfda858091462f", "fusion_lon": 0.0, "bike_id": "eeb7f626c987dc7974bfda858091462f", "is_reserved": 0, "type": "electric_scooter", "lat": 38.9034935, "fusion_lat": 0.0, "is_disabled": 0}, {"rental_uris": {"android": "https://dc.lft.to/lastmile_qr_scan", "ios": "https://dc.lft.to/lastmile_qr_scan"}, "lon": -77.01740183333334, "name": "ab0eb111252e30c2cfd0ba175742b9d2", "fusion_lon": 0.0, "bike_id": "ab0eb111252e30c2cfd0ba175742b9d2", "is_reserved": 0, "type": "electric_scooter", "lat": 38.87534933333333, "fusion_lat": 0.0, "is_disabled": 0}, {"rental_uris": {"android": "https://dc.lft.to/lastmile_qr_scan", "ios": "https://dc.lft.to/lastmile_qr_scan"}, "lon": -77.0249705, "name": "bb4ef066016e762f9a707ea150a1faa2", "fusion_lon": 0.0, "bike_id": "bb4ef066016e762f9a707ea150a1faa2", "is_reserved": 0, "type": "electric_scooter", "lat": 38.9009705, "fusion_lat": 0.0, "is_disabled": 0}, {"rental_uris": {"android": "https://dc.lft.to/lastmile_qr_scan", "ios": "https://dc.lft.to/lastmile_qr_scan"}, "lon": -77.02252133333333, "name": "d1d2e4131a4527fb4855ff32c59348d2", "fusion_lon": 0.0, "bike_id": "d1d2e4131a4527fb4855ff32c59348d2", "is_reserved": 0, "type": "electric_scooter", "lat": 38.9126885, "fusion_lat": 0.0, "is_disabled": 0}, {"rental_uris": {"android": "https://dc.lft.to/lastmile_qr_scan", "ios": "https://dc.lft.to/lastmile_qr_scan"}, "lon": -77.0271095, "name": "7a893d3d211cfac3590f621c6c675716", "fusion_lon": 0.0, "bike_id": "7a893d3d211cfac3590f621c6c675716", "is_reserved": 0, "type": "electric_scooter", "lat": 38.91672783333333, "fusion_lat": 0.0, "is_disabled": 0}, {"rental_uris": {"android": "https://dc.lft.to/lastmile_qr_scan", "ios": "https://dc.lft.to/lastmile_qr_scan"}, "lon": -77.01588266666667, "name": "fedd0d65b1b9313ad1d7562f7c6ce43a", "fusion_lon": 0.0, "bike_id": "fedd0d65b1b9313ad1d7562f7c6ce43a", "is_reserved": 0, "type": "electric_scooter", "lat": 38.884986166666664, "fusion_lat": 0.0, "is_disabled": 0}, {"rental_uris": {"android": "https://dc.lft.to/lastmile_qr_scan", "ios": "https://dc.lft.to/lastmile_qr_scan"}, "lon": -77.03188666666667, "name": "17053b36a82bb07d74eca1dab60c71af", "fusion_lon": 0.0, "bike_id": "17053b36a82bb07d74eca1dab60c71af", "is_reserved": 0, "type": "electric_scooter", "lat": 38.917964166666664, "fusion_lat": 0.0, "is_disabled": 0}, {"rental_uris": {"android": "https://dc.lft.to/lastmile_qr_scan", "ios": "https://dc.lft.to/lastmile_qr_scan"}, "lon": -76.92741, "name": "ddad6085f34f7b66249f363ea7c19372", "fusion_lon": 0.0, "bike_id": "ddad6085f34f7b66249f363ea7c19372", "is_reserved": 0, "type": "electric_scooter", "lat": 38.90066133333333, "fusion_lat": 0.0, "is_disabled": 0}, {"rental_uris": {"android": "https://dc.lft.to/lastmile_qr_scan", "ios": "https://dc.lft.to/lastmile_qr_scan"}, "lon": -76.97005516666667, "name": "c8270938d282a01a241b84f2090d60a7", "fusion_lon": 0.0, "bike_id": "c8270938d282a01a241b84f2090d60a7", "is_reserved": 0, "type": "electric_bike", "lat": 38.86367583333333, "fusion_lat": 0.0, "is_disabled": 0}, {"rental_uris": {"android": "https://dc.lft.to/lastmile_qr_scan", "ios": "https://dc.lft.to/lastmile_qr_scan"}, "lon": -77.02209183333333, "name": "7101cc64227fa20f5f9e1c7d3476178d", "fusion_lon": 0.0, "bike_id": "7101cc64227fa20f5f9e1c7d3476178d", "is_reserved": 0, "type": "electric_scooter", "lat": 38.89825533333333, "fusion_lat": 0.0, "is_disabled": 0}, {"rental_uris": {"android": "https://dc.lft.to/lastmile_qr_scan", "ios": "https://dc.lft.to/lastmile_qr_scan"}, "lon": -77.0265455, "name": "e2c3ef9e4630413d5631c030ea9e03a3", "fusion_lon": 0.0, "bike_id": "e2c3ef9e4630413d5631c030ea9e03a3", "is_reserved": 0, "type": "electric_scooter", "lat": 38.922091333333334, "fusion_lat": 0.0, "is_disabled": 0}, {"rental_uris": {"android": "https://dc.lft.to/lastmile_qr_scan", "ios": "https://dc.lft.to/lastmile_qr_scan"}, "lon": -77.03999883333333, "name": "d4458b89bbba2a9f53de1fe57e3871c6", "fusion_lon": 0.0, "bike_id": "d4458b89bbba2a9f53de1fe57e3871c6", "is_reserved": 0, "type": "electric_scooter", "lat": 38.91003366666666, "fusion_lat": 0.0, "is_disabled": 0}, {"rental_uris": {"android": "https://dc.lft.to/lastmile_qr_scan", "ios": "https://dc.lft.to/lastmile_qr_scan"}, "lon": -77.03580883333333, "name": "0272ca9dc9a43c069f10d21775f61f95", "fusion_lon": 0.0, "bike_id": "0272ca9dc9a43c069f10d21775f61f95", "is_reserved": 0, "type": "electric_scooter", "lat": 38.94241916666667, "fusion_lat": 0.0, "is_disabled": 0}, {"rental_uris": {"android": "https://dc.lft.to/lastmile_qr_scan", "ios": "https://dc.lft.to/lastmile_qr_scan"}, "lon": -77.03659566666667, "name": "a8bb79285f046cf039fa6a13d97769b8", "fusion_lon": 0.0, "bike_id": "a8bb79285f046cf039fa6a13d97769b8", "is_reserved": 0, "type": "electric_scooter", "lat": 38.922886, "fusion_lat": 0.0, "is_disabled": 0}, {"rental_uris": {"android": "https://dc.lft.to/lastmile_qr_scan", "ios": "https://dc.lft.to/lastmile_qr_scan"}, "lon": -77.02582133333334, "name": "681b735bcfcb9727d2974fdb6e294f59", "fusion_lon": 0.0, "bike_id": "681b735bcfcb9727d2974fdb6e294f59", "is_reserved": 0, "type": "electric_scooter", "lat": 38.909764833333334, "fusion_lat": 0.0, "is_disabled": 0}, {"rental_uris": {"android": "https://dc.lft.to/lastmile_qr_scan", "ios": "https://dc.lft.to/lastmile_qr_scan"}, "lon": -77.03021616666666, "name": "b977f779058524b3d562f989d9f1c73f", "fusion_lon": 0.0, "bike_id": "b977f779058524b3d562f989d9f1c73f", "is_reserved": 0, "type": "electric_scooter", "lat": 38.918193, "fusion_lat": 0.0, "is_disabled": 0}, {"rental_uris": {"android": "https://dc.lft.to/lastmile_qr_scan", "ios": "https://dc.lft.to/lastmile_qr_scan"}, "lon": -77.044081, "name": "5df37088395ca230a3908fa050e7df1e", "fusion_lon": 0.0, "bike_id": "5df37088395ca230a3908fa050e7df1e", "is_reserved": 0, "type": "electric_scooter", "lat": 38.8961725, "fusion_lat": 0.0, "is_disabled": 0}, {"rental_uris": {"android": "https://dc.lft.to/lastmile_qr_scan", "ios": "https://dc.lft.to/lastmile_qr_scan"}, "lon": -77.02732783333333, "name": "b238d903b47d2431730b44ac78144c87", "fusion_lon": 0.0, "bike_id": "b238d903b47d2431730b44ac78144c87", "is_reserved": 0, "type": "electric_scooter", "lat": 38.89747116666667, "fusion_lat": 0.0, "is_disabled": 0}, {"rental_uris": {"android": "https://dc.lft.to/lastmile_qr_scan", "ios": "https://dc.lft.to/lastmile_qr_scan"}, "lon": -77.00407483333333, "name": "c864622f448b7ddb8fce88dc4cc00af2", "fusion_lon": 0.0, "bike_id": "c864622f448b7ddb8fce88dc4cc00af2", "is_reserved": 0, "type": "electric_scooter", "lat": 38.9295275, "fusion_lat": 0.0, "is_disabled": 0}, {"rental_uris": {"android": "https://dc.lft.to/lastmile_qr_scan", "ios": "https://dc.lft.to/lastmile_qr_scan"}, "lon": -76.983553, "name": "6d652b183ee6faf8e9f99be333d5c6be", "fusion_lon": 0.0, "bike_id": "6d652b183ee6faf8e9f99be333d5c6be", "is_reserved": 0, "type": "electric_scooter", "lat": 38.88729683333333, "fusion_lat": 0.0, "is_disabled": 0}, {"rental_uris": {"android": "https://dc.lft.to/lastmile_qr_scan", "ios": "https://dc.lft.to/lastmile_qr_scan"}, "lon": -77.03204866666667, "name": "9efc99efe6f13ef2125f237e2d2ad57c", "fusion_lon": 0.0, "bike_id": "9efc99efe6f13ef2125f237e2d2ad57c", "is_reserved": 0, "type": "electric_scooter", "lat": 38.930584, "fusion_lat": 0.0, "is_disabled": 0}, {"rental_uris": {"android": "https://dc.lft.to/lastmile_qr_scan", "ios": "https://dc.lft.to/lastmile_qr_scan"}, "lon": -77.00402283333334, "name": "3f8a25acf11ae8611956fa35dbaffae1", "fusion_lon": 0.0, "bike_id": "3f8a25acf11ae8611956fa35dbaffae1", "is_reserved": 0, "type": "electric_scooter", "lat": 38.8861355, "fusion_lat": 0.0, "is_disabled": 0}, {"rental_uris": {"android": "https://dc.lft.to/lastmile_qr_scan", "ios": "https://dc.lft.to/lastmile_qr_scan"}, "lon": -77.02049, "name": "e8aeeabe27b69a404ac2ffc50b442656", "fusion_lon": 0.0, "bike_id": "e8aeeabe27b69a404ac2ffc50b442656", "is_reserved": 0, "type": "electric_scooter", "lat": 38.91553666666667, "fusion_lat": 0.0, "is_disabled": 0}, {"rental_uris": {"android": "https://dc.lft.to/lastmile_qr_scan", "ios": "https://dc.lft.to/lastmile_qr_scan"}, "lon": -77.02965016666667, "name": "da41acf5cb49095d5bc67304a1c7604b", "fusion_lon": 0.0, "bike_id": "da41acf5cb49095d5bc67304a1c7604b", "is_reserved": 0, "type": "electric_scooter", "lat": 38.89565666666667, "fusion_lat": 0.0, "is_disabled": 0}, {"rental_uris": {"android": "https://dc.lft.to/lastmile_qr_scan", "ios": "https://dc.lft.to/lastmile_qr_scan"}, "lon": -76.93233683333334, "name": "b1aef3e9350650fcc04d31ce3480315b", "fusion_lon": 0.0, "bike_id": "b1aef3e9350650fcc04d31ce3480315b", "is_reserved": 0, "type": "electric_bike", "lat": 38.88272883333333, "fusion_lat": 0.0, "is_disabled": 0}, {"rental_uris": {"android": "https://dc.lft.to/lastmile_qr_scan", "ios": "https://dc.lft.to/lastmile_qr_scan"}, "lon": -77.02687833333333, "name": "bf59b702971c85ed6dfb3231b92135bc", "fusion_lon": 0.0, "bike_id": "bf59b702971c85ed6dfb3231b92135bc", "is_reserved": 0, "type": "electric_scooter", "lat": 38.902391333333334, "fusion_lat": 0.0, "is_disabled": 0}, {"rental_uris": {"android": "https://dc.lft.to/lastmile_qr_scan", "ios": "https://dc.lft.to/lastmile_qr_scan"}, "lon": -77.02312716666667, "name": "02a7c0eb992219a7c4a54c27f587c544", "fusion_lon": 0.0, "bike_id": "02a7c0eb992219a7c4a54c27f587c544", "is_reserved": 0, "type": "electric_scooter", "lat": 38.8940495, "fusion_lat": 0.0, "is_disabled": 0}, {"rental_uris": {"android": "https://dc.lft.to/lastmile_qr_scan", "ios": "https://dc.lft.to/lastmile_qr_scan"}, "lon": -77.017678, "name": "03e3a216c602daf4803bb3ac8fdd2ceb", "fusion_lon": 0.0, "bike_id": "03e3a216c602daf4803bb3ac8fdd2ceb", "is_reserved": 0, "type": "electric_scooter", "lat": 38.90260683333333, "fusion_lat": 0.0, "is_disabled": 0}, {"rental_uris": {"android": "https://dc.lft.to/lastmile_qr_scan", "ios": "https://dc.lft.to/lastmile_qr_scan"}, "lon": -77.0344115, "name": "a9f535065dcfc5883da3465dff224f06", "fusion_lon": 0.0, "bike_id": "a9f535065dcfc5883da3465dff224f06", "is_reserved": 0, "type": "electric_scooter", "lat": 38.917836333333334, "fusion_lat": 0.0, "is_disabled": 0}, {"rental_uris": {"android": "https://dc.lft.to/lastmile_qr_scan", "ios": "https://dc.lft.to/lastmile_qr_scan"}, "lon": -77.02791583333334, "name": "24670bd4d49dab6ec2d613b9536d8d96", "fusion_lon": 0.0, "bike_id": "24670bd4d49dab6ec2d613b9536d8d96", "is_reserved": 0, "type": "electric_scooter", "lat": 38.907173666666665, "fusion_lat": 0.0, "is_disabled": 0}, {"rental_uris": {"android": "https://dc.lft.to/lastmile_qr_scan", "ios": "https://dc.lft.to/lastmile_qr_scan"}, "lon": -77.0258605, "name": "24e4c56b887022e8e7d71ef23efa541b", "fusion_lon": 0.0, "bike_id": "24e4c56b887022e8e7d71ef23efa541b", "is_reserved": 0, "type": "electric_scooter", "lat": 38.90160083333333, "fusion_lat": 0.0, "is_disabled": 0}, {"rental_uris": {"android": "https://dc.lft.to/lastmile_qr_scan", "ios": "https://dc.lft.to/lastmile_qr_scan"}, "lon": -77.03731666666667, "name": "1d86afcd460d05df4b7e67b199785c3b", "fusion_lon": 0.0, "bike_id": "1d86afcd460d05df4b7e67b199785c3b", "is_reserved": 0, "type": "electric_scooter", "lat": 38.92853066666667, "fusion_lat": 0.0, "is_disabled": 0}, {"rental_uris": {"android": "https://dc.lft.to/lastmile_qr_scan", "ios": "https://dc.lft.to/lastmile_qr_scan"}, "lon": -77.002851, "name": "d97c9419bc59dd0350d60db04ce7ab2c", "fusion_lon": 0.0, "bike_id": "d97c9419bc59dd0350d60db04ce7ab2c", "is_reserved": 0, "type": "electric_scooter", "lat": 38.90553033333333, "fusion_lat": 0.0, "is_disabled": 0}, {"rental_uris": {"android": "https://dc.lft.to/lastmile_qr_scan", "ios": "https://dc.lft.to/lastmile_qr_scan"}, "lon": -77.04478983333334, "name": "b9c9223eeda51e45b3098a2c59ea52dc", "fusion_lon": 0.0, "bike_id": "b9c9223eeda51e45b3098a2c59ea52dc", "is_reserved": 0, "type": "electric_scooter", "lat": 38.8922865, "fusion_lat": 0.0, "is_disabled": 0}, {"rental_uris": {"android": "https://dc.lft.to/lastmile_qr_scan", "ios": "https://dc.lft.to/lastmile_qr_scan"}, "lon": -77.032052, "name": "6124d8a529236421b37a7ca0aa8f136c", "fusion_lon": 0.0, "bike_id": "6124d8a529236421b37a7ca0aa8f136c", "is_reserved": 0, "type": "electric_scooter", "lat": 38.913407666666664, "fusion_lat": 0.0, "is_disabled": 0}, {"rental_uris": {"android": "https://dc.lft.to/lastmile_qr_scan", "ios": "https://dc.lft.to/lastmile_qr_scan"}, "lon": -77.056963, "name": "d3436dd8035c4aaeafe88ab00536c4c5", "fusion_lon": 0.0, "bike_id": "d3436dd8035c4aaeafe88ab00536c4c5", "is_reserved": 0, "type": "electric_scooter", "lat": 38.933485, "fusion_lat": 0.0, "is_disabled": 0}, {"rental_uris": {"android": "https://dc.lft.to/lastmile_qr_scan", "ios": "https://dc.lft.to/lastmile_qr_scan"}, "lon": -77.03665233333334, "name": "9d587ce58d9b063c15b03ac157ed2208", "fusion_lon": 0.0, "bike_id": "9d587ce58d9b063c15b03ac157ed2208", "is_reserved": 0, "type": "electric_scooter", "lat": 38.900399, "fusion_lat": 0.0, "is_disabled": 0}, {"rental_uris": {"android": "https://dc.lft.to/lastmile_qr_scan", "ios": "https://dc.lft.to/lastmile_qr_scan"}, "lon": -77.03515183333333, "name": "f18f0ee9a170b4e07b575b1bd82c809c", "fusion_lon": 0.0, "bike_id": "f18f0ee9a170b4e07b575b1bd82c809c", "is_reserved": 0, "type": "electric_scooter", "lat": 38.9066285, "fusion_lat": 0.0, "is_disabled": 0}, {"rental_uris": {"android": "https://dc.lft.to/lastmile_qr_scan", "ios": "https://dc.lft.to/lastmile_qr_scan"}, "lon": -77.0280115, "name": "c4e25374c0142b7e6436c22cbaa278f1", "fusion_lon": 0.0, "bike_id": "c4e25374c0142b7e6436c22cbaa278f1", "is_reserved": 0, "type": "electric_scooter", "lat": 38.896189666666665, "fusion_lat": 0.0, "is_disabled": 0}, {"rental_uris": {"android": "https://dc.lft.to/lastmile_qr_scan", "ios": "https://dc.lft.to/lastmile_qr_scan"}, "lon": -77.09521366666667, "name": "7d9bcbce249d50ccb6e22ff033a7236a", "fusion_lon": 0.0, "bike_id": "7d9bcbce249d50ccb6e22ff033a7236a", "is_reserved": 0, "type": "electric_bike", "lat": 38.838103, "fusion_lat": 0.0, "is_disabled": 0}, {"rental_uris": {"android": "https://dc.lft.to/lastmile_qr_scan", "ios": "https://dc.lft.to/lastmile_qr_scan"}, "lon": -77.04183283333333, "name": "e913e14107588c1a974c297fea51ebda", "fusion_lon": 0.0, "bike_id": "e913e14107588c1a974c297fea51ebda", "is_reserved": 0, "type": "electric_scooter", "lat": 38.905181, "fusion_lat": 0.0, "is_disabled": 0}, {"rental_uris": {"android": "https://dc.lft.to/lastmile_qr_scan", "ios": "https://dc.lft.to/lastmile_qr_scan"}, "lon": -77.02564366666667, "name": "49b1a1f94c3543f3fcc7d572f39623d5", "fusion_lon": 0.0, "bike_id": "49b1a1f94c3543f3fcc7d572f39623d5", "is_reserved": 0, "type": "electric_scooter", "lat": 38.93353033333333, "fusion_lat": 0.0, "is_disabled": 0}, {"rental_uris": {"android": "https://dc.lft.to/lastmile_qr_scan", "ios": "https://dc.lft.to/lastmile_qr_scan"}, "lon": -77.021329, "name": "5f536d80544fb71d61a1dbb8a0700431", "fusion_lon": 0.0, "bike_id": "5f536d80544fb71d61a1dbb8a0700431", "is_reserved": 0, "type": "electric_scooter", "lat": 38.924637833333335, "fusion_lat": 0.0, "is_disabled": 0}, {"rental_uris": {"android": "https://dc.lft.to/lastmile_qr_scan", "ios": "https://dc.lft.to/lastmile_qr_scan"}, "lon": -77.02005383333334, "name": "4ee473d9cce079b7db494e065e8bd59c", "fusion_lon": 0.0, "bike_id": "4ee473d9cce079b7db494e065e8bd59c", "is_reserved": 0, "type": "electric_scooter", "lat": 38.93496283333333, "fusion_lat": 0.0, "is_disabled": 0}, {"rental_uris": {"android": "https://dc.lft.to/lastmile_qr_scan", "ios": "https://dc.lft.to/lastmile_qr_scan"}, "lon": -77.03211533333334, "name": "c00f94bc1e8c19f617df2c405ce9d2b5", "fusion_lon": 0.0, "bike_id": "c00f94bc1e8c19f617df2c405ce9d2b5", "is_reserved": 0, "type": "electric_scooter", "lat": 38.914732666666666, "fusion_lat": 0.0, "is_disabled": 0}, {"rental_uris": {"android": "https://dc.lft.to/lastmile_qr_scan", "ios": "https://dc.lft.to/lastmile_qr_scan"}, "lon": -76.97615416666666, "name": "94f9070072a6f52edf8c4096d2476e0f", "fusion_lon": 0.0, "bike_id": "94f9070072a6f52edf8c4096d2476e0f", "is_reserved": 0, "type": "electric_bike", "lat": 38.840332333333336, "fusion_lat": 0.0, "is_disabled": 0}, {"rental_uris": {"android": "https://dc.lft.to/lastmile_qr_scan", "ios": "https://dc.lft.to/lastmile_qr_scan"}, "lon": -77.04184866666667, "name": "76e68099ffd5bde52e9b80f8c30dce84", "fusion_lon": 0.0, "bike_id": "76e68099ffd5bde52e9b80f8c30dce84", "is_reserved": 0, "type": "electric_scooter", "lat": 38.920451, "fusion_lat": 0.0, "is_disabled": 0}, {"rental_uris": {"android": "https://dc.lft.to/lastmile_qr_scan", "ios": "https://dc.lft.to/lastmile_qr_scan"}, "lon": -77.03211, "name": "2bcbe4bd4ff22f277a12e60ef78339cc", "fusion_lon": 0.0, "bike_id": "2bcbe4bd4ff22f277a12e60ef78339cc", "is_reserved": 0, "type": "electric_scooter", "lat": 38.914198, "fusion_lat": 0.0, "is_disabled": 0}, {"rental_uris": {"android": "https://dc.lft.to/lastmile_qr_scan", "ios": "https://dc.lft.to/lastmile_qr_scan"}, "lon": -77.04213616666667, "name": "c557c82fa9350b866a6e0ea8cfa60854", "fusion_lon": 0.0, "bike_id": "c557c82fa9350b866a6e0ea8cfa60854", "is_reserved": 0, "type": "electric_scooter", "lat": 38.919221, "fusion_lat": 0.0, "is_disabled": 0}, {"rental_uris": {"android": "https://dc.lft.to/lastmile_qr_scan", "ios": "https://dc.lft.to/lastmile_qr_scan"}, "lon": -76.99814566666667, "name": "adf315c929be0ab40b83ac862fc5a69e", "fusion_lon": 0.0, "bike_id": "adf315c929be0ab40b83ac862fc5a69e", "is_reserved": 0, "type": "electric_scooter", "lat": 38.92915816666667, "fusion_lat": 0.0, "is_disabled": 0}, {"rental_uris": {"android": "https://dc.lft.to/lastmile_qr_scan", "ios": "https://dc.lft.to/lastmile_qr_scan"}, "lon": -77.031526, "name": "c3c2808f632ae069c46bc584e7a78b73", "fusion_lon": 0.0, "bike_id": "c3c2808f632ae069c46bc584e7a78b73", "is_reserved": 0, "type": "electric_scooter", "lat": 38.91795583333333, "fusion_lat": 0.0, "is_disabled": 0}, {"rental_uris": {"android": "https://dc.lft.to/lastmile_qr_scan", "ios": "https://dc.lft.to/lastmile_qr_scan"}, "lon": -77.025596, "name": "27775cea5d283cbd445a75976bf63169", "fusion_lon": 0.0, "bike_id": "27775cea5d283cbd445a75976bf63169", "is_reserved": 0, "type": "electric_scooter", "lat": 38.904225, "fusion_lat": 0.0, "is_disabled": 0}, {"rental_uris": {"android": "https://dc.lft.to/lastmile_qr_scan", "ios": "https://dc.lft.to/lastmile_qr_scan"}, "lon": -77.03441716666667, "name": "2780bbf0f8c8d4520f3a6c92f78db762", "fusion_lon": 0.0, "bike_id": "2780bbf0f8c8d4520f3a6c92f78db762", "is_reserved": 0, "type": "electric_scooter", "lat": 38.9179475, "fusion_lat": 0.0, "is_disabled": 0}, {"rental_uris": {"android": "https://dc.lft.to/lastmile_qr_scan", "ios": "https://dc.lft.to/lastmile_qr_scan"}, "lon": -77.02696416666667, "name": "1ee6dc0c13a56cdb7e84510e4adedbd5", "fusion_lon": 0.0, "bike_id": "1ee6dc0c13a56cdb7e84510e4adedbd5", "is_reserved": 0, "type": "electric_scooter", "lat": 38.907006333333335, "fusion_lat": 0.0, "is_disabled": 0}, {"rental_uris": {"android": "https://dc.lft.to/lastmile_qr_scan", "ios": "https://dc.lft.to/lastmile_qr_scan"}, "lon": -77.01444, "name": "5704f152298037dfd80f7b8bc69071bd", "fusion_lon": 0.0, "bike_id": "5704f152298037dfd80f7b8bc69071bd", "is_reserved": 0, "type": "electric_scooter", "lat": 38.91315683333333, "fusion_lat": 0.0, "is_disabled": 0}, {"rental_uris": {"android": "https://dc.lft.to/lastmile_qr_scan", "ios": "https://dc.lft.to/lastmile_qr_scan"}, "lon": -77.02604033333333, "name": "19494bc134b4ea1a43d8c2ab34c4341e", "fusion_lon": 0.0, "bike_id": "19494bc134b4ea1a43d8c2ab34c4341e", "is_reserved": 0, "type": "electric_scooter", "lat": 38.918533833333335, "fusion_lat": 0.0, "is_disabled": 0}, {"rental_uris": {"android": "https://dc.lft.to/lastmile_qr_scan", "ios": "https://dc.lft.to/lastmile_qr_scan"}, "lon": -77.02714116666667, "name": "566f7d472c6f390aeb04705963fe0a49", "fusion_lon": 0.0, "bike_id": "566f7d472c6f390aeb04705963fe0a49", "is_reserved": 0, "type": "electric_scooter", "lat": 38.93689583333333, "fusion_lat": 0.0, "is_disabled": 0}, {"rental_uris": {"android": "https://dc.lft.to/lastmile_qr_scan", "ios": "https://dc.lft.to/lastmile_qr_scan"}, "lon": -77.025742, "name": "6a155e2ccb766049463447a1da1d2c4e", "fusion_lon": 0.0, "bike_id": "6a155e2ccb766049463447a1da1d2c4e", "is_reserved": 0, "type": "electric_scooter", "lat": 38.897294, "fusion_lat": 0.0, "is_disabled": 0}, {"rental_uris": {"android": "https://dc.lft.to/lastmile_qr_scan", "ios": "https://dc.lft.to/lastmile_qr_scan"}, "lon": -77.0179585, "name": "56d6407d8f28b7e27d9f79e450ae97d0", "fusion_lon": 0.0, "bike_id": "56d6407d8f28b7e27d9f79e450ae97d0", "is_reserved": 0, "type": "electric_scooter", "lat": 38.8765735, "fusion_lat": 0.0, "is_disabled": 0}, {"rental_uris": {"android": "https://dc.lft.to/lastmile_qr_scan", "ios": "https://dc.lft.to/lastmile_qr_scan"}, "lon": -77.045539, "name": "4c8e313a972be3abd2d0c39875d2cb2c", "fusion_lon": 0.0, "bike_id": "4c8e313a972be3abd2d0c39875d2cb2c", "is_reserved": 0, "type": "electric_scooter", "lat": 38.924195166666664, "fusion_lat": 0.0, "is_disabled": 0}, {"rental_uris": {"android": "https://dc.lft.to/lastmile_qr_scan", "ios": "https://dc.lft.to/lastmile_qr_scan"}, "lon": -76.98020433333333, "name": "04312959c89c2917d72de7564f713c63", "fusion_lon": 0.0, "bike_id": "04312959c89c2917d72de7564f713c63", "is_reserved": 0, "type": "electric_scooter", "lat": 38.9066695, "fusion_lat": 0.0, "is_disabled": 0}, {"rental_uris": {"android": "https://dc.lft.to/lastmile_qr_scan", "ios": "https://dc.lft.to/lastmile_qr_scan"}, "lon": -77.02910433333334, "name": "74897a31f9d50efbd6421a6b20c42365", "fusion_lon": 0.0, "bike_id": "74897a31f9d50efbd6421a6b20c42365", "is_reserved": 0, "type": "electric_scooter", "lat": 38.94439466666667, "fusion_lat": 0.0, "is_disabled": 0}, {"rental_uris": {"android": "https://dc.lft.to/lastmile_qr_scan", "ios": "https://dc.lft.to/lastmile_qr_scan"}, "lon": -77.0403875, "name": "2af7a311cb234b68875cb4c94d06349e", "fusion_lon": 0.0, "bike_id": "2af7a311cb234b68875cb4c94d06349e", "is_reserved": 0, "type": "electric_scooter", "lat": 38.91851916666667, "fusion_lat": 0.0, "is_disabled": 0}, {"rental_uris": {"android": "https://dc.lft.to/lastmile_qr_scan", "ios": "https://dc.lft.to/lastmile_qr_scan"}, "lon": -77.02198766666666, "name": "b2a2efc723c32f0eeb4807bd6460839b", "fusion_lon": 0.0, "bike_id": "b2a2efc723c32f0eeb4807bd6460839b", "is_reserved": 0, "type": "electric_scooter", "lat": 38.91127066666667, "fusion_lat": 0.0, "is_disabled": 0}, {"rental_uris": {"android": "https://dc.lft.to/lastmile_qr_scan", "ios": "https://dc.lft.to/lastmile_qr_scan"}, "lon": -77.030203, "name": "514437282a00e5589c073afafac3a2f0", "fusion_lon": 0.0, "bike_id": "514437282a00e5589c073afafac3a2f0", "is_reserved": 0, "type": "electric_scooter", "lat": 38.89225033333334, "fusion_lat": 0.0, "is_disabled": 0}, {"rental_uris": {"android": "https://dc.lft.to/lastmile_qr_scan", "ios": "https://dc.lft.to/lastmile_qr_scan"}, "lon": -76.999787, "name": "0d78eedd6141e73b9aeda7e4ac126a66", "fusion_lon": 0.0, "bike_id": "0d78eedd6141e73b9aeda7e4ac126a66", "is_reserved": 0, "type": "electric_scooter", "lat": 38.918076, "fusion_lat": 0.0, "is_disabled": 0}, {"rental_uris": {"android": "https://dc.lft.to/lastmile_qr_scan", "ios": "https://dc.lft.to/lastmile_qr_scan"}, "lon": -77.01207466666666, "name": "62457ddf87de1b6e91aa370b7f28a5e8", "fusion_lon": 0.0, "bike_id": "62457ddf87de1b6e91aa370b7f28a5e8", "is_reserved": 0, "type": "electric_scooter", "lat": 38.921201, "fusion_lat": 0.0, "is_disabled": 0}, {"rental_uris": {"android": "https://dc.lft.to/lastmile_qr_scan", "ios": "https://dc.lft.to/lastmile_qr_scan"}, "lon": -76.92753366666666, "name": "94c30941af7d71e28062a773761d5ba1", "fusion_lon": 0.0, "bike_id": "94c30941af7d71e28062a773761d5ba1", "is_reserved": 0, "type": "electric_scooter", "lat": 38.8985145, "fusion_lat": 0.0, "is_disabled": 0}, {"rental_uris": {"android": "https://dc.lft.to/lastmile_qr_scan", "ios": "https://dc.lft.to/lastmile_qr_scan"}, "lon": -77.03431066666667, "name": "05fc299f032df4edef13b92dbfbcc216", "fusion_lon": 0.0, "bike_id": "05fc299f032df4edef13b92dbfbcc216", "is_reserved": 0, "type": "electric_scooter", "lat": 38.9102195, "fusion_lat": 0.0, "is_disabled": 0}, {"rental_uris": {"android": "https://dc.lft.to/lastmile_qr_scan", "ios": "https://dc.lft.to/lastmile_qr_scan"}, "lon": -76.9979465, "name": "155425de31fcadca4fc3f848e6a02b97", "fusion_lon": 0.0, "bike_id": "155425de31fcadca4fc3f848e6a02b97", "is_reserved": 0, "type": "electric_bike", "lat": 38.881225, "fusion_lat": 0.0, "is_disabled": 0}, {"rental_uris": {"android": "https://dc.lft.to/lastmile_qr_scan", "ios": "https://dc.lft.to/lastmile_qr_scan"}, "lon": -77.0161845, "name": "4416950e9e83c9c5534140e7820cba3d", "fusion_lon": 0.0, "bike_id": "4416950e9e83c9c5534140e7820cba3d", "is_reserved": 0, "type": "electric_scooter", "lat": 38.901298833333335, "fusion_lat": 0.0, "is_disabled": 0}, {"rental_uris": {"android": "https://dc.lft.to/lastmile_qr_scan", "ios": "https://dc.lft.to/lastmile_qr_scan"}, "lon": -77.01845066666667, "name": "85fecdc077079469fdb9deac5efc50a8", "fusion_lon": 0.0, "bike_id": "85fecdc077079469fdb9deac5efc50a8", "is_reserved": 0, "type": "electric_scooter", "lat": 38.90375, "fusion_lat": 0.0, "is_disabled": 0}, {"rental_uris": {"android": "https://dc.lft.to/lastmile_qr_scan", "ios": "https://dc.lft.to/lastmile_qr_scan"}, "lon": -77.00334916666667, "name": "94d878c4f4ad99d69f6a47d17b8ec056", "fusion_lon": 0.0, "bike_id": "94d878c4f4ad99d69f6a47d17b8ec056", "is_reserved": 0, "type": "electric_scooter", "lat": 38.893635333333336, "fusion_lat": 0.0, "is_disabled": 0}, {"rental_uris": {"android": "https://dc.lft.to/lastmile_qr_scan", "ios": "https://dc.lft.to/lastmile_qr_scan"}, "lon": -77.06967116666667, "name": "340c0aa9d5a49b55a502d7adc08da765", "fusion_lon": 0.0, "bike_id": "340c0aa9d5a49b55a502d7adc08da765", "is_reserved": 0, "type": "electric_scooter", "lat": 38.9506815, "fusion_lat": 0.0, "is_disabled": 0}, {"rental_uris": {"android": "https://dc.lft.to/lastmile_qr_scan", "ios": "https://dc.lft.to/lastmile_qr_scan"}, "lon": -77.033511, "name": "00c2aac456e13b74487c2d3d9271a8c9", "fusion_lon": 0.0, "bike_id": "00c2aac456e13b74487c2d3d9271a8c9", "is_reserved": 0, "type": "electric_scooter", "lat": 38.8862785, "fusion_lat": 0.0, "is_disabled": 0}, {"rental_uris": {"android": "https://dc.lft.to/lastmile_qr_scan", "ios": "https://dc.lft.to/lastmile_qr_scan"}, "lon": -77.01235416666667, "name": "749eee7e5e0b0e65b4e3f5d3e990fc43", "fusion_lon": 0.0, "bike_id": "749eee7e5e0b0e65b4e3f5d3e990fc43", "is_reserved": 0, "type": "electric_scooter", "lat": 38.86717516666667, "fusion_lat": 0.0, "is_disabled": 0}, {"rental_uris": {"android": "https://dc.lft.to/lastmile_qr_scan", "ios": "https://dc.lft.to/lastmile_qr_scan"}, "lon": -77.03979716666667, "name": "53ec6a5d0c91af7bb72cb04d344a39d3", "fusion_lon": 0.0, "bike_id": "53ec6a5d0c91af7bb72cb04d344a39d3", "is_reserved": 0, "type": "electric_scooter", "lat": 38.9054505, "fusion_lat": 0.0, "is_disabled": 0}, {"rental_uris": {"android": "https://dc.lft.to/lastmile_qr_scan", "ios": "https://dc.lft.to/lastmile_qr_scan"}, "lon": -77.0375525, "name": "50e01dd3bdc4cd2355815623b5485b25", "fusion_lon": 0.0, "bike_id": "50e01dd3bdc4cd2355815623b5485b25", "is_reserved": 0, "type": "electric_scooter", "lat": 38.90779216666667, "fusion_lat": 0.0, "is_disabled": 0}, {"rental_uris": {"android": "https://dc.lft.to/lastmile_qr_scan", "ios": "https://dc.lft.to/lastmile_qr_scan"}, "lon": -77.02596916666667, "name": "466af269d0d9b963e35e38107c10f980", "fusion_lon": 0.0, "bike_id": "466af269d0d9b963e35e38107c10f980", "is_reserved": 0, "type": "electric_scooter", "lat": 38.916926833333335, "fusion_lat": 0.0, "is_disabled": 0}, {"rental_uris": {"android": "https://dc.lft.to/lastmile_qr_scan", "ios": "https://dc.lft.to/lastmile_qr_scan"}, "lon": -76.98542816666667, "name": "df7fcedca683bbfa247f99534c393455", "fusion_lon": 0.0, "bike_id": "df7fcedca683bbfa247f99534c393455", "is_reserved": 0, "type": "electric_scooter", "lat": 38.912922, "fusion_lat": 0.0, "is_disabled": 0}, {"rental_uris": {"android": "https://dc.lft.to/lastmile_qr_scan", "ios": "https://dc.lft.to/lastmile_qr_scan"}, "lon": -77.0227255, "name": "e95e5fc29e291bf93cae4ae3c7facf90", "fusion_lon": 0.0, "bike_id": "e95e5fc29e291bf93cae4ae3c7facf90", "is_reserved": 0, "type": "electric_scooter", "lat": 38.92462166666667, "fusion_lat": 0.0, "is_disabled": 0}, {"rental_uris": {"android": "https://dc.lft.to/lastmile_qr_scan", "ios": "https://dc.lft.to/lastmile_qr_scan"}, "lon": -77.00906983333333, "name": "5ab32eb8a15e78cb9208954115e85113", "fusion_lon": 0.0, "bike_id": "5ab32eb8a15e78cb9208954115e85113", "is_reserved": 0, "type": "electric_scooter", "lat": 38.97004733333333, "fusion_lat": 0.0, "is_disabled": 0}, {"rental_uris": {"android": "https://dc.lft.to/lastmile_qr_scan", "ios": "https://dc.lft.to/lastmile_qr_scan"}, "lon": -77.016483, "name": "2a6d1fbcb037618f682646c6231c0ef8", "fusion_lon": 0.0, "bike_id": "2a6d1fbcb037618f682646c6231c0ef8", "is_reserved": 0, "type": "electric_scooter", "lat": 38.8813485, "fusion_lat": 0.0, "is_disabled": 0}, {"rental_uris": {"android": "https://dc.lft.to/lastmile_qr_scan", "ios": "https://dc.lft.to/lastmile_qr_scan"}, "lon": -77.036469, "name": "337d5cfd650c9e6aee7220d5c45c0091", "fusion_lon": 0.0, "bike_id": "337d5cfd650c9e6aee7220d5c45c0091", "is_reserved": 0, "type": "electric_scooter", "lat": 38.903582166666666, "fusion_lat": 0.0, "is_disabled": 0}, {"rental_uris": {"android": "https://dc.lft.to/lastmile_qr_scan", "ios": "https://dc.lft.to/lastmile_qr_scan"}, "lon": -77.03638483333333, "name": "55874d835ba189e1dca5093b74ecad2a", "fusion_lon": 0.0, "bike_id": "55874d835ba189e1dca5093b74ecad2a", "is_reserved": 0, "type": "electric_scooter", "lat": 38.905536166666664, "fusion_lat": 0.0, "is_disabled": 0}, {"rental_uris": {"android": "https://dc.lft.to/lastmile_qr_scan", "ios": "https://dc.lft.to/lastmile_qr_scan"}, "lon": -77.020619, "name": "84ec5a1e1c6c335d9790a1a18eee94ed", "fusion_lon": 0.0, "bike_id": "84ec5a1e1c6c335d9790a1a18eee94ed", "is_reserved": 0, "type": "electric_scooter", "lat": 38.95743516666667, "fusion_lat": 0.0, "is_disabled": 0}, {"rental_uris": {"android": "https://dc.lft.to/lastmile_qr_scan", "ios": "https://dc.lft.to/lastmile_qr_scan"}, "lon": -77.02375133333334, "name": "b3a57d63aac3b21acc741269b61ec69b", "fusion_lon": 0.0, "bike_id": "b3a57d63aac3b21acc741269b61ec69b", "is_reserved": 0, "type": "electric_scooter", "lat": 38.9019635, "fusion_lat": 0.0, "is_disabled": 0}, {"rental_uris": {"android": "https://dc.lft.to/lastmile_qr_scan", "ios": "https://dc.lft.to/lastmile_qr_scan"}, "lon": -76.98459633333333, "name": "d71b4850eb7d6eab841c82f6cced328b", "fusion_lon": 0.0, "bike_id": "d71b4850eb7d6eab841c82f6cced328b", "is_reserved": 0, "type": "electric_scooter", "lat": 38.893642, "fusion_lat": 0.0, "is_disabled": 0}, {"rental_uris": {"android": "https://dc.lft.to/lastmile_qr_scan", "ios": "https://dc.lft.to/lastmile_qr_scan"}, "lon": -76.92970616666666, "name": "1d9046d45e9e8f48cd0db34306288bc7", "fusion_lon": 0.0, "bike_id": "1d9046d45e9e8f48cd0db34306288bc7", "is_reserved": 0, "type": "electric_scooter", "lat": 38.89615383333334, "fusion_lat": 0.0, "is_disabled": 0}, {"rental_uris": {"android": "https://dc.lft.to/lastmile_qr_scan", "ios": "https://dc.lft.to/lastmile_qr_scan"}, "lon": -77.04044033333334, "name": "fbd84234cc6f495e4b96751fb015cd35", "fusion_lon": 0.0, "bike_id": "fbd84234cc6f495e4b96751fb015cd35", "is_reserved": 0, "type": "electric_scooter", "lat": 38.899026, "fusion_lat": 0.0, "is_disabled": 0}, {"rental_uris": {"android": "https://dc.lft.to/lastmile_qr_scan", "ios": "https://dc.lft.to/lastmile_qr_scan"}, "lon": -77.04086766666667, "name": "6c8a7d5a2bef3fd04087405e8393402e", "fusion_lon": 0.0, "bike_id": "6c8a7d5a2bef3fd04087405e8393402e", "is_reserved": 0, "type": "electric_scooter", "lat": 38.91486866666666, "fusion_lat": 0.0, "is_disabled": 0}, {"rental_uris": {"android": "https://dc.lft.to/lastmile_qr_scan", "ios": "https://dc.lft.to/lastmile_qr_scan"}, "lon": -77.03718483333333, "name": "1c5d91429307f2b98eaa3319ca7c6dd3", "fusion_lon": 0.0, "bike_id": "1c5d91429307f2b98eaa3319ca7c6dd3", "is_reserved": 0, "type": "electric_scooter", "lat": 38.880724666666666, "fusion_lat": 0.0, "is_disabled": 0}, {"rental_uris": {"android": "https://dc.lft.to/lastmile_qr_scan", "ios": "https://dc.lft.to/lastmile_qr_scan"}, "lon": -76.9882135, "name": "dcab8f25b7dccc988eb2de451d21eb78", "fusion_lon": 0.0, "bike_id": "dcab8f25b7dccc988eb2de451d21eb78", "is_reserved": 0, "type": "electric_scooter", "lat": 38.9003375, "fusion_lat": 0.0, "is_disabled": 0}, {"rental_uris": {"android": "https://dc.lft.to/lastmile_qr_scan", "ios": "https://dc.lft.to/lastmile_qr_scan"}, "lon": -77.03551916666666, "name": "2a912576749817d00136a81f6f00b8f7", "fusion_lon": 0.0, "bike_id": "2a912576749817d00136a81f6f00b8f7", "is_reserved": 0, "type": "electric_scooter", "lat": 38.92722233333333, "fusion_lat": 0.0, "is_disabled": 0}, {"rental_uris": {"android": "https://dc.lft.to/lastmile_qr_scan", "ios": "https://dc.lft.to/lastmile_qr_scan"}, "lon": -76.996327, "name": "1dffc4b5d8deaa6031f547cb22a77b01", "fusion_lon": 0.0, "bike_id": "1dffc4b5d8deaa6031f547cb22a77b01", "is_reserved": 0, "type": "electric_scooter", "lat": 38.881300833333334, "fusion_lat": 0.0, "is_disabled": 0}, {"rental_uris": {"android": "https://dc.lft.to/lastmile_qr_scan", "ios": "https://dc.lft.to/lastmile_qr_scan"}, "lon": -76.984082, "name": "9cf6dbb4585be0a74a206818479593c1", "fusion_lon": 0.0, "bike_id": "9cf6dbb4585be0a74a206818479593c1", "is_reserved": 0, "type": "electric_scooter", "lat": 38.879999166666664, "fusion_lat": 0.0, "is_disabled": 0}, {"rental_uris": {"android": "https://dc.lft.to/lastmile_qr_scan", "ios": "https://dc.lft.to/lastmile_qr_scan"}, "lon": -76.978316, "name": "2f69eb881bb4f9d2cc8efc7de7f68c9d", "fusion_lon": 0.0, "bike_id": "2f69eb881bb4f9d2cc8efc7de7f68c9d", "is_reserved": 0, "type": "electric_scooter", "lat": 38.899135666666666, "fusion_lat": 0.0, "is_disabled": 0}, {"rental_uris": {"android": "https://dc.lft.to/lastmile_qr_scan", "ios": "https://dc.lft.to/lastmile_qr_scan"}, "lon": -77.02616283333333, "name": "e8c89669dcbabafb0c3c3d7a23d330bb", "fusion_lon": 0.0, "bike_id": "e8c89669dcbabafb0c3c3d7a23d330bb", "is_reserved": 0, "type": "electric_scooter", "lat": 38.948238333333336, "fusion_lat": 0.0, "is_disabled": 0}, {"rental_uris": {"android": "https://dc.lft.to/lastmile_qr_scan", "ios": "https://dc.lft.to/lastmile_qr_scan"}, "lon": -77.01069316666667, "name": "b1a149cdd7243ac859c48f7e7fa1a1f6", "fusion_lon": 0.0, "bike_id": "b1a149cdd7243ac859c48f7e7fa1a1f6", "is_reserved": 0, "type": "electric_scooter", "lat": 38.917069166666664, "fusion_lat": 0.0, "is_disabled": 0}, {"rental_uris": {"android": "https://dc.lft.to/lastmile_qr_scan", "ios": "https://dc.lft.to/lastmile_qr_scan"}, "lon": -77.01164566666667, "name": "4e28f80528fee9f28223aebe6fda70c0", "fusion_lon": 0.0, "bike_id": "4e28f80528fee9f28223aebe6fda70c0", "is_reserved": 0, "type": "electric_scooter", "lat": 38.893481333333334, "fusion_lat": 0.0, "is_disabled": 0}, {"rental_uris": {"android": "https://dc.lft.to/lastmile_qr_scan", "ios": "https://dc.lft.to/lastmile_qr_scan"}, "lon": -77.00190483333333, "name": "6948ffa6720629aad5fdc91ba1a5b421", "fusion_lon": 0.0, "bike_id": "6948ffa6720629aad5fdc91ba1a5b421", "is_reserved": 0, "type": "electric_scooter", "lat": 38.883154166666664, "fusion_lat": 0.0, "is_disabled": 0}, {"rental_uris": {"android": "https://dc.lft.to/lastmile_qr_scan", "ios": "https://dc.lft.to/lastmile_qr_scan"}, "lon": -77.02857516666667, "name": "8c74a09a1f2c915cdf0ecfe369ef8ab6", "fusion_lon": 0.0, "bike_id": "8c74a09a1f2c915cdf0ecfe369ef8ab6", "is_reserved": 0, "type": "electric_scooter", "lat": 38.9014155, "fusion_lat": 0.0, "is_disabled": 0}, {"rental_uris": {"android": "https://dc.lft.to/lastmile_qr_scan", "ios": "https://dc.lft.to/lastmile_qr_scan"}, "lon": -77.046089, "name": "b2bba7ebe38f1f04075a2fc2284df080", "fusion_lon": 0.0, "bike_id": "b2bba7ebe38f1f04075a2fc2284df080", "is_reserved": 0, "type": "electric_scooter", "lat": 38.898269166666665, "fusion_lat": 0.0, "is_disabled": 0}, {"rental_uris": {"android": "https://dc.lft.to/lastmile_qr_scan", "ios": "https://dc.lft.to/lastmile_qr_scan"}, "lon": -77.032781, "name": "c9c445b1776dc4c9db88fb9351e7d78a", "fusion_lon": 0.0, "bike_id": "c9c445b1776dc4c9db88fb9351e7d78a", "is_reserved": 0, "type": "electric_scooter", "lat": 38.93967133333334, "fusion_lat": 0.0, "is_disabled": 0}, {"rental_uris": {"android": "https://dc.lft.to/lastmile_qr_scan", "ios": "https://dc.lft.to/lastmile_qr_scan"}, "lon": -77.03723733333334, "name": "a32dc131884b4ca0dee47eee1eaf172d", "fusion_lon": 0.0, "bike_id": "a32dc131884b4ca0dee47eee1eaf172d", "is_reserved": 0, "type": "electric_scooter", "lat": 38.917132, "fusion_lat": 0.0, "is_disabled": 0}, {"rental_uris": {"android": "https://dc.lft.to/lastmile_qr_scan", "ios": "https://dc.lft.to/lastmile_qr_scan"}, "lon": -77.0239, "name": "c4d026b7b791278f9607b25218eaa6f3", "fusion_lon": 0.0, "bike_id": "c4d026b7b791278f9607b25218eaa6f3", "is_reserved": 0, "type": "electric_scooter", "lat": 38.9207445, "fusion_lat": 0.0, "is_disabled": 0}, {"rental_uris": {"android": "https://dc.lft.to/lastmile_qr_scan", "ios": "https://dc.lft.to/lastmile_qr_scan"}, "lon": -77.03177016666666, "name": "1e7eca6e33623a01c6ab33bbec43db82", "fusion_lon": 0.0, "bike_id": "1e7eca6e33623a01c6ab33bbec43db82", "is_reserved": 0, "type": "electric_scooter", "lat": 38.9191615, "fusion_lat": 0.0, "is_disabled": 0}, {"rental_uris": {"android": "https://dc.lft.to/lastmile_qr_scan", "ios": "https://dc.lft.to/lastmile_qr_scan"}, "lon": -76.94695466666667, "name": "638c75afe649b1071fbdaf090ed63c2c", "fusion_lon": 0.0, "bike_id": "638c75afe649b1071fbdaf090ed63c2c", "is_reserved": 0, "type": "electric_scooter", "lat": 38.89729116666667, "fusion_lat": 0.0, "is_disabled": 0}, {"rental_uris": {"android": "https://dc.lft.to/lastmile_qr_scan", "ios": "https://dc.lft.to/lastmile_qr_scan"}, "lon": -76.94732366666666, "name": "18c62af119ce5eca51fa967a2507cc53", "fusion_lon": 0.0, "bike_id": "18c62af119ce5eca51fa967a2507cc53", "is_reserved": 0, "type": "electric_scooter", "lat": 38.896578, "fusion_lat": 0.0, "is_disabled": 0}, {"rental_uris": {"android": "https://dc.lft.to/lastmile_qr_scan", "ios": "https://dc.lft.to/lastmile_qr_scan"}, "lon": -77.04442516666667, "name": "2a10efca16a59590a474de3461965811", "fusion_lon": 0.0, "bike_id": "2a10efca16a59590a474de3461965811", "is_reserved": 0, "type": "electric_scooter", "lat": 38.901361333333334, "fusion_lat": 0.0, "is_disabled": 0}, {"rental_uris": {"android": "https://dc.lft.to/lastmile_qr_scan", "ios": "https://dc.lft.to/lastmile_qr_scan"}, "lon": -77.033465, "name": "8dccc5f65fc5927e71b140e08f325ff1", "fusion_lon": 0.0, "bike_id": "8dccc5f65fc5927e71b140e08f325ff1", "is_reserved": 0, "type": "electric_scooter", "lat": 38.8980235, "fusion_lat": 0.0, "is_disabled": 0}, {"rental_uris": {"android": "https://dc.lft.to/lastmile_qr_scan", "ios": "https://dc.lft.to/lastmile_qr_scan"}, "lon": -76.930418, "name": "32e3b42a7155269f87e1d029426d4bc9", "fusion_lon": 0.0, "bike_id": "32e3b42a7155269f87e1d029426d4bc9", "is_reserved": 0, "type": "electric_scooter", "lat": 38.88399583333333, "fusion_lat": 0.0, "is_disabled": 0}, {"rental_uris": {"android": "https://dc.lft.to/lastmile_qr_scan", "ios": "https://dc.lft.to/lastmile_qr_scan"}, "lon": -77.034044, "name": "5a41dde2a525be11e9be8893a8fe6781", "fusion_lon": 0.0, "bike_id": "5a41dde2a525be11e9be8893a8fe6781", "is_reserved": 0, "type": "electric_scooter", "lat": 38.925437, "fusion_lat": 0.0, "is_disabled": 0}, {"rental_uris": {"android": "https://dc.lft.to/lastmile_qr_scan", "ios": "https://dc.lft.to/lastmile_qr_scan"}, "lon": -77.19131016666667, "name": "5404dcee42c36e1d8fc911bd4add5a6e", "fusion_lon": 0.0, "bike_id": "5404dcee42c36e1d8fc911bd4add5a6e", "is_reserved": 0, "type": "electric_bike", "lat": 38.894561333333336, "fusion_lat": 0.0, "is_disabled": 0}, {"rental_uris": {"android": "https://dc.lft.to/lastmile_qr_scan", "ios": "https://dc.lft.to/lastmile_qr_scan"}, "lon": -77.03257816666667, "name": "6fd09a78f69a0e64d0c4089b97eadf09", "fusion_lon": 0.0, "bike_id": "6fd09a78f69a0e64d0c4089b97eadf09", "is_reserved": 0, "type": "electric_scooter", "lat": 38.921627, "fusion_lat": 0.0, "is_disabled": 0}, {"rental_uris": {"android": "https://dc.lft.to/lastmile_qr_scan", "ios": "https://dc.lft.to/lastmile_qr_scan"}, "lon": -77.032011, "name": "87669e34076ca686f1a1b3c79c84620c", "fusion_lon": 0.0, "bike_id": "87669e34076ca686f1a1b3c79c84620c", "is_reserved": 0, "type": "electric_scooter", "lat": 38.91341633333333, "fusion_lat": 0.0, "is_disabled": 0}, {"rental_uris": {"android": "https://dc.lft.to/lastmile_qr_scan", "ios": "https://dc.lft.to/lastmile_qr_scan"}, "lon": -77.03200283333334, "name": "fa96713314b1a9570c9c62672fb99a3e", "fusion_lon": 0.0, "bike_id": "fa96713314b1a9570c9c62672fb99a3e", "is_reserved": 0, "type": "electric_scooter", "lat": 38.932585333333336, "fusion_lat": 0.0, "is_disabled": 0}, {"rental_uris": {"android": "https://dc.lft.to/lastmile_qr_scan", "ios": "https://dc.lft.to/lastmile_qr_scan"}, "lon": -77.05155933333333, "name": "d09ff992ec37caedbd31d8ec3e4ccec1", "fusion_lon": 0.0, "bike_id": "d09ff992ec37caedbd31d8ec3e4ccec1", "is_reserved": 0, "type": "electric_scooter", "lat": 38.896512333333334, "fusion_lat": 0.0, "is_disabled": 0}, {"rental_uris": {"android": "https://dc.lft.to/lastmile_qr_scan", "ios": "https://dc.lft.to/lastmile_qr_scan"}, "lon": -77.07243216666667, "name": "f04bc6e54f50f8e58872c1921f1fbc72", "fusion_lon": 0.0, "bike_id": "f04bc6e54f50f8e58872c1921f1fbc72", "is_reserved": 0, "type": "electric_scooter", "lat": 38.93952216666667, "fusion_lat": 0.0, "is_disabled": 0}, {"rental_uris": {"android": "https://dc.lft.to/lastmile_qr_scan", "ios": "https://dc.lft.to/lastmile_qr_scan"}, "lon": -76.97995533333334, "name": "bdfb7acb8e649d9beaea42056ab2bc7e", "fusion_lon": 0.0, "bike_id": "bdfb7acb8e649d9beaea42056ab2bc7e", "is_reserved": 0, "type": "electric_scooter", "lat": 38.90100183333333, "fusion_lat": 0.0, "is_disabled": 0}, {"rental_uris": {"android": "https://dc.lft.to/lastmile_qr_scan", "ios": "https://dc.lft.to/lastmile_qr_scan"}, "lon": -77.02330133333334, "name": "c5ae2d99beda1450d8c6e10e8c4dce34", "fusion_lon": 0.0, "bike_id": "c5ae2d99beda1450d8c6e10e8c4dce34", "is_reserved": 0, "type": "electric_scooter", "lat": 38.922313333333335, "fusion_lat": 0.0, "is_disabled": 0}, {"rental_uris": {"android": "https://dc.lft.to/lastmile_qr_scan", "ios": "https://dc.lft.to/lastmile_qr_scan"}, "lon": -77.0375495, "name": "bd77cc98c58bea4546ad167da9078eec", "fusion_lon": 0.0, "bike_id": "bd77cc98c58bea4546ad167da9078eec", "is_reserved": 0, "type": "electric_scooter", "lat": 38.907817, "fusion_lat": 0.0, "is_disabled": 0}, {"rental_uris": {"android": "https://dc.lft.to/lastmile_qr_scan", "ios": "https://dc.lft.to/lastmile_qr_scan"}, "lon": -77.01907266666667, "name": "c6714484c5ee930c55dca7febe3ae146", "fusion_lon": 0.0, "bike_id": "c6714484c5ee930c55dca7febe3ae146", "is_reserved": 0, "type": "electric_scooter", "lat": 38.9141805, "fusion_lat": 0.0, "is_disabled": 0}, {"rental_uris": {"android": "https://dc.lft.to/lastmile_qr_scan", "ios": "https://dc.lft.to/lastmile_qr_scan"}, "lon": -76.937362, "name": "d1ecd9f621ea7beb6a75f09e6e766e6a", "fusion_lon": 0.0, "bike_id": "d1ecd9f621ea7beb6a75f09e6e766e6a", "is_reserved": 0, "type": "electric_scooter", "lat": 38.8901895, "fusion_lat": 0.0, "is_disabled": 0}, {"rental_uris": {"android": "https://dc.lft.to/lastmile_qr_scan", "ios": "https://dc.lft.to/lastmile_qr_scan"}, "lon": -77.07346583333333, "name": "3a344168078d19b0568e7ff29d419089", "fusion_lon": 0.0, "bike_id": "3a344168078d19b0568e7ff29d419089", "is_reserved": 0, "type": "electric_scooter", "lat": 38.91105233333333, "fusion_lat": 0.0, "is_disabled": 0}, {"rental_uris": {"android": "https://dc.lft.to/lastmile_qr_scan", "ios": "https://dc.lft.to/lastmile_qr_scan"}, "lon": -77.00607816666667, "name": "20bc3fc1fe7bcfd0c5195a5f7cf76f82", "fusion_lon": 0.0, "bike_id": "20bc3fc1fe7bcfd0c5195a5f7cf76f82", "is_reserved": 0, "type": "electric_scooter", "lat": 38.871801833333336, "fusion_lat": 0.0, "is_disabled": 0}, {"rental_uris": {"android": "https://dc.lft.to/lastmile_qr_scan", "ios": "https://dc.lft.to/lastmile_qr_scan"}, "lon": -77.03191983333333, "name": "e46d451e0318a7a06771e2238f83d721", "fusion_lon": 0.0, "bike_id": "e46d451e0318a7a06771e2238f83d721", "is_reserved": 0, "type": "electric_scooter", "lat": 38.911272833333335, "fusion_lat": 0.0, "is_disabled": 0}, {"rental_uris": {"android": "https://dc.lft.to/lastmile_qr_scan", "ios": "https://dc.lft.to/lastmile_qr_scan"}, "lon": -77.01218533333333, "name": "d6a954d934edf8769c903e411a010678", "fusion_lon": 0.0, "bike_id": "d6a954d934edf8769c903e411a010678", "is_reserved": 0, "type": "electric_scooter", "lat": 38.900281666666665, "fusion_lat": 0.0, "is_disabled": 0}, {"rental_uris": {"android": "https://dc.lft.to/lastmile_qr_scan", "ios": "https://dc.lft.to/lastmile_qr_scan"}, "lon": -77.04616033333333, "name": "0c1184a1ea8a7b6acc4d66e997d3d00f", "fusion_lon": 0.0, "bike_id": "0c1184a1ea8a7b6acc4d66e997d3d00f", "is_reserved": 0, "type": "electric_scooter", "lat": 38.89798566666666, "fusion_lat": 0.0, "is_disabled": 0}, {"rental_uris": {"android": "https://dc.lft.to/lastmile_qr_scan", "ios": "https://dc.lft.to/lastmile_qr_scan"}, "lon": -77.04129283333333, "name": "0f47c37bcae66d81b2d8f798d3283368", "fusion_lon": 0.0, "bike_id": "0f47c37bcae66d81b2d8f798d3283368", "is_reserved": 0, "type": "electric_scooter", "lat": 38.934666666666665, "fusion_lat": 0.0, "is_disabled": 0}, {"rental_uris": {"android": "https://dc.lft.to/lastmile_qr_scan", "ios": "https://dc.lft.to/lastmile_qr_scan"}, "lon": -77.04330266666666, "name": "cfc66eebc97bcc73d2d16f499cca4ca8", "fusion_lon": 0.0, "bike_id": "cfc66eebc97bcc73d2d16f499cca4ca8", "is_reserved": 0, "type": "electric_scooter", "lat": 38.902984833333335, "fusion_lat": 0.0, "is_disabled": 0}, {"rental_uris": {"android": "https://dc.lft.to/lastmile_qr_scan", "ios": "https://dc.lft.to/lastmile_qr_scan"}, "lon": -77.00573733333333, "name": "a22f3f74c3fb840976bf2978336f746c", "fusion_lon": 0.0, "bike_id": "a22f3f74c3fb840976bf2978336f746c", "is_reserved": 0, "type": "electric_scooter", "lat": 38.875818333333335, "fusion_lat": 0.0, "is_disabled": 0}, {"rental_uris": {"android": "https://dc.lft.to/lastmile_qr_scan", "ios": "https://dc.lft.to/lastmile_qr_scan"}, "lon": -77.02845116666667, "name": "01da014b7d78b036675ac5bc40854d42", "fusion_lon": 0.0, "bike_id": "01da014b7d78b036675ac5bc40854d42", "is_reserved": 0, "type": "electric_scooter", "lat": 38.935257, "fusion_lat": 0.0, "is_disabled": 0}, {"rental_uris": {"android": "https://dc.lft.to/lastmile_qr_scan", "ios": "https://dc.lft.to/lastmile_qr_scan"}, "lon": -77.03912266666667, "name": "3aa36996444399d3b82a1e7f4df41d3b", "fusion_lon": 0.0, "bike_id": "3aa36996444399d3b82a1e7f4df41d3b", "is_reserved": 0, "type": "electric_bike", "lat": 39.03561966666667, "fusion_lat": 0.0, "is_disabled": 0}, {"rental_uris": {"android": "https://dc.lft.to/lastmile_qr_scan", "ios": "https://dc.lft.to/lastmile_qr_scan"}, "lon": -77.01896583333334, "name": "5472bae42e183c4b4c9d670f00f9aa01", "fusion_lon": 0.0, "bike_id": "5472bae42e183c4b4c9d670f00f9aa01", "is_reserved": 0, "type": "electric_scooter", "lat": 38.92120966666667, "fusion_lat": 0.0, "is_disabled": 0}, {"rental_uris": {"android": "https://dc.lft.to/lastmile_qr_scan", "ios": "https://dc.lft.to/lastmile_qr_scan"}, "lon": -77.04537533333334, "name": "3371e6c8f869db7ea83b706f715e1dbe", "fusion_lon": 0.0, "bike_id": "3371e6c8f869db7ea83b706f715e1dbe", "is_reserved": 0, "type": "electric_scooter", "lat": 38.907195, "fusion_lat": 0.0, "is_disabled": 0}, {"rental_uris": {"android": "https://dc.lft.to/lastmile_qr_scan", "ios": "https://dc.lft.to/lastmile_qr_scan"}, "lon": -77.02967383333333, "name": "7ca7c8c68df13401c92cb783d417da1a", "fusion_lon": 0.0, "bike_id": "7ca7c8c68df13401c92cb783d417da1a", "is_reserved": 0, "type": "electric_scooter", "lat": 38.916824, "fusion_lat": 0.0, "is_disabled": 0}, {"rental_uris": {"android": "https://dc.lft.to/lastmile_qr_scan", "ios": "https://dc.lft.to/lastmile_qr_scan"}, "lon": -76.98537283333333, "name": "65c1ad817ec91de7a0dd03a378eeca1b", "fusion_lon": 0.0, "bike_id": "65c1ad817ec91de7a0dd03a378eeca1b", "is_reserved": 0, "type": "electric_scooter", "lat": 38.909519833333334, "fusion_lat": 0.0, "is_disabled": 0}, {"rental_uris": {"android": "https://dc.lft.to/lastmile_qr_scan", "ios": "https://dc.lft.to/lastmile_qr_scan"}, "lon": -77.00798833333333, "name": "33f3119a1b1c16dc267964ec3c98e705", "fusion_lon": 0.0, "bike_id": "33f3119a1b1c16dc267964ec3c98e705", "is_reserved": 0, "type": "electric_scooter", "lat": 38.907053833333336, "fusion_lat": 0.0, "is_disabled": 0}, {"rental_uris": {"android": "https://dc.lft.to/lastmile_qr_scan", "ios": "https://dc.lft.to/lastmile_qr_scan"},