{"data": {"bikes": [{"lon": -76.96260133333334, "name": "33bd1ae5afe39a00ec4d8257f0d9e7b1", "is_disabled": 0, "type": "electric_bike", "is_reserved": 0, "fusion_lon": 0.0, "lat": 38.8824395, "rental_uris": {"ios": "https://dc.lft.to/lastmile_qr_scan", "android": "https://dc.lft.to/lastmile_qr_scan"}, "bike_id": "33bd1ae5afe39a00ec4d8257f0d9e7b1", "fusion_lat": 0.0}, {"lon": -76.989338, "name": "630cf25a603f3c0392ec499f31855d49", "is_disabled": 0, "type": "electric_scooter", "is_reserved": 0, "fusion_lon": 0.0, "lat": 38.90005716666667, "rental_uris": {"ios": "https://dc.lft.to/lastmile_qr_scan", "android": "https://dc.lft.to/lastmile_qr_scan"}, "bike_id": "630cf25a603f3c0392ec499f31855d49", "fusion_lat": 0.0}, {"lon": -77.00133133333334, "name": "efdd6e3f4f49c888220c0c0d793f52df", "is_disabled": 0, "type": "electric_bike", "is_reserved": 0, "fusion_lon": 0.0, "lat": 38.994985166666666, "rental_uris": {"ios": "https://dc.lft.to/lastmile_qr_scan", "android": "https://dc.lft.to/lastmile_qr_scan"}, "bike_id": "efdd6e3f4f49c888220c0c0d793f52df", "fusion_lat": 0.0}, {"lon": -77.01830333333334, "name": "b447da686c1d6c62352d0eb10c0362c3", "is_disabled": 0, "type": "electric_scooter", "is_reserved": 0, "fusion_lon": 0.0, "lat": 38.922103666666665, "rental_uris": {"ios": "https://dc.lft.to/lastmile_qr_scan", "android": "https://dc.lft.to/lastmile_qr_scan"}, "bike_id": "b447da686c1d6c62352d0eb10c0362c3", "fusion_lat": 0.0}, {"lon": -77.03348583333333, "name": "84b334151b906726542dcae32f3512fa", "is_disabled": 0, "type": "electric_scooter", "is_reserved": 0, "fusion_lon": 0.0, "lat": 38.91711566666667, "rental_uris": {"ios": "https://dc.lft.to/lastmile_qr_scan", "android": "https://dc.lft.to/lastmile_qr_scan"}, "bike_id": "84b334151b906726542dcae32f3512fa", "fusion_lat": 0.0}, {"lon": -77.046537, "name": "e03be84284d79e75082c18d2a6d94fdc", "is_disabled": 0, "type": "electric_scooter", "is_reserved": 0, "fusion_lon": 0.0, "lat": 38.897435, "rental_uris": {"ios": "https://dc.lft.to/lastmile_qr_scan", "android": "https://dc.lft.to/lastmile_qr_scan"}, "bike_id": "e03be84284d79e75082c18d2a6d94fdc", "fusion_lat": 0.0}, {"lon": -77.00533166666666, "name": "02a31ce7983f42047b1d2fcc1be9d538", "is_disabled": 0, "type": "electric_scooter", "is_reserved": 0, "fusion_lon": 0.0, "lat": 38.875451, "rental_uris": {"ios": "https://dc.lft.to/lastmile_qr_scan", "android": "https://dc.lft.to/lastmile_qr_scan"}, "bike_id": "02a31ce7983f42047b1d2fcc1be9d538", "fusion_lat": 0.0}, {"lon": -77.01560616666667, "name": "4ee0dd968e68c824fd278513707f00eb", "is_disabled": 0, "type": "electric_scooter", "is_reserved": 0, "fusion_lon": 0.0, "lat": 38.879238, "rental_uris": {"ios": "https://dc.lft.to/lastmile_qr_scan", "android": "https://dc.lft.to/lastmile_qr_scan"}, "bike_id": "4ee0dd968e68c824fd278513707f00eb", "fusion_lat": 0.0}, {"lon": -76.98542866666666, "name": "8118a86f009572340283865ba43c82e2", "is_disabled": 0, "type": "electric_scooter", "is_reserved": 0, "fusion_lon": 0.0, "lat": 38.8796955, "rental_uris": {"ios": "https://dc.lft.to/lastmile_qr_scan", "android": "https://dc.lft.to/lastmile_qr_scan"}, "bike_id": "8118a86f009572340283865ba43c82e2", "fusion_lat": 0.0}, {"lon": -77.04126166666667, "name": "bdec38f8c9da446b6d572c6e7ec371ae", "is_disabled": 0, "type": "electric_scooter", "is_reserved": 0, "fusion_lon": 0.0, "lat": 38.921167833333335, "rental_uris": {"ios": "https://dc.lft.to/lastmile_qr_scan", "android": "https://dc.lft.to/lastmile_qr_scan"}, "bike_id": "bdec38f8c9da446b6d572c6e7ec371ae", "fusion_lat": 0.0}, {"lon": -77.0248545, "name": "f229a5ad3ba260fb7ce71f52da13924e", "is_disabled": 0, "type": "electric_scooter", "is_reserved": 0, "fusion_lon": 0.0, "lat": 38.884933333333336, "rental_uris": {"ios": "https://dc.lft.to/lastmile_qr_scan", "android": "https://dc.lft.to/lastmile_qr_scan"}, "bike_id": "f229a5ad3ba260fb7ce71f52da13924e", "fusion_lat": 0.0}, {"lon": -77.015555, "name": "c2aab47c4fa2dbe9ce34be944d1005ab", "is_disabled": 0, "type": "electric_scooter", "is_reserved": 0, "fusion_lon": 0.0, "lat": 38.92799, "rental_uris": {"ios": "https://dc.lft.to/lastmile_qr_scan", "android": "https://dc.lft.to/lastmile_qr_scan"}, "bike_id": "c2aab47c4fa2dbe9ce34be944d1005ab", "fusion_lat": 0.0}, {"lon": -77.01225933333333, "name": "c99445897b7b9040a5d37ab81db5756f", "is_disabled": 0, "type": "electric_scooter", "is_reserved": 0, "fusion_lon": 0.0, "lat": 38.897715, "rental_uris": {"ios": "https://dc.lft.to/lastmile_qr_scan", "android": "https://dc.lft.to/lastmile_qr_scan"}, "bike_id": "c99445897b7b9040a5d37ab81db5756f", "fusion_lat": 0.0}, {"lon": -77.05199566666667, "name": "586ec8982bfdc9f6b87beea433a8c33e", "is_disabled": 0, "type": "electric_scooter", "is_reserved": 0, "fusion_lon": 0.0, "lat": 38.905086, "rental_uris": {"ios": "https://dc.lft.to/lastmile_qr_scan", "android": "https://dc.lft.to/lastmile_qr_scan"}, "bike_id": "586ec8982bfdc9f6b87beea433a8c33e", "fusion_lat": 0.0}, {"lon": -77.01914466666666, "name": "f2c255bafe8dff950e20b08c3e91431d", "is_disabled": 0, "type": "electric_scooter", "is_reserved": 0, "fusion_lon": 0.0, "lat": 38.92940816666667, "rental_uris": {"ios": "https://dc.lft.to/lastmile_qr_scan", "android": "https://dc.lft.to/lastmile_qr_scan"}, "bike_id": "f2c255bafe8dff950e20b08c3e91431d", "fusion_lat": 0.0}, {"lon": -77.04622033333334, "name": "fa306f66191c8ddff865bc40a1afa0c1", "is_disabled": 0, "type": "electric_scooter", "is_reserved": 0, "fusion_lon": 0.0, "lat": 38.9161585, "rental_uris": {"ios": "https://dc.lft.to/lastmile_qr_scan", "android": "https://dc.lft.to/lastmile_qr_scan"}, "bike_id": "fa306f66191c8ddff865bc40a1afa0c1", "fusion_lat": 0.0}, {"lon": -77.02233983333333, "name": "29794e0701a3878cfd005bc22cbe07a7", "is_disabled": 0, "type": "electric_scooter", "is_reserved": 0, "fusion_lon": 0.0, "lat": 38.92353283333333, "rental_uris": {"ios": "https://dc.lft.to/lastmile_qr_scan", "android": "https://dc.lft.to/lastmile_qr_scan"}, "bike_id": "29794e0701a3878cfd005bc22cbe07a7", "fusion_lat": 0.0}, {"lon": -77.05433283333333, "name": "a63b689a27ad29426d27356e98046e92", "is_disabled": 0, "type": "electric_scooter", "is_reserved": 0, "fusion_lon": 0.0, "lat": 38.92336266666667, "rental_uris": {"ios": "https://dc.lft.to/lastmile_qr_scan", "android": "https://dc.lft.to/lastmile_qr_scan"}, "bike_id": "a63b689a27ad29426d27356e98046e92", "fusion_lat": 0.0}, {"lon": -77.02199683333333, "name": "82e794dabe6e6026b4bca7bc9b0a9287", "is_disabled": 0, "type": "electric_scooter", "is_reserved": 0, "fusion_lon": 0.0, "lat": 38.87910333333333, "rental_uris": {"ios": "https://dc.lft.to/lastmile_qr_scan", "android": "https://dc.lft.to/lastmile_qr_scan"}, "bike_id": "82e794dabe6e6026b4bca7bc9b0a9287", "fusion_lat": 0.0}, {"lon": -77.02156483333333, "name": "bd6961775bd65d4d21bdfb8c5bd0dc61", "is_disabled": 0, "type": "electric_scooter", "is_reserved": 0, "fusion_lon": 0.0, "lat": 38.926063166666665, "rental_uris": {"ios": "https://dc.lft.to/lastmile_qr_scan", "android": "https://dc.lft.to/lastmile_qr_scan"}, "bike_id": "bd6961775bd65d4d21bdfb8c5bd0dc61", "fusion_lat": 0.0}, {"lon": -77.02798733333333, "name": "600aa2972f4cb271c6b400c92b932536", "is_disabled": 0, "type": "electric_scooter", "is_reserved": 0, "fusion_lon": 0.0, "lat": 38.898927666666665, "rental_uris": {"ios": "https://dc.lft.to/lastmile_qr_scan", "android": "https://dc.lft.to/lastmile_qr_scan"}, "bike_id": "600aa2972f4cb271c6b400c92b932536", "fusion_lat": 0.0}, {"lon": -77.0383615, "name": "4a0fa3291513e759109d66966e095da0", "is_disabled": 0, "type": "electric_scooter", "is_reserved": 0, "fusion_lon": 0.0, "lat": 38.90282766666667, "rental_uris": {"ios": "https://dc.lft.to/lastmile_qr_scan", "android": "https://dc.lft.to/lastmile_qr_scan"}, "bike_id": "4a0fa3291513e759109d66966e095da0", "fusion_lat": 0.0}, {"lon": -77.05267516666666, "name": "1d93f72d329678835601a82e28591c9b", "is_disabled": 0, "type": "electric_scooter", "is_reserved": 0, "fusion_lon": 0.0, "lat": 38.909653, "rental_uris": {"ios": "https://dc.lft.to/lastmile_qr_scan", "android": "https://dc.lft.to/lastmile_qr_scan"}, "bike_id": "1d93f72d329678835601a82e28591c9b", "fusion_lat": 0.0}, {"lon": -77.02830633333333, "name": "37cb0b75196ea86415ae101b030dcb97", "is_disabled": 0, "type": "electric_scooter", "is_reserved": 0, "fusion_lon": 0.0, "lat": 38.90242683333334, "rental_uris": {"ios": "https://dc.lft.to/lastmile_qr_scan", "android": "https://dc.lft.to/lastmile_qr_scan"}, "bike_id": "37cb0b75196ea86415ae101b030dcb97", "fusion_lat": 0.0}, {"lon": -77.02168883333333, "name": "f30c0a364b8fee8f6085565e9b813d1a", "is_disabled": 0, "type": "electric_scooter", "is_reserved": 0, "fusion_lon": 0.0, "lat": 38.9307215, "rental_uris": {"ios": "https://dc.lft.to/lastmile_qr_scan", "android": "https://dc.lft.to/lastmile_qr_scan"}, "bike_id": "f30c0a364b8fee8f6085565e9b813d1a", "fusion_lat": 0.0}, {"lon": -77.04361366666667, "name": "77768199ce3f43128fb6563720122668", "is_disabled": 0, "type": "electric_scooter", "is_reserved": 0, "fusion_lon": 0.0, "lat": 38.90402916666667, "rental_uris": {"ios": "https://dc.lft.to/lastmile_qr_scan", "android": "https://dc.lft.to/lastmile_qr_scan"}, "bike_id": "77768199ce3f43128fb6563720122668", "fusion_lat": 0.0}, {"lon": -76.9961025, "name": "66e405ad3472f0a67ed409ecc6f0efd9", "is_disabled": 0, "type": "electric_scooter", "is_reserved": 0, "fusion_lon": 0.0, "lat": 38.9014275, "rental_uris": {"ios": "https://dc.lft.to/lastmile_qr_scan", "android": "https://dc.lft.to/lastmile_qr_scan"}, "bike_id": "66e405ad3472f0a67ed409ecc6f0efd9", "fusion_lat": 0.0}, {"lon": -77.03183266666667, "name": "9ec62ed0e18385f3edcba07ee70a5b7a", "is_disabled": 0, "type": "electric_scooter", "is_reserved": 0, "fusion_lon": 0.0, "lat": 38.892368166666664, "rental_uris": {"ios": "https://dc.lft.to/lastmile_qr_scan", "android": "https://dc.lft.to/lastmile_qr_scan"}, "bike_id": "9ec62ed0e18385f3edcba07ee70a5b7a", "fusion_lat": 0.0}, {"lon": -77.02816016666667, "name": "85a96f3c22c90775541a14aac7fbb18b", "is_disabled": 0, "type": "electric_scooter", "is_reserved": 0, "fusion_lon": 0.0, "lat": 38.9223625, "rental_uris": {"ios": "https://dc.lft.to/lastmile_qr_scan", "android": "https://dc.lft.to/lastmile_qr_scan"}, "bike_id": "85a96f3c22c90775541a14aac7fbb18b", "fusion_lat": 0.0}, {"lon": -77.03638233333334, "name": "bb278cef5ee333565a057bfef3fad1fc", "is_disabled": 0, "type": "electric_scooter", "is_reserved": 0, "fusion_lon": 0.0, "lat": 38.927437166666664, "rental_uris": {"ios": "https://dc.lft.to/lastmile_qr_scan", "android": "https://dc.lft.to/lastmile_qr_scan"}, "bike_id": "bb278cef5ee333565a057bfef3fad1fc", "fusion_lat": 0.0}, {"lon": -77.08368866666666, "name": "28228278c918d39cd529d4be4dff6cfc", "is_disabled": 0, "type": "electric_bike", "is_reserved": 0, "fusion_lon": 0.0, "lat": 38.832703333333335, "rental_uris": {"ios": "https://dc.lft.to/lastmile_qr_scan", "android": "https://dc.lft.to/lastmile_qr_scan"}, "bike_id": "28228278c918d39cd529d4be4dff6cfc", "fusion_lat": 0.0}, {"lon": -76.96859183333333, "name": "59e0ee32b45fb3773bd45826f6b0e003", "is_disabled": 0, "type": "electric_bike", "is_reserved": 0, "fusion_lon": 0.0, "lat": 38.951780666666664, "rental_uris": {"ios": "https://dc.lft.to/lastmile_qr_scan", "android": "https://dc.lft.to/lastmile_qr_scan"}, "bike_id": "59e0ee32b45fb3773bd45826f6b0e003", "fusion_lat": 0.0}, {"lon": -77.077254, "name": "4e4e3dc7ed1ae0804522f08c2654fdef", "is_disabled": 0, "type": "electric_scooter", "is_reserved": 0, "fusion_lon": 0.0, "lat": 38.92259516666667, "rental_uris": {"ios": "https://dc.lft.to/lastmile_qr_scan", "android": "https://dc.lft.to/lastmile_qr_scan"}, "bike_id": "4e4e3dc7ed1ae0804522f08c2654fdef", "fusion_lat": 0.0}, {"lon": -76.99903883333333, "name": "6a880a080fdbcea5b98b2188d41d2012", "is_disabled": 0, "type": "electric_scooter", "is_reserved": 0, "fusion_lon": 0.0, "lat": 38.896088666666664, "rental_uris": {"ios": "https://dc.lft.to/lastmile_qr_scan", "android": "https://dc.lft.to/lastmile_qr_scan"}, "bike_id": "6a880a080fdbcea5b98b2188d41d2012", "fusion_lat": 0.0}, {"lon": -77.02204133333333, "name": "25f5ed3eb2f94baa941764e5093c0f74", "is_disabled": 0, "type": "electric_scooter", "is_reserved": 0, "fusion_lon": 0.0, "lat": 38.9246445, "rental_uris": {"ios": "https://dc.lft.to/lastmile_qr_scan", "android": "https://dc.lft.to/lastmile_qr_scan"}, "bike_id": "25f5ed3eb2f94baa941764e5093c0f74", "fusion_lat": 0.0}, {"lon": -77.02901616666666, "name": "4f30f34b412620c4a4014b3e77b5b2b6", "is_disabled": 0, "type": "electric_scooter", "is_reserved": 0, "fusion_lon": 0.0, "lat": 38.92318916666667, "rental_uris": {"ios": "https://dc.lft.to/lastmile_qr_scan", "android": "https://dc.lft.to/lastmile_qr_scan"}, "bike_id": "4f30f34b412620c4a4014b3e77b5b2b6", "fusion_lat": 0.0}, {"lon": -77.027001, "name": "58f0f26492a11f3d7149a369a62e1496", "is_disabled": 0, "type": "electric_scooter", "is_reserved": 0, "fusion_lon": 0.0, "lat": 38.901667833333335, "rental_uris": {"ios": "https://dc.lft.to/lastmile_qr_scan", "android": "https://dc.lft.to/lastmile_qr_scan"}, "bike_id": "58f0f26492a11f3d7149a369a62e1496", "fusion_lat": 0.0}, {"lon": -77.03155433333333, "name": "f28a27b2f9c51c823c486fcfdc824c06", "is_disabled": 0, "type": "electric_scooter", "is_reserved": 0, "fusion_lon": 0.0, "lat": 38.89982916666666, "rental_uris": {"ios": "https://dc.lft.to/lastmile_qr_scan", "android": "https://dc.lft.to/lastmile_qr_scan"}, "bike_id": "f28a27b2f9c51c823c486fcfdc824c06", "fusion_lat": 0.0}, {"lon": -77.032555, "name": "e090b0726ef7962d182e0ef10dd1adf7", "is_disabled": 0, "type": "electric_scooter", "is_reserved": 0, "fusion_lon": 0.0, "lat": 38.927657833333335, "rental_uris": {"ios": "https://dc.lft.to/lastmile_qr_scan", "android": "https://dc.lft.to/lastmile_qr_scan"}, "bike_id": "e090b0726ef7962d182e0ef10dd1adf7", "fusion_lat": 0.0}, {"lon": -77.03315333333333, "name": "540c67493aa8f97c3a4d7693dd6a0659", "is_disabled": 0, "type": "electric_scooter", "is_reserved": 0, "fusion_lon": 0.0, "lat": 38.90970766666667, "rental_uris": {"ios": "https://dc.lft.to/lastmile_qr_scan", "android": "https://dc.lft.to/lastmile_qr_scan"}, "bike_id": "540c67493aa8f97c3a4d7693dd6a0659", "fusion_lat": 0.0}, {"lon": -77.07819866666667, "name": "45588f72e39cc227ab0711e49d0a3992", "is_disabled": 0, "type": "electric_scooter", "is_reserved": 0, "fusion_lon": 0.0, "lat": 38.940857666666666, "rental_uris": {"ios": "https://dc.lft.to/lastmile_qr_scan", "android": "https://dc.lft.to/lastmile_qr_scan"}, "bike_id": "45588f72e39cc227ab0711e49d0a3992", "fusion_lat": 0.0}, {"lon": -77.02046416666667, "name": "1a0374096d65f25c4b9207f0d985dbb7", "is_disabled": 0, "type": "electric_scooter", "is_reserved": 0, "fusion_lon": 0.0, "lat": 38.921098666666666, "rental_uris": {"ios": "https://dc.lft.to/lastmile_qr_scan", "android": "https://dc.lft.to/lastmile_qr_scan"}, "bike_id": "1a0374096d65f25c4b9207f0d985dbb7", "fusion_lat": 0.0}, {"lon": -77.020734, "name": "972473cfd0cfca8822ce00597da22d00", "is_disabled": 0, "type": "electric_scooter", "is_reserved": 0, "fusion_lon": 0.0, "lat": 38.897441, "rental_uris": {"ios": "https://dc.lft.to/lastmile_qr_scan", "android": "https://dc.lft.to/lastmile_qr_scan"}, "bike_id": "972473cfd0cfca8822ce00597da22d00", "fusion_lat": 0.0}, {"lon": -77.03481666666667, "name": "3101e1402ff7dfdf4849911b8542edf1", "is_disabled": 0, "type": "electric_scooter", "is_reserved": 0, "fusion_lon": 0.0, "lat": 38.92349033333333, "rental_uris": {"ios": "https://dc.lft.to/lastmile_qr_scan", "android": "https://dc.lft.to/lastmile_qr_scan"}, "bike_id": "3101e1402ff7dfdf4849911b8542edf1", "fusion_lat": 0.0}, {"lon": -77.00220133333333, "name": "2f9bc1c1b0d770cb0b30e73175fc609a", "is_disabled": 0, "type": "electric_scooter", "is_reserved": 0, "fusion_lon": 0.0, "lat": 38.957382833333334, "rental_uris": {"ios": "https://dc.lft.to/lastmile_qr_scan", "android": "https://dc.lft.to/lastmile_qr_scan"}, "bike_id": "2f9bc1c1b0d770cb0b30e73175fc609a", "fusion_lat": 0.0}, {"lon": -77.01229283333333, "name": "dff78095489d08719b7a38522556a7f0", "is_disabled": 0, "type": "electric_scooter", "is_reserved": 0, "fusion_lon": 0.0, "lat": 38.925108, "rental_uris": {"ios": "https://dc.lft.to/lastmile_qr_scan", "android": "https://dc.lft.to/lastmile_qr_scan"}, "bike_id": "dff78095489d08719b7a38522556a7f0", "fusion_lat": 0.0}, {"lon": -77.05931083333333, "name": "ce1fc1a7f59d2a35606b84999be9170d", "is_disabled": 0, "type": "electric_scooter", "is_reserved": 0, "fusion_lon": 0.0, "lat": 38.94306316666667, "rental_uris": {"ios": "https://dc.lft.to/lastmile_qr_scan", "android": "https://dc.lft.to/lastmile_qr_scan"}, "bike_id": "ce1fc1a7f59d2a35606b84999be9170d", "fusion_lat": 0.0}, {"lon": -77.03286966666667, "name": "df83b7f946f74223261ef7fe2c24e362", "is_disabled": 0, "type": "electric_scooter", "is_reserved": 0, "fusion_lon": 0.0, "lat": 38.9357525, "rental_uris": {"ios": "https://dc.lft.to/lastmile_qr_scan", "android": "https://dc.lft.to/lastmile_qr_scan"}, "bike_id": "df83b7f946f74223261ef7fe2c24e362", "fusion_lat": 0.0}, {"lon": -76.965421, "name": "1c7344db3d1342013848e03cb491034b", "is_disabled": 0, "type": "electric_scooter", "is_reserved": 0, "fusion_lon": 0.0, "lat": 38.87883433333333, "rental_uris": {"ios": "https://dc.lft.to/lastmile_qr_scan", "android": "https://dc.lft.to/lastmile_qr_scan"}, "bike_id": "1c7344db3d1342013848e03cb491034b", "fusion_lat": 0.0}, {"lon": -77.02813966666666, "name": "dc372cfb3046955b749307f700fad7b9", "is_disabled": 0, "type": "electric_scooter", "is_reserved": 0, "fusion_lon": 0.0, "lat": 38.92242983333333, "rental_uris": {"ios": "https://dc.lft.to/lastmile_qr_scan", "android": "https://dc.lft.to/lastmile_qr_scan"}, "bike_id": "dc372cfb3046955b749307f700fad7b9", "fusion_lat": 0.0}, {"lon": -77.005379, "name": "27e989dac9d46075b45eca872d623ef5", "is_disabled": 0, "type": "electric_scooter", "is_reserved": 0, "fusion_lon": 0.0, "lat": 38.87542233333333, "rental_uris": {"ios": "https://dc.lft.to/lastmile_qr_scan", "android": "https://dc.lft.to/lastmile_qr_scan"}, "bike_id": "27e989dac9d46075b45eca872d623ef5", "fusion_lat": 0.0}, {"lon": -77.02495333333333, "name": "0bb10f6de9811e32e0955971ace422ae", "is_disabled": 0, "type": "electric_scooter", "is_reserved": 0, "fusion_lon": 0.0, "lat": 38.880192666666666, "rental_uris": {"ios": "https://dc.lft.to/lastmile_qr_scan", "android": "https://dc.lft.to/lastmile_qr_scan"}, "bike_id": "0bb10f6de9811e32e0955971ace422ae", "fusion_lat": 0.0}, {"lon": -77.04137, "name": "9ef656b134424ac5e7e7ec2bc700ab54", "is_disabled": 0, "type": "electric_scooter", "is_reserved": 0, "fusion_lon": 0.0, "lat": 38.909065, "rental_uris": {"ios": "https://dc.lft.to/lastmile_qr_scan", "android": "https://dc.lft.to/lastmile_qr_scan"}, "bike_id": "9ef656b134424ac5e7e7ec2bc700ab54", "fusion_lat": 0.0}, {"lon": -77.03208466666666, "name": "9a363dff33796df66a146fce1fad652e", "is_disabled": 0, "type": "electric_scooter", "is_reserved": 0, "fusion_lon": 0.0, "lat": 38.916341, "rental_uris": {"ios": "https://dc.lft.to/lastmile_qr_scan", "android": "https://dc.lft.to/lastmile_qr_scan"}, "bike_id": "9a363dff33796df66a146fce1fad652e", "fusion_lat": 0.0}, {"lon": -77.0433785, "name": "e9229d02360128c6d9218b8d08d9d879", "is_disabled": 0, "type": "electric_scooter", "is_reserved": 0, "fusion_lon": 0.0, "lat": 38.90879016666667, "rental_uris": {"ios": "https://dc.lft.to/lastmile_qr_scan", "android": "https://dc.lft.to/lastmile_qr_scan"}, "bike_id": "e9229d02360128c6d9218b8d08d9d879", "fusion_lat": 0.0}, {"lon": -77.054553, "name": "cc0d47ae49711c1f1ebad7ba1b5d1724", "is_disabled": 0, "type": "electric_scooter", "is_reserved": 0, "fusion_lon": 0.0, "lat": 38.914764166666664, "rental_uris": {"ios": "https://dc.lft.to/lastmile_qr_scan", "android": "https://dc.lft.to/lastmile_qr_scan"}, "bike_id": "cc0d47ae49711c1f1ebad7ba1b5d1724", "fusion_lat": 0.0}, {"lon": -77.0363815, "name": "045da4e9d61041220dd827a67989e2cb", "is_disabled": 0, "type": "electric_scooter", "is_reserved": 0, "fusion_lon": 0.0, "lat": 38.903098, "rental_uris": {"ios": "https://dc.lft.to/lastmile_qr_scan", "android": "https://dc.lft.to/lastmile_qr_scan"}, "bike_id": "045da4e9d61041220dd827a67989e2cb", "fusion_lat": 0.0}, {"lon": -77.07248383333334, "name": "ddd5ce64ac1facf0f027743ae35238e6", "is_disabled": 0, "type": "electric_scooter", "is_reserved": 0, "fusion_lon": 0.0, "lat": 38.93945933333333, "rental_uris": {"ios": "https://dc.lft.to/lastmile_qr_scan", "android": "https://dc.lft.to/lastmile_qr_scan"}, "bike_id": "ddd5ce64ac1facf0f027743ae35238e6", "fusion_lat": 0.0}, {"lon": -77.00289616666667, "name": "9c565833ea692e141119b1d52209e008", "is_disabled": 0, "type": "electric_scooter", "is_reserved": 0, "fusion_lon": 0.0, "lat": 38.89356033333333, "rental_uris": {"ios": "https://dc.lft.to/lastmile_qr_scan", "android": "https://dc.lft.to/lastmile_qr_scan"}, "bike_id": "9c565833ea692e141119b1d52209e008", "fusion_lat": 0.0}, {"lon": -76.99166, "name": "28ee9f333f6be6c3ec7ee2217974bdd6", "is_disabled": 0, "type": "electric_scooter", "is_reserved": 0, "fusion_lon": 0.0, "lat": 38.901292166666664, "rental_uris": {"ios": "https://dc.lft.to/lastmile_qr_scan", "android": "https://dc.lft.to/lastmile_qr_scan"}, "bike_id": "28ee9f333f6be6c3ec7ee2217974bdd6", "fusion_lat": 0.0}, {"lon": -77.03659633333334, "name": "fefbcc9b0ef7dba51bed23a97b87bf00", "is_disabled": 0, "type": "electric_scooter", "is_reserved": 0, "fusion_lon": 0.0, "lat": 38.915418333333335, "rental_uris": {"ios": "https://dc.lft.to/lastmile_qr_scan", "android": "https://dc.lft.to/lastmile_qr_scan"}, "bike_id": "fefbcc9b0ef7dba51bed23a97b87bf00", "fusion_lat": 0.0}, {"lon": -77.03576883333334, "name": "b88676055e12130465aef165cb329953", "is_disabled": 0, "type": "electric_scooter", "is_reserved": 0, "fusion_lon": 0.0, "lat": 38.9046335, "rental_uris": {"ios": "https://dc.lft.to/lastmile_qr_scan", "android": "https://dc.lft.to/lastmile_qr_scan"}, "bike_id": "b88676055e12130465aef165cb329953", "fusion_lat": 0.0}, {"lon": -77.04510233333333, "name": "c8f80ff76a3aec95f4524ede7427004b", "is_disabled": 0, "type": "electric_scooter", "is_reserved": 0, "fusion_lon": 0.0, "lat": 38.9077935, "rental_uris": {"ios": "https://dc.lft.to/lastmile_qr_scan", "android": "https://dc.lft.to/lastmile_qr_scan"}, "bike_id": "c8f80ff76a3aec95f4524ede7427004b", "fusion_lat": 0.0}, {"lon": -77.020675, "name": "2e660cfa2dd66221fa6a198324061b91", "is_disabled": 0, "type": "electric_scooter", "is_reserved": 0, "fusion_lon": 0.0, "lat": 38.922844, "rental_uris": {"ios": "https://dc.lft.to/lastmile_qr_scan", "android": "https://dc.lft.to/lastmile_qr_scan"}, "bike_id": "2e660cfa2dd66221fa6a198324061b91", "fusion_lat": 0.0}, {"lon": -77.02211433333333, "name": "2170d6ac438cb8dba0c678afc469b35b", "is_disabled": 0, "type": "electric_scooter", "is_reserved": 0, "fusion_lon": 0.0, "lat": 38.895346, "rental_uris": {"ios": "https://dc.lft.to/lastmile_qr_scan", "android": "https://dc.lft.to/lastmile_qr_scan"}, "bike_id": "2170d6ac438cb8dba0c678afc469b35b", "fusion_lat": 0.0}, {"lon": -77.049985, "name": "4881b6d065d0e09db45acfabee57b31d", "is_disabled": 0, "type": "electric_scooter", "is_reserved": 0, "fusion_lon": 0.0, "lat": 38.89229133333333, "rental_uris": {"ios": "https://dc.lft.to/lastmile_qr_scan", "android": "https://dc.lft.to/lastmile_qr_scan"}, "bike_id": "4881b6d065d0e09db45acfabee57b31d", "fusion_lat": 0.0}, {"lon": -77.020433, "name": "42387b416a8912529491e4b89eade753", "is_disabled": 0, "type": "electric_scooter", "is_reserved": 0, "fusion_lon": 0.0, "lat": 38.898725, "rental_uris": {"ios": "https://dc.lft.to/lastmile_qr_scan", "android": "https://dc.lft.to/lastmile_qr_scan"}, "bike_id": "42387b416a8912529491e4b89eade753", "fusion_lat": 0.0}, {"lon": -76.984519, "name": "ce7c8cd987f95dc96540c05476e6cbd9", "is_disabled": 0, "type": "electric_scooter", "is_reserved": 0, "fusion_lon": 0.0, "lat": 38.892349333333335, "rental_uris": {"ios": "https://dc.lft.to/lastmile_qr_scan", "android": "https://dc.lft.to/lastmile_qr_scan"}, "bike_id": "ce7c8cd987f95dc96540c05476e6cbd9", "fusion_lat": 0.0}, {"lon": -77.046766, "name": "7bb0e42b13333734907f7b774ea6870f", "is_disabled": 0, "type": "electric_scooter", "is_reserved": 0, "fusion_lon": 0.0, "lat": 38.903962166666666, "rental_uris": {"ios": "https://dc.lft.to/lastmile_qr_scan", "android": "https://dc.lft.to/lastmile_qr_scan"}, "bike_id": "7bb0e42b13333734907f7b774ea6870f", "fusion_lat": 0.0}, {"lon": -77.02578483333333, "name": "cc9ad5d8263f71d3a7b414d274ebe057", "is_disabled": 0, "type": "electric_scooter", "is_reserved": 0, "fusion_lon": 0.0, "lat": 38.89584416666667, "rental_uris": {"ios": "https://dc.lft.to/lastmile_qr_scan", "android": "https://dc.lft.to/lastmile_qr_scan"}, "bike_id": "cc9ad5d8263f71d3a7b414d274ebe057", "fusion_lat": 0.0}, {"lon": -77.00298266666667, "name": "1d77a7f6aa22990812b17cd0e7d43406", "is_disabled": 0, "type": "electric_scooter", "is_reserved": 0, "fusion_lon": 0.0, "lat": 38.876688333333334, "rental_uris": {"ios": "https://dc.lft.to/lastmile_qr_scan", "android": "https://dc.lft.to/lastmile_qr_scan"}, "bike_id": "1d77a7f6aa22990812b17cd0e7d43406", "fusion_lat": 0.0}, {"lon": -76.99817616666667, "name": "910b538e04702d8055cc6256c15d4238", "is_disabled": 0, "type": "electric_scooter", "is_reserved": 0, "fusion_lon": 0.0, "lat": 38.90609033333333, "rental_uris": {"ios": "https://dc.lft.to/lastmile_qr_scan", "android": "https://dc.lft.to/lastmile_qr_scan"}, "bike_id": "910b538e04702d8055cc6256c15d4238", "fusion_lat": 0.0}, {"lon": -77.04358033333334, "name": "7605240786061f4b9783145f4e418180", "is_disabled": 0, "type": "electric_scooter", "is_reserved": 0, "fusion_lon": 0.0, "lat": 38.92060816666667, "rental_uris": {"ios": "https://dc.lft.to/lastmile_qr_scan", "android": "https://dc.lft.to/lastmile_qr_scan"}, "bike_id": "7605240786061f4b9783145f4e418180", "fusion_lat": 0.0}, {"lon": -77.0300125, "name": "3589484cefc6a951ab6cb46ae0b6bb68", "is_disabled": 0, "type": "electric_bike", "is_reserved": 0, "fusion_lon": 0.0, "lat": 38.900102833333335, "rental_uris": {"ios": "https://dc.lft.to/lastmile_qr_scan", "android": "https://dc.lft.to/lastmile_qr_scan"}, "bike_id": "3589484cefc6a951ab6cb46ae0b6bb68", "fusion_lat": 0.0}, {"lon": -77.02713083333333, "name": "ae1530a8a082d32c36654f940a062261", "is_disabled": 0, "type": "electric_scooter", "is_reserved": 0, "fusion_lon": 0.0, "lat": 38.919605, "rental_uris": {"ios": "https://dc.lft.to/lastmile_qr_scan", "android": "https://dc.lft.to/lastmile_qr_scan"}, "bike_id": "ae1530a8a082d32c36654f940a062261", "fusion_lat": 0.0}, {"lon": -77.02216583333333, "name": "0647cc655e54e26415f3e4171c697698", "is_disabled": 0, "type": "electric_scooter", "is_reserved": 0, "fusion_lon": 0.0, "lat": 38.924677333333335, "rental_uris": {"ios": "https://dc.lft.to/lastmile_qr_scan", "android": "https://dc.lft.to/lastmile_qr_scan"}, "bike_id": "0647cc655e54e26415f3e4171c697698", "fusion_lat": 0.0}, {"lon": -77.01947983333334, "name": "fe901c2e62e11830905e7ebf44f48dcc", "is_disabled": 0, "type": "electric_scooter", "is_reserved": 0, "fusion_lon": 0.0, "lat": 38.922608, "rental_uris": {"ios": "https://dc.lft.to/lastmile_qr_scan", "android": "https://dc.lft.to/lastmile_qr_scan"}, "bike_id": "fe901c2e62e11830905e7ebf44f48dcc", "fusion_lat": 0.0}, {"lon": -77.05237, "name": "b807d179a789a92528ea8ea2e8971262", "is_disabled": 0, "type": "electric_scooter", "is_reserved": 0, "fusion_lon": 0.0, "lat": 38.924559333333335, "rental_uris": {"ios": "https://dc.lft.to/lastmile_qr_scan", "android": "https://dc.lft.to/lastmile_qr_scan"}, "bike_id": "b807d179a789a92528ea8ea2e8971262", "fusion_lat": 0.0}, {"lon": -77.043608, "name": "369c47a8ef683e753a5dd3fed1cdaad8", "is_disabled": 0, "type": "electric_scooter", "is_reserved": 0, "fusion_lon": 0.0, "lat": 38.898619833333335, "rental_uris": {"ios": "https://dc.lft.to/lastmile_qr_scan", "android": "https://dc.lft.to/lastmile_qr_scan"}, "bike_id": "369c47a8ef683e753a5dd3fed1cdaad8", "fusion_lat": 0.0}, {"lon": -77.06118733333334, "name": "c7fa4f04724dde6c85e3c7ef67b3c281", "is_disabled": 0, "type": "electric_scooter", "is_reserved": 0, "fusion_lon": 0.0, "lat": 38.90547083333333, "rental_uris": {"ios": "https://dc.lft.to/lastmile_qr_scan", "android": "https://dc.lft.to/lastmile_qr_scan"}, "bike_id": "c7fa4f04724dde6c85e3c7ef67b3c281", "fusion_lat": 0.0}, {"lon": -77.00491933333333, "name": "b975e6619577a12d4a8af8310111fea7", "is_disabled": 0, "type": "electric_scooter", "is_reserved": 0, "fusion_lon": 0.0, "lat": 38.916950166666666, "rental_uris": {"ios": "https://dc.lft.to/lastmile_qr_scan", "android": "https://dc.lft.to/lastmile_qr_scan"}, "bike_id": "b975e6619577a12d4a8af8310111fea7", "fusion_lat": 0.0}, {"lon": -76.917174, "name": "3568737616777d4e07a1daee81717b64", "is_disabled": 0, "type": "electric_bike", "is_reserved": 0, "fusion_lon": 0.0, "lat": 38.88028383333334, "rental_uris": {"ios": "https://dc.lft.to/lastmile_qr_scan", "android": "https://dc.lft.to/lastmile_qr_scan"}, "bike_id": "3568737616777d4e07a1daee81717b64", "fusion_lat": 0.0}, {"lon": -77.0295485, "name": "f6152b567ab345e5184fe4a1f23993c7", "is_disabled": 0, "type": "electric_scooter", "is_reserved": 0, "fusion_lon": 0.0, "lat": 38.90499416666667, "rental_uris": {"ios": "https://dc.lft.to/lastmile_qr_scan", "android": "https://dc.lft.to/lastmile_qr_scan"}, "bike_id": "f6152b567ab345e5184fe4a1f23993c7", "fusion_lat": 0.0}, {"lon": -77.021324, "name": "b3933fde3a89e32811ff580e133beb81", "is_disabled": 0, "type": "electric_scooter", "is_reserved": 0, "fusion_lon": 0.0, "lat": 38.93112816666667, "rental_uris": {"ios": "https://dc.lft.to/lastmile_qr_scan", "android": "https://dc.lft.to/lastmile_qr_scan"}, "bike_id": "b3933fde3a89e32811ff580e133beb81", "fusion_lat": 0.0}, {"lon": -77.055255, "name": "b7075a72bb8a8208302a174b01345e9d", "is_disabled": 0, "type": "electric_scooter", "is_reserved": 0, "fusion_lon": 0.0, "lat": 38.89731233333333, "rental_uris": {"ios": "https://dc.lft.to/lastmile_qr_scan", "android": "https://dc.lft.to/lastmile_qr_scan"}, "bike_id": "b7075a72bb8a8208302a174b01345e9d", "fusion_lat": 0.0}, {"lon": -77.0117565, "name": "17f3f017bf8183fe786a5fa13be4dcd3", "is_disabled": 0, "type": "electric_scooter", "is_reserved": 0, "fusion_lon": 0.0, "lat": 38.90044066666667, "rental_uris": {"ios": "https://dc.lft.to/lastmile_qr_scan", "android": "https://dc.lft.to/lastmile_qr_scan"}, "bike_id": "17f3f017bf8183fe786a5fa13be4dcd3", "fusion_lat": 0.0}, {"lon": -77.04186333333334, "name": "dfc2762582970756d82f4e0590c0fcbd", "is_disabled": 0, "type": "electric_scooter", "is_reserved": 0, "fusion_lon": 0.0, "lat": 38.9204795, "rental_uris": {"ios": "https://dc.lft.to/lastmile_qr_scan", "android": "https://dc.lft.to/lastmile_qr_scan"}, "bike_id": "dfc2762582970756d82f4e0590c0fcbd", "fusion_lat": 0.0}, {"lon": -77.06082683333334, "name": "312092a32d9258c440882d05a78371d8", "is_disabled": 0, "type": "electric_bike", "is_reserved": 0, "fusion_lon": 0.0, "lat": 38.804496666666665, "rental_uris": {"ios": "https://dc.lft.to/lastmile_qr_scan", "android": "https://dc.lft.to/lastmile_qr_scan"}, "bike_id": "312092a32d9258c440882d05a78371d8", "fusion_lat": 0.0}, {"lon": -77.0180965, "name": "7af0424a578dd2056b5816b4d4342304", "is_disabled": 0, "type": "electric_scooter", "is_reserved": 0, "fusion_lon": 0.0, "lat": 38.92145583333333, "rental_uris": {"ios": "https://dc.lft.to/lastmile_qr_scan", "android": "https://dc.lft.to/lastmile_qr_scan"}, "bike_id": "7af0424a578dd2056b5816b4d4342304", "fusion_lat": 0.0}, {"lon": -77.02388516666667, "name": "0e253f7151bcbbc7d02386c0b2e91bc3", "is_disabled": 0, "type": "electric_scooter", "is_reserved": 0, "fusion_lon": 0.0, "lat": 38.900361833333335, "rental_uris": {"ios": "https://dc.lft.to/lastmile_qr_scan", "android": "https://dc.lft.to/lastmile_qr_scan"}, "bike_id": "0e253f7151bcbbc7d02386c0b2e91bc3", "fusion_lat": 0.0}, {"lon": -77.0326065, "name": "56f2a9790990d4b3e9687e6af094cf31", "is_disabled": 0, "type": "electric_scooter", "is_reserved": 0, "fusion_lon": 0.0, "lat": 38.935661333333336, "rental_uris": {"ios": "https://dc.lft.to/lastmile_qr_scan", "android": "https://dc.lft.to/lastmile_qr_scan"}, "bike_id": "56f2a9790990d4b3e9687e6af094cf31", "fusion_lat": 0.0}, {"lon": -77.03199416666666, "name": "844a79af5108fd70cfa51e284a044a90", "is_disabled": 0, "type": "electric_scooter", "is_reserved": 0, "fusion_lon": 0.0, "lat": 38.922846, "rental_uris": {"ios": "https://dc.lft.to/lastmile_qr_scan", "android": "https://dc.lft.to/lastmile_qr_scan"}, "bike_id": "844a79af5108fd70cfa51e284a044a90", "fusion_lat": 0.0}, {"lon": -76.993107, "name": "93e1ae00263d33c14b4bf2c69b72b263", "is_disabled": 0, "type": "electric_bike", "is_reserved": 0, "fusion_lon": 0.0, "lat": 38.94630566666667, "rental_uris": {"ios": "https://dc.lft.to/lastmile_qr_scan", "android": "https://dc.lft.to/lastmile_qr_scan"}, "bike_id": "93e1ae00263d33c14b4bf2c69b72b263", "fusion_lat": 0.0}, {"lon": -77.03833933333334, "name": "4f0c747ceeafc20477415b89d0ce5141", "is_disabled": 0, "type": "electric_scooter", "is_reserved": 0, "fusion_lon": 0.0, "lat": 38.90385533333333, "rental_uris": {"ios": "https://dc.lft.to/lastmile_qr_scan", "android": "https://dc.lft.to/lastmile_qr_scan"}, "bike_id": "4f0c747ceeafc20477415b89d0ce5141", "fusion_lat": 0.0}, {"lon": -77.04332883333333, "name": "21c97ecfded50fc99b799ac3ed66f9be", "is_disabled": 0, "type": "electric_scooter", "is_reserved": 0, "fusion_lon": 0.0, "lat": 38.89961266666667, "rental_uris": {"ios": "https://dc.lft.to/lastmile_qr_scan", "android": "https://dc.lft.to/lastmile_qr_scan"}, "bike_id": "21c97ecfded50fc99b799ac3ed66f9be", "fusion_lat": 0.0}, {"lon": -76.99379033333334, "name": "1ca0b4f54b55a2787a2fcba5de1cd73e", "is_disabled": 0, "type": "electric_scooter", "is_reserved": 0, "fusion_lon": 0.0, "lat": 38.8921415, "rental_uris": {"ios": "https://dc.lft.to/lastmile_qr_scan", "android": "https://dc.lft.to/lastmile_qr_scan"}, "bike_id": "1ca0b4f54b55a2787a2fcba5de1cd73e", "fusion_lat": 0.0}, {"lon": -77.029422, "name": "8228c132bb420807d2da44990e65e7e6", "is_disabled": 0, "type": "electric_scooter", "is_reserved": 0, "fusion_lon": 0.0, "lat": 38.8956745, "rental_uris": {"ios": "https://dc.lft.to/lastmile_qr_scan", "android": "https://dc.lft.to/lastmile_qr_scan"}, "bike_id": "8228c132bb420807d2da44990e65e7e6", "fusion_lat": 0.0}, {"lon": -76.97683833333333, "name": "d4321f0205aa31c506f166091690af9a", "is_disabled": 0, "type": "electric_scooter", "is_reserved": 0, "fusion_lon": 0.0, "lat": 38.89194766666667, "rental_uris": {"ios": "https://dc.lft.to/lastmile_qr_scan", "android": "https://dc.lft.to/lastmile_qr_scan"}, "bike_id": "d4321f0205aa31c506f166091690af9a", "fusion_lat": 0.0}, {"lon": -77.05133916666666, "name": "0e3341503386f7442fc07f4f2d62cc6b", "is_disabled": 0, "type": "electric_scooter", "is_reserved": 0, "fusion_lon": 0.0, "lat": 38.90161, "rental_uris": {"ios": "https://dc.lft.to/lastmile_qr_scan", "android": "https://dc.lft.to/lastmile_qr_scan"}, "bike_id": "0e3341503386f7442fc07f4f2d62cc6b", "fusion_lat": 0.0}, {"lon": -77.0191585, "name": "6e308ededd61f8c602f0cfd25281f794", "is_disabled": 0, "type": "electric_scooter", "is_reserved": 0, "fusion_lon": 0.0, "lat": 38.8972655, "rental_uris": {"ios": "https://dc.lft.to/lastmile_qr_scan", "android": "https://dc.lft.to/lastmile_qr_scan"}, "bike_id": "6e308ededd61f8c602f0cfd25281f794", "fusion_lat": 0.0}, {"lon": -77.03257416666666, "name": "009ab44d094ff0b5845745bf484f0a1d", "is_disabled": 0, "type": "electric_scooter", "is_reserved": 0, "fusion_lon": 0.0, "lat": 38.90729616666667, "rental_uris": {"ios": "https://dc.lft.to/lastmile_qr_scan", "android": "https://dc.lft.to/lastmile_qr_scan"}, "bike_id": "009ab44d094ff0b5845745bf484f0a1d", "fusion_lat": 0.0}, {"lon": -77.02459616666667, "name": "6e22f7d39dafca1ef0ddef4f0b547cd4", "is_disabled": 0, "type": "electric_scooter", "is_reserved": 0, "fusion_lon": 0.0, "lat": 38.939173833333335, "rental_uris": {"ios": "https://dc.lft.to/lastmile_qr_scan", "android": "https://dc.lft.to/lastmile_qr_scan"}, "bike_id": "6e22f7d39dafca1ef0ddef4f0b547cd4", "fusion_lat": 0.0}, {"lon": -76.9965535, "name": "932b392a93f1d751cc0f4ebc3b44d75e", "is_disabled": 0, "type": "electric_bike", "is_reserved": 0, "fusion_lon": 0.0, "lat": 38.967739333333334, "rental_uris": {"ios": "https://dc.lft.to/lastmile_qr_scan", "android": "https://dc.lft.to/lastmile_qr_scan"}, "bike_id": "932b392a93f1d751cc0f4ebc3b44d75e", "fusion_lat": 0.0}, {"lon": -77.0150995, "name": "763ddeeb49d8b9cc44fb434e338f2dab", "is_disabled": 0, "type": "electric_scooter", "is_reserved": 0, "fusion_lon": 0.0, "lat": 38.896779333333335, "rental_uris": {"ios": "https://dc.lft.to/lastmile_qr_scan", "android": "https://dc.lft.to/lastmile_qr_scan"}, "bike_id": "763ddeeb49d8b9cc44fb434e338f2dab", "fusion_lat": 0.0}, {"lon": -77.02943266666666, "name": "7656b34adcd3caf26c10d78eafc8054e", "is_disabled": 0, "type": "electric_scooter", "is_reserved": 0, "fusion_lon": 0.0, "lat": 38.93967883333333, "rental_uris": {"ios": "https://dc.lft.to/lastmile_qr_scan", "android": "https://dc.lft.to/lastmile_qr_scan"}, "bike_id": "7656b34adcd3caf26c10d78eafc8054e", "fusion_lat": 0.0}, {"lon": -77.03700416666666, "name": "a8ef23c7ea08d7b488b57849ea31eb74", "is_disabled": 0, "type": "electric_scooter", "is_reserved": 0, "fusion_lon": 0.0, "lat": 38.92641033333334, "rental_uris": {"ios": "https://dc.lft.to/lastmile_qr_scan", "android": "https://dc.lft.to/lastmile_qr_scan"}, "bike_id": "a8ef23c7ea08d7b488b57849ea31eb74", "fusion_lat": 0.0}, {"lon": -77.02196966666666, "name": "fcd330c89b2136c516f7e7ed2f1d2c42", "is_disabled": 0, "type": "electric_scooter", "is_reserved": 0, "fusion_lon": 0.0, "lat": 38.8861355, "rental_uris": {"ios": "https://dc.lft.to/lastmile_qr_scan", "android": "https://dc.lft.to/lastmile_qr_scan"}, "bike_id": "fcd330c89b2136c516f7e7ed2f1d2c42", "fusion_lat": 0.0}, {"lon": -76.9978895, "name": "521885e9a34f82041601b6f0a3d96d5b", "is_disabled": 0, "type": "electric_scooter", "is_reserved": 0, "fusion_lon": 0.0, "lat": 38.88001833333333, "rental_uris": {"ios": "https://dc.lft.to/lastmile_qr_scan", "android": "https://dc.lft.to/lastmile_qr_scan"}, "bike_id": "521885e9a34f82041601b6f0a3d96d5b", "fusion_lat": 0.0}, {"lon": -77.03636666666667, "name": "5334a6e1617d5fa6b8ccc56ae39bfee1", "is_disabled": 0, "type": "electric_scooter", "is_reserved": 0, "fusion_lon": 0.0, "lat": 38.90304833333333, "rental_uris": {"ios": "https://dc.lft.to/lastmile_qr_scan", "android": "https://dc.lft.to/lastmile_qr_scan"}, "bike_id": "5334a6e1617d5fa6b8ccc56ae39bfee1", "fusion_lat": 0.0}, {"lon": -77.03503966666666, "name": "d8a89c91a6df073066379a69f969f77f", "is_disabled": 0, "type": "electric_scooter", "is_reserved": 0, "fusion_lon": 0.0, "lat": 38.9163045, "rental_uris": {"ios": "https://dc.lft.to/lastmile_qr_scan", "android": "https://dc.lft.to/lastmile_qr_scan"}, "bike_id": "d8a89c91a6df073066379a69f969f77f", "fusion_lat": 0.0}, {"lon": -77.03450366666667, "name": "3c97fa1bfc339d8a00a8fee16cb99788", "is_disabled": 0, "type": "electric_scooter", "is_reserved": 0, "fusion_lon": 0.0, "lat": 38.902709, "rental_uris": {"ios": "https://dc.lft.to/lastmile_qr_scan", "android": "https://dc.lft.to/lastmile_qr_scan"}, "bike_id": "3c97fa1bfc339d8a00a8fee16cb99788", "fusion_lat": 0.0}, {"lon": -76.98371683333333, "name": "40d1b21e78e8f4807769f6bc10452217", "is_disabled": 0, "type": "electric_scooter", "is_reserved": 0, "fusion_lon": 0.0, "lat": 38.892716, "rental_uris": {"ios": "https://dc.lft.to/lastmile_qr_scan", "android": "https://dc.lft.to/lastmile_qr_scan"}, "bike_id": "40d1b21e78e8f4807769f6bc10452217", "fusion_lat": 0.0}, {"lon": -77.02526283333333, "name": "eefbb74e661e20c8601125a2f40c3f81", "is_disabled": 0, "type": "electric_scooter", "is_reserved": 0, "fusion_lon": 0.0, "lat": 38.920950500000004, "rental_uris": {"ios": "https://dc.lft.to/lastmile_qr_scan", "android": "https://dc.lft.to/lastmile_qr_scan"}, "bike_id": "eefbb74e661e20c8601125a2f40c3f81", "fusion_lat": 0.0}, {"lon": -77.02613766666667, "name": "813f6f2055fcb45ca7aadba6b622a1b3", "is_disabled": 0, "type": "electric_scooter", "is_reserved": 0, "fusion_lon": 0.0, "lat": 38.89889016666667, "rental_uris": {"ios": "https://dc.lft.to/lastmile_qr_scan", "android": "https://dc.lft.to/lastmile_qr_scan"}, "bike_id": "813f6f2055fcb45ca7aadba6b622a1b3", "fusion_lat": 0.0}, {"lon": -77.00396016666667, "name": "9c8f4025794ee76fec265f292c50e3fa", "is_disabled": 0, "type": "electric_scooter", "is_reserved": 0, "fusion_lon": 0.0, "lat": 38.905733, "rental_uris": {"ios": "https://dc.lft.to/lastmile_qr_scan", "android": "https://dc.lft.to/lastmile_qr_scan"}, "bike_id": "9c8f4025794ee76fec265f292c50e3fa", "fusion_lat": 0.0}, {"lon": -77.02217116666667, "name": "8bd43524dc1779e4fcd2476b16d152bd", "is_disabled": 0, "type": "electric_scooter", "is_reserved": 0, "fusion_lon": 0.0, "lat": 38.92474466666667, "rental_uris": {"ios": "https://dc.lft.to/lastmile_qr_scan", "android": "https://dc.lft.to/lastmile_qr_scan"}, "bike_id": "8bd43524dc1779e4fcd2476b16d152bd", "fusion_lat": 0.0}, {"lon": -77.03169683333333, "name": "488c962f20c9d3a708975ddc134b3832", "is_disabled": 0, "type": "electric_scooter", "is_reserved": 0, "fusion_lon": 0.0, "lat": 38.91563633333333, "rental_uris": {"ios": "https://dc.lft.to/lastmile_qr_scan", "android": "https://dc.lft.to/lastmile_qr_scan"}, "bike_id": "488c962f20c9d3a708975ddc134b3832", "fusion_lat": 0.0}, {"lon": -77.02532066666667, "name": "d683d6c9f2d56a2adadd11deb2eb773f", "is_disabled": 0, "type": "electric_scooter", "is_reserved": 0, "fusion_lon": 0.0, "lat": 38.92085983333333, "rental_uris": {"ios": "https://dc.lft.to/lastmile_qr_scan", "android": "https://dc.lft.to/lastmile_qr_scan"}, "bike_id": "d683d6c9f2d56a2adadd11deb2eb773f", "fusion_lat": 0.0}, {"lon": -77.02813466666667, "name": "5f6dcaeec54892876734b6d6cb87c871", "is_disabled": 0, "type": "electric_scooter", "is_reserved": 0, "fusion_lon": 0.0, "lat": 38.90356, "rental_uris": {"ios": "https://dc.lft.to/lastmile_qr_scan", "android": "https://dc.lft.to/lastmile_qr_scan"}, "bike_id": "5f6dcaeec54892876734b6d6cb87c871", "fusion_lat": 0.0}, {"lon": -77.02695116666666, "name": "e7da2f27b44cb6a4bc473839aad25b4c", "is_disabled": 0, "type": "electric_scooter", "is_reserved": 0, "fusion_lon": 0.0, "lat": 38.8972495, "rental_uris": {"ios": "https://dc.lft.to/lastmile_qr_scan", "android": "https://dc.lft.to/lastmile_qr_scan"}, "bike_id": "e7da2f27b44cb6a4bc473839aad25b4c", "fusion_lat": 0.0}, {"lon": -77.00590566666666, "name": "0013f17601bce9fea3a4f79fc8b006d9", "is_disabled": 0, "type": "electric_scooter", "is_reserved": 0, "fusion_lon": 0.0, "lat": 38.87637133333333, "rental_uris": {"ios": "https://dc.lft.to/lastmile_qr_scan", "android": "https://dc.lft.to/lastmile_qr_scan"}, "bike_id": "0013f17601bce9fea3a4f79fc8b006d9", "fusion_lat": 0.0}, {"lon": -77.05455016666667, "name": "e8da4ed1ea0ed1f9be44c7bb50ac7236", "is_disabled": 0, "type": "electric_scooter", "is_reserved": 0, "fusion_lon": 0.0, "lat": 38.928989, "rental_uris": {"ios": "https://dc.lft.to/lastmile_qr_scan", "android": "https://dc.lft.to/lastmile_qr_scan"}, "bike_id": "e8da4ed1ea0ed1f9be44c7bb50ac7236", "fusion_lat": 0.0}, {"lon": -77.00187416666667, "name": "c346e16b5d6fc04aacfbd158b057da52", "is_disabled": 0, "type": "electric_scooter", "is_reserved": 0, "fusion_lon": 0.0, "lat": 38.90736033333334, "rental_uris": {"ios": "https://dc.lft.to/lastmile_qr_scan", "android": "https://dc.lft.to/lastmile_qr_scan"}, "bike_id": "c346e16b5d6fc04aacfbd158b057da52", "fusion_lat": 0.0}, {"lon": -77.02372966666667, "name": "c83f3e396ff3aae4c59b960d1b0d692b", "is_disabled": 0, "type": "electric_scooter", "is_reserved": 0, "fusion_lon": 0.0, "lat": 38.917858833333334, "rental_uris": {"ios": "https://dc.lft.to/lastmile_qr_scan", "android": "https://dc.lft.to/lastmile_qr_scan"}, "bike_id": "c83f3e396ff3aae4c59b960d1b0d692b", "fusion_lat": 0.0}, {"lon": -77.0221165, "name": "597ffef6d3338d7c7a5b610e04450888", "is_disabled": 0, "type": "electric_scooter", "is_reserved": 0, "fusion_lon": 0.0, "lat": 38.920653333333334, "rental_uris": {"ios": "https://dc.lft.to/lastmile_qr_scan", "android": "https://dc.lft.to/lastmile_qr_scan"}, "bike_id": "597ffef6d3338d7c7a5b610e04450888", "fusion_lat": 0.0}, {"lon": -77.0283035, "name": "10c3edbc8170ccfd44b7f9853f2d34e6", "is_disabled": 0, "type": "electric_scooter", "is_reserved": 0, "fusion_lon": 0.0, "lat": 38.932374333333335, "rental_uris": {"ios": "https://dc.lft.to/lastmile_qr_scan", "android": "https://dc.lft.to/lastmile_qr_scan"}, "bike_id": "10c3edbc8170ccfd44b7f9853f2d34e6", "fusion_lat": 0.0}, {"lon": -77.024206, "name": "1df125de303efc8f3a26681e062a9601", "is_disabled": 0, "type": "electric_scooter", "is_reserved": 0, "fusion_lon": 0.0, "lat": 38.895279, "rental_uris": {"ios": "https://dc.lft.to/lastmile_qr_scan", "android": "https://dc.lft.to/lastmile_qr_scan"}, "bike_id": "1df125de303efc8f3a26681e062a9601", "fusion_lat": 0.0}, {"lon": -77.01443616666667, "name": "040e4d778abcc0e1f2d372f8c22c4d38", "is_disabled": 0, "type": "electric_scooter", "is_reserved": 0, "fusion_lon": 0.0, "lat": 38.90957433333333, "rental_uris": {"ios": "https://dc.lft.to/lastmile_qr_scan", "android": "https://dc.lft.to/lastmile_qr_scan"}, "bike_id": "040e4d778abcc0e1f2d372f8c22c4d38", "fusion_lat": 0.0}, {"lon": -77.0395675, "name": "f1cf429b838172c90e91d79cacdd4c4f", "is_disabled": 0, "type": "electric_scooter", "is_reserved": 0, "fusion_lon": 0.0, "lat": 38.901265, "rental_uris": {"ios": "https://dc.lft.to/lastmile_qr_scan", "android": "https://dc.lft.to/lastmile_qr_scan"}, "bike_id": "f1cf429b838172c90e91d79cacdd4c4f", "fusion_lat": 0.0}, {"lon": -76.9570875, "name": "89d103fb3695872e4bbdc0081c38e2e4", "is_disabled": 0, "type": "electric_bike", "is_reserved": 0, "fusion_lon": 0.0, "lat": 38.88876783333333, "rental_uris": {"ios": "https://dc.lft.to/lastmile_qr_scan", "android": "https://dc.lft.to/lastmile_qr_scan"}, "bike_id": "89d103fb3695872e4bbdc0081c38e2e4", "fusion_lat": 0.0}, {"lon": -76.9324045, "name": "9037dda7b9bcc41c454f268937714193", "is_disabled": 0, "type": "electric_bike", "is_reserved": 0, "fusion_lon": 0.0, "lat": 38.882792, "rental_uris": {"ios": "https://dc.lft.to/lastmile_qr_scan", "android": "https://dc.lft.to/lastmile_qr_scan"}, "bike_id": "9037dda7b9bcc41c454f268937714193", "fusion_lat": 0.0}, {"lon": -77.03921366666667, "name": "c3b6e4ed1903b8ff84e6e68213a26adb", "is_disabled": 0, "type": "electric_scooter", "is_reserved": 0, "fusion_lon": 0.0, "lat": 38.90656083333333, "rental_uris": {"ios": "https://dc.lft.to/lastmile_qr_scan", "android": "https://dc.lft.to/lastmile_qr_scan"}, "bike_id": "c3b6e4ed1903b8ff84e6e68213a26adb", "fusion_lat": 0.0}, {"lon": -77.063757, "name": "e7f1e16bfd65e03c4d4cd4bf7783a11a", "is_disabled": 0, "type": "electric_scooter", "is_reserved": 0, "fusion_lon": 0.0, "lat": 38.90837533333333, "rental_uris": {"ios": "https://dc.lft.to/lastmile_qr_scan", "android": "https://dc.lft.to/lastmile_qr_scan"}, "bike_id": "e7f1e16bfd65e03c4d4cd4bf7783a11a", "fusion_lat": 0.0}, {"lon": -77.052664, "name": "20deda2c7e690a866f8aeaf347ed9ebd", "is_disabled": 0, "type": "electric_scooter", "is_reserved": 0, "fusion_lon": 0.0, "lat": 38.903528, "rental_uris": {"ios": "https://dc.lft.to/lastmile_qr_scan", "android": "https://dc.lft.to/lastmile_qr_scan"}, "bike_id": "20deda2c7e690a866f8aeaf347ed9ebd", "fusion_lat": 0.0}, {"lon": -77.0418005, "name": "bbe71f0f9f0674d3f6289101c08e88e3", "is_disabled": 0, "type": "electric_scooter", "is_reserved": 0, "fusion_lon": 0.0, "lat": 38.9191045, "rental_uris": {"ios": "https://dc.lft.to/lastmile_qr_scan", "android": "https://dc.lft.to/lastmile_qr_scan"}, "bike_id": "bbe71f0f9f0674d3f6289101c08e88e3", "fusion_lat": 0.0}, {"lon": -77.02981333333334, "name": "af15505c4c525310d43c5c30f9d2f4cd", "is_disabled": 0, "type": "electric_scooter", "is_reserved": 0, "fusion_lon": 0.0, "lat": 38.94718016666667, "rental_uris": {"ios": "https://dc.lft.to/lastmile_qr_scan", "android": "https://dc.lft.to/lastmile_qr_scan"}, "bike_id": "af15505c4c525310d43c5c30f9d2f4cd", "fusion_lat": 0.0}, {"lon": -77.05511683333333, "name": "f5542a9c71ed17abbf0e89a124144f14", "is_disabled": 0, "type": "electric_scooter", "is_reserved": 0, "fusion_lon": 0.0, "lat": 38.929932666666666, "rental_uris": {"ios": "https://dc.lft.to/lastmile_qr_scan", "android": "https://dc.lft.to/lastmile_qr_scan"}, "bike_id": "f5542a9c71ed17abbf0e89a124144f14", "fusion_lat": 0.0}, {"lon": -77.039586, "name": "3265647a9ece33793fabd7da580dafd4", "is_disabled": 0, "type": "electric_scooter", "is_reserved": 0, "fusion_lon": 0.0, "lat": 38.89855566666667, "rental_uris": {"ios": "https://dc.lft.to/lastmile_qr_scan", "android": "https://dc.lft.to/lastmile_qr_scan"}, "bike_id": "3265647a9ece33793fabd7da580dafd4", "fusion_lat": 0.0}, {"lon": -77.04785166666667, "name": "30b22f36fb8d4e1286463292d35d762b", "is_disabled": 0, "type": "electric_scooter", "is_reserved": 0, "fusion_lon": 0.0, "lat": 38.89915166666667, "rental_uris": {"ios": "https://dc.lft.to/lastmile_qr_scan", "android": "https://dc.lft.to/lastmile_qr_scan"}, "bike_id": "30b22f36fb8d4e1286463292d35d762b", "fusion_lat": 0.0}, {"lon": -77.012662, "name": "389e646b0b88e17b17aaf764ae3c23bb", "is_disabled": 0, "type": "electric_scooter", "is_reserved": 0, "fusion_lon": 0.0, "lat": 38.8982905, "rental_uris": {"ios": "https://dc.lft.to/lastmile_qr_scan", "android": "https://dc.lft.to/lastmile_qr_scan"}, "bike_id": "389e646b0b88e17b17aaf764ae3c23bb", "fusion_lat": 0.0}, {"lon": -77.046559, "name": "7fddb5a3e4b046275bb200b2d141e7fa", "is_disabled": 0, "type": "electric_scooter", "is_reserved": 0, "fusion_lon": 0.0, "lat": 38.8974085, "rental_uris": {"ios": "https://dc.lft.to/lastmile_qr_scan", "android": "https://dc.lft.to/lastmile_qr_scan"}, "bike_id": "7fddb5a3e4b046275bb200b2d141e7fa", "fusion_lat": 0.0}, {"lon": -77.038372, "name": "1a72367d7364da4abbd220b7e5061704", "is_disabled": 0, "type": "electric_scooter", "is_reserved": 0, "fusion_lon": 0.0, "lat": 38.92651516666667, "rental_uris": {"ios": "https://dc.lft.to/lastmile_qr_scan", "android": "https://dc.lft.to/lastmile_qr_scan"}, "bike_id": "1a72367d7364da4abbd220b7e5061704", "fusion_lat": 0.0}, {"lon": -77.00588233333333, "name": "ae58a8623bc00b75827a3075dd02221b", "is_disabled": 0, "type": "electric_scooter", "is_reserved": 0, "fusion_lon": 0.0, "lat": 38.9037405, "rental_uris": {"ios": "https://dc.lft.to/lastmile_qr_scan", "android": "https://dc.lft.to/lastmile_qr_scan"}, "bike_id": "ae58a8623bc00b75827a3075dd02221b", "fusion_lat": 0.0}, {"lon": -77.02139316666667, "name": "aabe79e9ceed3ea64b3786ad42a00fc3", "is_disabled": 0, "type": "electric_scooter", "is_reserved": 0, "fusion_lon": 0.0, "lat": 38.92409, "rental_uris": {"ios": "https://dc.lft.to/lastmile_qr_scan", "android": "https://dc.lft.to/lastmile_qr_scan"}, "bike_id": "aabe79e9ceed3ea64b3786ad42a00fc3", "fusion_lat": 0.0}, {"lon": -77.0285425, "name": "796158313a919d0664f1a81c5f96f930", "is_disabled": 0, "type": "electric_scooter", "is_reserved": 0, "fusion_lon": 0.0, "lat": 38.896207, "rental_uris": {"ios": "https://dc.lft.to/lastmile_qr_scan", "android": "https://dc.lft.to/lastmile_qr_scan"}, "bike_id": "796158313a919d0664f1a81c5f96f930", "fusion_lat": 0.0}, {"lon": -77.0765895, "name": "762ff765d122dd6970cdc1189231d6ff", "is_disabled": 0, "type": "electric_bike", "is_reserved": 0, "fusion_lon": 0.0, "lat": 38.809772833333334, "rental_uris": {"ios": "https://dc.lft.to/lastmile_qr_scan", "android": "https://dc.lft.to/lastmile_qr_scan"}, "bike_id": "762ff765d122dd6970cdc1189231d6ff", "fusion_lat": 0.0}, {"lon": -77.04050416666666, "name": "977b8f7f8b3078818162724b71eae583", "is_disabled": 0, "type": "electric_scooter", "is_reserved": 0, "fusion_lon": 0.0, "lat": 38.9086025, "rental_uris": {"ios": "https://dc.lft.to/lastmile_qr_scan", "android": "https://dc.lft.to/lastmile_qr_scan"}, "bike_id": "977b8f7f8b3078818162724b71eae583", "fusion_lat": 0.0}, {"lon": -77.02976016666666, "name": "b2751b829a57ee2d6e2849afa86b2dd9", "is_disabled": 0, "type": "electric_scooter", "is_reserved": 0, "fusion_lon": 0.0, "lat": 38.92156083333333, "rental_uris": {"ios": "https://dc.lft.to/lastmile_qr_scan", "android": "https://dc.lft.to/lastmile_qr_scan"}, "bike_id": "b2751b829a57ee2d6e2849afa86b2dd9", "fusion_lat": 0.0}, {"lon": -77.00599433333333, "name": "7b33e079e6fbc822f9ffa486ca1e26db", "is_disabled": 0, "type": "electric_bike", "is_reserved": 0, "fusion_lon": 0.0, "lat": 38.89808283333333, "rental_uris": {"ios": "https://dc.lft.to/lastmile_qr_scan", "android": "https://dc.lft.to/lastmile_qr_scan"}, "bike_id": "7b33e079e6fbc822f9ffa486ca1e26db", "fusion_lat": 0.0}, {"lon": -77.04091416666667, "name": "d464ac6aeb9ad23147220d965ea300dc", "is_disabled": 0, "type": "electric_scooter", "is_reserved": 0, "fusion_lon": 0.0, "lat": 38.89224433333333, "rental_uris": {"ios": "https://dc.lft.to/lastmile_qr_scan", "android": "https://dc.lft.to/lastmile_qr_scan"}, "bike_id": "d464ac6aeb9ad23147220d965ea300dc", "fusion_lat": 0.0}, {"lon": -77.054791, "name": "0b0b87dd452a944a94636abc27bf2d26", "is_disabled": 0, "type": "electric_scooter", "is_reserved": 0, "fusion_lon": 0.0, "lat": 38.90304, "rental_uris": {"ios": "https://dc.lft.to/lastmile_qr_scan", "android": "https://dc.lft.to/lastmile_qr_scan"}, "bike_id": "0b0b87dd452a944a94636abc27bf2d26", "fusion_lat": 0.0}, {"lon": -77.0194875, "name": "7fd18ebbe5b3b5d433e2d4fe046b91c6", "is_disabled": 0, "type": "electric_scooter", "is_reserved": 0, "fusion_lon": 0.0, "lat": 38.922556666666665, "rental_uris": {"ios": "https://dc.lft.to/lastmile_qr_scan", "android": "https://dc.lft.to/lastmile_qr_scan"}, "bike_id": "7fd18ebbe5b3b5d433e2d4fe046b91c6", "fusion_lat": 0.0}, {"lon": -76.98684616666667, "name": "880f7f4ec0fa0ede80e5efc7fed13254", "is_disabled": 0, "type": "electric_scooter", "is_reserved": 0, "fusion_lon": 0.0, "lat": 38.89955333333333, "rental_uris": {"ios": "https://dc.lft.to/lastmile_qr_scan", "android": "https://dc.lft.to/lastmile_qr_scan"}, "bike_id": "880f7f4ec0fa0ede80e5efc7fed13254", "fusion_lat": 0.0}, {"lon": -76.96437016666667, "name": "3c73a8f6e13313ccaf6e188f403f170f", "is_disabled": 0, "type": "electric_bike", "is_reserved": 0, "fusion_lon": 0.0, "lat": 38.918739, "rental_uris": {"ios": "https://dc.lft.to/lastmile_qr_scan", "android": "https://dc.lft.to/lastmile_qr_scan"}, "bike_id": "3c73a8f6e13313ccaf6e188f403f170f", "fusion_lat": 0.0}, {"lon": -77.06628683333334, "name": "07bdb1096a3305548bb79a8a2f857997", "is_disabled": 0, "type": "electric_scooter", "is_reserved": 0, "fusion_lon": 0.0, "lat": 38.936829, "rental_uris": {"ios": "https://dc.lft.to/lastmile_qr_scan", "android": "https://dc.lft.to/lastmile_qr_scan"}, "bike_id": "07bdb1096a3305548bb79a8a2f857997", "fusion_lat": 0.0}, {"lon": -77.02161916666667, "name": "e5d1eaa68898962b0f81dd757890520a", "is_disabled": 0, "type": "electric_scooter", "is_reserved": 0, "fusion_lon": 0.0, "lat": 38.92612716666667, "rental_uris": {"ios": "https://dc.lft.to/lastmile_qr_scan", "android": "https://dc.lft.to/lastmile_qr_scan"}, "bike_id": "e5d1eaa68898962b0f81dd757890520a", "fusion_lat": 0.0}, {"lon": -77.04188383333333, "name": "8cca08afc1f2d9a24bc37555c72fd4c4", "is_disabled": 0, "type": "electric_scooter", "is_reserved": 0, "fusion_lon": 0.0, "lat": 38.926304, "rental_uris": {"ios": "https://dc.lft.to/lastmile_qr_scan", "android": "https://dc.lft.to/lastmile_qr_scan"}, "bike_id": "8cca08afc1f2d9a24bc37555c72fd4c4", "fusion_lat": 0.0}, {"lon": -77.00047566666667, "name": "0a2313647e167dbec6d6ebf9a9d081ae", "is_disabled": 0, "type": "electric_scooter", "is_reserved": 0, "fusion_lon": 0.0, "lat": 38.88769033333333, "rental_uris": {"ios": "https://dc.lft.to/lastmile_qr_scan", "android": "https://dc.lft.to/lastmile_qr_scan"}, "bike_id": "0a2313647e167dbec6d6ebf9a9d081ae", "fusion_lat": 0.0}, {"lon": -76.98759066666666, "name": "4a8f9845c7172faca96bf445dadab7a0", "is_disabled": 0, "type": "electric_bike", "is_reserved": 0, "fusion_lon": 0.0, "lat": 38.84445, "rental_uris": {"ios": "https://dc.lft.to/lastmile_qr_scan", "android": "https://dc.lft.to/lastmile_qr_scan"}, "bike_id": "4a8f9845c7172faca96bf445dadab7a0", "fusion_lat": 0.0}, {"lon": -77.08911166666667, "name": "35d2b32fa62882c856923ce70bdf23e0", "is_disabled": 0, "type": "electric_bike", "is_reserved": 0, "fusion_lon": 0.0, "lat": 38.96731333333334, "rental_uris": {"ios": "https://dc.lft.to/lastmile_qr_scan", "android": "https://dc.lft.to/lastmile_qr_scan"}, "bike_id": "35d2b32fa62882c856923ce70bdf23e0", "fusion_lat": 0.0}, {"lon": -77.02363183333334, "name": "d31cdd0601b15a2bc83e565cf545dcf6", "is_disabled": 0, "type": "electric_scooter", "is_reserved": 0, "fusion_lon": 0.0, "lat": 38.920586666666665, "rental_uris": {"ios": "https://dc.lft.to/lastmile_qr_scan", "android": "https://dc.lft.to/lastmile_qr_scan"}, "bike_id": "d31cdd0601b15a2bc83e565cf545dcf6", "fusion_lat": 0.0}, {"lon": -77.02832883333333, "name": "91e005b3d59109edd0417e753aa07ebd", "is_disabled": 0, "type": "electric_scooter", "is_reserved": 0, "fusion_lon": 0.0, "lat": 38.88654, "rental_uris": {"ios": "https://dc.lft.to/lastmile_qr_scan", "android": "https://dc.lft.to/lastmile_qr_scan"}, "bike_id": "91e005b3d59109edd0417e753aa07ebd", "fusion_lat": 0.0}, {"lon": -76.9906265, "name": "3881ee247f8b31031e5b183947d5aeb9", "is_disabled": 0, "type": "electric_bike", "is_reserved": 0, "fusion_lon": 0.0, "lat": 38.936943, "rental_uris": {"ios": "https://dc.lft.to/lastmile_qr_scan", "android": "https://dc.lft.to/lastmile_qr_scan"}, "bike_id": "3881ee247f8b31031e5b183947d5aeb9", "fusion_lat": 0.0}, {"lon": -77.03664533333334, "name": "f2c8cad7d3c6b4026a4babde22a2278a", "is_disabled": 0, "type": "electric_scooter", "is_reserved": 0, "fusion_lon": 0.0, "lat": 38.9224165, "rental_uris": {"ios": "https://dc.lft.to/lastmile_qr_scan", "android": "https://dc.lft.to/lastmile_qr_scan"}, "bike_id": "f2c8cad7d3c6b4026a4babde22a2278a", "fusion_lat": 0.0}, {"lon": -77.03436083333334, "name": "81f9f59d929ed703abe1c9e4ed3f3cf7", "is_disabled": 0, "type": "electric_scooter", "is_reserved": 0, "fusion_lon": 0.0, "lat": 38.9042945, "rental_uris": {"ios": "https://dc.lft.to/lastmile_qr_scan", "android": "https://dc.lft.to/lastmile_qr_scan"}, "bike_id": "81f9f59d929ed703abe1c9e4ed3f3cf7", "fusion_lat": 0.0}, {"lon": -77.0220235, "name": "0ec55f2db2f15760c49749d39c2f4226", "is_disabled": 0, "type": "electric_scooter", "is_reserved": 0, "fusion_lon": 0.0, "lat": 38.905835, "rental_uris": {"ios": "https://dc.lft.to/lastmile_qr_scan", "android": "https://dc.lft.to/lastmile_qr_scan"}, "bike_id": "0ec55f2db2f15760c49749d39c2f4226", "fusion_lat": 0.0}, {"lon": -77.01203416666667, "name": "47ba46f87c479d2a09b142949c95f791", "is_disabled": 0, "type": "electric_scooter", "is_reserved": 0, "fusion_lon": 0.0, "lat": 38.92740783333333, "rental_uris": {"ios": "https://dc.lft.to/lastmile_qr_scan", "android": "https://dc.lft.to/lastmile_qr_scan"}, "bike_id": "47ba46f87c479d2a09b142949c95f791", "fusion_lat": 0.0}, {"lon": -77.02486616666667, "name": "a3f94652d855c69731a588e70a3a46b7", "is_disabled": 0, "type": "electric_scooter", "is_reserved": 0, "fusion_lon": 0.0, "lat": 38.880154833333336, "rental_uris": {"ios": "https://dc.lft.to/lastmile_qr_scan", "android": "https://dc.lft.to/lastmile_qr_scan"}, "bike_id": "a3f94652d855c69731a588e70a3a46b7", "fusion_lat": 0.0}, {"lon": -76.99215283333334, "name": "7fbdc0368271305c6d4bca2d46beb521", "is_disabled": 0, "type": "electric_scooter", "is_reserved": 0, "fusion_lon": 0.0, "lat": 38.89738333333333, "rental_uris": {"ios": "https://dc.lft.to/lastmile_qr_scan", "android": "https://dc.lft.to/lastmile_qr_scan"}, "bike_id": "7fbdc0368271305c6d4bca2d46beb521", "fusion_lat": 0.0}, {"lon": -77.02706366666666, "name": "d11c09e3629f147b4db0f4f026309c50", "is_disabled": 0, "type": "electric_scooter", "is_reserved": 0, "fusion_lon": 0.0, "lat": 38.90059, "rental_uris": {"ios": "https://dc.lft.to/lastmile_qr_scan", "android": "https://dc.lft.to/lastmile_qr_scan"}, "bike_id": "d11c09e3629f147b4db0f4f026309c50", "fusion_lat": 0.0}, {"lon": -77.02554583333334, "name": "f6fb4786cd1977a78a748925408a5bdf", "is_disabled": 0, "type": "electric_scooter", "is_reserved": 0, "fusion_lon": 0.0, "lat": 38.91635483333334, "rental_uris": {"ios": "https://dc.lft.to/lastmile_qr_scan", "android": "https://dc.lft.to/lastmile_qr_scan"}, "bike_id": "f6fb4786cd1977a78a748925408a5bdf", "fusion_lat": 0.0}, {"lon": -77.0417515, "name": "bb97cfb01a0121e0cc0aa4daef8c8f47", "is_disabled": 0, "type": "electric_scooter", "is_reserved": 0, "fusion_lon": 0.0, "lat": 38.917313, "rental_uris": {"ios": "https://dc.lft.to/lastmile_qr_scan", "android": "https://dc.lft.to/lastmile_qr_scan"}, "bike_id": "bb97cfb01a0121e0cc0aa4daef8c8f47", "fusion_lat": 0.0}, {"lon": -77.001508, "name": "ede56162de49bdd63289fed17d89fd3a", "is_disabled": 0, "type": "electric_scooter", "is_reserved": 0, "fusion_lon": 0.0, "lat": 38.89476583333333, "rental_uris": {"ios": "https://dc.lft.to/lastmile_qr_scan", "android": "https://dc.lft.to/lastmile_qr_scan"}, "bike_id": "ede56162de49bdd63289fed17d89fd3a", "fusion_lat": 0.0}, {"lon": -77.02508416666667, "name": "8bc39e3c3f2b876ae84f775ed872949e", "is_disabled": 0, "type": "electric_scooter", "is_reserved": 0, "fusion_lon": 0.0, "lat": 38.919323, "rental_uris": {"ios": "https://dc.lft.to/lastmile_qr_scan", "android": "https://dc.lft.to/lastmile_qr_scan"}, "bike_id": "8bc39e3c3f2b876ae84f775ed872949e", "fusion_lat": 0.0}, {"lon": -77.08999166666666, "name": "a39c0025ea47b80bba8a3c88973b2494", "is_disabled": 0, "type": "electric_bike", "is_reserved": 0, "fusion_lon": 0.0, "lat": 38.90904, "rental_uris": {"ios": "https://dc.lft.to/lastmile_qr_scan", "android": "https://dc.lft.to/lastmile_qr_scan"}, "bike_id": "a39c0025ea47b80bba8a3c88973b2494", "fusion_lat": 0.0}, {"lon": -77.05940366666667, "name": "43f6f97a1d6883a0fe42daf5b3374252", "is_disabled": 0, "type": "electric_scooter", "is_reserved": 0, "fusion_lon": 0.0, "lat": 38.93694133333333, "rental_uris": {"ios": "https://dc.lft.to/lastmile_qr_scan", "android": "https://dc.lft.to/lastmile_qr_scan"}, "bike_id": "43f6f97a1d6883a0fe42daf5b3374252", "fusion_lat": 0.0}, {"lon": -77.07124766666666, "name": "c0c4f68d5d6c585d32b78203844d992f", "is_disabled": 0, "type": "electric_scooter", "is_reserved": 0, "fusion_lon": 0.0, "lat": 38.920255166666664, "rental_uris": {"ios": "https://dc.lft.to/lastmile_qr_scan", "android": "https://dc.lft.to/lastmile_qr_scan"}, "bike_id": "c0c4f68d5d6c585d32b78203844d992f", "fusion_lat": 0.0}, {"lon": -77.01684283333333, "name": "e8a2a65565152ebd92fde16f1c64415f", "is_disabled": 0, "type": "electric_scooter", "is_reserved": 0, "fusion_lon": 0.0, "lat": 38.91084433333333, "rental_uris": {"ios": "https://dc.lft.to/lastmile_qr_scan", "android": "https://dc.lft.to/lastmile_qr_scan"}, "bike_id": "e8a2a65565152ebd92fde16f1c64415f", "fusion_lat": 0.0}, {"lon": -77.09595166666666, "name": "2d42be06d807d3510b5ea42d07926ba2", "is_disabled": 0, "type": "electric_bike", "is_reserved": 0, "fusion_lon": 0.0, "lat": 38.99189916666667, "rental_uris": {"ios": "https://dc.lft.to/lastmile_qr_scan", "android": "https://dc.lft.to/lastmile_qr_scan"}, "bike_id": "2d42be06d807d3510b5ea42d07926ba2", "fusion_lat": 0.0}, {"lon": -77.03290683333333, "name": "5039d808e8a07eaf4ffedbcaddeeef50", "is_disabled": 0, "type": "electric_scooter", "is_reserved": 0, "fusion_lon": 0.0, "lat": 38.956511166666665, "rental_uris": {"ios": "https://dc.lft.to/lastmile_qr_scan", "android": "https://dc.lft.to/lastmile_qr_scan"}, "bike_id": "5039d808e8a07eaf4ffedbcaddeeef50", "fusion_lat": 0.0}, {"lon": -77.03224866666666, "name": "afef39b74a118760a574ac89255a729a", "is_disabled": 0, "type": "electric_scooter", "is_reserved": 0, "fusion_lon": 0.0, "lat": 38.89226133333333, "rental_uris": {"ios": "https://dc.lft.to/lastmile_qr_scan", "android": "https://dc.lft.to/lastmile_qr_scan"}, "bike_id": "afef39b74a118760a574ac89255a729a", "fusion_lat": 0.0}, {"lon": -77.03288066666667, "name": "e3fdac34f9daeedae99590b94c7c623c", "is_disabled": 0, "type": "electric_scooter", "is_reserved": 0, "fusion_lon": 0.0, "lat": 38.920648, "rental_uris": {"ios": "https://dc.lft.to/lastmile_qr_scan", "android": "https://dc.lft.to/lastmile_qr_scan"}, "bike_id": "e3fdac34f9daeedae99590b94c7c623c", "fusion_lat": 0.0}, {"lon": -77.0275135, "name": "2a245641b9095e38163b9d4c8f7e78f1", "is_disabled": 0, "type": "electric_scooter", "is_reserved": 0, "fusion_lon": 0.0, "lat": 38.96646766666667, "rental_uris": {"ios": "https://dc.lft.to/lastmile_qr_scan", "android": "https://dc.lft.to/lastmile_qr_scan"}, "bike_id": "2a245641b9095e38163b9d4c8f7e78f1", "fusion_lat": 0.0}, {"lon": -77.00301266666666, "name": "c4064cfee839991af29b15f366f888f7", "is_disabled": 0, "type": "electric_scooter", "is_reserved": 0, "fusion_lon": 0.0, "lat": 38.8337835, "rental_uris": {"ios": "https://dc.lft.to/lastmile_qr_scan", "android": "https://dc.lft.to/lastmile_qr_scan"}, "bike_id": "c4064cfee839991af29b15f366f888f7", "fusion_lat": 0.0}, {"lon": -77.032081, "name": "05c3e32590f28a89c600a25b195c7aeb", "is_disabled": 0, "type": "electric_scooter", "is_reserved": 0, "fusion_lon": 0.0, "lat": 38.91734366666667, "rental_uris": {"ios": "https://dc.lft.to/lastmile_qr_scan", "android": "https://dc.lft.to/lastmile_qr_scan"}, "bike_id": "05c3e32590f28a89c600a25b195c7aeb", "fusion_lat": 0.0}, {"lon": -77.01378233333334, "name": "56f03a6bd9eae4281daeefcdd00f344a", "is_disabled": 0, "type": "electric_scooter", "is_reserved": 0, "fusion_lon": 0.0, "lat": 38.91038066666667, "rental_uris": {"ios": "https://dc.lft.to/lastmile_qr_scan", "android": "https://dc.lft.to/lastmile_qr_scan"}, "bike_id": "56f03a6bd9eae4281daeefcdd00f344a", "fusion_lat": 0.0}, {"lon": -77.02691783333333, "name": "bcafeb7ace82add81a3e89198994dc88", "is_disabled": 0, "type": "electric_scooter", "is_reserved": 0, "fusion_lon": 0.0, "lat": 38.9256305, "rental_uris": {"ios": "https://dc.lft.to/lastmile_qr_scan", "android": "https://dc.lft.to/lastmile_qr_scan"}, "bike_id": "bcafeb7ace82add81a3e89198994dc88", "fusion_lat": 0.0}, {"lon": -76.99008216666667, "name": "e4e81f05cac35dc3657aebb2ebba95c9", "is_disabled": 0, "type": "electric_scooter", "is_reserved": 0, "fusion_lon": 0.0, "lat": 38.90395016666667, "rental_uris": {"ios": "https://dc.lft.to/lastmile_qr_scan", "android": "https://dc.lft.to/lastmile_qr_scan"}, "bike_id": "e4e81f05cac35dc3657aebb2ebba95c9", "fusion_lat": 0.0}, {"lon": -77.04716516666667, "name": "9e485257a28b317970818fc3b1dbba62", "is_disabled": 0, "type": "electric_scooter", "is_reserved": 0, "fusion_lon": 0.0, "lat": 38.89964616666666, "rental_uris": {"ios": "https://dc.lft.to/lastmile_qr_scan", "android": "https://dc.lft.to/lastmile_qr_scan"}, "bike_id": "9e485257a28b317970818fc3b1dbba62", "fusion_lat": 0.0}, {"lon": -77.00378283333333, "name": "c77dab9adf3423efea5431606abb1ad7", "is_disabled": 0, "type": "electric_bike", "is_reserved": 0, "fusion_lon": 0.0, "lat": 38.836039666666665, "rental_uris": {"ios": "https://dc.lft.to/lastmile_qr_scan", "android": "https://dc.lft.to/lastmile_qr_scan"}, "bike_id": "c77dab9adf3423efea5431606abb1ad7", "fusion_lat": 0.0}, {"lon": -77.04592233333334, "name": "868f3d176f5d355e5482a6ee6428d111", "is_disabled": 0, "type": "electric_scooter", "is_reserved": 0, "fusion_lon": 0.0, "lat": 38.900191, "rental_uris": {"ios": "https://dc.lft.to/lastmile_qr_scan", "android": "https://dc.lft.to/lastmile_qr_scan"}, "bike_id": "868f3d176f5d355e5482a6ee6428d111", "fusion_lat": 0.0}, {"lon": -77.0279625, "name": "ed34f6fd61367c0f494dcec7fee25f6d", "is_disabled": 0, "type": "electric_scooter", "is_reserved": 0, "fusion_lon": 0.0, "lat": 38.930786499999996, "rental_uris": {"ios": "https://dc.lft.to/lastmile_qr_scan", "android": "https://dc.lft.to/lastmile_qr_scan"}, "bike_id": "ed34f6fd61367c0f494dcec7fee25f6d", "fusion_lat": 0.0}, {"lon": -77.0473245, "name": "ed2b6940391b604a89cfb8cc611e51f5", "is_disabled": 0, "type": "electric_scooter", "is_reserved": 0, "fusion_lon": 0.0, "lat": 38.913369, "rental_uris": {"ios": "https://dc.lft.to/lastmile_qr_scan", "android": "https://dc.lft.to/lastmile_qr_scan"}, "bike_id": "ed2b6940391b604a89cfb8cc611e51f5", "fusion_lat": 0.0}, {"lon": -77.0749485, "name": "420c7d8b34d3bdf9f38b3784915788b2", "is_disabled": 0, "type": "electric_scooter", "is_reserved": 0, "fusion_lon": 0.0, "lat": 38.911852, "rental_uris": {"ios": "https://dc.lft.to/lastmile_qr_scan", "android": "https://dc.lft.to/lastmile_qr_scan"}, "bike_id": "420c7d8b34d3bdf9f38b3784915788b2", "fusion_lat": 0.0}, {"lon": -76.973323, "name": "a4401c933f729c4543bc2cc2ef14cbbb", "is_disabled": 0, "type": "electric_bike", "is_reserved": 0, "fusion_lon": 0.0, "lat": 38.865098333333336, "rental_uris": {"ios": "https://dc.lft.to/lastmile_qr_scan", "android": "https://dc.lft.to/lastmile_qr_scan"}, "bike_id": "a4401c933f729c4543bc2cc2ef14cbbb", "fusion_lat": 0.0}, {"lon": -77.03354083333333, "name": "a25be2b3478b52581ff13f5971e163d4", "is_disabled": 0, "type": "electric_scooter", "is_reserved": 0, "fusion_lon": 0.0, "lat": 38.88485383333333, "rental_uris": {"ios": "https://dc.lft.to/lastmile_qr_scan", "android": "https://dc.lft.to/lastmile_qr_scan"}, "bike_id": "a25be2b3478b52581ff13f5971e163d4", "fusion_lat": 0.0}, {"lon": -77.01701333333334, "name": "df3dee0301acd5017fd4f46a427bca77", "is_disabled": 0, "type": "electric_scooter", "is_reserved": 0, "fusion_lon": 0.0, "lat": 38.9075785, "rental_uris": {"ios": "https://dc.lft.to/lastmile_qr_scan", "android": "https://dc.lft.to/lastmile_qr_scan"}, "bike_id": "df3dee0301acd5017fd4f46a427bca77", "fusion_lat": 0.0}, {"lon": -77.0344045, "name": "69e6a16271a6d20d101fce7c526c4459", "is_disabled": 0, "type": "electric_scooter", "is_reserved": 0, "fusion_lon": 0.0, "lat": 38.9008785, "rental_uris": {"ios": "https://dc.lft.to/lastmile_qr_scan", "android": "https://dc.lft.to/lastmile_qr_scan"}, "bike_id": "69e6a16271a6d20d101fce7c526c4459", "fusion_lat": 0.0}, {"lon": -77.00332016666667, "name": "fb9b47eae809ac00552fd03ba99fcd13", "is_disabled": 0, "type": "electric_scooter", "is_reserved": 0, "fusion_lon": 0.0, "lat": 38.893624, "rental_uris": {"ios": "https://dc.lft.to/lastmile_qr_scan", "android": "https://dc.lft.to/lastmile_qr_scan"}, "bike_id": "fb9b47eae809ac00552fd03ba99fcd13", "fusion_lat": 0.0}, {"lon": -77.0299545, "name": "a73572d8bd9e8e1fc19c930d20ce9f8f", "is_disabled": 0, "type": "electric_scooter", "is_reserved": 0, "fusion_lon": 0.0, "lat": 38.9224665, "rental_uris": {"ios": "https://dc.lft.to/lastmile_qr_scan", "android": "https://dc.lft.to/lastmile_qr_scan"}, "bike_id": "a73572d8bd9e8e1fc19c930d20ce9f8f", "fusion_lat": 0.0}, {"lon": -77.01941833333333, "name": "ce7a7135d47eed91dffdbe50915e5183", "is_disabled": 0, "type": "electric_scooter", "is_reserved": 0, "fusion_lon": 0.0, "lat": 38.956395666666666, "rental_uris": {"ios": "https://dc.lft.to/lastmile_qr_scan", "android": "https://dc.lft.to/lastmile_qr_scan"}, "bike_id": "ce7a7135d47eed91dffdbe50915e5183", "fusion_lat": 0.0}, {"lon": -77.02689816666667, "name": "07f258f55b86ff4678f870043ea49753", "is_disabled": 0, "type": "electric_scooter", "is_reserved": 0, "fusion_lon": 0.0, "lat": 38.901615, "rental_uris": {"ios": "https://dc.lft.to/lastmile_qr_scan", "android": "https://dc.lft.to/lastmile_qr_scan"}, "bike_id": "07f258f55b86ff4678f870043ea49753", "fusion_lat": 0.0}, {"lon": -77.0337255, "name": "fe23729e97370cb98d1e97f9a4d4c061", "is_disabled": 0, "type": "electric_scooter", "is_reserved": 0, "fusion_lon": 0.0, "lat": 38.905825666666665, "rental_uris": {"ios": "https://dc.lft.to/lastmile_qr_scan", "android": "https://dc.lft.to/lastmile_qr_scan"}, "bike_id": "fe23729e97370cb98d1e97f9a4d4c061", "fusion_lat": 0.0}, {"lon": -77.02406616666667, "name": "c31a44015c0d129c74632e62cb32c713", "is_disabled": 0, "type": "electric_scooter", "is_reserved": 0, "fusion_lon": 0.0, "lat": 38.941809166666665, "rental_uris": {"ios": "https://dc.lft.to/lastmile_qr_scan", "android": "https://dc.lft.to/lastmile_qr_scan"}, "bike_id": "c31a44015c0d129c74632e62cb32c713", "fusion_lat": 0.0}, {"lon": -76.9488905, "name": "ceaab2548c40b2b78be9cd2d738e650e", "is_disabled": 0, "type": "electric_scooter", "is_reserved": 0, "fusion_lon": 0.0, "lat": 38.89509816666666, "rental_uris": {"ios": "https://dc.lft.to/lastmile_qr_scan", "android": "https://dc.lft.to/lastmile_qr_scan"}, "bike_id": "ceaab2548c40b2b78be9cd2d738e650e", "fusion_lat": 0.0}, {"lon": -77.0091335, "name": "024cdac6f53454cfe7accdafd0557fc5", "is_disabled": 0, "type": "electric_scooter", "is_reserved": 0, "fusion_lon": 0.0, "lat": 38.89558683333333, "rental_uris": {"ios": "https://dc.lft.to/lastmile_qr_scan", "android": "https://dc.lft.to/lastmile_qr_scan"}, "bike_id": "024cdac6f53454cfe7accdafd0557fc5", "fusion_lat": 0.0}, {"lon": -77.148723, "name": "c6eab606f9cc660672ee4b7913780b36", "is_disabled": 0, "type": "electric_bike", "is_reserved": 0, "fusion_lon": 0.0, "lat": 38.87737116666667, "rental_uris": {"ios": "https://dc.lft.to/lastmile_qr_scan", "android": "https://dc.lft.to/lastmile_qr_scan"}, "bike_id": "c6eab606f9cc660672ee4b7913780b36", "fusion_lat": 0.0}, {"lon": -77.00331633333333, "name": "be7da4c19c53c1a06e0e757db89c82db", "is_disabled": 0, "type": "electric_scooter", "is_reserved": 0, "fusion_lon": 0.0, "lat": 38.89360033333333, "rental_uris": {"ios": "https://dc.lft.to/lastmile_qr_scan", "android": "https://dc.lft.to/lastmile_qr_scan"}, "bike_id": "be7da4c19c53c1a06e0e757db89c82db", "fusion_lat": 0.0}, {"lon": -77.02156983333333, "name": "44cf31e408df259048df3746359231dd", "is_disabled": 0, "type": "electric_scooter", "is_reserved": 0, "fusion_lon": 0.0, "lat": 38.92442283333333, "rental_uris": {"ios": "https://dc.lft.to/lastmile_qr_scan", "android": "https://dc.lft.to/lastmile_qr_scan"}, "bike_id": "44cf31e408df259048df3746359231dd", "fusion_lat": 0.0}, {"lon": -77.0255375, "name": "ac70cd19d412613847bfcc297fff924d", "is_disabled": 0, "type": "electric_scooter", "is_reserved": 0, "fusion_lon": 0.0, "lat": 38.895988333333335, "rental_uris": {"ios": "https://dc.lft.to/lastmile_qr_scan", "android": "https://dc.lft.to/lastmile_qr_scan"}, "bike_id": "ac70cd19d412613847bfcc297fff924d", "fusion_lat": 0.0}, {"lon": -77.03381266666666, "name": "761128b72cece2209dfba58ec26817d7", "is_disabled": 0, "type": "electric_scooter", "is_reserved": 0, "fusion_lon": 0.0, "lat": 38.930701666666664, "rental_uris": {"ios": "https://dc.lft.to/lastmile_qr_scan", "android": "https://dc.lft.to/lastmile_qr_scan"}, "bike_id": "761128b72cece2209dfba58ec26817d7", "fusion_lat": 0.0}, {"lon": -77.04908966666666, "name": "a6290ff032e4e91ac66fed50ba45178a", "is_disabled": 0, "type": "electric_scooter", "is_reserved": 0, "fusion_lon": 0.0, "lat": 38.91598366666667, "rental_uris": {"ios": "https://dc.lft.to/lastmile_qr_scan", "android": "https://dc.lft.to/lastmile_qr_scan"}, "bike_id": "a6290ff032e4e91ac66fed50ba45178a", "fusion_lat": 0.0}, {"lon": -76.99569383333333, "name": "c0adcc4bb9b5c3188c905ef8cc9c39c1", "is_disabled": 0, "type": "electric_scooter", "is_reserved": 0, "fusion_lon": 0.0, "lat": 38.92016066666667, "rental_uris": {"ios": "https://dc.lft.to/lastmile_qr_scan", "android": "https://dc.lft.to/lastmile_qr_scan"}, "bike_id": "c0adcc4bb9b5c3188c905ef8cc9c39c1", "fusion_lat": 0.0}, {"lon": -77.02510683333334, "name": "afcf899daa3b62af3d9bf7d6441f855e", "is_disabled": 0, "type": "electric_scooter", "is_reserved": 0, "fusion_lon": 0.0, "lat": 38.919315, "rental_uris": {"ios": "https://dc.lft.to/lastmile_qr_scan", "android": "https://dc.lft.to/lastmile_qr_scan"}, "bike_id": "afcf899daa3b62af3d9bf7d6441f855e", "fusion_lat": 0.0}, {"lon": -77.05316, "name": "763936cb78d6ceb79700e26beea10efe", "is_disabled": 0, "type": "electric_scooter", "is_reserved": 0, "fusion_lon": 0.0, "lat": 38.934611, "rental_uris": {"ios": "https://dc.lft.to/lastmile_qr_scan", "android": "https://dc.lft.to/lastmile_qr_scan"}, "bike_id": "763936cb78d6ceb79700e26beea10efe", "fusion_lat": 0.0}, {"lon": -77.0118425, "name": "027a64e0d40bbbc397d0836825379932", "is_disabled": 0, "type": "electric_scooter", "is_reserved": 0, "fusion_lon": 0.0, "lat": 38.8979555, "rental_uris": {"ios": "https://dc.lft.to/lastmile_qr_scan", "android": "https://dc.lft.to/lastmile_qr_scan"}, "bike_id": "027a64e0d40bbbc397d0836825379932", "fusion_lat": 0.0}, {"lon": -77.0020405, "name": "c19f14f77a61952b4fe604dddec99f33", "is_disabled": 0, "type": "electric_scooter", "is_reserved": 0, "fusion_lon": 0.0, "lat": 38.873935, "rental_uris": {"ios": "https://dc.lft.to/lastmile_qr_scan", "android": "https://dc.lft.to/lastmile_qr_scan"}, "bike_id": "c19f14f77a61952b4fe604dddec99f33", "fusion_lat": 0.0}, {"lon": -77.04481716666666, "name": "3bcf4355a99adb0f6785c91839ca9645", "is_disabled": 0, "type": "electric_scooter", "is_reserved": 0, "fusion_lon": 0.0, "lat": 38.893582, "rental_uris": {"ios": "https://dc.lft.to/lastmile_qr_scan", "android": "https://dc.lft.to/lastmile_qr_scan"}, "bike_id": "3bcf4355a99adb0f6785c91839ca9645", "fusion_lat": 0.0}, {"lon": -76.97264583333333, "name": "f1103afe5a509d5cb76f1d1ba55a76d1", "is_disabled": 0, "type": "electric_bike", "is_reserved": 0, "fusion_lon": 0.0, "lat": 38.8559295, "rental_uris": {"ios": "https://dc.lft.to/lastmile_qr_scan", "android": "https://dc.lft.to/lastmile_qr_scan"}, "bike_id": "f1103afe5a509d5cb76f1d1ba55a76d1", "fusion_lat": 0.0}, {"lon": -77.02054233333334, "name": "c8ff8430b0c002e7e12bee5ea1c5dfb0", "is_disabled": 0, "type": "electric_scooter", "is_reserved": 0, "fusion_lon": 0.0, "lat": 38.919078666666664, "rental_uris": {"ios": "https://dc.lft.to/lastmile_qr_scan", "android": "https://dc.lft.to/lastmile_qr_scan"}, "bike_id": "c8ff8430b0c002e7e12bee5ea1c5dfb0", "fusion_lat": 0.0}, {"lon": -77.04508166666666, "name": "77351b76184feb90d333a03429c4dcde", "is_disabled": 0, "type": "electric_scooter", "is_reserved": 0, "fusion_lon": 0.0, "lat": 38.907837, "rental_uris": {"ios": "https://dc.lft.to/lastmile_qr_scan", "android": "https://dc.lft.to/lastmile_qr_scan"}, "bike_id": "77351b76184feb90d333a03429c4dcde", "fusion_lat": 0.0}, {"lon": -77.03485066666667, "name": "7e0091f4a81318dc6bd99edea193ea24", "is_disabled": 0, "type": "electric_scooter", "is_reserved": 0, "fusion_lon": 0.0, "lat": 38.92353833333333, "rental_uris": {"ios": "https://dc.lft.to/lastmile_qr_scan", "android": "https://dc.lft.to/lastmile_qr_scan"}, "bike_id": "7e0091f4a81318dc6bd99edea193ea24", "fusion_lat": 0.0}, {"lon": -77.02193233333334, "name": "fba9d71d37d9397460e64e3dfd66441b", "is_disabled": 0, "type": "electric_scooter", "is_reserved": 0, "fusion_lon": 0.0, "lat": 38.91125433333333, "rental_uris": {"ios": "https://dc.lft.to/lastmile_qr_scan", "android": "https://dc.lft.to/lastmile_qr_scan"}, "bike_id": "fba9d71d37d9397460e64e3dfd66441b", "fusion_lat": 0.0}, {"lon": -77.018779, "name": "9dd6fd8d101db336d0336949f5fbaadb", "is_disabled": 0, "type": "electric_scooter", "is_reserved": 0, "fusion_lon": 0.0, "lat": 38.881254166666665, "rental_uris": {"ios": "https://dc.lft.to/lastmile_qr_scan", "android": "https://dc.lft.to/lastmile_qr_scan"}, "bike_id": "9dd6fd8d101db336d0336949f5fbaadb", "fusion_lat": 0.0}, {"lon": -77.03926966666667, "name": "c966bd4226abe221b6cbb655e629e02f", "is_disabled": 0, "type": "electric_scooter", "is_reserved": 0, "fusion_lon": 0.0, "lat": 38.899094166666664, "rental_uris": {"ios": "https://dc.lft.to/lastmile_qr_scan", "android": "https://dc.lft.to/lastmile_qr_scan"}, "bike_id": "c966bd4226abe221b6cbb655e629e02f", "fusion_lat": 0.0}, {"lon": -77.01843266666667, "name": "6c17bf855eb928b76579c3899d93a879", "is_disabled": 0, "type": "electric_scooter", "is_reserved": 0, "fusion_lon": 0.0, "lat": 38.9072995, "rental_uris": {"ios": "https://dc.lft.to/lastmile_qr_scan", "android": "https://dc.lft.to/lastmile_qr_scan"}, "bike_id": "6c17bf855eb928b76579c3899d93a879", "fusion_lat": 0.0}, {"lon": -77.06431383333333, "name": "e8a67c2e32c38f71573cb875420ad4cf", "is_disabled": 0, "type": "electric_scooter", "is_reserved": 0, "fusion_lon": 0.0, "lat": 38.905200666666666, "rental_uris": {"ios": "https://dc.lft.to/lastmile_qr_scan", "android": "https://dc.lft.to/lastmile_qr_scan"}, "bike_id": "e8a67c2e32c38f71573cb875420ad4cf", "fusion_lat": 0.0}, {"lon": -77.03214416666667, "name": "20b45bac217d94822786140ff9d904b7", "is_disabled": 0, "type": "electric_bike", "is_reserved": 0, "fusion_lon": 0.0, "lat": 38.90037266666667, "rental_uris": {"ios": "https://dc.lft.to/lastmile_qr_scan", "android": "https://dc.lft.to/lastmile_qr_scan"}, "bike_id": "20b45bac217d94822786140ff9d904b7", "fusion_lat": 0.0}, {"lon": -77.02132083333333, "name": "29cbec1afc618b0792efdb749926cf18", "is_disabled": 0, "type": "electric_scooter", "is_reserved": 0, "fusion_lon": 0.0, "lat": 38.92415, "rental_uris": {"ios": "https://dc.lft.to/lastmile_qr_scan", "android": "https://dc.lft.to/lastmile_qr_scan"}, "bike_id": "29cbec1afc618b0792efdb749926cf18", "fusion_lat": 0.0}, {"lon": -77.03208733333334, "name": "152ac39d9aaf9b8e0daa988f2aff04e2", "is_disabled": 0, "type": "electric_scooter", "is_reserved": 0, "fusion_lon": 0.0, "lat": 38.893626, "rental_uris": {"ios": "https://dc.lft.to/lastmile_qr_scan", "android": "https://dc.lft.to/lastmile_qr_scan"}, "bike_id": "152ac39d9aaf9b8e0daa988f2aff04e2", "fusion_lat": 0.0}, {"lon": -77.02818433333333, "name": "91a2619c3dadcad640b39e5ae24688a7", "is_disabled": 0, "type": "electric_scooter", "is_reserved": 0, "fusion_lon": 0.0, "lat": 38.893614166666666, "rental_uris": {"ios": "https://dc.lft.to/lastmile_qr_scan", "android": "https://dc.lft.to/lastmile_qr_scan"}, "bike_id": "91a2619c3dadcad640b39e5ae24688a7", "fusion_lat": 0.0}, {"lon": -77.031136, "name": "f27e2231dfa8a1fd6e9bd792232630b1", "is_disabled": 0, "type": "electric_scooter", "is_reserved": 0, "fusion_lon": 0.0, "lat": 38.92678883333333, "rental_uris": {"ios": "https://dc.lft.to/lastmile_qr_scan", "android": "https://dc.lft.to/lastmile_qr_scan"}, "bike_id": "f27e2231dfa8a1fd6e9bd792232630b1", "fusion_lat": 0.0}, {"lon": -77.04676983333333, "name": "fb70d75fb8df279a33cd0993627fd870", "is_disabled": 0, "type": "electric_scooter", "is_reserved": 0, "fusion_lon": 0.0, "lat": 38.89559833333333, "rental_uris": {"ios": "https://dc.lft.to/lastmile_qr_scan", "android": "https://dc.lft.to/lastmile_qr_scan"}, "bike_id": "fb70d75fb8df279a33cd0993627fd870", "fusion_lat": 0.0}, {"lon": -77.02153866666667, "name": "4d726fe99a71cad798711f2b7525db59", "is_disabled": 0, "type": "electric_scooter", "is_reserved": 0, "fusion_lon": 0.0, "lat": 38.924535666666664, "rental_uris": {"ios": "https://dc.lft.to/lastmile_qr_scan", "android": "https://dc.lft.to/lastmile_qr_scan"}, "bike_id": "4d726fe99a71cad798711f2b7525db59", "fusion_lat": 0.0}, {"lon": -77.02222033333334, "name": "4801bc9a2b2dad5fda79d38aeaca9ba9", "is_disabled": 0, "type": "electric_scooter", "is_reserved": 0, "fusion_lon": 0.0, "lat": 38.92464066666667, "rental_uris": {"ios": "https://dc.lft.to/lastmile_qr_scan", "android": "https://dc.lft.to/lastmile_qr_scan"}, "bike_id": "4801bc9a2b2dad5fda79d38aeaca9ba9", "fusion_lat": 0.0}, {"lon": -77.22571516666666, "name": "4953a27eb7a11f9a3e214476919101cc", "is_disabled": 0, "type": "electric_bike", "is_reserved": 0, "fusion_lon": 0.0, "lat": 38.929686, "rental_uris": {"ios": "https://dc.lft.to/lastmile_qr_scan", "android": "https://dc.lft.to/lastmile_qr_scan"}, "bike_id": "4953a27eb7a11f9a3e214476919101cc", "fusion_lat": 0.0}, {"lon": -77.01063283333333, "name": "4082eedf928f479aa6a8800cc5b3b348", "is_disabled": 0, "type": "electric_scooter", "is_reserved": 0, "fusion_lon": 0.0, "lat": 38.87734433333333, "rental_uris": {"ios": "https://dc.lft.to/lastmile_qr_scan", "android": "https://dc.lft.to/lastmile_qr_scan"}, "bike_id": "4082eedf928f479aa6a8800cc5b3b348", "fusion_lat": 0.0}, {"lon": -77.011591, "name": "87127078646e9bb02ba6ffab0a6e6303", "is_disabled": 0, "type": "electric_scooter", "is_reserved": 0, "fusion_lon": 0.0, "lat": 38.9170725, "rental_uris": {"ios": "https://dc.lft.to/lastmile_qr_scan", "android": "https://dc.lft.to/lastmile_qr_scan"}, "bike_id": "87127078646e9bb02ba6ffab0a6e6303", "fusion_lat": 0.0}, {"lon": -77.03863116666666, "name": "9b2a6e60a485323dab9442031185d06b", "is_disabled": 0, "type": "electric_scooter", "is_reserved": 0, "fusion_lon": 0.0, "lat": 38.917102, "rental_uris": {"ios": "https://dc.lft.to/lastmile_qr_scan", "android": "https://dc.lft.to/lastmile_qr_scan"}, "bike_id": "9b2a6e60a485323dab9442031185d06b", "fusion_lat": 0.0}, {"lon": -76.929454, "name": "087c8465b70d4ab055464be890c3926f", "is_disabled": 0, "type": "electric_scooter", "is_reserved": 0, "fusion_lon": 0.0, "lat": 38.9017635, "rental_uris": {"ios": "https://dc.lft.to/lastmile_qr_scan", "android": "https://dc.lft.to/lastmile_qr_scan"}, "bike_id": "087c8465b70d4ab055464be890c3926f", "fusion_lat": 0.0}, {"lon": -77.03411233333334, "name": "a92cf5a3db3842b098a493aa794c25d9", "is_disabled": 0, "type": "electric_scooter", "is_reserved": 0, "fusion_lon": 0.0, "lat": 38.92043366666667, "rental_uris": {"ios": "https://dc.lft.to/lastmile_qr_scan", "android": "https://dc.lft.to/lastmile_qr_scan"}, "bike_id": "a92cf5a3db3842b098a493aa794c25d9", "fusion_lat": 0.0}, {"lon": -77.02003566666667, "name": "c2ceaab41fdb622399199852c81a38ed", "is_disabled": 0, "type": "electric_scooter", "is_reserved": 0, "fusion_lon": 0.0, "lat": 38.8855245, "rental_uris": {"ios": "https://dc.lft.to/lastmile_qr_scan", "android": "https://dc.lft.to/lastmile_qr_scan"}, "bike_id": "c2ceaab41fdb622399199852c81a38ed", "fusion_lat": 0.0}, {"lon": -77.006989, "name": "2ac819731bf351e8a9de6567b63a44e5", "is_disabled": 0, "type": "electric_scooter", "is_reserved": 0, "fusion_lon": 0.0, "lat": 38.90249566666667, "rental_uris": {"ios": "https://dc.lft.to/lastmile_qr_scan", "android": "https://dc.lft.to/lastmile_qr_scan"}, "bike_id": "2ac819731bf351e8a9de6567b63a44e5", "fusion_lat": 0.0}, {"lon": -77.00787233333334, "name": "281fa97f015980c156fdfcaef9eb0e2a", "is_disabled": 0, "type": "electric_scooter", "is_reserved": 0, "fusion_lon": 0.0, "lat": 38.9267095, "rental_uris": {"ios": "https://dc.lft.to/lastmile_qr_scan", "android": "https://dc.lft.to/lastmile_qr_scan"}, "bike_id": "281fa97f015980c156fdfcaef9eb0e2a", "fusion_lat": 0.0}, {"lon": -76.957692, "name": "3f579ab154d610b873c025f5f32fe64b", "is_disabled": 0, "type": "electric_scooter", "is_reserved": 0, "fusion_lon": 0.0, "lat": 38.88356483333333, "rental_uris": {"ios": "https://dc.lft.to/lastmile_qr_scan", "android": "https://dc.lft.to/lastmile_qr_scan"}, "bike_id": "3f579ab154d610b873c025f5f32fe64b", "fusion_lat": 0.0}, {"lon": -77.0317445, "name": "9bef4036fb95a7c154883738ff29718c", "is_disabled": 0, "type": "electric_scooter", "is_reserved": 0, "fusion_lon": 0.0, "lat": 38.892278833333336, "rental_uris": {"ios": "https://dc.lft.to/lastmile_qr_scan", "android": "https://dc.lft.to/lastmile_qr_scan"}, "bike_id": "9bef4036fb95a7c154883738ff29718c", "fusion_lat": 0.0}, {"lon": -77.043674, "name": "92f190267a854b5457fa57e596d4be6a", "is_disabled": 0, "type": "electric_scooter", "is_reserved": 0, "fusion_lon": 0.0, "lat": 38.92240316666667, "rental_uris": {"ios": "https://dc.lft.to/lastmile_qr_scan", "android": "https://dc.lft.to/lastmile_qr_scan"}, "bike_id": "92f190267a854b5457fa57e596d4be6a", "fusion_lat": 0.0}, {"lon": -77.01951766666667, "name": "0292637de7d61483ebcdc472c53f6973", "is_disabled": 0, "type": "electric_scooter", "is_reserved": 0, "fusion_lon": 0.0, "lat": 38.9225745, "rental_uris": {"ios": "https://dc.lft.to/lastmile_qr_scan", "android": "https://dc.lft.to/lastmile_qr_scan"}, "bike_id": "0292637de7d61483ebcdc472c53f6973", "fusion_lat": 0.0}, {"lon": -77.00216483333334, "name": "a929d4c6cbdc52dff5f027a1fbbbeaac", "is_disabled": 0, "type": "electric_scooter", "is_reserved": 0, "fusion_lon": 0.0, "lat": 38.957367166666664, "rental_uris": {"ios": "https://dc.lft.to/lastmile_qr_scan", "android": "https://dc.lft.to/lastmile_qr_scan"}, "bike_id": "a929d4c6cbdc52dff5f027a1fbbbeaac", "fusion_lat": 0.0}, {"lon": -77.02883133333333, "name": "ce11a03e9e1eba7077ced75426029a49", "is_disabled": 0, "type": "electric_bike", "is_reserved": 0, "fusion_lon": 0.0, "lat": 38.902316666666664, "rental_uris": {"ios": "https://dc.lft.to/lastmile_qr_scan", "android": "https://dc.lft.to/lastmile_qr_scan"}, "bike_id": "ce11a03e9e1eba7077ced75426029a49", "fusion_lat": 0.0}, {"lon": -77.02781083333333, "name": "0bd5331d2f9c3eb49f8739e928d65711", "is_disabled": 0, "type": "electric_scooter", "is_reserved": 0, "fusion_lon": 0.0, "lat": 38.941204666666664, "rental_uris": {"ios": "https://dc.lft.to/lastmile_qr_scan", "android": "https://dc.lft.to/lastmile_qr_scan"}, "bike_id": "0bd5331d2f9c3eb49f8739e928d65711", "fusion_lat": 0.0}, {"lon": -77.040653, "name": "2b49f80e9b98e2c5f4ccd05c8f452432", "is_disabled": 0, "type": "electric_scooter", "is_reserved": 0, "fusion_lon": 0.0, "lat": 38.905047333333336, "rental_uris": {"ios": "https://dc.lft.to/lastmile_qr_scan", "android": "https://dc.lft.to/lastmile_qr_scan"}, "bike_id": "2b49f80e9b98e2c5f4ccd05c8f452432", "fusion_lat": 0.0}, {"lon": -77.034792, "name": "3beceb18e5dadf8b4cf4246a8dd0ed8c", "is_disabled": 0, "type": "electric_scooter", "is_reserved": 0, "fusion_lon": 0.0, "lat": 38.901430166666664, "rental_uris": {"ios": "https://dc.lft.to/lastmile_qr_scan", "android": "https://dc.lft.to/lastmile_qr_scan"}, "bike_id": "3beceb18e5dadf8b4cf4246a8dd0ed8c", "fusion_lat": 0.0}, {"lon": -77.01951816666667, "name": "dcc37a110642db513710e53ab2b01605", "is_disabled": 0, "type": "electric_scooter", "is_reserved": 0, "fusion_lon": 0.0, "lat": 38.92254633333334, "rental_uris": {"ios": "https://dc.lft.to/lastmile_qr_scan", "android": "https://dc.lft.to/lastmile_qr_scan"}, "bike_id": "dcc37a110642db513710e53ab2b01605", "fusion_lat": 0.0}, {"lon": -77.0129215, "name": "a7c0f47025be8000494195d0623f2f8d", "is_disabled": 0, "type": "electric_bike", "is_reserved": 0, "fusion_lon": 0.0, "lat": 38.88154266666667, "rental_uris": {"ios": "https://dc.lft.to/lastmile_qr_scan", "android": "https://dc.lft.to/lastmile_qr_scan"}, "bike_id": "a7c0f47025be8000494195d0623f2f8d", "fusion_lat": 0.0}, {"lon": -77.063754, "name": "10f8fa1dd6c4f0b9bd71ff005f396f59", "is_disabled": 0, "type": "electric_scooter", "is_reserved": 0, "fusion_lon": 0.0, "lat": 38.908048, "rental_uris": {"ios": "https://dc.lft.to/lastmile_qr_scan", "android": "https://dc.lft.to/lastmile_qr_scan"}, "bike_id": "10f8fa1dd6c4f0b9bd71ff005f396f59", "fusion_lat": 0.0}, {"lon": -76.95137083333333, "name": "08aa9fa666f7b0a56cf13ea409df0cff", "is_disabled": 0, "type": "electric_bike", "is_reserved": 0, "fusion_lon": 0.0, "lat": 39.08427316666667, "rental_uris": {"ios": "https://dc.lft.to/lastmile_qr_scan", "android": "https://dc.lft.to/lastmile_qr_scan"}, "bike_id": "08aa9fa666f7b0a56cf13ea409df0cff", "fusion_lat": 0.0}, {"lon": -76.93594116666667, "name": "9c4a64f5e8a04553e055cc69a5d94772", "is_disabled": 0, "type": "electric_scooter", "is_reserved": 0, "fusion_lon": 0.0, "lat": 38.90946433333333, "rental_uris": {"ios": "https://dc.lft.to/lastmile_qr_scan", "android": "https://dc.lft.to/lastmile_qr_scan"}, "bike_id": "9c4a64f5e8a04553e055cc69a5d94772", "fusion_lat": 0.0}, {"lon": -77.04299333333333, "name": "1321e469857c2837ec73527f3caae00e", "is_disabled": 0, "type": "electric_scooter", "is_reserved": 0, "fusion_lon": 0.0, "lat": 38.92259283333333, "rental_uris": {"ios": "https://dc.lft.to/lastmile_qr_scan", "android": "https://dc.lft.to/lastmile_qr_scan"}, "bike_id": "1321e469857c2837ec73527f3caae00e", "fusion_lat": 0.0}, {"lon": -77.03988483333333, "name": "d0d3fa865ae5863c11d966d6050889f2", "is_disabled": 0, "type": "electric_scooter", "is_reserved": 0, "fusion_lon": 0.0, "lat": 38.90612933333333, "rental_uris": {"ios": "https://dc.lft.to/lastmile_qr_scan", "android": "https://dc.lft.to/lastmile_qr_scan"}, "bike_id": "d0d3fa865ae5863c11d966d6050889f2", "fusion_lat": 0.0}, {"lon": -77.045932, "name": "d4842a6fbd036d4a23dea7c0ed13a893", "is_disabled": 0, "type": "electric_scooter", "is_reserved": 0, "fusion_lon": 0.0, "lat": 38.900628, "rental_uris": {"ios": "https://dc.lft.to/lastmile_qr_scan", "android": "https://dc.lft.to/lastmile_qr_scan"}, "bike_id": "d4842a6fbd036d4a23dea7c0ed13a893", "fusion_lat": 0.0}, {"lon": -77.0216205, "name": "cf690404116742f04a4d39b714f34461", "is_disabled": 0, "type": "electric_scooter", "is_reserved": 0, "fusion_lon": 0.0, "lat": 38.91631016666667, "rental_uris": {"ios": "https://dc.lft.to/lastmile_qr_scan", "android": "https://dc.lft.to/lastmile_qr_scan"}, "bike_id": "cf690404116742f04a4d39b714f34461", "fusion_lat": 0.0}, {"lon": -76.9885745, "name": "6182cce1de1759897a96bc6f221915c2", "is_disabled": 0, "type": "electric_scooter", "is_reserved": 0, "fusion_lon": 0.0, "lat": 38.9002845, "rental_uris": {"ios": "https://dc.lft.to/lastmile_qr_scan", "android": "https://dc.lft.to/lastmile_qr_scan"}, "bike_id": "6182cce1de1759897a96bc6f221915c2", "fusion_lat": 0.0}, {"lon": -77.01276616666667, "name": "e842c75cfb340f55add912174bb76cd7", "is_disabled": 0, "type": "electric_scooter", "is_reserved": 0, "fusion_lon": 0.0, "lat": 38.90953016666667, "rental_uris": {"ios": "https://dc.lft.to/lastmile_qr_scan", "android": "https://dc.lft.to/lastmile_qr_scan"}, "bike_id": "e842c75cfb340f55add912174bb76cd7", "fusion_lat": 0.0}, {"lon": -77.02142483333333, "name": "70a8b3b6542d2a9ac59948c419ecc73d", "is_disabled": 0, "type": "electric_scooter", "is_reserved": 0, "fusion_lon": 0.0, "lat": 38.92423683333333, "rental_uris": {"ios": "https://dc.lft.to/lastmile_qr_scan", "android": "https://dc.lft.to/lastmile_qr_scan"}, "bike_id": "70a8b3b6542d2a9ac59948c419ecc73d", "fusion_lat": 0.0}, {"lon": -76.99115983333333, "name": "b7dad9aed1e6b6fb492c1525dceea694", "is_disabled": 0, "type": "electric_scooter", "is_reserved": 0, "fusion_lon": 0.0, "lat": 38.86329633333333, "rental_uris": {"ios": "https://dc.lft.to/lastmile_qr_scan", "android": "https://dc.lft.to/lastmile_qr_scan"}, "bike_id": "b7dad9aed1e6b6fb492c1525dceea694", "fusion_lat": 0.0}, {"lon": -77.021521, "name": "8cae1b0ea4c225e05d31d637ca8daf83", "is_disabled": 0, "type": "electric_scooter", "is_reserved": 0, "fusion_lon": 0.0, "lat": 38.924582, "rental_uris": {"ios": "https://dc.lft.to/lastmile_qr_scan", "android": "https://dc.lft.to/lastmile_qr_scan"}, "bike_id": "8cae1b0ea4c225e05d31d637ca8daf83", "fusion_lat": 0.0}, {"lon": -77.02939816666667, "name": "346de9695f73a040e42afa87df1d87be", "is_disabled": 0, "type": "electric_scooter", "is_reserved": 0, "fusion_lon": 0.0, "lat": 38.903660333333335, "rental_uris": {"ios": "https://dc.lft.to/lastmile_qr_scan", "android": "https://dc.lft.to/lastmile_qr_scan"}, "bike_id": "346de9695f73a040e42afa87df1d87be", "fusion_lat": 0.0}, {"lon": -77.0159785, "name": "1da9631a2792bd96f2b73ccefb46d866", "is_disabled": 0, "type": "electric_scooter", "is_reserved": 0, "fusion_lon": 0.0, "lat": 38.87465316666667, "rental_uris": {"ios": "https://dc.lft.to/lastmile_qr_scan", "android": "https://dc.lft.to/lastmile_qr_scan"}, "bike_id": "1da9631a2792bd96f2b73ccefb46d866", "fusion_lat": 0.0}, {"lon": -77.01506083333334, "name": "0fa226e32af3612c44aa2951db0ca9dd", "is_disabled": 0, "type": "electric_scooter", "is_reserved": 0, "fusion_lon": 0.0, "lat": 38.89968966666667, "rental_uris": {"ios": "https://dc.lft.to/lastmile_qr_scan", "android": "https://dc.lft.to/lastmile_qr_scan"}, "bike_id": "0fa226e32af3612c44aa2951db0ca9dd", "fusion_lat": 0.0}, {"lon": -77.08329166666667, "name": "bb726ab99eb329af985ed605998c5d7e", "is_disabled": 0, "type": "electric_scooter", "is_reserved": 0, "fusion_lon": 0.0, "lat": 38.92988116666667, "rental_uris": {"ios": "https://dc.lft.to/lastmile_qr_scan", "android": "https://dc.lft.to/lastmile_qr_scan"}, "bike_id": "bb726ab99eb329af985ed605998c5d7e", "fusion_lat": 0.0}, {"lon": -76.9556335, "name": "61593b184807d1473686f93148bb2059", "is_disabled": 0, "type": "electric_bike", "is_reserved": 0, "fusion_lon": 0.0, "lat": 38.98501533333334, "rental_uris": {"ios": "https://dc.lft.to/lastmile_qr_scan", "android": "https://dc.lft.to/lastmile_qr_scan"}, "bike_id": "61593b184807d1473686f93148bb2059", "fusion_lat": 0.0}, {"lon": -77.02084166666667, "name": "014dd257fa5f98ef52515c64d38c37fa", "is_disabled": 0, "type": "electric_scooter", "is_reserved": 0, "fusion_lon": 0.0, "lat": 38.927215833333335, "rental_uris": {"ios": "https://dc.lft.to/lastmile_qr_scan", "android": "https://dc.lft.to/lastmile_qr_scan"}, "bike_id": "014dd257fa5f98ef52515c64d38c37fa", "fusion_lat": 0.0}, {"lon": -77.02985066666666, "name": "39481ae75cac821d49f678ad92cb63ad", "is_disabled": 0, "type": "electric_scooter", "is_reserved": 0, "fusion_lon": 0.0, "lat": 38.942615, "rental_uris": {"ios": "https://dc.lft.to/lastmile_qr_scan", "android": "https://dc.lft.to/lastmile_qr_scan"}, "bike_id": "39481ae75cac821d49f678ad92cb63ad", "fusion_lat": 0.0}, {"lon": -76.952575, "name": "ed5393e240624f206ec7571dfa3b2f34", "is_disabled": 0, "type": "electric_bike", "is_reserved": 0, "fusion_lon": 0.0, "lat": 38.906942, "rental_uris": {"ios": "https://dc.lft.to/lastmile_qr_scan", "android": "https://dc.lft.to/lastmile_qr_scan"}, "bike_id": "ed5393e240624f206ec7571dfa3b2f34", "fusion_lat": 0.0}, {"lon": -77.02026733333334, "name": "a9cea999d17cf98fe4ee46c5af6b5d64", "is_disabled": 0, "type": "electric_scooter", "is_reserved": 0, "fusion_lon": 0.0, "lat": 38.921617499999996, "rental_uris": {"ios": "https://dc.lft.to/lastmile_qr_scan", "android": "https://dc.lft.to/lastmile_qr_scan"}, "bike_id": "a9cea999d17cf98fe4ee46c5af6b5d64", "fusion_lat": 0.0}, {"lon": -77.01757616666667, "name": "9842042007ce19964902531305483b9a", "is_disabled": 0, "type": "electric_scooter", "is_reserved": 0, "fusion_lon": 0.0, "lat": 38.88214216666667, "rental_uris": {"ios": "https://dc.lft.to/lastmile_qr_scan", "android": "https://dc.lft.to/lastmile_qr_scan"}, "bike_id": "9842042007ce19964902531305483b9a", "fusion_lat": 0.0}, {"lon": -77.049977, "name": "1fbe1c7430449f76b02f060009683f19", "is_disabled": 0, "type": "electric_scooter", "is_reserved": 0, "fusion_lon": 0.0, "lat": 38.892305666666665, "rental_uris": {"ios": "https://dc.lft.to/lastmile_qr_scan", "android": "https://dc.lft.to/lastmile_qr_scan"}, "bike_id": "1fbe1c7430449f76b02f060009683f19", "fusion_lat": 0.0}, {"lon": -77.02973233333333, "name": "66e4d7aebe7bcaaaaadab8d8a8191b62", "is_disabled": 0, "type": "electric_scooter", "is_reserved": 0, "fusion_lon": 0.0, "lat": 38.9188385, "rental_uris": {"ios": "https://dc.lft.to/lastmile_qr_scan", "android": "https://dc.lft.to/lastmile_qr_scan"}, "bike_id": "66e4d7aebe7bcaaaaadab8d8a8191b62", "fusion_lat": 0.0}, {"lon": -77.00320083333334, "name": "e8de3ece0c589012c4bcc72489570c9d", "is_disabled": 0, "type": "electric_scooter", "is_reserved": 0, "fusion_lon": 0.0, "lat": 38.886138833333334, "rental_uris": {"ios": "https://dc.lft.to/lastmile_qr_scan", "android": "https://dc.lft.to/lastmile_qr_scan"}, "bike_id": "e8de3ece0c589012c4bcc72489570c9d", "fusion_lat": 0.0}, {"lon": -77.00330983333333, "name": "7d636c9afde3a289c68f29f8d647240b", "is_disabled": 0, "type": "electric_scooter", "is_reserved": 0, "fusion_lon": 0.0, "lat": 38.8935975, "rental_uris": {"ios": "https://dc.lft.to/lastmile_qr_scan", "android": "https://dc.lft.to/lastmile_qr_scan"}, "bike_id": "7d636c9afde3a289c68f29f8d647240b", "fusion_lat": 0.0}, {"lon": -77.00894116666667, "name": "7fdd768ae613b7588e89aff777d83e48", "is_disabled": 0, "type": "electric_scooter", "is_reserved": 0, "fusion_lon": 0.0, "lat": 38.923296, "rental_uris": {"ios": "https://dc.lft.to/lastmile_qr_scan", "android": "https://dc.lft.to/lastmile_qr_scan"}, "bike_id": "7fdd768ae613b7588e89aff777d83e48", "fusion_lat": 0.0},