{"data": {"bikes": [{"bike_id": "4b4100025e7d01f03b172b5ee39d4802", "name": "4b4100025e7d01f03b172b5ee39d4802", "lat": 38.92412183333333, "fusion_lat": 0.0, "type": "electric_scooter", "lon": -77.0194775, "is_disabled": 0, "fusion_lon": 0.0, "rental_uris": {"android": "https://dc.lft.to/lastmile_qr_scan", "ios": "https://dc.lft.to/lastmile_qr_scan"}, "is_reserved": 0}, {"bike_id": "0ced925612c2eaf3b401add93e9ca9f9", "name": "0ced925612c2eaf3b401add93e9ca9f9", "lat": 38.902261833333334, "fusion_lat": 0.0, "type": "electric_scooter", "lon": -77.02686016666667, "is_disabled": 0, "fusion_lon": 0.0, "rental_uris": {"android": "https://dc.lft.to/lastmile_qr_scan", "ios": "https://dc.lft.to/lastmile_qr_scan"}, "is_reserved": 0}, {"bike_id": "5dc1adc27dd832aa4771a91625185540", "name": "5dc1adc27dd832aa4771a91625185540", "lat": 38.90265466666666, "fusion_lat": 0.0, "type": "electric_scooter", "lon": -77.01763133333333, "is_disabled": 0, "fusion_lon": 0.0, "rental_uris": {"android": "https://dc.lft.to/lastmile_qr_scan", "ios": "https://dc.lft.to/lastmile_qr_scan"}, "is_reserved": 0}, {"bike_id": "a28b8db919038b49d63f2243d6e7477a", "name": "a28b8db919038b49d63f2243d6e7477a", "lat": 38.946152833333336, "fusion_lat": 0.0, "type": "electric_scooter", "lon": -77.0305815, "is_disabled": 0, "fusion_lon": 0.0, "rental_uris": {"android": "https://dc.lft.to/lastmile_qr_scan", "ios": "https://dc.lft.to/lastmile_qr_scan"}, "is_reserved": 0}, {"bike_id": "c428977a70ad162abd4f15ecaf07bec2", "name": "c428977a70ad162abd4f15ecaf07bec2", "lat": 38.882704, "fusion_lat": 0.0, "type": "electric_bike", "lon": -76.93235583333333, "is_disabled": 0, "fusion_lon": 0.0, "rental_uris": {"android": "https://dc.lft.to/lastmile_qr_scan", "ios": "https://dc.lft.to/lastmile_qr_scan"}, "is_reserved": 0}, {"bike_id": "812e5c2aba610056d551c596890beca6", "name": "812e5c2aba610056d551c596890beca6", "lat": 38.90137683333333, "fusion_lat": 0.0, "type": "electric_scooter", "lon": -77.0260445, "is_disabled": 0, "fusion_lon": 0.0, "rental_uris": {"android": "https://dc.lft.to/lastmile_qr_scan", "ios": "https://dc.lft.to/lastmile_qr_scan"}, "is_reserved": 0}, {"bike_id": "d81bea027530d337cd2d1d96d3ceff73", "name": "d81bea027530d337cd2d1d96d3ceff73", "lat": 38.9138435, "fusion_lat": 0.0, "type": "electric_scooter", "lon": -77.03211233333333, "is_disabled": 0, "fusion_lon": 0.0, "rental_uris": {"android": "https://dc.lft.to/lastmile_qr_scan", "ios": "https://dc.lft.to/lastmile_qr_scan"}, "is_reserved": 0}, {"bike_id": "7bca10e158bb869d97068de78596777f", "name": "7bca10e158bb869d97068de78596777f", "lat": 38.8940735, "fusion_lat": 0.0, "type": "electric_scooter", "lon": -77.02326983333333, "is_disabled": 0, "fusion_lon": 0.0, "rental_uris": {"android": "https://dc.lft.to/lastmile_qr_scan", "ios": "https://dc.lft.to/lastmile_qr_scan"}, "is_reserved": 0}, {"bike_id": "2c7403159fc327dd2de5fcd75a0c1d52", "name": "2c7403159fc327dd2de5fcd75a0c1d52", "lat": 38.89233616666667, "fusion_lat": 0.0, "type": "electric_scooter", "lon": -77.04484116666667, "is_disabled": 0, "fusion_lon": 0.0, "rental_uris": {"android": "https://dc.lft.to/lastmile_qr_scan", "ios": "https://dc.lft.to/lastmile_qr_scan"}, "is_reserved": 0}, {"bike_id": "20b1412c23d6b8db273e3f215f39d65e", "name": "20b1412c23d6b8db273e3f215f39d65e", "lat": 38.886162666666664, "fusion_lat": 0.0, "type": "electric_scooter", "lon": -77.004054, "is_disabled": 0, "fusion_lon": 0.0, "rental_uris": {"android": "https://dc.lft.to/lastmile_qr_scan", "ios": "https://dc.lft.to/lastmile_qr_scan"}, "is_reserved": 0}, {"bike_id": "8c5862af8c556d25396d63c9eec3046c", "name": "8c5862af8c556d25396d63c9eec3046c", "lat": 38.908277, "fusion_lat": 0.0, "type": "electric_scooter", "lon": -76.98717783333333, "is_disabled": 0, "fusion_lon": 0.0, "rental_uris": {"android": "https://dc.lft.to/lastmile_qr_scan", "ios": "https://dc.lft.to/lastmile_qr_scan"}, "is_reserved": 0}, {"bike_id": "4b74d37068376ad2319ec482fe1855cc", "name": "4b74d37068376ad2319ec482fe1855cc", "lat": 38.90832783333333, "fusion_lat": 0.0, "type": "electric_scooter", "lon": -76.9970145, "is_disabled": 0, "fusion_lon": 0.0, "rental_uris": {"android": "https://dc.lft.to/lastmile_qr_scan", "ios": "https://dc.lft.to/lastmile_qr_scan"}, "is_reserved": 0}, {"bike_id": "597c5b8f70ad5667cea81d1bd89e6404", "name": "597c5b8f70ad5667cea81d1bd89e6404", "lat": 39.0107625, "fusion_lat": 0.0, "type": "electric_bike", "lon": -76.91064733333333, "is_disabled": 0, "fusion_lon": 0.0, "rental_uris": {"android": "https://dc.lft.to/lastmile_qr_scan", "ios": "https://dc.lft.to/lastmile_qr_scan"}, "is_reserved": 0}, {"bike_id": "68ee1a70b4ab88f15a02be5e8c025548", "name": "68ee1a70b4ab88f15a02be5e8c025548", "lat": 38.9171825, "fusion_lat": 0.0, "type": "electric_scooter", "lon": -77.031738, "is_disabled": 0, "fusion_lon": 0.0, "rental_uris": {"android": "https://dc.lft.to/lastmile_qr_scan", "ios": "https://dc.lft.to/lastmile_qr_scan"}, "is_reserved": 0}, {"bike_id": "4c30b592a92a9b1b07bbbfd98dfb0240", "name": "4c30b592a92a9b1b07bbbfd98dfb0240", "lat": 38.929772666666665, "fusion_lat": 0.0, "type": "electric_scooter", "lon": -77.0275675, "is_disabled": 0, "fusion_lon": 0.0, "rental_uris": {"android": "https://dc.lft.to/lastmile_qr_scan", "ios": "https://dc.lft.to/lastmile_qr_scan"}, "is_reserved": 0}, {"bike_id": "caca2ed11f692a6381cb6e3bc09b12b5", "name": "caca2ed11f692a6381cb6e3bc09b12b5", "lat": 38.90829733333333, "fusion_lat": 0.0, "type": "electric_bike", "lon": -76.941603, "is_disabled": 0, "fusion_lon": 0.0, "rental_uris": {"android": "https://dc.lft.to/lastmile_qr_scan", "ios": "https://dc.lft.to/lastmile_qr_scan"}, "is_reserved": 0}, {"bike_id": "8d8019c6f68c16c16a048e045b5d0968", "name": "8d8019c6f68c16c16a048e045b5d0968", "lat": 38.897856833333336, "fusion_lat": 0.0, "type": "electric_scooter", "lon": -77.00920983333333, "is_disabled": 0, "fusion_lon": 0.0, "rental_uris": {"android": "https://dc.lft.to/lastmile_qr_scan", "ios": "https://dc.lft.to/lastmile_qr_scan"}, "is_reserved": 0}, {"bike_id": "d2172d8e0c948a48d184b6c714abd41d", "name": "d2172d8e0c948a48d184b6c714abd41d", "lat": 38.88403483333333, "fusion_lat": 0.0, "type": "electric_scooter", "lon": -77.02629966666667, "is_disabled": 0, "fusion_lon": 0.0, "rental_uris": {"android": "https://dc.lft.to/lastmile_qr_scan", "ios": "https://dc.lft.to/lastmile_qr_scan"}, "is_reserved": 0}, {"bike_id": "c3f14292f3b7c820ca05add400761e94", "name": "c3f14292f3b7c820ca05add400761e94", "lat": 38.898128666666665, "fusion_lat": 0.0, "type": "electric_bike", "lon": -76.99071483333333, "is_disabled": 0, "fusion_lon": 0.0, "rental_uris": {"android": "https://dc.lft.to/lastmile_qr_scan", "ios": "https://dc.lft.to/lastmile_qr_scan"}, "is_reserved": 0}, {"bike_id": "e1bf629e74720938fb1af39aac5c935a", "name": "e1bf629e74720938fb1af39aac5c935a", "lat": 38.903088, "fusion_lat": 0.0, "type": "electric_scooter", "lon": -77.02587966666667, "is_disabled": 0, "fusion_lon": 0.0, "rental_uris": {"android": "https://dc.lft.to/lastmile_qr_scan", "ios": "https://dc.lft.to/lastmile_qr_scan"}, "is_reserved": 0}, {"bike_id": "141d9a8574b09fc117158a023f4c5c86", "name": "141d9a8574b09fc117158a023f4c5c86", "lat": 38.9119175, "fusion_lat": 0.0, "type": "electric_scooter", "lon": -77.00725766666666, "is_disabled": 0, "fusion_lon": 0.0, "rental_uris": {"android": "https://dc.lft.to/lastmile_qr_scan", "ios": "https://dc.lft.to/lastmile_qr_scan"}, "is_reserved": 0}, {"bike_id": "62f58347e7d48d23cd9a1ca02e08ef44", "name": "62f58347e7d48d23cd9a1ca02e08ef44", "lat": 38.89904883333333, "fusion_lat": 0.0, "type": "electric_scooter", "lon": -77.02698133333334, "is_disabled": 0, "fusion_lon": 0.0, "rental_uris": {"android": "https://dc.lft.to/lastmile_qr_scan", "ios": "https://dc.lft.to/lastmile_qr_scan"}, "is_reserved": 0}, {"bike_id": "a14cc9e3c8c8688c46622498396e9b42", "name": "a14cc9e3c8c8688c46622498396e9b42", "lat": 38.91127516666667, "fusion_lat": 0.0, "type": "electric_scooter", "lon": -77.04348733333333, "is_disabled": 0, "fusion_lon": 0.0, "rental_uris": {"android": "https://dc.lft.to/lastmile_qr_scan", "ios": "https://dc.lft.to/lastmile_qr_scan"}, "is_reserved": 0}, {"bike_id": "258a5d88a8c00a8f1fce824dc69849e4", "name": "258a5d88a8c00a8f1fce824dc69849e4", "lat": 38.89420066666667, "fusion_lat": 0.0, "type": "electric_scooter", "lon": -77.02090733333333, "is_disabled": 0, "fusion_lon": 0.0, "rental_uris": {"android": "https://dc.lft.to/lastmile_qr_scan", "ios": "https://dc.lft.to/lastmile_qr_scan"}, "is_reserved": 0}, {"bike_id": "6fd9be46b34d56123e41c1e44e645f07", "name": "6fd9be46b34d56123e41c1e44e645f07", "lat": 38.904370166666666, "fusion_lat": 0.0, "type": "electric_scooter", "lon": -77.0258165, "is_disabled": 0, "fusion_lon": 0.0, "rental_uris": {"android": "https://dc.lft.to/lastmile_qr_scan", "ios": "https://dc.lft.to/lastmile_qr_scan"}, "is_reserved": 0}, {"bike_id": "e554953b8abe551189121d4a50e29874", "name": "e554953b8abe551189121d4a50e29874", "lat": 38.9155475, "fusion_lat": 0.0, "type": "electric_scooter", "lon": -77.024411, "is_disabled": 0, "fusion_lon": 0.0, "rental_uris": {"android": "https://dc.lft.to/lastmile_qr_scan", "ios": "https://dc.lft.to/lastmile_qr_scan"}, "is_reserved": 0}, {"bike_id": "47a550bc419953cfe13589391479bdc9", "name": "47a550bc419953cfe13589391479bdc9", "lat": 38.9234935, "fusion_lat": 0.0, "type": "electric_scooter", "lon": -77.04949583333334, "is_disabled": 0, "fusion_lon": 0.0, "rental_uris": {"android": "https://dc.lft.to/lastmile_qr_scan", "ios": "https://dc.lft.to/lastmile_qr_scan"}, "is_reserved": 0}, {"bike_id": "26c3f5266c934c6b9f8a4df09d170b43", "name": "26c3f5266c934c6b9f8a4df09d170b43", "lat": 38.892389666666666, "fusion_lat": 0.0, "type": "electric_scooter", "lon": -77.0489745, "is_disabled": 0, "fusion_lon": 0.0, "rental_uris": {"android": "https://dc.lft.to/lastmile_qr_scan", "ios": "https://dc.lft.to/lastmile_qr_scan"}, "is_reserved": 0}, {"bike_id": "44e08dda7a7a8e63dc948324cf5ded73", "name": "44e08dda7a7a8e63dc948324cf5ded73", "lat": 38.8734115, "fusion_lat": 0.0, "type": "electric_scooter", "lon": -76.99167633333333, "is_disabled": 0, "fusion_lon": 0.0, "rental_uris": {"android": "https://dc.lft.to/lastmile_qr_scan", "ios": "https://dc.lft.to/lastmile_qr_scan"}, "is_reserved": 0}, {"bike_id": "45802cbed7a6dd054f5258683fee61d2", "name": "45802cbed7a6dd054f5258683fee61d2", "lat": 38.892317166666665, "fusion_lat": 0.0, "type": "electric_scooter", "lon": -77.05000616666666, "is_disabled": 0, "fusion_lon": 0.0, "rental_uris": {"android": "https://dc.lft.to/lastmile_qr_scan", "ios": "https://dc.lft.to/lastmile_qr_scan"}, "is_reserved": 0}, {"bike_id": "001277ddd3e7bfdbb56f13eb57ce882b", "name": "001277ddd3e7bfdbb56f13eb57ce882b", "lat": 38.87870566666667, "fusion_lat": 0.0, "type": "electric_scooter", "lon": -77.02271683333333, "is_disabled": 0, "fusion_lon": 0.0, "rental_uris": {"android": "https://dc.lft.to/lastmile_qr_scan", "ios": "https://dc.lft.to/lastmile_qr_scan"}, "is_reserved": 0}, {"bike_id": "6ad78fd17a9ded62857128d45b3efc83", "name": "6ad78fd17a9ded62857128d45b3efc83", "lat": 38.90075316666667, "fusion_lat": 0.0, "type": "electric_scooter", "lon": -77.01344033333334, "is_disabled": 0, "fusion_lon": 0.0, "rental_uris": {"android": "https://dc.lft.to/lastmile_qr_scan", "ios": "https://dc.lft.to/lastmile_qr_scan"}, "is_reserved": 0}, {"bike_id": "a9ad1adf7e745d11ec2c7d2ea9fee2c7", "name": "a9ad1adf7e745d11ec2c7d2ea9fee2c7", "lat": 38.89563316666667, "fusion_lat": 0.0, "type": "electric_scooter", "lon": -76.982218, "is_disabled": 0, "fusion_lon": 0.0, "rental_uris": {"android": "https://dc.lft.to/lastmile_qr_scan", "ios": "https://dc.lft.to/lastmile_qr_scan"}, "is_reserved": 0}, {"bike_id": "7c156474c5951c6e99a02c335d6c8efe", "name": "7c156474c5951c6e99a02c335d6c8efe", "lat": 38.922532833333335, "fusion_lat": 0.0, "type": "electric_scooter", "lon": -77.0192365, "is_disabled": 0, "fusion_lon": 0.0, "rental_uris": {"android": "https://dc.lft.to/lastmile_qr_scan", "ios": "https://dc.lft.to/lastmile_qr_scan"}, "is_reserved": 0}, {"bike_id": "df3340acded643ce4f118fdf771f5d9d", "name": "df3340acded643ce4f118fdf771f5d9d", "lat": 38.923169333333334, "fusion_lat": 0.0, "type": "electric_scooter", "lon": -77.02799666666667, "is_disabled": 0, "fusion_lon": 0.0, "rental_uris": {"android": "https://dc.lft.to/lastmile_qr_scan", "ios": "https://dc.lft.to/lastmile_qr_scan"}, "is_reserved": 0}, {"bike_id": "f5d46c174e30ab93d07a14cc3fa69903", "name": "f5d46c174e30ab93d07a14cc3fa69903", "lat": 38.902072833333335, "fusion_lat": 0.0, "type": "electric_scooter", "lon": -77.020983, "is_disabled": 0, "fusion_lon": 0.0, "rental_uris": {"android": "https://dc.lft.to/lastmile_qr_scan", "ios": "https://dc.lft.to/lastmile_qr_scan"}, "is_reserved": 0}, {"bike_id": "419f030f6cdc4beb782ac755c247b7a5", "name": "419f030f6cdc4beb782ac755c247b7a5", "lat": 38.906992, "fusion_lat": 0.0, "type": "electric_scooter", "lon": -76.99768783333333, "is_disabled": 0, "fusion_lon": 0.0, "rental_uris": {"android": "https://dc.lft.to/lastmile_qr_scan", "ios": "https://dc.lft.to/lastmile_qr_scan"}, "is_reserved": 0}, {"bike_id": "940af9dd5630ca263187b974d78574fc", "name": "940af9dd5630ca263187b974d78574fc", "lat": 38.90433133333333, "fusion_lat": 0.0, "type": "electric_scooter", "lon": -77.0257495, "is_disabled": 0, "fusion_lon": 0.0, "rental_uris": {"android": "https://dc.lft.to/lastmile_qr_scan", "ios": "https://dc.lft.to/lastmile_qr_scan"}, "is_reserved": 0}, {"bike_id": "4ea957d7c0ea93942c65318258fd4d7d", "name": "4ea957d7c0ea93942c65318258fd4d7d", "lat": 38.894505833333334, "fusion_lat": 0.0, "type": "electric_scooter", "lon": -77.0454315, "is_disabled": 0, "fusion_lon": 0.0, "rental_uris": {"android": "https://dc.lft.to/lastmile_qr_scan", "ios": "https://dc.lft.to/lastmile_qr_scan"}, "is_reserved": 0}, {"bike_id": "8467505949f3c0f7ea86b3c9bb79f7a5", "name": "8467505949f3c0f7ea86b3c9bb79f7a5", "lat": 38.89348, "fusion_lat": 0.0, "type": "electric_scooter", "lon": -77.03982033333334, "is_disabled": 0, "fusion_lon": 0.0, "rental_uris": {"android": "https://dc.lft.to/lastmile_qr_scan", "ios": "https://dc.lft.to/lastmile_qr_scan"}, "is_reserved": 0}, {"bike_id": "77e3475fdd746f0aa3b0ffc347e5dbf3", "name": "77e3475fdd746f0aa3b0ffc347e5dbf3", "lat": 38.84918016666666, "fusion_lat": 0.0, "type": "electric_bike", "lon": -77.08378133333333, "is_disabled": 0, "fusion_lon": 0.0, "rental_uris": {"android": "https://dc.lft.to/lastmile_qr_scan", "ios": "https://dc.lft.to/lastmile_qr_scan"}, "is_reserved": 0}, {"bike_id": "4b772aa0de88dd820e38ee741eef6d34", "name": "4b772aa0de88dd820e38ee741eef6d34", "lat": 38.9125355, "fusion_lat": 0.0, "type": "electric_scooter", "lon": -77.0220265, "is_disabled": 0, "fusion_lon": 0.0, "rental_uris": {"android": "https://dc.lft.to/lastmile_qr_scan", "ios": "https://dc.lft.to/lastmile_qr_scan"}, "is_reserved": 0}, {"bike_id": "d4f70a40440a549162e7416e931fb354", "name": "d4f70a40440a549162e7416e931fb354", "lat": 38.934529833333336, "fusion_lat": 0.0, "type": "electric_scooter", "lon": -77.05818766666667, "is_disabled": 0, "fusion_lon": 0.0, "rental_uris": {"android": "https://dc.lft.to/lastmile_qr_scan", "ios": "https://dc.lft.to/lastmile_qr_scan"}, "is_reserved": 0}, {"bike_id": "22033d434779f04504d3915c237a66cf", "name": "22033d434779f04504d3915c237a66cf", "lat": 38.93111483333333, "fusion_lat": 0.0, "type": "electric_scooter", "lon": -77.038141, "is_disabled": 0, "fusion_lon": 0.0, "rental_uris": {"android": "https://dc.lft.to/lastmile_qr_scan", "ios": "https://dc.lft.to/lastmile_qr_scan"}, "is_reserved": 0}, {"bike_id": "06b971f5e904866e95fc0a7859fe5185", "name": "06b971f5e904866e95fc0a7859fe5185", "lat": 38.91068383333333, "fusion_lat": 0.0, "type": "electric_scooter", "lon": -76.99136683333333, "is_disabled": 0, "fusion_lon": 0.0, "rental_uris": {"android": "https://dc.lft.to/lastmile_qr_scan", "ios": "https://dc.lft.to/lastmile_qr_scan"}, "is_reserved": 0}, {"bike_id": "c76a6622d7101d3432ef37dc4021847d", "name": "c76a6622d7101d3432ef37dc4021847d", "lat": 38.916870333333335, "fusion_lat": 0.0, "type": "electric_scooter", "lon": -77.0328915, "is_disabled": 0, "fusion_lon": 0.0, "rental_uris": {"android": "https://dc.lft.to/lastmile_qr_scan", "ios": "https://dc.lft.to/lastmile_qr_scan"}, "is_reserved": 0}, {"bike_id": "67a8e3c4328e18cb01a61117b2fd96f7", "name": "67a8e3c4328e18cb01a61117b2fd96f7", "lat": 38.9148995, "fusion_lat": 0.0, "type": "electric_scooter", "lon": -77.01997766666666, "is_disabled": 0, "fusion_lon": 0.0, "rental_uris": {"android": "https://dc.lft.to/lastmile_qr_scan", "ios": "https://dc.lft.to/lastmile_qr_scan"}, "is_reserved": 0}, {"bike_id": "ba4ff8468c72555ee3801f39f87bdbb0", "name": "ba4ff8468c72555ee3801f39f87bdbb0", "lat": 38.90731066666667, "fusion_lat": 0.0, "type": "electric_scooter", "lon": -77.024927, "is_disabled": 0, "fusion_lon": 0.0, "rental_uris": {"android": "https://dc.lft.to/lastmile_qr_scan", "ios": "https://dc.lft.to/lastmile_qr_scan"}, "is_reserved": 0}, {"bike_id": "cc0e12b43028adc78cc509ede0d1502f", "name": "cc0e12b43028adc78cc509ede0d1502f", "lat": 38.9244575, "fusion_lat": 0.0, "type": "electric_scooter", "lon": -77.02164916666666, "is_disabled": 0, "fusion_lon": 0.0, "rental_uris": {"android": "https://dc.lft.to/lastmile_qr_scan", "ios": "https://dc.lft.to/lastmile_qr_scan"}, "is_reserved": 0}, {"bike_id": "3558159c61c4b1d49ff5155e4ed9ad31", "name": "3558159c61c4b1d49ff5155e4ed9ad31", "lat": 38.93956266666667, "fusion_lat": 0.0, "type": "electric_scooter", "lon": -77.027601, "is_disabled": 0, "fusion_lon": 0.0, "rental_uris": {"android": "https://dc.lft.to/lastmile_qr_scan", "ios": "https://dc.lft.to/lastmile_qr_scan"}, "is_reserved": 0}, {"bike_id": "c0482d9da46ae912b90f28c665ee31c3", "name": "c0482d9da46ae912b90f28c665ee31c3", "lat": 38.911102, "fusion_lat": 0.0, "type": "electric_scooter", "lon": -77.00400383333333, "is_disabled": 0, "fusion_lon": 0.0, "rental_uris": {"android": "https://dc.lft.to/lastmile_qr_scan", "ios": "https://dc.lft.to/lastmile_qr_scan"}, "is_reserved": 0}, {"bike_id": "af6ea6f8bd956445f34cef9dbd6285d9", "name": "af6ea6f8bd956445f34cef9dbd6285d9", "lat": 38.9170395, "fusion_lat": 0.0, "type": "electric_bike", "lon": -77.05720833333334, "is_disabled": 0, "fusion_lon": 0.0, "rental_uris": {"android": "https://dc.lft.to/lastmile_qr_scan", "ios": "https://dc.lft.to/lastmile_qr_scan"}, "is_reserved": 0}, {"bike_id": "6b94c504912ec98ac6d9a77bcd2fb690", "name": "6b94c504912ec98ac6d9a77bcd2fb690", "lat": 38.920704666666666, "fusion_lat": 0.0, "type": "electric_bike", "lon": -76.995749, "is_disabled": 0, "fusion_lon": 0.0, "rental_uris": {"android": "https://dc.lft.to/lastmile_qr_scan", "ios": "https://dc.lft.to/lastmile_qr_scan"}, "is_reserved": 0}, {"bike_id": "b27b97573aa56d5c1bb0ab4fb6ca0e78", "name": "b27b97573aa56d5c1bb0ab4fb6ca0e78", "lat": 38.91025616666667, "fusion_lat": 0.0, "type": "electric_scooter", "lon": -77.0220795, "is_disabled": 0, "fusion_lon": 0.0, "rental_uris": {"android": "https://dc.lft.to/lastmile_qr_scan", "ios": "https://dc.lft.to/lastmile_qr_scan"}, "is_reserved": 0}, {"bike_id": "fad970ee39d6b5b27d2ca3e682e15018", "name": "fad970ee39d6b5b27d2ca3e682e15018", "lat": 38.923259333333334, "fusion_lat": 0.0, "type": "electric_scooter", "lon": -77.02968633333333, "is_disabled": 0, "fusion_lon": 0.0, "rental_uris": {"android": "https://dc.lft.to/lastmile_qr_scan", "ios": "https://dc.lft.to/lastmile_qr_scan"}, "is_reserved": 0}, {"bike_id": "6b6bbac9f5ba3a18b7180ca0bda65fdf", "name": "6b6bbac9f5ba3a18b7180ca0bda65fdf", "lat": 38.89274433333333, "fusion_lat": 0.0, "type": "electric_scooter", "lon": -76.99259516666666, "is_disabled": 0, "fusion_lon": 0.0, "rental_uris": {"android": "https://dc.lft.to/lastmile_qr_scan", "ios": "https://dc.lft.to/lastmile_qr_scan"}, "is_reserved": 0}, {"bike_id": "d7e55d23c4f48f7537fc0c7a71e4e89e", "name": "d7e55d23c4f48f7537fc0c7a71e4e89e", "lat": 38.875705333333336, "fusion_lat": 0.0, "type": "electric_scooter", "lon": -77.01985983333333, "is_disabled": 0, "fusion_lon": 0.0, "rental_uris": {"android": "https://dc.lft.to/lastmile_qr_scan", "ios": "https://dc.lft.to/lastmile_qr_scan"}, "is_reserved": 0}, {"bike_id": "35f646a4cf2e235b86a516dd823e7a68", "name": "35f646a4cf2e235b86a516dd823e7a68", "lat": 38.907925166666665, "fusion_lat": 0.0, "type": "electric_scooter", "lon": -77.0423365, "is_disabled": 0, "fusion_lon": 0.0, "rental_uris": {"android": "https://dc.lft.to/lastmile_qr_scan", "ios": "https://dc.lft.to/lastmile_qr_scan"}, "is_reserved": 0}, {"bike_id": "8632675a2f05282a8f6a7c7302f942d2", "name": "8632675a2f05282a8f6a7c7302f942d2", "lat": 38.935265333333334, "fusion_lat": 0.0, "type": "electric_scooter", "lon": -77.0234965, "is_disabled": 0, "fusion_lon": 0.0, "rental_uris": {"android": "https://dc.lft.to/lastmile_qr_scan", "ios": "https://dc.lft.to/lastmile_qr_scan"}, "is_reserved": 0}, {"bike_id": "167a96a090104cecefa8a97ad48ad83a", "name": "167a96a090104cecefa8a97ad48ad83a", "lat": 38.867171166666665, "fusion_lat": 0.0, "type": "electric_scooter", "lon": -77.01233783333333, "is_disabled": 0, "fusion_lon": 0.0, "rental_uris": {"android": "https://dc.lft.to/lastmile_qr_scan", "ios": "https://dc.lft.to/lastmile_qr_scan"}, "is_reserved": 0}, {"bike_id": "806f0248c10c6698d61366a2c4e139be", "name": "806f0248c10c6698d61366a2c4e139be", "lat": 38.950645333333334, "fusion_lat": 0.0, "type": "electric_scooter", "lon": -77.06972683333333, "is_disabled": 0, "fusion_lon": 0.0, "rental_uris": {"android": "https://dc.lft.to/lastmile_qr_scan", "ios": "https://dc.lft.to/lastmile_qr_scan"}, "is_reserved": 0}, {"bike_id": "9b69a598101e3e9041e8f56f8ed04b0a", "name": "9b69a598101e3e9041e8f56f8ed04b0a", "lat": 38.886282666666666, "fusion_lat": 0.0, "type": "electric_scooter", "lon": -77.03350383333333, "is_disabled": 0, "fusion_lon": 0.0, "rental_uris": {"android": "https://dc.lft.to/lastmile_qr_scan", "ios": "https://dc.lft.to/lastmile_qr_scan"}, "is_reserved": 0}, {"bike_id": "31f5ea31284ac900ca7a873bc677afe2", "name": "31f5ea31284ac900ca7a873bc677afe2", "lat": 38.905776333333336, "fusion_lat": 0.0, "type": "electric_scooter", "lon": -77.03978216666667, "is_disabled": 0, "fusion_lon": 0.0, "rental_uris": {"android": "https://dc.lft.to/lastmile_qr_scan", "ios": "https://dc.lft.to/lastmile_qr_scan"}, "is_reserved": 0}, {"bike_id": "e33c064b4194c768437c3cd2c05ea5f0", "name": "e33c064b4194c768437c3cd2c05ea5f0", "lat": 38.919175, "fusion_lat": 0.0, "type": "electric_scooter", "lon": -77.00975766666667, "is_disabled": 0, "fusion_lon": 0.0, "rental_uris": {"android": "https://dc.lft.to/lastmile_qr_scan", "ios": "https://dc.lft.to/lastmile_qr_scan"}, "is_reserved": 0}, {"bike_id": "01213be83597d9e01ad1d2e3164258e6", "name": "01213be83597d9e01ad1d2e3164258e6", "lat": 38.89366533333333, "fusion_lat": 0.0, "type": "electric_scooter", "lon": -77.00334716666667, "is_disabled": 0, "fusion_lon": 0.0, "rental_uris": {"android": "https://dc.lft.to/lastmile_qr_scan", "ios": "https://dc.lft.to/lastmile_qr_scan"}, "is_reserved": 0}, {"bike_id": "cb68d14571309f6bde377e0a0d276e07", "name": "cb68d14571309f6bde377e0a0d276e07", "lat": 38.91288733333333, "fusion_lat": 0.0, "type": "electric_scooter", "lon": -76.98542416666666, "is_disabled": 0, "fusion_lon": 0.0, "rental_uris": {"android": "https://dc.lft.to/lastmile_qr_scan", "ios": "https://dc.lft.to/lastmile_qr_scan"}, "is_reserved": 0}, {"bike_id": "8022942bc5c0689d1ff7d91e64fef39b", "name": "8022942bc5c0689d1ff7d91e64fef39b", "lat": 38.924639666666664, "fusion_lat": 0.0, "type": "electric_scooter", "lon": -77.02269066666666, "is_disabled": 0, "fusion_lon": 0.0, "rental_uris": {"android": "https://dc.lft.to/lastmile_qr_scan", "ios": "https://dc.lft.to/lastmile_qr_scan"}, "is_reserved": 0}, {"bike_id": "b22b4baae56d9f47a594d5e24fcf954c", "name": "b22b4baae56d9f47a594d5e24fcf954c", "lat": 38.90389183333333, "fusion_lat": 0.0, "type": "electric_scooter", "lon": -77.01225783333334, "is_disabled": 0, "fusion_lon": 0.0, "rental_uris": {"android": "https://dc.lft.to/lastmile_qr_scan", "ios": "https://dc.lft.to/lastmile_qr_scan"}, "is_reserved": 0}, {"bike_id": "3c16a3d3bae3332b0818dba7c6393788", "name": "3c16a3d3bae3332b0818dba7c6393788", "lat": 38.907396, "fusion_lat": 0.0, "type": "electric_scooter", "lon": -76.93483916666666, "is_disabled": 0, "fusion_lon": 0.0, "rental_uris": {"android": "https://dc.lft.to/lastmile_qr_scan", "ios": "https://dc.lft.to/lastmile_qr_scan"}, "is_reserved": 0}, {"bike_id": "b94bc0728c3be1b77bee5401bbfced5c", "name": "b94bc0728c3be1b77bee5401bbfced5c", "lat": 38.941849, "fusion_lat": 0.0, "type": "electric_scooter", "lon": -77.02347766666666, "is_disabled": 0, "fusion_lon": 0.0, "rental_uris": {"android": "https://dc.lft.to/lastmile_qr_scan", "ios": "https://dc.lft.to/lastmile_qr_scan"}, "is_reserved": 0}, {"bike_id": "e27a0bf104b90242123321d38fa890eb", "name": "e27a0bf104b90242123321d38fa890eb", "lat": 38.92401916666667, "fusion_lat": 0.0, "type": "electric_scooter", "lon": -77.0354335, "is_disabled": 0, "fusion_lon": 0.0, "rental_uris": {"android": "https://dc.lft.to/lastmile_qr_scan", "ios": "https://dc.lft.to/lastmile_qr_scan"}, "is_reserved": 0}, {"bike_id": "c4a452f4fb019d05721cc496a0ddd9dd", "name": "c4a452f4fb019d05721cc496a0ddd9dd", "lat": 38.90179333333333, "fusion_lat": 0.0, "type": "electric_scooter", "lon": -77.046803, "is_disabled": 0, "fusion_lon": 0.0, "rental_uris": {"android": "https://dc.lft.to/lastmile_qr_scan", "ios": "https://dc.lft.to/lastmile_qr_scan"}, "is_reserved": 0}, {"bike_id": "662b7992a76c2ed29dfd18fe6ed49e7f", "name": "662b7992a76c2ed29dfd18fe6ed49e7f", "lat": 38.91680983333333, "fusion_lat": 0.0, "type": "electric_scooter", "lon": -77.02302566666667, "is_disabled": 0, "fusion_lon": 0.0, "rental_uris": {"android": "https://dc.lft.to/lastmile_qr_scan", "ios": "https://dc.lft.to/lastmile_qr_scan"}, "is_reserved": 0}, {"bike_id": "7f582b9cd472b19cde9489eaeeae0f0e", "name": "7f582b9cd472b19cde9489eaeeae0f0e", "lat": 38.91203633333333, "fusion_lat": 0.0, "type": "electric_scooter", "lon": -77.0384445, "is_disabled": 0, "fusion_lon": 0.0, "rental_uris": {"android": "https://dc.lft.to/lastmile_qr_scan", "ios": "https://dc.lft.to/lastmile_qr_scan"}, "is_reserved": 0}, {"bike_id": "d00bafd5204f6f32a9f0208f54ed3aa5", "name": "d00bafd5204f6f32a9f0208f54ed3aa5", "lat": 38.999334833333336, "fusion_lat": 0.0, "type": "electric_bike", "lon": -77.0513865, "is_disabled": 0, "fusion_lon": 0.0, "rental_uris": {"android": "https://dc.lft.to/lastmile_qr_scan", "ios": "https://dc.lft.to/lastmile_qr_scan"}, "is_reserved": 0}, {"bike_id": "6df7a444cc103e99df7b1b720a5d17e3", "name": "6df7a444cc103e99df7b1b720a5d17e3", "lat": 38.923782, "fusion_lat": 0.0, "type": "electric_scooter", "lon": -77.05183666666667, "is_disabled": 0, "fusion_lon": 0.0, "rental_uris": {"android": "https://dc.lft.to/lastmile_qr_scan", "ios": "https://dc.lft.to/lastmile_qr_scan"}, "is_reserved": 0}, {"bike_id": "2594bb09a621e007807423657b51382d", "name": "2594bb09a621e007807423657b51382d", "lat": 38.89356983333333, "fusion_lat": 0.0, "type": "electric_scooter", "lon": -77.003361, "is_disabled": 0, "fusion_lon": 0.0, "rental_uris": {"android": "https://dc.lft.to/lastmile_qr_scan", "ios": "https://dc.lft.to/lastmile_qr_scan"}, "is_reserved": 0}, {"bike_id": "26b3c027155bd80e4721aaaa6ed4b8fa", "name": "26b3c027155bd80e4721aaaa6ed4b8fa", "lat": 38.917835, "fusion_lat": 0.0, "type": "electric_scooter", "lon": -77.03205316666667, "is_disabled": 0, "fusion_lon": 0.0, "rental_uris": {"android": "https://dc.lft.to/lastmile_qr_scan", "ios": "https://dc.lft.to/lastmile_qr_scan"}, "is_reserved": 0}, {"bike_id": "11911e60293ef276d750e754aef69d18", "name": "11911e60293ef276d750e754aef69d18", "lat": 38.964011666666664, "fusion_lat": 0.0, "type": "electric_scooter", "lon": -77.0277295, "is_disabled": 0, "fusion_lon": 0.0, "rental_uris": {"android": "https://dc.lft.to/lastmile_qr_scan", "ios": "https://dc.lft.to/lastmile_qr_scan"}, "is_reserved": 0}, {"bike_id": "c76b3489db7145a6af18f94de71231f8", "name": "c76b3489db7145a6af18f94de71231f8", "lat": 38.888856, "fusion_lat": 0.0, "type": "electric_scooter", "lon": -76.91925183333333, "is_disabled": 0, "fusion_lon": 0.0, "rental_uris": {"android": "https://dc.lft.to/lastmile_qr_scan", "ios": "https://dc.lft.to/lastmile_qr_scan"}, "is_reserved": 0}, {"bike_id": "5c62f94942ec54a0150c5478af7ac708", "name": "5c62f94942ec54a0150c5478af7ac708", "lat": 38.92333766666667, "fusion_lat": 0.0, "type": "electric_scooter", "lon": -77.0190165, "is_disabled": 0, "fusion_lon": 0.0, "rental_uris": {"android": "https://dc.lft.to/lastmile_qr_scan", "ios": "https://dc.lft.to/lastmile_qr_scan"}, "is_reserved": 0}, {"bike_id": "89afbf3a857170d2153aae921db80d3c", "name": "89afbf3a857170d2153aae921db80d3c", "lat": 38.906716333333335, "fusion_lat": 0.0, "type": "electric_scooter", "lon": -77.05027983333333, "is_disabled": 0, "fusion_lon": 0.0, "rental_uris": {"android": "https://dc.lft.to/lastmile_qr_scan", "ios": "https://dc.lft.to/lastmile_qr_scan"}, "is_reserved": 0}, {"bike_id": "2f8956fb078f386577b8fd0852ef545f", "name": "2f8956fb078f386577b8fd0852ef545f", "lat": 38.891965, "fusion_lat": 0.0, "type": "electric_scooter", "lon": -77.04828566666667, "is_disabled": 0, "fusion_lon": 0.0, "rental_uris": {"android": "https://dc.lft.to/lastmile_qr_scan", "ios": "https://dc.lft.to/lastmile_qr_scan"}, "is_reserved": 0}, {"bike_id": "243b33a36dcfe417061e926c19ce638d", "name": "243b33a36dcfe417061e926c19ce638d", "lat": 38.9119055, "fusion_lat": 0.0, "type": "electric_scooter", "lon": -77.03835883333333, "is_disabled": 0, "fusion_lon": 0.0, "rental_uris": {"android": "https://dc.lft.to/lastmile_qr_scan", "ios": "https://dc.lft.to/lastmile_qr_scan"}, "is_reserved": 0}, {"bike_id": "7383d89784a8b3a6561ca8c6bc247f4a", "name": "7383d89784a8b3a6561ca8c6bc247f4a", "lat": 38.92231666666667, "fusion_lat": 0.0, "type": "electric_scooter", "lon": -76.97530016666667, "is_disabled": 0, "fusion_lon": 0.0, "rental_uris": {"android": "https://dc.lft.to/lastmile_qr_scan", "ios": "https://dc.lft.to/lastmile_qr_scan"}, "is_reserved": 0}, {"bike_id": "974a0bc08d38b87d2e326b4e195d2577", "name": "974a0bc08d38b87d2e326b4e195d2577", "lat": 38.8795895, "fusion_lat": 0.0, "type": "electric_scooter", "lon": -77.00069983333333, "is_disabled": 0, "fusion_lon": 0.0, "rental_uris": {"android": "https://dc.lft.to/lastmile_qr_scan", "ios": "https://dc.lft.to/lastmile_qr_scan"}, "is_reserved": 0}, {"bike_id": "3e2f90cbec29851fa51990406bbd8c75", "name": "3e2f90cbec29851fa51990406bbd8c75", "lat": 38.928627, "fusion_lat": 0.0, "type": "electric_scooter", "lon": -77.014097, "is_disabled": 0, "fusion_lon": 0.0, "rental_uris": {"android": "https://dc.lft.to/lastmile_qr_scan", "ios": "https://dc.lft.to/lastmile_qr_scan"}, "is_reserved": 0}, {"bike_id": "1854b35baddb672f5f116210f3f75090", "name": "1854b35baddb672f5f116210f3f75090", "lat": 38.92112516666667, "fusion_lat": 0.0, "type": "electric_scooter", "lon": -77.017701, "is_disabled": 0, "fusion_lon": 0.0, "rental_uris": {"android": "https://dc.lft.to/lastmile_qr_scan", "ios": "https://dc.lft.to/lastmile_qr_scan"}, "is_reserved": 0}, {"bike_id": "69f41865e35a4960ee31f6b1a0e4d71f", "name": "69f41865e35a4960ee31f6b1a0e4d71f", "lat": 38.89987383333333, "fusion_lat": 0.0, "type": "electric_scooter", "lon": -76.9855535, "is_disabled": 0, "fusion_lon": 0.0, "rental_uris": {"android": "https://dc.lft.to/lastmile_qr_scan", "ios": "https://dc.lft.to/lastmile_qr_scan"}, "is_reserved": 0}, {"bike_id": "9fc10117bf689af18d0eb9d6560c3fb3", "name": "9fc10117bf689af18d0eb9d6560c3fb3", "lat": 38.93252566666666, "fusion_lat": 0.0, "type": "electric_scooter", "lon": -77.03203333333333, "is_disabled": 0, "fusion_lon": 0.0, "rental_uris": {"android": "https://dc.lft.to/lastmile_qr_scan", "ios": "https://dc.lft.to/lastmile_qr_scan"}, "is_reserved": 0}, {"bike_id": "2fddf1bbaf704ed9de23f71c23352a0e", "name": "2fddf1bbaf704ed9de23f71c23352a0e", "lat": 38.894563166666664, "fusion_lat": 0.0, "type": "electric_bike", "lon": -77.1913435, "is_disabled": 0, "fusion_lon": 0.0, "rental_uris": {"android": "https://dc.lft.to/lastmile_qr_scan", "ios": "https://dc.lft.to/lastmile_qr_scan"}, "is_reserved": 0}, {"bike_id": "dfa6e45f03f77d8b9d250cbd7c0ff204", "name": "dfa6e45f03f77d8b9d250cbd7c0ff204", "lat": 38.9059685, "fusion_lat": 0.0, "type": "electric_scooter", "lon": -76.95033933333333, "is_disabled": 0, "fusion_lon": 0.0, "rental_uris": {"android": "https://dc.lft.to/lastmile_qr_scan", "ios": "https://dc.lft.to/lastmile_qr_scan"}, "is_reserved": 0}, {"bike_id": "8feb407a04bb2dd00c04a9bf41c3a531", "name": "8feb407a04bb2dd00c04a9bf41c3a531", "lat": 38.925400833333335, "fusion_lat": 0.0, "type": "electric_scooter", "lon": -77.03407566666667, "is_disabled": 0, "fusion_lon": 0.0, "rental_uris": {"android": "https://dc.lft.to/lastmile_qr_scan", "ios": "https://dc.lft.to/lastmile_qr_scan"}, "is_reserved": 0}, {"bike_id": "7c9014e973f3ef5c4e7a3d7c5f43b1b7", "name": "7c9014e973f3ef5c4e7a3d7c5f43b1b7", "lat": 38.8980215, "fusion_lat": 0.0, "type": "electric_scooter", "lon": -77.0335415, "is_disabled": 0, "fusion_lon": 0.0, "rental_uris": {"android": "https://dc.lft.to/lastmile_qr_scan", "ios": "https://dc.lft.to/lastmile_qr_scan"}, "is_reserved": 0}, {"bike_id": "c5a2e88d3c3b1b944f100e958162009e", "name": "c5a2e88d3c3b1b944f100e958162009e", "lat": 38.896745333333335, "fusion_lat": 0.0, "type": "electric_scooter", "lon": -76.9472715, "is_disabled": 0, "fusion_lon": 0.0, "rental_uris": {"android": "https://dc.lft.to/lastmile_qr_scan", "ios": "https://dc.lft.to/lastmile_qr_scan"}, "is_reserved": 0}, {"bike_id": "a7e511ef113742e4ca66152e8ef0d0d0", "name": "a7e511ef113742e4ca66152e8ef0d0d0", "lat": 38.902405, "fusion_lat": 0.0, "type": "electric_scooter", "lon": -77.017511, "is_disabled": 0, "fusion_lon": 0.0, "rental_uris": {"android": "https://dc.lft.to/lastmile_qr_scan", "ios": "https://dc.lft.to/lastmile_qr_scan"}, "is_reserved": 0}, {"bike_id": "ca45f0420e7f299ff509d0fa6161b299", "name": "ca45f0420e7f299ff509d0fa6161b299", "lat": 38.88373983333334, "fusion_lat": 0.0, "type": "electric_scooter", "lon": -76.93043916666667, "is_disabled": 0, "fusion_lon": 0.0, "rental_uris": {"android": "https://dc.lft.to/lastmile_qr_scan", "ios": "https://dc.lft.to/lastmile_qr_scan"}, "is_reserved": 0}, {"bike_id": "4e797616d076ebace9709c51a1095368", "name": "4e797616d076ebace9709c51a1095368", "lat": 38.911341166666666, "fusion_lat": 0.0, "type": "electric_scooter", "lon": -77.03215483333334, "is_disabled": 0, "fusion_lon": 0.0, "rental_uris": {"android": "https://dc.lft.to/lastmile_qr_scan", "ios": "https://dc.lft.to/lastmile_qr_scan"}, "is_reserved": 0}, {"bike_id": "7a857f3db5b88bba02e988cda15ec624", "name": "7a857f3db5b88bba02e988cda15ec624", "lat": 38.936687, "fusion_lat": 0.0, "type": "electric_scooter", "lon": -77.036419, "is_disabled": 0, "fusion_lon": 0.0, "rental_uris": {"android": "https://dc.lft.to/lastmile_qr_scan", "ios": "https://dc.lft.to/lastmile_qr_scan"}, "is_reserved": 0}, {"bike_id": "2a1f11c1eb12dd71d9180726ac70f13a", "name": "2a1f11c1eb12dd71d9180726ac70f13a", "lat": 38.90706633333333, "fusion_lat": 0.0, "type": "electric_scooter", "lon": -77.023982, "is_disabled": 0, "fusion_lon": 0.0, "rental_uris": {"android": "https://dc.lft.to/lastmile_qr_scan", "ios": "https://dc.lft.to/lastmile_qr_scan"}, "is_reserved": 0}, {"bike_id": "bb951c94658aa6e18960e7660b8f0ab7", "name": "bb951c94658aa6e18960e7660b8f0ab7", "lat": 38.904665333333334, "fusion_lat": 0.0, "type": "electric_scooter", "lon": -77.025903, "is_disabled": 0, "fusion_lon": 0.0, "rental_uris": {"android": "https://dc.lft.to/lastmile_qr_scan", "ios": "https://dc.lft.to/lastmile_qr_scan"}, "is_reserved": 0}, {"bike_id": "0687886ae0980178e6f4f77f11671fc1", "name": "0687886ae0980178e6f4f77f11671fc1", "lat": 38.924315666666665, "fusion_lat": 0.0, "type": "electric_scooter", "lon": -77.02030633333334, "is_disabled": 0, "fusion_lon": 0.0, "rental_uris": {"android": "https://dc.lft.to/lastmile_qr_scan", "ios": "https://dc.lft.to/lastmile_qr_scan"}, "is_reserved": 0}, {"bike_id": "b01d094fffe21b2323358856d32bd5aa", "name": "b01d094fffe21b2323358856d32bd5aa", "lat": 38.900724333333336, "fusion_lat": 0.0, "type": "electric_scooter", "lon": -77.02715116666667, "is_disabled": 0, "fusion_lon": 0.0, "rental_uris": {"android": "https://dc.lft.to/lastmile_qr_scan", "ios": "https://dc.lft.to/lastmile_qr_scan"}, "is_reserved": 0}, {"bike_id": "02f72a90640a45ab67dd3d687e11ba70", "name": "02f72a90640a45ab67dd3d687e11ba70", "lat": 38.904481833333335, "fusion_lat": 0.0, "type": "electric_scooter", "lon": -77.058639, "is_disabled": 0, "fusion_lon": 0.0, "rental_uris": {"android": "https://dc.lft.to/lastmile_qr_scan", "ios": "https://dc.lft.to/lastmile_qr_scan"}, "is_reserved": 0}, {"bike_id": "19a8eb035f71c65350b115ae2f575a3e", "name": "19a8eb035f71c65350b115ae2f575a3e", "lat": 38.997139, "fusion_lat": 0.0, "type": "electric_bike", "lon": -77.027582, "is_disabled": 0, "fusion_lon": 0.0, "rental_uris": {"android": "https://dc.lft.to/lastmile_qr_scan", "ios": "https://dc.lft.to/lastmile_qr_scan"}, "is_reserved": 0}, {"bike_id": "b7d18aebe894976133edc9b17cfff089", "name": "b7d18aebe894976133edc9b17cfff089", "lat": 38.905046166666665, "fusion_lat": 0.0, "type": "electric_scooter", "lon": -77.02949283333334, "is_disabled": 0, "fusion_lon": 0.0, "rental_uris": {"android": "https://dc.lft.to/lastmile_qr_scan", "ios": "https://dc.lft.to/lastmile_qr_scan"}, "is_reserved": 0}, {"bike_id": "c060c9f75db0000a0913b483bfc8fc52", "name": "c060c9f75db0000a0913b483bfc8fc52", "lat": 38.899843833333335, "fusion_lat": 0.0, "type": "electric_scooter", "lon": -77.03091933333333, "is_disabled": 0, "fusion_lon": 0.0, "rental_uris": {"android": "https://dc.lft.to/lastmile_qr_scan", "ios": "https://dc.lft.to/lastmile_qr_scan"}, "is_reserved": 0}, {"bike_id": "50966c17859beae1cfc9ef2941f492c3", "name": "50966c17859beae1cfc9ef2941f492c3", "lat": 38.8748375, "fusion_lat": 0.0, "type": "electric_scooter", "lon": -76.99975016666667, "is_disabled": 0, "fusion_lon": 0.0, "rental_uris": {"android": "https://dc.lft.to/lastmile_qr_scan", "ios": "https://dc.lft.to/lastmile_qr_scan"}, "is_reserved": 0}, {"bike_id": "56a10910cc401a88a18c0ad2c00f232a", "name": "56a10910cc401a88a18c0ad2c00f232a", "lat": 38.89448383333333, "fusion_lat": 0.0, "type": "electric_scooter", "lon": -77.02037983333334, "is_disabled": 0, "fusion_lon": 0.0, "rental_uris": {"android": "https://dc.lft.to/lastmile_qr_scan", "ios": "https://dc.lft.to/lastmile_qr_scan"}, "is_reserved": 0}, {"bike_id": "3f9055ac79bd033dd7575d02472a53fe", "name": "3f9055ac79bd033dd7575d02472a53fe", "lat": 38.915597166666664, "fusion_lat": 0.0, "type": "electric_scooter", "lon": -77.03249616666666, "is_disabled": 0, "fusion_lon": 0.0, "rental_uris": {"android": "https://dc.lft.to/lastmile_qr_scan", "ios": "https://dc.lft.to/lastmile_qr_scan"}, "is_reserved": 0}, {"bike_id": "e4857d45e35ec088a343ad30a8a4c5c0", "name": "e4857d45e35ec088a343ad30a8a4c5c0", "lat": 38.904971833333335, "fusion_lat": 0.0, "type": "electric_scooter", "lon": -77.0295715, "is_disabled": 0, "fusion_lon": 0.0, "rental_uris": {"android": "https://dc.lft.to/lastmile_qr_scan", "ios": "https://dc.lft.to/lastmile_qr_scan"}, "is_reserved": 0}, {"bike_id": "e688ef65b5eee15330e5867d80f80295", "name": "e688ef65b5eee15330e5867d80f80295", "lat": 38.91694566666666, "fusion_lat": 0.0, "type": "electric_scooter", "lon": -77.03824133333333, "is_disabled": 0, "fusion_lon": 0.0, "rental_uris": {"android": "https://dc.lft.to/lastmile_qr_scan", "ios": "https://dc.lft.to/lastmile_qr_scan"}, "is_reserved": 0}, {"bike_id": "9fa520f74523266c340f44a245a57486", "name": "9fa520f74523266c340f44a245a57486", "lat": 38.905856666666665, "fusion_lat": 0.0, "type": "electric_scooter", "lon": -77.04238883333333, "is_disabled": 0, "fusion_lon": 0.0, "rental_uris": {"android": "https://dc.lft.to/lastmile_qr_scan", "ios": "https://dc.lft.to/lastmile_qr_scan"}, "is_reserved": 0}, {"bike_id": "1ea1bab75a68efafd9a535bb9f7f269b", "name": "1ea1bab75a68efafd9a535bb9f7f269b", "lat": 38.962094666666665, "fusion_lat": 0.0, "type": "electric_bike", "lon": -77.07388983333334, "is_disabled": 0, "fusion_lon": 0.0, "rental_uris": {"android": "https://dc.lft.to/lastmile_qr_scan", "ios": "https://dc.lft.to/lastmile_qr_scan"}, "is_reserved": 0}, {"bike_id": "c385160a543c97719aec922e1bdb11dc", "name": "c385160a543c97719aec922e1bdb11dc", "lat": 38.92553433333333, "fusion_lat": 0.0, "type": "electric_scooter", "lon": -77.07769516666667, "is_disabled": 0, "fusion_lon": 0.0, "rental_uris": {"android": "https://dc.lft.to/lastmile_qr_scan", "ios": "https://dc.lft.to/lastmile_qr_scan"}, "is_reserved": 0}, {"bike_id": "dac93a1a3d55823d10afe2f11286ee7d", "name": "dac93a1a3d55823d10afe2f11286ee7d", "lat": 38.9171205, "fusion_lat": 0.0, "type": "electric_scooter", "lon": -77.02972416666667, "is_disabled": 0, "fusion_lon": 0.0, "rental_uris": {"android": "https://dc.lft.to/lastmile_qr_scan", "ios": "https://dc.lft.to/lastmile_qr_scan"}, "is_reserved": 0}, {"bike_id": "e3e67a8a4be07d589846dd16eeaf5f6f", "name": "e3e67a8a4be07d589846dd16eeaf5f6f", "lat": 38.89691883333333, "fusion_lat": 0.0, "type": "electric_scooter", "lon": -77.02776716666666, "is_disabled": 0, "fusion_lon": 0.0, "rental_uris": {"android": "https://dc.lft.to/lastmile_qr_scan", "ios": "https://dc.lft.to/lastmile_qr_scan"}, "is_reserved": 0}, {"bike_id": "003a1d6a9a7f69c3ec74134774de0df8", "name": "003a1d6a9a7f69c3ec74134774de0df8", "lat": 38.907161, "fusion_lat": 0.0, "type": "electric_scooter", "lon": -77.026833, "is_disabled": 0, "fusion_lon": 0.0, "rental_uris": {"android": "https://dc.lft.to/lastmile_qr_scan", "ios": "https://dc.lft.to/lastmile_qr_scan"}, "is_reserved": 0}, {"bike_id": "af43d300cb9115e523da0257f9f54c1e", "name": "af43d300cb9115e523da0257f9f54c1e", "lat": 38.917584833333336, "fusion_lat": 0.0, "type": "electric_scooter", "lon": -77.01932133333334, "is_disabled": 0, "fusion_lon": 0.0, "rental_uris": {"android": "https://dc.lft.to/lastmile_qr_scan", "ios": "https://dc.lft.to/lastmile_qr_scan"}, "is_reserved": 0}, {"bike_id": "10e6ecddfeeea207f05ea48e654d415b", "name": "10e6ecddfeeea207f05ea48e654d415b", "lat": 38.924340666666666, "fusion_lat": 0.0, "type": "electric_scooter", "lon": -77.00322516666667, "is_disabled": 0, "fusion_lon": 0.0, "rental_uris": {"android": "https://dc.lft.to/lastmile_qr_scan", "ios": "https://dc.lft.to/lastmile_qr_scan"}, "is_reserved": 0}, {"bike_id": "38dbd3453a56eaeae6c1968203eed3ea", "name": "38dbd3453a56eaeae6c1968203eed3ea", "lat": 38.919847, "fusion_lat": 0.0, "type": "electric_scooter", "lon": -77.04160633333333, "is_disabled": 0, "fusion_lon": 0.0, "rental_uris": {"android": "https://dc.lft.to/lastmile_qr_scan", "ios": "https://dc.lft.to/lastmile_qr_scan"}, "is_reserved": 0}, {"bike_id": "3a285ce2187ed4481a1d357982a76095", "name": "3a285ce2187ed4481a1d357982a76095", "lat": 38.9225235, "fusion_lat": 0.0, "type": "electric_scooter", "lon": -77.03520833333333, "is_disabled": 0, "fusion_lon": 0.0, "rental_uris": {"android": "https://dc.lft.to/lastmile_qr_scan", "ios": "https://dc.lft.to/lastmile_qr_scan"}, "is_reserved": 0}, {"bike_id": "a6f4440e499b4a42978e54c7a400624a", "name": "a6f4440e499b4a42978e54c7a400624a", "lat": 38.88587533333333, "fusion_lat": 0.0, "type": "electric_scooter", "lon": -77.02176666666666, "is_disabled": 0, "fusion_lon": 0.0, "rental_uris": {"android": "https://dc.lft.to/lastmile_qr_scan", "ios": "https://dc.lft.to/lastmile_qr_scan"}, "is_reserved": 0}, {"bike_id": "53dde4d15e0662a3d17b0a09ad2db8d8", "name": "53dde4d15e0662a3d17b0a09ad2db8d8", "lat": 38.93607983333333, "fusion_lat": 0.0, "type": "electric_scooter", "lon": -77.05874266666666, "is_disabled": 0, "fusion_lon": 0.0, "rental_uris": {"android": "https://dc.lft.to/lastmile_qr_scan", "ios": "https://dc.lft.to/lastmile_qr_scan"}, "is_reserved": 0}, {"bike_id": "170c5c95d10296e4bc36619f0ce81c81", "name": "170c5c95d10296e4bc36619f0ce81c81", "lat": 38.949115, "fusion_lat": 0.0, "type": "electric_scooter", "lon": -77.02073333333334, "is_disabled": 0, "fusion_lon": 0.0, "rental_uris": {"android": "https://dc.lft.to/lastmile_qr_scan", "ios": "https://dc.lft.to/lastmile_qr_scan"}, "is_reserved": 0}, {"bike_id": "6cfbc31a3111487797bc846d6cb6e7c8", "name": "6cfbc31a3111487797bc846d6cb6e7c8", "lat": 38.898526333333336, "fusion_lat": 0.0, "type": "electric_bike", "lon": -76.9319355, "is_disabled": 0, "fusion_lon": 0.0, "rental_uris": {"android": "https://dc.lft.to/lastmile_qr_scan", "ios": "https://dc.lft.to/lastmile_qr_scan"}, "is_reserved": 0}, {"bike_id": "2040c06af30fd97798243a0e159eb9e6", "name": "2040c06af30fd97798243a0e159eb9e6", "lat": 38.86209133333333, "fusion_lat": 0.0, "type": "electric_bike", "lon": -76.99527683333334, "is_disabled": 0, "fusion_lon": 0.0, "rental_uris": {"android": "https://dc.lft.to/lastmile_qr_scan", "ios": "https://dc.lft.to/lastmile_qr_scan"}, "is_reserved": 0}, {"bike_id": "9734304718317bbd50e7fddd54da7fe7", "name": "9734304718317bbd50e7fddd54da7fe7", "lat": 38.900547, "fusion_lat": 0.0, "type": "electric_scooter", "lon": -77.01373033333333, "is_disabled": 0, "fusion_lon": 0.0, "rental_uris": {"android": "https://dc.lft.to/lastmile_qr_scan", "ios": "https://dc.lft.to/lastmile_qr_scan"}, "is_reserved": 0}, {"bike_id": "099f80f7a4549cccf01c75ba7c65d4cd", "name": "099f80f7a4549cccf01c75ba7c65d4cd", "lat": 38.8841905, "fusion_lat": 0.0, "type": "electric_scooter", "lon": -77.03033483333333, "is_disabled": 0, "fusion_lon": 0.0, "rental_uris": {"android": "https://dc.lft.to/lastmile_qr_scan", "ios": "https://dc.lft.to/lastmile_qr_scan"}, "is_reserved": 0}, {"bike_id": "7584934d18f38ef79f34544a7768c9e6", "name": "7584934d18f38ef79f34544a7768c9e6", "lat": 38.9057655, "fusion_lat": 0.0, "type": "electric_scooter", "lon": -77.007864, "is_disabled": 0, "fusion_lon": 0.0, "rental_uris": {"android": "https://dc.lft.to/lastmile_qr_scan", "ios": "https://dc.lft.to/lastmile_qr_scan"}, "is_reserved": 0}, {"bike_id": "ca5816f9801e13db8a0e5de4cb5fdc5d", "name": "ca5816f9801e13db8a0e5de4cb5fdc5d", "lat": 38.9023965, "fusion_lat": 0.0, "type": "electric_scooter", "lon": -77.03753566666667, "is_disabled": 0, "fusion_lon": 0.0, "rental_uris": {"android": "https://dc.lft.to/lastmile_qr_scan", "ios": "https://dc.lft.to/lastmile_qr_scan"}, "is_reserved": 0}, {"bike_id": "e409dd060d3844cad757836bc09629f7", "name": "e409dd060d3844cad757836bc09629f7", "lat": 38.903925666666666, "fusion_lat": 0.0, "type": "electric_scooter", "lon": -77.06302283333333, "is_disabled": 0, "fusion_lon": 0.0, "rental_uris": {"android": "https://dc.lft.to/lastmile_qr_scan", "ios": "https://dc.lft.to/lastmile_qr_scan"}, "is_reserved": 0}, {"bike_id": "413346b2385d7f2d738dfe8c3268d159", "name": "413346b2385d7f2d738dfe8c3268d159", "lat": 38.90183783333333, "fusion_lat": 0.0, "type": "electric_scooter", "lon": -77.02368716666666, "is_disabled": 0, "fusion_lon": 0.0, "rental_uris": {"android": "https://dc.lft.to/lastmile_qr_scan", "ios": "https://dc.lft.to/lastmile_qr_scan"}, "is_reserved": 0}, {"bike_id": "31460fa72a3e0271b3d2c78ecbf7bfdd", "name": "31460fa72a3e0271b3d2c78ecbf7bfdd", "lat": 38.900526666666664, "fusion_lat": 0.0, "type": "electric_scooter", "lon": -77.0484435, "is_disabled": 0, "fusion_lon": 0.0, "rental_uris": {"android": "https://dc.lft.to/lastmile_qr_scan", "ios": "https://dc.lft.to/lastmile_qr_scan"}, "is_reserved": 0}, {"bike_id": "ff78302967e8aeff1f134e3a5df8cc6a", "name": "ff78302967e8aeff1f134e3a5df8cc6a", "lat": 38.926024, "fusion_lat": 0.0, "type": "electric_scooter", "lon": -77.0215555, "is_disabled": 0, "fusion_lon": 0.0, "rental_uris": {"android": "https://dc.lft.to/lastmile_qr_scan", "ios": "https://dc.lft.to/lastmile_qr_scan"}, "is_reserved": 0}, {"bike_id": "21731aa6413667dbfb8c513e26f0d200", "name": "21731aa6413667dbfb8c513e26f0d200", "lat": 38.893396833333334, "fusion_lat": 0.0, "type": "electric_scooter", "lon": -76.993797, "is_disabled": 0, "fusion_lon": 0.0, "rental_uris": {"android": "https://dc.lft.to/lastmile_qr_scan", "ios": "https://dc.lft.to/lastmile_qr_scan"}, "is_reserved": 0}, {"bike_id": "30e1643998bac4dee85752f0ea211e13", "name": "30e1643998bac4dee85752f0ea211e13", "lat": 38.910915833333334, "fusion_lat": 0.0, "type": "electric_scooter", "lon": -76.98481133333334, "is_disabled": 0, "fusion_lon": 0.0, "rental_uris": {"android": "https://dc.lft.to/lastmile_qr_scan", "ios": "https://dc.lft.to/lastmile_qr_scan"}, "is_reserved": 0}, {"bike_id": "db3b2012c2b918a37930bf3358362a75", "name": "db3b2012c2b918a37930bf3358362a75", "lat": 38.916139666666666, "fusion_lat": 0.0, "type": "electric_scooter", "lon": -77.02402316666667, "is_disabled": 0, "fusion_lon": 0.0, "rental_uris": {"android": "https://dc.lft.to/lastmile_qr_scan", "ios": "https://dc.lft.to/lastmile_qr_scan"}, "is_reserved": 0}, {"bike_id": "562824942a30f9cf9ddecdc7e0c3c0c3", "name": "562824942a30f9cf9ddecdc7e0c3c0c3", "lat": 38.94411, "fusion_lat": 0.0, "type": "electric_scooter", "lon": -77.03260516666667, "is_disabled": 0, "fusion_lon": 0.0, "rental_uris": {"android": "https://dc.lft.to/lastmile_qr_scan", "ios": "https://dc.lft.to/lastmile_qr_scan"}, "is_reserved": 0}, {"bike_id": "49477fed59e1a80e848be7191e8397f8", "name": "49477fed59e1a80e848be7191e8397f8", "lat": 38.916001, "fusion_lat": 0.0, "type": "electric_scooter", "lon": -77.0227985, "is_disabled": 0, "fusion_lon": 0.0, "rental_uris": {"android": "https://dc.lft.to/lastmile_qr_scan", "ios": "https://dc.lft.to/lastmile_qr_scan"}, "is_reserved": 0}, {"bike_id": "adf8c8764962e3a2c19bc8f318c1b40c", "name": "adf8c8764962e3a2c19bc8f318c1b40c", "lat": 38.88731766666667, "fusion_lat": 0.0, "type": "electric_scooter", "lon": -77.02621566666667, "is_disabled": 0, "fusion_lon": 0.0, "rental_uris": {"android": "https://dc.lft.to/lastmile_qr_scan", "ios": "https://dc.lft.to/lastmile_qr_scan"}, "is_reserved": 0}, {"bike_id": "5c0cc5714c4d46757ef831df417eaa79", "name": "5c0cc5714c4d46757ef831df417eaa79", "lat": 38.915691333333335, "fusion_lat": 0.0, "type": "electric_scooter", "lon": -76.98394816666666, "is_disabled": 0, "fusion_lon": 0.0, "rental_uris": {"android": "https://dc.lft.to/lastmile_qr_scan", "ios": "https://dc.lft.to/lastmile_qr_scan"}, "is_reserved": 0}, {"bike_id": "e918f30602dfca015adf43653f62848d", "name": "e918f30602dfca015adf43653f62848d", "lat": 38.9492455, "fusion_lat": 0.0, "type": "electric_scooter", "lon": -77.02695733333333, "is_disabled": 0, "fusion_lon": 0.0, "rental_uris": {"android": "https://dc.lft.to/lastmile_qr_scan", "ios": "https://dc.lft.to/lastmile_qr_scan"}, "is_reserved": 0}, {"bike_id": "54c4b4d3971f0276384a8cf1070423a5", "name": "54c4b4d3971f0276384a8cf1070423a5", "lat": 38.89990866666667, "fusion_lat": 0.0, "type": "electric_scooter", "lon": -77.02933716666666, "is_disabled": 0, "fusion_lon": 0.0, "rental_uris": {"android": "https://dc.lft.to/lastmile_qr_scan", "ios": "https://dc.lft.to/lastmile_qr_scan"}, "is_reserved": 0}, {"bike_id": "a0733e46ccaf2a817f9de3b4d8dd9fd1", "name": "a0733e46ccaf2a817f9de3b4d8dd9fd1", "lat": 38.904769333333334, "fusion_lat": 0.0, "type": "electric_scooter", "lon": -77.04348616666667, "is_disabled": 0, "fusion_lon": 0.0, "rental_uris": {"android": "https://dc.lft.to/lastmile_qr_scan", "ios": "https://dc.lft.to/lastmile_qr_scan"}, "is_reserved": 0}, {"bike_id": "ed626e30a4adfa1a86e116adacffa82c", "name": "ed626e30a4adfa1a86e116adacffa82c", "lat": 38.884212, "fusion_lat": 0.0, "type": "electric_scooter", "lon": -77.0254735, "is_disabled": 0, "fusion_lon": 0.0, "rental_uris": {"android": "https://dc.lft.to/lastmile_qr_scan", "ios": "https://dc.lft.to/lastmile_qr_scan"}, "is_reserved": 0}, {"bike_id": "f1492bd97a37f1e1c7edd52320d71f32", "name": "f1492bd97a37f1e1c7edd52320d71f32", "lat": 38.90064733333333, "fusion_lat": 0.0, "type": "electric_scooter", "lon": -77.02183666666667, "is_disabled": 0, "fusion_lon": 0.0, "rental_uris": {"android": "https://dc.lft.to/lastmile_qr_scan", "ios": "https://dc.lft.to/lastmile_qr_scan"}, "is_reserved": 0}, {"bike_id": "7d4df4f1bc681982e3f89d3311cc40f8", "name": "7d4df4f1bc681982e3f89d3311cc40f8", "lat": 38.879412, "fusion_lat": 0.0, "type": "electric_scooter", "lon": -77.00379166666667, "is_disabled": 0, "fusion_lon": 0.0, "rental_uris": {"android": "https://dc.lft.to/lastmile_qr_scan", "ios": "https://dc.lft.to/lastmile_qr_scan"}, "is_reserved": 0}, {"bike_id": "3b690345b05cd1b04fb0f07711c85acb", "name": "3b690345b05cd1b04fb0f07711c85acb", "lat": 38.921593, "fusion_lat": 0.0, "type": "electric_scooter", "lon": -77.073091, "is_disabled": 0, "fusion_lon": 0.0, "rental_uris": {"android": "https://dc.lft.to/lastmile_qr_scan", "ios": "https://dc.lft.to/lastmile_qr_scan"}, "is_reserved": 0}, {"bike_id": "ec2a55ff425a7524d9c219cdf494f612", "name": "ec2a55ff425a7524d9c219cdf494f612", "lat": 38.89675883333334, "fusion_lat": 0.0, "type": "electric_scooter", "lon": -77.005184, "is_disabled": 0, "fusion_lon": 0.0, "rental_uris": {"android": "https://dc.lft.to/lastmile_qr_scan", "ios": "https://dc.lft.to/lastmile_qr_scan"}, "is_reserved": 0}, {"bike_id": "60fcd48cb971c54d96217d5f744ac850", "name": "60fcd48cb971c54d96217d5f744ac850", "lat": 38.883398666666665, "fusion_lat": 0.0, "type": "electric_scooter", "lon": -76.94284333333333, "is_disabled": 0, "fusion_lon": 0.0, "rental_uris": {"android": "https://dc.lft.to/lastmile_qr_scan", "ios": "https://dc.lft.to/lastmile_qr_scan"}, "is_reserved": 0}, {"bike_id": "1097f3f258cfb32b335a957aadc4dff4", "name": "1097f3f258cfb32b335a957aadc4dff4", "lat": 38.927096666666664, "fusion_lat": 0.0, "type": "electric_scooter", "lon": -77.0208175, "is_disabled": 0, "fusion_lon": 0.0, "rental_uris": {"android": "https://dc.lft.to/lastmile_qr_scan", "ios": "https://dc.lft.to/lastmile_qr_scan"}, "is_reserved": 0}, {"bike_id": "2c12b224ce8f7113216fc53983cec920", "name": "2c12b224ce8f7113216fc53983cec920", "lat": 38.87075266666667, "fusion_lat": 0.0, "type": "electric_bike", "lon": -77.110611, "is_disabled": 0, "fusion_lon": 0.0, "rental_uris": {"android": "https://dc.lft.to/lastmile_qr_scan", "ios": "https://dc.lft.to/lastmile_qr_scan"}, "is_reserved": 0}, {"bike_id": "ad614293af0967f60485c6f5d9dc19c0", "name": "ad614293af0967f60485c6f5d9dc19c0", "lat": 38.8816015, "fusion_lat": 0.0, "type": "electric_scooter", "lon": -77.0277125, "is_disabled": 0, "fusion_lon": 0.0, "rental_uris": {"android": "https://dc.lft.to/lastmile_qr_scan", "ios": "https://dc.lft.to/lastmile_qr_scan"}, "is_reserved": 0}, {"bike_id": "caefe67d7af140054c513d92e7fff3f3", "name": "caefe67d7af140054c513d92e7fff3f3", "lat": 38.902185, "fusion_lat": 0.0, "type": "electric_scooter", "lon": -77.02278683333333, "is_disabled": 0, "fusion_lon": 0.0, "rental_uris": {"android": "https://dc.lft.to/lastmile_qr_scan", "ios": "https://dc.lft.to/lastmile_qr_scan"}, "is_reserved": 0}, {"bike_id": "f7ccf8e244e44058b6faef9896a956b4", "name": "f7ccf8e244e44058b6faef9896a956b4", "lat": 38.918001833333335, "fusion_lat": 0.0, "type": "electric_scooter", "lon": -77.024685, "is_disabled": 0, "fusion_lon": 0.0, "rental_uris": {"android": "https://dc.lft.to/lastmile_qr_scan", "ios": "https://dc.lft.to/lastmile_qr_scan"}, "is_reserved": 0}, {"bike_id": "3fa126a57a9cdfdb23f20d7cd7a29ced", "name": "3fa126a57a9cdfdb23f20d7cd7a29ced", "lat": 38.900514666666666, "fusion_lat": 0.0, "type": "electric_scooter", "lon": -77.007527, "is_disabled": 0, "fusion_lon": 0.0, "rental_uris": {"android": "https://dc.lft.to/lastmile_qr_scan", "ios": "https://dc.lft.to/lastmile_qr_scan"}, "is_reserved": 0}, {"bike_id": "a9d1ab30d89fe2f92650fd0a90074b89", "name": "a9d1ab30d89fe2f92650fd0a90074b89", "lat": 38.9503025, "fusion_lat": 0.0, "type": "electric_bike", "lon": -76.9710475, "is_disabled": 0, "fusion_lon": 0.0, "rental_uris": {"android": "https://dc.lft.to/lastmile_qr_scan", "ios": "https://dc.lft.to/lastmile_qr_scan"}, "is_reserved": 0}, {"bike_id": "8a4cc25d84695c075fd28c777df36bd0", "name": "8a4cc25d84695c075fd28c777df36bd0", "lat": 38.897825166666664, "fusion_lat": 0.0, "type": "electric_scooter", "lon": -77.0167915, "is_disabled": 0, "fusion_lon": 0.0, "rental_uris": {"android": "https://dc.lft.to/lastmile_qr_scan", "ios": "https://dc.lft.to/lastmile_qr_scan"}, "is_reserved": 0}, {"bike_id": "907ff47aef695cbb74ce15d1a787ed03", "name": "907ff47aef695cbb74ce15d1a787ed03", "lat": 38.90555483333333, "fusion_lat": 0.0, "type": "electric_scooter", "lon": -77.00590866666667, "is_disabled": 0, "fusion_lon": 0.0, "rental_uris": {"android": "https://dc.lft.to/lastmile_qr_scan", "ios": "https://dc.lft.to/lastmile_qr_scan"}, "is_reserved": 0}, {"bike_id": "d7f1ad6c388e6190399ae591e41ba249", "name": "d7f1ad6c388e6190399ae591e41ba249", "lat": 38.9051045, "fusion_lat": 0.0, "type": "electric_scooter", "lon": -77.0294605, "is_disabled": 0, "fusion_lon": 0.0, "rental_uris": {"android": "https://dc.lft.to/lastmile_qr_scan", "ios": "https://dc.lft.to/lastmile_qr_scan"}, "is_reserved": 0}, {"bike_id": "43fef0ea269a8101e4a314daa4f2dfd8", "name": "43fef0ea269a8101e4a314daa4f2dfd8", "lat": 38.87868383333333, "fusion_lat": 0.0, "type": "electric_scooter", "lon": -76.96260533333333, "is_disabled": 0, "fusion_lon": 0.0, "rental_uris": {"android": "https://dc.lft.to/lastmile_qr_scan", "ios": "https://dc.lft.to/lastmile_qr_scan"}, "is_reserved": 0}, {"bike_id": "9eb0d6df4ac75b21dca187a45d2da556", "name": "9eb0d6df4ac75b21dca187a45d2da556", "lat": 38.924256, "fusion_lat": 0.0, "type": "electric_scooter", "lon": -77.0194485, "is_disabled": 0, "fusion_lon": 0.0, "rental_uris": {"android": "https://dc.lft.to/lastmile_qr_scan", "ios": "https://dc.lft.to/lastmile_qr_scan"}, "is_reserved": 0}, {"bike_id": "c448965f0e7cc8f2d38fc9e9f17b8924", "name": "c448965f0e7cc8f2d38fc9e9f17b8924", "lat": 38.94244166666667, "fusion_lat": 0.0, "type": "electric_scooter", "lon": -77.03582583333333, "is_disabled": 0, "fusion_lon": 0.0, "rental_uris": {"android": "https://dc.lft.to/lastmile_qr_scan", "ios": "https://dc.lft.to/lastmile_qr_scan"}, "is_reserved": 0}, {"bike_id": "ed3c2921ee1cda6cafdaa3cecd20c2dc", "name": "ed3c2921ee1cda6cafdaa3cecd20c2dc", "lat": 38.863694833333334, "fusion_lat": 0.0, "type": "electric_bike", "lon": -76.970126, "is_disabled": 0, "fusion_lon": 0.0, "rental_uris": {"android": "https://dc.lft.to/lastmile_qr_scan", "ios": "https://dc.lft.to/lastmile_qr_scan"}, "is_reserved": 0}, {"bike_id": "c6d4cbd354502d25820e9b4e8c512faf", "name": "c6d4cbd354502d25820e9b4e8c512faf", "lat": 38.887250333333334, "fusion_lat": 0.0, "type": "electric_scooter", "lon": -76.98357683333333, "is_disabled": 0, "fusion_lon": 0.0, "rental_uris": {"android": "https://dc.lft.to/lastmile_qr_scan", "ios": "https://dc.lft.to/lastmile_qr_scan"}, "is_reserved": 0}, {"bike_id": "00599d0a1288661d3dc1df4ca436cec8", "name": "00599d0a1288661d3dc1df4ca436cec8", "lat": 38.922754, "fusion_lat": 0.0, "type": "electric_scooter", "lon": -77.036618, "is_disabled": 0, "fusion_lon": 0.0, "rental_uris": {"android": "https://dc.lft.to/lastmile_qr_scan", "ios": "https://dc.lft.to/lastmile_qr_scan"}, "is_reserved": 0}, {"bike_id": "9be97e0497dcbb68a0915130c329f053", "name": "9be97e0497dcbb68a0915130c329f053", "lat": 38.9097025, "fusion_lat": 0.0, "type": "electric_scooter", "lon": -77.02584066666667, "is_disabled": 0, "fusion_lon": 0.0, "rental_uris": {"android": "https://dc.lft.to/lastmile_qr_scan", "ios": "https://dc.lft.to/lastmile_qr_scan"}, "is_reserved": 0}, {"bike_id": "2753f7d36fd079d88fea014484762b84", "name": "2753f7d36fd079d88fea014484762b84", "lat": 38.91817433333333, "fusion_lat": 0.0, "type": "electric_scooter", "lon": -77.03021066666666, "is_disabled": 0, "fusion_lon": 0.0, "rental_uris": {"android": "https://dc.lft.to/lastmile_qr_scan", "ios": "https://dc.lft.to/lastmile_qr_scan"}, "is_reserved": 0}, {"bike_id": "71f41e5961cbb6e067633b654b4d16ba", "name": "71f41e5961cbb6e067633b654b4d16ba", "lat": 38.9293975, "fusion_lat": 0.0, "type": "electric_scooter", "lon": -77.00403833333333, "is_disabled": 0, "fusion_lon": 0.0, "rental_uris": {"android": "https://dc.lft.to/lastmile_qr_scan", "ios": "https://dc.lft.to/lastmile_qr_scan"}, "is_reserved": 0}, {"bike_id": "e8fd8bd5b53d6950a7f4d06d9e73754e", "name": "e8fd8bd5b53d6950a7f4d06d9e73754e", "lat": 38.896139, "fusion_lat": 0.0, "type": "electric_scooter", "lon": -77.04413083333333, "is_disabled": 0, "fusion_lon": 0.0, "rental_uris": {"android": "https://dc.lft.to/lastmile_qr_scan", "ios": "https://dc.lft.to/lastmile_qr_scan"}, "is_reserved": 0}, {"bike_id": "b4341d5ae5947e092dcf5bf03c9010ff", "name": "b4341d5ae5947e092dcf5bf03c9010ff", "lat": 38.909926, "fusion_lat": 0.0, "type": "electric_scooter", "lon": -77.04009433333333, "is_disabled": 0, "fusion_lon": 0.0, "rental_uris": {"android": "https://dc.lft.to/lastmile_qr_scan", "ios": "https://dc.lft.to/lastmile_qr_scan"}, "is_reserved": 0}, {"bike_id": "7fc0cd3bcd914565b44ac43d9d7a0f57", "name": "7fc0cd3bcd914565b44ac43d9d7a0f57", "lat": 38.916513333333334, "fusion_lat": 0.0, "type": "electric_scooter", "lon": -77.03201483333333, "is_disabled": 0, "fusion_lon": 0.0, "rental_uris": {"android": "https://dc.lft.to/lastmile_qr_scan", "ios": "https://dc.lft.to/lastmile_qr_scan"}, "is_reserved": 0}, {"bike_id": "c60d332b2c7372f865933d3109a32b57", "name": "c60d332b2c7372f865933d3109a32b57", "lat": 38.9055395, "fusion_lat": 0.0, "type": "electric_scooter", "lon": -77.005883, "is_disabled": 0, "fusion_lon": 0.0, "rental_uris": {"android": "https://dc.lft.to/lastmile_qr_scan", "ios": "https://dc.lft.to/lastmile_qr_scan"}, "is_reserved": 0}, {"bike_id": "a0e45f38642ad5358c5dc1458221e4db", "name": "a0e45f38642ad5358c5dc1458221e4db", "lat": 38.90064866666667, "fusion_lat": 0.0, "type": "electric_scooter", "lon": -76.92744083333334, "is_disabled": 0, "fusion_lon": 0.0, "rental_uris": {"android": "https://dc.lft.to/lastmile_qr_scan", "ios": "https://dc.lft.to/lastmile_qr_scan"}, "is_reserved": 0}, {"bike_id": "93996583cc6d5a935f52c2e7d4b81a7f", "name": "93996583cc6d5a935f52c2e7d4b81a7f", "lat": 38.917889833333334, "fusion_lat": 0.0, "type": "electric_scooter", "lon": -77.03195533333333, "is_disabled": 0, "fusion_lon": 0.0, "rental_uris": {"android": "https://dc.lft.to/lastmile_qr_scan", "ios": "https://dc.lft.to/lastmile_qr_scan"}, "is_reserved": 0}, {"bike_id": "37114ebc207170c0a179a81f83579119", "name": "37114ebc207170c0a179a81f83579119", "lat": 38.934726166666664, "fusion_lat": 0.0, "type": "electric_scooter", "lon": -77.04158833333334, "is_disabled": 0, "fusion_lon": 0.0, "rental_uris": {"android": "https://dc.lft.to/lastmile_qr_scan", "ios": "https://dc.lft.to/lastmile_qr_scan"}, "is_reserved": 0}, {"bike_id": "5ac155ba8cfa037bff82af9857df4eef", "name": "5ac155ba8cfa037bff82af9857df4eef", "lat": 38.904117166666666, "fusion_lat": 0.0, "type": "electric_scooter", "lon": -76.99063683333333, "is_disabled": 0, "fusion_lon": 0.0, "rental_uris": {"android": "https://dc.lft.to/lastmile_qr_scan", "ios": "https://dc.lft.to/lastmile_qr_scan"}, "is_reserved": 0}, {"bike_id": "dbe884c8f84cd268f2a849a98b7a8fb6", "name": "dbe884c8f84cd268f2a849a98b7a8fb6", "lat": 38.91719066666667, "fusion_lat": 0.0, "type": "electric_scooter", "lon": -77.03663133333333, "is_disabled": 0, "fusion_lon": 0.0, "rental_uris": {"android": "https://dc.lft.to/lastmile_qr_scan", "ios": "https://dc.lft.to/lastmile_qr_scan"}, "is_reserved": 0}, {"bike_id": "73357cda461504edb228755c167a580b", "name": "73357cda461504edb228755c167a580b", "lat": 38.9891685, "fusion_lat": 0.0, "type": "electric_bike", "lon": -77.02544366666666, "is_disabled": 0, "fusion_lon": 0.0, "rental_uris": {"android": "https://dc.lft.to/lastmile_qr_scan", "ios": "https://dc.lft.to/lastmile_qr_scan"}, "is_reserved": 0}, {"bike_id": "138fb28e2c4119b05d8815379e641853", "name": "138fb28e2c4119b05d8815379e641853", "lat": 38.912135666666664, "fusion_lat": 0.0, "type": "electric_scooter", "lon": -77.0317845, "is_disabled": 0, "fusion_lon": 0.0, "rental_uris": {"android": "https://dc.lft.to/lastmile_qr_scan", "ios": "https://dc.lft.to/lastmile_qr_scan"}, "is_reserved": 0}, {"bike_id": "539d43fd658e3075c6c50b833cc4293e", "name": "539d43fd658e3075c6c50b833cc4293e", "lat": 38.92154933333333, "fusion_lat": 0.0, "type": "electric_scooter", "lon": -77.03839233333333, "is_disabled": 0, "fusion_lon": 0.0, "rental_uris": {"android": "https://dc.lft.to/lastmile_qr_scan", "ios": "https://dc.lft.to/lastmile_qr_scan"}, "is_reserved": 0}, {"bike_id": "b93bbc56cbed9ca978fab0afea4887fc", "name": "b93bbc56cbed9ca978fab0afea4887fc", "lat": 38.89971533333333, "fusion_lat": 0.0, "type": "electric_scooter", "lon": -77.0229355, "is_disabled": 0, "fusion_lon": 0.0, "rental_uris": {"android": "https://dc.lft.to/lastmile_qr_scan", "ios": "https://dc.lft.to/lastmile_qr_scan"}, "is_reserved": 0}, {"bike_id": "b52a8c3bac86cc1805e55a122de92ead", "name": "b52a8c3bac86cc1805e55a122de92ead", "lat": 38.8865925, "fusion_lat": 0.0, "type": "electric_scooter", "lon": -77.03393083333333, "is_disabled": 0, "fusion_lon": 0.0, "rental_uris": {"android": "https://dc.lft.to/lastmile_qr_scan", "ios": "https://dc.lft.to/lastmile_qr_scan"}, "is_reserved": 0}, {"bike_id": "f0bb1c74707be5a81ce70470ab6f62a1", "name": "f0bb1c74707be5a81ce70470ab6f62a1", "lat": 38.914152666666666, "fusion_lat": 0.0, "type": "electric_scooter", "lon": -77.03252633333334, "is_disabled": 0, "fusion_lon": 0.0, "rental_uris": {"android": "https://dc.lft.to/lastmile_qr_scan", "ios": "https://dc.lft.to/lastmile_qr_scan"}, "is_reserved": 0}, {"bike_id": "9aa4a5379ef364249f1130432e7d3d46", "name": "9aa4a5379ef364249f1130432e7d3d46", "lat": 38.904509, "fusion_lat": 0.0, "type": "electric_scooter", "lon": -77.01690333333333, "is_disabled": 0, "fusion_lon": 0.0, "rental_uris": {"android": "https://dc.lft.to/lastmile_qr_scan", "ios": "https://dc.lft.to/lastmile_qr_scan"}, "is_reserved": 0}, {"bike_id": "5a281c863b5fa9d5cddcf68178b7af96", "name": "5a281c863b5fa9d5cddcf68178b7af96", "lat": 38.919910333333334, "fusion_lat": 0.0, "type": "electric_scooter", "lon": -77.021787, "is_disabled": 0, "fusion_lon": 0.0, "rental_uris": {"android": "https://dc.lft.to/lastmile_qr_scan", "ios": "https://dc.lft.to/lastmile_qr_scan"}, "is_reserved": 0}, {"bike_id": "2c355eb772dee0a5d6f494fdbaf0f9fe", "name": "2c355eb772dee0a5d6f494fdbaf0f9fe", "lat": 38.927513833333336, "fusion_lat": 0.0, "type": "electric_scooter", "lon": -77.021145, "is_disabled": 0, "fusion_lon": 0.0, "rental_uris": {"android": "https://dc.lft.to/lastmile_qr_scan", "ios": "https://dc.lft.to/lastmile_qr_scan"}, "is_reserved": 0}, {"bike_id": "f2dd3f1fbdb563226a351a9d5aaabab4", "name": "f2dd3f1fbdb563226a351a9d5aaabab4", "lat": 38.933456, "fusion_lat": 0.0, "type": "electric_scooter", "lon": -77.05710916666666, "is_disabled": 0, "fusion_lon": 0.0, "rental_uris": {"android": "https://dc.lft.to/lastmile_qr_scan", "ios": "https://dc.lft.to/lastmile_qr_scan"}, "is_reserved": 0}, {"bike_id": "c21affd4d629ac2ba2e44776c5d04672", "name": "c21affd4d629ac2ba2e44776c5d04672", "lat": 38.922292166666665, "fusion_lat": 0.0, "type": "electric_scooter", "lon": -77.03959816666666, "is_disabled": 0, "fusion_lon": 0.0, "rental_uris": {"android": "https://dc.lft.to/lastmile_qr_scan", "ios": "https://dc.lft.to/lastmile_qr_scan"}, "is_reserved": 0}, {"bike_id": "bcb29a8a6b83023800219c0961750e02", "name": "bcb29a8a6b83023800219c0961750e02", "lat": 38.898473, "fusion_lat": 0.0, "type": "electric_bike", "lon": -77.118727, "is_disabled": 0, "fusion_lon": 0.0, "rental_uris": {"android": "https://dc.lft.to/lastmile_qr_scan", "ios": "https://dc.lft.to/lastmile_qr_scan"}, "is_reserved": 0}, {"bike_id": "1342fb7d33fd596015db472fe2f11d09", "name": "1342fb7d33fd596015db472fe2f11d09", "lat": 38.921249333333336, "fusion_lat": 0.0, "type": "electric_scooter", "lon": -77.042117, "is_disabled": 0, "fusion_lon": 0.0, "rental_uris": {"android": "https://dc.lft.to/lastmile_qr_scan", "ios": "https://dc.lft.to/lastmile_qr_scan"}, "is_reserved": 0}, {"bike_id": "f2928a48739803d433bbac6e73dbd548", "name": "f2928a48739803d433bbac6e73dbd548", "lat": 38.935784, "fusion_lat": 0.0, "type": "electric_scooter", "lon": -77.07342416666667, "is_disabled": 0, "fusion_lon": 0.0, "rental_uris": {"android": "https://dc.lft.to/lastmile_qr_scan", "ios": "https://dc.lft.to/lastmile_qr_scan"}, "is_reserved": 0}, {"bike_id": "1cba6096a80904e9226440cf604f49f8", "name": "1cba6096a80904e9226440cf604f49f8", "lat": 38.9162695, "fusion_lat": 0.0, "type": "electric_scooter", "lon": -77.031691, "is_disabled": 0, "fusion_lon": 0.0, "rental_uris": {"android": "https://dc.lft.to/lastmile_qr_scan", "ios": "https://dc.lft.to/lastmile_qr_scan"}, "is_reserved": 0}, {"bike_id": "e605c3e13a3d8a7485b730b13afe7c2b", "name": "e605c3e13a3d8a7485b730b13afe7c2b", "lat": 38.90141216666667, "fusion_lat": 0.0, "type": "electric_scooter", "lon": -77.04634766666666, "is_disabled": 0, "fusion_lon": 0.0, "rental_uris": {"android": "https://dc.lft.to/lastmile_qr_scan", "ios": "https://dc.lft.to/lastmile_qr_scan"}, "is_reserved": 0}, {"bike_id": "2b2238f93b408ffd45cbc0b579aa631a", "name": "2b2238f93b408ffd45cbc0b579aa631a", "lat": 38.9450935, "fusion_lat": 0.0, "type": "electric_scooter", "lon": -77.0336435, "is_disabled": 0, "fusion_lon": 0.0, "rental_uris": {"android": "https://dc.lft.to/lastmile_qr_scan", "ios": "https://dc.lft.to/lastmile_qr_scan"}, "is_reserved": 0}, {"bike_id": "dbd4a1e0b38094c46e9b53f79a0bdd67", "name": "dbd4a1e0b38094c46e9b53f79a0bdd67", "lat": 38.92130866666667, "fusion_lat": 0.0, "type": "electric_scooter", "lon": -77.0179235, "is_disabled": 0, "fusion_lon": 0.0, "rental_uris": {"android": "https://dc.lft.to/lastmile_qr_scan", "ios": "https://dc.lft.to/lastmile_qr_scan"}, "is_reserved": 0}, {"bike_id": "1c69452fb69868a7d6fb67777435a28b", "name": "1c69452fb69868a7d6fb67777435a28b", "lat": 38.9305565, "fusion_lat": 0.0, "type": "electric_scooter", "lon": -77.03938416666666, "is_disabled": 0, "fusion_lon": 0.0, "rental_uris": {"android": "https://dc.lft.to/lastmile_qr_scan", "ios": "https://dc.lft.to/lastmile_qr_scan"}, "is_reserved": 0}, {"bike_id": "2cadb82511c97fcf4a0d25ff5c9d46c8", "name": "2cadb82511c97fcf4a0d25ff5c9d46c8", "lat": 38.894740666666664, "fusion_lat": 0.0, "type": "electric_scooter", "lon": -77.046601, "is_disabled": 0, "fusion_lon": 0.0, "rental_uris": {"android": "https://dc.lft.to/lastmile_qr_scan", "ios": "https://dc.lft.to/lastmile_qr_scan"}, "is_reserved": 0}, {"bike_id": "5556310f061033325f225fc8b5b32ba4", "name": "5556310f061033325f225fc8b5b32ba4", "lat": 38.905009166666666, "fusion_lat": 0.0, "type": "electric_scooter", "lon": -77.04332333333333, "is_disabled": 0, "fusion_lon": 0.0, "rental_uris": {"android": "https://dc.lft.to/lastmile_qr_scan", "ios": "https://dc.lft.to/lastmile_qr_scan"}, "is_reserved": 0}, {"bike_id": "2183e6c65de079ec7c7e642af51cce8b", "name": "2183e6c65de079ec7c7e642af51cce8b", "lat": 38.887267333333334, "fusion_lat": 0.0, "type": "electric_scooter", "lon": -77.02829216666666, "is_disabled": 0, "fusion_lon": 0.0, "rental_uris": {"android": "https://dc.lft.to/lastmile_qr_scan", "ios": "https://dc.lft.to/lastmile_qr_scan"}, "is_reserved": 0}, {"bike_id": "97824bf778e27f73dc3f19f169747b73", "name": "97824bf778e27f73dc3f19f169747b73", "lat": 38.94301183333334, "fusion_lat": 0.0, "type": "electric_scooter", "lon": -77.05940433333333, "is_disabled": 0, "fusion_lon": 0.0, "rental_uris": {"android": "https://dc.lft.to/lastmile_qr_scan", "ios": "https://dc.lft.to/lastmile_qr_scan"}, "is_reserved": 0}, {"bike_id": "19180ece818a785df17df33a27130b88", "name": "19180ece818a785df17df33a27130b88", "lat": 38.90502766666667, "fusion_lat": 0.0, "type": "electric_scooter", "lon": -77.0569445, "is_disabled": 0, "fusion_lon": 0.0, "rental_uris": {"android": "https://dc.lft.to/lastmile_qr_scan", "ios": "https://dc.lft.to/lastmile_qr_scan"}, "is_reserved": 0}, {"bike_id": "256b0a95c7c12c1ee01b9b30bbdb36db", "name": "256b0a95c7c12c1ee01b9b30bbdb36db", "lat": 38.920982, "fusion_lat": 0.0, "type": "electric_scooter", "lon": -77.025204, "is_disabled": 0, "fusion_lon": 0.0, "rental_uris": {"android": "https://dc.lft.to/lastmile_qr_scan", "ios": "https://dc.lft.to/lastmile_qr_scan"}, "is_reserved": 0}, {"bike_id": "e20c7a693f67ec1003963be8f53fa525", "name": "e20c7a693f67ec1003963be8f53fa525", "lat": 38.890409166666664, "fusion_lat": 0.0, "type": "electric_scooter", "lon": -76.93752333333333, "is_disabled": 0, "fusion_lon": 0.0, "rental_uris": {"android": "https://dc.lft.to/lastmile_qr_scan", "ios": "https://dc.lft.to/lastmile_qr_scan"}, "is_reserved": 0}, {"bike_id": "92527aa08c362c85dd13753d22ccf660", "name": "92527aa08c362c85dd13753d22ccf660", "lat": 38.921345333333335, "fusion_lat": 0.0, "type": "electric_scooter", "lon": -77.01795516666667, "is_disabled": 0, "fusion_lon": 0.0, "rental_uris": {"android": "https://dc.lft.to/lastmile_qr_scan", "ios": "https://dc.lft.to/lastmile_qr_scan"}, "is_reserved": 0}, {"bike_id": "c647274ae7d10d7cd58ac4275029cae0", "name": "c647274ae7d10d7cd58ac4275029cae0", "lat": 38.91301583333333, "fusion_lat": 0.0, "type": "electric_scooter", "lon": -77.027009, "is_disabled": 0, "fusion_lon": 0.0, "rental_uris": {"android": "https://dc.lft.to/lastmile_qr_scan", "ios": "https://dc.lft.to/lastmile_qr_scan"}, "is_reserved": 0}, {"bike_id": "cbced6ea55c0380ed8c0c4881c68ff5e", "name": "cbced6ea55c0380ed8c0c4881c68ff5e", "lat": 38.918827666666665, "fusion_lat": 0.0, "type": "electric_scooter", "lon": -77.02707983333333, "is_disabled": 0, "fusion_lon": 0.0, "rental_uris": {"android": "https://dc.lft.to/lastmile_qr_scan", "ios": "https://dc.lft.to/lastmile_qr_scan"}, "is_reserved": 0}, {"bike_id": "5885fc7fd29daf7aee94bc40455d8653", "name": "5885fc7fd29daf7aee94bc40455d8653", "lat": 38.9097965, "fusion_lat": 0.0, "type": "electric_scooter", "lon": -77.03202616666667, "is_disabled": 0, "fusion_lon": 0.0, "rental_uris": {"android": "https://dc.lft.to/lastmile_qr_scan", "ios": "https://dc.lft.to/lastmile_qr_scan"}, "is_reserved": 0}, {"bike_id": "642e991eec6dd24a4be6437c455ccecf", "name": "642e991eec6dd24a4be6437c455ccecf", "lat": 38.888380833333336, "fusion_lat": 0.0, "type": "electric_bike", "lon": -76.957477, "is_disabled": 0, "fusion_lon": 0.0, "rental_uris": {"android": "https://dc.lft.to/lastmile_qr_scan", "ios": "https://dc.lft.to/lastmile_qr_scan"}, "is_reserved": 0}, {"bike_id": "66aea172d8c4a789895ce490adf6d18f", "name": "66aea172d8c4a789895ce490adf6d18f", "lat": 38.807369, "fusion_lat": 0.0, "type": "electric_bike", "lon": -76.99259216666667, "is_disabled": 0, "fusion_lon": 0.0, "rental_uris": {"android": "https://dc.lft.to/lastmile_qr_scan", "ios": "https://dc.lft.to/lastmile_qr_scan"}, "is_reserved": 0}, {"bike_id": "fbdc803d59281e9b416853fa82475399", "name": "fbdc803d59281e9b416853fa82475399", "lat": 38.8923, "fusion_lat": 0.0, "type": "electric_scooter", "lon": -77.05007633333334, "is_disabled": 0, "fusion_lon": 0.0, "rental_uris": {"android": "https://dc.lft.to/lastmile_qr_scan", "ios": "https://dc.lft.to/lastmile_qr_scan"}, "is_reserved": 0}, {"bike_id": "2ede4bafa4b83a71f9381f8d449fd2a5", "name": "2ede4bafa4b83a71f9381f8d449fd2a5", "lat": 38.9095345, "fusion_lat": 0.0, "type": "electric_scooter", "lon": -77.03646916666666, "is_disabled": 0, "fusion_lon": 0.0, "rental_uris": {"android": "https://dc.lft.to/lastmile_qr_scan", "ios": "https://dc.lft.to/lastmile_qr_scan"}, "is_reserved": 0}, {"bike_id": "1be7020e589b40613da3c91764e8da9f", "name": "1be7020e589b40613da3c91764e8da9f", "lat": 38.9160085, "fusion_lat": 0.0, "type": "electric_scooter", "lon": -77.0230855, "is_disabled": 0, "fusion_lon": 0.0, "rental_uris": {"android": "https://dc.lft.to/lastmile_qr_scan", "ios": "https://dc.lft.to/lastmile_qr_scan"}, "is_reserved": 0}, {"bike_id": "25f2296b3d6a95f14e1fe7ac781b82a1", "name": "25f2296b3d6a95f14e1fe7ac781b82a1", "lat": 38.88607783333333, "fusion_lat": 0.0, "type": "electric_scooter", "lon": -77.04516483333333, "is_disabled": 0, "fusion_lon": 0.0, "rental_uris": {"android": "https://dc.lft.to/lastmile_qr_scan", "ios": "https://dc.lft.to/lastmile_qr_scan"}, "is_reserved": 0}, {"bike_id": "5ded55f39ed163cc6b031af963b8f2dc", "name": "5ded55f39ed163cc6b031af963b8f2dc", "lat": 38.9359415, "fusion_lat": 0.0, "type": "electric_scooter", "lon": -77.05883083333333, "is_disabled": 0, "fusion_lon": 0.0, "rental_uris": {"android": "https://dc.lft.to/lastmile_qr_scan", "ios": "https://dc.lft.to/lastmile_qr_scan"}, "is_reserved": 0}, {"bike_id": "94f94f71ee2f82d3da98b4ca3442ed25", "name": "94f94f71ee2f82d3da98b4ca3442ed25", "lat": 38.902576333333336, "fusion_lat": 0.0, "type": "electric_scooter", "lon": -77.00215366666667, "is_disabled": 0, "fusion_lon": 0.0, "rental_uris": {"android": "https://dc.lft.to/lastmile_qr_scan", "ios": "https://dc.lft.to/lastmile_qr_scan"}, "is_reserved": 0}, {"bike_id": "ee29ab80a0aa5a151dd9cafbb93d36c4", "name": "ee29ab80a0aa5a151dd9cafbb93d36c4", "lat": 38.90164583333333, "fusion_lat": 0.0, "type": "electric_scooter", "lon": -76.93023783333334, "is_disabled": 0, "fusion_lon": 0.0, "rental_uris": {"android": "https://dc.lft.to/lastmile_qr_scan", "ios": "https://dc.lft.to/lastmile_qr_scan"}, "is_reserved": 0}, {"bike_id": "70b42bbe0ae0de4670718bc36b24e775", "name": "70b42bbe0ae0de4670718bc36b24e775", "lat": 38.90972883333333, "fusion_lat": 0.0, "type": "electric_scooter", "lon": -77.02867166666667, "is_disabled": 0, "fusion_lon": 0.0, "rental_uris": {"android": "https://dc.lft.to/lastmile_qr_scan", "ios": "https://dc.lft.to/lastmile_qr_scan"}, "is_reserved": 0}, {"bike_id": "6827bf0fbec157d9f790f36de59ca7b4", "name": "6827bf0fbec157d9f790f36de59ca7b4", "lat": 38.8987385, "fusion_lat": 0.0, "type": "electric_scooter", "lon": -77.03319116666667, "is_disabled": 0, "fusion_lon": 0.0, "rental_uris": {"android": "https://dc.lft.to/lastmile_qr_scan", "ios": "https://dc.lft.to/lastmile_qr_scan"}, "is_reserved": 0}, {"bike_id": "c1fb67e7fba790b5ef548eae27d807ca", "name": "c1fb67e7fba790b5ef548eae27d807ca", "lat": 38.78404966666667, "fusion_lat": 0.0, "type": "electric_bike", "lon": -77.1207515, "is_disabled": 0, "fusion_lon": 0.0, "rental_uris": {"android": "https://dc.lft.to/lastmile_qr_scan", "ios": "https://dc.lft.to/lastmile_qr_scan"}, "is_reserved": 0}, {"bike_id": "f23056b5229c5af3523e7ffed679af55", "name": "f23056b5229c5af3523e7ffed679af55", "lat": 38.88342433333333, "fusion_lat": 0.0, "type": "electric_scooter", "lon": -76.99263366666666, "is_disabled": 0, "fusion_lon": 0.0, "rental_uris": {"android": "https://dc.lft.to/lastmile_qr_scan", "ios": "https://dc.lft.to/lastmile_qr_scan"}, "is_reserved": 0}, {"bike_id": "f55c4a60f2c2512a514d046188170719", "name": "f55c4a60f2c2512a514d046188170719", "lat": 38.923444, "fusion_lat": 0.0, "type": "electric_scooter", "lon": -77.05096716666667, "is_disabled": 0, "fusion_lon": 0.0, "rental_uris": {"android": "https://dc.lft.to/lastmile_qr_scan", "ios": "https://dc.lft.to/lastmile_qr_scan"}, "is_reserved": 0}, {"bike_id": "d3348d8970ceb5101151facef8f78cf8", "name": "d3348d8970ceb5101151facef8f78cf8", "lat": 38.883265333333334, "fusion_lat": 0.0, "type": "electric_scooter", "lon": -77.00959116666667, "is_disabled": 0, "fusion_lon": 0.0, "rental_uris": {"android": "https://dc.lft.to/lastmile_qr_scan", "ios": "https://dc.lft.to/lastmile_qr_scan"}, "is_reserved": 0}, {"bike_id": "fe6e9cce69ea21ffee3cd892b42b1a64", "name": "fe6e9cce69ea21ffee3cd892b42b1a64", "lat": 38.936259, "fusion_lat": 0.0, "type": "electric_scooter", "lon": -77.059128, "is_disabled": 0, "fusion_lon": 0.0, "rental_uris": {"android": "https://dc.lft.to/lastmile_qr_scan", "ios": "https://dc.lft.to/lastmile_qr_scan"}, "is_reserved": 0}, {"bike_id": "fb04aee41788cb3f35bc7b39c4578067", "name": "fb04aee41788cb3f35bc7b39c4578067", "lat": 38.927851833333335, "fusion_lat": 0.0, "type": "electric_scooter", "lon": -77.031531, "is_disabled": 0, "fusion_lon": 0.0, "rental_uris": {"android": "https://dc.lft.to/lastmile_qr_scan", "ios": "https://dc.lft.to/lastmile_qr_scan"}, "is_reserved": 0}, {"bike_id": "1168c9db5a41fe4c0c8d4b0203c65c6a", "name": "1168c9db5a41fe4c0c8d4b0203c65c6a", "lat": 38.88489833333333, "fusion_lat": 0.0, "type": "electric_bike", "lon": -76.9566485, "is_disabled": 0, "fusion_lon": 0.0, "rental_uris": {"android": "https://dc.lft.to/lastmile_qr_scan", "ios": "https://dc.lft.to/lastmile_qr_scan"}, "is_reserved": 0}, {"bike_id": "a0c63844d824c33e21c14fd69427ae0d", "name": "a0c63844d824c33e21c14fd69427ae0d", "lat": 38.9069125, "fusion_lat": 0.0, "type": "electric_scooter", "lon": -77.0240455, "is_disabled": 0, "fusion_lon": 0.0, "rental_uris": {"android": "https://dc.lft.to/lastmile_qr_scan", "ios": "https://dc.lft.to/lastmile_qr_scan"}, "is_reserved": 0}, {"bike_id": "649af0e018b19fb1570988a216806415", "name": "649af0e018b19fb1570988a216806415", "lat": 38.92022516666667, "fusion_lat": 0.0, "type": "electric_scooter", "lon": -77.02205383333333, "is_disabled": 0, "fusion_lon": 0.0, "rental_uris": {"android": "https://dc.lft.to/lastmile_qr_scan", "ios": "https://dc.lft.to/lastmile_qr_scan"}, "is_reserved": 0}, {"bike_id": "e9d90e67e1b72c5899b14b6a1ee6dde2", "name": "e9d90e67e1b72c5899b14b6a1ee6dde2", "lat": 38.8979965, "fusion_lat": 0.0, "type": "electric_scooter", "lon": -77.01898416666667, "is_disabled": 0, "fusion_lon": 0.0, "rental_uris": {"android": "https://dc.lft.to/lastmile_qr_scan", "ios": "https://dc.lft.to/lastmile_qr_scan"}, "is_reserved": 0}, {"bike_id": "74675e9c208d6f7fceb6e2a69ffc5ea9", "name": "74675e9c208d6f7fceb6e2a69ffc5ea9", "lat": 38.900058666666666, "fusion_lat": 0.0, "type": "electric_scooter", "lon": -77.0067975, "is_disabled": 0, "fusion_lon": 0.0, "rental_uris": {"android": "https://dc.lft.to/lastmile_qr_scan", "ios": "https://dc.lft.to/lastmile_qr_scan"}, "is_reserved": 0}, {"bike_id": "14250864cb7d7221fbcee9167aa83984", "name": "14250864cb7d7221fbcee9167aa83984", "lat": 38.90020366666667, "fusion_lat": 0.0, "type": "electric_scooter", "lon": -77.04487033333334, "is_disabled": 0, "fusion_lon": 0.0, "rental_uris": {"android": "https://dc.lft.to/lastmile_qr_scan", "ios": "https://dc.lft.to/lastmile_qr_scan"}, "is_reserved": 0}, {"bike_id": "32e7e92461ff85cc664ccf2a092eb74c", "name": "32e7e92461ff85cc664ccf2a092eb74c", "lat": 38.91307466666667, "fusion_lat": 0.0, "type": "electric_scooter", "lon": -77.031905, "is_disabled": 0, "fusion_lon": 0.0, "rental_uris": {"android": "https://dc.lft.to/lastmile_qr_scan", "ios": "https://dc.lft.to/lastmile_qr_scan"}, "is_reserved": 0}, {"bike_id": "2645eb14234f8fade3be39b165cd2d16", "name": "2645eb14234f8fade3be39b165cd2d16", "lat": 38.88078483333334, "fusion_lat": 0.0, "type": "electric_bike", "lon": -76.98517116666666, "is_disabled": 0, "fusion_lon": 0.0, "rental_uris": {"android": "https://dc.lft.to/lastmile_qr_scan", "ios": "https://dc.lft.to/lastmile_qr_scan"}, "is_reserved": 0}, {"bike_id": "d29da4ecc52b60e653374e62cb66e796", "name": "d29da4ecc52b60e653374e62cb66e796", "lat": 38.92541583333333, "fusion_lat": 0.0, "type": "electric_scooter", "lon": -77.03323333333333, "is_disabled": 0, "fusion_lon": 0.0, "rental_uris": {"android": "https://dc.lft.to/lastmile_qr_scan", "ios": "https://dc.lft.to/lastmile_qr_scan"}, "is_reserved": 0}, {"bike_id": "87baf3172694c8d99d4f763fb90a02ce", "name": "87baf3172694c8d99d4f763fb90a02ce", "lat": 38.882269, "fusion_lat": 0.0, "type": "electric_bike", "lon": -77.109463, "is_disabled": 0, "fusion_lon": 0.0, "rental_uris": {"android": "https://dc.lft.to/lastmile_qr_scan", "ios": "https://dc.lft.to/lastmile_qr_scan"}, "is_reserved": 0}, {"bike_id": "9a04a403da941f5c894c4173bf853461", "name": "9a04a403da941f5c894c4173bf853461", "lat": 38.88879983333333, "fusion_lat": 0.0, "type": "electric_scooter", "lon": -76.990371, "is_disabled": 0, "fusion_lon": 0.0, "rental_uris": {"android": "https://dc.lft.to/lastmile_qr_scan", "ios": "https://dc.lft.to/lastmile_qr_scan"}, "is_reserved": 0}, {"bike_id": "b99dd8f4fffa93ee18c63add77899f7f", "name": "b99dd8f4fffa93ee18c63add77899f7f", "lat": 38.93364733333333, "fusion_lat": 0.0, "type": "electric_scooter", "lon": -77.0240845, "is_disabled": 0, "fusion_lon": 0.0, "rental_uris": {"android": "https://dc.lft.to/lastmile_qr_scan", "ios": "https://dc.lft.to/lastmile_qr_scan"}, "is_reserved": 0}, {"bike_id": "a5d4a8f0d90497de67b9162e72a83924", "name": "a5d4a8f0d90497de67b9162e72a83924", "lat": 38.9988225, "fusion_lat": 0.0, "type": "electric_bike", "lon": -77.0286555, "is_disabled": 0, "fusion_lon": 0.0, "rental_uris": {"android": "https://dc.lft.to/lastmile_qr_scan", "ios": "https://dc.lft.to/lastmile_qr_scan"}, "is_reserved": 0}, {"bike_id": "fb2f64e7da52f3419db094ed07fc903e", "name": "fb2f64e7da52f3419db094ed07fc903e", "lat": 38.92399366666667, "fusion_lat": 0.0, "type": "electric_scooter", "lon": -77.02699666666666, "is_disabled": 0, "fusion_lon": 0.0, "rental_uris": {"android": "https://dc.lft.to/lastmile_qr_scan", "ios": "https://dc.lft.to/lastmile_qr_scan"}, "is_reserved": 0}, {"bike_id": "3a83bd117798d6c31ba8c1ed6ef946af", "name": "3a83bd117798d6c31ba8c1ed6ef946af", "lat": 38.91810533333334, "fusion_lat": 0.0, "type": "electric_scooter", "lon": -77.03984433333333, "is_disabled": 0, "fusion_lon": 0.0, "rental_uris": {"android": "https://dc.lft.to/lastmile_qr_scan", "ios": "https://dc.lft.to/lastmile_qr_scan"}, "is_reserved": 0}, {"bike_id": "920ca1a33c1422c35b4a8785607b2bf2", "name": "920ca1a33c1422c35b4a8785607b2bf2", "lat": 38.911071, "fusion_lat": 0.0, "type": "electric_scooter", "lon": -77.0156935, "is_disabled": 0, "fusion_lon": 0.0, "rental_uris": {"android": "https://dc.lft.to/lastmile_qr_scan", "ios": "https://dc.lft.to/lastmile_qr_scan"}, "is_reserved": 0}, {"bike_id": "39be2c2079b41a8de07b99799d102902", "name": "39be2c2079b41a8de07b99799d102902", "lat": 38.92881716666667, "fusion_lat": 0.0, "type": "electric_scooter", "lon": -77.04072966666666, "is_disabled": 0, "fusion_lon": 0.0, "rental_uris": {"android": "https://dc.lft.to/lastmile_qr_scan", "ios": "https://dc.lft.to/lastmile_qr_scan"}, "is_reserved": 0}, {"bike_id": "195ab0c0ce6e716fdd7041164c3ad77c", "name": "195ab0c0ce6e716fdd7041164c3ad77c", "lat": 38.90853933333333, "fusion_lat": 0.0, "type": "electric_scooter", "lon": -77.04055183333334, "is_disabled": 0, "fusion_lon": 0.0, "rental_uris": {"android": "https://dc.lft.to/lastmile_qr_scan", "ios": "https://dc.lft.to/lastmile_qr_scan"}, "is_reserved": 0}, {"bike_id": "16fdcc16f03d7f2b58334206bd962e66", "name": "16fdcc16f03d7f2b58334206bd962e66", "lat": 38.944980666666666, "fusion_lat": 0.0, "type": "electric_bike", "lon": -77.00684316666667, "is_disabled": 0, "fusion_lon": 0.0, "rental_uris": {"android": "https://dc.lft.to/lastmile_qr_scan", "ios": "https://dc.lft.to/lastmile_qr_scan"}, "is_reserved": 0}, {"bike_id": "34e02e5a4f3e65ffd2f95005d486b038", "name": "34e02e5a4f3e65ffd2f95005d486b038", "lat": 38.84797316666667, "fusion_lat": 0.0, "type": "electric_bike", "lon": -76.95232016666667, "is_disabled": 0, "fusion_lon": 0.0, "rental_uris": {"android": "https://dc.lft.to/lastmile_qr_scan", "ios": "https://dc.lft.to/lastmile_qr_scan"}, "is_reserved": 0}, {"bike_id": "b927b19009004528ea9d707ae1b420db", "name": "b927b19009004528ea9d707ae1b420db", "lat": 38.900578833333334, "fusion_lat": 0.0, "type": "electric_scooter", "lon": -77.04341166666667, "is_disabled": 0, "fusion_lon": 0.0, "rental_uris": {"android": "https://dc.lft.to/lastmile_qr_scan", "ios": "https://dc.lft.to/lastmile_qr_scan"}, "is_reserved": 0}, {"bike_id": "378bdb4611c2490cf9097f397f85e31f", "name": "378bdb4611c2490cf9097f397f85e31f", "lat": 38.920101, "fusion_lat": 0.0, "type": "electric_scooter", "lon": -77.07133366666666, "is_disabled": 0, "fusion_lon": 0.0, "rental_uris": {"android": "https://dc.lft.to/lastmile_qr_scan", "ios": "https://dc.lft.to/lastmile_qr_scan"}, "is_reserved": 0}, {"bike_id": "fec0937c138c54cf40fa5842422a501f", "name": "fec0937c138c54cf40fa5842422a501f", "lat": 38.899395, "fusion_lat": 0.0, "type": "electric_scooter", "lon": -76.97712466666667, "is_disabled": 0, "fusion_lon": 0.0, "rental_uris": {"android": "https://dc.lft.to/lastmile_qr_scan", "ios": "https://dc.lft.to/lastmile_qr_scan"}, "is_reserved": 0}, {"bike_id": "19d6fa293f6ef34690c181493e2bde3a", "name": "19d6fa293f6ef34690c181493e2bde3a", "lat": 38.91907533333333, "fusion_lat": 0.0, "type": "electric_scooter", "lon": -77.03335983333334, "is_disabled": 0, "fusion_lon": 0.0, "rental_uris": {"android": "https://dc.lft.to/lastmile_qr_scan", "ios": "https://dc.lft.to/lastmile_qr_scan"}, "is_reserved": 0}, {"bike_id": "27e48968abf5f95b50fe40ff65509c6b", "name": "27e48968abf5f95b50fe40ff65509c6b", "lat": 38.921145, "fusion_lat": 0.0, "type": "electric_scooter", "lon": -77.01767766666667, "is_disabled": 0, "fusion_lon": 0.0, "rental_uris": {"android": "https://dc.lft.to/lastmile_qr_scan", "ios": "https://dc.lft.to/lastmile_qr_scan"}, "is_reserved": 0}, {"bike_id": "4007c0c9f8d8e6eff7ba16760b3c0818", "name": "4007c0c9f8d8e6eff7ba16760b3c0818", "lat": 38.9202845, "fusion_lat": 0.0, "type": "electric_scooter", "lon": -77.03127633333334, "is_disabled": 0, "fusion_lon": 0.0, "rental_uris": {"android": "https://dc.lft.to/lastmile_qr_scan", "ios": "https://dc.lft.to/lastmile_qr_scan"}, "is_reserved": 0}, {"bike_id": "0252012a1d222d0cd70ceb77835a606c", "name": "0252012a1d222d0cd70ceb77835a606c", "lat": 38.91532266666667, "fusion_lat": 0.0, "type": "electric_scooter", "lon": -77.02178266666667, "is_disabled": 0, "fusion_lon": 0.0, "rental_uris": {"android": "https://dc.lft.to/lastmile_qr_scan", "ios": "https://dc.lft.to/lastmile_qr_scan"}, "is_reserved": 0}, {"bike_id": "926e470699ed26ed55ec6f675359e831", "name": "926e470699ed26ed55ec6f675359e831", "lat": 38.995207666666666, "fusion_lat": 0.0, "type": "electric_bike", "lon": -77.03784883333333, "is_disabled": 0, "fusion_lon": 0.0, "rental_uris": {"android": "https://dc.lft.to/lastmile_qr_scan", "ios": "https://dc.lft.to/lastmile_qr_scan"}, "is_reserved": 0}, {"bike_id": "e7da939b972458ecac0bbe4f886f1f2b", "name": "e7da939b972458ecac0bbe4f886f1f2b", "lat": 38.86376216666667, "fusion_lat": 0.0, "type": "electric_scooter", "lon": -76.99067233333334, "is_disabled": 0, "fusion_lon": 0.0, "rental_uris": {"android": "https://dc.lft.to/lastmile_qr_scan", "ios": "https://dc.lft.to/lastmile_qr_scan"}, "is_reserved": 0}, {"bike_id": "a4cd3f3ca040b411114dc5cbad108aaa", "name": "a4cd3f3ca040b411114dc5cbad108aaa", "lat": 38.90244233333333, "fusion_lat": 0.0, "type": "electric_scooter", "lon": -76.98085483333334, "is_disabled": 0, "fusion_lon": 0.0, "rental_uris": {"android": "https://dc.lft.to/lastmile_qr_scan", "ios": "https://dc.lft.to/lastmile_qr_scan"}, "is_reserved": 0}, {"bike_id": "a64108b49901aba5b17af83cebafa270", "name": "a64108b49901aba5b17af83cebafa270", "lat": 38.91750716666667, "fusion_lat": 0.0, "type": "electric_scooter", "lon": -77.038617, "is_disabled": 0, "fusion_lon": 0.0, "rental_uris": {"android": "https://dc.lft.to/lastmile_qr_scan", "ios": "https://dc.lft.to/lastmile_qr_scan"}, "is_reserved": 0}, {"bike_id": "ce0b09dfbdaf64fb0b26dd20eb1e884f", "name": "ce0b09dfbdaf64fb0b26dd20eb1e884f", "lat": 38.895361666666666, "fusion_lat": 0.0, "type": "electric_scooter", "lon": -77.01122016666666, "is_disabled": 0, "fusion_lon": 0.0, "rental_uris": {"android": "https://dc.lft.to/lastmile_qr_scan", "ios": "https://dc.lft.to/lastmile_qr_scan"}, "is_reserved": 0}, {"bike_id": "6fed28fc77fb30cf11b43f1a946dca26", "name": "6fed28fc77fb30cf11b43f1a946dca26", "lat": 38.8939675, "fusion_lat": 0.0, "type": "electric_bike", "lon": -76.86836016666666, "is_disabled": 0, "fusion_lon": 0.0, "rental_uris": {"android": "https://dc.lft.to/lastmile_qr_scan", "ios": "https://dc.lft.to/lastmile_qr_scan"}, "is_reserved": 0}, {"bike_id": "60d7dfc3a53c61239562812c9b501553", "name": "60d7dfc3a53c61239562812c9b501553", "lat": 38.91848983333333, "fusion_lat": 0.0, "type": "electric_scooter", "lon": -77.04115133333333, "is_disabled": 0, "fusion_lon": 0.0, "rental_uris": {"android": "https://dc.lft.to/lastmile_qr_scan", "ios": "https://dc.lft.to/lastmile_qr_scan"}, "is_reserved": 0}, {"bike_id": "93d372bce8c2bb06a29d39ad692932e2", "name": "93d372bce8c2bb06a29d39ad692932e2", "lat": 38.9576385, "fusion_lat": 0.0, "type": "electric_scooter", "lon": -77.01482866666667, "is_disabled": 0, "fusion_lon": 0.0, "rental_uris": {"android": "https://dc.lft.to/lastmile_qr_scan", "ios": "https://dc.lft.to/lastmile_qr_scan"}, "is_reserved": 0}, {"bike_id": "75057c953f15a58ca7e6204ddedb9061", "name": "75057c953f15a58ca7e6204ddedb9061", "lat": 38.90583383333333, "fusion_lat": 0.0, "type": "electric_scooter", "lon": -76.98417833333333, "is_disabled": 0, "fusion_lon": 0.0, "rental_uris": {"android": "https://dc.lft.to/lastmile_qr_scan", "ios": "https://dc.lft.to/lastmile_qr_scan"}, "is_reserved": 0}, {"bike_id": "f857663d02a53cda50a1d6fe27ec7be7", "name": "f857663d02a53cda50a1d6fe27ec7be7", "lat": 38.924778, "fusion_lat": 0.0, "type": "electric_scooter", "lon": -77.03045566666667, "is_disabled": 0, "fusion_lon": 0.0, "rental_uris": {"android": "https://dc.lft.to/lastmile_qr_scan", "ios": "https://dc.lft.to/lastmile_qr_scan"}, "is_reserved": 0}, {"bike_id": "b70571a43dfffe61265602ef082d0801", "name": "b70571a43dfffe61265602ef082d0801", "lat": 38.913250833333336, "fusion_lat": 0.0, "type": "electric_scooter", "lon": -77.01504133333333, "is_disabled": 0, "fusion_lon": 0.0, "rental_uris": {"android": "https://dc.lft.to/lastmile_qr_scan", "ios": "https://dc.lft.to/lastmile_qr_scan"}, "is_reserved": 0}, {"bike_id": "b9689d97eb827e85f39fbaa3383e5b86", "name": "b9689d97eb827e85f39fbaa3383e5b86", "lat": 38.919244, "fusion_lat": 0.0, "type": "electric_scooter", "lon": -77.0727495, "is_disabled": 0, "fusion_lon": 0.0, "rental_uris": {"android": "https://dc.lft.to/lastmile_qr_scan", "ios": "https://dc.lft.to/lastmile_qr_scan"}, "is_reserved": 0}, {"bike_id": "7854ae54faa228ac7511f5ed102cb599", "name": "7854ae54faa228ac7511f5ed102cb599", "lat": 38.92300566666667, "fusion_lat": 0.0, "type": "electric_scooter", "lon": -76.99782433333333, "is_disabled": 0, "fusion_lon": 0.0, "rental_uris": {"android": "https://dc.lft.to/lastmile_qr_scan", "ios": "https://dc.lft.to/lastmile_qr_scan"}, "is_reserved": 0}, {"bike_id": "813847d0be24fcc79a5426218478f65a", "name": "813847d0be24fcc79a5426218478f65a", "lat": 38.911695, "fusion_lat": 0.0, "type": "electric_scooter", "lon": -77.03833216666666, "is_disabled": 0, "fusion_lon": 0.0, "rental_uris": {"android": "https://dc.lft.to/lastmile_qr_scan", "ios": "https://dc.lft.to/lastmile_qr_scan"}, "is_reserved": 0}, {"bike_id": "37b012f3dbb1975dbf8db24675e10f1b", "name": "37b012f3dbb1975dbf8db24675e10f1b", "lat": 38.92856116666667, "fusion_lat": 0.0, "type": "electric_scooter", "lon": -77.014218, "is_disabled": 0, "fusion_lon": 0.0, "rental_uris": {"android": "https://dc.lft.to/lastmile_qr_scan", "ios": "https://dc.lft.to/lastmile_qr_scan"}, "is_reserved": 0}, {"bike_id": "38454b5d6ed879e7b366577e64654e22", "name": "38454b5d6ed879e7b366577e64654e22", "lat": 38.97316583333333, "fusion_lat": 0.0, "type": "electric_bike", "lon": -76.99486066666667, "is_disabled": 0, "fusion_lon": 0.0, "rental_uris": {"android": "https://dc.lft.to/lastmile_qr_scan", "ios": "https://dc.lft.to/lastmile_qr_scan"}, "is_reserved": 0}, {"bike_id": "ae9cb74a52e8fc3055ed80791677a475", "name": "ae9cb74a52e8fc3055ed80791677a475", "lat": 38.921438, "fusion_lat": 0.0, "type": "electric_scooter", "lon": -77.02110833333333, "is_disabled": 0, "fusion_lon": 0.0, "rental_uris": {"android": "https://dc.lft.to/lastmile_qr_scan", "ios": "https://dc.lft.to/lastmile_qr_scan"}, "is_reserved": 0}, {"bike_id": "8d42bbe8722f905a30e1607ec9111091", "name": "8d42bbe8722f905a30e1607ec9111091", "lat": 38.935939833333336, "fusion_lat": 0.0, "type": "electric_scooter", "lon": -77.0336905, "is_disabled": 0, "fusion_lon": 0.0, "rental_uris": {"android": "https://dc.lft.to/lastmile_qr_scan", "ios": "https://dc.lft.to/lastmile_qr_scan"}, "is_reserved": 0}, {"bike_id": "45e3a1cfda207d48d2a81b7bb3882d2a", "name": "45e3a1cfda207d48d2a81b7bb3882d2a", "lat": 38.936960166666665, "fusion_lat": 0.0, "type": "electric_scooter", "lon": -77.05599416666666, "is_disabled": 0, "fusion_lon": 0.0, "rental_uris": {"android": "https://dc.lft.to/lastmile_qr_scan", "ios": "https://dc.lft.to/lastmile_qr_scan"}, "is_reserved": 0}, {"bike_id": "88eaf3b0f0c0332a7fef750d7d092962", "name": "88eaf3b0f0c0332a7fef750d7d092962", "lat": 38.884887, "fusion_lat": 0.0, "type": "electric_scooter", "lon": -77.0219525, "is_disabled": 0, "fusion_lon": 0.0, "rental_uris": {"android": "https://dc.lft.to/lastmile_qr_scan", "ios": "https://dc.lft.to/lastmile_qr_scan"}, "is_reserved": 0}, {"bike_id": "4b81d999e89a87fedb8095273f77af4d", "name": "4b81d999e89a87fedb8095273f77af4d", "lat": 38.89226033333333, "fusion_lat": 0.0, "type": "electric_scooter", "lon": -77.04509083333333, "is_disabled": 0, "fusion_lon": 0.0, "rental_uris": {"android": "https://dc.lft.to/lastmile_qr_scan", "ios": "https://dc.lft.to/lastmile_qr_scan"}, "is_reserved": 0}, {"bike_id": "176e21119401948b300f6a21513fa650", "name": "176e21119401948b300f6a21513fa650", "lat": 38.8990905, "fusion_lat": 0.0, "type": "electric_scooter", "lon": -76.98000583333334, "is_disabled": 0, "fusion_lon": 0.0, "rental_uris": {"android": "https://dc.lft.to/lastmile_qr_scan", "ios": "https://dc.lft.to/lastmile_qr_scan"}, "is_reserved": 0}, {"bike_id": "de7630735bc0974a33bacdab9638594d", "name": "de7630735bc0974a33bacdab9638594d", "lat": 38.91464416666667, "fusion_lat": 0.0, "type": "electric_scooter", "lon": -77.032172, "is_disabled": 0, "fusion_lon": 0.0, "rental_uris": {"android": "https://dc.lft.to/lastmile_qr_scan", "ios": "https://dc.lft.to/lastmile_qr_scan"}, "is_reserved": 0}, {"bike_id": "7c329b58518db529791059d9c05f2ccc", "name": "7c329b58518db529791059d9c05f2ccc", "lat": 38.90368433333333, "fusion_lat": 0.0, "type": "electric_scooter", "lon": -77.02211966666667, "is_disabled": 0, "fusion_lon": 0.0, "rental_uris": {"android": "https://dc.lft.to/lastmile_qr_scan", "ios": "https://dc.lft.to/lastmile_qr_scan"}, "is_reserved": 0}, {"bike_id": "a8e3d3b1f71a08a3aff297e00623f00c", "name": "a8e3d3b1f71a08a3aff297e00623f00c", "lat": 38.900788, "fusion_lat": 0.0, "type": "electric_scooter", "lon": -77.03149783333333, "is_disabled": 0, "fusion_lon": 0.0, "rental_uris": {"android": "https://dc.lft.to/lastmile_qr_scan", "ios": "https://dc.lft.to/lastmile_qr_scan"}, "is_reserved": 0}, {"bike_id": "f204527677c9185060a776c7291eb9ac", "name": "f204527677c9185060a776c7291eb9ac", "lat": 38.88056816666667, "fusion_lat": 0.0, "type": "electric_bike", "lon": -77.0256225, "is_disabled": 0, "fusion_lon": 0.0, "rental_uris": {"android": "https://dc.lft.to/lastmile_qr_scan", "ios": "https://dc.lft.to/lastmile_qr_scan"}, "is_reserved": 0}, {"bike_id": "41d669f40044c3fce6e2f2f37593b001", "name": "41d669f40044c3fce6e2f2f37593b001", "lat": 38.9141555, "fusion_lat": 0.0, "type": "electric_scooter", "lon": -77.0317395, "is_disabled": 0, "fusion_lon": 0.0, "rental_uris": {"android": "https://dc.lft.to/lastmile_qr_scan", "ios": "https://dc.lft.to/lastmile_qr_scan"}, "is_reserved": 0}, {"bike_id": "da1ddfd119ed2408a26a4694dca64a2a", "name": "da1ddfd119ed2408a26a4694dca64a2a", "lat": 38.97497366666666, "fusion_lat": 0.0, "type": "electric_scooter", "lon": -77.01694633333334, "is_disabled": 0, "fusion_lon": 0.0, "rental_uris": {"android": "https://dc.lft.to/lastmile_qr_scan", "ios": "https://dc.lft.to/lastmile_qr_scan"}, "is_reserved": 0}, {"bike_id": "10ae09998cf757b17cb0310b5411a9e8", "name": "10ae09998cf757b17cb0310b5411a9e8", "lat": 38.928390666666665, "fusion_lat": 0.0, "type": "electric_scooter", "lon": -76.99902133333333, "is_disabled": 0, "fusion_lon": 0.0, "rental_uris": {"android": "https://dc.lft.to/lastmile_qr_scan", "ios": "https://dc.lft.to/lastmile_qr_scan"}, "is_reserved": 0},