{"data": {"bikes": [{"fusion_lat": 0.0, "name": "da1887e7fa524b6b63ea5e3ca39605f6", "lon": -77.1183035, "rental_uris": {"android": "https://dc.lft.to/lastmile_qr_scan", "ios": "https://dc.lft.to/lastmile_qr_scan"}, "fusion_lon": 0.0, "bike_id": "da1887e7fa524b6b63ea5e3ca39605f6", "is_disabled": 0, "lat": 38.8593135, "is_reserved": 0, "type": "electric_bike"}, {"fusion_lat": 0.0, "name": "636d1ca1df3a4a5602b033d08d763850", "lon": -77.02639116666667, "rental_uris": {"android": "https://dc.lft.to/lastmile_qr_scan", "ios": "https://dc.lft.to/lastmile_qr_scan"}, "fusion_lon": 0.0, "bike_id": "636d1ca1df3a4a5602b033d08d763850", "is_disabled": 0, "lat": 38.98151983333333, "is_reserved": 0, "type": "electric_bike"}, {"fusion_lat": 0.0, "name": "d7019db5486f166dd8f068f105f5ccfd", "lon": -77.02200633333334, "rental_uris": {"android": "https://dc.lft.to/lastmile_qr_scan", "ios": "https://dc.lft.to/lastmile_qr_scan"}, "fusion_lon": 0.0, "bike_id": "d7019db5486f166dd8f068f105f5ccfd", "is_disabled": 0, "lat": 38.8871215, "is_reserved": 0, "type": "electric_scooter"}, {"fusion_lat": 0.0, "name": "ff51a72f2538c9e83646f179fcb1c5e8", "lon": -77.04240833333333, "rental_uris": {"android": "https://dc.lft.to/lastmile_qr_scan", "ios": "https://dc.lft.to/lastmile_qr_scan"}, "fusion_lon": 0.0, "bike_id": "ff51a72f2538c9e83646f179fcb1c5e8", "is_disabled": 0, "lat": 38.9223435, "is_reserved": 0, "type": "electric_scooter"}, {"fusion_lat": 0.0, "name": "aae532b51e2ed63e5c8d1afda7d3e2ae", "lon": -77.0037005, "rental_uris": {"android": "https://dc.lft.to/lastmile_qr_scan", "ios": "https://dc.lft.to/lastmile_qr_scan"}, "fusion_lon": 0.0, "bike_id": "aae532b51e2ed63e5c8d1afda7d3e2ae", "is_disabled": 0, "lat": 38.9086, "is_reserved": 0, "type": "electric_bike"}, {"fusion_lat": 0.0, "name": "b333be9a608bce4ec4bc89f9f5365e22", "lon": -76.99496833333333, "rental_uris": {"android": "https://dc.lft.to/lastmile_qr_scan", "ios": "https://dc.lft.to/lastmile_qr_scan"}, "fusion_lon": 0.0, "bike_id": "b333be9a608bce4ec4bc89f9f5365e22", "is_disabled": 0, "lat": 38.862397333333334, "is_reserved": 0, "type": "electric_scooter"}, {"fusion_lat": 0.0, "name": "2619211895f2c786c487fe71708a4577", "lon": -77.04153866666667, "rental_uris": {"android": "https://dc.lft.to/lastmile_qr_scan", "ios": "https://dc.lft.to/lastmile_qr_scan"}, "fusion_lon": 0.0, "bike_id": "2619211895f2c786c487fe71708a4577", "is_disabled": 0, "lat": 38.9171235, "is_reserved": 0, "type": "electric_scooter"}, {"fusion_lat": 0.0, "name": "8d128fd8d6c5e552655def226d12a686", "lon": -76.98919066666667, "rental_uris": {"android": "https://dc.lft.to/lastmile_qr_scan", "ios": "https://dc.lft.to/lastmile_qr_scan"}, "fusion_lon": 0.0, "bike_id": "8d128fd8d6c5e552655def226d12a686", "is_disabled": 0, "lat": 38.85719533333334, "is_reserved": 0, "type": "electric_scooter"}, {"fusion_lat": 0.0, "name": "0857de82d6260d7130cad39cf0bdba1b", "lon": -77.06452633333333, "rental_uris": {"android": "https://dc.lft.to/lastmile_qr_scan", "ios": "https://dc.lft.to/lastmile_qr_scan"}, "fusion_lon": 0.0, "bike_id": "0857de82d6260d7130cad39cf0bdba1b", "is_disabled": 0, "lat": 38.905152333333334, "is_reserved": 0, "type": "electric_scooter"}, {"fusion_lat": 0.0, "name": "9a8507816295b0e11b0c17b07201f10b", "lon": -76.99303816666666, "rental_uris": {"android": "https://dc.lft.to/lastmile_qr_scan", "ios": "https://dc.lft.to/lastmile_qr_scan"}, "fusion_lon": 0.0, "bike_id": "9a8507816295b0e11b0c17b07201f10b", "is_disabled": 0, "lat": 38.90763483333333, "is_reserved": 0, "type": "electric_scooter"}, {"fusion_lat": 0.0, "name": "809cf8b6e482b637ff9f6dc17dc6a275", "lon": -77.0037955, "rental_uris": {"android": "https://dc.lft.to/lastmile_qr_scan", "ios": "https://dc.lft.to/lastmile_qr_scan"}, "fusion_lon": 0.0, "bike_id": "809cf8b6e482b637ff9f6dc17dc6a275", "is_disabled": 0, "lat": 38.876353333333334, "is_reserved": 0, "type": "electric_scooter"}, {"fusion_lat": 0.0, "name": "5357be4c21e9e633a7fa316ce5e4355e", "lon": -77.01752233333333, "rental_uris": {"android": "https://dc.lft.to/lastmile_qr_scan", "ios": "https://dc.lft.to/lastmile_qr_scan"}, "fusion_lon": 0.0, "bike_id": "5357be4c21e9e633a7fa316ce5e4355e", "is_disabled": 0, "lat": 38.9010955, "is_reserved": 0, "type": "electric_scooter"}, {"fusion_lat": 0.0, "name": "45740b2692720491cfbbce156d5ae76d", "lon": -77.02734266666667, "rental_uris": {"android": "https://dc.lft.to/lastmile_qr_scan", "ios": "https://dc.lft.to/lastmile_qr_scan"}, "fusion_lon": 0.0, "bike_id": "45740b2692720491cfbbce156d5ae76d", "is_disabled": 0, "lat": 38.887395833333336, "is_reserved": 0, "type": "electric_scooter"}, {"fusion_lat": 0.0, "name": "609f4b07718971eb23094c56c6ff5034", "lon": -77.00724483333333, "rental_uris": {"android": "https://dc.lft.to/lastmile_qr_scan", "ios": "https://dc.lft.to/lastmile_qr_scan"}, "fusion_lon": 0.0, "bike_id": "609f4b07718971eb23094c56c6ff5034", "is_disabled": 0, "lat": 38.904628333333335, "is_reserved": 0, "type": "electric_scooter"}, {"fusion_lat": 0.0, "name": "94b62fdf6de6a9d5184ec88467f115f0", "lon": -76.99356816666666, "rental_uris": {"android": "https://dc.lft.to/lastmile_qr_scan", "ios": "https://dc.lft.to/lastmile_qr_scan"}, "fusion_lon": 0.0, "bike_id": "94b62fdf6de6a9d5184ec88467f115f0", "is_disabled": 0, "lat": 38.877803166666666, "is_reserved": 0, "type": "electric_scooter"}, {"fusion_lat": 0.0, "name": "b61d2eeb33e03ca188232ff3f60eb2c0", "lon": -77.01985266666667, "rental_uris": {"android": "https://dc.lft.to/lastmile_qr_scan", "ios": "https://dc.lft.to/lastmile_qr_scan"}, "fusion_lon": 0.0, "bike_id": "b61d2eeb33e03ca188232ff3f60eb2c0", "is_disabled": 0, "lat": 38.899576, "is_reserved": 0, "type": "electric_scooter"}, {"fusion_lat": 0.0, "name": "29eafe1fa3af9117d3f4ce6adeebb89c", "lon": -77.01581816666666, "rental_uris": {"android": "https://dc.lft.to/lastmile_qr_scan", "ios": "https://dc.lft.to/lastmile_qr_scan"}, "fusion_lon": 0.0, "bike_id": "29eafe1fa3af9117d3f4ce6adeebb89c", "is_disabled": 0, "lat": 38.885028, "is_reserved": 0, "type": "electric_scooter"}, {"fusion_lat": 0.0, "name": "94e2c3579c2febff434161892bd4fba4", "lon": -77.0344555, "rental_uris": {"android": "https://dc.lft.to/lastmile_qr_scan", "ios": "https://dc.lft.to/lastmile_qr_scan"}, "fusion_lon": 0.0, "bike_id": "94e2c3579c2febff434161892bd4fba4", "is_disabled": 0, "lat": 38.9081345, "is_reserved": 0, "type": "electric_scooter"}, {"fusion_lat": 0.0, "name": "8d011d9e8f9ca65995016c898f8ff211", "lon": -77.0330985, "rental_uris": {"android": "https://dc.lft.to/lastmile_qr_scan", "ios": "https://dc.lft.to/lastmile_qr_scan"}, "fusion_lon": 0.0, "bike_id": "8d011d9e8f9ca65995016c898f8ff211", "is_disabled": 0, "lat": 38.898124, "is_reserved": 0, "type": "electric_scooter"}, {"fusion_lat": 0.0, "name": "6e52963c252fc28dd2c2ff1b914a4ec3", "lon": -77.02348533333333, "rental_uris": {"android": "https://dc.lft.to/lastmile_qr_scan", "ios": "https://dc.lft.to/lastmile_qr_scan"}, "fusion_lon": 0.0, "bike_id": "6e52963c252fc28dd2c2ff1b914a4ec3", "is_disabled": 0, "lat": 38.89223616666666, "is_reserved": 0, "type": "electric_scooter"}, {"fusion_lat": 0.0, "name": "db77bf99e66cd6b3b59627c9e4f81bf2", "lon": -77.03763633333334, "rental_uris": {"android": "https://dc.lft.to/lastmile_qr_scan", "ios": "https://dc.lft.to/lastmile_qr_scan"}, "fusion_lon": 0.0, "bike_id": "db77bf99e66cd6b3b59627c9e4f81bf2", "is_disabled": 0, "lat": 38.918764833333334, "is_reserved": 0, "type": "electric_scooter"}, {"fusion_lat": 0.0, "name": "d1035325fb5b76b76c475dd14527476f", "lon": -77.02875633333333, "rental_uris": {"android": "https://dc.lft.to/lastmile_qr_scan", "ios": "https://dc.lft.to/lastmile_qr_scan"}, "fusion_lon": 0.0, "bike_id": "d1035325fb5b76b76c475dd14527476f", "is_disabled": 0, "lat": 38.921368333333334, "is_reserved": 0, "type": "electric_scooter"}, {"fusion_lat": 0.0, "name": "59fe4098cdccb329429188fc1506351a", "lon": -77.02458883333334, "rental_uris": {"android": "https://dc.lft.to/lastmile_qr_scan", "ios": "https://dc.lft.to/lastmile_qr_scan"}, "fusion_lon": 0.0, "bike_id": "59fe4098cdccb329429188fc1506351a", "is_disabled": 0, "lat": 38.93855816666667, "is_reserved": 0, "type": "electric_scooter"}, {"fusion_lat": 0.0, "name": "e22ab1702b0344344a623e0387ea3854", "lon": -77.100884, "rental_uris": {"android": "https://dc.lft.to/lastmile_qr_scan", "ios": "https://dc.lft.to/lastmile_qr_scan"}, "fusion_lon": 0.0, "bike_id": "e22ab1702b0344344a623e0387ea3854", "is_disabled": 0, "lat": 38.9595385, "is_reserved": 0, "type": "electric_bike"}, {"fusion_lat": 0.0, "name": "38ab400036eab4d7a932486f0fe3b1e7", "lon": -77.0216725, "rental_uris": {"android": "https://dc.lft.to/lastmile_qr_scan", "ios": "https://dc.lft.to/lastmile_qr_scan"}, "fusion_lon": 0.0, "bike_id": "38ab400036eab4d7a932486f0fe3b1e7", "is_disabled": 0, "lat": 38.887216, "is_reserved": 0, "type": "electric_scooter"}, {"fusion_lat": 0.0, "name": "309916d073fcece945e81e5fa908c6bc", "lon": -77.03967066666667, "rental_uris": {"android": "https://dc.lft.to/lastmile_qr_scan", "ios": "https://dc.lft.to/lastmile_qr_scan"}, "fusion_lon": 0.0, "bike_id": "309916d073fcece945e81e5fa908c6bc", "is_disabled": 0, "lat": 38.90035016666667, "is_reserved": 0, "type": "electric_scooter"}, {"fusion_lat": 0.0, "name": "bfa562c013a6baa61594c0cfbbf3701f", "lon": -77.04366616666667, "rental_uris": {"android": "https://dc.lft.to/lastmile_qr_scan", "ios": "https://dc.lft.to/lastmile_qr_scan"}, "fusion_lon": 0.0, "bike_id": "bfa562c013a6baa61594c0cfbbf3701f", "is_disabled": 0, "lat": 38.89728316666667, "is_reserved": 0, "type": "electric_scooter"}, {"fusion_lat": 0.0, "name": "6629555c9aa56168fd98d863ca40b593", "lon": -76.94292383333334, "rental_uris": {"android": "https://dc.lft.to/lastmile_qr_scan", "ios": "https://dc.lft.to/lastmile_qr_scan"}, "fusion_lon": 0.0, "bike_id": "6629555c9aa56168fd98d863ca40b593", "is_disabled": 0, "lat": 38.938668166666666, "is_reserved": 0, "type": "electric_bike"}, {"fusion_lat": 0.0, "name": "47d1b62dbc6f9bfed48ede92efa58ce3", "lon": -77.04264983333333, "rental_uris": {"android": "https://dc.lft.to/lastmile_qr_scan", "ios": "https://dc.lft.to/lastmile_qr_scan"}, "fusion_lon": 0.0, "bike_id": "47d1b62dbc6f9bfed48ede92efa58ce3", "is_disabled": 0, "lat": 38.922938, "is_reserved": 0, "type": "electric_scooter"}, {"fusion_lat": 0.0, "name": "fa30ad4741ee545f8d34df7c9c0200ce", "lon": -76.92621283333334, "rental_uris": {"android": "https://dc.lft.to/lastmile_qr_scan", "ios": "https://dc.lft.to/lastmile_qr_scan"}, "fusion_lon": 0.0, "bike_id": "fa30ad4741ee545f8d34df7c9c0200ce", "is_disabled": 0, "lat": 38.8845455, "is_reserved": 0, "type": "electric_scooter"}, {"fusion_lat": 0.0, "name": "ad4726954a0f8c7a182db79996778d44", "lon": -77.05044816666667, "rental_uris": {"android": "https://dc.lft.to/lastmile_qr_scan", "ios": "https://dc.lft.to/lastmile_qr_scan"}, "fusion_lon": 0.0, "bike_id": "ad4726954a0f8c7a182db79996778d44", "is_disabled": 0, "lat": 38.92360883333333, "is_reserved": 0, "type": "electric_scooter"}, {"fusion_lat": 0.0, "name": "2da923492071ea35d152d3b4d177526b", "lon": -76.99030733333333, "rental_uris": {"android": "https://dc.lft.to/lastmile_qr_scan", "ios": "https://dc.lft.to/lastmile_qr_scan"}, "fusion_lon": 0.0, "bike_id": "2da923492071ea35d152d3b4d177526b", "is_disabled": 0, "lat": 38.89171483333333, "is_reserved": 0, "type": "electric_scooter"}, {"fusion_lat": 0.0, "name": "30ce37182fd7f69f406c64b50d39d14f", "lon": -76.9954435, "rental_uris": {"android": "https://dc.lft.to/lastmile_qr_scan", "ios": "https://dc.lft.to/lastmile_qr_scan"}, "fusion_lon": 0.0, "bike_id": "30ce37182fd7f69f406c64b50d39d14f", "is_disabled": 0, "lat": 38.83155383333333, "is_reserved": 0, "type": "electric_bike"}, {"fusion_lat": 0.0, "name": "af5c3378b3964d26f3f6c03a63f79756", "lon": -76.98918716666667, "rental_uris": {"android": "https://dc.lft.to/lastmile_qr_scan", "ios": "https://dc.lft.to/lastmile_qr_scan"}, "fusion_lon": 0.0, "bike_id": "af5c3378b3964d26f3f6c03a63f79756", "is_disabled": 0, "lat": 38.8656865, "is_reserved": 0, "type": "electric_scooter"}, {"fusion_lat": 0.0, "name": "696f64b0fdc4d11b527404ac539f232c", "lon": -77.03271033333333, "rental_uris": {"android": "https://dc.lft.to/lastmile_qr_scan", "ios": "https://dc.lft.to/lastmile_qr_scan"}, "fusion_lon": 0.0, "bike_id": "696f64b0fdc4d11b527404ac539f232c", "is_disabled": 0, "lat": 38.92747766666667, "is_reserved": 0, "type": "electric_scooter"}, {"fusion_lat": 0.0, "name": "1db423af59aa4022691812670aaf2c00", "lon": -77.108362, "rental_uris": {"android": "https://dc.lft.to/lastmile_qr_scan", "ios": "https://dc.lft.to/lastmile_qr_scan"}, "fusion_lon": 0.0, "bike_id": "1db423af59aa4022691812670aaf2c00", "is_disabled": 0, "lat": 38.8119905, "is_reserved": 0, "type": "electric_bike"}, {"fusion_lat": 0.0, "name": "d3659d5f470f46139732aa867ee6e32c", "lon": -77.021184, "rental_uris": {"android": "https://dc.lft.to/lastmile_qr_scan", "ios": "https://dc.lft.to/lastmile_qr_scan"}, "fusion_lon": 0.0, "bike_id": "d3659d5f470f46139732aa867ee6e32c", "is_disabled": 0, "lat": 38.92335166666667, "is_reserved": 0, "type": "electric_scooter"}, {"fusion_lat": 0.0, "name": "aa693df6949b22a01b38235d8091c161", "lon": -77.001813, "rental_uris": {"android": "https://dc.lft.to/lastmile_qr_scan", "ios": "https://dc.lft.to/lastmile_qr_scan"}, "fusion_lon": 0.0, "bike_id": "aa693df6949b22a01b38235d8091c161", "is_disabled": 0, "lat": 38.900277, "is_reserved": 0, "type": "electric_scooter"}, {"fusion_lat": 0.0, "name": "282df25d7cfdde7f400df256b0d24971", "lon": -77.04174233333333, "rental_uris": {"android": "https://dc.lft.to/lastmile_qr_scan", "ios": "https://dc.lft.to/lastmile_qr_scan"}, "fusion_lon": 0.0, "bike_id": "282df25d7cfdde7f400df256b0d24971", "is_disabled": 0, "lat": 38.911811, "is_reserved": 0, "type": "electric_scooter"}, {"fusion_lat": 0.0, "name": "af715bc4b05eddd5bff72af29bc6ab4c", "lon": -77.03618416666667, "rental_uris": {"android": "https://dc.lft.to/lastmile_qr_scan", "ios": "https://dc.lft.to/lastmile_qr_scan"}, "fusion_lon": 0.0, "bike_id": "af715bc4b05eddd5bff72af29bc6ab4c", "is_disabled": 0, "lat": 38.92325833333334, "is_reserved": 0, "type": "electric_scooter"}, {"fusion_lat": 0.0, "name": "1239f564f7326a0d3c6e40b0ec44d7dd", "lon": -77.03304216666666, "rental_uris": {"android": "https://dc.lft.to/lastmile_qr_scan", "ios": "https://dc.lft.to/lastmile_qr_scan"}, "fusion_lon": 0.0, "bike_id": "1239f564f7326a0d3c6e40b0ec44d7dd", "is_disabled": 0, "lat": 38.9031775, "is_reserved": 0, "type": "electric_scooter"}, {"fusion_lat": 0.0, "name": "fd3c24b54a906ce243e64f206e95f8d5", "lon": -77.03658283333333, "rental_uris": {"android": "https://dc.lft.to/lastmile_qr_scan", "ios": "https://dc.lft.to/lastmile_qr_scan"}, "fusion_lon": 0.0, "bike_id": "fd3c24b54a906ce243e64f206e95f8d5", "is_disabled": 0, "lat": 38.91858166666667, "is_reserved": 0, "type": "electric_scooter"}, {"fusion_lat": 0.0, "name": "3faabeb9211ad678992da37f4ccfe135", "lon": -76.99933883333334, "rental_uris": {"android": "https://dc.lft.to/lastmile_qr_scan", "ios": "https://dc.lft.to/lastmile_qr_scan"}, "fusion_lon": 0.0, "bike_id": "3faabeb9211ad678992da37f4ccfe135", "is_disabled": 0, "lat": 38.84314083333334, "is_reserved": 0, "type": "electric_scooter"}, {"fusion_lat": 0.0, "name": "5c8326925223b37cbf98f8c71a5b9595", "lon": -77.01410033333333, "rental_uris": {"android": "https://dc.lft.to/lastmile_qr_scan", "ios": "https://dc.lft.to/lastmile_qr_scan"}, "fusion_lon": 0.0, "bike_id": "5c8326925223b37cbf98f8c71a5b9595", "is_disabled": 0, "lat": 38.9139885, "is_reserved": 0, "type": "electric_scooter"}, {"fusion_lat": 0.0, "name": "6ccb35c8443092f3d0c7497c182110dc", "lon": -77.0415225, "rental_uris": {"android": "https://dc.lft.to/lastmile_qr_scan", "ios": "https://dc.lft.to/lastmile_qr_scan"}, "fusion_lon": 0.0, "bike_id": "6ccb35c8443092f3d0c7497c182110dc", "is_disabled": 0, "lat": 38.907595, "is_reserved": 0, "type": "electric_scooter"}, {"fusion_lat": 0.0, "name": "32f154301b232e8611b3ae78f63c3aec", "lon": -77.04377983333333, "rental_uris": {"android": "https://dc.lft.to/lastmile_qr_scan", "ios": "https://dc.lft.to/lastmile_qr_scan"}, "fusion_lon": 0.0, "bike_id": "32f154301b232e8611b3ae78f63c3aec", "is_disabled": 0, "lat": 38.892148, "is_reserved": 0, "type": "electric_scooter"}, {"fusion_lat": 0.0, "name": "793941b51f069d00b04ed728201b1f8d", "lon": -76.990223, "rental_uris": {"android": "https://dc.lft.to/lastmile_qr_scan", "ios": "https://dc.lft.to/lastmile_qr_scan"}, "fusion_lon": 0.0, "bike_id": "793941b51f069d00b04ed728201b1f8d", "is_disabled": 0, "lat": 38.88260783333333, "is_reserved": 0, "type": "electric_scooter"}, {"fusion_lat": 0.0, "name": "0ccf5fc0bdf096cb5fa61611c33bb054", "lon": -77.04158866666667, "rental_uris": {"android": "https://dc.lft.to/lastmile_qr_scan", "ios": "https://dc.lft.to/lastmile_qr_scan"}, "fusion_lon": 0.0, "bike_id": "0ccf5fc0bdf096cb5fa61611c33bb054", "is_disabled": 0, "lat": 38.9171445, "is_reserved": 0, "type": "electric_scooter"}, {"fusion_lat": 0.0, "name": "628b313680fb5fc988a11348457419c3", "lon": -76.93473716666666, "rental_uris": {"android": "https://dc.lft.to/lastmile_qr_scan", "ios": "https://dc.lft.to/lastmile_qr_scan"}, "fusion_lon": 0.0, "bike_id": "628b313680fb5fc988a11348457419c3", "is_disabled": 0, "lat": 38.895001666666666, "is_reserved": 0, "type": "electric_scooter"}, {"fusion_lat": 0.0, "name": "a1a1f92713d1d412bbde0c1a270a13ac", "lon": -77.07455916666666, "rental_uris": {"android": "https://dc.lft.to/lastmile_qr_scan", "ios": "https://dc.lft.to/lastmile_qr_scan"}, "fusion_lon": 0.0, "bike_id": "a1a1f92713d1d412bbde0c1a270a13ac", "is_disabled": 0, "lat": 38.945028666666666, "is_reserved": 0, "type": "electric_scooter"}, {"fusion_lat": 0.0, "name": "7fcd098367358b0ac8e6f6b030dbba73", "lon": -77.0220205, "rental_uris": {"android": "https://dc.lft.to/lastmile_qr_scan", "ios": "https://dc.lft.to/lastmile_qr_scan"}, "fusion_lon": 0.0, "bike_id": "7fcd098367358b0ac8e6f6b030dbba73", "is_disabled": 0, "lat": 38.91522633333334, "is_reserved": 0, "type": "electric_scooter"}, {"fusion_lat": 0.0, "name": "cfa46db5048ce5f5a8614d1b7b9a4e68", "lon": -77.0463875, "rental_uris": {"android": "https://dc.lft.to/lastmile_qr_scan", "ios": "https://dc.lft.to/lastmile_qr_scan"}, "fusion_lon": 0.0, "bike_id": "cfa46db5048ce5f5a8614d1b7b9a4e68", "is_disabled": 0, "lat": 38.892226, "is_reserved": 0, "type": "electric_scooter"}, {"fusion_lat": 0.0, "name": "c85ac1922c7d4e969f19b9e97701e05d", "lon": -77.02844083333333, "rental_uris": {"android": "https://dc.lft.to/lastmile_qr_scan", "ios": "https://dc.lft.to/lastmile_qr_scan"}, "fusion_lon": 0.0, "bike_id": "c85ac1922c7d4e969f19b9e97701e05d", "is_disabled": 0, "lat": 38.93413416666667, "is_reserved": 0, "type": "electric_scooter"}, {"fusion_lat": 0.0, "name": "970eb70b926bdfbe082df5f33ae8d7b6", "lon": -76.91214766666667, "rental_uris": {"android": "https://dc.lft.to/lastmile_qr_scan", "ios": "https://dc.lft.to/lastmile_qr_scan"}, "fusion_lon": 0.0, "bike_id": "970eb70b926bdfbe082df5f33ae8d7b6", "is_disabled": 0, "lat": 38.903156333333335, "is_reserved": 0, "type": "electric_bike"}, {"fusion_lat": 0.0, "name": "9d4e569045c032856e0b2cfa931cd726", "lon": -77.035298, "rental_uris": {"android": "https://dc.lft.to/lastmile_qr_scan", "ios": "https://dc.lft.to/lastmile_qr_scan"}, "fusion_lon": 0.0, "bike_id": "9d4e569045c032856e0b2cfa931cd726", "is_disabled": 0, "lat": 38.91700383333333, "is_reserved": 0, "type": "electric_scooter"}, {"fusion_lat": 0.0, "name": "c349a228c28ccd1acbab6ce19d94b141", "lon": -77.02824683333333, "rental_uris": {"android": "https://dc.lft.to/lastmile_qr_scan", "ios": "https://dc.lft.to/lastmile_qr_scan"}, "fusion_lon": 0.0, "bike_id": "c349a228c28ccd1acbab6ce19d94b141", "is_disabled": 0, "lat": 38.9320585, "is_reserved": 0, "type": "electric_scooter"}, {"fusion_lat": 0.0, "name": "3ca9f9e786d5f499fd8773f94820501b", "lon": -76.98713383333333, "rental_uris": {"android": "https://dc.lft.to/lastmile_qr_scan", "ios": "https://dc.lft.to/lastmile_qr_scan"}, "fusion_lon": 0.0, "bike_id": "3ca9f9e786d5f499fd8773f94820501b", "is_disabled": 0, "lat": 38.86695366666667, "is_reserved": 0, "type": "electric_scooter"}, {"fusion_lat": 0.0, "name": "c68bc5fb1e6345b3a2cdae2bb84e1257", "lon": -77.05004116666667, "rental_uris": {"android": "https://dc.lft.to/lastmile_qr_scan", "ios": "https://dc.lft.to/lastmile_qr_scan"}, "fusion_lon": 0.0, "bike_id": "c68bc5fb1e6345b3a2cdae2bb84e1257", "is_disabled": 0, "lat": 38.89230966666667, "is_reserved": 0, "type": "electric_scooter"}, {"fusion_lat": 0.0, "name": "678a8395c026cbb23ce1aecfc5863930", "lon": -76.99697166666667, "rental_uris": {"android": "https://dc.lft.to/lastmile_qr_scan", "ios": "https://dc.lft.to/lastmile_qr_scan"}, "fusion_lon": 0.0, "bike_id": "678a8395c026cbb23ce1aecfc5863930", "is_disabled": 0, "lat": 38.884811166666665, "is_reserved": 0, "type": "electric_scooter"}, {"fusion_lat": 0.0, "name": "b3e49a042b512d563732e40396e2d350", "lon": -77.02811966666667, "rental_uris": {"android": "https://dc.lft.to/lastmile_qr_scan", "ios": "https://dc.lft.to/lastmile_qr_scan"}, "fusion_lon": 0.0, "bike_id": "b3e49a042b512d563732e40396e2d350", "is_disabled": 0, "lat": 38.91196333333333, "is_reserved": 0, "type": "electric_scooter"}, {"fusion_lat": 0.0, "name": "1508a49a1e345b60860355d901b1063b", "lon": -77.03254833333334, "rental_uris": {"android": "https://dc.lft.to/lastmile_qr_scan", "ios": "https://dc.lft.to/lastmile_qr_scan"}, "fusion_lon": 0.0, "bike_id": "1508a49a1e345b60860355d901b1063b", "is_disabled": 0, "lat": 38.928509, "is_reserved": 0, "type": "electric_scooter"}, {"fusion_lat": 0.0, "name": "e73d026d061ab4289a3d45e77ad2ef23", "lon": -76.97737833333333, "rental_uris": {"android": "https://dc.lft.to/lastmile_qr_scan", "ios": "https://dc.lft.to/lastmile_qr_scan"}, "fusion_lon": 0.0, "bike_id": "e73d026d061ab4289a3d45e77ad2ef23", "is_disabled": 0, "lat": 38.864707, "is_reserved": 0, "type": "electric_scooter"}, {"fusion_lat": 0.0, "name": "53d1d09ec75396956f064c08927973fb", "lon": -77.00166633333333, "rental_uris": {"android": "https://dc.lft.to/lastmile_qr_scan", "ios": "https://dc.lft.to/lastmile_qr_scan"}, "fusion_lon": 0.0, "bike_id": "53d1d09ec75396956f064c08927973fb", "is_disabled": 0, "lat": 38.90259366666667, "is_reserved": 0, "type": "electric_scooter"}, {"fusion_lat": 0.0, "name": "52023f2e10abb7d5ffb293ce00736134", "lon": -77.03704533333334, "rental_uris": {"android": "https://dc.lft.to/lastmile_qr_scan", "ios": "https://dc.lft.to/lastmile_qr_scan"}, "fusion_lon": 0.0, "bike_id": "52023f2e10abb7d5ffb293ce00736134", "is_disabled": 0, "lat": 38.91659716666667, "is_reserved": 0, "type": "electric_scooter"}, {"fusion_lat": 0.0, "name": "2b5fead37c99f6760ee15bd8a5f82d55", "lon": -76.96505866666666, "rental_uris": {"android": "https://dc.lft.to/lastmile_qr_scan", "ios": "https://dc.lft.to/lastmile_qr_scan"}, "fusion_lon": 0.0, "bike_id": "2b5fead37c99f6760ee15bd8a5f82d55", "is_disabled": 0, "lat": 38.87654, "is_reserved": 0, "type": "electric_scooter"}, {"fusion_lat": 0.0, "name": "f99da12a274a2de0ba61d6fbcf982c12", "lon": -77.02482516666667, "rental_uris": {"android": "https://dc.lft.to/lastmile_qr_scan", "ios": "https://dc.lft.to/lastmile_qr_scan"}, "fusion_lon": 0.0, "bike_id": "f99da12a274a2de0ba61d6fbcf982c12", "is_disabled": 0, "lat": 38.930989, "is_reserved": 0, "type": "electric_scooter"}, {"fusion_lat": 0.0, "name": "495cbc1aad29c7a64f97aac5146daf7a", "lon": -77.03379, "rental_uris": {"android": "https://dc.lft.to/lastmile_qr_scan", "ios": "https://dc.lft.to/lastmile_qr_scan"}, "fusion_lon": 0.0, "bike_id": "495cbc1aad29c7a64f97aac5146daf7a", "is_disabled": 0, "lat": 38.925324, "is_reserved": 0, "type": "electric_scooter"}, {"fusion_lat": 0.0, "name": "0adbea9fd403717a04b7961a7773169b", "lon": -77.04335466666667, "rental_uris": {"android": "https://dc.lft.to/lastmile_qr_scan", "ios": "https://dc.lft.to/lastmile_qr_scan"}, "fusion_lon": 0.0, "bike_id": "0adbea9fd403717a04b7961a7773169b", "is_disabled": 0, "lat": 38.89522216666667, "is_reserved": 0, "type": "electric_scooter"}, {"fusion_lat": 0.0, "name": "28272ce8476c85a957289394223db223", "lon": -77.0160375, "rental_uris": {"android": "https://dc.lft.to/lastmile_qr_scan", "ios": "https://dc.lft.to/lastmile_qr_scan"}, "fusion_lon": 0.0, "bike_id": "28272ce8476c85a957289394223db223", "is_disabled": 0, "lat": 38.88487, "is_reserved": 0, "type": "electric_scooter"}, {"fusion_lat": 0.0, "name": "1218674d63baad722f4077851f9a0b01", "lon": -76.985165, "rental_uris": {"android": "https://dc.lft.to/lastmile_qr_scan", "ios": "https://dc.lft.to/lastmile_qr_scan"}, "fusion_lon": 0.0, "bike_id": "1218674d63baad722f4077851f9a0b01", "is_disabled": 0, "lat": 38.88079483333333, "is_reserved": 0, "type": "electric_scooter"}, {"fusion_lat": 0.0, "name": "f2cf2d992065ed0969b58c507505a840", "lon": -77.0733055, "rental_uris": {"android": "https://dc.lft.to/lastmile_qr_scan", "ios": "https://dc.lft.to/lastmile_qr_scan"}, "fusion_lon": 0.0, "bike_id": "f2cf2d992065ed0969b58c507505a840", "is_disabled": 0, "lat": 38.9239635, "is_reserved": 0, "type": "electric_scooter"}, {"fusion_lat": 0.0, "name": "94dd52eeb11f36f967c6204e68c39238", "lon": -77.00610916666666, "rental_uris": {"android": "https://dc.lft.to/lastmile_qr_scan", "ios": "https://dc.lft.to/lastmile_qr_scan"}, "fusion_lon": 0.0, "bike_id": "94dd52eeb11f36f967c6204e68c39238", "is_disabled": 0, "lat": 38.9056195, "is_reserved": 0, "type": "electric_scooter"}, {"fusion_lat": 0.0, "name": "377f1db7329cadd3c655252aa59d65b5", "lon": -77.04169966666667, "rental_uris": {"android": "https://dc.lft.to/lastmile_qr_scan", "ios": "https://dc.lft.to/lastmile_qr_scan"}, "fusion_lon": 0.0, "bike_id": "377f1db7329cadd3c655252aa59d65b5", "is_disabled": 0, "lat": 38.919722, "is_reserved": 0, "type": "electric_scooter"}, {"fusion_lat": 0.0, "name": "cd27a3eb074180dc40286c265c3bb716", "lon": -77.04531616666667, "rental_uris": {"android": "https://dc.lft.to/lastmile_qr_scan", "ios": "https://dc.lft.to/lastmile_qr_scan"}, "fusion_lon": 0.0, "bike_id": "cd27a3eb074180dc40286c265c3bb716", "is_disabled": 0, "lat": 38.9181525, "is_reserved": 0, "type": "electric_scooter"}, {"fusion_lat": 0.0, "name": "9e6ff82b39435bcb58f8e31b10903b30", "lon": -77.03424566666666, "rental_uris": {"android": "https://dc.lft.to/lastmile_qr_scan", "ios": "https://dc.lft.to/lastmile_qr_scan"}, "fusion_lon": 0.0, "bike_id": "9e6ff82b39435bcb58f8e31b10903b30", "is_disabled": 0, "lat": 38.90957516666667, "is_reserved": 0, "type": "electric_scooter"}, {"fusion_lat": 0.0, "name": "c61c7bf7f4ab6835ce8d94ee99ec26af", "lon": -77.0465495, "rental_uris": {"android": "https://dc.lft.to/lastmile_qr_scan", "ios": "https://dc.lft.to/lastmile_qr_scan"}, "fusion_lon": 0.0, "bike_id": "c61c7bf7f4ab6835ce8d94ee99ec26af", "is_disabled": 0, "lat": 38.9136075, "is_reserved": 0, "type": "electric_scooter"}, {"fusion_lat": 0.0, "name": "b4dd076d0e40194b73eae7c5b262c16e", "lon": -77.02737116666667, "rental_uris": {"android": "https://dc.lft.to/lastmile_qr_scan", "ios": "https://dc.lft.to/lastmile_qr_scan"}, "fusion_lon": 0.0, "bike_id": "b4dd076d0e40194b73eae7c5b262c16e", "is_disabled": 0, "lat": 38.943721833333335, "is_reserved": 0, "type": "electric_scooter"}, {"fusion_lat": 0.0, "name": "5303bca10b0aa28e7ed24ca8d6bd8867", "lon": -77.03083416666666, "rental_uris": {"android": "https://dc.lft.to/lastmile_qr_scan", "ios": "https://dc.lft.to/lastmile_qr_scan"}, "fusion_lon": 0.0, "bike_id": "5303bca10b0aa28e7ed24ca8d6bd8867", "is_disabled": 0, "lat": 38.8997015, "is_reserved": 0, "type": "electric_scooter"}, {"fusion_lat": 0.0, "name": "520b8f9f7f7d6089e0571d52734cb296", "lon": -77.00676366666667, "rental_uris": {"android": "https://dc.lft.to/lastmile_qr_scan", "ios": "https://dc.lft.to/lastmile_qr_scan"}, "fusion_lon": 0.0, "bike_id": "520b8f9f7f7d6089e0571d52734cb296", "is_disabled": 0, "lat": 38.90009833333333, "is_reserved": 0, "type": "electric_scooter"}, {"fusion_lat": 0.0, "name": "2c1dfffabababeded102049b16865308", "lon": -77.03999433333334, "rental_uris": {"android": "https://dc.lft.to/lastmile_qr_scan", "ios": "https://dc.lft.to/lastmile_qr_scan"}, "fusion_lon": 0.0, "bike_id": "2c1dfffabababeded102049b16865308", "is_disabled": 0, "lat": 38.91415166666667, "is_reserved": 0, "type": "electric_scooter"}, {"fusion_lat": 0.0, "name": "ba6635152d9649c936ad34d6a17d1a08", "lon": -76.98509516666667, "rental_uris": {"android": "https://dc.lft.to/lastmile_qr_scan", "ios": "https://dc.lft.to/lastmile_qr_scan"}, "fusion_lon": 0.0, "bike_id": "ba6635152d9649c936ad34d6a17d1a08", "is_disabled": 0, "lat": 38.86012383333333, "is_reserved": 0, "type": "electric_scooter"}, {"fusion_lat": 0.0, "name": "a595973b40c830dcaf2cca6f3380b22d", "lon": -77.01298183333333, "rental_uris": {"android": "https://dc.lft.to/lastmile_qr_scan", "ios": "https://dc.lft.to/lastmile_qr_scan"}, "fusion_lon": 0.0, "bike_id": "a595973b40c830dcaf2cca6f3380b22d", "is_disabled": 0, "lat": 38.918014666666664, "is_reserved": 0, "type": "electric_scooter"}, {"fusion_lat": 0.0, "name": "78fcdeafa339564b276c551658c2e398", "lon": -77.024673, "rental_uris": {"android": "https://dc.lft.to/lastmile_qr_scan", "ios": "https://dc.lft.to/lastmile_qr_scan"}, "fusion_lon": 0.0, "bike_id": "78fcdeafa339564b276c551658c2e398", "is_disabled": 0, "lat": 38.93872783333333, "is_reserved": 0, "type": "electric_scooter"}, {"fusion_lat": 0.0, "name": "94fd5ded965220d7b5a6de0f27f97565", "lon": -77.02067033333333, "rental_uris": {"android": "https://dc.lft.to/lastmile_qr_scan", "ios": "https://dc.lft.to/lastmile_qr_scan"}, "fusion_lon": 0.0, "bike_id": "94fd5ded965220d7b5a6de0f27f97565", "is_disabled": 0, "lat": 38.93647933333333, "is_reserved": 0, "type": "electric_bike"}, {"fusion_lat": 0.0, "name": "61bc62bf0591613fd079dd9e30f2833f", "lon": -77.00139383333334, "rental_uris": {"android": "https://dc.lft.to/lastmile_qr_scan", "ios": "https://dc.lft.to/lastmile_qr_scan"}, "fusion_lon": 0.0, "bike_id": "61bc62bf0591613fd079dd9e30f2833f", "is_disabled": 0, "lat": 38.894658, "is_reserved": 0, "type": "electric_scooter"}, {"fusion_lat": 0.0, "name": "8b5cec2750d1a5f589dc3804ce26e6ed", "lon": -77.024662, "rental_uris": {"android": "https://dc.lft.to/lastmile_qr_scan", "ios": "https://dc.lft.to/lastmile_qr_scan"}, "fusion_lon": 0.0, "bike_id": "8b5cec2750d1a5f589dc3804ce26e6ed", "is_disabled": 0, "lat": 38.941942833333336, "is_reserved": 0, "type": "electric_scooter"}, {"fusion_lat": 0.0, "name": "8586defd06d7ff53bd86bfb002cfacb8", "lon": -76.95765783333333, "rental_uris": {"android": "https://dc.lft.to/lastmile_qr_scan", "ios": "https://dc.lft.to/lastmile_qr_scan"}, "fusion_lon": 0.0, "bike_id": "8586defd06d7ff53bd86bfb002cfacb8", "is_disabled": 0, "lat": 38.9695295, "is_reserved": 0, "type": "electric_bike"}, {"fusion_lat": 0.0, "name": "9e00e368cb87b2eac26566150cddfbcf", "lon": -77.04665083333333, "rental_uris": {"android": "https://dc.lft.to/lastmile_qr_scan", "ios": "https://dc.lft.to/lastmile_qr_scan"}, "fusion_lon": 0.0, "bike_id": "9e00e368cb87b2eac26566150cddfbcf", "is_disabled": 0, "lat": 38.89451, "is_reserved": 0, "type": "electric_scooter"}, {"fusion_lat": 0.0, "name": "0f5856275cce6f4269db86de61226ea6", "lon": -77.04150783333333, "rental_uris": {"android": "https://dc.lft.to/lastmile_qr_scan", "ios": "https://dc.lft.to/lastmile_qr_scan"}, "fusion_lon": 0.0, "bike_id": "0f5856275cce6f4269db86de61226ea6", "is_disabled": 0, "lat": 38.91745216666666, "is_reserved": 0, "type": "electric_scooter"}, {"fusion_lat": 0.0, "name": "c36eafc1ad0054e963113febb107ec38", "lon": -77.0242795, "rental_uris": {"android": "https://dc.lft.to/lastmile_qr_scan", "ios": "https://dc.lft.to/lastmile_qr_scan"}, "fusion_lon": 0.0, "bike_id": "c36eafc1ad0054e963113febb107ec38", "is_disabled": 0, "lat": 38.93799583333333, "is_reserved": 0, "type": "electric_bike"}, {"fusion_lat": 0.0, "name": "e022ef4611668a675bd5845cb55457fc", "lon": -77.01423116666666, "rental_uris": {"android": "https://dc.lft.to/lastmile_qr_scan", "ios": "https://dc.lft.to/lastmile_qr_scan"}, "fusion_lon": 0.0, "bike_id": "e022ef4611668a675bd5845cb55457fc", "is_disabled": 0, "lat": 38.95227, "is_reserved": 0, "type": "electric_scooter"}, {"fusion_lat": 0.0, "name": "6a72e34ede006600d6e0fc13726191c6", "lon": -77.02303883333333, "rental_uris": {"android": "https://dc.lft.to/lastmile_qr_scan", "ios": "https://dc.lft.to/lastmile_qr_scan"}, "fusion_lon": 0.0, "bike_id": "6a72e34ede006600d6e0fc13726191c6", "is_disabled": 0, "lat": 38.927679166666664, "is_reserved": 0, "type": "electric_scooter"}, {"fusion_lat": 0.0, "name": "44ca917aa7596ec4c374561b0aa0266e", "lon": -77.004096, "rental_uris": {"android": "https://dc.lft.to/lastmile_qr_scan", "ios": "https://dc.lft.to/lastmile_qr_scan"}, "fusion_lon": 0.0, "bike_id": "44ca917aa7596ec4c374561b0aa0266e", "is_disabled": 0, "lat": 38.9308335, "is_reserved": 0, "type": "electric_scooter"}, {"fusion_lat": 0.0, "name": "9164aab5f97e1baf1b617166e447553c", "lon": -77.04506216666667, "rental_uris": {"android": "https://dc.lft.to/lastmile_qr_scan", "ios": "https://dc.lft.to/lastmile_qr_scan"}, "fusion_lon": 0.0, "bike_id": "9164aab5f97e1baf1b617166e447553c", "is_disabled": 0, "lat": 38.900078666666666, "is_reserved": 0, "type": "electric_scooter"}, {"fusion_lat": 0.0, "name": "73876ef1bb9fe8cebfba7c5f90731148", "lon": -77.03794416666666, "rental_uris": {"android": "https://dc.lft.to/lastmile_qr_scan", "ios": "https://dc.lft.to/lastmile_qr_scan"}, "fusion_lon": 0.0, "bike_id": "73876ef1bb9fe8cebfba7c5f90731148", "is_disabled": 0, "lat": 38.91548566666667, "is_reserved": 0, "type": "electric_scooter"}, {"fusion_lat": 0.0, "name": "c03fb8f6b2c99cda677d75f2a19fc62e", "lon": -77.04639433333334, "rental_uris": {"android": "https://dc.lft.to/lastmile_qr_scan", "ios": "https://dc.lft.to/lastmile_qr_scan"}, "fusion_lon": 0.0, "bike_id": "c03fb8f6b2c99cda677d75f2a19fc62e", "is_disabled": 0, "lat": 38.92111233333333, "is_reserved": 0, "type": "electric_scooter"}, {"fusion_lat": 0.0, "name": "a05730f47a4b92b25ad8844e9d3e6c2f", "lon": -77.03399416666667, "rental_uris": {"android": "https://dc.lft.to/lastmile_qr_scan", "ios": "https://dc.lft.to/lastmile_qr_scan"}, "fusion_lon": 0.0, "bike_id": "a05730f47a4b92b25ad8844e9d3e6c2f", "is_disabled": 0, "lat": 38.90542516666667, "is_reserved": 0, "type": "electric_scooter"}, {"fusion_lat": 0.0, "name": "a3189e1f9bfa69a9154281986b4ac05d", "lon": -77.06102583333333, "rental_uris": {"android": "https://dc.lft.to/lastmile_qr_scan", "ios": "https://dc.lft.to/lastmile_qr_scan"}, "fusion_lon": 0.0, "bike_id": "a3189e1f9bfa69a9154281986b4ac05d", "is_disabled": 0, "lat": 38.937019, "is_reserved": 0, "type": "electric_scooter"}, {"fusion_lat": 0.0, "name": "c50a92c139f0d5d7da4864da045bb496", "lon": -76.9588965, "rental_uris": {"android": "https://dc.lft.to/lastmile_qr_scan", "ios": "https://dc.lft.to/lastmile_qr_scan"}, "fusion_lon": 0.0, "bike_id": "c50a92c139f0d5d7da4864da045bb496", "is_disabled": 0, "lat": 38.89004383333334, "is_reserved": 0, "type": "electric_scooter"}, {"fusion_lat": 0.0, "name": "ab92816fd7daf5ddd78ee24a27fef416", "lon": -77.03378816666667, "rental_uris": {"android": "https://dc.lft.to/lastmile_qr_scan", "ios": "https://dc.lft.to/lastmile_qr_scan"}, "fusion_lon": 0.0, "bike_id": "ab92816fd7daf5ddd78ee24a27fef416", "is_disabled": 0, "lat": 38.92142916666667, "is_reserved": 0, "type": "electric_scooter"}, {"fusion_lat": 0.0, "name": "2e932a57ecba23ca2d1001fe41c7b287", "lon": -77.05129533333333, "rental_uris": {"android": "https://dc.lft.to/lastmile_qr_scan", "ios": "https://dc.lft.to/lastmile_qr_scan"}, "fusion_lon": 0.0, "bike_id": "2e932a57ecba23ca2d1001fe41c7b287", "is_disabled": 0, "lat": 38.92359716666667, "is_reserved": 0, "type": "electric_scooter"}, {"fusion_lat": 0.0, "name": "84aee214d0dbd36637f0cfe5f0328472", "lon": -77.00136033333334, "rental_uris": {"android": "https://dc.lft.to/lastmile_qr_scan", "ios": "https://dc.lft.to/lastmile_qr_scan"}, "fusion_lon": 0.0, "bike_id": "84aee214d0dbd36637f0cfe5f0328472", "is_disabled": 0, "lat": 38.8946765, "is_reserved": 0, "type": "electric_scooter"}, {"fusion_lat": 0.0, "name": "4176c8e59ba4770237836088fc46d608", "lon": -77.029657, "rental_uris": {"android": "https://dc.lft.to/lastmile_qr_scan", "ios": "https://dc.lft.to/lastmile_qr_scan"}, "fusion_lon": 0.0, "bike_id": "4176c8e59ba4770237836088fc46d608", "is_disabled": 0, "lat": 38.916683, "is_reserved": 0, "type": "electric_scooter"}, {"fusion_lat": 0.0, "name": "febc02c4419b7a75209b4cfb9f2f669c", "lon": -76.99480716666666, "rental_uris": {"android": "https://dc.lft.to/lastmile_qr_scan", "ios": "https://dc.lft.to/lastmile_qr_scan"}, "fusion_lon": 0.0, "bike_id": "febc02c4419b7a75209b4cfb9f2f669c", "is_disabled": 0, "lat": 38.886023333333334, "is_reserved": 0, "type": "electric_scooter"}, {"fusion_lat": 0.0, "name": "22ac500c13fd01cd3428c55fdda240f5", "lon": -77.0363635, "rental_uris": {"android": "https://dc.lft.to/lastmile_qr_scan", "ios": "https://dc.lft.to/lastmile_qr_scan"}, "fusion_lon": 0.0, "bike_id": "22ac500c13fd01cd3428c55fdda240f5", "is_disabled": 0, "lat": 38.92698733333334, "is_reserved": 0, "type": "electric_scooter"}, {"fusion_lat": 0.0, "name": "4fe16b5618a41f00f4230b4c96861ada", "lon": -77.02465016666666, "rental_uris": {"android": "https://dc.lft.to/lastmile_qr_scan", "ios": "https://dc.lft.to/lastmile_qr_scan"}, "fusion_lon": 0.0, "bike_id": "4fe16b5618a41f00f4230b4c96861ada", "is_disabled": 0, "lat": 38.887716833333336, "is_reserved": 0, "type": "electric_scooter"}, {"fusion_lat": 0.0, "name": "a8d5ecc52934d1f6456cbe17808d2c7d", "lon": -77.04307033333333, "rental_uris": {"android": "https://dc.lft.to/lastmile_qr_scan", "ios": "https://dc.lft.to/lastmile_qr_scan"}, "fusion_lon": 0.0, "bike_id": "a8d5ecc52934d1f6456cbe17808d2c7d", "is_disabled": 0, "lat": 38.892176, "is_reserved": 0, "type": "electric_scooter"}, {"fusion_lat": 0.0, "name": "003d7812fc9fc6ab6d6e6bfbe428b352", "lon": -77.00229383333334, "rental_uris": {"android": "https://dc.lft.to/lastmile_qr_scan", "ios": "https://dc.lft.to/lastmile_qr_scan"}, "fusion_lon": 0.0, "bike_id": "003d7812fc9fc6ab6d6e6bfbe428b352", "is_disabled": 0, "lat": 38.823741, "is_reserved": 0, "type": "electric_bike"}, {"fusion_lat": 0.0, "name": "b399e1dcb665609ec965bbfef6acdd2f", "lon": -77.016123, "rental_uris": {"android": "https://dc.lft.to/lastmile_qr_scan", "ios": "https://dc.lft.to/lastmile_qr_scan"}, "fusion_lon": 0.0, "bike_id": "b399e1dcb665609ec965bbfef6acdd2f", "is_disabled": 0, "lat": 38.884768, "is_reserved": 0, "type": "electric_scooter"}, {"fusion_lat": 0.0, "name": "579da052816c690f31d720a53cdff940", "lon": -77.02242733333334, "rental_uris": {"android": "https://dc.lft.to/lastmile_qr_scan", "ios": "https://dc.lft.to/lastmile_qr_scan"}, "fusion_lon": 0.0, "bike_id": "579da052816c690f31d720a53cdff940", "is_disabled": 0, "lat": 38.91665066666667, "is_reserved": 0, "type": "electric_scooter"}, {"fusion_lat": 0.0, "name": "bcc096bbb6f8c234dc09450c769722f5", "lon": -77.00165833333334, "rental_uris": {"android": "https://dc.lft.to/lastmile_qr_scan", "ios": "https://dc.lft.to/lastmile_qr_scan"}, "fusion_lon": 0.0, "bike_id": "bcc096bbb6f8c234dc09450c769722f5", "is_disabled": 0, "lat": 38.90257166666667, "is_reserved": 0, "type": "electric_scooter"}, {"fusion_lat": 0.0, "name": "904710e4fe430702500d5dc8056ba072", "lon": -77.02804883333333, "rental_uris": {"android": "https://dc.lft.to/lastmile_qr_scan", "ios": "https://dc.lft.to/lastmile_qr_scan"}, "fusion_lon": 0.0, "bike_id": "904710e4fe430702500d5dc8056ba072", "is_disabled": 0, "lat": 38.9308075, "is_reserved": 0, "type": "electric_scooter"}, {"fusion_lat": 0.0, "name": "04f8b931273df92df885cb3a7aa72627", "lon": -77.107168, "rental_uris": {"android": "https://dc.lft.to/lastmile_qr_scan", "ios": "https://dc.lft.to/lastmile_qr_scan"}, "fusion_lon": 0.0, "bike_id": "04f8b931273df92df885cb3a7aa72627", "is_disabled": 0, "lat": 38.87530816666667, "is_reserved": 0, "type": "electric_bike"}, {"fusion_lat": 0.0, "name": "ccd02e22446a8ad0ff50a39edc3a5657", "lon": -76.935314, "rental_uris": {"android": "https://dc.lft.to/lastmile_qr_scan", "ios": "https://dc.lft.to/lastmile_qr_scan"}, "fusion_lon": 0.0, "bike_id": "ccd02e22446a8ad0ff50a39edc3a5657", "is_disabled": 0, "lat": 38.896805, "is_reserved": 0, "type": "electric_scooter"}, {"fusion_lat": 0.0, "name": "c20c82576979e46f2cadf50e45d5105d", "lon": -77.04504633333333, "rental_uris": {"android": "https://dc.lft.to/lastmile_qr_scan", "ios": "https://dc.lft.to/lastmile_qr_scan"}, "fusion_lon": 0.0, "bike_id": "c20c82576979e46f2cadf50e45d5105d", "is_disabled": 0, "lat": 38.9111005, "is_reserved": 0, "type": "electric_scooter"}, {"fusion_lat": 0.0, "name": "2c7490d86a667840abc8223edf28856f", "lon": -77.00888466666666, "rental_uris": {"android": "https://dc.lft.to/lastmile_qr_scan", "ios": "https://dc.lft.to/lastmile_qr_scan"}, "fusion_lon": 0.0, "bike_id": "2c7490d86a667840abc8223edf28856f", "is_disabled": 0, "lat": 38.87450616666667, "is_reserved": 0, "type": "electric_scooter"}, {"fusion_lat": 0.0, "name": "b908fa7c7dfe32f89db4dd000290334d", "lon": -77.00940916666667, "rental_uris": {"android": "https://dc.lft.to/lastmile_qr_scan", "ios": "https://dc.lft.to/lastmile_qr_scan"}, "fusion_lon": 0.0, "bike_id": "b908fa7c7dfe32f89db4dd000290334d", "is_disabled": 0, "lat": 38.876306666666665, "is_reserved": 0, "type": "electric_scooter"}, {"fusion_lat": 0.0, "name": "da10bfba2a11bd57a0eddcfc8fe8d5e8", "lon": -77.03148866666666, "rental_uris": {"android": "https://dc.lft.to/lastmile_qr_scan", "ios": "https://dc.lft.to/lastmile_qr_scan"}, "fusion_lon": 0.0, "bike_id": "da10bfba2a11bd57a0eddcfc8fe8d5e8", "is_disabled": 0, "lat": 38.91621166666667, "is_reserved": 0, "type": "electric_scooter"}, {"fusion_lat": 0.0, "name": "affd05399d7022cb26e4c71c30487c71", "lon": -77.04907366666667, "rental_uris": {"android": "https://dc.lft.to/lastmile_qr_scan", "ios": "https://dc.lft.to/lastmile_qr_scan"}, "fusion_lon": 0.0, "bike_id": "affd05399d7022cb26e4c71c30487c71", "is_disabled": 0, "lat": 38.90542583333333, "is_reserved": 0, "type": "electric_scooter"}, {"fusion_lat": 0.0, "name": "3610f9f33edc3711a7f976cc251a1dc2", "lon": -77.04372666666667, "rental_uris": {"android": "https://dc.lft.to/lastmile_qr_scan", "ios": "https://dc.lft.to/lastmile_qr_scan"}, "fusion_lon": 0.0, "bike_id": "3610f9f33edc3711a7f976cc251a1dc2", "is_disabled": 0, "lat": 38.892213, "is_reserved": 0, "type": "electric_scooter"}, {"fusion_lat": 0.0, "name": "a0ff9e4670a068664c7c33c3b6e64341", "lon": -76.9292645, "rental_uris": {"android": "https://dc.lft.to/lastmile_qr_scan", "ios": "https://dc.lft.to/lastmile_qr_scan"}, "fusion_lon": 0.0, "bike_id": "a0ff9e4670a068664c7c33c3b6e64341", "is_disabled": 0, "lat": 38.90269083333333, "is_reserved": 0, "type": "electric_bike"}, {"fusion_lat": 0.0, "name": "add28e52457334a406ee79889874208e", "lon": -77.0281095, "rental_uris": {"android": "https://dc.lft.to/lastmile_qr_scan", "ios": "https://dc.lft.to/lastmile_qr_scan"}, "fusion_lon": 0.0, "bike_id": "add28e52457334a406ee79889874208e", "is_disabled": 0, "lat": 38.8983, "is_reserved": 0, "type": "electric_scooter"}, {"fusion_lat": 0.0, "name": "2a87eab85d0a4761aefbec517c2fdc31", "lon": -77.04622866666666, "rental_uris": {"android": "https://dc.lft.to/lastmile_qr_scan", "ios": "https://dc.lft.to/lastmile_qr_scan"}, "fusion_lon": 0.0, "bike_id": "2a87eab85d0a4761aefbec517c2fdc31", "is_disabled": 0, "lat": 38.91544666666667, "is_reserved": 0, "type": "electric_scooter"}, {"fusion_lat": 0.0, "name": "3be1c12b48ef94a231fbd6b7fab2152a", "lon": -76.9501495, "rental_uris": {"android": "https://dc.lft.to/lastmile_qr_scan", "ios": "https://dc.lft.to/lastmile_qr_scan"}, "fusion_lon": 0.0, "bike_id": "3be1c12b48ef94a231fbd6b7fab2152a", "is_disabled": 0, "lat": 38.8937025, "is_reserved": 0, "type": "electric_scooter"}, {"fusion_lat": 0.0, "name": "ed6010d6b935e75b2b004861be86a19d", "lon": -76.99628033333333, "rental_uris": {"android": "https://dc.lft.to/lastmile_qr_scan", "ios": "https://dc.lft.to/lastmile_qr_scan"}, "fusion_lon": 0.0, "bike_id": "ed6010d6b935e75b2b004861be86a19d", "is_disabled": 0, "lat": 38.899973833333334, "is_reserved": 0, "type": "electric_scooter"}, {"fusion_lat": 0.0, "name": "d36e1a8065bcee3e0824156993015d7e", "lon": -76.99740716666666, "rental_uris": {"android": "https://dc.lft.to/lastmile_qr_scan", "ios": "https://dc.lft.to/lastmile_qr_scan"}, "fusion_lon": 0.0, "bike_id": "d36e1a8065bcee3e0824156993015d7e", "is_disabled": 0, "lat": 39.04228466666667, "is_reserved": 0, "type": "electric_bike"}, {"fusion_lat": 0.0, "name": "57a59ee6f367dde4fe998db62c159cb5", "lon": -77.0392605, "rental_uris": {"android": "https://dc.lft.to/lastmile_qr_scan", "ios": "https://dc.lft.to/lastmile_qr_scan"}, "fusion_lon": 0.0, "bike_id": "57a59ee6f367dde4fe998db62c159cb5", "is_disabled": 0, "lat": 38.900316, "is_reserved": 0, "type": "electric_scooter"}, {"fusion_lat": 0.0, "name": "35ff0359ccdc2867dcdd1ff78e674d1b", "lon": -77.00128283333333, "rental_uris": {"android": "https://dc.lft.to/lastmile_qr_scan", "ios": "https://dc.lft.to/lastmile_qr_scan"}, "fusion_lon": 0.0, "bike_id": "35ff0359ccdc2867dcdd1ff78e674d1b", "is_disabled": 0, "lat": 38.87367916666667, "is_reserved": 0, "type": "electric_scooter"}, {"fusion_lat": 0.0, "name": "7d79835576e4a6b2cc286569908bb54a", "lon": -77.02826233333333, "rental_uris": {"android": "https://dc.lft.to/lastmile_qr_scan", "ios": "https://dc.lft.to/lastmile_qr_scan"}, "fusion_lon": 0.0, "bike_id": "7d79835576e4a6b2cc286569908bb54a", "is_disabled": 0, "lat": 38.93879233333333, "is_reserved": 0, "type": "electric_scooter"}, {"fusion_lat": 0.0, "name": "5ddb1705b772b052252b0e1f1d1d6408", "lon": -77.0265255, "rental_uris": {"android": "https://dc.lft.to/lastmile_qr_scan", "ios": "https://dc.lft.to/lastmile_qr_scan"}, "fusion_lon": 0.0, "bike_id": "5ddb1705b772b052252b0e1f1d1d6408", "is_disabled": 0, "lat": 38.93859483333333, "is_reserved": 0, "type": "electric_scooter"}, {"fusion_lat": 0.0, "name": "97e7b36ef7b4d0291a39eff6b13d6d61", "lon": -77.03412066666667, "rental_uris": {"android": "https://dc.lft.to/lastmile_qr_scan", "ios": "https://dc.lft.to/lastmile_qr_scan"}, "fusion_lon": 0.0, "bike_id": "97e7b36ef7b4d0291a39eff6b13d6d61", "is_disabled": 0, "lat": 38.9603415, "is_reserved": 0, "type": "electric_bike"}, {"fusion_lat": 0.0, "name": "ace25e4d42bfc7c20bf665d458f4d1e9", "lon": -77.034267, "rental_uris": {"android": "https://dc.lft.to/lastmile_qr_scan", "ios": "https://dc.lft.to/lastmile_qr_scan"}, "fusion_lon": 0.0, "bike_id": "ace25e4d42bfc7c20bf665d458f4d1e9", "is_disabled": 0, "lat": 38.90262166666667, "is_reserved": 0, "type": "electric_scooter"}, {"fusion_lat": 0.0, "name": "6c77e69937cecf052d506812c9f73751", "lon": -76.99355516666667, "rental_uris": {"android": "https://dc.lft.to/lastmile_qr_scan", "ios": "https://dc.lft.to/lastmile_qr_scan"}, "fusion_lon": 0.0, "bike_id": "6c77e69937cecf052d506812c9f73751", "is_disabled": 0, "lat": 38.845007333333335, "is_reserved": 0, "type": "electric_bike"}, {"fusion_lat": 0.0, "name": "b2bba7a13acf43a128e7f4fe2e0b85da", "lon": -77.0469175, "rental_uris": {"android": "https://dc.lft.to/lastmile_qr_scan", "ios": "https://dc.lft.to/lastmile_qr_scan"}, "fusion_lon": 0.0, "bike_id": "b2bba7a13acf43a128e7f4fe2e0b85da", "is_disabled": 0, "lat": 38.9056515, "is_reserved": 0, "type": "electric_scooter"}, {"fusion_lat": 0.0, "name": "f3e67a8a22f34d044b834909202aabd4", "lon": -76.98355783333334, "rental_uris": {"android": "https://dc.lft.to/lastmile_qr_scan", "ios": "https://dc.lft.to/lastmile_qr_scan"}, "fusion_lon": 0.0, "bike_id": "f3e67a8a22f34d044b834909202aabd4", "is_disabled": 0, "lat": 38.91537, "is_reserved": 0, "type": "electric_scooter"}, {"fusion_lat": 0.0, "name": "a6f8ed66b159a92fa959134709db1782", "lon": -77.07020033333333, "rental_uris": {"android": "https://dc.lft.to/lastmile_qr_scan", "ios": "https://dc.lft.to/lastmile_qr_scan"}, "fusion_lon": 0.0, "bike_id": "a6f8ed66b159a92fa959134709db1782", "is_disabled": 0, "lat": 38.919157166666665, "is_reserved": 0, "type": "electric_bike"}, {"fusion_lat": 0.0, "name": "27e7b8758dd47920d67076435b6d40b0", "lon": -77.02777583333334, "rental_uris": {"android": "https://dc.lft.to/lastmile_qr_scan", "ios": "https://dc.lft.to/lastmile_qr_scan"}, "fusion_lon": 0.0, "bike_id": "27e7b8758dd47920d67076435b6d40b0", "is_disabled": 0, "lat": 38.9625315, "is_reserved": 0, "type": "electric_scooter"}, {"fusion_lat": 0.0, "name": "d3105f17bfe8170204762e0ce2b0af21", "lon": -77.0189235, "rental_uris": {"android": "https://dc.lft.to/lastmile_qr_scan", "ios": "https://dc.lft.to/lastmile_qr_scan"}, "fusion_lon": 0.0, "bike_id": "d3105f17bfe8170204762e0ce2b0af21", "is_disabled": 0, "lat": 38.913838166666665, "is_reserved": 0, "type": "electric_scooter"}, {"fusion_lat": 0.0, "name": "15b5256aa6013d4390284ed63fe3418b", "lon": -77.02674683333333, "rental_uris": {"android": "https://dc.lft.to/lastmile_qr_scan", "ios": "https://dc.lft.to/lastmile_qr_scan"}, "fusion_lon": 0.0, "bike_id": "15b5256aa6013d4390284ed63fe3418b", "is_disabled": 0, "lat": 38.928092666666664, "is_reserved": 0, "type": "electric_scooter"}, {"fusion_lat": 0.0, "name": "ed4a7c88adbf96233e40763a333faef3", "lon": -77.00142833333334, "rental_uris": {"android": "https://dc.lft.to/lastmile_qr_scan", "ios": "https://dc.lft.to/lastmile_qr_scan"}, "fusion_lon": 0.0, "bike_id": "ed4a7c88adbf96233e40763a333faef3", "is_disabled": 0, "lat": 38.9587425, "is_reserved": 0, "type": "electric_bike"}, {"fusion_lat": 0.0, "name": "b3b8d39bdb50b26dc98151e8fd8fe108", "lon": -77.03408866666666, "rental_uris": {"android": "https://dc.lft.to/lastmile_qr_scan", "ios": "https://dc.lft.to/lastmile_qr_scan"}, "fusion_lon": 0.0, "bike_id": "b3b8d39bdb50b26dc98151e8fd8fe108", "is_disabled": 0, "lat": 38.90552483333333, "is_reserved": 0, "type": "electric_scooter"}, {"fusion_lat": 0.0, "name": "4b6acf60b5521bd0639ce26242ea3a26", "lon": -77.03341683333333, "rental_uris": {"android": "https://dc.lft.to/lastmile_qr_scan", "ios": "https://dc.lft.to/lastmile_qr_scan"}, "fusion_lon": 0.0, "bike_id": "4b6acf60b5521bd0639ce26242ea3a26", "is_disabled": 0, "lat": 38.897211, "is_reserved": 0, "type": "electric_scooter"}, {"fusion_lat": 0.0, "name": "19c5124501450a23153d690501b170ea", "lon": -77.03458166666667, "rental_uris": {"android": "https://dc.lft.to/lastmile_qr_scan", "ios": "https://dc.lft.to/lastmile_qr_scan"}, "fusion_lon": 0.0, "bike_id": "19c5124501450a23153d690501b170ea", "is_disabled": 0, "lat": 38.90252016666667, "is_reserved": 0, "type": "electric_scooter"}, {"fusion_lat": 0.0, "name": "7ee0c2a31412ab56ed4372169def1b11", "lon": -77.04543716666667, "rental_uris": {"android": "https://dc.lft.to/lastmile_qr_scan", "ios": "https://dc.lft.to/lastmile_qr_scan"}, "fusion_lon": 0.0, "bike_id": "7ee0c2a31412ab56ed4372169def1b11", "is_disabled": 0, "lat": 38.913318333333336, "is_reserved": 0, "type": "electric_scooter"}, {"fusion_lat": 0.0, "name": "ab0aa1c0f903e51f4f13a80c4afcefef", "lon": -77.0416835, "rental_uris": {"android": "https://dc.lft.to/lastmile_qr_scan", "ios": "https://dc.lft.to/lastmile_qr_scan"}, "fusion_lon": 0.0, "bike_id": "ab0aa1c0f903e51f4f13a80c4afcefef", "is_disabled": 0, "lat": 38.91173166666667, "is_reserved": 0, "type": "electric_scooter"}, {"fusion_lat": 0.0, "name": "a54f0f104232d8c8480fe34cf8f84e9e", "lon": -77.01512283333334, "rental_uris": {"android": "https://dc.lft.to/lastmile_qr_scan", "ios": "https://dc.lft.to/lastmile_qr_scan"}, "fusion_lon": 0.0, "bike_id": "a54f0f104232d8c8480fe34cf8f84e9e", "is_disabled": 0, "lat": 38.967698166666665, "is_reserved": 0, "type": "electric_scooter"}, {"fusion_lat": 0.0, "name": "a5bae638cf2c77467a5e2833257101ad", "lon": -77.00743716666666, "rental_uris": {"android": "https://dc.lft.to/lastmile_qr_scan", "ios": "https://dc.lft.to/lastmile_qr_scan"}, "fusion_lon": 0.0, "bike_id": "a5bae638cf2c77467a5e2833257101ad", "is_disabled": 0, "lat": 38.902491166666664, "is_reserved": 0, "type": "electric_scooter"}, {"fusion_lat": 0.0, "name": "e4c071c126a76ae0e0e09344e43fdb14", "lon": -77.03438616666666, "rental_uris": {"android": "https://dc.lft.to/lastmile_qr_scan", "ios": "https://dc.lft.to/lastmile_qr_scan"}, "fusion_lon": 0.0, "bike_id": "e4c071c126a76ae0e0e09344e43fdb14", "is_disabled": 0, "lat": 38.919065, "is_reserved": 0, "type": "electric_scooter"}, {"fusion_lat": 0.0, "name": "0c20af14f781605428b421113ce6faa2", "lon": -77.0445395, "rental_uris": {"android": "https://dc.lft.to/lastmile_qr_scan", "ios": "https://dc.lft.to/lastmile_qr_scan"}, "fusion_lon": 0.0, "bike_id": "0c20af14f781605428b421113ce6faa2", "is_disabled": 0, "lat": 38.9037305, "is_reserved": 0, "type": "electric_scooter"}, {"fusion_lat": 0.0, "name": "5d39730006a7b6e6bb1627a6045d4e7f", "lon": -77.07027766666667, "rental_uris": {"android": "https://dc.lft.to/lastmile_qr_scan", "ios": "https://dc.lft.to/lastmile_qr_scan"}, "fusion_lon": 0.0, "bike_id": "5d39730006a7b6e6bb1627a6045d4e7f", "is_disabled": 0, "lat": 38.92251233333333, "is_reserved": 0, "type": "electric_scooter"}, {"fusion_lat": 0.0, "name": "ff4484a1401190693bb6795c27a35254", "lon": -77.0328595, "rental_uris": {"android": "https://dc.lft.to/lastmile_qr_scan", "ios": "https://dc.lft.to/lastmile_qr_scan"}, "fusion_lon": 0.0, "bike_id": "ff4484a1401190693bb6795c27a35254", "is_disabled": 0, "lat": 38.90949483333333, "is_reserved": 0, "type": "electric_scooter"}, {"fusion_lat": 0.0, "name": "875458e711d28893713879358b7f3c79", "lon": -77.034431, "rental_uris": {"android": "https://dc.lft.to/lastmile_qr_scan", "ios": "https://dc.lft.to/lastmile_qr_scan"}, "fusion_lon": 0.0, "bike_id": "875458e711d28893713879358b7f3c79", "is_disabled": 0, "lat": 38.928602833333336, "is_reserved": 0, "type": "electric_scooter"}, {"fusion_lat": 0.0, "name": "946151a9c228bcd3176ee526b12c5e1d", "lon": -76.99059416666667, "rental_uris": {"android": "https://dc.lft.to/lastmile_qr_scan", "ios": "https://dc.lft.to/lastmile_qr_scan"}, "fusion_lon": 0.0, "bike_id": "946151a9c228bcd3176ee526b12c5e1d", "is_disabled": 0, "lat": 38.86374333333333, "is_reserved": 0, "type": "electric_scooter"}, {"fusion_lat": 0.0, "name": "f95c6484d327c33fb952801086693eb4", "lon": -77.00669166666667, "rental_uris": {"android": "https://dc.lft.to/lastmile_qr_scan", "ios": "https://dc.lft.to/lastmile_qr_scan"}, "fusion_lon": 0.0, "bike_id": "f95c6484d327c33fb952801086693eb4", "is_disabled": 0, "lat": 38.899651, "is_reserved": 0, "type": "electric_scooter"}, {"fusion_lat": 0.0, "name": "43c8dc05b0e1827d8b827f59a753eb5c", "lon": -77.03007733333334, "rental_uris": {"android": "https://dc.lft.to/lastmile_qr_scan", "ios": "https://dc.lft.to/lastmile_qr_scan"}, "fusion_lon": 0.0, "bike_id": "43c8dc05b0e1827d8b827f59a753eb5c", "is_disabled": 0, "lat": 38.91696183333333, "is_reserved": 0, "type": "electric_scooter"}, {"fusion_lat": 0.0, "name": "d21ff20b6defbdb99f3a96c76cc304fa", "lon": -77.034996, "rental_uris": {"android": "https://dc.lft.to/lastmile_qr_scan", "ios": "https://dc.lft.to/lastmile_qr_scan"}, "fusion_lon": 0.0, "bike_id": "d21ff20b6defbdb99f3a96c76cc304fa", "is_disabled": 0, "lat": 38.91706383333333, "is_reserved": 0, "type": "electric_scooter"}, {"fusion_lat": 0.0, "name": "26d9613f792b0a6cb16086158db3680a", "lon": -76.91753016666667, "rental_uris": {"android": "https://dc.lft.to/lastmile_qr_scan", "ios": "https://dc.lft.to/lastmile_qr_scan"}, "fusion_lon": 0.0, "bike_id": "26d9613f792b0a6cb16086158db3680a", "is_disabled": 0, "lat": 38.88838366666667, "is_reserved": 0, "type": "electric_scooter"}, {"fusion_lat": 0.0, "name": "2901cc65b908cc0ee745e17e77a3c2c0", "lon": -77.03204183333334, "rental_uris": {"android": "https://dc.lft.to/lastmile_qr_scan", "ios": "https://dc.lft.to/lastmile_qr_scan"}, "fusion_lon": 0.0, "bike_id": "2901cc65b908cc0ee745e17e77a3c2c0", "is_disabled": 0, "lat": 38.90713783333333, "is_reserved": 0, "type": "electric_scooter"}, {"fusion_lat": 0.0, "name": "977c3c8ac158d7a0b42e064bae021072", "lon": -77.03500916666667, "rental_uris": {"android": "https://dc.lft.to/lastmile_qr_scan", "ios": "https://dc.lft.to/lastmile_qr_scan"}, "fusion_lon": 0.0, "bike_id": "977c3c8ac158d7a0b42e064bae021072", "is_disabled": 0, "lat": 38.91867333333333, "is_reserved": 0, "type": "electric_scooter"}, {"fusion_lat": 0.0, "name": "4f67c95bb2f9d46bc96efbb8c6649ba3", "lon": -77.04684583333334, "rental_uris": {"android": "https://dc.lft.to/lastmile_qr_scan", "ios": "https://dc.lft.to/lastmile_qr_scan"}, "fusion_lon": 0.0, "bike_id": "4f67c95bb2f9d46bc96efbb8c6649ba3", "is_disabled": 0, "lat": 38.921040166666664, "is_reserved": 0, "type": "electric_scooter"}, {"fusion_lat": 0.0, "name": "d0e5a1f8e740ceae7d26fde9a07b4df8", "lon": -77.05288666666667, "rental_uris": {"android": "https://dc.lft.to/lastmile_qr_scan", "ios": "https://dc.lft.to/lastmile_qr_scan"}, "fusion_lon": 0.0, "bike_id": "d0e5a1f8e740ceae7d26fde9a07b4df8", "is_disabled": 0, "lat": 38.92355716666667, "is_reserved": 0, "type": "electric_scooter"}, {"fusion_lat": 0.0, "name": "0d7e953318a66aaee15fa97564f27609", "lon": -77.0283055, "rental_uris": {"android": "https://dc.lft.to/lastmile_qr_scan", "ios": "https://dc.lft.to/lastmile_qr_scan"}, "fusion_lon": 0.0, "bike_id": "0d7e953318a66aaee15fa97564f27609", "is_disabled": 0, "lat": 38.88725683333333, "is_reserved": 0, "type": "electric_scooter"}, {"fusion_lat": 0.0, "name": "3c58db41705f584e7e7465d51b5e6c30", "lon": -77.03384933333334, "rental_uris": {"android": "https://dc.lft.to/lastmile_qr_scan", "ios": "https://dc.lft.to/lastmile_qr_scan"}, "fusion_lon": 0.0, "bike_id": "3c58db41705f584e7e7465d51b5e6c30", "is_disabled": 0, "lat": 38.90264366666667, "is_reserved": 0, "type": "electric_scooter"}, {"fusion_lat": 0.0, "name": "e70b31266082b8ee7885b50f51bbbe6f", "lon": -77.04708033333333, "rental_uris": {"android": "https://dc.lft.to/lastmile_qr_scan", "ios": "https://dc.lft.to/lastmile_qr_scan"}, "fusion_lon": 0.0, "bike_id": "e70b31266082b8ee7885b50f51bbbe6f", "is_disabled": 0, "lat": 38.902264333333335, "is_reserved": 0, "type": "electric_scooter"}, {"fusion_lat": 0.0, "name": "9d27cba8a7cdca6175189dc4082d3741", "lon": -77.02586966666667, "rental_uris": {"android": "https://dc.lft.to/lastmile_qr_scan", "ios": "https://dc.lft.to/lastmile_qr_scan"}, "fusion_lon": 0.0, "bike_id": "9d27cba8a7cdca6175189dc4082d3741", "is_disabled": 0, "lat": 38.89601866666667, "is_reserved": 0, "type": "electric_scooter"}, {"fusion_lat": 0.0, "name": "6dc115f0b0de08302a3a3b415d49cfcd", "lon": -76.95254783333333, "rental_uris": {"android": "https://dc.lft.to/lastmile_qr_scan", "ios": "https://dc.lft.to/lastmile_qr_scan"}, "fusion_lon": 0.0, "bike_id": "6dc115f0b0de08302a3a3b415d49cfcd", "is_disabled": 0, "lat": 38.9068945, "is_reserved": 0, "type": "electric_bike"}, {"fusion_lat": 0.0, "name": "086f868ae48f12ad9002656a2e2247ca", "lon": -77.00713016666667, "rental_uris": {"android": "https://dc.lft.to/lastmile_qr_scan", "ios": "https://dc.lft.to/lastmile_qr_scan"}, "fusion_lon": 0.0, "bike_id": "086f868ae48f12ad9002656a2e2247ca", "is_disabled": 0, "lat": 38.94597916666667, "is_reserved": 0, "type": "electric_bike"}, {"fusion_lat": 0.0, "name": "f7dcfdbfc4aea3b8848c9f8bc01f831f", "lon": -77.04466466666666, "rental_uris": {"android": "https://dc.lft.to/lastmile_qr_scan", "ios": "https://dc.lft.to/lastmile_qr_scan"}, "fusion_lon": 0.0, "bike_id": "f7dcfdbfc4aea3b8848c9f8bc01f831f", "is_disabled": 0, "lat": 38.90563433333333, "is_reserved": 0, "type": "electric_scooter"}, {"fusion_lat": 0.0, "name": "cc668c6cbe2d4bd2504130b295e7130b", "lon": -77.04718633333333, "rental_uris": {"android": "https://dc.lft.to/lastmile_qr_scan", "ios": "https://dc.lft.to/lastmile_qr_scan"}, "fusion_lon": 0.0, "bike_id": "cc668c6cbe2d4bd2504130b295e7130b", "is_disabled": 0, "lat": 38.89962033333333, "is_reserved": 0, "type": "electric_scooter"}, {"fusion_lat": 0.0, "name": "82f6e164865df016e665d4e8719e082a", "lon": -77.03463833333333, "rental_uris": {"android": "https://dc.lft.to/lastmile_qr_scan", "ios": "https://dc.lft.to/lastmile_qr_scan"}, "fusion_lon": 0.0, "bike_id": "82f6e164865df016e665d4e8719e082a", "is_disabled": 0, "lat": 38.920424833333335, "is_reserved": 0, "type": "electric_scooter"}, {"fusion_lat": 0.0, "name": "a0a51c4017c29793a1d9fc6556613433", "lon": -77.08176183333333, "rental_uris": {"android": "https://dc.lft.to/lastmile_qr_scan", "ios": "https://dc.lft.to/lastmile_qr_scan"}, "fusion_lon": 0.0, "bike_id": "a0a51c4017c29793a1d9fc6556613433", "is_disabled": 0, "lat": 38.8887375, "is_reserved": 0, "type": "electric_bike"}, {"fusion_lat": 0.0, "name": "86071de4ac34c572d5f87d882860e433", "lon": -77.01191983333334, "rental_uris": {"android": "https://dc.lft.to/lastmile_qr_scan", "ios": "https://dc.lft.to/lastmile_qr_scan"}, "fusion_lon": 0.0, "bike_id": "86071de4ac34c572d5f87d882860e433", "is_disabled": 0, "lat": 38.90018383333334, "is_reserved": 0, "type": "electric_scooter"}, {"fusion_lat": 0.0, "name": "bd7aad5e8636cb025bdb7a61a906bfd6", "lon": -77.03078466666666, "rental_uris": {"android": "https://dc.lft.to/lastmile_qr_scan", "ios": "https://dc.lft.to/lastmile_qr_scan"}, "fusion_lon": 0.0, "bike_id": "bd7aad5e8636cb025bdb7a61a906bfd6", "is_disabled": 0, "lat": 38.922471, "is_reserved": 0, "type": "electric_scooter"}, {"fusion_lat": 0.0, "name": "fb47e18a1f084fbb8c86f9629ecfa8df", "lon": -77.03180283333333, "rental_uris": {"android": "https://dc.lft.to/lastmile_qr_scan", "ios": "https://dc.lft.to/lastmile_qr_scan"}, "fusion_lon": 0.0, "bike_id": "fb47e18a1f084fbb8c86f9629ecfa8df", "is_disabled": 0, "lat": 38.909459166666664, "is_reserved": 0, "type": "electric_scooter"}, {"fusion_lat": 0.0, "name": "80514e4100bb0d172b421108a2950b85", "lon": -77.03074216666667, "rental_uris": {"android": "https://dc.lft.to/lastmile_qr_scan", "ios": "https://dc.lft.to/lastmile_qr_scan"}, "fusion_lon": 0.0, "bike_id": "80514e4100bb0d172b421108a2950b85", "is_disabled": 0, "lat": 38.8803715, "is_reserved": 0, "type": "electric_scooter"}, {"fusion_lat": 0.0, "name": "361536b7b66d02394f2f6bb5c470c83c", "lon": -76.99498516666667, "rental_uris": {"android": "https://dc.lft.to/lastmile_qr_scan", "ios": "https://dc.lft.to/lastmile_qr_scan"}, "fusion_lon": 0.0, "bike_id": "361536b7b66d02394f2f6bb5c470c83c", "is_disabled": 0, "lat": 38.876848333333335, "is_reserved": 0, "type": "electric_scooter"}, {"fusion_lat": 0.0, "name": "4c285acb1b4543c0aa533ba941d871f5", "lon": -77.0573895, "rental_uris": {"android": "https://dc.lft.to/lastmile_qr_scan", "ios": "https://dc.lft.to/lastmile_qr_scan"}, "fusion_lon": 0.0, "bike_id": "4c285acb1b4543c0aa533ba941d871f5", "is_disabled": 0, "lat": 38.93364833333333, "is_reserved": 0, "type": "electric_scooter"}, {"fusion_lat": 0.0, "name": "5b1c2bb231fa9782189b7f8be6c3d832", "lon": -77.02265066666666, "rental_uris": {"android": "https://dc.lft.to/lastmile_qr_scan", "ios": "https://dc.lft.to/lastmile_qr_scan"}, "fusion_lon": 0.0, "bike_id": "5b1c2bb231fa9782189b7f8be6c3d832", "is_disabled": 0, "lat": 38.926722166666664, "is_reserved": 0, "type": "electric_scooter"}, {"fusion_lat": 0.0, "name": "77ebc5a15b35d509a7f5eee754b096b3", "lon": -77.0326955, "rental_uris": {"android": "https://dc.lft.to/lastmile_qr_scan", "ios": "https://dc.lft.to/lastmile_qr_scan"}, "fusion_lon": 0.0, "bike_id": "77ebc5a15b35d509a7f5eee754b096b3", "is_disabled": 0, "lat": 38.92743933333333, "is_reserved": 0, "type": "electric_scooter"}, {"fusion_lat": 0.0, "name": "8293f9b29e1483c6e59250ae8ae78324", "lon": -76.9997415, "rental_uris": {"android": "https://dc.lft.to/lastmile_qr_scan", "ios": "https://dc.lft.to/lastmile_qr_scan"}, "fusion_lon": 0.0, "bike_id": "8293f9b29e1483c6e59250ae8ae78324", "is_disabled": 0, "lat": 38.953271, "is_reserved": 0, "type": "electric_scooter"}, {"fusion_lat": 0.0, "name": "2eb0f05c4fab43f37da81afa270d5243", "lon": -76.99060216666666, "rental_uris": {"android": "https://dc.lft.to/lastmile_qr_scan", "ios": "https://dc.lft.to/lastmile_qr_scan"}, "fusion_lon": 0.0, "bike_id": "2eb0f05c4fab43f37da81afa270d5243", "is_disabled": 0, "lat": 38.863793333333334, "is_reserved": 0, "type": "electric_scooter"}, {"fusion_lat": 0.0, "name": "263642a671e76839b2becf7266c15465", "lon": -77.04555216666667, "rental_uris": {"android": "https://dc.lft.to/lastmile_qr_scan", "ios": "https://dc.lft.to/lastmile_qr_scan"}, "fusion_lon": 0.0, "bike_id": "263642a671e76839b2becf7266c15465", "is_disabled": 0, "lat": 38.896098333333335, "is_reserved": 0, "type": "electric_scooter"}, {"fusion_lat": 0.0, "name": "9edbcd8d307a656b1addb7f02aa1b07c", "lon": -77.013663, "rental_uris": {"android": "https://dc.lft.to/lastmile_qr_scan", "ios": "https://dc.lft.to/lastmile_qr_scan"}, "fusion_lon": 0.0, "bike_id": "9edbcd8d307a656b1addb7f02aa1b07c", "is_disabled": 0, "lat": 38.88703433333333, "is_reserved": 0, "type": "electric_scooter"}, {"fusion_lat": 0.0, "name": "615632c13dd3eeb1aef88d8aa7b40e93", "lon": -77.032113, "rental_uris": {"android": "https://dc.lft.to/lastmile_qr_scan", "ios": "https://dc.lft.to/lastmile_qr_scan"}, "fusion_lon": 0.0, "bike_id": "615632c13dd3eeb1aef88d8aa7b40e93", "is_disabled": 0, "lat": 38.9160915, "is_reserved": 0, "type": "electric_scooter"}, {"fusion_lat": 0.0, "name": "11a71e751893e6dc332cddd4d758b5b7", "lon": -77.00544316666667, "rental_uris": {"android": "https://dc.lft.to/lastmile_qr_scan", "ios": "https://dc.lft.to/lastmile_qr_scan"}, "fusion_lon": 0.0, "bike_id": "11a71e751893e6dc332cddd4d758b5b7", "is_disabled": 0, "lat": 38.8745405, "is_reserved": 0, "type": "electric_scooter"}, {"fusion_lat": 0.0, "name": "60f8ac3c040d0ce1c2e6811c8f483f51", "lon": -76.98509833333334, "rental_uris": {"android": "https://dc.lft.to/lastmile_qr_scan", "ios": "https://dc.lft.to/lastmile_qr_scan"}, "fusion_lon": 0.0, "bike_id": "60f8ac3c040d0ce1c2e6811c8f483f51", "is_disabled": 0, "lat": 38.866497833333334, "is_reserved": 0, "type": "electric_scooter"}, {"fusion_lat": 0.0, "name": "a3667ce414233cdee45fb1b193fd4771", "lon": -77.02180333333334, "rental_uris": {"android": "https://dc.lft.to/lastmile_qr_scan", "ios": "https://dc.lft.to/lastmile_qr_scan"}, "fusion_lon": 0.0, "bike_id": "a3667ce414233cdee45fb1b193fd4771", "is_disabled": 0, "lat": 38.898425833333334, "is_reserved": 0, "type": "electric_scooter"}, {"fusion_lat": 0.0, "name": "cebf5c9da2fb8e204a78ee487d5385bf", "lon": -77.0329505, "rental_uris": {"android": "https://dc.lft.to/lastmile_qr_scan", "ios": "https://dc.lft.to/lastmile_qr_scan"}, "fusion_lon": 0.0, "bike_id": "cebf5c9da2fb8e204a78ee487d5385bf", "is_disabled": 0, "lat": 38.956238166666665, "is_reserved": 0, "type": "electric_scooter"}, {"fusion_lat": 0.0, "name": "fe2aa6229df177c59f75868b288ba4f7", "lon": -77.0344095, "rental_uris": {"android": "https://dc.lft.to/lastmile_qr_scan", "ios": "https://dc.lft.to/lastmile_qr_scan"}, "fusion_lon": 0.0, "bike_id": "fe2aa6229df177c59f75868b288ba4f7", "is_disabled": 0, "lat": 38.9190355, "is_reserved": 0, "type": "electric_scooter"}, {"fusion_lat": 0.0, "name": "968b8a6f6a21e5c2779f65b3bafef968", "lon": -76.99507066666666, "rental_uris": {"android": "https://dc.lft.to/lastmile_qr_scan", "ios": "https://dc.lft.to/lastmile_qr_scan"}, "fusion_lon": 0.0, "bike_id": "968b8a6f6a21e5c2779f65b3bafef968", "is_disabled": 0, "lat": 38.879115166666665, "is_reserved": 0, "type": "electric_scooter"}, {"fusion_lat": 0.0, "name": "8a267764e4ecfee6254beca0677e98d6", "lon": -77.04036866666667, "rental_uris": {"android": "https://dc.lft.to/lastmile_qr_scan", "ios": "https://dc.lft.to/lastmile_qr_scan"}, "fusion_lon": 0.0, "bike_id": "8a267764e4ecfee6254beca0677e98d6", "is_disabled": 0, "lat": 38.923091166666666, "is_reserved": 0, "type": "electric_scooter"}, {"fusion_lat": 0.0, "name": "a7c77105c26c5d27837f18dfb5640877", "lon": -77.02425266666667, "rental_uris": {"android": "https://dc.lft.to/lastmile_qr_scan", "ios": "https://dc.lft.to/lastmile_qr_scan"}, "fusion_lon": 0.0, "bike_id": "a7c77105c26c5d27837f18dfb5640877", "is_disabled": 0, "lat": 38.92041916666667, "is_reserved": 0, "type": "electric_scooter"}, {"fusion_lat": 0.0, "name": "840fdc95a7d20a0cefdfdf34660a0b32", "lon": -77.012244, "rental_uris": {"android": "https://dc.lft.to/lastmile_qr_scan", "ios": "https://dc.lft.to/lastmile_qr_scan"}, "fusion_lon": 0.0, "bike_id": "840fdc95a7d20a0cefdfdf34660a0b32", "is_disabled": 0, "lat": 38.892913666666665, "is_reserved": 0, "type": "electric_scooter"}, {"fusion_lat": 0.0, "name": "d97e11700836c90c87286736dc828b75", "lon": -77.01792033333334, "rental_uris": {"android": "https://dc.lft.to/lastmile_qr_scan", "ios": "https://dc.lft.to/lastmile_qr_scan"}, "fusion_lon": 0.0, "bike_id": "d97e11700836c90c87286736dc828b75", "is_disabled": 0, "lat": 38.921429333333336, "is_reserved": 0, "type": "electric_scooter"}, {"fusion_lat": 0.0, "name": "7ed200154db78a47d70439ea8d9f2782", "lon": -77.04203633333333, "rental_uris": {"android": "https://dc.lft.to/lastmile_qr_scan", "ios": "https://dc.lft.to/lastmile_qr_scan"}, "fusion_lon": 0.0, "bike_id": "7ed200154db78a47d70439ea8d9f2782", "is_disabled": 0, "lat": 38.927092, "is_reserved": 0, "type": "electric_scooter"}, {"fusion_lat": 0.0, "name": "3bd27cd76e5aa24adfc8d914dc24afab", "lon": -77.02792933333333, "rental_uris": {"android": "https://dc.lft.to/lastmile_qr_scan", "ios": "https://dc.lft.to/lastmile_qr_scan"}, "fusion_lon": 0.0, "bike_id": "3bd27cd76e5aa24adfc8d914dc24afab", "is_disabled": 0, "lat": 38.89581183333333, "is_reserved": 0, "type": "electric_scooter"}, {"fusion_lat": 0.0, "name": "d884e528da4ba9fb3adb64b287841bce", "lon": -77.02201833333334, "rental_uris": {"android": "https://dc.lft.to/lastmile_qr_scan", "ios": "https://dc.lft.to/lastmile_qr_scan"}, "fusion_lon": 0.0, "bike_id": "d884e528da4ba9fb3adb64b287841bce", "is_disabled": 0, "lat": 38.88709633333333, "is_reserved": 0, "type": "electric_scooter"}, {"fusion_lat": 0.0, "name": "8a13158b60392b3017e29a3c84e1e33e", "lon": -77.0338775, "rental_uris": {"android": "https://dc.lft.to/lastmile_qr_scan", "ios": "https://dc.lft.to/lastmile_qr_scan"}, "fusion_lon": 0.0, "bike_id": "8a13158b60392b3017e29a3c84e1e33e", "is_disabled": 0, "lat": 38.91115083333333, "is_reserved": 0, "type": "electric_scooter"}, {"fusion_lat": 0.0, "name": "f45e12e23c5afa3bfeac27f18b6453f5", "lon": -77.00458133333333, "rental_uris": {"android": "https://dc.lft.to/lastmile_qr_scan", "ios": "https://dc.lft.to/lastmile_qr_scan"}, "fusion_lon": 0.0, "bike_id": "f45e12e23c5afa3bfeac27f18b6453f5", "is_disabled": 0, "lat": 38.914379833333335, "is_reserved": 0, "type": "electric_scooter"}, {"fusion_lat": 0.0, "name": "07d1d1b438735a03eea076c2a604a6a8", "lon": -76.94156616666666, "rental_uris": {"android": "https://dc.lft.to/lastmile_qr_scan", "ios": "https://dc.lft.to/lastmile_qr_scan"}, "fusion_lon": 0.0, "bike_id": "07d1d1b438735a03eea076c2a604a6a8", "is_disabled": 0, "lat": 38.883576166666664, "is_reserved": 0, "type": "electric_scooter"}, {"fusion_lat": 0.0, "name": "b8f2ebc6e09f3b142fd3e06bb17cfb2d", "lon": -77.01134383333333, "rental_uris": {"android": "https://dc.lft.to/lastmile_qr_scan", "ios": "https://dc.lft.to/lastmile_qr_scan"}, "fusion_lon": 0.0, "bike_id": "b8f2ebc6e09f3b142fd3e06bb17cfb2d", "is_disabled": 0, "lat": 38.90721633333333, "is_reserved": 0, "type": "electric_scooter"}, {"fusion_lat": 0.0, "name": "867d4443ad1ff9672a5d02bbef634c54", "lon": -77.02996216666666, "rental_uris": {"android": "https://dc.lft.to/lastmile_qr_scan", "ios": "https://dc.lft.to/lastmile_qr_scan"}, "fusion_lon": 0.0, "bike_id": "867d4443ad1ff9672a5d02bbef634c54", "is_disabled": 0, "lat": 38.92245, "is_reserved": 0, "type": "electric_scooter"}, {"fusion_lat": 0.0, "name": "10fe41c073953e80ba7c855ae63d3d60", "lon": -77.020009, "rental_uris": {"android": "https://dc.lft.to/lastmile_qr_scan", "ios": "https://dc.lft.to/lastmile_qr_scan"}, "fusion_lon": 0.0, "bike_id": "10fe41c073953e80ba7c855ae63d3d60", "is_disabled": 0, "lat": 38.913556166666666, "is_reserved": 0, "type": "electric_scooter"}, {"fusion_lat": 0.0, "name": "832de4a3823813707e5d3050eb73831e", "lon": -77.019573, "rental_uris": {"android": "https://dc.lft.to/lastmile_qr_scan", "ios": "https://dc.lft.to/lastmile_qr_scan"}, "fusion_lon": 0.0, "bike_id": "832de4a3823813707e5d3050eb73831e", "is_disabled": 0, "lat": 38.922036, "is_reserved": 0, "type": "electric_scooter"}, {"fusion_lat": 0.0, "name": "0a1137d60aac124cc18e1ffea600e004", "lon": -77.035094, "rental_uris": {"android": "https://dc.lft.to/lastmile_qr_scan", "ios": "https://dc.lft.to/lastmile_qr_scan"}, "fusion_lon": 0.0, "bike_id": "0a1137d60aac124cc18e1ffea600e004", "is_disabled": 0, "lat": 38.916937, "is_reserved": 0, "type": "electric_scooter"}, {"fusion_lat": 0.0, "name": "4e509993657490eb6daff8e596b57189", "lon": -77.005395, "rental_uris": {"android": "https://dc.lft.to/lastmile_qr_scan", "ios": "https://dc.lft.to/lastmile_qr_scan"}, "fusion_lon": 0.0, "bike_id": "4e509993657490eb6daff8e596b57189", "is_disabled": 0, "lat": 38.900363, "is_reserved": 0, "type": "electric_scooter"}, {"fusion_lat": 0.0, "name": "dbc264f054f2755651363b0f909e1dc8", "lon": -76.98909683333333, "rental_uris": {"android": "https://dc.lft.to/lastmile_qr_scan", "ios": "https://dc.lft.to/lastmile_qr_scan"}, "fusion_lon": 0.0, "bike_id": "dbc264f054f2755651363b0f909e1dc8", "is_disabled": 0, "lat": 38.95438083333333, "is_reserved": 0, "type": "electric_bike"}, {"fusion_lat": 0.0, "name": "481a2e09f0ab9f0e812cc0541739640c", "lon": -77.046503, "rental_uris": {"android": "https://dc.lft.to/lastmile_qr_scan", "ios": "https://dc.lft.to/lastmile_qr_scan"}, "fusion_lon": 0.0, "bike_id": "481a2e09f0ab9f0e812cc0541739640c", "is_disabled": 0, "lat": 39.05498866666667, "is_reserved": 0, "type": "electric_bike"}, {"fusion_lat": 0.0, "name": "9ce75b027dcb7c01bb7b4e9b09e508fe", "lon": -76.88401816666666, "rental_uris": {"android": "https://dc.lft.to/lastmile_qr_scan", "ios": "https://dc.lft.to/lastmile_qr_scan"}, "fusion_lon": 0.0, "bike_id": "9ce75b027dcb7c01bb7b4e9b09e508fe", "is_disabled": 0, "lat": 38.9316665, "is_reserved": 0, "type": "electric_bike"}, {"fusion_lat": 0.0, "name": "03f12af49cda82f4969610ab9a41b2eb", "lon": -77.18563466666667, "rental_uris": {"android": "https://dc.lft.to/lastmile_qr_scan", "ios": "https://dc.lft.to/lastmile_qr_scan"}, "fusion_lon": 0.0, "bike_id": "03f12af49cda82f4969610ab9a41b2eb", "is_disabled": 0, "lat": 38.929650333333335, "is_reserved": 0, "type": "electric_bike"}, {"fusion_lat": 0.0, "name": "154ce03542ffcf6ee50a7f3587e8519e", "lon": -77.02495333333333, "rental_uris": {"android": "https://dc.lft.to/lastmile_qr_scan", "ios": "https://dc.lft.to/lastmile_qr_scan"}, "fusion_lon": 0.0, "bike_id": "154ce03542ffcf6ee50a7f3587e8519e", "is_disabled": 0, "lat": 38.91802333333333, "is_reserved": 0, "type": "electric_scooter"}, {"fusion_lat": 0.0, "name": "c8a0fffb36fef81fade8577527caea4e", "lon": -77.039583, "rental_uris": {"android": "https://dc.lft.to/lastmile_qr_scan", "ios": "https://dc.lft.to/lastmile_qr_scan"}, "fusion_lon": 0.0, "bike_id": "c8a0fffb36fef81fade8577527caea4e", "is_disabled": 0, "lat": 38.898800666666666, "is_reserved": 0, "type": "electric_scooter"}, {"fusion_lat": 0.0, "name": "37dbfbb7612d151c2832b037b13a40d1", "lon": -76.98241166666666, "rental_uris": {"android": "https://dc.lft.to/lastmile_qr_scan", "ios": "https://dc.lft.to/lastmile_qr_scan"}, "fusion_lon": 0.0, "bike_id": "37dbfbb7612d151c2832b037b13a40d1", "is_disabled": 0, "lat": 38.953272166666665, "is_reserved": 0, "type": "electric_bike"}, {"fusion_lat": 0.0, "name": "489d7801760314feb85a6c382e4db372", "lon": -77.0504585, "rental_uris": {"android": "https://dc.lft.to/lastmile_qr_scan", "ios": "https://dc.lft.to/lastmile_qr_scan"}, "fusion_lon": 0.0, "bike_id": "489d7801760314feb85a6c382e4db372", "is_disabled": 0, "lat": 38.923599333333335, "is_reserved": 0, "type": "electric_scooter"}, {"fusion_lat": 0.0, "name": "d3979f26a1ab46e96e9beebb2432bffe", "lon": -77.02316433333333, "rental_uris": {"android": "https://dc.lft.to/lastmile_qr_scan", "ios": "https://dc.lft.to/lastmile_qr_scan"}, "fusion_lon": 0.0, "bike_id": "d3979f26a1ab46e96e9beebb2432bffe", "is_disabled": 0, "lat": 38.918264, "is_reserved": 0, "type": "electric_scooter"}, {"fusion_lat": 0.0, "name": "6637a0153520370b3b19f64a17dabb1e", "lon": -77.04340233333333, "rental_uris": {"android": "https://dc.lft.to/lastmile_qr_scan", "ios": "https://dc.lft.to/lastmile_qr_scan"}, "fusion_lon": 0.0, "bike_id": "6637a0153520370b3b19f64a17dabb1e", "is_disabled": 0, "lat": 38.908107333333334, "is_reserved": 0, "type": "electric_scooter"}, {"fusion_lat": 0.0, "name": "6ea6a586c690284610ccfcb468f7389c", "lon": -77.05129883333333, "rental_uris": {"android": "https://dc.lft.to/lastmile_qr_scan", "ios": "https://dc.lft.to/lastmile_qr_scan"}, "fusion_lon": 0.0, "bike_id": "6ea6a586c690284610ccfcb468f7389c", "is_disabled": 0, "lat": 38.905785333333334, "is_reserved": 0, "type": "electric_scooter"}, {"fusion_lat": 0.0, "name": "3d776eb63ee680cdc9db8d9793430ca2", "lon": -77.04760533333334, "rental_uris": {"android": "https://dc.lft.to/lastmile_qr_scan", "ios": "https://dc.lft.to/lastmile_qr_scan"}, "fusion_lon": 0.0, "bike_id": "3d776eb63ee680cdc9db8d9793430ca2", "is_disabled": 0, "lat": 38.90084066666667, "is_reserved": 0, "type": "electric_scooter"}, {"fusion_lat": 0.0, "name": "adf3232cb084e8b52246ddc03f2336f4", "lon": -77.04359433333333, "rental_uris": {"android": "https://dc.lft.to/lastmile_qr_scan", "ios": "https://dc.lft.to/lastmile_qr_scan"}, "fusion_lon": 0.0, "bike_id": "adf3232cb084e8b52246ddc03f2336f4", "is_disabled": 0, "lat": 38.927929, "is_reserved": 0, "type": "electric_scooter"}, {"fusion_lat": 0.0, "name": "2eecf353209d80b220b8b4cf34b2aa15", "lon": -77.00917316666667, "rental_uris": {"android": "https://dc.lft.to/lastmile_qr_scan", "ios": "https://dc.lft.to/lastmile_qr_scan"}, "fusion_lon": 0.0, "bike_id": "2eecf353209d80b220b8b4cf34b2aa15", "is_disabled": 0, "lat": 38.827841166666666, "is_reserved": 0, "type": "electric_bike"}, {"fusion_lat": 0.0, "name": "42809756850448942e53b96da1bbe1f8", "lon": -77.02098916666667, "rental_uris": {"android": "https://dc.lft.to/lastmile_qr_scan", "ios": "https://dc.lft.to/lastmile_qr_scan"}, "fusion_lon": 0.0, "bike_id": "42809756850448942e53b96da1bbe1f8", "is_disabled": 0, "lat": 38.92698983333333, "is_reserved": 0, "type": "electric_scooter"}, {"fusion_lat": 0.0, "name": "17b2d742148925ea4bbcf99ed3bfded1", "lon": -77.043675, "rental_uris": {"android": "https://dc.lft.to/lastmile_qr_scan", "ios": "https://dc.lft.to/lastmile_qr_scan"}, "fusion_lon": 0.0, "bike_id": "17b2d742148925ea4bbcf99ed3bfded1", "is_disabled": 0, "lat": 38.89229316666667, "is_reserved": 0, "type": "electric_scooter"}, {"fusion_lat": 0.0, "name": "11dc3f5c36c56e50ce82d3f0a9a9391f", "lon": -77.031605, "rental_uris": {"android": "https://dc.lft.to/lastmile_qr_scan", "ios": "https://dc.lft.to/lastmile_qr_scan"}, "fusion_lon": 0.0, "bike_id": "11dc3f5c36c56e50ce82d3f0a9a9391f", "is_disabled": 0, "lat": 38.9189875, "is_reserved": 0, "type": "electric_scooter"}, {"fusion_lat": 0.0, "name": "29e56c8f1748d482077eba5911b8acd8", "lon": -77.021526, "rental_uris": {"android": "https://dc.lft.to/lastmile_qr_scan", "ios": "https://dc.lft.to/lastmile_qr_scan"}, "fusion_lon": 0.0, "bike_id": "29e56c8f1748d482077eba5911b8acd8", "is_disabled": 0, "lat": 38.894813666666664, "is_reserved": 0, "type": "electric_scooter"}, {"fusion_lat": 0.0, "name": "b72becece68d5a223635a3caebcfca52", "lon": -77.033129, "rental_uris": {"android": "https://dc.lft.to/lastmile_qr_scan", "ios": "https://dc.lft.to/lastmile_qr_scan"}, "fusion_lon": 0.0, "bike_id": "b72becece68d5a223635a3caebcfca52", "is_disabled": 0, "lat": 38.90834683333333, "is_reserved": 0, "type": "electric_scooter"}, {"fusion_lat": 0.0, "name": "a90a35c6c5586afb7930631a3de32296", "lon": -77.059524, "rental_uris": {"android": "https://dc.lft.to/lastmile_qr_scan", "ios": "https://dc.lft.to/lastmile_qr_scan"}, "fusion_lon": 0.0, "bike_id": "a90a35c6c5586afb7930631a3de32296", "is_disabled": 0, "lat": 38.918335, "is_reserved": 0, "type": "electric_scooter"}, {"fusion_lat": 0.0, "name": "1b3dce0a11ff47937bf9c0fae18b0b3b", "lon": -77.02504566666667, "rental_uris": {"android": "https://dc.lft.to/lastmile_qr_scan", "ios": "https://dc.lft.to/lastmile_qr_scan"}, "fusion_lon": 0.0, "bike_id": "1b3dce0a11ff47937bf9c0fae18b0b3b", "is_disabled": 0, "lat": 38.91481866666667, "is_reserved": 0, "type": "electric_scooter"}, {"fusion_lat": 0.0, "name": "435fbb08b4976115e4238595e540a03d", "lon": -77.0090625, "rental_uris": {"android": "https://dc.lft.to/lastmile_qr_scan", "ios": "https://dc.lft.to/lastmile_qr_scan"}, "fusion_lon": 0.0, "bike_id": "435fbb08b4976115e4238595e540a03d", "is_disabled": 0, "lat": 38.900417833333336, "is_reserved": 0, "type": "electric_scooter"}, {"fusion_lat": 0.0, "name": "1284a42181a3373dc01fe88f029fa3df", "lon": -77.02787916666666, "rental_uris": {"android": "https://dc.lft.to/lastmile_qr_scan", "ios": "https://dc.lft.to/lastmile_qr_scan"}, "fusion_lon": 0.0, "bike_id": "1284a42181a3373dc01fe88f029fa3df", "is_disabled": 0, "lat": 38.961307166666664, "is_reserved": 0, "type": "electric_scooter"}, {"fusion_lat": 0.0, "name": "d018cecb36d9872a62f79f891fdcaa27", "lon": -77.04318783333333, "rental_uris": {"android": "https://dc.lft.to/lastmile_qr_scan", "ios": "https://dc.lft.to/lastmile_qr_scan"}, "fusion_lon": 0.0, "bike_id": "d018cecb36d9872a62f79f891fdcaa27", "is_disabled": 0, "lat": 38.926130666666666, "is_reserved": 0, "type": "electric_scooter"}, {"fusion_lat": 0.0, "name": "60bdb9a6d0e6a874c3ba5dfba13040ad", "lon": -76.99381683333333, "rental_uris": {"android": "https://dc.lft.to/lastmile_qr_scan", "ios": "https://dc.lft.to/lastmile_qr_scan"}, "fusion_lon": 0.0, "bike_id": "60bdb9a6d0e6a874c3ba5dfba13040ad", "is_disabled": 0, "lat": 38.898914166666664, "is_reserved": 0, "type": "electric_scooter"}, {"fusion_lat": 0.0, "name": "ecc54aef5ce1b63792379f76847ea894", "lon": -77.03139316666666, "rental_uris": {"android": "https://dc.lft.to/lastmile_qr_scan", "ios": "https://dc.lft.to/lastmile_qr_scan"}, "fusion_lon": 0.0, "bike_id": "ecc54aef5ce1b63792379f76847ea894", "is_disabled": 0, "lat": 38.91377983333334, "is_reserved": 0, "type": "electric_scooter"}, {"fusion_lat": 0.0, "name": "3f00c415203486a8e716d2ed799c134a", "lon": -77.04503766666667, "rental_uris": {"android": "https://dc.lft.to/lastmile_qr_scan", "ios": "https://dc.lft.to/lastmile_qr_scan"}, "fusion_lon": 0.0, "bike_id": "3f00c415203486a8e716d2ed799c134a", "is_disabled": 0, "lat": 38.91104766666667, "is_reserved": 0, "type": "electric_scooter"}, {"fusion_lat": 0.0, "name": "9588c6eba88f6f7bd8d0c881263a9230", "lon": -77.04237466666666, "rental_uris": {"android": "https://dc.lft.to/lastmile_qr_scan", "ios": "https://dc.lft.to/lastmile_qr_scan"}, "fusion_lon": 0.0, "bike_id": "9588c6eba88f6f7bd8d0c881263a9230", "is_disabled": 0, "lat": 38.9012635, "is_reserved": 0, "type": "electric_scooter"}, {"fusion_lat": 0.0, "name": "57560ac96a1c9a2441ad539b0b13566b", "lon": -77.02689933333333, "rental_uris": {"android": "https://dc.lft.to/lastmile_qr_scan", "ios": "https://dc.lft.to/lastmile_qr_scan"}, "fusion_lon": 0.0, "bike_id": "57560ac96a1c9a2441ad539b0b13566b", "is_disabled": 0, "lat": 38.91032233333333, "is_reserved": 0, "type": "electric_scooter"}, {"fusion_lat": 0.0, "name": "34bfba6b46bd4d4eb4b08e2b47af2a14", "lon": -77.01241683333333, "rental_uris": {"android": "https://dc.lft.to/lastmile_qr_scan", "ios": "https://dc.lft.to/lastmile_qr_scan"}, "fusion_lon": 0.0, "bike_id": "34bfba6b46bd4d4eb4b08e2b47af2a14", "is_disabled": 0, "lat": 38.887368, "is_reserved": 0, "type": "electric_scooter"}, {"fusion_lat": 0.0, "name": "37a2839c4fe6a42372ee46c396c72633", "lon": -76.9676985, "rental_uris": {"android": "https://dc.lft.to/lastmile_qr_scan", "ios": "https://dc.lft.to/lastmile_qr_scan"}, "fusion_lon": 0.0, "bike_id": "37a2839c4fe6a42372ee46c396c72633", "is_disabled": 0, "lat": 38.8734115, "is_reserved": 0, "type": "electric_scooter"}, {"fusion_lat": 0.0, "name": "fcb50daa46c00a7ab9f846fc00161c74", "lon": -77.002811, "rental_uris": {"android": "https://dc.lft.to/lastmile_qr_scan", "ios": "https://dc.lft.to/lastmile_qr_scan"}, "fusion_lon": 0.0, "bike_id": "fcb50daa46c00a7ab9f846fc00161c74", "is_disabled": 0, "lat": 38.9570695, "is_reserved": 0, "type": "electric_bike"}, {"fusion_lat": 0.0, "name": "972920dc5707ab5f95a2aba71d37970f", "lon": -77.04169766666666, "rental_uris": {"android": "https://dc.lft.to/lastmile_qr_scan", "ios": "https://dc.lft.to/lastmile_qr_scan"}, "fusion_lon": 0.0, "bike_id": "972920dc5707ab5f95a2aba71d37970f", "is_disabled": 0, "lat": 38.90501116666667, "is_reserved": 0, "type": "electric_scooter"}, {"fusion_lat": 0.0, "name": "838911d99ecddaef6c404f9fe64de68b", "lon": -77.03957866666667, "rental_uris": {"android": "https://dc.lft.to/lastmile_qr_scan", "ios": "https://dc.lft.to/lastmile_qr_scan"}, "fusion_lon": 0.0, "bike_id": "838911d99ecddaef6c404f9fe64de68b", "is_disabled": 0, "lat": 38.8924675, "is_reserved": 0, "type": "electric_scooter"}, {"fusion_lat": 0.0, "name": "200ac33ce1904c0ab499e8b438c9069e", "lon": -77.18120983333333, "rental_uris": {"android": "https://dc.lft.to/lastmile_qr_scan", "ios": "https://dc.lft.to/lastmile_qr_scan"}, "fusion_lon": 0.0, "bike_id": "200ac33ce1904c0ab499e8b438c9069e", "is_disabled": 0, "lat": 38.93226166666667, "is_reserved": 0, "type": "electric_bike"}, {"fusion_lat": 0.0, "name": "c70e087b8402f10fa183e0008522618e", "lon": -77.04874783333334, "rental_uris": {"android": "https://dc.lft.to/lastmile_qr_scan", "ios": "https://dc.lft.to/lastmile_qr_scan"}, "fusion_lon": 0.0, "bike_id": "c70e087b8402f10fa183e0008522618e", "is_disabled": 0, "lat": 38.89877766666667, "is_reserved": 0, "type": "electric_scooter"}, {"fusion_lat": 0.0, "name": "4cc51b88d8f73cab553dacce48e1d4b7", "lon": -77.05046516666667, "rental_uris": {"android": "https://dc.lft.to/lastmile_qr_scan", "ios": "https://dc.lft.to/lastmile_qr_scan"}, "fusion_lon": 0.0, "bike_id": "4cc51b88d8f73cab553dacce48e1d4b7", "is_disabled": 0, "lat": 38.9235895, "is_reserved": 0, "type": "electric_scooter"}, {"fusion_lat": 0.0, "name": "f288499b871b3c2b89d5ee3b538e4ca5", "lon": -77.04256166666667, "rental_uris": {"android": "https://dc.lft.to/lastmile_qr_scan", "ios": "https://dc.lft.to/lastmile_qr_scan"}, "fusion_lon": 0.0, "bike_id": "f288499b871b3c2b89d5ee3b538e4ca5", "is_disabled": 0, "lat": 38.92211533333333, "is_reserved": 0, "type": "electric_scooter"}, {"fusion_lat": 0.0, "name": "e7f468c36fdcce7e466f5185644c8aa6", "lon": -77.01948266666666, "rental_uris": {"android": "https://dc.lft.to/lastmile_qr_scan", "ios": "https://dc.lft.to/lastmile_qr_scan"}, "fusion_lon": 0.0, "bike_id": "e7f468c36fdcce7e466f5185644c8aa6", "is_disabled": 0, "lat": 38.88387216666667, "is_reserved": 0, "type": "electric_scooter"}, {"fusion_lat": 0.0, "name": "a5a8706923d1c7851af6f654dba62a31", "lon": -76.96092683333333, "rental_uris": {"android": "https://dc.lft.to/lastmile_qr_scan", "ios": "https://dc.lft.to/lastmile_qr_scan"}, "fusion_lon": 0.0, "bike_id": "a5a8706923d1c7851af6f654dba62a31", "is_disabled": 0, "lat": 38.918492, "is_reserved": 0, "type": "electric_bike"}, {"fusion_lat": 0.0, "name": "e5a825368249a767e0b9bd77927f8266", "lon": -77.01888083333333, "rental_uris": {"android": "https://dc.lft.to/lastmile_qr_scan", "ios": "https://dc.lft.to/lastmile_qr_scan"}, "fusion_lon": 0.0, "bike_id": "e5a825368249a767e0b9bd77927f8266", "is_disabled": 0, "lat": 38.91453816666667, "is_reserved": 0, "type": "electric_scooter"}, {"fusion_lat": 0.0, "name": "a9383ba5d24ae7c07975484fd378c84e", "lon": -77.0465005, "rental_uris": {"android": "https://dc.lft.to/lastmile_qr_scan", "ios": "https://dc.lft.to/lastmile_qr_scan"}, "fusion_lon": 0.0, "bike_id": "a9383ba5d24ae7c07975484fd378c84e", "is_disabled": 0, "lat": 38.90935283333334, "is_reserved": 0, "type": "electric_scooter"}, {"fusion_lat": 0.0, "name": "97b0de0393e5c3dfded105da98a577a2", "lon": -77.05562066666667, "rental_uris": {"android": "https://dc.lft.to/lastmile_qr_scan", "ios": "https://dc.lft.to/lastmile_qr_scan"}, "fusion_lon": 0.0, "bike_id": "97b0de0393e5c3dfded105da98a577a2", "is_disabled": 0, "lat": 38.89734716666667, "is_reserved": 0, "type": "electric_scooter"}, {"fusion_lat": 0.0, "name": "32dd1e3e2b31c502e8fb2ee63ef08eec", "lon": -77.023916, "rental_uris": {"android": "https://dc.lft.to/lastmile_qr_scan", "ios": "https://dc.lft.to/lastmile_qr_scan"}, "fusion_lon": 0.0, "bike_id": "32dd1e3e2b31c502e8fb2ee63ef08eec", "is_disabled": 0, "lat": 38.919844, "is_reserved": 0, "type": "electric_scooter"}, {"fusion_lat": 0.0, "name": "39be22ddeb8c9cbbb2fb2d8a4fe910dd", "lon": -76.98487683333333, "rental_uris": {"android": "https://dc.lft.to/lastmile_qr_scan", "ios": "https://dc.lft.to/lastmile_qr_scan"}, "fusion_lon": 0.0, "bike_id": "39be22ddeb8c9cbbb2fb2d8a4fe910dd", "is_disabled": 0, "lat": 38.9043275, "is_reserved": 0, "type": "electric_scooter"}, {"fusion_lat": 0.0, "name": "c87db399f8c18b17204275dcb1b46aee", "lon": -77.07224666666667, "rental_uris": {"android": "https://dc.lft.to/lastmile_qr_scan", "ios": "https://dc.lft.to/lastmile_qr_scan"}, "fusion_lon": 0.0, "bike_id": "c87db399f8c18b17204275dcb1b46aee", "is_disabled": 0, "lat": 38.96814116666667, "is_reserved": 0, "type": "electric_bike"}, {"fusion_lat": 0.0, "name": "e72db65fdb8f4fb2c056aaffba55ab79", "lon": -77.05135183333333, "rental_uris": {"android": "https://dc.lft.to/lastmile_qr_scan", "ios": "https://dc.lft.to/lastmile_qr_scan"}, "fusion_lon": 0.0, "bike_id": "e72db65fdb8f4fb2c056aaffba55ab79", "is_disabled": 0, "lat": 38.925303166666666, "is_reserved": 0, "type": "electric_scooter"}, {"fusion_lat": 0.0, "name": "fe2ffad479bd9041042657b996f31061", "lon": -77.01997616666667, "rental_uris": {"android": "https://dc.lft.to/lastmile_qr_scan", "ios": "https://dc.lft.to/lastmile_qr_scan"}, "fusion_lon": 0.0, "bike_id": "fe2ffad479bd9041042657b996f31061", "is_disabled": 0, "lat": 38.96621733333333, "is_reserved": 0, "type": "electric_scooter"}, {"fusion_lat": 0.0, "name": "8ef6eef774efb9b9bac6258b5494b2aa", "lon": -77.00569933333334, "rental_uris": {"android": "https://dc.lft.to/lastmile_qr_scan", "ios": "https://dc.lft.to/lastmile_qr_scan"}, "fusion_lon": 0.0, "bike_id": "8ef6eef774efb9b9bac6258b5494b2aa", "is_disabled": 0, "lat": 38.906176333333335, "is_reserved": 0, "type": "electric_scooter"}, {"fusion_lat": 0.0, "name": "50238c25acc94d7018227da953d14581", "lon": -76.98364, "rental_uris": {"android": "https://dc.lft.to/lastmile_qr_scan", "ios": "https://dc.lft.to/lastmile_qr_scan"}, "fusion_lon": 0.0, "bike_id": "50238c25acc94d7018227da953d14581", "is_disabled": 0, "lat": 38.915313166666664, "is_reserved": 0, "type": "electric_scooter"}, {"fusion_lat": 0.0, "name": "ded6c3951b2a7e95e5677bcae8973258", "lon": -77.117094, "rental_uris": {"android": "https://dc.lft.to/lastmile_qr_scan", "ios": "https://dc.lft.to/lastmile_qr_scan"}, "fusion_lon": 0.0, "bike_id": "ded6c3951b2a7e95e5677bcae8973258", "is_disabled": 0, "lat": 38.867434, "is_reserved": 0, "type": "electric_bike"}, {"fusion_lat": 0.0, "name": "e017295ed596ee9f9f95e2f3735bdefa", "lon": -76.99787416666666, "rental_uris": {"android": "https://dc.lft.to/lastmile_qr_scan", "ios": "https://dc.lft.to/lastmile_qr_scan"}, "fusion_lon": 0.0, "bike_id": "e017295ed596ee9f9f95e2f3735bdefa", "is_disabled": 0, "lat": 38.8291555, "is_reserved": 0, "type": "electric_bike"}, {"fusion_lat": 0.0, "name": "52bcf17546aaa2c10f0994e8ee464bf4", "lon": -76.94997583333334, "rental_uris": {"android": "https://dc.lft.to/lastmile_qr_scan", "ios": "https://dc.lft.to/lastmile_qr_scan"}, "fusion_lon": 0.0, "bike_id": "52bcf17546aaa2c10f0994e8ee464bf4", "is_disabled": 0, "lat": 38.8936535, "is_reserved": 0, "type": "electric_scooter"}, {"fusion_lat": 0.0, "name": "d89c5da9692610d2ccac17f7dfab9d40", "lon": -77.05158766666666, "rental_uris": {"android": "https://dc.lft.to/lastmile_qr_scan", "ios": "https://dc.lft.to/lastmile_qr_scan"}, "fusion_lon": 0.0, "bike_id": "d89c5da9692610d2ccac17f7dfab9d40", "is_disabled": 0, "lat": 38.94036116666667, "is_reserved": 0, "type": "electric_bike"}, {"fusion_lat": 0.0, "name": "b73a146820a0f1493f701bbba11c9db3", "lon": -77.04046166666667, "rental_uris": {"android": "https://dc.lft.to/lastmile_qr_scan", "ios": "https://dc.lft.to/lastmile_qr_scan"}, "fusion_lon": 0.0, "bike_id": "b73a146820a0f1493f701bbba11c9db3", "is_disabled": 0, "lat": 38.90347466666667, "is_reserved": 0, "type": "electric_scooter"}, {"fusion_lat": 0.0, "name": "b136f5f30f9edde7bcd5cb98dd2c247d", "lon": -77.02695066666666, "rental_uris": {"android": "https://dc.lft.to/lastmile_qr_scan", "ios": "https://dc.lft.to/lastmile_qr_scan"}, "fusion_lon": 0.0, "bike_id": "b136f5f30f9edde7bcd5cb98dd2c247d", "is_disabled": 0, "lat": 38.9260545, "is_reserved": 0, "type": "electric_scooter"}, {"fusion_lat": 0.0, "name": "69399c9f919ba29448c3ad2b094b7e77", "lon": -77.0343695, "rental_uris": {"android": "https://dc.lft.to/lastmile_qr_scan", "ios": "https://dc.lft.to/lastmile_qr_scan"}, "fusion_lon": 0.0, "bike_id": "69399c9f919ba29448c3ad2b094b7e77", "is_disabled": 0, "lat": 38.918069333333335, "is_reserved": 0, "type": "electric_scooter"}, {"fusion_lat": 0.0, "name": "50edb73148460b4407d51d1c53a65944", "lon": -77.02742166666667, "rental_uris": {"android": "https://dc.lft.to/lastmile_qr_scan", "ios": "https://dc.lft.to/lastmile_qr_scan"}, "fusion_lon": 0.0, "bike_id": "50edb73148460b4407d51d1c53a65944", "is_disabled": 0, "lat": 38.896635333333336, "is_reserved": 0, "type": "electric_scooter"}, {"fusion_lat": 0.0, "name": "2cfe78aa0cb1e2f4808103e42053e6d0", "lon": -77.03531216666667, "rental_uris": {"android": "https://dc.lft.to/lastmile_qr_scan", "ios": "https://dc.lft.to/lastmile_qr_scan"}, "fusion_lon": 0.0, "bike_id": "2cfe78aa0cb1e2f4808103e42053e6d0", "is_disabled": 0, "lat": 38.91834266666667, "is_reserved": 0, "type": "electric_scooter"}, {"fusion_lat": 0.0, "name": "442f29001034b8ab4350c5c22b76db28", "lon": -77.0229895, "rental_uris": {"android": "https://dc.lft.to/lastmile_qr_scan", "ios": "https://dc.lft.to/lastmile_qr_scan"}, "fusion_lon": 0.0, "bike_id": "442f29001034b8ab4350c5c22b76db28", "is_disabled": 0, "lat": 38.90140916666667, "is_reserved": 0, "type": "electric_scooter"}, {"fusion_lat": 0.0, "name": "47cfa51941dbf83e824640cd3eddce0f", "lon": -76.900802, "rental_uris": {"android": "https://dc.lft.to/lastmile_qr_scan", "ios": "https://dc.lft.to/lastmile_qr_scan"}, "fusion_lon": 0.0, "bike_id": "47cfa51941dbf83e824640cd3eddce0f", "is_disabled": 0, "lat": 38.887610333333335, "is_reserved": 0, "type": "electric_bike"}, {"fusion_lat": 0.0, "name": "d3b690de4d842a31aaaed13653b91de9", "lon": -77.0127675, "rental_uris": {"android": "https://dc.lft.to/lastmile_qr_scan", "ios": "https://dc.lft.to/lastmile_qr_scan"}, "fusion_lon": 0.0, "bike_id": "d3b690de4d842a31aaaed13653b91de9", "is_disabled": 0, "lat": 38.89228216666667, "is_reserved": 0, "type": "electric_scooter"}, {"fusion_lat": 0.0, "name": "9b405562ed454d0739c167fd6039f7c8", "lon": -77.03412116666667, "rental_uris": {"android": "https://dc.lft.to/lastmile_qr_scan", "ios": "https://dc.lft.to/lastmile_qr_scan"}, "fusion_lon": 0.0, "bike_id": "9b405562ed454d0739c167fd6039f7c8", "is_disabled": 0, "lat": 38.92257083333333, "is_reserved": 0, "type": "electric_scooter"}, {"fusion_lat": 0.0, "name": "3c66b78060c11980793a4e84c42d84c1", "lon": -77.02840483333334, "rental_uris": {"android": "https://dc.lft.to/lastmile_qr_scan", "ios": "https://dc.lft.to/lastmile_qr_scan"}, "fusion_lon": 0.0, "bike_id": "3c66b78060c11980793a4e84c42d84c1", "is_disabled": 0, "lat": 38.9321555, "is_reserved": 0, "type": "electric_scooter"}, {"fusion_lat": 0.0, "name": "4a46b5598abb4e0a0b7c1a29330f3495", "lon": -76.98278033333334, "rental_uris": {"android": "https://dc.lft.to/lastmile_qr_scan", "ios": "https://dc.lft.to/lastmile_qr_scan"}, "fusion_lon": 0.0, "bike_id": "4a46b5598abb4e0a0b7c1a29330f3495", "is_disabled": 0, "lat": 38.899281, "is_reserved": 0, "type": "electric_scooter"}, {"fusion_lat": 0.0, "name": "5d343847ce90ccb0dfd7dcb9e289d199", "lon": -77.0437945, "rental_uris": {"android": "https://dc.lft.to/lastmile_qr_scan", "ios": "https://dc.lft.to/lastmile_qr_scan"}, "fusion_lon": 0.0, "bike_id": "5d343847ce90ccb0dfd7dcb9e289d199", "is_disabled": 0, "lat": 38.89220616666667, "is_reserved": 0, "type": "electric_scooter"}, {"fusion_lat": 0.0, "name": "29ba8df5a41b912e4031545c8ff4df47", "lon": -77.00738966666667, "rental_uris": {"android": "https://dc.lft.to/lastmile_qr_scan", "ios": "https://dc.lft.to/lastmile_qr_scan"}, "fusion_lon": 0.0, "bike_id": "29ba8df5a41b912e4031545c8ff4df47", "is_disabled": 0, "lat": 38.9036825, "is_reserved": 0, "type": "electric_scooter"}, {"fusion_lat": 0.0, "name": "b11ded1ad3147f2bb0a8ed5f880ee09d", "lon": -77.0544095, "rental_uris": {"android": "https://dc.lft.to/lastmile_qr_scan", "ios": "https://dc.lft.to/lastmile_qr_scan"}, "fusion_lon": 0.0, "bike_id": "b11ded1ad3147f2bb0a8ed5f880ee09d", "is_disabled": 0, "lat": 38.8959905, "is_reserved": 0, "type": "electric_scooter"}, {"fusion_lat": 0.0, "name": "a56c3c7c2d6d6dbf67658b8ab5013580", "lon": -77.0221965, "rental_uris": {"android": "https://dc.lft.to/lastmile_qr_scan", "ios": "https://dc.lft.to/lastmile_qr_scan"}, "fusion_lon": 0.0, "bike_id": "a56c3c7c2d6d6dbf67658b8ab5013580", "is_disabled": 0, "lat": 38.935469, "is_reserved": 0, "type": "electric_scooter"}, {"fusion_lat": 0.0, "name": "28e8d2c33c948094585d628e32fe0ac2", "lon": -76.97949183333333, "rental_uris": {"android": "https://dc.lft.to/lastmile_qr_scan", "ios": "https://dc.lft.to/lastmile_qr_scan"}, "fusion_lon": 0.0, "bike_id": "28e8d2c33c948094585d628e32fe0ac2", "is_disabled": 0, "lat": 38.898025833333335, "is_reserved": 0, "type": "electric_scooter"}, {"fusion_lat": 0.0, "name": "1c64edeccbd21224bd399c8798b284f7", "lon": -77.03225933333333, "rental_uris": {"android": "https://dc.lft.to/lastmile_qr_scan", "ios": "https://dc.lft.to/lastmile_qr_scan"}, "fusion_lon": 0.0, "bike_id": "1c64edeccbd21224bd399c8798b284f7", "is_disabled": 0, "lat": 38.921630666666665, "is_reserved": 0, "type": "electric_scooter"}, {"fusion_lat": 0.0, "name": "e1a150fd0e9a6a177e8dff9651e596fe", "lon": -77.03459466666666, "rental_uris": {"android": "https://dc.lft.to/lastmile_qr_scan", "ios": "https://dc.lft.to/lastmile_qr_scan"}, "fusion_lon": 0.0, "bike_id": "e1a150fd0e9a6a177e8dff9651e596fe", "is_disabled": 0, "lat": 38.910653333333336, "is_reserved": 0, "type": "electric_scooter"}, {"fusion_lat": 0.0, "name": "6420bf2a12a0c594439104e1c593c381", "lon": -77.0258105, "rental_uris": {"android": "https://dc.lft.to/lastmile_qr_scan", "ios": "https://dc.lft.to/lastmile_qr_scan"}, "fusion_lon": 0.0, "bike_id": "6420bf2a12a0c594439104e1c593c381", "is_disabled": 0, "lat": 38.88427016666667, "is_reserved": 0, "type": "electric_scooter"}, {"fusion_lat": 0.0, "name": "cf57d29272bcce31590fbdff69b99787", "lon": -76.97438566666666, "rental_uris": {"android": "https://dc.lft.to/lastmile_qr_scan", "ios": "https://dc.lft.to/lastmile_qr_scan"}, "fusion_lon": 0.0, "bike_id": "cf57d29272bcce31590fbdff69b99787", "is_disabled": 0, "lat": 38.86392716666667, "is_reserved": 0, "type": "electric_scooter"}, {"fusion_lat": 0.0, "name": "a9ebef00ecfb3a6c78d85e4102f0d293", "lon": -77.072485, "rental_uris": {"android": "https://dc.lft.to/lastmile_qr_scan", "ios": "https://dc.lft.to/lastmile_qr_scan"}, "fusion_lon": 0.0, "bike_id": "a9ebef00ecfb3a6c78d85e4102f0d293", "is_disabled": 0, "lat": 38.93404066666667, "is_reserved": 0, "type": "electric_scooter"}, {"fusion_lat": 0.0, "name": "b8747b3c97a6e75673adf9beeb4e2657", "lon": -77.0269725, "rental_uris": {"android": "https://dc.lft.to/lastmile_qr_scan", "ios": "https://dc.lft.to/lastmile_qr_scan"}, "fusion_lon": 0.0, "bike_id": "b8747b3c97a6e75673adf9beeb4e2657", "is_disabled": 0, "lat": 38.8972825, "is_reserved": 0, "type": "electric_scooter"},