{"data": {"bikes": [{"name": "416e92a60c068cc8ba0973c42e93eec9", "fusion_lat": 0.0, "type": "electric_scooter", "lat": 38.93898933333333, "is_reserved": 0, "is_disabled": 0, "fusion_lon": 0.0, "bike_id": "416e92a60c068cc8ba0973c42e93eec9", "lon": -77.0326225, "rental_uris": {"ios": "https://dc.lft.to/lastmile_qr_scan", "android": "https://dc.lft.to/lastmile_qr_scan"}}, {"name": "97bb5b694d6c1ab070e18dc743ff3a0b", "fusion_lat": 0.0, "type": "electric_scooter", "lat": 38.91556833333333, "is_reserved": 0, "is_disabled": 0, "fusion_lon": 0.0, "bike_id": "97bb5b694d6c1ab070e18dc743ff3a0b", "lon": -77.04278116666667, "rental_uris": {"ios": "https://dc.lft.to/lastmile_qr_scan", "android": "https://dc.lft.to/lastmile_qr_scan"}}, {"name": "b8c9c5821b2ca88a3f406e3f6924a5ca", "fusion_lat": 0.0, "type": "electric_bike", "lat": 38.930103833333334, "is_reserved": 0, "is_disabled": 0, "fusion_lon": 0.0, "bike_id": "b8c9c5821b2ca88a3f406e3f6924a5ca", "lon": -77.0377885, "rental_uris": {"ios": "https://dc.lft.to/lastmile_qr_scan", "android": "https://dc.lft.to/lastmile_qr_scan"}}, {"name": "b46d708b2cdf711dbb459887e1122a86", "fusion_lat": 0.0, "type": "electric_scooter", "lat": 38.90317133333333, "is_reserved": 0, "is_disabled": 0, "fusion_lon": 0.0, "bike_id": "b46d708b2cdf711dbb459887e1122a86", "lon": -77.0532935, "rental_uris": {"ios": "https://dc.lft.to/lastmile_qr_scan", "android": "https://dc.lft.to/lastmile_qr_scan"}}, {"name": "45408ae825ed7b8af2d742f61530f090", "fusion_lat": 0.0, "type": "electric_scooter", "lat": 38.8850845, "is_reserved": 0, "is_disabled": 0, "fusion_lon": 0.0, "bike_id": "45408ae825ed7b8af2d742f61530f090", "lon": -76.97880766666667, "rental_uris": {"ios": "https://dc.lft.to/lastmile_qr_scan", "android": "https://dc.lft.to/lastmile_qr_scan"}}, {"name": "07d53d954c3cbcacc1dbba0cf43d8696", "fusion_lat": 0.0, "type": "electric_scooter", "lat": 38.902875, "is_reserved": 0, "is_disabled": 0, "fusion_lon": 0.0, "bike_id": "07d53d954c3cbcacc1dbba0cf43d8696", "lon": -77.04046233333334, "rental_uris": {"ios": "https://dc.lft.to/lastmile_qr_scan", "android": "https://dc.lft.to/lastmile_qr_scan"}}, {"name": "912e1d4d09a6585de2d0c1b2d2e689d4", "fusion_lat": 0.0, "type": "electric_scooter", "lat": 38.894514, "is_reserved": 0, "is_disabled": 0, "fusion_lon": 0.0, "bike_id": "912e1d4d09a6585de2d0c1b2d2e689d4", "lon": -77.0108715, "rental_uris": {"ios": "https://dc.lft.to/lastmile_qr_scan", "android": "https://dc.lft.to/lastmile_qr_scan"}}, {"name": "12bfc7c6511b239a6856845cdba5c414", "fusion_lat": 0.0, "type": "electric_scooter", "lat": 38.91048133333334, "is_reserved": 0, "is_disabled": 0, "fusion_lon": 0.0, "bike_id": "12bfc7c6511b239a6856845cdba5c414", "lon": -77.02812283333333, "rental_uris": {"ios": "https://dc.lft.to/lastmile_qr_scan", "android": "https://dc.lft.to/lastmile_qr_scan"}}, {"name": "20d0b5aa337ae52661ef03bc5ee817e8", "fusion_lat": 0.0, "type": "electric_scooter", "lat": 38.907056, "is_reserved": 0, "is_disabled": 0, "fusion_lon": 0.0, "bike_id": "20d0b5aa337ae52661ef03bc5ee817e8", "lon": -76.98701533333333, "rental_uris": {"ios": "https://dc.lft.to/lastmile_qr_scan", "android": "https://dc.lft.to/lastmile_qr_scan"}}, {"name": "40b8d0ec82d499534b97dfb12ffb8f4e", "fusion_lat": 0.0, "type": "electric_scooter", "lat": 38.89479883333333, "is_reserved": 0, "is_disabled": 0, "fusion_lon": 0.0, "bike_id": "40b8d0ec82d499534b97dfb12ffb8f4e", "lon": -77.01022983333333, "rental_uris": {"ios": "https://dc.lft.to/lastmile_qr_scan", "android": "https://dc.lft.to/lastmile_qr_scan"}}, {"name": "c010c145febc9a39624d26b9c4379ead", "fusion_lat": 0.0, "type": "electric_bike", "lat": 38.81940566666667, "is_reserved": 0, "is_disabled": 0, "fusion_lon": 0.0, "bike_id": "c010c145febc9a39624d26b9c4379ead", "lon": -77.0020495, "rental_uris": {"ios": "https://dc.lft.to/lastmile_qr_scan", "android": "https://dc.lft.to/lastmile_qr_scan"}}, {"name": "d082988318ebdb9c44ddeb35912815c2", "fusion_lat": 0.0, "type": "electric_bike", "lat": 38.96539716666667, "is_reserved": 0, "is_disabled": 0, "fusion_lon": 0.0, "bike_id": "d082988318ebdb9c44ddeb35912815c2", "lon": -77.03515233333333, "rental_uris": {"ios": "https://dc.lft.to/lastmile_qr_scan", "android": "https://dc.lft.to/lastmile_qr_scan"}}, {"name": "35ce6383855caed35d6b1f6775013b40", "fusion_lat": 0.0, "type": "electric_bike", "lat": 39.09459483333333, "is_reserved": 0, "is_disabled": 0, "fusion_lon": 0.0, "bike_id": "35ce6383855caed35d6b1f6775013b40", "lon": -77.14998366666667, "rental_uris": {"ios": "https://dc.lft.to/lastmile_qr_scan", "android": "https://dc.lft.to/lastmile_qr_scan"}}, {"name": "7da9d1de2bee4273af0c37547d11e3e4", "fusion_lat": 0.0, "type": "electric_scooter", "lat": 38.916312166666664, "is_reserved": 0, "is_disabled": 0, "fusion_lon": 0.0, "bike_id": "7da9d1de2bee4273af0c37547d11e3e4", "lon": -77.04807066666666, "rental_uris": {"ios": "https://dc.lft.to/lastmile_qr_scan", "android": "https://dc.lft.to/lastmile_qr_scan"}}, {"name": "d50e330a2dac6cc269a8bb92e58e20ac", "fusion_lat": 0.0, "type": "electric_scooter", "lat": 38.879316, "is_reserved": 0, "is_disabled": 0, "fusion_lon": 0.0, "bike_id": "d50e330a2dac6cc269a8bb92e58e20ac", "lon": -77.02105966666667, "rental_uris": {"ios": "https://dc.lft.to/lastmile_qr_scan", "android": "https://dc.lft.to/lastmile_qr_scan"}}, {"name": "bb74c5f1619f24e0280459a423419633", "fusion_lat": 0.0, "type": "electric_scooter", "lat": 38.927312, "is_reserved": 0, "is_disabled": 0, "fusion_lon": 0.0, "bike_id": "bb74c5f1619f24e0280459a423419633", "lon": -77.0056775, "rental_uris": {"ios": "https://dc.lft.to/lastmile_qr_scan", "android": "https://dc.lft.to/lastmile_qr_scan"}}, {"name": "b3b05691200a39bddba5ec79d1744e97", "fusion_lat": 0.0, "type": "electric_scooter", "lat": 38.9006825, "is_reserved": 0, "is_disabled": 0, "fusion_lon": 0.0, "bike_id": "b3b05691200a39bddba5ec79d1744e97", "lon": -77.048789, "rental_uris": {"ios": "https://dc.lft.to/lastmile_qr_scan", "android": "https://dc.lft.to/lastmile_qr_scan"}}, {"name": "a302b35f2268c34e74568d092b88a781", "fusion_lat": 0.0, "type": "electric_bike", "lat": 38.875321666666665, "is_reserved": 0, "is_disabled": 0, "fusion_lon": 0.0, "bike_id": "a302b35f2268c34e74568d092b88a781", "lon": -77.19911383333333, "rental_uris": {"ios": "https://dc.lft.to/lastmile_qr_scan", "android": "https://dc.lft.to/lastmile_qr_scan"}}, {"name": "4ab89042473aaea093f96089e19eb1be", "fusion_lat": 0.0, "type": "electric_scooter", "lat": 38.9156215, "is_reserved": 0, "is_disabled": 0, "fusion_lon": 0.0, "bike_id": "4ab89042473aaea093f96089e19eb1be", "lon": -77.031625, "rental_uris": {"ios": "https://dc.lft.to/lastmile_qr_scan", "android": "https://dc.lft.to/lastmile_qr_scan"}}, {"name": "e284bd1312419279c43d16b5d59497c8", "fusion_lat": 0.0, "type": "electric_bike", "lat": 38.85793966666667, "is_reserved": 0, "is_disabled": 0, "fusion_lon": 0.0, "bike_id": "e284bd1312419279c43d16b5d59497c8", "lon": -77.09963933333333, "rental_uris": {"ios": "https://dc.lft.to/lastmile_qr_scan", "android": "https://dc.lft.to/lastmile_qr_scan"}}, {"name": "857fd5dd574eed1da97910568ac07691", "fusion_lat": 0.0, "type": "electric_scooter", "lat": 38.89906533333333, "is_reserved": 0, "is_disabled": 0, "fusion_lon": 0.0, "bike_id": "857fd5dd574eed1da97910568ac07691", "lon": -76.93376683333334, "rental_uris": {"ios": "https://dc.lft.to/lastmile_qr_scan", "android": "https://dc.lft.to/lastmile_qr_scan"}}, {"name": "3e52305366badf66046e3419f0249859", "fusion_lat": 0.0, "type": "electric_scooter", "lat": 38.91820416666667, "is_reserved": 0, "is_disabled": 0, "fusion_lon": 0.0, "bike_id": "3e52305366badf66046e3419f0249859", "lon": -77.0279555, "rental_uris": {"ios": "https://dc.lft.to/lastmile_qr_scan", "android": "https://dc.lft.to/lastmile_qr_scan"}}, {"name": "d62fa904d429ff91c870ab66d19bd74c", "fusion_lat": 0.0, "type": "electric_scooter", "lat": 38.87644, "is_reserved": 0, "is_disabled": 0, "fusion_lon": 0.0, "bike_id": "d62fa904d429ff91c870ab66d19bd74c", "lon": -77.00762933333333, "rental_uris": {"ios": "https://dc.lft.to/lastmile_qr_scan", "android": "https://dc.lft.to/lastmile_qr_scan"}}, {"name": "843c56953940939bbcae9bc0dc73388a", "fusion_lat": 0.0, "type": "electric_scooter", "lat": 38.884574666666666, "is_reserved": 0, "is_disabled": 0, "fusion_lon": 0.0, "bike_id": "843c56953940939bbcae9bc0dc73388a", "lon": -76.9246665, "rental_uris": {"ios": "https://dc.lft.to/lastmile_qr_scan", "android": "https://dc.lft.to/lastmile_qr_scan"}}, {"name": "21587f55cdafd1421f77634ae0cb6199", "fusion_lat": 0.0, "type": "electric_scooter", "lat": 38.879244, "is_reserved": 0, "is_disabled": 0, "fusion_lon": 0.0, "bike_id": "21587f55cdafd1421f77634ae0cb6199", "lon": -77.02102883333333, "rental_uris": {"ios": "https://dc.lft.to/lastmile_qr_scan", "android": "https://dc.lft.to/lastmile_qr_scan"}}, {"name": "7f6ca220fbb84798eaf31d0d96abdecd", "fusion_lat": 0.0, "type": "electric_scooter", "lat": 38.92489916666667, "is_reserved": 0, "is_disabled": 0, "fusion_lon": 0.0, "bike_id": "7f6ca220fbb84798eaf31d0d96abdecd", "lon": -77.05223566666666, "rental_uris": {"ios": "https://dc.lft.to/lastmile_qr_scan", "android": "https://dc.lft.to/lastmile_qr_scan"}}, {"name": "98902174f0a1def1b56e657889e992f0", "fusion_lat": 0.0, "type": "electric_scooter", "lat": 38.90572133333333, "is_reserved": 0, "is_disabled": 0, "fusion_lon": 0.0, "bike_id": "98902174f0a1def1b56e657889e992f0", "lon": -77.05692616666667, "rental_uris": {"ios": "https://dc.lft.to/lastmile_qr_scan", "android": "https://dc.lft.to/lastmile_qr_scan"}}, {"name": "c682576a226c69e0dcc04a9fb9cae196", "fusion_lat": 0.0, "type": "electric_scooter", "lat": 38.933384833333335, "is_reserved": 0, "is_disabled": 0, "fusion_lon": 0.0, "bike_id": "c682576a226c69e0dcc04a9fb9cae196", "lon": -77.08194966666667, "rental_uris": {"ios": "https://dc.lft.to/lastmile_qr_scan", "android": "https://dc.lft.to/lastmile_qr_scan"}}, {"name": "1adce35401b97c83f4a4f2d3f6b0769c", "fusion_lat": 0.0, "type": "electric_scooter", "lat": 38.86915833333333, "is_reserved": 0, "is_disabled": 0, "fusion_lon": 0.0, "bike_id": "1adce35401b97c83f4a4f2d3f6b0769c", "lon": -76.97501633333333, "rental_uris": {"ios": "https://dc.lft.to/lastmile_qr_scan", "android": "https://dc.lft.to/lastmile_qr_scan"}}, {"name": "f9bcecec5a0feda0c7db7ea46bd3eafb", "fusion_lat": 0.0, "type": "electric_scooter", "lat": 38.92893316666667, "is_reserved": 0, "is_disabled": 0, "fusion_lon": 0.0, "bike_id": "f9bcecec5a0feda0c7db7ea46bd3eafb", "lon": -77.00521116666667, "rental_uris": {"ios": "https://dc.lft.to/lastmile_qr_scan", "android": "https://dc.lft.to/lastmile_qr_scan"}}, {"name": "d6f0ee800f36cc261e56df72709ee6ed", "fusion_lat": 0.0, "type": "electric_bike", "lat": 38.94583733333333, "is_reserved": 0, "is_disabled": 0, "fusion_lon": 0.0, "bike_id": "d6f0ee800f36cc261e56df72709ee6ed", "lon": -77.34404033333334, "rental_uris": {"ios": "https://dc.lft.to/lastmile_qr_scan", "android": "https://dc.lft.to/lastmile_qr_scan"}}, {"name": "12a15f35c0ab7e1b1b7e95d4dbd3026c", "fusion_lat": 0.0, "type": "electric_scooter", "lat": 38.89739733333333, "is_reserved": 0, "is_disabled": 0, "fusion_lon": 0.0, "bike_id": "12a15f35c0ab7e1b1b7e95d4dbd3026c", "lon": -77.04749733333334, "rental_uris": {"ios": "https://dc.lft.to/lastmile_qr_scan", "android": "https://dc.lft.to/lastmile_qr_scan"}}, {"name": "86c36e98f0092b227f92a8ba2fb12c5a", "fusion_lat": 0.0, "type": "electric_scooter", "lat": 38.899547, "is_reserved": 0, "is_disabled": 0, "fusion_lon": 0.0, "bike_id": "86c36e98f0092b227f92a8ba2fb12c5a", "lon": -76.99494783333333, "rental_uris": {"ios": "https://dc.lft.to/lastmile_qr_scan", "android": "https://dc.lft.to/lastmile_qr_scan"}}, {"name": "e71ade17ce68a4394360da5be3493b60", "fusion_lat": 0.0, "type": "electric_scooter", "lat": 38.89886283333333, "is_reserved": 0, "is_disabled": 0, "fusion_lon": 0.0, "bike_id": "e71ade17ce68a4394360da5be3493b60", "lon": -76.93174683333334, "rental_uris": {"ios": "https://dc.lft.to/lastmile_qr_scan", "android": "https://dc.lft.to/lastmile_qr_scan"}}, {"name": "67721fd4afa3a057b6a4995a3042bb54", "fusion_lat": 0.0, "type": "electric_scooter", "lat": 38.88487033333333, "is_reserved": 0, "is_disabled": 0, "fusion_lon": 0.0, "bike_id": "67721fd4afa3a057b6a4995a3042bb54", "lon": -77.021919, "rental_uris": {"ios": "https://dc.lft.to/lastmile_qr_scan", "android": "https://dc.lft.to/lastmile_qr_scan"}}, {"name": "f30253311d090dc5b651248535d51393", "fusion_lat": 0.0, "type": "electric_scooter", "lat": 38.91916283333333, "is_reserved": 0, "is_disabled": 0, "fusion_lon": 0.0, "bike_id": "f30253311d090dc5b651248535d51393", "lon": -77.032556, "rental_uris": {"ios": "https://dc.lft.to/lastmile_qr_scan", "android": "https://dc.lft.to/lastmile_qr_scan"}}, {"name": "34b13df354c171fb188d207897c7d5a5", "fusion_lat": 0.0, "type": "electric_bike", "lat": 38.93703333333333, "is_reserved": 0, "is_disabled": 0, "fusion_lon": 0.0, "bike_id": "34b13df354c171fb188d207897c7d5a5", "lon": -77.03290066666666, "rental_uris": {"ios": "https://dc.lft.to/lastmile_qr_scan", "android": "https://dc.lft.to/lastmile_qr_scan"}}, {"name": "fa6d0a700e087017dce35c780852aae7", "fusion_lat": 0.0, "type": "electric_scooter", "lat": 38.91802583333333, "is_reserved": 0, "is_disabled": 0, "fusion_lon": 0.0, "bike_id": "fa6d0a700e087017dce35c780852aae7", "lon": -77.068273, "rental_uris": {"ios": "https://dc.lft.to/lastmile_qr_scan", "android": "https://dc.lft.to/lastmile_qr_scan"}}, {"name": "cb6b9d57fc124b0332c54a539bd89b5f", "fusion_lat": 0.0, "type": "electric_scooter", "lat": 38.91745383333333, "is_reserved": 0, "is_disabled": 0, "fusion_lon": 0.0, "bike_id": "cb6b9d57fc124b0332c54a539bd89b5f", "lon": -77.03638516666666, "rental_uris": {"ios": "https://dc.lft.to/lastmile_qr_scan", "android": "https://dc.lft.to/lastmile_qr_scan"}}, {"name": "9b5a13d40ae1a9fa7b81d40e1d9df32e", "fusion_lat": 0.0, "type": "electric_bike", "lat": 38.9273655, "is_reserved": 0, "is_disabled": 0, "fusion_lon": 0.0, "bike_id": "9b5a13d40ae1a9fa7b81d40e1d9df32e", "lon": -77.01354416666666, "rental_uris": {"ios": "https://dc.lft.to/lastmile_qr_scan", "android": "https://dc.lft.to/lastmile_qr_scan"}}, {"name": "0391216996ffbeada9949552ad626e6d", "fusion_lat": 0.0, "type": "electric_scooter", "lat": 38.9140785, "is_reserved": 0, "is_disabled": 0, "fusion_lon": 0.0, "bike_id": "0391216996ffbeada9949552ad626e6d", "lon": -77.03216983333333, "rental_uris": {"ios": "https://dc.lft.to/lastmile_qr_scan", "android": "https://dc.lft.to/lastmile_qr_scan"}}, {"name": "5eb0e0b5860db9d14757b67456cea0bd", "fusion_lat": 0.0, "type": "electric_scooter", "lat": 38.9359525, "is_reserved": 0, "is_disabled": 0, "fusion_lon": 0.0, "bike_id": "5eb0e0b5860db9d14757b67456cea0bd", "lon": -77.03518816666667, "rental_uris": {"ios": "https://dc.lft.to/lastmile_qr_scan", "android": "https://dc.lft.to/lastmile_qr_scan"}}, {"name": "baa573cbf0549c90a51496f5d6afa1e6", "fusion_lat": 0.0, "type": "electric_scooter", "lat": 38.909141166666664, "is_reserved": 0, "is_disabled": 0, "fusion_lon": 0.0, "bike_id": "baa573cbf0549c90a51496f5d6afa1e6", "lon": -77.02714266666666, "rental_uris": {"ios": "https://dc.lft.to/lastmile_qr_scan", "android": "https://dc.lft.to/lastmile_qr_scan"}}, {"name": "f7706e08acc04696b220572e425eca8b", "fusion_lat": 0.0, "type": "electric_scooter", "lat": 38.8958835, "is_reserved": 0, "is_disabled": 0, "fusion_lon": 0.0, "bike_id": "f7706e08acc04696b220572e425eca8b", "lon": -76.93715333333333, "rental_uris": {"ios": "https://dc.lft.to/lastmile_qr_scan", "android": "https://dc.lft.to/lastmile_qr_scan"}}, {"name": "dec566cf3ce18f218683eb25bedef2f6", "fusion_lat": 0.0, "type": "electric_scooter", "lat": 38.90366783333333, "is_reserved": 0, "is_disabled": 0, "fusion_lon": 0.0, "bike_id": "dec566cf3ce18f218683eb25bedef2f6", "lon": -77.00730433333334, "rental_uris": {"ios": "https://dc.lft.to/lastmile_qr_scan", "android": "https://dc.lft.to/lastmile_qr_scan"}}, {"name": "36ec41f78f86a7a70a6d14afa63df2d5", "fusion_lat": 0.0, "type": "electric_scooter", "lat": 38.90160083333333, "is_reserved": 0, "is_disabled": 0, "fusion_lon": 0.0, "bike_id": "36ec41f78f86a7a70a6d14afa63df2d5", "lon": -76.974086, "rental_uris": {"ios": "https://dc.lft.to/lastmile_qr_scan", "android": "https://dc.lft.to/lastmile_qr_scan"}}, {"name": "deb3b8d1970a0ee9f823fbbf7d22adad", "fusion_lat": 0.0, "type": "electric_scooter", "lat": 38.914195166666666, "is_reserved": 0, "is_disabled": 0, "fusion_lon": 0.0, "bike_id": "deb3b8d1970a0ee9f823fbbf7d22adad", "lon": -77.00887, "rental_uris": {"ios": "https://dc.lft.to/lastmile_qr_scan", "android": "https://dc.lft.to/lastmile_qr_scan"}}, {"name": "72dd087355beec249f87157df9f82c2f", "fusion_lat": 0.0, "type": "electric_scooter", "lat": 38.91272383333333, "is_reserved": 0, "is_disabled": 0, "fusion_lon": 0.0, "bike_id": "72dd087355beec249f87157df9f82c2f", "lon": -77.06088966666667, "rental_uris": {"ios": "https://dc.lft.to/lastmile_qr_scan", "android": "https://dc.lft.to/lastmile_qr_scan"}}, {"name": "3112f4adddbfdcaf6a3fe1165aa34571", "fusion_lat": 0.0, "type": "electric_scooter", "lat": 38.9314725, "is_reserved": 0, "is_disabled": 0, "fusion_lon": 0.0, "bike_id": "3112f4adddbfdcaf6a3fe1165aa34571", "lon": -77.03825616666667, "rental_uris": {"ios": "https://dc.lft.to/lastmile_qr_scan", "android": "https://dc.lft.to/lastmile_qr_scan"}}, {"name": "1eb4b04290222c0437ed5f80673b5f06", "fusion_lat": 0.0, "type": "electric_scooter", "lat": 38.9157795, "is_reserved": 0, "is_disabled": 0, "fusion_lon": 0.0, "bike_id": "1eb4b04290222c0437ed5f80673b5f06", "lon": -77.0469345, "rental_uris": {"ios": "https://dc.lft.to/lastmile_qr_scan", "android": "https://dc.lft.to/lastmile_qr_scan"}}, {"name": "2ff1c036ae7e33099efea28179f80409", "fusion_lat": 0.0, "type": "electric_scooter", "lat": 38.902421, "is_reserved": 0, "is_disabled": 0, "fusion_lon": 0.0, "bike_id": "2ff1c036ae7e33099efea28179f80409", "lon": -77.01927266666667, "rental_uris": {"ios": "https://dc.lft.to/lastmile_qr_scan", "android": "https://dc.lft.to/lastmile_qr_scan"}}, {"name": "61111eeb9b3bcc679434663246f7ade6", "fusion_lat": 0.0, "type": "electric_scooter", "lat": 38.919286166666666, "is_reserved": 0, "is_disabled": 0, "fusion_lon": 0.0, "bike_id": "61111eeb9b3bcc679434663246f7ade6", "lon": -77.03212616666667, "rental_uris": {"ios": "https://dc.lft.to/lastmile_qr_scan", "android": "https://dc.lft.to/lastmile_qr_scan"}}, {"name": "dfb187ec8679c152fd0ca08dbe5c08cd", "fusion_lat": 0.0, "type": "electric_scooter", "lat": 38.88068833333333, "is_reserved": 0, "is_disabled": 0, "fusion_lon": 0.0, "bike_id": "dfb187ec8679c152fd0ca08dbe5c08cd", "lon": -76.9353205, "rental_uris": {"ios": "https://dc.lft.to/lastmile_qr_scan", "android": "https://dc.lft.to/lastmile_qr_scan"}}, {"name": "102556c8d26b5f3e09bfe61bbc829296", "fusion_lat": 0.0, "type": "electric_bike", "lat": 38.92008466666667, "is_reserved": 0, "is_disabled": 0, "fusion_lon": 0.0, "bike_id": "102556c8d26b5f3e09bfe61bbc829296", "lon": -76.97496916666667, "rental_uris": {"ios": "https://dc.lft.to/lastmile_qr_scan", "android": "https://dc.lft.to/lastmile_qr_scan"}}, {"name": "7b3966c42beb82896fba3ba38859e45d", "fusion_lat": 0.0, "type": "electric_scooter", "lat": 38.87629183333333, "is_reserved": 0, "is_disabled": 0, "fusion_lon": 0.0, "bike_id": "7b3966c42beb82896fba3ba38859e45d", "lon": -77.00824033333333, "rental_uris": {"ios": "https://dc.lft.to/lastmile_qr_scan", "android": "https://dc.lft.to/lastmile_qr_scan"}}, {"name": "3cd887abc1646e73e728039124ab7874", "fusion_lat": 0.0, "type": "electric_scooter", "lat": 38.883946333333334, "is_reserved": 0, "is_disabled": 0, "fusion_lon": 0.0, "bike_id": "3cd887abc1646e73e728039124ab7874", "lon": -77.01936916666666, "rental_uris": {"ios": "https://dc.lft.to/lastmile_qr_scan", "android": "https://dc.lft.to/lastmile_qr_scan"}}, {"name": "e881025c520738b6aaeeb1127dec473a", "fusion_lat": 0.0, "type": "electric_scooter", "lat": 38.92503516666667, "is_reserved": 0, "is_disabled": 0, "fusion_lon": 0.0, "bike_id": "e881025c520738b6aaeeb1127dec473a", "lon": -77.02163433333334, "rental_uris": {"ios": "https://dc.lft.to/lastmile_qr_scan", "android": "https://dc.lft.to/lastmile_qr_scan"}}, {"name": "48049b442452001e5b02bb9e27a7a4cc", "fusion_lat": 0.0, "type": "electric_scooter", "lat": 38.89970366666667, "is_reserved": 0, "is_disabled": 0, "fusion_lon": 0.0, "bike_id": "48049b442452001e5b02bb9e27a7a4cc", "lon": -77.057092, "rental_uris": {"ios": "https://dc.lft.to/lastmile_qr_scan", "android": "https://dc.lft.to/lastmile_qr_scan"}}, {"name": "f057fad27bb367bd2f50fdc4dd4808fd", "fusion_lat": 0.0, "type": "electric_scooter", "lat": 38.91801533333334, "is_reserved": 0, "is_disabled": 0, "fusion_lon": 0.0, "bike_id": "f057fad27bb367bd2f50fdc4dd4808fd", "lon": -77.0344145, "rental_uris": {"ios": "https://dc.lft.to/lastmile_qr_scan", "android": "https://dc.lft.to/lastmile_qr_scan"}}, {"name": "2a067759561aa1d83e806bcee2338a1e", "fusion_lat": 0.0, "type": "electric_scooter", "lat": 38.876502333333335, "is_reserved": 0, "is_disabled": 0, "fusion_lon": 0.0, "bike_id": "2a067759561aa1d83e806bcee2338a1e", "lon": -77.007496, "rental_uris": {"ios": "https://dc.lft.to/lastmile_qr_scan", "android": "https://dc.lft.to/lastmile_qr_scan"}}, {"name": "c24e435f404dff5d6049093536446195", "fusion_lat": 0.0, "type": "electric_scooter", "lat": 38.89602, "is_reserved": 0, "is_disabled": 0, "fusion_lon": 0.0, "bike_id": "c24e435f404dff5d6049093536446195", "lon": -77.04750583333333, "rental_uris": {"ios": "https://dc.lft.to/lastmile_qr_scan", "android": "https://dc.lft.to/lastmile_qr_scan"}}, {"name": "47cffc400d640b8ffdd976187abed432", "fusion_lat": 0.0, "type": "electric_scooter", "lat": 38.91808566666667, "is_reserved": 0, "is_disabled": 0, "fusion_lon": 0.0, "bike_id": "47cffc400d640b8ffdd976187abed432", "lon": -77.04003016666667, "rental_uris": {"ios": "https://dc.lft.to/lastmile_qr_scan", "android": "https://dc.lft.to/lastmile_qr_scan"}}, {"name": "6850227714613ac3df1de77183bd04be", "fusion_lat": 0.0, "type": "electric_bike", "lat": 38.82882133333333, "is_reserved": 0, "is_disabled": 0, "fusion_lon": 0.0, "bike_id": "6850227714613ac3df1de77183bd04be", "lon": -77.11228866666667, "rental_uris": {"ios": "https://dc.lft.to/lastmile_qr_scan", "android": "https://dc.lft.to/lastmile_qr_scan"}}, {"name": "6d9850e68e425b9d6b888447d7ff1d0d", "fusion_lat": 0.0, "type": "electric_bike", "lat": 38.99093633333333, "is_reserved": 0, "is_disabled": 0, "fusion_lon": 0.0, "bike_id": "6d9850e68e425b9d6b888447d7ff1d0d", "lon": -76.87495283333334, "rental_uris": {"ios": "https://dc.lft.to/lastmile_qr_scan", "android": "https://dc.lft.to/lastmile_qr_scan"}}, {"name": "c23221d4e9a41cbc3036f2c59261e600", "fusion_lat": 0.0, "type": "electric_scooter", "lat": 38.90969333333334, "is_reserved": 0, "is_disabled": 0, "fusion_lon": 0.0, "bike_id": "c23221d4e9a41cbc3036f2c59261e600", "lon": -77.02742466666666, "rental_uris": {"ios": "https://dc.lft.to/lastmile_qr_scan", "android": "https://dc.lft.to/lastmile_qr_scan"}}, {"name": "ce6771dd7f9dca85deb716d7c432764e", "fusion_lat": 0.0, "type": "electric_scooter", "lat": 38.888637, "is_reserved": 0, "is_disabled": 0, "fusion_lon": 0.0, "bike_id": "ce6771dd7f9dca85deb716d7c432764e", "lon": -77.04008666666667, "rental_uris": {"ios": "https://dc.lft.to/lastmile_qr_scan", "android": "https://dc.lft.to/lastmile_qr_scan"}}, {"name": "d2f6bdab538c80a4d3d3e8db275b04ed", "fusion_lat": 0.0, "type": "electric_scooter", "lat": 38.935253, "is_reserved": 0, "is_disabled": 0, "fusion_lon": 0.0, "bike_id": "d2f6bdab538c80a4d3d3e8db275b04ed", "lon": -77.02851916666667, "rental_uris": {"ios": "https://dc.lft.to/lastmile_qr_scan", "android": "https://dc.lft.to/lastmile_qr_scan"}}, {"name": "96cf2f5753f2a62376b80b3233eb72cd", "fusion_lat": 0.0, "type": "electric_scooter", "lat": 38.9024175, "is_reserved": 0, "is_disabled": 0, "fusion_lon": 0.0, "bike_id": "96cf2f5753f2a62376b80b3233eb72cd", "lon": -77.0019865, "rental_uris": {"ios": "https://dc.lft.to/lastmile_qr_scan", "android": "https://dc.lft.to/lastmile_qr_scan"}}, {"name": "0b9c630f3cf625b35190202ea88beef5", "fusion_lat": 0.0, "type": "electric_scooter", "lat": 38.9289785, "is_reserved": 0, "is_disabled": 0, "fusion_lon": 0.0, "bike_id": "0b9c630f3cf625b35190202ea88beef5", "lon": -77.03748766666666, "rental_uris": {"ios": "https://dc.lft.to/lastmile_qr_scan", "android": "https://dc.lft.to/lastmile_qr_scan"}}, {"name": "46f46460af33f342cc4834073c343d03", "fusion_lat": 0.0, "type": "electric_scooter", "lat": 38.89551433333333, "is_reserved": 0, "is_disabled": 0, "fusion_lon": 0.0, "bike_id": "46f46460af33f342cc4834073c343d03", "lon": -77.023911, "rental_uris": {"ios": "https://dc.lft.to/lastmile_qr_scan", "android": "https://dc.lft.to/lastmile_qr_scan"}}, {"name": "9845985ba0b059f91934b782e65d4882", "fusion_lat": 0.0, "type": "electric_scooter", "lat": 38.9390145, "is_reserved": 0, "is_disabled": 0, "fusion_lon": 0.0, "bike_id": "9845985ba0b059f91934b782e65d4882", "lon": -77.032844, "rental_uris": {"ios": "https://dc.lft.to/lastmile_qr_scan", "android": "https://dc.lft.to/lastmile_qr_scan"}}, {"name": "89e785f212229ed94bbca79c837f9553", "fusion_lat": 0.0, "type": "electric_scooter", "lat": 38.907074, "is_reserved": 0, "is_disabled": 0, "fusion_lon": 0.0, "bike_id": "89e785f212229ed94bbca79c837f9553", "lon": -76.98689616666667, "rental_uris": {"ios": "https://dc.lft.to/lastmile_qr_scan", "android": "https://dc.lft.to/lastmile_qr_scan"}}, {"name": "481ffe762e8561b22e720b07bec9316f", "fusion_lat": 0.0, "type": "electric_scooter", "lat": 38.91861216666667, "is_reserved": 0, "is_disabled": 0, "fusion_lon": 0.0, "bike_id": "481ffe762e8561b22e720b07bec9316f", "lon": -77.015033, "rental_uris": {"ios": "https://dc.lft.to/lastmile_qr_scan", "android": "https://dc.lft.to/lastmile_qr_scan"}}, {"name": "506a3718cc2845d1a7c237e1988ff7f1", "fusion_lat": 0.0, "type": "electric_scooter", "lat": 38.92102116666667, "is_reserved": 0, "is_disabled": 0, "fusion_lon": 0.0, "bike_id": "506a3718cc2845d1a7c237e1988ff7f1", "lon": -77.04702433333334, "rental_uris": {"ios": "https://dc.lft.to/lastmile_qr_scan", "android": "https://dc.lft.to/lastmile_qr_scan"}}, {"name": "b0d5a925d401ce25177216737af855b9", "fusion_lat": 0.0, "type": "electric_scooter", "lat": 38.93410633333333, "is_reserved": 0, "is_disabled": 0, "fusion_lon": 0.0, "bike_id": "b0d5a925d401ce25177216737af855b9", "lon": -77.01964566666666, "rental_uris": {"ios": "https://dc.lft.to/lastmile_qr_scan", "android": "https://dc.lft.to/lastmile_qr_scan"}}, {"name": "19979078e008d80c3c4deab6b1ae561f", "fusion_lat": 0.0, "type": "electric_scooter", "lat": 38.930842166666665, "is_reserved": 0, "is_disabled": 0, "fusion_lon": 0.0, "bike_id": "19979078e008d80c3c4deab6b1ae561f", "lon": -77.02402333333333, "rental_uris": {"ios": "https://dc.lft.to/lastmile_qr_scan", "android": "https://dc.lft.to/lastmile_qr_scan"}}, {"name": "5dd7ba9fd020a6b7e86c0378a547fc26", "fusion_lat": 0.0, "type": "electric_bike", "lat": 38.897841666666665, "is_reserved": 0, "is_disabled": 0, "fusion_lon": 0.0, "bike_id": "5dd7ba9fd020a6b7e86c0378a547fc26", "lon": -76.90450666666666, "rental_uris": {"ios": "https://dc.lft.to/lastmile_qr_scan", "android": "https://dc.lft.to/lastmile_qr_scan"}}, {"name": "7d7a787a729bb943e5b4d91b03c76255", "fusion_lat": 0.0, "type": "electric_bike", "lat": 38.928534666666664, "is_reserved": 0, "is_disabled": 0, "fusion_lon": 0.0, "bike_id": "7d7a787a729bb943e5b4d91b03c76255", "lon": -77.1050795, "rental_uris": {"ios": "https://dc.lft.to/lastmile_qr_scan", "android": "https://dc.lft.to/lastmile_qr_scan"}}, {"name": "579003b39acd168879297f317eada9cc", "fusion_lat": 0.0, "type": "electric_scooter", "lat": 38.897367333333335, "is_reserved": 0, "is_disabled": 0, "fusion_lon": 0.0, "bike_id": "579003b39acd168879297f317eada9cc", "lon": -77.04724066666667, "rental_uris": {"ios": "https://dc.lft.to/lastmile_qr_scan", "android": "https://dc.lft.to/lastmile_qr_scan"}}, {"name": "abfda213632169f4ec43ff4016091581", "fusion_lat": 0.0, "type": "electric_scooter", "lat": 38.931175833333334, "is_reserved": 0, "is_disabled": 0, "fusion_lon": 0.0, "bike_id": "abfda213632169f4ec43ff4016091581", "lon": -77.02007416666666, "rental_uris": {"ios": "https://dc.lft.to/lastmile_qr_scan", "android": "https://dc.lft.to/lastmile_qr_scan"}}, {"name": "8ee8f4995ed7e890c78540c7edae5ea2", "fusion_lat": 0.0, "type": "electric_scooter", "lat": 38.92430816666667, "is_reserved": 0, "is_disabled": 0, "fusion_lon": 0.0, "bike_id": "8ee8f4995ed7e890c78540c7edae5ea2", "lon": -77.0412655, "rental_uris": {"ios": "https://dc.lft.to/lastmile_qr_scan", "android": "https://dc.lft.to/lastmile_qr_scan"}}, {"name": "3d4a6f49bb03227f28c42487b7006385", "fusion_lat": 0.0, "type": "electric_scooter", "lat": 38.92059783333333, "is_reserved": 0, "is_disabled": 0, "fusion_lon": 0.0, "bike_id": "3d4a6f49bb03227f28c42487b7006385", "lon": -77.04696533333333, "rental_uris": {"ios": "https://dc.lft.to/lastmile_qr_scan", "android": "https://dc.lft.to/lastmile_qr_scan"}}, {"name": "4071baa6e112533213422ce9ce1fbcf5", "fusion_lat": 0.0, "type": "electric_scooter", "lat": 38.91989683333333, "is_reserved": 0, "is_disabled": 0, "fusion_lon": 0.0, "bike_id": "4071baa6e112533213422ce9ce1fbcf5", "lon": -77.03320783333334, "rental_uris": {"ios": "https://dc.lft.to/lastmile_qr_scan", "android": "https://dc.lft.to/lastmile_qr_scan"}}, {"name": "f5a470cff5c44d09b52979a3c76ff17f", "fusion_lat": 0.0, "type": "electric_bike", "lat": 38.96553816666667, "is_reserved": 0, "is_disabled": 0, "fusion_lon": 0.0, "bike_id": "f5a470cff5c44d09b52979a3c76ff17f", "lon": -77.03517266666667, "rental_uris": {"ios": "https://dc.lft.to/lastmile_qr_scan", "android": "https://dc.lft.to/lastmile_qr_scan"}}, {"name": "8e037e35003dcb68cc85fa2abd1a41b2", "fusion_lat": 0.0, "type": "electric_scooter", "lat": 38.93176583333333, "is_reserved": 0, "is_disabled": 0, "fusion_lon": 0.0, "bike_id": "8e037e35003dcb68cc85fa2abd1a41b2", "lon": -77.0561985, "rental_uris": {"ios": "https://dc.lft.to/lastmile_qr_scan", "android": "https://dc.lft.to/lastmile_qr_scan"}}, {"name": "ab7a59cf16a8bc6ced31eddd05e944ac", "fusion_lat": 0.0, "type": "electric_scooter", "lat": 38.862171833333335, "is_reserved": 0, "is_disabled": 0, "fusion_lon": 0.0, "bike_id": "ab7a59cf16a8bc6ced31eddd05e944ac", "lon": -76.97374266666667, "rental_uris": {"ios": "https://dc.lft.to/lastmile_qr_scan", "android": "https://dc.lft.to/lastmile_qr_scan"}}, {"name": "548728dcafcf6919bc299c68eee4f67f", "fusion_lat": 0.0, "type": "electric_scooter", "lat": 38.908545833333335, "is_reserved": 0, "is_disabled": 0, "fusion_lon": 0.0, "bike_id": "548728dcafcf6919bc299c68eee4f67f", "lon": -77.04502316666667, "rental_uris": {"ios": "https://dc.lft.to/lastmile_qr_scan", "android": "https://dc.lft.to/lastmile_qr_scan"}}, {"name": "afab6821103642500487084d643734bc", "fusion_lat": 0.0, "type": "electric_scooter", "lat": 38.890898, "is_reserved": 0, "is_disabled": 0, "fusion_lon": 0.0, "bike_id": "afab6821103642500487084d643734bc", "lon": -76.99787933333333, "rental_uris": {"ios": "https://dc.lft.to/lastmile_qr_scan", "android": "https://dc.lft.to/lastmile_qr_scan"}}, {"name": "dbb48cee7b9b2ef0d3f8eff6f2ba3ffe", "fusion_lat": 0.0, "type": "electric_scooter", "lat": 38.908537333333335, "is_reserved": 0, "is_disabled": 0, "fusion_lon": 0.0, "bike_id": "dbb48cee7b9b2ef0d3f8eff6f2ba3ffe", "lon": -77.03281183333333, "rental_uris": {"ios": "https://dc.lft.to/lastmile_qr_scan", "android": "https://dc.lft.to/lastmile_qr_scan"}}, {"name": "0b368abef0ee8263a77728140bb0ebdf", "fusion_lat": 0.0, "type": "electric_scooter", "lat": 38.900343, "is_reserved": 0, "is_disabled": 0, "fusion_lon": 0.0, "bike_id": "0b368abef0ee8263a77728140bb0ebdf", "lon": -77.029878, "rental_uris": {"ios": "https://dc.lft.to/lastmile_qr_scan", "android": "https://dc.lft.to/lastmile_qr_scan"}}, {"name": "8641c4a1e57cdc780d6587ac7e4a377f", "fusion_lat": 0.0, "type": "electric_scooter", "lat": 38.908673666666665, "is_reserved": 0, "is_disabled": 0, "fusion_lon": 0.0, "bike_id": "8641c4a1e57cdc780d6587ac7e4a377f", "lon": -77.02395683333333, "rental_uris": {"ios": "https://dc.lft.to/lastmile_qr_scan", "android": "https://dc.lft.to/lastmile_qr_scan"}}, {"name": "15d8d8677cf636e28dd93c7b2af5b6ba", "fusion_lat": 0.0, "type": "electric_scooter", "lat": 38.87323, "is_reserved": 0, "is_disabled": 0, "fusion_lon": 0.0, "bike_id": "15d8d8677cf636e28dd93c7b2af5b6ba", "lon": -77.001056, "rental_uris": {"ios": "https://dc.lft.to/lastmile_qr_scan", "android": "https://dc.lft.to/lastmile_qr_scan"}}, {"name": "70bf041947fe139b1946c2daf1566f02", "fusion_lat": 0.0, "type": "electric_scooter", "lat": 38.9038, "is_reserved": 0, "is_disabled": 0, "fusion_lon": 0.0, "bike_id": "70bf041947fe139b1946c2daf1566f02", "lon": -77.04810083333334, "rental_uris": {"ios": "https://dc.lft.to/lastmile_qr_scan", "android": "https://dc.lft.to/lastmile_qr_scan"}}, {"name": "a023f78330d002cbbfb776000974c333", "fusion_lat": 0.0, "type": "electric_bike", "lat": 38.95188516666666, "is_reserved": 0, "is_disabled": 0, "fusion_lon": 0.0, "bike_id": "a023f78330d002cbbfb776000974c333", "lon": -76.935471, "rental_uris": {"ios": "https://dc.lft.to/lastmile_qr_scan", "android": "https://dc.lft.to/lastmile_qr_scan"}}, {"name": "a16e992720f86cbe2896237820c454b2", "fusion_lat": 0.0, "type": "electric_scooter", "lat": 38.92376983333333, "is_reserved": 0, "is_disabled": 0, "fusion_lon": 0.0, "bike_id": "a16e992720f86cbe2896237820c454b2", "lon": -77.03128466666666, "rental_uris": {"ios": "https://dc.lft.to/lastmile_qr_scan", "android": "https://dc.lft.to/lastmile_qr_scan"}}, {"name": "0d8e7a562bea234ddf69862c034207c1", "fusion_lat": 0.0, "type": "electric_scooter", "lat": 38.9048225, "is_reserved": 0, "is_disabled": 0, "fusion_lon": 0.0, "bike_id": "0d8e7a562bea234ddf69862c034207c1", "lon": -76.9732475, "rental_uris": {"ios": "https://dc.lft.to/lastmile_qr_scan", "android": "https://dc.lft.to/lastmile_qr_scan"}}, {"name": "7a921b3f786817e1b7a5e15215b9441f", "fusion_lat": 0.0, "type": "electric_bike", "lat": 38.9999525, "is_reserved": 0, "is_disabled": 0, "fusion_lon": 0.0, "bike_id": "7a921b3f786817e1b7a5e15215b9441f", "lon": -76.99521433333334, "rental_uris": {"ios": "https://dc.lft.to/lastmile_qr_scan", "android": "https://dc.lft.to/lastmile_qr_scan"}}, {"name": "8d6e25a4a6644508dfa25978047cdb99", "fusion_lat": 0.0, "type": "electric_scooter", "lat": 38.912726, "is_reserved": 0, "is_disabled": 0, "fusion_lon": 0.0, "bike_id": "8d6e25a4a6644508dfa25978047cdb99", "lon": -77.02694966666667, "rental_uris": {"ios": "https://dc.lft.to/lastmile_qr_scan", "android": "https://dc.lft.to/lastmile_qr_scan"}}, {"name": "16de7d528395e9e4ddb1d3d70a776b4b", "fusion_lat": 0.0, "type": "electric_scooter", "lat": 38.937051333333336, "is_reserved": 0, "is_disabled": 0, "fusion_lon": 0.0, "bike_id": "16de7d528395e9e4ddb1d3d70a776b4b", "lon": -77.05686083333333, "rental_uris": {"ios": "https://dc.lft.to/lastmile_qr_scan", "android": "https://dc.lft.to/lastmile_qr_scan"}}, {"name": "1f7990c1fbdd921fb3c1380bd0f39a27", "fusion_lat": 0.0, "type": "electric_scooter", "lat": 38.909492166666666, "is_reserved": 0, "is_disabled": 0, "fusion_lon": 0.0, "bike_id": "1f7990c1fbdd921fb3c1380bd0f39a27", "lon": -76.984877, "rental_uris": {"ios": "https://dc.lft.to/lastmile_qr_scan", "android": "https://dc.lft.to/lastmile_qr_scan"}}, {"name": "d1ac368dfc5ffd95d818daa5cbd6ed57", "fusion_lat": 0.0, "type": "electric_scooter", "lat": 38.901255666666664, "is_reserved": 0, "is_disabled": 0, "fusion_lon": 0.0, "bike_id": "d1ac368dfc5ffd95d818daa5cbd6ed57", "lon": -76.99186766666666, "rental_uris": {"ios": "https://dc.lft.to/lastmile_qr_scan", "android": "https://dc.lft.to/lastmile_qr_scan"}}, {"name": "8fe67dcc1d8f306f8a2d03e6e2a0e1d3", "fusion_lat": 0.0, "type": "electric_scooter", "lat": 38.909586, "is_reserved": 0, "is_disabled": 0, "fusion_lon": 0.0, "bike_id": "8fe67dcc1d8f306f8a2d03e6e2a0e1d3", "lon": -77.02380683333334, "rental_uris": {"ios": "https://dc.lft.to/lastmile_qr_scan", "android": "https://dc.lft.to/lastmile_qr_scan"}}, {"name": "f8b35fdb81d810b0c6f864379d8c380e", "fusion_lat": 0.0, "type": "electric_scooter", "lat": 38.898589666666666, "is_reserved": 0, "is_disabled": 0, "fusion_lon": 0.0, "bike_id": "f8b35fdb81d810b0c6f864379d8c380e", "lon": -77.0330535, "rental_uris": {"ios": "https://dc.lft.to/lastmile_qr_scan", "android": "https://dc.lft.to/lastmile_qr_scan"}}, {"name": "fbf6a2c9619d44241ebf1e6e77962ba2", "fusion_lat": 0.0, "type": "electric_scooter", "lat": 38.900843, "is_reserved": 0, "is_disabled": 0, "fusion_lon": 0.0, "bike_id": "fbf6a2c9619d44241ebf1e6e77962ba2", "lon": -77.0505365, "rental_uris": {"ios": "https://dc.lft.to/lastmile_qr_scan", "android": "https://dc.lft.to/lastmile_qr_scan"}}, {"name": "094082f54a7781930952b073fe0eb3f9", "fusion_lat": 0.0, "type": "electric_scooter", "lat": 38.915636666666664, "is_reserved": 0, "is_disabled": 0, "fusion_lon": 0.0, "bike_id": "094082f54a7781930952b073fe0eb3f9", "lon": -77.014107, "rental_uris": {"ios": "https://dc.lft.to/lastmile_qr_scan", "android": "https://dc.lft.to/lastmile_qr_scan"}}, {"name": "b839d8e3ee1b73ae19410f79b4ae190f", "fusion_lat": 0.0, "type": "electric_bike", "lat": 38.86286666666667, "is_reserved": 0, "is_disabled": 0, "fusion_lon": 0.0, "bike_id": "b839d8e3ee1b73ae19410f79b4ae190f", "lon": -76.9800945, "rental_uris": {"ios": "https://dc.lft.to/lastmile_qr_scan", "android": "https://dc.lft.to/lastmile_qr_scan"}}, {"name": "788671697e2965153d45d528024cb0c8", "fusion_lat": 0.0, "type": "electric_scooter", "lat": 38.916502333333334, "is_reserved": 0, "is_disabled": 0, "fusion_lon": 0.0, "bike_id": "788671697e2965153d45d528024cb0c8", "lon": -77.01591716666667, "rental_uris": {"ios": "https://dc.lft.to/lastmile_qr_scan", "android": "https://dc.lft.to/lastmile_qr_scan"}}, {"name": "36fbf09a784c1c1e780da641e72ae9f5", "fusion_lat": 0.0, "type": "electric_bike", "lat": 38.92770683333333, "is_reserved": 0, "is_disabled": 0, "fusion_lon": 0.0, "bike_id": "36fbf09a784c1c1e780da641e72ae9f5", "lon": -77.03245016666666, "rental_uris": {"ios": "https://dc.lft.to/lastmile_qr_scan", "android": "https://dc.lft.to/lastmile_qr_scan"}}, {"name": "e682eb846806f9e9cdc4a0823fc08915", "fusion_lat": 0.0, "type": "electric_scooter", "lat": 38.90655116666667, "is_reserved": 0, "is_disabled": 0, "fusion_lon": 0.0, "bike_id": "e682eb846806f9e9cdc4a0823fc08915", "lon": -77.02953316666667, "rental_uris": {"ios": "https://dc.lft.to/lastmile_qr_scan", "android": "https://dc.lft.to/lastmile_qr_scan"}}, {"name": "b50ab090059035b0b9019d4f0b52951b", "fusion_lat": 0.0, "type": "electric_scooter", "lat": 38.9309225, "is_reserved": 0, "is_disabled": 0, "fusion_lon": 0.0, "bike_id": "b50ab090059035b0b9019d4f0b52951b", "lon": -77.024079, "rental_uris": {"ios": "https://dc.lft.to/lastmile_qr_scan", "android": "https://dc.lft.to/lastmile_qr_scan"}}, {"name": "22d0c1fe06e0fe7a7a8db15c27664e41", "fusion_lat": 0.0, "type": "electric_scooter", "lat": 38.909548666666666, "is_reserved": 0, "is_disabled": 0, "fusion_lon": 0.0, "bike_id": "22d0c1fe06e0fe7a7a8db15c27664e41", "lon": -77.0113695, "rental_uris": {"ios": "https://dc.lft.to/lastmile_qr_scan", "android": "https://dc.lft.to/lastmile_qr_scan"}}, {"name": "80f1c454f183f2903f1992f4e497f5fb", "fusion_lat": 0.0, "type": "electric_scooter", "lat": 38.922431333333336, "is_reserved": 0, "is_disabled": 0, "fusion_lon": 0.0, "bike_id": "80f1c454f183f2903f1992f4e497f5fb", "lon": -77.07313366666666, "rental_uris": {"ios": "https://dc.lft.to/lastmile_qr_scan", "android": "https://dc.lft.to/lastmile_qr_scan"}}, {"name": "92c97768693f33018812a5af9e134961", "fusion_lat": 0.0, "type": "electric_scooter", "lat": 38.92736033333333, "is_reserved": 0, "is_disabled": 0, "fusion_lon": 0.0, "bike_id": "92c97768693f33018812a5af9e134961", "lon": -77.0351995, "rental_uris": {"ios": "https://dc.lft.to/lastmile_qr_scan", "android": "https://dc.lft.to/lastmile_qr_scan"}}, {"name": "1edfe8171fb59fcd4d38267deca39815", "fusion_lat": 0.0, "type": "electric_scooter", "lat": 38.89774633333333, "is_reserved": 0, "is_disabled": 0, "fusion_lon": 0.0, "bike_id": "1edfe8171fb59fcd4d38267deca39815", "lon": -77.05162766666666, "rental_uris": {"ios": "https://dc.lft.to/lastmile_qr_scan", "android": "https://dc.lft.to/lastmile_qr_scan"}}, {"name": "e668c353a354ae44e0cb6af790433ce4", "fusion_lat": 0.0, "type": "electric_scooter", "lat": 38.913269, "is_reserved": 0, "is_disabled": 0, "fusion_lon": 0.0, "bike_id": "e668c353a354ae44e0cb6af790433ce4", "lon": -77.03181416666666, "rental_uris": {"ios": "https://dc.lft.to/lastmile_qr_scan", "android": "https://dc.lft.to/lastmile_qr_scan"}}, {"name": "d9717713aa5b5b160c04933bd2f4b488", "fusion_lat": 0.0, "type": "electric_scooter", "lat": 38.917157833333334, "is_reserved": 0, "is_disabled": 0, "fusion_lon": 0.0, "bike_id": "d9717713aa5b5b160c04933bd2f4b488", "lon": -77.02892133333333, "rental_uris": {"ios": "https://dc.lft.to/lastmile_qr_scan", "android": "https://dc.lft.to/lastmile_qr_scan"}}, {"name": "d2a73d3c1ba5e4468ad2dbe96c2b3603", "fusion_lat": 0.0, "type": "electric_scooter", "lat": 38.90257033333334, "is_reserved": 0, "is_disabled": 0, "fusion_lon": 0.0, "bike_id": "d2a73d3c1ba5e4468ad2dbe96c2b3603", "lon": -77.01756966666666, "rental_uris": {"ios": "https://dc.lft.to/lastmile_qr_scan", "android": "https://dc.lft.to/lastmile_qr_scan"}}, {"name": "0255446a14f4ab68b746afe0d475d301", "fusion_lat": 0.0, "type": "electric_scooter", "lat": 38.8783665, "is_reserved": 0, "is_disabled": 0, "fusion_lon": 0.0, "bike_id": "0255446a14f4ab68b746afe0d475d301", "lon": -77.0003445, "rental_uris": {"ios": "https://dc.lft.to/lastmile_qr_scan", "android": "https://dc.lft.to/lastmile_qr_scan"}}, {"name": "aa2664a965c726945daa4affcde88c89", "fusion_lat": 0.0, "type": "electric_scooter", "lat": 38.92092366666667, "is_reserved": 0, "is_disabled": 0, "fusion_lon": 0.0, "bike_id": "aa2664a965c726945daa4affcde88c89", "lon": -77.07563866666666, "rental_uris": {"ios": "https://dc.lft.to/lastmile_qr_scan", "android": "https://dc.lft.to/lastmile_qr_scan"}}, {"name": "0798cb20dbfe818d0c64ef335697c4ab", "fusion_lat": 0.0, "type": "electric_scooter", "lat": 38.90143716666667, "is_reserved": 0, "is_disabled": 0, "fusion_lon": 0.0, "bike_id": "0798cb20dbfe818d0c64ef335697c4ab", "lon": -77.03212783333333, "rental_uris": {"ios": "https://dc.lft.to/lastmile_qr_scan", "android": "https://dc.lft.to/lastmile_qr_scan"}}, {"name": "0d1e57dce4e6674710548c7fddb271bc", "fusion_lat": 0.0, "type": "electric_scooter", "lat": 38.8840405, "is_reserved": 0, "is_disabled": 0, "fusion_lon": 0.0, "bike_id": "0d1e57dce4e6674710548c7fddb271bc", "lon": -77.01760466666667, "rental_uris": {"ios": "https://dc.lft.to/lastmile_qr_scan", "android": "https://dc.lft.to/lastmile_qr_scan"}}, {"name": "70f2b2ee78309a0238796ed0216165a4", "fusion_lat": 0.0, "type": "electric_scooter", "lat": 38.91144233333333, "is_reserved": 0, "is_disabled": 0, "fusion_lon": 0.0, "bike_id": "70f2b2ee78309a0238796ed0216165a4", "lon": -77.0168135, "rental_uris": {"ios": "https://dc.lft.to/lastmile_qr_scan", "android": "https://dc.lft.to/lastmile_qr_scan"}}, {"name": "30be367547a922aed47729a9b5247509", "fusion_lat": 0.0, "type": "electric_scooter", "lat": 38.929248, "is_reserved": 0, "is_disabled": 0, "fusion_lon": 0.0, "bike_id": "30be367547a922aed47729a9b5247509", "lon": -77.03634916666667, "rental_uris": {"ios": "https://dc.lft.to/lastmile_qr_scan", "android": "https://dc.lft.to/lastmile_qr_scan"}}, {"name": "f4da0f887187bcb431b63698db4deb1f", "fusion_lat": 0.0, "type": "electric_scooter", "lat": 38.90257116666667, "is_reserved": 0, "is_disabled": 0, "fusion_lon": 0.0, "bike_id": "f4da0f887187bcb431b63698db4deb1f", "lon": -77.00212466666666, "rental_uris": {"ios": "https://dc.lft.to/lastmile_qr_scan", "android": "https://dc.lft.to/lastmile_qr_scan"}}, {"name": "d7fa545ad504206f268719aab83e45fe", "fusion_lat": 0.0, "type": "electric_scooter", "lat": 38.92009866666667, "is_reserved": 0, "is_disabled": 0, "fusion_lon": 0.0, "bike_id": "d7fa545ad504206f268719aab83e45fe", "lon": -77.03182516666666, "rental_uris": {"ios": "https://dc.lft.to/lastmile_qr_scan", "android": "https://dc.lft.to/lastmile_qr_scan"}}, {"name": "3142d123b317e6d55f7d04c844181bc0", "fusion_lat": 0.0, "type": "electric_scooter", "lat": 38.86540083333333, "is_reserved": 0, "is_disabled": 0, "fusion_lon": 0.0, "bike_id": "3142d123b317e6d55f7d04c844181bc0", "lon": -76.9870895, "rental_uris": {"ios": "https://dc.lft.to/lastmile_qr_scan", "android": "https://dc.lft.to/lastmile_qr_scan"}}, {"name": "970a3521914a4c16e4f24b08244ee6ec", "fusion_lat": 0.0, "type": "electric_scooter", "lat": 38.900273166666665, "is_reserved": 0, "is_disabled": 0, "fusion_lon": 0.0, "bike_id": "970a3521914a4c16e4f24b08244ee6ec", "lon": -76.99859716666667, "rental_uris": {"ios": "https://dc.lft.to/lastmile_qr_scan", "android": "https://dc.lft.to/lastmile_qr_scan"}}, {"name": "f5574de6a40b2d31f0ed8d4bfe41dbce", "fusion_lat": 0.0, "type": "electric_scooter", "lat": 38.91930333333333, "is_reserved": 0, "is_disabled": 0, "fusion_lon": 0.0, "bike_id": "f5574de6a40b2d31f0ed8d4bfe41dbce", "lon": -77.02507683333333, "rental_uris": {"ios": "https://dc.lft.to/lastmile_qr_scan", "android": "https://dc.lft.to/lastmile_qr_scan"}}, {"name": "bce941edd6af8fc208129cc255b431bc", "fusion_lat": 0.0, "type": "electric_scooter", "lat": 38.929043666666665, "is_reserved": 0, "is_disabled": 0, "fusion_lon": 0.0, "bike_id": "bce941edd6af8fc208129cc255b431bc", "lon": -77.005181, "rental_uris": {"ios": "https://dc.lft.to/lastmile_qr_scan", "android": "https://dc.lft.to/lastmile_qr_scan"}}, {"name": "c1b32d3b710f087e50805826bc8e3faf", "fusion_lat": 0.0, "type": "electric_scooter", "lat": 38.911976333333335, "is_reserved": 0, "is_disabled": 0, "fusion_lon": 0.0, "bike_id": "c1b32d3b710f087e50805826bc8e3faf", "lon": -77.0344585, "rental_uris": {"ios": "https://dc.lft.to/lastmile_qr_scan", "android": "https://dc.lft.to/lastmile_qr_scan"}}, {"name": "1948a00c0bed62cac70681ed19cbe99a", "fusion_lat": 0.0, "type": "electric_scooter", "lat": 38.91547533333333, "is_reserved": 0, "is_disabled": 0, "fusion_lon": 0.0, "bike_id": "1948a00c0bed62cac70681ed19cbe99a", "lon": -77.03848166666667, "rental_uris": {"ios": "https://dc.lft.to/lastmile_qr_scan", "android": "https://dc.lft.to/lastmile_qr_scan"}}, {"name": "9dc3a406de0708feaf7c4652236df012", "fusion_lat": 0.0, "type": "electric_scooter", "lat": 38.91182466666667, "is_reserved": 0, "is_disabled": 0, "fusion_lon": 0.0, "bike_id": "9dc3a406de0708feaf7c4652236df012", "lon": -77.0320775, "rental_uris": {"ios": "https://dc.lft.to/lastmile_qr_scan", "android": "https://dc.lft.to/lastmile_qr_scan"}}, {"name": "a6a57cf18eb1bfd4e818a3c7d3d8898f", "fusion_lat": 0.0, "type": "electric_scooter", "lat": 38.90267766666667, "is_reserved": 0, "is_disabled": 0, "fusion_lon": 0.0, "bike_id": "a6a57cf18eb1bfd4e818a3c7d3d8898f", "lon": -77.03005133333333, "rental_uris": {"ios": "https://dc.lft.to/lastmile_qr_scan", "android": "https://dc.lft.to/lastmile_qr_scan"}}, {"name": "55f3d5d730ba2d02e46759dc29eecc8a", "fusion_lat": 0.0, "type": "electric_scooter", "lat": 38.900230666666666, "is_reserved": 0, "is_disabled": 0, "fusion_lon": 0.0, "bike_id": "55f3d5d730ba2d02e46759dc29eecc8a", "lon": -77.01188, "rental_uris": {"ios": "https://dc.lft.to/lastmile_qr_scan", "android": "https://dc.lft.to/lastmile_qr_scan"}}, {"name": "2196d055d1a571feac0f85a44e9671c4", "fusion_lat": 0.0, "type": "electric_scooter", "lat": 38.91813766666667, "is_reserved": 0, "is_disabled": 0, "fusion_lon": 0.0, "bike_id": "2196d055d1a571feac0f85a44e9671c4", "lon": -77.0356465, "rental_uris": {"ios": "https://dc.lft.to/lastmile_qr_scan", "android": "https://dc.lft.to/lastmile_qr_scan"}}, {"name": "281ddf05e9c0b984962a36abd7146ec6", "fusion_lat": 0.0, "type": "electric_scooter", "lat": 38.93874116666667, "is_reserved": 0, "is_disabled": 0, "fusion_lon": 0.0, "bike_id": "281ddf05e9c0b984962a36abd7146ec6", "lon": -77.0267305, "rental_uris": {"ios": "https://dc.lft.to/lastmile_qr_scan", "android": "https://dc.lft.to/lastmile_qr_scan"}}, {"name": "eaa8d00382f69b3dc536b90ddacc0105", "fusion_lat": 0.0, "type": "electric_scooter", "lat": 38.95612533333333, "is_reserved": 0, "is_disabled": 0, "fusion_lon": 0.0, "bike_id": "eaa8d00382f69b3dc536b90ddacc0105", "lon": -77.07709116666666, "rental_uris": {"ios": "https://dc.lft.to/lastmile_qr_scan", "android": "https://dc.lft.to/lastmile_qr_scan"}}, {"name": "a7f5c7d537fc559fb67d9eeaaacd93dd", "fusion_lat": 0.0, "type": "electric_bike", "lat": 38.88048166666667, "is_reserved": 0, "is_disabled": 0, "fusion_lon": 0.0, "bike_id": "a7f5c7d537fc559fb67d9eeaaacd93dd", "lon": -77.01325083333333, "rental_uris": {"ios": "https://dc.lft.to/lastmile_qr_scan", "android": "https://dc.lft.to/lastmile_qr_scan"}}, {"name": "cde3934b34c351e02767175470872d46", "fusion_lat": 0.0, "type": "electric_scooter", "lat": 38.9064355, "is_reserved": 0, "is_disabled": 0, "fusion_lon": 0.0, "bike_id": "cde3934b34c351e02767175470872d46", "lon": -77.03450016666666, "rental_uris": {"ios": "https://dc.lft.to/lastmile_qr_scan", "android": "https://dc.lft.to/lastmile_qr_scan"}}, {"name": "23a176b4e024a605d24da90f3180e77c", "fusion_lat": 0.0, "type": "electric_bike", "lat": 38.988197, "is_reserved": 0, "is_disabled": 0, "fusion_lon": 0.0, "bike_id": "23a176b4e024a605d24da90f3180e77c", "lon": -77.02650833333334, "rental_uris": {"ios": "https://dc.lft.to/lastmile_qr_scan", "android": "https://dc.lft.to/lastmile_qr_scan"}}, {"name": "ed0aa114ae25c8fda4bda396474744f2", "fusion_lat": 0.0, "type": "electric_scooter", "lat": 38.91927583333333, "is_reserved": 0, "is_disabled": 0, "fusion_lon": 0.0, "bike_id": "ed0aa114ae25c8fda4bda396474744f2", "lon": -77.02366183333334, "rental_uris": {"ios": "https://dc.lft.to/lastmile_qr_scan", "android": "https://dc.lft.to/lastmile_qr_scan"}}, {"name": "e2bac71ddd77d1c8f491b9da9bfa4e42", "fusion_lat": 0.0, "type": "electric_scooter", "lat": 38.90719833333333, "is_reserved": 0, "is_disabled": 0, "fusion_lon": 0.0, "bike_id": "e2bac71ddd77d1c8f491b9da9bfa4e42", "lon": -77.03442333333334, "rental_uris": {"ios": "https://dc.lft.to/lastmile_qr_scan", "android": "https://dc.lft.to/lastmile_qr_scan"}}, {"name": "59d4d0566aa19e50a9c5adc8a0efdf97", "fusion_lat": 0.0, "type": "electric_scooter", "lat": 38.934001, "is_reserved": 0, "is_disabled": 0, "fusion_lon": 0.0, "bike_id": "59d4d0566aa19e50a9c5adc8a0efdf97", "lon": -77.027211, "rental_uris": {"ios": "https://dc.lft.to/lastmile_qr_scan", "android": "https://dc.lft.to/lastmile_qr_scan"}}, {"name": "08847101dcefd243aa44b0b7f296c529", "fusion_lat": 0.0, "type": "electric_bike", "lat": 38.852321333333336, "is_reserved": 0, "is_disabled": 0, "fusion_lon": 0.0, "bike_id": "08847101dcefd243aa44b0b7f296c529", "lon": -77.10336233333334, "rental_uris": {"ios": "https://dc.lft.to/lastmile_qr_scan", "android": "https://dc.lft.to/lastmile_qr_scan"}}, {"name": "e7576ee4db342bd776f9fdf0f80dfae6", "fusion_lat": 0.0, "type": "electric_scooter", "lat": 38.880386, "is_reserved": 0, "is_disabled": 0, "fusion_lon": 0.0, "bike_id": "e7576ee4db342bd776f9fdf0f80dfae6", "lon": -76.927236, "rental_uris": {"ios": "https://dc.lft.to/lastmile_qr_scan", "android": "https://dc.lft.to/lastmile_qr_scan"}}, {"name": "5a36f38863175e3b19e1e54d20df0d52", "fusion_lat": 0.0, "type": "electric_scooter", "lat": 38.90414116666667, "is_reserved": 0, "is_disabled": 0, "fusion_lon": 0.0, "bike_id": "5a36f38863175e3b19e1e54d20df0d52", "lon": -77.001331, "rental_uris": {"ios": "https://dc.lft.to/lastmile_qr_scan", "android": "https://dc.lft.to/lastmile_qr_scan"}}, {"name": "16d2a6dd350547b2bcb0368079b05b5c", "fusion_lat": 0.0, "type": "electric_scooter", "lat": 38.94315016666667, "is_reserved": 0, "is_disabled": 0, "fusion_lon": 0.0, "bike_id": "16d2a6dd350547b2bcb0368079b05b5c", "lon": -77.02479183333334, "rental_uris": {"ios": "https://dc.lft.to/lastmile_qr_scan", "android": "https://dc.lft.to/lastmile_qr_scan"}}, {"name": "bb7fd7a487c85b34e6c61e00210c000d", "fusion_lat": 0.0, "type": "electric_scooter", "lat": 38.90027766666667, "is_reserved": 0, "is_disabled": 0, "fusion_lon": 0.0, "bike_id": "bb7fd7a487c85b34e6c61e00210c000d", "lon": -76.9882275, "rental_uris": {"ios": "https://dc.lft.to/lastmile_qr_scan", "android": "https://dc.lft.to/lastmile_qr_scan"}}, {"name": "b3f2a32076ba0f8c47769c11e2013af1", "fusion_lat": 0.0, "type": "electric_scooter", "lat": 38.91259066666667, "is_reserved": 0, "is_disabled": 0, "fusion_lon": 0.0, "bike_id": "b3f2a32076ba0f8c47769c11e2013af1", "lon": -77.03839516666666, "rental_uris": {"ios": "https://dc.lft.to/lastmile_qr_scan", "android": "https://dc.lft.to/lastmile_qr_scan"}}, {"name": "b372fabdcbf4625b0f528b39b13520ee", "fusion_lat": 0.0, "type": "electric_scooter", "lat": 38.91253866666667, "is_reserved": 0, "is_disabled": 0, "fusion_lon": 0.0, "bike_id": "b372fabdcbf4625b0f528b39b13520ee", "lon": -77.03863683333333, "rental_uris": {"ios": "https://dc.lft.to/lastmile_qr_scan", "android": "https://dc.lft.to/lastmile_qr_scan"}}, {"name": "3826c739cdbe069285febdfe39b5217e", "fusion_lat": 0.0, "type": "electric_scooter", "lat": 38.9325405, "is_reserved": 0, "is_disabled": 0, "fusion_lon": 0.0, "bike_id": "3826c739cdbe069285febdfe39b5217e", "lon": -77.040094, "rental_uris": {"ios": "https://dc.lft.to/lastmile_qr_scan", "android": "https://dc.lft.to/lastmile_qr_scan"}}, {"name": "486ab8bfc6650b4e2f8c24d09dd57d4d", "fusion_lat": 0.0, "type": "electric_scooter", "lat": 38.92979366666667, "is_reserved": 0, "is_disabled": 0, "fusion_lon": 0.0, "bike_id": "486ab8bfc6650b4e2f8c24d09dd57d4d", "lon": -77.0144945, "rental_uris": {"ios": "https://dc.lft.to/lastmile_qr_scan", "android": "https://dc.lft.to/lastmile_qr_scan"}}, {"name": "1cec5a0dcd59378771ed38606dc9e70e", "fusion_lat": 0.0, "type": "electric_scooter", "lat": 38.8851065, "is_reserved": 0, "is_disabled": 0, "fusion_lon": 0.0, "bike_id": "1cec5a0dcd59378771ed38606dc9e70e", "lon": -77.00567166666667, "rental_uris": {"ios": "https://dc.lft.to/lastmile_qr_scan", "android": "https://dc.lft.to/lastmile_qr_scan"}}, {"name": "6986322fffc8bcbe052e433a8bccc54e", "fusion_lat": 0.0, "type": "electric_bike", "lat": 38.883869, "is_reserved": 0, "is_disabled": 0, "fusion_lon": 0.0, "bike_id": "6986322fffc8bcbe052e433a8bccc54e", "lon": -76.985508, "rental_uris": {"ios": "https://dc.lft.to/lastmile_qr_scan", "android": "https://dc.lft.to/lastmile_qr_scan"}}, {"name": "e5951af96d0ef32b875999d27e4cf23a", "fusion_lat": 0.0, "type": "electric_scooter", "lat": 38.862449, "is_reserved": 0, "is_disabled": 0, "fusion_lon": 0.0, "bike_id": "e5951af96d0ef32b875999d27e4cf23a", "lon": -76.99497616666666, "rental_uris": {"ios": "https://dc.lft.to/lastmile_qr_scan", "android": "https://dc.lft.to/lastmile_qr_scan"}}, {"name": "6c4ff3a861cbb9a56266b5500bfebc7f", "fusion_lat": 0.0, "type": "electric_bike", "lat": 38.83990133333333, "is_reserved": 0, "is_disabled": 0, "fusion_lon": 0.0, "bike_id": "6c4ff3a861cbb9a56266b5500bfebc7f", "lon": -77.00569683333333, "rental_uris": {"ios": "https://dc.lft.to/lastmile_qr_scan", "android": "https://dc.lft.to/lastmile_qr_scan"}}, {"name": "a5e038757f5c330fb379c69ecb3fb9c4", "fusion_lat": 0.0, "type": "electric_scooter", "lat": 38.906098, "is_reserved": 0, "is_disabled": 0, "fusion_lon": 0.0, "bike_id": "a5e038757f5c330fb379c69ecb3fb9c4", "lon": -77.04690933333333, "rental_uris": {"ios": "https://dc.lft.to/lastmile_qr_scan", "android": "https://dc.lft.to/lastmile_qr_scan"}}, {"name": "6f99ea7b5223ecc246ffef468d8e2248", "fusion_lat": 0.0, "type": "electric_scooter", "lat": 38.886057666666666, "is_reserved": 0, "is_disabled": 0, "fusion_lon": 0.0, "bike_id": "6f99ea7b5223ecc246ffef468d8e2248", "lon": -77.02200583333334, "rental_uris": {"ios": "https://dc.lft.to/lastmile_qr_scan", "android": "https://dc.lft.to/lastmile_qr_scan"}}, {"name": "354937674bc9fcacf4cfefe9aa29e263", "fusion_lat": 0.0, "type": "electric_scooter", "lat": 38.89928416666667, "is_reserved": 0, "is_disabled": 0, "fusion_lon": 0.0, "bike_id": "354937674bc9fcacf4cfefe9aa29e263", "lon": -77.053045, "rental_uris": {"ios": "https://dc.lft.to/lastmile_qr_scan", "android": "https://dc.lft.to/lastmile_qr_scan"}}, {"name": "54e392af3e1a9fdbe9287dbeadd781d3", "fusion_lat": 0.0, "type": "electric_scooter", "lat": 38.900101666666664, "is_reserved": 0, "is_disabled": 0, "fusion_lon": 0.0, "bike_id": "54e392af3e1a9fdbe9287dbeadd781d3", "lon": -77.01896283333333, "rental_uris": {"ios": "https://dc.lft.to/lastmile_qr_scan", "android": "https://dc.lft.to/lastmile_qr_scan"}}, {"name": "46dc436e9284114a92dd5229f548f513", "fusion_lat": 0.0, "type": "electric_scooter", "lat": 38.93724116666667, "is_reserved": 0, "is_disabled": 0, "fusion_lon": 0.0, "bike_id": "46dc436e9284114a92dd5229f548f513", "lon": -77.0326555, "rental_uris": {"ios": "https://dc.lft.to/lastmile_qr_scan", "android": "https://dc.lft.to/lastmile_qr_scan"}}, {"name": "03284fff6d6fabc55741742662c1251f", "fusion_lat": 0.0, "type": "electric_scooter", "lat": 38.911907, "is_reserved": 0, "is_disabled": 0, "fusion_lon": 0.0, "bike_id": "03284fff6d6fabc55741742662c1251f", "lon": -77.03212033333334, "rental_uris": {"ios": "https://dc.lft.to/lastmile_qr_scan", "android": "https://dc.lft.to/lastmile_qr_scan"}}, {"name": "f05ffd186f6d1eb953bd7b1c430d2a50", "fusion_lat": 0.0, "type": "electric_scooter", "lat": 38.925565166666665, "is_reserved": 0, "is_disabled": 0, "fusion_lon": 0.0, "bike_id": "f05ffd186f6d1eb953bd7b1c430d2a50", "lon": -77.03265833333333, "rental_uris": {"ios": "https://dc.lft.to/lastmile_qr_scan", "android": "https://dc.lft.to/lastmile_qr_scan"}}, {"name": "c4e0f795e2530be689dd161ee4220451", "fusion_lat": 0.0, "type": "electric_scooter", "lat": 38.902864666666666, "is_reserved": 0, "is_disabled": 0, "fusion_lon": 0.0, "bike_id": "c4e0f795e2530be689dd161ee4220451", "lon": -77.0425, "rental_uris": {"ios": "https://dc.lft.to/lastmile_qr_scan", "android": "https://dc.lft.to/lastmile_qr_scan"}}, {"name": "ed74e87a9bf7daf005c6e3cb6b99a876", "fusion_lat": 0.0, "type": "electric_scooter", "lat": 38.90500866666667, "is_reserved": 0, "is_disabled": 0, "fusion_lon": 0.0, "bike_id": "ed74e87a9bf7daf005c6e3cb6b99a876", "lon": -77.066876, "rental_uris": {"ios": "https://dc.lft.to/lastmile_qr_scan", "android": "https://dc.lft.to/lastmile_qr_scan"}}, {"name": "0fd4c808b85ea4d4eb5e8a61051984ee", "fusion_lat": 0.0, "type": "electric_scooter", "lat": 38.912612333333335, "is_reserved": 0, "is_disabled": 0, "fusion_lon": 0.0, "bike_id": "0fd4c808b85ea4d4eb5e8a61051984ee", "lon": -77.0076705, "rental_uris": {"ios": "https://dc.lft.to/lastmile_qr_scan", "android": "https://dc.lft.to/lastmile_qr_scan"}}, {"name": "06cd6e35825f195279f00a8192387984", "fusion_lat": 0.0, "type": "electric_scooter", "lat": 38.944650333333335, "is_reserved": 0, "is_disabled": 0, "fusion_lon": 0.0, "bike_id": "06cd6e35825f195279f00a8192387984", "lon": -77.006591, "rental_uris": {"ios": "https://dc.lft.to/lastmile_qr_scan", "android": "https://dc.lft.to/lastmile_qr_scan"}}, {"name": "ed9aa17c1b9c7f51ca41ca28095f4e77", "fusion_lat": 0.0, "type": "electric_scooter", "lat": 38.883427166666664, "is_reserved": 0, "is_disabled": 0, "fusion_lon": 0.0, "bike_id": "ed9aa17c1b9c7f51ca41ca28095f4e77", "lon": -76.93645033333334, "rental_uris": {"ios": "https://dc.lft.to/lastmile_qr_scan", "android": "https://dc.lft.to/lastmile_qr_scan"}}, {"name": "ec53cfadf10dcaba518e57b1f1ea567b", "fusion_lat": 0.0, "type": "electric_scooter", "lat": 38.8993835, "is_reserved": 0, "is_disabled": 0, "fusion_lon": 0.0, "bike_id": "ec53cfadf10dcaba518e57b1f1ea567b", "lon": -77.02819266666667, "rental_uris": {"ios": "https://dc.lft.to/lastmile_qr_scan", "android": "https://dc.lft.to/lastmile_qr_scan"}}, {"name": "01e76117aac44a05dc6dc4a4309060b8", "fusion_lat": 0.0, "type": "electric_scooter", "lat": 38.92704666666667, "is_reserved": 0, "is_disabled": 0, "fusion_lon": 0.0, "bike_id": "01e76117aac44a05dc6dc4a4309060b8", "lon": -77.0372965, "rental_uris": {"ios": "https://dc.lft.to/lastmile_qr_scan", "android": "https://dc.lft.to/lastmile_qr_scan"}}, {"name": "8b19154e1040604c1ad9a6f86e0c8c7e", "fusion_lat": 0.0, "type": "electric_scooter", "lat": 38.912924, "is_reserved": 0, "is_disabled": 0, "fusion_lon": 0.0, "bike_id": "8b19154e1040604c1ad9a6f86e0c8c7e", "lon": -77.02969916666666, "rental_uris": {"ios": "https://dc.lft.to/lastmile_qr_scan", "android": "https://dc.lft.to/lastmile_qr_scan"}}, {"name": "aabf409e528d6db4ab50b821277da433", "fusion_lat": 0.0, "type": "electric_bike", "lat": 38.953031333333335, "is_reserved": 0, "is_disabled": 0, "fusion_lon": 0.0, "bike_id": "aabf409e528d6db4ab50b821277da433", "lon": -77.0250495, "rental_uris": {"ios": "https://dc.lft.to/lastmile_qr_scan", "android": "https://dc.lft.to/lastmile_qr_scan"}}, {"name": "0ed7b96109cd22a9cff00f0af483d9b2", "fusion_lat": 0.0, "type": "electric_scooter", "lat": 38.918200166666665, "is_reserved": 0, "is_disabled": 0, "fusion_lon": 0.0, "bike_id": "0ed7b96109cd22a9cff00f0af483d9b2", "lon": -77.002582, "rental_uris": {"ios": "https://dc.lft.to/lastmile_qr_scan", "android": "https://dc.lft.to/lastmile_qr_scan"}}, {"name": "92fed1a3f89b4b62e17a10c76b4a2d66", "fusion_lat": 0.0, "type": "electric_scooter", "lat": 38.89585066666667, "is_reserved": 0, "is_disabled": 0, "fusion_lon": 0.0, "bike_id": "92fed1a3f89b4b62e17a10c76b4a2d66", "lon": -77.0433555, "rental_uris": {"ios": "https://dc.lft.to/lastmile_qr_scan", "android": "https://dc.lft.to/lastmile_qr_scan"}}, {"name": "715a138cb33e83efcf0e868f84fb53cb", "fusion_lat": 0.0, "type": "electric_scooter", "lat": 38.930565333333334, "is_reserved": 0, "is_disabled": 0, "fusion_lon": 0.0, "bike_id": "715a138cb33e83efcf0e868f84fb53cb", "lon": -77.023143, "rental_uris": {"ios": "https://dc.lft.to/lastmile_qr_scan", "android": "https://dc.lft.to/lastmile_qr_scan"}}, {"name": "13fbfde4f869c42e8525c2dd91541ee0", "fusion_lat": 0.0, "type": "electric_bike", "lat": 38.935826166666665, "is_reserved": 0, "is_disabled": 0, "fusion_lon": 0.0, "bike_id": "13fbfde4f869c42e8525c2dd91541ee0", "lon": -77.10682466666667, "rental_uris": {"ios": "https://dc.lft.to/lastmile_qr_scan", "android": "https://dc.lft.to/lastmile_qr_scan"}}, {"name": "d0c793d6543c1f0ba1e468c8aa2cfc11", "fusion_lat": 0.0, "type": "electric_scooter", "lat": 38.915598333333335, "is_reserved": 0, "is_disabled": 0, "fusion_lon": 0.0, "bike_id": "d0c793d6543c1f0ba1e468c8aa2cfc11", "lon": -77.0294175, "rental_uris": {"ios": "https://dc.lft.to/lastmile_qr_scan", "android": "https://dc.lft.to/lastmile_qr_scan"}}, {"name": "31314dd914018230ae85cb659e7d35ed", "fusion_lat": 0.0, "type": "electric_scooter", "lat": 38.94296083333333, "is_reserved": 0, "is_disabled": 0, "fusion_lon": 0.0, "bike_id": "31314dd914018230ae85cb659e7d35ed", "lon": -77.02176066666667, "rental_uris": {"ios": "https://dc.lft.to/lastmile_qr_scan", "android": "https://dc.lft.to/lastmile_qr_scan"}}, {"name": "44d0f98d9b15537b08ed2801ff55e247", "fusion_lat": 0.0, "type": "electric_bike", "lat": 38.892227166666665, "is_reserved": 0, "is_disabled": 0, "fusion_lon": 0.0, "bike_id": "44d0f98d9b15537b08ed2801ff55e247", "lon": -77.10782566666667, "rental_uris": {"ios": "https://dc.lft.to/lastmile_qr_scan", "android": "https://dc.lft.to/lastmile_qr_scan"}}, {"name": "7ce4cf2bf08d83404a1b7e0f656f5784", "fusion_lat": 0.0, "type": "electric_bike", "lat": 38.952744, "is_reserved": 0, "is_disabled": 0, "fusion_lon": 0.0, "bike_id": "7ce4cf2bf08d83404a1b7e0f656f5784", "lon": -77.06976, "rental_uris": {"ios": "https://dc.lft.to/lastmile_qr_scan", "android": "https://dc.lft.to/lastmile_qr_scan"}}, {"name": "cd88bd5e1970b4ed94abc2ffdf1bc19e", "fusion_lat": 0.0, "type": "electric_scooter", "lat": 38.90948083333333, "is_reserved": 0, "is_disabled": 0, "fusion_lon": 0.0, "bike_id": "cd88bd5e1970b4ed94abc2ffdf1bc19e", "lon": -77.02680383333333, "rental_uris": {"ios": "https://dc.lft.to/lastmile_qr_scan", "android": "https://dc.lft.to/lastmile_qr_scan"}}, {"name": "b0d05bbb5a18860ca917858099c1fb7e", "fusion_lat": 0.0, "type": "electric_scooter", "lat": 38.86693283333334, "is_reserved": 0, "is_disabled": 0, "fusion_lon": 0.0, "bike_id": "b0d05bbb5a18860ca917858099c1fb7e", "lon": -76.98906, "rental_uris": {"ios": "https://dc.lft.to/lastmile_qr_scan", "android": "https://dc.lft.to/lastmile_qr_scan"}}, {"name": "38018f1b4a6e8154fe189c5f596816b4", "fusion_lat": 0.0, "type": "electric_scooter", "lat": 38.921881666666664, "is_reserved": 0, "is_disabled": 0, "fusion_lon": 0.0, "bike_id": "38018f1b4a6e8154fe189c5f596816b4", "lon": -77.04007033333333, "rental_uris": {"ios": "https://dc.lft.to/lastmile_qr_scan", "android": "https://dc.lft.to/lastmile_qr_scan"}}, {"name": "5f38f3199ab0361cf81d0a247aa97b5e", "fusion_lat": 0.0, "type": "electric_scooter", "lat": 38.90261366666667, "is_reserved": 0, "is_disabled": 0, "fusion_lon": 0.0, "bike_id": "5f38f3199ab0361cf81d0a247aa97b5e", "lon": -77.034628, "rental_uris": {"ios": "https://dc.lft.to/lastmile_qr_scan", "android": "https://dc.lft.to/lastmile_qr_scan"}}, {"name": "6f014c371b8fde1c44a66044f2e4e97e", "fusion_lat": 0.0, "type": "electric_scooter", "lat": 38.891888, "is_reserved": 0, "is_disabled": 0, "fusion_lon": 0.0, "bike_id": "6f014c371b8fde1c44a66044f2e4e97e", "lon": -77.015789, "rental_uris": {"ios": "https://dc.lft.to/lastmile_qr_scan", "android": "https://dc.lft.to/lastmile_qr_scan"}}, {"name": "e6eac5775de603c44ea0011ab7cc55d7", "fusion_lat": 0.0, "type": "electric_scooter", "lat": 38.8837, "is_reserved": 0, "is_disabled": 0, "fusion_lon": 0.0, "bike_id": "e6eac5775de603c44ea0011ab7cc55d7", "lon": -77.02635166666667, "rental_uris": {"ios": "https://dc.lft.to/lastmile_qr_scan", "android": "https://dc.lft.to/lastmile_qr_scan"}}, {"name": "e3f9dd7b7af4cd57abaf5da80f4a756a", "fusion_lat": 0.0, "type": "electric_bike", "lat": 38.9332565, "is_reserved": 0, "is_disabled": 0, "fusion_lon": 0.0, "bike_id": "e3f9dd7b7af4cd57abaf5da80f4a756a", "lon": -77.0361875, "rental_uris": {"ios": "https://dc.lft.to/lastmile_qr_scan", "android": "https://dc.lft.to/lastmile_qr_scan"}}, {"name": "dedabe3b97189df6cf91d3a5fd6ea69c", "fusion_lat": 0.0, "type": "electric_scooter", "lat": 38.91072166666667, "is_reserved": 0, "is_disabled": 0, "fusion_lon": 0.0, "bike_id": "dedabe3b97189df6cf91d3a5fd6ea69c", "lon": -77.06715383333334, "rental_uris": {"ios": "https://dc.lft.to/lastmile_qr_scan", "android": "https://dc.lft.to/lastmile_qr_scan"}}, {"name": "27ab73402b72626ac4e471b11e9861c6", "fusion_lat": 0.0, "type": "electric_scooter", "lat": 38.909623, "is_reserved": 0, "is_disabled": 0, "fusion_lon": 0.0, "bike_id": "27ab73402b72626ac4e471b11e9861c6", "lon": -77.03878866666666, "rental_uris": {"ios": "https://dc.lft.to/lastmile_qr_scan", "android": "https://dc.lft.to/lastmile_qr_scan"}}, {"name": "e0b5d5df56ac26589bb21e0691d57394", "fusion_lat": 0.0, "type": "electric_scooter", "lat": 38.872898166666666, "is_reserved": 0, "is_disabled": 0, "fusion_lon": 0.0, "bike_id": "e0b5d5df56ac26589bb21e0691d57394", "lon": -77.0098585, "rental_uris": {"ios": "https://dc.lft.to/lastmile_qr_scan", "android": "https://dc.lft.to/lastmile_qr_scan"}}, {"name": "f0b28037d9cc6ec37a78f24fc40fd98e", "fusion_lat": 0.0, "type": "electric_scooter", "lat": 38.9847225, "is_reserved": 0, "is_disabled": 0, "fusion_lon": 0.0, "bike_id": "f0b28037d9cc6ec37a78f24fc40fd98e", "lon": -77.02644183333334, "rental_uris": {"ios": "https://dc.lft.to/lastmile_qr_scan", "android": "https://dc.lft.to/lastmile_qr_scan"}}, {"name": "3f8993284a65eec0e4f08a21d7d20e6d", "fusion_lat": 0.0, "type": "electric_scooter", "lat": 38.91295133333333, "is_reserved": 0, "is_disabled": 0, "fusion_lon": 0.0, "bike_id": "3f8993284a65eec0e4f08a21d7d20e6d", "lon": -77.06161166666666, "rental_uris": {"ios": "https://dc.lft.to/lastmile_qr_scan", "android": "https://dc.lft.to/lastmile_qr_scan"}}, {"name": "7b1a83e5fbeb65cf2d2f89c4db0614d5", "fusion_lat": 0.0, "type": "electric_scooter", "lat": 38.91802666666667, "is_reserved": 0, "is_disabled": 0, "fusion_lon": 0.0, "bike_id": "7b1a83e5fbeb65cf2d2f89c4db0614d5", "lon": -77.0230625, "rental_uris": {"ios": "https://dc.lft.to/lastmile_qr_scan", "android": "https://dc.lft.to/lastmile_qr_scan"}}, {"name": "42c5acb378fa20d6e584de57eebe589e", "fusion_lat": 0.0, "type": "electric_scooter", "lat": 38.881257, "is_reserved": 0, "is_disabled": 0, "fusion_lon": 0.0, "bike_id": "42c5acb378fa20d6e584de57eebe589e", "lon": -77.01337666666667, "rental_uris": {"ios": "https://dc.lft.to/lastmile_qr_scan", "android": "https://dc.lft.to/lastmile_qr_scan"}}, {"name": "3fa87a62b282b8838a4f7925019b64a6", "fusion_lat": 0.0, "type": "electric_scooter", "lat": 38.866613666666666, "is_reserved": 0, "is_disabled": 0, "fusion_lon": 0.0, "bike_id": "3fa87a62b282b8838a4f7925019b64a6", "lon": -76.98881083333333, "rental_uris": {"ios": "https://dc.lft.to/lastmile_qr_scan", "android": "https://dc.lft.to/lastmile_qr_scan"}}, {"name": "e79ec8c63dca102e6234bf30ed361fa9", "fusion_lat": 0.0, "type": "electric_scooter", "lat": 38.91307716666667, "is_reserved": 0, "is_disabled": 0, "fusion_lon": 0.0, "bike_id": "e79ec8c63dca102e6234bf30ed361fa9", "lon": -77.020295, "rental_uris": {"ios": "https://dc.lft.to/lastmile_qr_scan", "android": "https://dc.lft.to/lastmile_qr_scan"}}, {"name": "68e7710837306af5f0b7fae1fb02f66c", "fusion_lat": 0.0, "type": "electric_scooter", "lat": 38.8974665, "is_reserved": 0, "is_disabled": 0, "fusion_lon": 0.0, "bike_id": "68e7710837306af5f0b7fae1fb02f66c", "lon": -77.00948783333334, "rental_uris": {"ios": "https://dc.lft.to/lastmile_qr_scan", "android": "https://dc.lft.to/lastmile_qr_scan"}}, {"name": "e85d3d44917765a8f4b1bf4a0b8821a6", "fusion_lat": 0.0, "type": "electric_bike", "lat": 38.93415783333333, "is_reserved": 0, "is_disabled": 0, "fusion_lon": 0.0, "bike_id": "e85d3d44917765a8f4b1bf4a0b8821a6", "lon": -77.02515516666666, "rental_uris": {"ios": "https://dc.lft.to/lastmile_qr_scan", "android": "https://dc.lft.to/lastmile_qr_scan"}}, {"name": "44ff8fa6b80cf0987a9924a1172ed005", "fusion_lat": 0.0, "type": "electric_scooter", "lat": 38.90314216666667, "is_reserved": 0, "is_disabled": 0, "fusion_lon": 0.0, "bike_id": "44ff8fa6b80cf0987a9924a1172ed005", "lon": -76.9779765, "rental_uris": {"ios": "https://dc.lft.to/lastmile_qr_scan", "android": "https://dc.lft.to/lastmile_qr_scan"}}, {"name": "93d6b133db3f63d065e4cdbc3fc95f8e", "fusion_lat": 0.0, "type": "electric_scooter", "lat": 38.904435166666666, "is_reserved": 0, "is_disabled": 0, "fusion_lon": 0.0, "bike_id": "93d6b133db3f63d065e4cdbc3fc95f8e", "lon": -76.9755485, "rental_uris": {"ios": "https://dc.lft.to/lastmile_qr_scan", "android": "https://dc.lft.to/lastmile_qr_scan"}}, {"name": "826bc93ed725d1354f734125a3f19c42", "fusion_lat": 0.0, "type": "electric_bike", "lat": 38.880843166666665, "is_reserved": 0, "is_disabled": 0, "fusion_lon": 0.0, "bike_id": "826bc93ed725d1354f734125a3f19c42", "lon": -76.985339, "rental_uris": {"ios": "https://dc.lft.to/lastmile_qr_scan", "android": "https://dc.lft.to/lastmile_qr_scan"}}, {"name": "1cf55264559146a7387345a8bdf4362d", "fusion_lat": 0.0, "type": "electric_scooter", "lat": 38.9094965, "is_reserved": 0, "is_disabled": 0, "fusion_lon": 0.0, "bike_id": "1cf55264559146a7387345a8bdf4362d", "lon": -77.02763216666666, "rental_uris": {"ios": "https://dc.lft.to/lastmile_qr_scan", "android": "https://dc.lft.to/lastmile_qr_scan"}}, {"name": "0e82d66dd9090a1933cc9fd4f247f4be", "fusion_lat": 0.0, "type": "electric_bike", "lat": 39.038643, "is_reserved": 0, "is_disabled": 0, "fusion_lon": 0.0, "bike_id": "0e82d66dd9090a1933cc9fd4f247f4be", "lon": -76.9903015, "rental_uris": {"ios": "https://dc.lft.to/lastmile_qr_scan", "android": "https://dc.lft.to/lastmile_qr_scan"}}, {"name": "53b49de7a4774a12168e2a186d572315", "fusion_lat": 0.0, "type": "electric_scooter", "lat": 38.92147033333333, "is_reserved": 0, "is_disabled": 0, "fusion_lon": 0.0, "bike_id": "53b49de7a4774a12168e2a186d572315", "lon": -77.0350995, "rental_uris": {"ios": "https://dc.lft.to/lastmile_qr_scan", "android": "https://dc.lft.to/lastmile_qr_scan"}}, {"name": "8fd8bd171d4595c8d4cffda6b47c7ac1", "fusion_lat": 0.0, "type": "electric_scooter", "lat": 38.90578516666667, "is_reserved": 0, "is_disabled": 0, "fusion_lon": 0.0, "bike_id": "8fd8bd171d4595c8d4cffda6b47c7ac1", "lon": -77.02599233333333, "rental_uris": {"ios": "https://dc.lft.to/lastmile_qr_scan", "android": "https://dc.lft.to/lastmile_qr_scan"}}, {"name": "369334d8d971962f6b824ff384d6538e", "fusion_lat": 0.0, "type": "electric_scooter", "lat": 38.90353066666667, "is_reserved": 0, "is_disabled": 0, "fusion_lon": 0.0, "bike_id": "369334d8d971962f6b824ff384d6538e", "lon": -77.05342033333334, "rental_uris": {"ios": "https://dc.lft.to/lastmile_qr_scan", "android": "https://dc.lft.to/lastmile_qr_scan"}}, {"name": "76725043447a42739bbafb3f769ca7e3", "fusion_lat": 0.0, "type": "electric_scooter", "lat": 38.92826216666667, "is_reserved": 0, "is_disabled": 0, "fusion_lon": 0.0, "bike_id": "76725043447a42739bbafb3f769ca7e3", "lon": -77.02254883333333, "rental_uris": {"ios": "https://dc.lft.to/lastmile_qr_scan", "android": "https://dc.lft.to/lastmile_qr_scan"}}, {"name": "b6c7f9718e934272d089aaa7873280d3", "fusion_lat": 0.0, "type": "electric_scooter", "lat": 38.8758015, "is_reserved": 0, "is_disabled": 0, "fusion_lon": 0.0, "bike_id": "b6c7f9718e934272d089aaa7873280d3", "lon": -77.01057416666667, "rental_uris": {"ios": "https://dc.lft.to/lastmile_qr_scan", "android": "https://dc.lft.to/lastmile_qr_scan"}}, {"name": "f60d2b60e5e3cac411196e77f476a961", "fusion_lat": 0.0, "type": "electric_scooter", "lat": 38.91295133333333, "is_reserved": 0, "is_disabled": 0, "fusion_lon": 0.0, "bike_id": "f60d2b60e5e3cac411196e77f476a961", "lon": -76.93751166666667, "rental_uris": {"ios": "https://dc.lft.to/lastmile_qr_scan", "android": "https://dc.lft.to/lastmile_qr_scan"}}, {"name": "5c8e8fe8158cb7e5628068dfb8af4019", "fusion_lat": 0.0, "type": "electric_scooter", "lat": 38.929632833333336, "is_reserved": 0, "is_disabled": 0, "fusion_lon": 0.0, "bike_id": "5c8e8fe8158cb7e5628068dfb8af4019", "lon": -77.041076, "rental_uris": {"ios": "https://dc.lft.to/lastmile_qr_scan", "android": "https://dc.lft.to/lastmile_qr_scan"}}, {"name": "7436af02c5749e46043d4e124f4f8149", "fusion_lat": 0.0, "type": "electric_scooter", "lat": 38.9140645, "is_reserved": 0, "is_disabled": 0, "fusion_lon": 0.0, "bike_id": "7436af02c5749e46043d4e124f4f8149", "lon": -77.03953283333334, "rental_uris": {"ios": "https://dc.lft.to/lastmile_qr_scan", "android": "https://dc.lft.to/lastmile_qr_scan"}}, {"name": "a32adcec5d92404eedc1d74e3f8c38cd", "fusion_lat": 0.0, "type": "electric_scooter", "lat": 38.90256633333333, "is_reserved": 0, "is_disabled": 0, "fusion_lon": 0.0, "bike_id": "a32adcec5d92404eedc1d74e3f8c38cd", "lon": -76.977062, "rental_uris": {"ios": "https://dc.lft.to/lastmile_qr_scan", "android": "https://dc.lft.to/lastmile_qr_scan"}}, {"name": "f835b775a0baac3ec1c02f83c3addb95", "fusion_lat": 0.0, "type": "electric_scooter", "lat": 38.919894, "is_reserved": 0, "is_disabled": 0, "fusion_lon": 0.0, "bike_id": "f835b775a0baac3ec1c02f83c3addb95", "lon": -77.02402933333333, "rental_uris": {"ios": "https://dc.lft.to/lastmile_qr_scan", "android": "https://dc.lft.to/lastmile_qr_scan"}}, {"name": "5c469494bee92d7d798fd80f43b7fb46", "fusion_lat": 0.0, "type": "electric_scooter", "lat": 38.91762466666667, "is_reserved": 0, "is_disabled": 0, "fusion_lon": 0.0, "bike_id": "5c469494bee92d7d798fd80f43b7fb46", "lon": -77.096668, "rental_uris": {"ios": "https://dc.lft.to/lastmile_qr_scan", "android": "https://dc.lft.to/lastmile_qr_scan"}}, {"name": "c89d67c7d1dcb2324ade157eaeec8126", "fusion_lat": 0.0, "type": "electric_scooter", "lat": 38.8665925, "is_reserved": 0, "is_disabled": 0, "fusion_lon": 0.0, "bike_id": "c89d67c7d1dcb2324ade157eaeec8126", "lon": -76.98882616666667, "rental_uris": {"ios": "https://dc.lft.to/lastmile_qr_scan", "android": "https://dc.lft.to/lastmile_qr_scan"}}, {"name": "104061b82bcde263ef52c0006cff2d5b", "fusion_lat": 0.0, "type": "electric_scooter", "lat": 38.89605616666667, "is_reserved": 0, "is_disabled": 0, "fusion_lon": 0.0, "bike_id": "104061b82bcde263ef52c0006cff2d5b", "lon": -77.04466916666667, "rental_uris": {"ios": "https://dc.lft.to/lastmile_qr_scan", "android": "https://dc.lft.to/lastmile_qr_scan"}}, {"name": "831afd728966aea1d3a2c55d59e30751", "fusion_lat": 0.0, "type": "electric_bike", "lat": 38.8935135, "is_reserved": 0, "is_disabled": 0, "fusion_lon": 0.0, "bike_id": "831afd728966aea1d3a2c55d59e30751", "lon": -76.991382, "rental_uris": {"ios": "https://dc.lft.to/lastmile_qr_scan", "android": "https://dc.lft.to/lastmile_qr_scan"}}, {"name": "aceeb9352ba8fe05110c0094b237c205", "fusion_lat": 0.0, "type": "electric_scooter", "lat": 38.90800183333333, "is_reserved": 0, "is_disabled": 0, "fusion_lon": 0.0, "bike_id": "aceeb9352ba8fe05110c0094b237c205", "lon": -77.01815316666666, "rental_uris": {"ios": "https://dc.lft.to/lastmile_qr_scan", "android": "https://dc.lft.to/lastmile_qr_scan"}}, {"name": "6a5bc3030a71dc17f1968082fe40f523", "fusion_lat": 0.0, "type": "electric_scooter", "lat": 38.911175, "is_reserved": 0, "is_disabled": 0, "fusion_lon": 0.0, "bike_id": "6a5bc3030a71dc17f1968082fe40f523", "lon": -77.02465016666666, "rental_uris": {"ios": "https://dc.lft.to/lastmile_qr_scan", "android": "https://dc.lft.to/lastmile_qr_scan"}}, {"name": "e6223bafba02b1ac7aef3abf80b176f6", "fusion_lat": 0.0, "type": "electric_scooter", "lat": 38.9114815, "is_reserved": 0, "is_disabled": 0, "fusion_lon": 0.0, "bike_id": "e6223bafba02b1ac7aef3abf80b176f6", "lon": -77.01686, "rental_uris": {"ios": "https://dc.lft.to/lastmile_qr_scan", "android": "https://dc.lft.to/lastmile_qr_scan"}}, {"name": "5f2914970a9b9f7a4e481748b29c1f9d", "fusion_lat": 0.0, "type": "electric_scooter", "lat": 38.923438166666664, "is_reserved": 0, "is_disabled": 0, "fusion_lon": 0.0, "bike_id": "5f2914970a9b9f7a4e481748b29c1f9d", "lon": -77.05443016666666, "rental_uris": {"ios": "https://dc.lft.to/lastmile_qr_scan", "android": "https://dc.lft.to/lastmile_qr_scan"}}, {"name": "9031e8043ac40e1e6e527fc7fdc32378", "fusion_lat": 0.0, "type": "electric_scooter", "lat": 38.93060666666667, "is_reserved": 0, "is_disabled": 0, "fusion_lon": 0.0, "bike_id": "9031e8043ac40e1e6e527fc7fdc32378", "lon": -77.0232005, "rental_uris": {"ios": "https://dc.lft.to/lastmile_qr_scan", "android": "https://dc.lft.to/lastmile_qr_scan"}}, {"name": "b2dbca133f8a7d22a7848b2ff657b338", "fusion_lat": 0.0, "type": "electric_scooter", "lat": 38.894087999999996, "is_reserved": 0, "is_disabled": 0, "fusion_lon": 0.0, "bike_id": "b2dbca133f8a7d22a7848b2ff657b338", "lon": -76.93239783333334, "rental_uris": {"ios": "https://dc.lft.to/lastmile_qr_scan", "android": "https://dc.lft.to/lastmile_qr_scan"}}, {"name": "aa5431f8f39539d1979e5d7507d33cd1", "fusion_lat": 0.0, "type": "electric_scooter", "lat": 38.93209516666667, "is_reserved": 0, "is_disabled": 0, "fusion_lon": 0.0, "bike_id": "aa5431f8f39539d1979e5d7507d33cd1", "lon": -77.03665983333333, "rental_uris": {"ios": "https://dc.lft.to/lastmile_qr_scan", "android": "https://dc.lft.to/lastmile_qr_scan"}}, {"name": "11fe0f8cc188670baf9f48f661775a77", "fusion_lat": 0.0, "type": "electric_scooter", "lat": 38.85813266666667, "is_reserved": 0, "is_disabled": 0, "fusion_lon": 0.0, "bike_id": "11fe0f8cc188670baf9f48f661775a77", "lon": -76.99108466666667, "rental_uris": {"ios": "https://dc.lft.to/lastmile_qr_scan", "android": "https://dc.lft.to/lastmile_qr_scan"}}, {"name": "252f5971cc73ac5373d9c0348a7808b5", "fusion_lat": 0.0, "type": "electric_scooter", "lat": 38.917499166666666, "is_reserved": 0, "is_disabled": 0, "fusion_lon": 0.0, "bike_id": "252f5971cc73ac5373d9c0348a7808b5", "lon": -77.03181533333333, "rental_uris": {"ios": "https://dc.lft.to/lastmile_qr_scan", "android": "https://dc.lft.to/lastmile_qr_scan"}}, {"name": "4d6f2720f035dd17555281ffe759277b", "fusion_lat": 0.0, "type": "electric_bike", "lat": 39.003798, "is_reserved": 0, "is_disabled": 0, "fusion_lon": 0.0, "bike_id": "4d6f2720f035dd17555281ffe759277b", "lon": -77.01301916666667, "rental_uris": {"ios": "https://dc.lft.to/lastmile_qr_scan", "android": "https://dc.lft.to/lastmile_qr_scan"}}, {"name": "7928a75ddd60ad3c3f45673aa9dc79ab", "fusion_lat": 0.0, "type": "electric_scooter", "lat": 38.90419266666667, "is_reserved": 0, "is_disabled": 0, "fusion_lon": 0.0, "bike_id": "7928a75ddd60ad3c3f45673aa9dc79ab", "lon": -76.9906705, "rental_uris": {"ios": "https://dc.lft.to/lastmile_qr_scan", "android": "https://dc.lft.to/lastmile_qr_scan"}}, {"name": "b53cbaec9c7d784d5ea601fc281523ac", "fusion_lat": 0.0, "type": "electric_bike", "lat": 38.931303666666665, "is_reserved": 0, "is_disabled": 0, "fusion_lon": 0.0, "bike_id": "b53cbaec9c7d784d5ea601fc281523ac", "lon": -77.02031716666667, "rental_uris": {"ios": "https://dc.lft.to/lastmile_qr_scan", "android": "https://dc.lft.to/lastmile_qr_scan"}}, {"name": "d43b9e558a138a5db54255397580835e", "fusion_lat": 0.0, "type": "electric_bike", "lat": 38.80793716666667, "is_reserved": 0, "is_disabled": 0, "fusion_lon": 0.0, "bike_id": "d43b9e558a138a5db54255397580835e", "lon": -77.12963216666667, "rental_uris": {"ios": "https://dc.lft.to/lastmile_qr_scan", "android": "https://dc.lft.to/lastmile_qr_scan"}}, {"name": "f2e39d9006de4384b2d2552318d24224", "fusion_lat": 0.0, "type": "electric_bike", "lat": 38.85211833333334, "is_reserved": 0, "is_disabled": 0, "fusion_lon": 0.0, "bike_id": "f2e39d9006de4384b2d2552318d24224", "lon": -77.04644183333333, "rental_uris": {"ios": "https://dc.lft.to/lastmile_qr_scan", "android": "https://dc.lft.to/lastmile_qr_scan"}}, {"name": "2be915c9d49b7c18d5c16f04a9caaed3", "fusion_lat": 0.0, "type": "electric_scooter", "lat": 38.90620283333333, "is_reserved": 0, "is_disabled": 0, "fusion_lon": 0.0, "bike_id": "2be915c9d49b7c18d5c16f04a9caaed3", "lon": -77.00587933333334, "rental_uris": {"ios": "https://dc.lft.to/lastmile_qr_scan", "android": "https://dc.lft.to/lastmile_qr_scan"}}, {"name": "507ddd0ebefec23e3f44defc59688540", "fusion_lat": 0.0, "type": "electric_scooter", "lat": 38.87806716666667, "is_reserved": 0, "is_disabled": 0, "fusion_lon": 0.0, "bike_id": "507ddd0ebefec23e3f44defc59688540", "lon": -77.00587316666666, "rental_uris": {"ios": "https://dc.lft.to/lastmile_qr_scan", "android": "https://dc.lft.to/lastmile_qr_scan"}}, {"name": "a4843f79fd213b8c126ed95ea5febcf9", "fusion_lat": 0.0, "type": "electric_scooter", "lat": 38.92763166666667, "is_reserved": 0, "is_disabled": 0, "fusion_lon": 0.0, "bike_id": "a4843f79fd213b8c126ed95ea5febcf9", "lon": -77.02789916666667, "rental_uris": {"ios": "https://dc.lft.to/lastmile_qr_scan", "android": "https://dc.lft.to/lastmile_qr_scan"}}, {"name": "7f1a4ba16f2195db0a1d9741baeb6c82", "fusion_lat": 0.0, "type": "electric_bike", "lat": 38.957156166666664, "is_reserved": 0, "is_disabled": 0, "fusion_lon": 0.0, "bike_id": "7f1a4ba16f2195db0a1d9741baeb6c82", "lon": -77.0151875, "rental_uris": {"ios": "https://dc.lft.to/lastmile_qr_scan", "android": "https://dc.lft.to/lastmile_qr_scan"}}, {"name": "7048127559c6fa2731d3b140f93216d7", "fusion_lat": 0.0, "type": "electric_scooter", "lat": 38.94705233333333, "is_reserved": 0, "is_disabled": 0, "fusion_lon": 0.0, "bike_id": "7048127559c6fa2731d3b140f93216d7", "lon": -77.019416, "rental_uris": {"ios": "https://dc.lft.to/lastmile_qr_scan", "android": "https://dc.lft.to/lastmile_qr_scan"}}, {"name": "51935e8b5062e6bf22520473e95714ab", "fusion_lat": 0.0, "type": "electric_scooter", "lat": 38.92371983333334, "is_reserved": 0, "is_disabled": 0, "fusion_lon": 0.0, "bike_id": "51935e8b5062e6bf22520473e95714ab", "lon": -77.03161766666666, "rental_uris": {"ios": "https://dc.lft.to/lastmile_qr_scan", "android": "https://dc.lft.to/lastmile_qr_scan"}}, {"name": "bfc3849e898c13279f6fc0bac29e241a", "fusion_lat": 0.0, "type": "electric_scooter", "lat": 38.959101833333335, "is_reserved": 0, "is_disabled": 0, "fusion_lon": 0.0, "bike_id": "bfc3849e898c13279f6fc0bac29e241a", "lon": -77.08074716666667, "rental_uris": {"ios": "https://dc.lft.to/lastmile_qr_scan", "android": "https://dc.lft.to/lastmile_qr_scan"}}, {"name": "3559585a5739ac9d640f4fc1285e97e5", "fusion_lat": 0.0, "type": "electric_scooter", "lat": 38.90079183333334, "is_reserved": 0, "is_disabled": 0, "fusion_lon": 0.0, "bike_id": "3559585a5739ac9d640f4fc1285e97e5", "lon": -77.0520275, "rental_uris": {"ios": "https://dc.lft.to/lastmile_qr_scan", "android": "https://dc.lft.to/lastmile_qr_scan"}}, {"name": "55f86db402984aa820c9bc5a747dfad3", "fusion_lat": 0.0, "type": "electric_scooter", "lat": 38.91774233333334, "is_reserved": 0, "is_disabled": 0, "fusion_lon": 0.0, "bike_id": "55f86db402984aa820c9bc5a747dfad3", "lon": -77.02953366666667, "rental_uris": {"ios": "https://dc.lft.to/lastmile_qr_scan", "android": "https://dc.lft.to/lastmile_qr_scan"}}, {"name": "ac36b5ccbbf6bbd6020d3a307b854e38", "fusion_lat": 0.0, "type": "electric_bike", "lat": 38.9683385, "is_reserved": 0, "is_disabled": 0, "fusion_lon": 0.0, "bike_id": "ac36b5ccbbf6bbd6020d3a307b854e38", "lon": -77.0333225, "rental_uris": {"ios": "https://dc.lft.to/lastmile_qr_scan", "android": "https://dc.lft.to/lastmile_qr_scan"}}, {"name": "95a0437173d5e393639d21421173cf84", "fusion_lat": 0.0, "type": "electric_scooter", "lat": 38.87500816666667, "is_reserved": 0, "is_disabled": 0, "fusion_lon": 0.0, "bike_id": "95a0437173d5e393639d21421173cf84", "lon": -77.00172216666667, "rental_uris": {"ios": "https://dc.lft.to/lastmile_qr_scan", "android": "https://dc.lft.to/lastmile_qr_scan"}}, {"name": "d700dd40220c6c4b2357f2561da44b67", "fusion_lat": 0.0, "type": "electric_scooter", "lat": 38.89907733333333, "is_reserved": 0, "is_disabled": 0, "fusion_lon": 0.0, "bike_id": "d700dd40220c6c4b2357f2561da44b67", "lon": -77.03920766666667, "rental_uris": {"ios": "https://dc.lft.to/lastmile_qr_scan", "android": "https://dc.lft.to/lastmile_qr_scan"}}, {"name": "9295bdb1e402dd637a91aa9350ac45e0", "fusion_lat": 0.0, "type": "electric_scooter", "lat": 38.895565500000004, "is_reserved": 0, "is_disabled": 0, "fusion_lon": 0.0, "bike_id": "9295bdb1e402dd637a91aa9350ac45e0", "lon": -77.01094183333333, "rental_uris": {"ios": "https://dc.lft.to/lastmile_qr_scan", "android": "https://dc.lft.to/lastmile_qr_scan"}}, {"name": "24565bb45b1c34c39ceb310e9e7187c5", "fusion_lat": 0.0, "type": "electric_scooter", "lat": 38.912245, "is_reserved": 0, "is_disabled": 0, "fusion_lon": 0.0, "bike_id": "24565bb45b1c34c39ceb310e9e7187c5", "lon": -77.04476666666666, "rental_uris": {"ios": "https://dc.lft.to/lastmile_qr_scan", "android": "https://dc.lft.to/lastmile_qr_scan"}}, {"name": "c6e90f8e997125d4c92fc3a00a72c030", "fusion_lat": 0.0, "type": "electric_scooter", "lat": 38.9320715, "is_reserved": 0, "is_disabled": 0, "fusion_lon": 0.0, "bike_id": "c6e90f8e997125d4c92fc3a00a72c030", "lon": -77.02736433333334, "rental_uris": {"ios": "https://dc.lft.to/lastmile_qr_scan", "android": "https://dc.lft.to/lastmile_qr_scan"}}, {"name": "83b5373368b260497ab7d710dbe54cf9", "fusion_lat": 0.0, "type": "electric_scooter", "lat": 38.89928366666667, "is_reserved": 0, "is_disabled": 0, "fusion_lon": 0.0, "bike_id": "83b5373368b260497ab7d710dbe54cf9", "lon": -77.030872, "rental_uris": {"ios": "https://dc.lft.to/lastmile_qr_scan", "android": "https://dc.lft.to/lastmile_qr_scan"}}, {"name": "24e4d13c508b87d7bfdb8959af61fcd9", "fusion_lat": 0.0, "type": "electric_scooter", "lat": 38.93066966666667, "is_reserved": 0, "is_disabled": 0, "fusion_lon": 0.0, "bike_id": "24e4d13c508b87d7bfdb8959af61fcd9", "lon": -77.03953866666667, "rental_uris": {"ios": "https://dc.lft.to/lastmile_qr_scan", "android": "https://dc.lft.to/lastmile_qr_scan"}}, {"name": "6428ae1eced6dcfdd78774ed7b10994b", "fusion_lat": 0.0, "type": "electric_scooter", "lat": 38.90338216666667, "is_reserved": 0, "is_disabled": 0, "fusion_lon": 0.0, "bike_id": "6428ae1eced6dcfdd78774ed7b10994b", "lon": -77.04180583333333, "rental_uris": {"ios": "https://dc.lft.to/lastmile_qr_scan", "android": "https://dc.lft.to/lastmile_qr_scan"}}, {"name": "12a9118d0daf5bf68290117c86eb0d96", "fusion_lat": 0.0, "type": "electric_scooter", "lat": 38.913462, "is_reserved": 0, "is_disabled": 0, "fusion_lon": 0.0, "bike_id": "12a9118d0daf5bf68290117c86eb0d96", "lon": -77.03119316666667, "rental_uris": {"ios": "https://dc.lft.to/lastmile_qr_scan", "android": "https://dc.lft.to/lastmile_qr_scan"}}, {"name": "9e1f05c30b86116e1fe4b933abc06c5f", "fusion_lat": 0.0, "type": "electric_scooter", "lat": 38.89605133333333, "is_reserved": 0, "is_disabled": 0, "fusion_lon": 0.0, "bike_id": "9e1f05c30b86116e1fe4b933abc06c5f", "lon": -77.0469175, "rental_uris": {"ios": "https://dc.lft.to/lastmile_qr_scan", "android": "https://dc.lft.to/lastmile_qr_scan"}}, {"name": "060d00d6459ea0d3db868422057fbda8", "fusion_lat": 0.0, "type": "electric_scooter", "lat": 38.9125145, "is_reserved": 0, "is_disabled": 0, "fusion_lon": 0.0, "bike_id": "060d00d6459ea0d3db868422057fbda8", "lon": -77.03210583333333, "rental_uris": {"ios": "https://dc.lft.to/lastmile_qr_scan", "android": "https://dc.lft.to/lastmile_qr_scan"}}, {"name": "1e3af0f252dbabaad73783b894a4ae1e", "fusion_lat": 0.0, "type": "electric_scooter", "lat": 38.9169555, "is_reserved": 0, "is_disabled": 0, "fusion_lon": 0.0, "bike_id": "1e3af0f252dbabaad73783b894a4ae1e", "lon": -77.023042, "rental_uris": {"ios": "https://dc.lft.to/lastmile_qr_scan", "android": "https://dc.lft.to/lastmile_qr_scan"}}, {"name": "9b252f46fa959784b882e25629ed1352", "fusion_lat": 0.0, "type": "electric_scooter", "lat": 38.88825816666667, "is_reserved": 0, "is_disabled": 0, "fusion_lon": 0.0, "bike_id": "9b252f46fa959784b882e25629ed1352", "lon": -77.04937333333334, "rental_uris": {"ios": "https://dc.lft.to/lastmile_qr_scan", "android": "https://dc.lft.to/lastmile_qr_scan"}}, {"name": "e48a3dd1ab894ace6ea8265863b0c62e", "fusion_lat": 0.0, "type": "electric_bike", "lat": 38.9154835, "is_reserved": 0, "is_disabled": 0, "fusion_lon": 0.0, "bike_id": "e48a3dd1ab894ace6ea8265863b0c62e", "lon": -77.06777866666667, "rental_uris": {"ios": "https://dc.lft.to/lastmile_qr_scan", "android": "https://dc.lft.to/lastmile_qr_scan"}}, {"name": "bb165002e0974d2eb984ea08009427d1", "fusion_lat": 0.0, "type": "electric_scooter", "lat": 38.91068833333333, "is_reserved": 0, "is_disabled": 0, "fusion_lon": 0.0, "bike_id": "bb165002e0974d2eb984ea08009427d1", "lon": -77.0085235, "rental_uris": {"ios": "https://dc.lft.to/lastmile_qr_scan", "android": "https://dc.lft.to/lastmile_qr_scan"}}, {"name": "8e5d49a892628ba9bbab20b08afab863", "fusion_lat": 0.0, "type": "electric_scooter", "lat": 38.920292833333335, "is_reserved": 0, "is_disabled": 0, "fusion_lon": 0.0, "bike_id": "8e5d49a892628ba9bbab20b08afab863", "lon": -77.03133966666667, "rental_uris": {"ios": "https://dc.lft.to/lastmile_qr_scan", "android": "https://dc.lft.to/lastmile_qr_scan"}}, {"name": "11d7f59b208e077690cdb537856c9fa6", "fusion_lat": 0.0, "type": "electric_bike", "lat": 38.86381983333333, "is_reserved": 0, "is_disabled": 0, "fusion_lon": 0.0, "bike_id": "11d7f59b208e077690cdb537856c9fa6", "lon": -77.1289935, "rental_uris": {"ios": "https://dc.lft.to/lastmile_qr_scan", "android": "https://dc.lft.to/lastmile_qr_scan"}}, {"name": "c76b2c5088b6eb6389afb32eaab0bcca", "fusion_lat": 0.0, "type": "electric_bike", "lat": 38.92707766666667, "is_reserved": 0, "is_disabled": 0, "fusion_lon": 0.0, "bike_id": "c76b2c5088b6eb6389afb32eaab0bcca", "lon": -77.02277116666667, "rental_uris": {"ios": "https://dc.lft.to/lastmile_qr_scan", "android": "https://dc.lft.to/lastmile_qr_scan"}}, {"name": "d2c8cf184b08ff2f5bd0a851b8a5a5bb", "fusion_lat": 0.0, "type": "electric_bike", "lat": 38.970933333333335, "is_reserved": 0, "is_disabled": 0, "fusion_lon": 0.0, "bike_id": "d2c8cf184b08ff2f5bd0a851b8a5a5bb", "lon": -77.06967983333334, "rental_uris": {"ios": "https://dc.lft.to/lastmile_qr_scan", "android": "https://dc.lft.to/lastmile_qr_scan"}}, {"name": "f318b21a85b98793ae1b1210d60606ca", "fusion_lat": 0.0, "type": "electric_scooter", "lat": 38.92625733333333, "is_reserved": 0, "is_disabled": 0, "fusion_lon": 0.0, "bike_id": "f318b21a85b98793ae1b1210d60606ca", "lon": -77.03772066666667, "rental_uris": {"ios": "https://dc.lft.to/lastmile_qr_scan", "android": "https://dc.lft.to/lastmile_qr_scan"}}, {"name": "01f5cf31cf51fe7bbdb4b0066e0b7413", "fusion_lat": 0.0, "type": "electric_scooter", "lat": 38.89242383333333, "is_reserved": 0, "is_disabled": 0, "fusion_lon": 0.0, "bike_id": "01f5cf31cf51fe7bbdb4b0066e0b7413", "lon": -77.0152655, "rental_uris": {"ios": "https://dc.lft.to/lastmile_qr_scan", "android": "https://dc.lft.to/lastmile_qr_scan"}}, {"name": "f4d3ffcdf97cdeb12e22c52c1a551ee9", "fusion_lat": 0.0, "type": "electric_scooter", "lat": 38.932712, "is_reserved": 0, "is_disabled": 0, "fusion_lon": 0.0, "bike_id": "f4d3ffcdf97cdeb12e22c52c1a551ee9", "lon": -77.0390035, "rental_uris": {"ios": "https://dc.lft.to/lastmile_qr_scan", "android": "https://dc.lft.to/lastmile_qr_scan"}}, {"name": "3bcf02cd38d08fce808fa5f698a1ef9b", "fusion_lat": 0.0, "type": "electric_scooter", "lat": 38.904081166666664, "is_reserved": 0, "is_disabled": 0, "fusion_lon": 0.0, "bike_id": "3bcf02cd38d08fce808fa5f698a1ef9b", "lon": -77.06431233333333, "rental_uris": {"ios": "https://dc.lft.to/lastmile_qr_scan", "android": "https://dc.lft.to/lastmile_qr_scan"}}, {"name": "d7550d1040508c5d9e533c3969c3cc56", "fusion_lat": 0.0, "type": "electric_scooter", "lat": 38.936143333333334, "is_reserved": 0, "is_disabled": 0, "fusion_lon": 0.0, "bike_id": "d7550d1040508c5d9e533c3969c3cc56", "lon": -77.0321085, "rental_uris": {"ios": "https://dc.lft.to/lastmile_qr_scan", "android": "https://dc.lft.to/lastmile_qr_scan"}}, {"name": "b58a69a29a58f446675413ec99e760dd", "fusion_lat": 0.0, "type": "electric_scooter", "lat": 38.906984666666666, "is_reserved": 0, "is_disabled": 0, "fusion_lon": 0.0, "bike_id": "b58a69a29a58f446675413ec99e760dd", "lon": -77.02400233333333, "rental_uris": {"ios": "https://dc.lft.to/lastmile_qr_scan", "android": "https://dc.lft.to/lastmile_qr_scan"}}, {"name": "a45621d30b2c2d86cc91a9fe4e064963", "fusion_lat": 0.0, "type": "electric_scooter", "lat": 38.91181983333333, "is_reserved": 0, "is_disabled": 0, "fusion_lon": 0.0, "bike_id": "a45621d30b2c2d86cc91a9fe4e064963", "lon": -77.01128166666666, "rental_uris": {"ios": "https://dc.lft.to/lastmile_qr_scan", "android": "https://dc.lft.to/lastmile_qr_scan"}}, {"name": "f5552a368df3c855dacdfbabd119eef8", "fusion_lat": 0.0, "type": "electric_scooter", "lat": 38.887652333333335, "is_reserved": 0, "is_disabled": 0, "fusion_lon": 0.0, "bike_id": "f5552a368df3c855dacdfbabd119eef8", "lon": -76.95601083333334, "rental_uris": {"ios": "https://dc.lft.to/lastmile_qr_scan", "android": "https://dc.lft.to/lastmile_qr_scan"}}, {"name": "9e018773464c0f06bfa99e7d0c080ae9", "fusion_lat": 0.0, "type": "electric_scooter", "lat": 38.931161, "is_reserved": 0, "is_disabled": 0, "fusion_lon": 0.0, "bike_id": "9e018773464c0f06bfa99e7d0c080ae9", "lon": -77.0384405, "rental_uris": {"ios": "https://dc.lft.to/lastmile_qr_scan", "android": "https://dc.lft.to/lastmile_qr_scan"}}, {"name": "60af0f515607fa5b58a5f69fd25da04f", "fusion_lat": 0.0, "type": "electric_scooter", "lat": 38.9181055, "is_reserved": 0, "is_disabled": 0, "fusion_lon": 0.0, "bike_id": "60af0f515607fa5b58a5f69fd25da04f", "lon": -77.03210416666667, "rental_uris": {"ios": "https://dc.lft.to/lastmile_qr_scan", "android": "https://dc.lft.to/lastmile_qr_scan"}}, {"name": "f7cd721d7eea47fb33100d8c3ce8fd58", "fusion_lat": 0.0, "type": "electric_scooter", "lat": 38.90362983333333, "is_reserved": 0, "is_disabled": 0, "fusion_lon": 0.0, "bike_id": "f7cd721d7eea47fb33100d8c3ce8fd58", "lon": -77.00335066666666, "rental_uris": {"ios": "https://dc.lft.to/lastmile_qr_scan", "android": "https://dc.lft.to/lastmile_qr_scan"}}, {"name": "270f628becf35c91c57ef6d2ede2e79d", "fusion_lat": 0.0, "type": "electric_scooter", "lat": 38.87802966666667, "is_reserved": 0, "is_disabled": 0, "fusion_lon": 0.0, "bike_id": "270f628becf35c91c57ef6d2ede2e79d", "lon": -77.01754333333334, "rental_uris": {"ios": "https://dc.lft.to/lastmile_qr_scan", "android": "https://dc.lft.to/lastmile_qr_scan"}}, {"name": "86b3f05585d4dd9430015fb334feda19", "fusion_lat": 0.0, "type": "electric_scooter", "lat": 38.912615, "is_reserved": 0, "is_disabled": 0, "fusion_lon": 0.0, "bike_id": "86b3f05585d4dd9430015fb334feda19", "lon": -77.03861033333334, "rental_uris": {"ios": "https://dc.lft.to/lastmile_qr_scan", "android": "https://dc.lft.to/lastmile_qr_scan"}}, {"name": "e77411bf0a2142098f0d9d8b86fd813e", "fusion_lat": 0.0, "type": "electric_scooter", "lat": 38.90251583333333, "is_reserved": 0, "is_disabled": 0, "fusion_lon": 0.0, "bike_id": "e77411bf0a2142098f0d9d8b86fd813e", "lon": -77.01539783333334, "rental_uris": {"ios": "https://dc.lft.to/lastmile_qr_scan", "android": "https://dc.lft.to/lastmile_qr_scan"}}, {"name": "3540654c3f07337eb4fe97d2d9f331e7", "fusion_lat": 0.0, "type": "electric_scooter", "lat": 38.88614616666667, "is_reserved": 0, "is_disabled": 0, "fusion_lon": 0.0, "bike_id": "3540654c3f07337eb4fe97d2d9f331e7", "lon": -77.0197295, "rental_uris": {"ios": "https://dc.lft.to/lastmile_qr_scan", "android": "https://dc.lft.to/lastmile_qr_scan"}}, {"name": "707600af01b2578aaa0a22a228c2755a", "fusion_lat": 0.0, "type": "electric_scooter", "lat": 38.921825166666665, "is_reserved": 0, "is_disabled": 0, "fusion_lon": 0.0, "bike_id": "707600af01b2578aaa0a22a228c2755a", "lon": -77.02663416666667, "rental_uris": {"ios": "https://dc.lft.to/lastmile_qr_scan", "android": "https://dc.lft.to/lastmile_qr_scan"}}, {"name": "4300508475ddda1403a6a351f0b66c10", "fusion_lat": 0.0, "type": "electric_scooter", "lat": 38.89885783333333, "is_reserved": 0, "is_disabled": 0, "fusion_lon": 0.0, "bike_id": "4300508475ddda1403a6a351f0b66c10", "lon": -76.93175833333333, "rental_uris": {"ios": "https://dc.lft.to/lastmile_qr_scan", "android": "https://dc.lft.to/lastmile_qr_scan"}}, {"name": "3a3fe78964154a9326c27eaf2ef5e54e", "fusion_lat": 0.0, "type": "electric_scooter", "lat": 38.93147483333333, "is_reserved": 0, "is_disabled": 0, "fusion_lon": 0.0, "bike_id": "3a3fe78964154a9326c27eaf2ef5e54e", "lon": -77.0387415, "rental_uris": {"ios": "https://dc.lft.to/lastmile_qr_scan", "android": "https://dc.lft.to/lastmile_qr_scan"}}, {"name": "c5f54ecbd347524497fe22ade3fc8928", "fusion_lat": 0.0, "type": "electric_scooter", "lat": 38.917854166666665, "is_reserved": 0, "is_disabled": 0, "fusion_lon": 0.0, "bike_id": "c5f54ecbd347524497fe22ade3fc8928", "lon": -77.02346683333333, "rental_uris": {"ios": "https://dc.lft.to/lastmile_qr_scan", "android": "https://dc.lft.to/lastmile_qr_scan"}}, {"name": "da38b2ecb7cb900d6e06b30dd4bc2972", "fusion_lat": 0.0, "type": "electric_bike", "lat": 38.8748355, "is_reserved": 0, "is_disabled": 0, "fusion_lon": 0.0, "bike_id": "da38b2ecb7cb900d6e06b30dd4bc2972", "lon": -76.96522466666667, "rental_uris": {"ios": "https://dc.lft.to/lastmile_qr_scan", "android": "https://dc.lft.to/lastmile_qr_scan"}}, {"name": "2f5c5791bbb70b14d8aba3d01f113cea", "fusion_lat": 0.0, "type": "electric_scooter", "lat": 38.892188833333336, "is_reserved": 0, "is_disabled": 0, "fusion_lon": 0.0, "bike_id": "2f5c5791bbb70b14d8aba3d01f113cea", "lon": -77.02228416666667, "rental_uris": {"ios": "https://dc.lft.to/lastmile_qr_scan", "android": "https://dc.lft.to/lastmile_qr_scan"}}, {"name": "ff0b55d29a9576433e84b151caa91568", "fusion_lat": 0.0, "type": "electric_scooter", "lat": 38.87577233333333, "is_reserved": 0, "is_disabled": 0, "fusion_lon": 0.0, "bike_id": "ff0b55d29a9576433e84b151caa91568", "lon": -77.01057233333333, "rental_uris": {"ios": "https://dc.lft.to/lastmile_qr_scan", "android": "https://dc.lft.to/lastmile_qr_scan"}},