{"data": {"bikes": [{"bike_id": "40e0c3e41948f595b40ebb0b1c98b609", "type": "electric_scooter", "is_disabled": 0, "lat": 38.91694, "rental_uris": {"ios": "https://dc.lft.to/lastmile_qr_scan", "android": "https://dc.lft.to/lastmile_qr_scan"}, "is_reserved": 0, "fusion_lon": 0.0, "fusion_lat": 0.0, "lon": -77.02596083333333, "name": "40e0c3e41948f595b40ebb0b1c98b609"}, {"bike_id": "27a035624a1c7da8179d8671dc9fa74e", "type": "electric_scooter", "is_disabled": 0, "lat": 38.947115333333336, "rental_uris": {"ios": "https://dc.lft.to/lastmile_qr_scan", "android": "https://dc.lft.to/lastmile_qr_scan"}, "is_reserved": 0, "fusion_lon": 0.0, "fusion_lat": 0.0, "lon": -77.027803, "name": "27a035624a1c7da8179d8671dc9fa74e"}, {"bike_id": "0d92a34eee4dea92d394b5b7a396bad3", "type": "electric_scooter", "is_disabled": 0, "lat": 38.85762716666667, "rental_uris": {"ios": "https://dc.lft.to/lastmile_qr_scan", "android": "https://dc.lft.to/lastmile_qr_scan"}, "is_reserved": 0, "fusion_lon": 0.0, "fusion_lat": 0.0, "lon": -76.992958, "name": "0d92a34eee4dea92d394b5b7a396bad3"}, {"bike_id": "77f3a3946c17f5005a0e62285ab524b5", "type": "electric_scooter", "is_disabled": 0, "lat": 38.8991845, "rental_uris": {"ios": "https://dc.lft.to/lastmile_qr_scan", "android": "https://dc.lft.to/lastmile_qr_scan"}, "is_reserved": 0, "fusion_lon": 0.0, "fusion_lat": 0.0, "lon": -77.00350033333333, "name": "77f3a3946c17f5005a0e62285ab524b5"}, {"bike_id": "bad55cb05fecf011e7849728f152d1dd", "type": "electric_bike", "is_disabled": 0, "lat": 38.82941566666667, "rental_uris": {"ios": "https://dc.lft.to/lastmile_qr_scan", "android": "https://dc.lft.to/lastmile_qr_scan"}, "is_reserved": 0, "fusion_lon": 0.0, "fusion_lat": 0.0, "lon": -77.12360216666667, "name": "bad55cb05fecf011e7849728f152d1dd"}, {"bike_id": "0549b098f62f4233d967ba96b02253e9", "type": "electric_scooter", "is_disabled": 0, "lat": 38.9381625, "rental_uris": {"ios": "https://dc.lft.to/lastmile_qr_scan", "android": "https://dc.lft.to/lastmile_qr_scan"}, "is_reserved": 0, "fusion_lon": 0.0, "fusion_lat": 0.0, "lon": -77.0271075, "name": "0549b098f62f4233d967ba96b02253e9"}, {"bike_id": "cd7835d1ef06faba20b6a873854c013b", "type": "electric_scooter", "is_disabled": 0, "lat": 38.9239045, "rental_uris": {"ios": "https://dc.lft.to/lastmile_qr_scan", "android": "https://dc.lft.to/lastmile_qr_scan"}, "is_reserved": 0, "fusion_lon": 0.0, "fusion_lat": 0.0, "lon": -77.035369, "name": "cd7835d1ef06faba20b6a873854c013b"}, {"bike_id": "5f92a13fe9dbf4bc1e4e3abf4125a4f1", "type": "electric_scooter", "is_disabled": 0, "lat": 38.9313675, "rental_uris": {"ios": "https://dc.lft.to/lastmile_qr_scan", "android": "https://dc.lft.to/lastmile_qr_scan"}, "is_reserved": 0, "fusion_lon": 0.0, "fusion_lat": 0.0, "lon": -77.05719433333333, "name": "5f92a13fe9dbf4bc1e4e3abf4125a4f1"}, {"bike_id": "61e936d31abc17d4e26c4896a163d77a", "type": "electric_scooter", "is_disabled": 0, "lat": 38.91348, "rental_uris": {"ios": "https://dc.lft.to/lastmile_qr_scan", "android": "https://dc.lft.to/lastmile_qr_scan"}, "is_reserved": 0, "fusion_lon": 0.0, "fusion_lat": 0.0, "lon": -77.03195683333334, "name": "61e936d31abc17d4e26c4896a163d77a"}, {"bike_id": "c52bc5c4666c51d92e77b0945a0d2561", "type": "electric_scooter", "is_disabled": 0, "lat": 38.8948335, "rental_uris": {"ios": "https://dc.lft.to/lastmile_qr_scan", "android": "https://dc.lft.to/lastmile_qr_scan"}, "is_reserved": 0, "fusion_lon": 0.0, "fusion_lat": 0.0, "lon": -76.99511783333334, "name": "c52bc5c4666c51d92e77b0945a0d2561"}, {"bike_id": "0eba62931b8e61a4f5239104f991bed9", "type": "electric_scooter", "is_disabled": 0, "lat": 38.922702666666666, "rental_uris": {"ios": "https://dc.lft.to/lastmile_qr_scan", "android": "https://dc.lft.to/lastmile_qr_scan"}, "is_reserved": 0, "fusion_lon": 0.0, "fusion_lat": 0.0, "lon": -77.01877766666667, "name": "0eba62931b8e61a4f5239104f991bed9"}, {"bike_id": "56b489432150d71ee77b7f5f2ac60bee", "type": "electric_scooter", "is_disabled": 0, "lat": 38.9154345, "rental_uris": {"ios": "https://dc.lft.to/lastmile_qr_scan", "android": "https://dc.lft.to/lastmile_qr_scan"}, "is_reserved": 0, "fusion_lon": 0.0, "fusion_lat": 0.0, "lon": -77.03838033333334, "name": "56b489432150d71ee77b7f5f2ac60bee"}, {"bike_id": "52fc3dfbe95ca287d3e3fe54386a920f", "type": "electric_scooter", "is_disabled": 0, "lat": 38.9006845, "rental_uris": {"ios": "https://dc.lft.to/lastmile_qr_scan", "android": "https://dc.lft.to/lastmile_qr_scan"}, "is_reserved": 0, "fusion_lon": 0.0, "fusion_lat": 0.0, "lon": -77.02195166666667, "name": "52fc3dfbe95ca287d3e3fe54386a920f"}, {"bike_id": "a144b90878fa1177aee810ad5570f857", "type": "electric_scooter", "is_disabled": 0, "lat": 38.933719833333335, "rental_uris": {"ios": "https://dc.lft.to/lastmile_qr_scan", "android": "https://dc.lft.to/lastmile_qr_scan"}, "is_reserved": 0, "fusion_lon": 0.0, "fusion_lat": 0.0, "lon": -77.05732716666667, "name": "a144b90878fa1177aee810ad5570f857"}, {"bike_id": "dbdc76564caf3c2a76e06c547b5da586", "type": "electric_scooter", "is_disabled": 0, "lat": 38.94227733333334, "rental_uris": {"ios": "https://dc.lft.to/lastmile_qr_scan", "android": "https://dc.lft.to/lastmile_qr_scan"}, "is_reserved": 0, "fusion_lon": 0.0, "fusion_lat": 0.0, "lon": -77.01438366666666, "name": "dbdc76564caf3c2a76e06c547b5da586"}, {"bike_id": "17652da3205eda58aaee6860d7f0df84", "type": "electric_scooter", "is_disabled": 0, "lat": 38.909506, "rental_uris": {"ios": "https://dc.lft.to/lastmile_qr_scan", "android": "https://dc.lft.to/lastmile_qr_scan"}, "is_reserved": 0, "fusion_lon": 0.0, "fusion_lat": 0.0, "lon": -77.02281, "name": "17652da3205eda58aaee6860d7f0df84"}, {"bike_id": "13c48d2a65f838a31be32a7d06866d8b", "type": "electric_scooter", "is_disabled": 0, "lat": 38.9216835, "rental_uris": {"ios": "https://dc.lft.to/lastmile_qr_scan", "android": "https://dc.lft.to/lastmile_qr_scan"}, "is_reserved": 0, "fusion_lon": 0.0, "fusion_lat": 0.0, "lon": -77.03851666666667, "name": "13c48d2a65f838a31be32a7d06866d8b"}, {"bike_id": "3675611a231aa7a6098afce679a2f368", "type": "electric_scooter", "is_disabled": 0, "lat": 38.905215, "rental_uris": {"ios": "https://dc.lft.to/lastmile_qr_scan", "android": "https://dc.lft.to/lastmile_qr_scan"}, "is_reserved": 0, "fusion_lon": 0.0, "fusion_lat": 0.0, "lon": -76.986197, "name": "3675611a231aa7a6098afce679a2f368"}, {"bike_id": "a29f61bc789f3942de34554cdb5f887f", "type": "electric_bike", "is_disabled": 0, "lat": 38.9062015, "rental_uris": {"ios": "https://dc.lft.to/lastmile_qr_scan", "android": "https://dc.lft.to/lastmile_qr_scan"}, "is_reserved": 0, "fusion_lon": 0.0, "fusion_lat": 0.0, "lon": -76.985971, "name": "a29f61bc789f3942de34554cdb5f887f"}, {"bike_id": "cce79d7766c7abe86274d18701f54fb5", "type": "electric_bike", "is_disabled": 0, "lat": 38.86333783333333, "rental_uris": {"ios": "https://dc.lft.to/lastmile_qr_scan", "android": "https://dc.lft.to/lastmile_qr_scan"}, "is_reserved": 0, "fusion_lon": 0.0, "fusion_lat": 0.0, "lon": -76.98725266666666, "name": "cce79d7766c7abe86274d18701f54fb5"}, {"bike_id": "63883c02bf222b9cc84535cea2bbe2f0", "type": "electric_scooter", "is_disabled": 0, "lat": 38.862125166666665, "rental_uris": {"ios": "https://dc.lft.to/lastmile_qr_scan", "android": "https://dc.lft.to/lastmile_qr_scan"}, "is_reserved": 0, "fusion_lon": 0.0, "fusion_lat": 0.0, "lon": -76.99474333333333, "name": "63883c02bf222b9cc84535cea2bbe2f0"}, {"bike_id": "8e6fbbee0c92dfb4b298c73b3dea82f2", "type": "electric_scooter", "is_disabled": 0, "lat": 38.8669585, "rental_uris": {"ios": "https://dc.lft.to/lastmile_qr_scan", "android": "https://dc.lft.to/lastmile_qr_scan"}, "is_reserved": 0, "fusion_lon": 0.0, "fusion_lat": 0.0, "lon": -76.987084, "name": "8e6fbbee0c92dfb4b298c73b3dea82f2"}, {"bike_id": "223e4035ca71500014a07aea77627266", "type": "electric_scooter", "is_disabled": 0, "lat": 38.917906333333335, "rental_uris": {"ios": "https://dc.lft.to/lastmile_qr_scan", "android": "https://dc.lft.to/lastmile_qr_scan"}, "is_reserved": 0, "fusion_lon": 0.0, "fusion_lat": 0.0, "lon": -77.03641316666666, "name": "223e4035ca71500014a07aea77627266"}, {"bike_id": "4998f6469fff78c0fd190f18c3617bfc", "type": "electric_scooter", "is_disabled": 0, "lat": 38.89002, "rental_uris": {"ios": "https://dc.lft.to/lastmile_qr_scan", "android": "https://dc.lft.to/lastmile_qr_scan"}, "is_reserved": 0, "fusion_lon": 0.0, "fusion_lat": 0.0, "lon": -77.04902566666667, "name": "4998f6469fff78c0fd190f18c3617bfc"}, {"bike_id": "0f45d5a018cd8a90a1eda5be721b5efc", "type": "electric_scooter", "is_disabled": 0, "lat": 38.949082833333335, "rental_uris": {"ios": "https://dc.lft.to/lastmile_qr_scan", "android": "https://dc.lft.to/lastmile_qr_scan"}, "is_reserved": 0, "fusion_lon": 0.0, "fusion_lat": 0.0, "lon": -77.02080466666666, "name": "0f45d5a018cd8a90a1eda5be721b5efc"}, {"bike_id": "0acb91e6e259d78d6d2bb31480b31b07", "type": "electric_scooter", "is_disabled": 0, "lat": 38.92240966666667, "rental_uris": {"ios": "https://dc.lft.to/lastmile_qr_scan", "android": "https://dc.lft.to/lastmile_qr_scan"}, "is_reserved": 0, "fusion_lon": 0.0, "fusion_lat": 0.0, "lon": -77.03511066666667, "name": "0acb91e6e259d78d6d2bb31480b31b07"}, {"bike_id": "ed27889abd90cd338e2b24737e265b36", "type": "electric_scooter", "is_disabled": 0, "lat": 38.9155745, "rental_uris": {"ios": "https://dc.lft.to/lastmile_qr_scan", "android": "https://dc.lft.to/lastmile_qr_scan"}, "is_reserved": 0, "fusion_lon": 0.0, "fusion_lat": 0.0, "lon": -77.02639716666667, "name": "ed27889abd90cd338e2b24737e265b36"}, {"bike_id": "3cbfbfffab6aa72995cd2d77f2846ffa", "type": "electric_scooter", "is_disabled": 0, "lat": 38.8443225, "rental_uris": {"ios": "https://dc.lft.to/lastmile_qr_scan", "android": "https://dc.lft.to/lastmile_qr_scan"}, "is_reserved": 0, "fusion_lon": 0.0, "fusion_lat": 0.0, "lon": -76.99868816666667, "name": "3cbfbfffab6aa72995cd2d77f2846ffa"}, {"bike_id": "fff18070ec3b00f46de36fc6cf288453", "type": "electric_scooter", "is_disabled": 0, "lat": 38.912626333333336, "rental_uris": {"ios": "https://dc.lft.to/lastmile_qr_scan", "android": "https://dc.lft.to/lastmile_qr_scan"}, "is_reserved": 0, "fusion_lon": 0.0, "fusion_lat": 0.0, "lon": -77.03027166666666, "name": "fff18070ec3b00f46de36fc6cf288453"}, {"bike_id": "e44ba99eea4c57ab4aee60921a7af94c", "type": "electric_bike", "is_disabled": 0, "lat": 38.96505233333333, "rental_uris": {"ios": "https://dc.lft.to/lastmile_qr_scan", "android": "https://dc.lft.to/lastmile_qr_scan"}, "is_reserved": 0, "fusion_lon": 0.0, "fusion_lat": 0.0, "lon": -77.028175, "name": "e44ba99eea4c57ab4aee60921a7af94c"}, {"bike_id": "b68f03810c87373b04fde2aa5ba38dba", "type": "electric_scooter", "is_disabled": 0, "lat": 38.911636666666666, "rental_uris": {"ios": "https://dc.lft.to/lastmile_qr_scan", "android": "https://dc.lft.to/lastmile_qr_scan"}, "is_reserved": 0, "fusion_lon": 0.0, "fusion_lat": 0.0, "lon": -77.01613816666666, "name": "b68f03810c87373b04fde2aa5ba38dba"}, {"bike_id": "5cb5301f457bcac797ddde6c371df4b3", "type": "electric_scooter", "is_disabled": 0, "lat": 38.912596, "rental_uris": {"ios": "https://dc.lft.to/lastmile_qr_scan", "android": "https://dc.lft.to/lastmile_qr_scan"}, "is_reserved": 0, "fusion_lon": 0.0, "fusion_lat": 0.0, "lon": -77.04710116666666, "name": "5cb5301f457bcac797ddde6c371df4b3"}, {"bike_id": "e06cfdb5ec5ab1bc36c3d6f7fd9ff101", "type": "electric_scooter", "is_disabled": 0, "lat": 38.911078333333336, "rental_uris": {"ios": "https://dc.lft.to/lastmile_qr_scan", "android": "https://dc.lft.to/lastmile_qr_scan"}, "is_reserved": 0, "fusion_lon": 0.0, "fusion_lat": 0.0, "lon": -77.04006633333333, "name": "e06cfdb5ec5ab1bc36c3d6f7fd9ff101"}, {"bike_id": "73c32c153f5f7d51798fb6e0a6fd5e0c", "type": "electric_scooter", "is_disabled": 0, "lat": 38.92939783333333, "rental_uris": {"ios": "https://dc.lft.to/lastmile_qr_scan", "android": "https://dc.lft.to/lastmile_qr_scan"}, "is_reserved": 0, "fusion_lon": 0.0, "fusion_lat": 0.0, "lon": -77.0230945, "name": "73c32c153f5f7d51798fb6e0a6fd5e0c"}, {"bike_id": "d7dc5f3335f24f88281d681e26cd44bb", "type": "electric_scooter", "is_disabled": 0, "lat": 38.967365, "rental_uris": {"ios": "https://dc.lft.to/lastmile_qr_scan", "android": "https://dc.lft.to/lastmile_qr_scan"}, "is_reserved": 0, "fusion_lon": 0.0, "fusion_lat": 0.0, "lon": -77.05511633333333, "name": "d7dc5f3335f24f88281d681e26cd44bb"}, {"bike_id": "f79db4305205bc266501e4e2d9ceb9b6", "type": "electric_scooter", "is_disabled": 0, "lat": 38.91950083333333, "rental_uris": {"ios": "https://dc.lft.to/lastmile_qr_scan", "android": "https://dc.lft.to/lastmile_qr_scan"}, "is_reserved": 0, "fusion_lon": 0.0, "fusion_lat": 0.0, "lon": -77.04481716666666, "name": "f79db4305205bc266501e4e2d9ceb9b6"}, {"bike_id": "ece30d9680d74c81dc3e0f34a96c598c", "type": "electric_scooter", "is_disabled": 0, "lat": 38.92840366666667, "rental_uris": {"ios": "https://dc.lft.to/lastmile_qr_scan", "android": "https://dc.lft.to/lastmile_qr_scan"}, "is_reserved": 0, "fusion_lon": 0.0, "fusion_lat": 0.0, "lon": -77.029786, "name": "ece30d9680d74c81dc3e0f34a96c598c"}, {"bike_id": "31dddc13fc948229b30aca8e2e717ca2", "type": "electric_bike", "is_disabled": 0, "lat": 38.878807333333334, "rental_uris": {"ios": "https://dc.lft.to/lastmile_qr_scan", "android": "https://dc.lft.to/lastmile_qr_scan"}, "is_reserved": 0, "fusion_lon": 0.0, "fusion_lat": 0.0, "lon": -77.0961, "name": "31dddc13fc948229b30aca8e2e717ca2"}, {"bike_id": "907c6302d68188bbabb577494ff55fb3", "type": "electric_scooter", "is_disabled": 0, "lat": 38.87789216666667, "rental_uris": {"ios": "https://dc.lft.to/lastmile_qr_scan", "android": "https://dc.lft.to/lastmile_qr_scan"}, "is_reserved": 0, "fusion_lon": 0.0, "fusion_lat": 0.0, "lon": -77.00114716666667, "name": "907c6302d68188bbabb577494ff55fb3"}, {"bike_id": "e3488b94621969bcc8f4fad47190b12e", "type": "electric_scooter", "is_disabled": 0, "lat": 38.90502266666667, "rental_uris": {"ios": "https://dc.lft.to/lastmile_qr_scan", "android": "https://dc.lft.to/lastmile_qr_scan"}, "is_reserved": 0, "fusion_lon": 0.0, "fusion_lat": 0.0, "lon": -76.99953283333333, "name": "e3488b94621969bcc8f4fad47190b12e"}, {"bike_id": "668ea6cc7dc683d8a18e7100d08319ee", "type": "electric_scooter", "is_disabled": 0, "lat": 38.92288683333334, "rental_uris": {"ios": "https://dc.lft.to/lastmile_qr_scan", "android": "https://dc.lft.to/lastmile_qr_scan"}, "is_reserved": 0, "fusion_lon": 0.0, "fusion_lat": 0.0, "lon": -77.04468133333333, "name": "668ea6cc7dc683d8a18e7100d08319ee"}, {"bike_id": "56ef689d7d24de83ec008c05e9f7fb5d", "type": "electric_scooter", "is_disabled": 0, "lat": 38.866269833333334, "rental_uris": {"ios": "https://dc.lft.to/lastmile_qr_scan", "android": "https://dc.lft.to/lastmile_qr_scan"}, "is_reserved": 0, "fusion_lon": 0.0, "fusion_lat": 0.0, "lon": -76.98708766666667, "name": "56ef689d7d24de83ec008c05e9f7fb5d"}, {"bike_id": "b729ad5e4ab2385ca77aa5334731babd", "type": "electric_scooter", "is_disabled": 0, "lat": 38.887805166666666, "rental_uris": {"ios": "https://dc.lft.to/lastmile_qr_scan", "android": "https://dc.lft.to/lastmile_qr_scan"}, "is_reserved": 0, "fusion_lon": 0.0, "fusion_lat": 0.0, "lon": -76.95521683333334, "name": "b729ad5e4ab2385ca77aa5334731babd"}, {"bike_id": "a5fc61a49ec5fd2eaf703753cc3bbf3a", "type": "electric_scooter", "is_disabled": 0, "lat": 38.9223765, "rental_uris": {"ios": "https://dc.lft.to/lastmile_qr_scan", "android": "https://dc.lft.to/lastmile_qr_scan"}, "is_reserved": 0, "fusion_lon": 0.0, "fusion_lat": 0.0, "lon": -77.03133633333333, "name": "a5fc61a49ec5fd2eaf703753cc3bbf3a"}, {"bike_id": "c0b984dc55ee0a137c6273e626a8f51d", "type": "electric_scooter", "is_disabled": 0, "lat": 38.920613833333334, "rental_uris": {"ios": "https://dc.lft.to/lastmile_qr_scan", "android": "https://dc.lft.to/lastmile_qr_scan"}, "is_reserved": 0, "fusion_lon": 0.0, "fusion_lat": 0.0, "lon": -77.0425015, "name": "c0b984dc55ee0a137c6273e626a8f51d"}, {"bike_id": "0b6503a66a73e354b1f7ea915c99d5fe", "type": "electric_scooter", "is_disabled": 0, "lat": 38.90875283333333, "rental_uris": {"ios": "https://dc.lft.to/lastmile_qr_scan", "android": "https://dc.lft.to/lastmile_qr_scan"}, "is_reserved": 0, "fusion_lon": 0.0, "fusion_lat": 0.0, "lon": -77.0221865, "name": "0b6503a66a73e354b1f7ea915c99d5fe"}, {"bike_id": "11e653e844d776b7711f3710f76d9f36", "type": "electric_scooter", "is_disabled": 0, "lat": 38.902335, "rental_uris": {"ios": "https://dc.lft.to/lastmile_qr_scan", "android": "https://dc.lft.to/lastmile_qr_scan"}, "is_reserved": 0, "fusion_lon": 0.0, "fusion_lat": 0.0, "lon": -77.0335165, "name": "11e653e844d776b7711f3710f76d9f36"}, {"bike_id": "cd551d67c9893d80a8c0992ffffe8c5b", "type": "electric_scooter", "is_disabled": 0, "lat": 38.907898833333334, "rental_uris": {"ios": "https://dc.lft.to/lastmile_qr_scan", "android": "https://dc.lft.to/lastmile_qr_scan"}, "is_reserved": 0, "fusion_lon": 0.0, "fusion_lat": 0.0, "lon": -77.048091, "name": "cd551d67c9893d80a8c0992ffffe8c5b"}, {"bike_id": "3884a2e733275a094268915f631217be", "type": "electric_scooter", "is_disabled": 0, "lat": 38.88658783333333, "rental_uris": {"ios": "https://dc.lft.to/lastmile_qr_scan", "android": "https://dc.lft.to/lastmile_qr_scan"}, "is_reserved": 0, "fusion_lon": 0.0, "fusion_lat": 0.0, "lon": -77.02815566666666, "name": "3884a2e733275a094268915f631217be"}, {"bike_id": "d20c19de54cd1869f85e974f54d595ba", "type": "electric_scooter", "is_disabled": 0, "lat": 38.921028166666666, "rental_uris": {"ios": "https://dc.lft.to/lastmile_qr_scan", "android": "https://dc.lft.to/lastmile_qr_scan"}, "is_reserved": 0, "fusion_lon": 0.0, "fusion_lat": 0.0, "lon": -77.071883, "name": "d20c19de54cd1869f85e974f54d595ba"}, {"bike_id": "4d01f2f02607d6e3fcd418c4fb3b7201", "type": "electric_scooter", "is_disabled": 0, "lat": 38.89649283333333, "rental_uris": {"ios": "https://dc.lft.to/lastmile_qr_scan", "android": "https://dc.lft.to/lastmile_qr_scan"}, "is_reserved": 0, "fusion_lon": 0.0, "fusion_lat": 0.0, "lon": -77.070549, "name": "4d01f2f02607d6e3fcd418c4fb3b7201"}, {"bike_id": "5888939ab9d7fa9fc4061a70e1c84a51", "type": "electric_scooter", "is_disabled": 0, "lat": 38.91802033333333, "rental_uris": {"ios": "https://dc.lft.to/lastmile_qr_scan", "android": "https://dc.lft.to/lastmile_qr_scan"}, "is_reserved": 0, "fusion_lon": 0.0, "fusion_lat": 0.0, "lon": -77.03432583333333, "name": "5888939ab9d7fa9fc4061a70e1c84a51"}, {"bike_id": "84438f41e5abccbc7a6acfc3ac55d267", "type": "electric_bike", "is_disabled": 0, "lat": 38.93139683333333, "rental_uris": {"ios": "https://dc.lft.to/lastmile_qr_scan", "android": "https://dc.lft.to/lastmile_qr_scan"}, "is_reserved": 0, "fusion_lon": 0.0, "fusion_lat": 0.0, "lon": -77.07851566666666, "name": "84438f41e5abccbc7a6acfc3ac55d267"}, {"bike_id": "b75f0a52623e3ed4f87521e1553133b7", "type": "electric_scooter", "is_disabled": 0, "lat": 38.929018666666664, "rental_uris": {"ios": "https://dc.lft.to/lastmile_qr_scan", "android": "https://dc.lft.to/lastmile_qr_scan"}, "is_reserved": 0, "fusion_lon": 0.0, "fusion_lat": 0.0, "lon": -77.032816, "name": "b75f0a52623e3ed4f87521e1553133b7"}, {"bike_id": "60e525f55734647ac7d95b810baed258", "type": "electric_scooter", "is_disabled": 0, "lat": 38.912485333333336, "rental_uris": {"ios": "https://dc.lft.to/lastmile_qr_scan", "android": "https://dc.lft.to/lastmile_qr_scan"}, "is_reserved": 0, "fusion_lon": 0.0, "fusion_lat": 0.0, "lon": -77.01975833333333, "name": "60e525f55734647ac7d95b810baed258"}, {"bike_id": "650e1358bec28f2401fa4d5d1578aacc", "type": "electric_scooter", "is_disabled": 0, "lat": 38.947345, "rental_uris": {"ios": "https://dc.lft.to/lastmile_qr_scan", "android": "https://dc.lft.to/lastmile_qr_scan"}, "is_reserved": 0, "fusion_lon": 0.0, "fusion_lat": 0.0, "lon": -77.07863466666667, "name": "650e1358bec28f2401fa4d5d1578aacc"}, {"bike_id": "b653dec2fbda5573a8f3e014e30917bc", "type": "electric_scooter", "is_disabled": 0, "lat": 38.91563266666667, "rental_uris": {"ios": "https://dc.lft.to/lastmile_qr_scan", "android": "https://dc.lft.to/lastmile_qr_scan"}, "is_reserved": 0, "fusion_lon": 0.0, "fusion_lat": 0.0, "lon": -77.02023016666666, "name": "b653dec2fbda5573a8f3e014e30917bc"}, {"bike_id": "82266d491c34d12e07cc42259c764bac", "type": "electric_scooter", "is_disabled": 0, "lat": 38.915537, "rental_uris": {"ios": "https://dc.lft.to/lastmile_qr_scan", "android": "https://dc.lft.to/lastmile_qr_scan"}, "is_reserved": 0, "fusion_lon": 0.0, "fusion_lat": 0.0, "lon": -77.03117533333334, "name": "82266d491c34d12e07cc42259c764bac"}, {"bike_id": "51c53fcae7b0aa6d132aa39d60541288", "type": "electric_scooter", "is_disabled": 0, "lat": 38.9198465, "rental_uris": {"ios": "https://dc.lft.to/lastmile_qr_scan", "android": "https://dc.lft.to/lastmile_qr_scan"}, "is_reserved": 0, "fusion_lon": 0.0, "fusion_lat": 0.0, "lon": -76.97300183333333, "name": "51c53fcae7b0aa6d132aa39d60541288"}, {"bike_id": "a43d4ca1821b0ad5babe12459876ab1a", "type": "electric_scooter", "is_disabled": 0, "lat": 38.90757416666667, "rental_uris": {"ios": "https://dc.lft.to/lastmile_qr_scan", "android": "https://dc.lft.to/lastmile_qr_scan"}, "is_reserved": 0, "fusion_lon": 0.0, "fusion_lat": 0.0, "lon": -77.028038, "name": "a43d4ca1821b0ad5babe12459876ab1a"}, {"bike_id": "0cd1d858210b714d4c36fabca0db8c8d", "type": "electric_scooter", "is_disabled": 0, "lat": 38.90413783333333, "rental_uris": {"ios": "https://dc.lft.to/lastmile_qr_scan", "android": "https://dc.lft.to/lastmile_qr_scan"}, "is_reserved": 0, "fusion_lon": 0.0, "fusion_lat": 0.0, "lon": -76.973266, "name": "0cd1d858210b714d4c36fabca0db8c8d"}, {"bike_id": "48374ae0b6888ec87e9689785e503837", "type": "electric_scooter", "is_disabled": 0, "lat": 38.902856166666666, "rental_uris": {"ios": "https://dc.lft.to/lastmile_qr_scan", "android": "https://dc.lft.to/lastmile_qr_scan"}, "is_reserved": 0, "fusion_lon": 0.0, "fusion_lat": 0.0, "lon": -77.003296, "name": "48374ae0b6888ec87e9689785e503837"}, {"bike_id": "dd0898ffe89790b357146660f49f2a15", "type": "electric_bike", "is_disabled": 0, "lat": 38.99689433333333, "rental_uris": {"ios": "https://dc.lft.to/lastmile_qr_scan", "android": "https://dc.lft.to/lastmile_qr_scan"}, "is_reserved": 0, "fusion_lon": 0.0, "fusion_lat": 0.0, "lon": -77.03784816666666, "name": "dd0898ffe89790b357146660f49f2a15"}, {"bike_id": "2824a2fc873542c68b88edb30e3e76ce", "type": "electric_scooter", "is_disabled": 0, "lat": 38.90944866666667, "rental_uris": {"ios": "https://dc.lft.to/lastmile_qr_scan", "android": "https://dc.lft.to/lastmile_qr_scan"}, "is_reserved": 0, "fusion_lon": 0.0, "fusion_lat": 0.0, "lon": -77.04466483333333, "name": "2824a2fc873542c68b88edb30e3e76ce"}, {"bike_id": "bb21585374cfd3aa589309af76db0cd7", "type": "electric_bike", "is_disabled": 0, "lat": 38.896121666666666, "rental_uris": {"ios": "https://dc.lft.to/lastmile_qr_scan", "android": "https://dc.lft.to/lastmile_qr_scan"}, "is_reserved": 0, "fusion_lon": 0.0, "fusion_lat": 0.0, "lon": -76.90733533333334, "name": "bb21585374cfd3aa589309af76db0cd7"}, {"bike_id": "d920eb9c24306b2d04e7fdd1b7f60ad7", "type": "electric_scooter", "is_disabled": 0, "lat": 38.923332333333335, "rental_uris": {"ios": "https://dc.lft.to/lastmile_qr_scan", "android": "https://dc.lft.to/lastmile_qr_scan"}, "is_reserved": 0, "fusion_lon": 0.0, "fusion_lat": 0.0, "lon": -77.0378075, "name": "d920eb9c24306b2d04e7fdd1b7f60ad7"}, {"bike_id": "22d4073e0f18e35ff53e4e14f98b690d", "type": "electric_scooter", "is_disabled": 0, "lat": 38.901271333333334, "rental_uris": {"ios": "https://dc.lft.to/lastmile_qr_scan", "android": "https://dc.lft.to/lastmile_qr_scan"}, "is_reserved": 0, "fusion_lon": 0.0, "fusion_lat": 0.0, "lon": -76.929436, "name": "22d4073e0f18e35ff53e4e14f98b690d"}, {"bike_id": "660499ef0b855d522e33fdc0e9f54beb", "type": "electric_bike", "is_disabled": 0, "lat": 38.9739535, "rental_uris": {"ios": "https://dc.lft.to/lastmile_qr_scan", "android": "https://dc.lft.to/lastmile_qr_scan"}, "is_reserved": 0, "fusion_lon": 0.0, "fusion_lat": 0.0, "lon": -77.06447733333333, "name": "660499ef0b855d522e33fdc0e9f54beb"}, {"bike_id": "bd5d59075dd52469bff4bac83a47faf1", "type": "electric_scooter", "is_disabled": 0, "lat": 38.899194666666666, "rental_uris": {"ios": "https://dc.lft.to/lastmile_qr_scan", "android": "https://dc.lft.to/lastmile_qr_scan"}, "is_reserved": 0, "fusion_lon": 0.0, "fusion_lat": 0.0, "lon": -77.0391645, "name": "bd5d59075dd52469bff4bac83a47faf1"}, {"bike_id": "1a16b33833faa4a8abf51280a5eedcf9", "type": "electric_scooter", "is_disabled": 0, "lat": 38.9121985, "rental_uris": {"ios": "https://dc.lft.to/lastmile_qr_scan", "android": "https://dc.lft.to/lastmile_qr_scan"}, "is_reserved": 0, "fusion_lon": 0.0, "fusion_lat": 0.0, "lon": -77.03171933333333, "name": "1a16b33833faa4a8abf51280a5eedcf9"}, {"bike_id": "558afb601447729acf65afcb8058eea5", "type": "electric_bike", "is_disabled": 0, "lat": 38.931932333333336, "rental_uris": {"ios": "https://dc.lft.to/lastmile_qr_scan", "android": "https://dc.lft.to/lastmile_qr_scan"}, "is_reserved": 0, "fusion_lon": 0.0, "fusion_lat": 0.0, "lon": -77.03552766666667, "name": "558afb601447729acf65afcb8058eea5"}, {"bike_id": "875e954fff0f9ef9cfbc143f8bd480f7", "type": "electric_scooter", "is_disabled": 0, "lat": 38.902947833333336, "rental_uris": {"ios": "https://dc.lft.to/lastmile_qr_scan", "android": "https://dc.lft.to/lastmile_qr_scan"}, "is_reserved": 0, "fusion_lon": 0.0, "fusion_lat": 0.0, "lon": -77.06522683333333, "name": "875e954fff0f9ef9cfbc143f8bd480f7"}, {"bike_id": "7e890ecdec84a17a069dfc3b2aa413ef", "type": "electric_scooter", "is_disabled": 0, "lat": 38.92471283333333, "rental_uris": {"ios": "https://dc.lft.to/lastmile_qr_scan", "android": "https://dc.lft.to/lastmile_qr_scan"}, "is_reserved": 0, "fusion_lon": 0.0, "fusion_lat": 0.0, "lon": -77.026415, "name": "7e890ecdec84a17a069dfc3b2aa413ef"}, {"bike_id": "47e8045901c2de938d28542f908d6438", "type": "electric_scooter", "is_disabled": 0, "lat": 38.95628166666667, "rental_uris": {"ios": "https://dc.lft.to/lastmile_qr_scan", "android": "https://dc.lft.to/lastmile_qr_scan"}, "is_reserved": 0, "fusion_lon": 0.0, "fusion_lat": 0.0, "lon": -77.03613933333334, "name": "47e8045901c2de938d28542f908d6438"}, {"bike_id": "9f67b23c1936d87279823d7c031b2265", "type": "electric_scooter", "is_disabled": 0, "lat": 38.9057225, "rental_uris": {"ios": "https://dc.lft.to/lastmile_qr_scan", "android": "https://dc.lft.to/lastmile_qr_scan"}, "is_reserved": 0, "fusion_lon": 0.0, "fusion_lat": 0.0, "lon": -77.02696766666666, "name": "9f67b23c1936d87279823d7c031b2265"}, {"bike_id": "5bf51dd1c756b4c240d5db212ed73704", "type": "electric_scooter", "is_disabled": 0, "lat": 38.88530166666666, "rental_uris": {"ios": "https://dc.lft.to/lastmile_qr_scan", "android": "https://dc.lft.to/lastmile_qr_scan"}, "is_reserved": 0, "fusion_lon": 0.0, "fusion_lat": 0.0, "lon": -76.99821116666666, "name": "5bf51dd1c756b4c240d5db212ed73704"}, {"bike_id": "fea201ebdf7162c14f89003f0b1ec483", "type": "electric_scooter", "is_disabled": 0, "lat": 38.916908666666664, "rental_uris": {"ios": "https://dc.lft.to/lastmile_qr_scan", "android": "https://dc.lft.to/lastmile_qr_scan"}, "is_reserved": 0, "fusion_lon": 0.0, "fusion_lat": 0.0, "lon": -77.0234385, "name": "fea201ebdf7162c14f89003f0b1ec483"}, {"bike_id": "630d3a2741884c953e91f4cd60c3ed37", "type": "electric_scooter", "is_disabled": 0, "lat": 38.9223935, "rental_uris": {"ios": "https://dc.lft.to/lastmile_qr_scan", "android": "https://dc.lft.to/lastmile_qr_scan"}, "is_reserved": 0, "fusion_lon": 0.0, "fusion_lat": 0.0, "lon": -77.03027533333334, "name": "630d3a2741884c953e91f4cd60c3ed37"}, {"bike_id": "7b7852958df9149d923d118d2d836ca6", "type": "electric_scooter", "is_disabled": 0, "lat": 38.934852, "rental_uris": {"ios": "https://dc.lft.to/lastmile_qr_scan", "android": "https://dc.lft.to/lastmile_qr_scan"}, "is_reserved": 0, "fusion_lon": 0.0, "fusion_lat": 0.0, "lon": -77.03417433333334, "name": "7b7852958df9149d923d118d2d836ca6"}, {"bike_id": "9cb3f18a5a92563c402d6182ce7cad94", "type": "electric_scooter", "is_disabled": 0, "lat": 38.9391855, "rental_uris": {"ios": "https://dc.lft.to/lastmile_qr_scan", "android": "https://dc.lft.to/lastmile_qr_scan"}, "is_reserved": 0, "fusion_lon": 0.0, "fusion_lat": 0.0, "lon": -77.06040166666666, "name": "9cb3f18a5a92563c402d6182ce7cad94"}, {"bike_id": "b96b257df39f7af24b4446d9622c1a23", "type": "electric_scooter", "is_disabled": 0, "lat": 38.90184266666667, "rental_uris": {"ios": "https://dc.lft.to/lastmile_qr_scan", "android": "https://dc.lft.to/lastmile_qr_scan"}, "is_reserved": 0, "fusion_lon": 0.0, "fusion_lat": 0.0, "lon": -77.01273133333333, "name": "b96b257df39f7af24b4446d9622c1a23"}, {"bike_id": "cabe225468c810d0848c03c07799c3a1", "type": "electric_scooter", "is_disabled": 0, "lat": 38.90475, "rental_uris": {"ios": "https://dc.lft.to/lastmile_qr_scan", "android": "https://dc.lft.to/lastmile_qr_scan"}, "is_reserved": 0, "fusion_lon": 0.0, "fusion_lat": 0.0, "lon": -77.02939883333333, "name": "cabe225468c810d0848c03c07799c3a1"}, {"bike_id": "0a52301959b1f6d41ec5b8a053561a2f", "type": "electric_bike", "is_disabled": 0, "lat": 39.0370175, "rental_uris": {"ios": "https://dc.lft.to/lastmile_qr_scan", "android": "https://dc.lft.to/lastmile_qr_scan"}, "is_reserved": 0, "fusion_lon": 0.0, "fusion_lat": 0.0, "lon": -77.02859566666666, "name": "0a52301959b1f6d41ec5b8a053561a2f"}, {"bike_id": "3daf0ece4f36f4c0cfd3ba5ba5cd5627", "type": "electric_scooter", "is_disabled": 0, "lat": 38.90629466666667, "rental_uris": {"ios": "https://dc.lft.to/lastmile_qr_scan", "android": "https://dc.lft.to/lastmile_qr_scan"}, "is_reserved": 0, "fusion_lon": 0.0, "fusion_lat": 0.0, "lon": -77.051378, "name": "3daf0ece4f36f4c0cfd3ba5ba5cd5627"}, {"bike_id": "d6f42fbe7950657dcd17a86a582d0ab1", "type": "electric_scooter", "is_disabled": 0, "lat": 38.8756, "rental_uris": {"ios": "https://dc.lft.to/lastmile_qr_scan", "android": "https://dc.lft.to/lastmile_qr_scan"}, "is_reserved": 0, "fusion_lon": 0.0, "fusion_lat": 0.0, "lon": -76.9586455, "name": "d6f42fbe7950657dcd17a86a582d0ab1"}, {"bike_id": "56d884e7f1c5a7657f0756fea44f600a", "type": "electric_scooter", "is_disabled": 0, "lat": 38.915596666666666, "rental_uris": {"ios": "https://dc.lft.to/lastmile_qr_scan", "android": "https://dc.lft.to/lastmile_qr_scan"}, "is_reserved": 0, "fusion_lon": 0.0, "fusion_lat": 0.0, "lon": -77.03723266666667, "name": "56d884e7f1c5a7657f0756fea44f600a"}, {"bike_id": "d78715ffefdd561ab66c25cf562d9db4", "type": "electric_scooter", "is_disabled": 0, "lat": 38.916008833333336, "rental_uris": {"ios": "https://dc.lft.to/lastmile_qr_scan", "android": "https://dc.lft.to/lastmile_qr_scan"}, "is_reserved": 0, "fusion_lon": 0.0, "fusion_lat": 0.0, "lon": -77.00193833333333, "name": "d78715ffefdd561ab66c25cf562d9db4"}, {"bike_id": "9472bb12b775f97b5d03270625f0b08e", "type": "electric_scooter", "is_disabled": 0, "lat": 38.90075, "rental_uris": {"ios": "https://dc.lft.to/lastmile_qr_scan", "android": "https://dc.lft.to/lastmile_qr_scan"}, "is_reserved": 0, "fusion_lon": 0.0, "fusion_lat": 0.0, "lon": -77.05313516666666, "name": "9472bb12b775f97b5d03270625f0b08e"}, {"bike_id": "7daf39757cfa1e743cdedee7466842a7", "type": "electric_scooter", "is_disabled": 0, "lat": 38.926660166666665, "rental_uris": {"ios": "https://dc.lft.to/lastmile_qr_scan", "android": "https://dc.lft.to/lastmile_qr_scan"}, "is_reserved": 0, "fusion_lon": 0.0, "fusion_lat": 0.0, "lon": -76.9952655, "name": "7daf39757cfa1e743cdedee7466842a7"}, {"bike_id": "17d6e45367018e671a51464eb29fa429", "type": "electric_scooter", "is_disabled": 0, "lat": 38.901281, "rental_uris": {"ios": "https://dc.lft.to/lastmile_qr_scan", "android": "https://dc.lft.to/lastmile_qr_scan"}, "is_reserved": 0, "fusion_lon": 0.0, "fusion_lat": 0.0, "lon": -77.038394, "name": "17d6e45367018e671a51464eb29fa429"}, {"bike_id": "8b877ef0b1bb303312a8ae7645884a9c", "type": "electric_scooter", "is_disabled": 0, "lat": 38.931765, "rental_uris": {"ios": "https://dc.lft.to/lastmile_qr_scan", "android": "https://dc.lft.to/lastmile_qr_scan"}, "is_reserved": 0, "fusion_lon": 0.0, "fusion_lat": 0.0, "lon": -77.0284235, "name": "8b877ef0b1bb303312a8ae7645884a9c"}, {"bike_id": "033133edb3ed5777d3779144bbb20008", "type": "electric_scooter", "is_disabled": 0, "lat": 38.90070133333333, "rental_uris": {"ios": "https://dc.lft.to/lastmile_qr_scan", "android": "https://dc.lft.to/lastmile_qr_scan"}, "is_reserved": 0, "fusion_lon": 0.0, "fusion_lat": 0.0, "lon": -77.02188133333334, "name": "033133edb3ed5777d3779144bbb20008"}, {"bike_id": "19934bdf03a49c8eba7ab45fed993f87", "type": "electric_scooter", "is_disabled": 0, "lat": 38.923850333333334, "rental_uris": {"ios": "https://dc.lft.to/lastmile_qr_scan", "android": "https://dc.lft.to/lastmile_qr_scan"}, "is_reserved": 0, "fusion_lon": 0.0, "fusion_lat": 0.0, "lon": -77.030675, "name": "19934bdf03a49c8eba7ab45fed993f87"}, {"bike_id": "a67efdc27640eb9c3eda82910c421bd6", "type": "electric_scooter", "is_disabled": 0, "lat": 38.95605666666667, "rental_uris": {"ios": "https://dc.lft.to/lastmile_qr_scan", "android": "https://dc.lft.to/lastmile_qr_scan"}, "is_reserved": 0, "fusion_lon": 0.0, "fusion_lat": 0.0, "lon": -77.000873, "name": "a67efdc27640eb9c3eda82910c421bd6"}, {"bike_id": "84d66adb411d953b2c084e3584283d4f", "type": "electric_scooter", "is_disabled": 0, "lat": 38.8804815, "rental_uris": {"ios": "https://dc.lft.to/lastmile_qr_scan", "android": "https://dc.lft.to/lastmile_qr_scan"}, "is_reserved": 0, "fusion_lon": 0.0, "fusion_lat": 0.0, "lon": -76.9322055, "name": "84d66adb411d953b2c084e3584283d4f"}, {"bike_id": "a0e0a5c12e465e3ab0f0ed9c7847aed4", "type": "electric_scooter", "is_disabled": 0, "lat": 38.90566916666667, "rental_uris": {"ios": "https://dc.lft.to/lastmile_qr_scan", "android": "https://dc.lft.to/lastmile_qr_scan"}, "is_reserved": 0, "fusion_lon": 0.0, "fusion_lat": 0.0, "lon": -77.04235383333334, "name": "a0e0a5c12e465e3ab0f0ed9c7847aed4"}, {"bike_id": "7d1826a8553f8cfc7211ed3acedf0d84", "type": "electric_scooter", "is_disabled": 0, "lat": 38.923849, "rental_uris": {"ios": "https://dc.lft.to/lastmile_qr_scan", "android": "https://dc.lft.to/lastmile_qr_scan"}, "is_reserved": 0, "fusion_lon": 0.0, "fusion_lat": 0.0, "lon": -77.02983316666666, "name": "7d1826a8553f8cfc7211ed3acedf0d84"}, {"bike_id": "71ead7e78741fcde82624b21cb53b9d7", "type": "electric_bike", "is_disabled": 0, "lat": 38.93365516666667, "rental_uris": {"ios": "https://dc.lft.to/lastmile_qr_scan", "android": "https://dc.lft.to/lastmile_qr_scan"}, "is_reserved": 0, "fusion_lon": 0.0, "fusion_lat": 0.0, "lon": -77.02417633333333, "name": "71ead7e78741fcde82624b21cb53b9d7"}, {"bike_id": "4bc822a6af5a3f5bca40bda0cbe66198", "type": "electric_scooter", "is_disabled": 0, "lat": 38.88207116666667, "rental_uris": {"ios": "https://dc.lft.to/lastmile_qr_scan", "android": "https://dc.lft.to/lastmile_qr_scan"}, "is_reserved": 0, "fusion_lon": 0.0, "fusion_lat": 0.0, "lon": -76.98910216666667, "name": "4bc822a6af5a3f5bca40bda0cbe66198"}, {"bike_id": "5fa6de2860e12fd4938ac162e8dd634d", "type": "electric_scooter", "is_disabled": 0, "lat": 38.9181595, "rental_uris": {"ios": "https://dc.lft.to/lastmile_qr_scan", "android": "https://dc.lft.to/lastmile_qr_scan"}, "is_reserved": 0, "fusion_lon": 0.0, "fusion_lat": 0.0, "lon": -77.02475966666667, "name": "5fa6de2860e12fd4938ac162e8dd634d"}, {"bike_id": "236a15bf4f3f50b85bcf7d367d4f67d5", "type": "electric_scooter", "is_disabled": 0, "lat": 38.91796183333334, "rental_uris": {"ios": "https://dc.lft.to/lastmile_qr_scan", "android": "https://dc.lft.to/lastmile_qr_scan"}, "is_reserved": 0, "fusion_lon": 0.0, "fusion_lat": 0.0, "lon": -77.02318533333333, "name": "236a15bf4f3f50b85bcf7d367d4f67d5"}, {"bike_id": "798d902d0d9af773bac3b8909133a44d", "type": "electric_scooter", "is_disabled": 0, "lat": 38.90773316666667, "rental_uris": {"ios": "https://dc.lft.to/lastmile_qr_scan", "android": "https://dc.lft.to/lastmile_qr_scan"}, "is_reserved": 0, "fusion_lon": 0.0, "fusion_lat": 0.0, "lon": -77.04346366666667, "name": "798d902d0d9af773bac3b8909133a44d"}, {"bike_id": "dec81c90b36cb052ab20119f1a379709", "type": "electric_scooter", "is_disabled": 0, "lat": 38.90064816666667, "rental_uris": {"ios": "https://dc.lft.to/lastmile_qr_scan", "android": "https://dc.lft.to/lastmile_qr_scan"}, "is_reserved": 0, "fusion_lon": 0.0, "fusion_lat": 0.0, "lon": -77.04833866666667, "name": "dec81c90b36cb052ab20119f1a379709"}, {"bike_id": "9cba8d562a930206f238ac1f6afc9316", "type": "electric_scooter", "is_disabled": 0, "lat": 38.92477183333333, "rental_uris": {"ios": "https://dc.lft.to/lastmile_qr_scan", "android": "https://dc.lft.to/lastmile_qr_scan"}, "is_reserved": 0, "fusion_lon": 0.0, "fusion_lat": 0.0, "lon": -77.02827383333333, "name": "9cba8d562a930206f238ac1f6afc9316"}, {"bike_id": "7ff3c9e6d0c08fbf81e81db0b7c9133b", "type": "electric_scooter", "is_disabled": 0, "lat": 38.89874316666667, "rental_uris": {"ios": "https://dc.lft.to/lastmile_qr_scan", "android": "https://dc.lft.to/lastmile_qr_scan"}, "is_reserved": 0, "fusion_lon": 0.0, "fusion_lat": 0.0, "lon": -76.93185166666666, "name": "7ff3c9e6d0c08fbf81e81db0b7c9133b"}, {"bike_id": "45e02b295a1550ec0af9fd463e9c2a2b", "type": "electric_scooter", "is_disabled": 0, "lat": 38.92598266666667, "rental_uris": {"ios": "https://dc.lft.to/lastmile_qr_scan", "android": "https://dc.lft.to/lastmile_qr_scan"}, "is_reserved": 0, "fusion_lon": 0.0, "fusion_lat": 0.0, "lon": -77.02443066666666, "name": "45e02b295a1550ec0af9fd463e9c2a2b"}, {"bike_id": "f6b2f904bec661976dca837bfbeede78", "type": "electric_scooter", "is_disabled": 0, "lat": 38.917993333333335, "rental_uris": {"ios": "https://dc.lft.to/lastmile_qr_scan", "android": "https://dc.lft.to/lastmile_qr_scan"}, "is_reserved": 0, "fusion_lon": 0.0, "fusion_lat": 0.0, "lon": -77.03626616666666, "name": "f6b2f904bec661976dca837bfbeede78"}, {"bike_id": "39b36b2175fad11cb23349659278adbb", "type": "electric_bike", "is_disabled": 0, "lat": 38.939727500000004, "rental_uris": {"ios": "https://dc.lft.to/lastmile_qr_scan", "android": "https://dc.lft.to/lastmile_qr_scan"}, "is_reserved": 0, "fusion_lon": 0.0, "fusion_lat": 0.0, "lon": -77.05249816666667, "name": "39b36b2175fad11cb23349659278adbb"}, {"bike_id": "82f66c0b873e8b15453541c302475ada", "type": "electric_scooter", "is_disabled": 0, "lat": 38.906311333333335, "rental_uris": {"ios": "https://dc.lft.to/lastmile_qr_scan", "android": "https://dc.lft.to/lastmile_qr_scan"}, "is_reserved": 0, "fusion_lon": 0.0, "fusion_lat": 0.0, "lon": -77.00997, "name": "82f66c0b873e8b15453541c302475ada"}, {"bike_id": "39b5e261277afc08bb45c8da76666999", "type": "electric_bike", "is_disabled": 0, "lat": 38.9492115, "rental_uris": {"ios": "https://dc.lft.to/lastmile_qr_scan", "android": "https://dc.lft.to/lastmile_qr_scan"}, "is_reserved": 0, "fusion_lon": 0.0, "fusion_lat": 0.0, "lon": -77.00805383333334, "name": "39b5e261277afc08bb45c8da76666999"}, {"bike_id": "786e2e3fe8dc9748cbb956c3bceb9ade", "type": "electric_bike", "is_disabled": 0, "lat": 38.94662183333333, "rental_uris": {"ios": "https://dc.lft.to/lastmile_qr_scan", "android": "https://dc.lft.to/lastmile_qr_scan"}, "is_reserved": 0, "fusion_lon": 0.0, "fusion_lat": 0.0, "lon": -76.95666333333334, "name": "786e2e3fe8dc9748cbb956c3bceb9ade"}, {"bike_id": "b02d2828f59be55c08e6d419bcf97756", "type": "electric_bike", "is_disabled": 0, "lat": 38.897375333333336, "rental_uris": {"ios": "https://dc.lft.to/lastmile_qr_scan", "android": "https://dc.lft.to/lastmile_qr_scan"}, "is_reserved": 0, "fusion_lon": 0.0, "fusion_lat": 0.0, "lon": -76.9947205, "name": "b02d2828f59be55c08e6d419bcf97756"}, {"bike_id": "66202284218af74b44481aa26d3c19db", "type": "electric_scooter", "is_disabled": 0, "lat": 38.903444666666665, "rental_uris": {"ios": "https://dc.lft.to/lastmile_qr_scan", "android": "https://dc.lft.to/lastmile_qr_scan"}, "is_reserved": 0, "fusion_lon": 0.0, "fusion_lat": 0.0, "lon": -77.02929766666666, "name": "66202284218af74b44481aa26d3c19db"}, {"bike_id": "329d8b3f3b4d5a345357f217d15310eb", "type": "electric_scooter", "is_disabled": 0, "lat": 38.9419425, "rental_uris": {"ios": "https://dc.lft.to/lastmile_qr_scan", "android": "https://dc.lft.to/lastmile_qr_scan"}, "is_reserved": 0, "fusion_lon": 0.0, "fusion_lat": 0.0, "lon": -77.02434916666667, "name": "329d8b3f3b4d5a345357f217d15310eb"}, {"bike_id": "f2fdc83a0b3f2055d34eda7172c7ea11", "type": "electric_scooter", "is_disabled": 0, "lat": 38.926544166666666, "rental_uris": {"ios": "https://dc.lft.to/lastmile_qr_scan", "android": "https://dc.lft.to/lastmile_qr_scan"}, "is_reserved": 0, "fusion_lon": 0.0, "fusion_lat": 0.0, "lon": -77.02432416666667, "name": "f2fdc83a0b3f2055d34eda7172c7ea11"}, {"bike_id": "8c9e670940e687e7192e77094a72f843", "type": "electric_scooter", "is_disabled": 0, "lat": 38.9145715, "rental_uris": {"ios": "https://dc.lft.to/lastmile_qr_scan", "android": "https://dc.lft.to/lastmile_qr_scan"}, "is_reserved": 0, "fusion_lon": 0.0, "fusion_lat": 0.0, "lon": -77.022815, "name": "8c9e670940e687e7192e77094a72f843"}, {"bike_id": "383cad174527da2907b68b29f993c007", "type": "electric_bike", "is_disabled": 0, "lat": 38.9245245, "rental_uris": {"ios": "https://dc.lft.to/lastmile_qr_scan", "android": "https://dc.lft.to/lastmile_qr_scan"}, "is_reserved": 0, "fusion_lon": 0.0, "fusion_lat": 0.0, "lon": -77.225537, "name": "383cad174527da2907b68b29f993c007"}, {"bike_id": "cb49b666039af5af5eec844ce21ea016", "type": "electric_scooter", "is_disabled": 0, "lat": 38.974199, "rental_uris": {"ios": "https://dc.lft.to/lastmile_qr_scan", "android": "https://dc.lft.to/lastmile_qr_scan"}, "is_reserved": 0, "fusion_lon": 0.0, "fusion_lat": 0.0, "lon": -77.0127565, "name": "cb49b666039af5af5eec844ce21ea016"}, {"bike_id": "417a3fb6342e9d1b4c39e96f343bc428", "type": "electric_scooter", "is_disabled": 0, "lat": 38.9394825, "rental_uris": {"ios": "https://dc.lft.to/lastmile_qr_scan", "android": "https://dc.lft.to/lastmile_qr_scan"}, "is_reserved": 0, "fusion_lon": 0.0, "fusion_lat": 0.0, "lon": -77.06057866666667, "name": "417a3fb6342e9d1b4c39e96f343bc428"}, {"bike_id": "8515429514713e8eb494cbfebe7425da", "type": "electric_scooter", "is_disabled": 0, "lat": 38.907121333333336, "rental_uris": {"ios": "https://dc.lft.to/lastmile_qr_scan", "android": "https://dc.lft.to/lastmile_qr_scan"}, "is_reserved": 0, "fusion_lon": 0.0, "fusion_lat": 0.0, "lon": -77.02382583333333, "name": "8515429514713e8eb494cbfebe7425da"}, {"bike_id": "f5c0983ac941241336723d0d5f947da5", "type": "electric_scooter", "is_disabled": 0, "lat": 38.8708175, "rental_uris": {"ios": "https://dc.lft.to/lastmile_qr_scan", "android": "https://dc.lft.to/lastmile_qr_scan"}, "is_reserved": 0, "fusion_lon": 0.0, "fusion_lat": 0.0, "lon": -77.01202666666667, "name": "f5c0983ac941241336723d0d5f947da5"}, {"bike_id": "ba86a64f5daf3e7112c5bc065ba25389", "type": "electric_scooter", "is_disabled": 0, "lat": 38.901310333333335, "rental_uris": {"ios": "https://dc.lft.to/lastmile_qr_scan", "android": "https://dc.lft.to/lastmile_qr_scan"}, "is_reserved": 0, "fusion_lon": 0.0, "fusion_lat": 0.0, "lon": -77.043508, "name": "ba86a64f5daf3e7112c5bc065ba25389"}, {"bike_id": "1a4eab1ac605ffb3840bcb19044079a7", "type": "electric_scooter", "is_disabled": 0, "lat": 38.87639733333334, "rental_uris": {"ios": "https://dc.lft.to/lastmile_qr_scan", "android": "https://dc.lft.to/lastmile_qr_scan"}, "is_reserved": 0, "fusion_lon": 0.0, "fusion_lat": 0.0, "lon": -76.9651525, "name": "1a4eab1ac605ffb3840bcb19044079a7"}, {"bike_id": "59dfcd737906c25310d83c2210f787ec", "type": "electric_scooter", "is_disabled": 0, "lat": 38.92052233333333, "rental_uris": {"ios": "https://dc.lft.to/lastmile_qr_scan", "android": "https://dc.lft.to/lastmile_qr_scan"}, "is_reserved": 0, "fusion_lon": 0.0, "fusion_lat": 0.0, "lon": -76.9987475, "name": "59dfcd737906c25310d83c2210f787ec"}, {"bike_id": "5de5f4c894c76f329231d42577a83c60", "type": "electric_scooter", "is_disabled": 0, "lat": 38.9563095, "rental_uris": {"ios": "https://dc.lft.to/lastmile_qr_scan", "android": "https://dc.lft.to/lastmile_qr_scan"}, "is_reserved": 0, "fusion_lon": 0.0, "fusion_lat": 0.0, "lon": -77.010212, "name": "5de5f4c894c76f329231d42577a83c60"}, {"bike_id": "9afa7ef9afc72c488bc070549a0c7f54", "type": "electric_scooter", "is_disabled": 0, "lat": 38.902363333333334, "rental_uris": {"ios": "https://dc.lft.to/lastmile_qr_scan", "android": "https://dc.lft.to/lastmile_qr_scan"}, "is_reserved": 0, "fusion_lon": 0.0, "fusion_lat": 0.0, "lon": -77.04310433333333, "name": "9afa7ef9afc72c488bc070549a0c7f54"}, {"bike_id": "b39df2f7996e2bea1052a5dd5bcb2c15", "type": "electric_scooter", "is_disabled": 0, "lat": 38.909725, "rental_uris": {"ios": "https://dc.lft.to/lastmile_qr_scan", "android": "https://dc.lft.to/lastmile_qr_scan"}, "is_reserved": 0, "fusion_lon": 0.0, "fusion_lat": 0.0, "lon": -77.03856533333334, "name": "b39df2f7996e2bea1052a5dd5bcb2c15"}, {"bike_id": "5a602765077ed38bc3b82b747a4664c9", "type": "electric_scooter", "is_disabled": 0, "lat": 38.9401645, "rental_uris": {"ios": "https://dc.lft.to/lastmile_qr_scan", "android": "https://dc.lft.to/lastmile_qr_scan"}, "is_reserved": 0, "fusion_lon": 0.0, "fusion_lat": 0.0, "lon": -77.026377, "name": "5a602765077ed38bc3b82b747a4664c9"}, {"bike_id": "bd5a4efb59a8bfa2b2e8b2911a562d44", "type": "electric_scooter", "is_disabled": 0, "lat": 38.90602616666666, "rental_uris": {"ios": "https://dc.lft.to/lastmile_qr_scan", "android": "https://dc.lft.to/lastmile_qr_scan"}, "is_reserved": 0, "fusion_lon": 0.0, "fusion_lat": 0.0, "lon": -77.046951, "name": "bd5a4efb59a8bfa2b2e8b2911a562d44"}, {"bike_id": "6c8b469fe42b7acb57693f038d5facf2", "type": "electric_scooter", "is_disabled": 0, "lat": 38.91678783333333, "rental_uris": {"ios": "https://dc.lft.to/lastmile_qr_scan", "android": "https://dc.lft.to/lastmile_qr_scan"}, "is_reserved": 0, "fusion_lon": 0.0, "fusion_lat": 0.0, "lon": -77.01571833333334, "name": "6c8b469fe42b7acb57693f038d5facf2"}, {"bike_id": "1e0bbdae895c6404707987766a3b8f0a", "type": "electric_scooter", "is_disabled": 0, "lat": 38.916980833333334, "rental_uris": {"ios": "https://dc.lft.to/lastmile_qr_scan", "android": "https://dc.lft.to/lastmile_qr_scan"}, "is_reserved": 0, "fusion_lon": 0.0, "fusion_lat": 0.0, "lon": -77.0306045, "name": "1e0bbdae895c6404707987766a3b8f0a"}, {"bike_id": "d3068b2c58dd07951af5e5f07c8f2295", "type": "electric_scooter", "is_disabled": 0, "lat": 38.8976755, "rental_uris": {"ios": "https://dc.lft.to/lastmile_qr_scan", "android": "https://dc.lft.to/lastmile_qr_scan"}, "is_reserved": 0, "fusion_lon": 0.0, "fusion_lat": 0.0, "lon": -77.02616583333334, "name": "d3068b2c58dd07951af5e5f07c8f2295"}, {"bike_id": "93d8ff1cbbd6b5150782fef15eae5bb1", "type": "electric_scooter", "is_disabled": 0, "lat": 38.8974675, "rental_uris": {"ios": "https://dc.lft.to/lastmile_qr_scan", "android": "https://dc.lft.to/lastmile_qr_scan"}, "is_reserved": 0, "fusion_lon": 0.0, "fusion_lat": 0.0, "lon": -76.993736, "name": "93d8ff1cbbd6b5150782fef15eae5bb1"}, {"bike_id": "465cc8d30d0caa04ea0ea240a4250fd1", "type": "electric_scooter", "is_disabled": 0, "lat": 38.902726, "rental_uris": {"ios": "https://dc.lft.to/lastmile_qr_scan", "android": "https://dc.lft.to/lastmile_qr_scan"}, "is_reserved": 0, "fusion_lon": 0.0, "fusion_lat": 0.0, "lon": -77.033779, "name": "465cc8d30d0caa04ea0ea240a4250fd1"}, {"bike_id": "c842b51e6afed257b66a57b15968dd6c", "type": "electric_scooter", "is_disabled": 0, "lat": 38.89842633333333, "rental_uris": {"ios": "https://dc.lft.to/lastmile_qr_scan", "android": "https://dc.lft.to/lastmile_qr_scan"}, "is_reserved": 0, "fusion_lon": 0.0, "fusion_lat": 0.0, "lon": -76.94629183333333, "name": "c842b51e6afed257b66a57b15968dd6c"}, {"bike_id": "ebabad0ad94bc777bcf7286e2a0ec165", "type": "electric_scooter", "is_disabled": 0, "lat": 38.89882733333334, "rental_uris": {"ios": "https://dc.lft.to/lastmile_qr_scan", "android": "https://dc.lft.to/lastmile_qr_scan"}, "is_reserved": 0, "fusion_lon": 0.0, "fusion_lat": 0.0, "lon": -76.93175783333334, "name": "ebabad0ad94bc777bcf7286e2a0ec165"}, {"bike_id": "54b6fbe1dd2a962dcf8fea11a32291c0", "type": "electric_scooter", "is_disabled": 0, "lat": 38.924501, "rental_uris": {"ios": "https://dc.lft.to/lastmile_qr_scan", "android": "https://dc.lft.to/lastmile_qr_scan"}, "is_reserved": 0, "fusion_lon": 0.0, "fusion_lat": 0.0, "lon": -77.0334275, "name": "54b6fbe1dd2a962dcf8fea11a32291c0"}, {"bike_id": "0270ba2626028e8c0208b04bbd6a2777", "type": "electric_scooter", "is_disabled": 0, "lat": 38.923384, "rental_uris": {"ios": "https://dc.lft.to/lastmile_qr_scan", "android": "https://dc.lft.to/lastmile_qr_scan"}, "is_reserved": 0, "fusion_lon": 0.0, "fusion_lat": 0.0, "lon": -77.054191, "name": "0270ba2626028e8c0208b04bbd6a2777"}, {"bike_id": "a6f5748ff156097b52a5a20f5e791f50", "type": "electric_scooter", "is_disabled": 0, "lat": 38.97680716666667, "rental_uris": {"ios": "https://dc.lft.to/lastmile_qr_scan", "android": "https://dc.lft.to/lastmile_qr_scan"}, "is_reserved": 0, "fusion_lon": 0.0, "fusion_lat": 0.0, "lon": -77.01652916666667, "name": "a6f5748ff156097b52a5a20f5e791f50"}, {"bike_id": "dc105f4a240f531f518d9341ca0bbc2f", "type": "electric_scooter", "is_disabled": 0, "lat": 38.9223205, "rental_uris": {"ios": "https://dc.lft.to/lastmile_qr_scan", "android": "https://dc.lft.to/lastmile_qr_scan"}, "is_reserved": 0, "fusion_lon": 0.0, "fusion_lat": 0.0, "lon": -76.9734125, "name": "dc105f4a240f531f518d9341ca0bbc2f"}, {"bike_id": "29b5aca36ab1a50f150486542b7d47f6", "type": "electric_bike", "is_disabled": 0, "lat": 38.815125, "rental_uris": {"ios": "https://dc.lft.to/lastmile_qr_scan", "android": "https://dc.lft.to/lastmile_qr_scan"}, "is_reserved": 0, "fusion_lon": 0.0, "fusion_lat": 0.0, "lon": -77.12649983333333, "name": "29b5aca36ab1a50f150486542b7d47f6"}, {"bike_id": "54e48ba261fd79f02ce0400aec3227ea", "type": "electric_bike", "is_disabled": 0, "lat": 38.796093, "rental_uris": {"ios": "https://dc.lft.to/lastmile_qr_scan", "android": "https://dc.lft.to/lastmile_qr_scan"}, "is_reserved": 0, "fusion_lon": 0.0, "fusion_lat": 0.0, "lon": -76.99742166666667, "name": "54e48ba261fd79f02ce0400aec3227ea"}, {"bike_id": "b316d86da62aa156c1eae1c85977bcb9", "type": "electric_scooter", "is_disabled": 0, "lat": 38.904780333333335, "rental_uris": {"ios": "https://dc.lft.to/lastmile_qr_scan", "android": "https://dc.lft.to/lastmile_qr_scan"}, "is_reserved": 0, "fusion_lon": 0.0, "fusion_lat": 0.0, "lon": -77.06106033333333, "name": "b316d86da62aa156c1eae1c85977bcb9"}, {"bike_id": "6d68802b457498a91efb75a3cbaf8cda", "type": "electric_scooter", "is_disabled": 0, "lat": 38.900223833333335, "rental_uris": {"ios": "https://dc.lft.to/lastmile_qr_scan", "android": "https://dc.lft.to/lastmile_qr_scan"}, "is_reserved": 0, "fusion_lon": 0.0, "fusion_lat": 0.0, "lon": -77.0017175, "name": "6d68802b457498a91efb75a3cbaf8cda"}, {"bike_id": "5d65bbb2943e4256acc4370ec2568ffd", "type": "electric_scooter", "is_disabled": 0, "lat": 38.9236975, "rental_uris": {"ios": "https://dc.lft.to/lastmile_qr_scan", "android": "https://dc.lft.to/lastmile_qr_scan"}, "is_reserved": 0, "fusion_lon": 0.0, "fusion_lat": 0.0, "lon": -77.03053216666666, "name": "5d65bbb2943e4256acc4370ec2568ffd"}, {"bike_id": "8f528b1147e30fded1baa722eccf2f6e", "type": "electric_scooter", "is_disabled": 0, "lat": 38.88216116666667, "rental_uris": {"ios": "https://dc.lft.to/lastmile_qr_scan", "android": "https://dc.lft.to/lastmile_qr_scan"}, "is_reserved": 0, "fusion_lon": 0.0, "fusion_lat": 0.0, "lon": -76.92658083333333, "name": "8f528b1147e30fded1baa722eccf2f6e"}, {"bike_id": "5f1d7a396ede1314ad7576c41c04403c", "type": "electric_scooter", "is_disabled": 0, "lat": 38.9478735, "rental_uris": {"ios": "https://dc.lft.to/lastmile_qr_scan", "android": "https://dc.lft.to/lastmile_qr_scan"}, "is_reserved": 0, "fusion_lon": 0.0, "fusion_lat": 0.0, "lon": -77.0213005, "name": "5f1d7a396ede1314ad7576c41c04403c"}, {"bike_id": "176e89398d056d27b76989441a589756", "type": "electric_scooter", "is_disabled": 0, "lat": 38.934019, "rental_uris": {"ios": "https://dc.lft.to/lastmile_qr_scan", "android": "https://dc.lft.to/lastmile_qr_scan"}, "is_reserved": 0, "fusion_lon": 0.0, "fusion_lat": 0.0, "lon": -77.02205233333333, "name": "176e89398d056d27b76989441a589756"}, {"bike_id": "454a79dd79fe071cf723efc5be7f26e8", "type": "electric_scooter", "is_disabled": 0, "lat": 38.93345983333333, "rental_uris": {"ios": "https://dc.lft.to/lastmile_qr_scan", "android": "https://dc.lft.to/lastmile_qr_scan"}, "is_reserved": 0, "fusion_lon": 0.0, "fusion_lat": 0.0, "lon": -77.02622483333333, "name": "454a79dd79fe071cf723efc5be7f26e8"}, {"bike_id": "cae43dbcfa08ecbacfd95921b7f2f7b5", "type": "electric_bike", "is_disabled": 0, "lat": 38.88060016666667, "rental_uris": {"ios": "https://dc.lft.to/lastmile_qr_scan", "android": "https://dc.lft.to/lastmile_qr_scan"}, "is_reserved": 0, "fusion_lon": 0.0, "fusion_lat": 0.0, "lon": -76.96234083333333, "name": "cae43dbcfa08ecbacfd95921b7f2f7b5"}, {"bike_id": "a78db9dc863f54980e4bc5d01340c4e2", "type": "electric_bike", "is_disabled": 0, "lat": 38.87278516666667, "rental_uris": {"ios": "https://dc.lft.to/lastmile_qr_scan", "android": "https://dc.lft.to/lastmile_qr_scan"}, "is_reserved": 0, "fusion_lon": 0.0, "fusion_lat": 0.0, "lon": -77.23315966666667, "name": "a78db9dc863f54980e4bc5d01340c4e2"}, {"bike_id": "8126ebcbe5ac62a8396af7d2403c3b7c", "type": "electric_scooter", "is_disabled": 0, "lat": 38.91304866666667, "rental_uris": {"ios": "https://dc.lft.to/lastmile_qr_scan", "android": "https://dc.lft.to/lastmile_qr_scan"}, "is_reserved": 0, "fusion_lon": 0.0, "fusion_lat": 0.0, "lon": -77.04553766666666, "name": "8126ebcbe5ac62a8396af7d2403c3b7c"}, {"bike_id": "eedbc2da2b06e0f11645fc19195e6dfb", "type": "electric_scooter", "is_disabled": 0, "lat": 38.932991333333334, "rental_uris": {"ios": "https://dc.lft.to/lastmile_qr_scan", "android": "https://dc.lft.to/lastmile_qr_scan"}, "is_reserved": 0, "fusion_lon": 0.0, "fusion_lat": 0.0, "lon": -77.032646, "name": "eedbc2da2b06e0f11645fc19195e6dfb"}, {"bike_id": "4343a19721c635b205a5f05bb7dcd004", "type": "electric_scooter", "is_disabled": 0, "lat": 38.914229166666665, "rental_uris": {"ios": "https://dc.lft.to/lastmile_qr_scan", "android": "https://dc.lft.to/lastmile_qr_scan"}, "is_reserved": 0, "fusion_lon": 0.0, "fusion_lat": 0.0, "lon": -77.0480705, "name": "4343a19721c635b205a5f05bb7dcd004"}, {"bike_id": "eaa959c7809b18310a69b80736e8ca99", "type": "electric_scooter", "is_disabled": 0, "lat": 38.90206533333333, "rental_uris": {"ios": "https://dc.lft.to/lastmile_qr_scan", "android": "https://dc.lft.to/lastmile_qr_scan"}, "is_reserved": 0, "fusion_lon": 0.0, "fusion_lat": 0.0, "lon": -77.04027383333333, "name": "eaa959c7809b18310a69b80736e8ca99"}, {"bike_id": "426d3f2d546eedf568586f3e5af5fa07", "type": "electric_scooter", "is_disabled": 0, "lat": 38.9102895, "rental_uris": {"ios": "https://dc.lft.to/lastmile_qr_scan", "android": "https://dc.lft.to/lastmile_qr_scan"}, "is_reserved": 0, "fusion_lon": 0.0, "fusion_lat": 0.0, "lon": -77.0075485, "name": "426d3f2d546eedf568586f3e5af5fa07"}, {"bike_id": "e8d77c2a21c24fea824353cc7b2604bb", "type": "electric_bike", "is_disabled": 0, "lat": 38.910153, "rental_uris": {"ios": "https://dc.lft.to/lastmile_qr_scan", "android": "https://dc.lft.to/lastmile_qr_scan"}, "is_reserved": 0, "fusion_lon": 0.0, "fusion_lat": 0.0, "lon": -77.22799733333333, "name": "e8d77c2a21c24fea824353cc7b2604bb"}, {"bike_id": "90691e3677a6b2848a0ef002460a0f32", "type": "electric_scooter", "is_disabled": 0, "lat": 38.91786033333333, "rental_uris": {"ios": "https://dc.lft.to/lastmile_qr_scan", "android": "https://dc.lft.to/lastmile_qr_scan"}, "is_reserved": 0, "fusion_lon": 0.0, "fusion_lat": 0.0, "lon": -77.02309716666667, "name": "90691e3677a6b2848a0ef002460a0f32"}, {"bike_id": "16f98e9aabe801342be59627b956daae", "type": "electric_scooter", "is_disabled": 0, "lat": 38.966030333333336, "rental_uris": {"ios": "https://dc.lft.to/lastmile_qr_scan", "android": "https://dc.lft.to/lastmile_qr_scan"}, "is_reserved": 0, "fusion_lon": 0.0, "fusion_lat": 0.0, "lon": -77.01973333333333, "name": "16f98e9aabe801342be59627b956daae"}, {"bike_id": "67ad7731a7eea76a2be70aa21c2d389d", "type": "electric_scooter", "is_disabled": 0, "lat": 38.869754, "rental_uris": {"ios": "https://dc.lft.to/lastmile_qr_scan", "android": "https://dc.lft.to/lastmile_qr_scan"}, "is_reserved": 0, "fusion_lon": 0.0, "fusion_lat": 0.0, "lon": -76.981716, "name": "67ad7731a7eea76a2be70aa21c2d389d"}, {"bike_id": "8876b9325fd87f1b1798868807396487", "type": "electric_scooter", "is_disabled": 0, "lat": 38.909549166666665, "rental_uris": {"ios": "https://dc.lft.to/lastmile_qr_scan", "android": "https://dc.lft.to/lastmile_qr_scan"}, "is_reserved": 0, "fusion_lon": 0.0, "fusion_lat": 0.0, "lon": -77.02710766666667, "name": "8876b9325fd87f1b1798868807396487"}, {"bike_id": "afc1c49463e1c7ecec9906b370d8c6d1", "type": "electric_scooter", "is_disabled": 0, "lat": 38.955772333333336, "rental_uris": {"ios": "https://dc.lft.to/lastmile_qr_scan", "android": "https://dc.lft.to/lastmile_qr_scan"}, "is_reserved": 0, "fusion_lon": 0.0, "fusion_lat": 0.0, "lon": -77.08031866666667, "name": "afc1c49463e1c7ecec9906b370d8c6d1"}, {"bike_id": "ee924589ff488239841860c8bb03f641", "type": "electric_scooter", "is_disabled": 0, "lat": 38.928309, "rental_uris": {"ios": "https://dc.lft.to/lastmile_qr_scan", "android": "https://dc.lft.to/lastmile_qr_scan"}, "is_reserved": 0, "fusion_lon": 0.0, "fusion_lat": 0.0, "lon": -77.05515933333334, "name": "ee924589ff488239841860c8bb03f641"}, {"bike_id": "d4558b91a18a56c20fc0ffc929c98eed", "type": "electric_scooter", "is_disabled": 0, "lat": 38.87856766666667, "rental_uris": {"ios": "https://dc.lft.to/lastmile_qr_scan", "android": "https://dc.lft.to/lastmile_qr_scan"}, "is_reserved": 0, "fusion_lon": 0.0, "fusion_lat": 0.0, "lon": -77.00848116666667, "name": "d4558b91a18a56c20fc0ffc929c98eed"}, {"bike_id": "c9784fa69dd1ab33b79a5a1bf0dd10bb", "type": "electric_scooter", "is_disabled": 0, "lat": 38.984326, "rental_uris": {"ios": "https://dc.lft.to/lastmile_qr_scan", "android": "https://dc.lft.to/lastmile_qr_scan"}, "is_reserved": 0, "fusion_lon": 0.0, "fusion_lat": 0.0, "lon": -77.0266975, "name": "c9784fa69dd1ab33b79a5a1bf0dd10bb"}, {"bike_id": "526fd1f55131ef9915b84f75c3ae3e45", "type": "electric_scooter", "is_disabled": 0, "lat": 38.928022, "rental_uris": {"ios": "https://dc.lft.to/lastmile_qr_scan", "android": "https://dc.lft.to/lastmile_qr_scan"}, "is_reserved": 0, "fusion_lon": 0.0, "fusion_lat": 0.0, "lon": -77.02384916666666, "name": "526fd1f55131ef9915b84f75c3ae3e45"}, {"bike_id": "3c7fec722845f3e1ad6c9cbc02600bab", "type": "electric_bike", "is_disabled": 0, "lat": 38.95641633333334, "rental_uris": {"ios": "https://dc.lft.to/lastmile_qr_scan", "android": "https://dc.lft.to/lastmile_qr_scan"}, "is_reserved": 0, "fusion_lon": 0.0, "fusion_lat": 0.0, "lon": -76.93870416666667, "name": "3c7fec722845f3e1ad6c9cbc02600bab"}, {"bike_id": "1cc83b2ec7e4ca2e8cf9ca20b4cd2102", "type": "electric_scooter", "is_disabled": 0, "lat": 38.92250683333333, "rental_uris": {"ios": "https://dc.lft.to/lastmile_qr_scan", "android": "https://dc.lft.to/lastmile_qr_scan"}, "is_reserved": 0, "fusion_lon": 0.0, "fusion_lat": 0.0, "lon": -77.01969383333333, "name": "1cc83b2ec7e4ca2e8cf9ca20b4cd2102"}, {"bike_id": "a1dae99754d5996cf4d86afdcd5a0f8e", "type": "electric_scooter", "is_disabled": 0, "lat": 38.88160966666667, "rental_uris": {"ios": "https://dc.lft.to/lastmile_qr_scan", "android": "https://dc.lft.to/lastmile_qr_scan"}, "is_reserved": 0, "fusion_lon": 0.0, "fusion_lat": 0.0, "lon": -77.02763516666667, "name": "a1dae99754d5996cf4d86afdcd5a0f8e"}, {"bike_id": "53df982e73e989329fb2189d6d86364f", "type": "electric_scooter", "is_disabled": 0, "lat": 38.86375816666666, "rental_uris": {"ios": "https://dc.lft.to/lastmile_qr_scan", "android": "https://dc.lft.to/lastmile_qr_scan"}, "is_reserved": 0, "fusion_lon": 0.0, "fusion_lat": 0.0, "lon": -76.99062133333334, "name": "53df982e73e989329fb2189d6d86364f"}, {"bike_id": "566b9260f3b24f89466aa8c3eb87a258", "type": "electric_bike", "is_disabled": 0, "lat": 38.809741, "rental_uris": {"ios": "https://dc.lft.to/lastmile_qr_scan", "android": "https://dc.lft.to/lastmile_qr_scan"}, "is_reserved": 0, "fusion_lon": 0.0, "fusion_lat": 0.0, "lon": -77.0861825, "name": "566b9260f3b24f89466aa8c3eb87a258"}, {"bike_id": "c7db5d17e2baecf2c4c37d70dc1ffe33", "type": "electric_scooter", "is_disabled": 0, "lat": 38.90326533333333, "rental_uris": {"ios": "https://dc.lft.to/lastmile_qr_scan", "android": "https://dc.lft.to/lastmile_qr_scan"}, "is_reserved": 0, "fusion_lon": 0.0, "fusion_lat": 0.0, "lon": -76.99122833333334, "name": "c7db5d17e2baecf2c4c37d70dc1ffe33"}, {"bike_id": "3744ef5b7ddb8e63f808605b47b54933", "type": "electric_scooter", "is_disabled": 0, "lat": 38.9176235, "rental_uris": {"ios": "https://dc.lft.to/lastmile_qr_scan", "android": "https://dc.lft.to/lastmile_qr_scan"}, "is_reserved": 0, "fusion_lon": 0.0, "fusion_lat": 0.0, "lon": -77.04766916666667, "name": "3744ef5b7ddb8e63f808605b47b54933"}, {"bike_id": "14d817e54f0d6ddf29547351bb6dd4b0", "type": "electric_scooter", "is_disabled": 0, "lat": 38.900217166666664, "rental_uris": {"ios": "https://dc.lft.to/lastmile_qr_scan", "android": "https://dc.lft.to/lastmile_qr_scan"}, "is_reserved": 0, "fusion_lon": 0.0, "fusion_lat": 0.0, "lon": -77.0018255, "name": "14d817e54f0d6ddf29547351bb6dd4b0"}, {"bike_id": "1d879922103eeda835bb622378b5ca9c", "type": "electric_scooter", "is_disabled": 0, "lat": 38.89702833333333, "rental_uris": {"ios": "https://dc.lft.to/lastmile_qr_scan", "android": "https://dc.lft.to/lastmile_qr_scan"}, "is_reserved": 0, "fusion_lon": 0.0, "fusion_lat": 0.0, "lon": -77.0228365, "name": "1d879922103eeda835bb622378b5ca9c"}, {"bike_id": "4efd5829d5540735bfe162472c90324d", "type": "electric_scooter", "is_disabled": 0, "lat": 38.92857816666667, "rental_uris": {"ios": "https://dc.lft.to/lastmile_qr_scan", "android": "https://dc.lft.to/lastmile_qr_scan"}, "is_reserved": 0, "fusion_lon": 0.0, "fusion_lat": 0.0, "lon": -77.03699683333333, "name": "4efd5829d5540735bfe162472c90324d"}, {"bike_id": "2b24c12cca7406e16bfc42a528b2aefa", "type": "electric_scooter", "is_disabled": 0, "lat": 38.905887, "rental_uris": {"ios": "https://dc.lft.to/lastmile_qr_scan", "android": "https://dc.lft.to/lastmile_qr_scan"}, "is_reserved": 0, "fusion_lon": 0.0, "fusion_lat": 0.0, "lon": -77.07358733333334, "name": "2b24c12cca7406e16bfc42a528b2aefa"}, {"bike_id": "7a0c42968b873ece99ab9a69087f52ad", "type": "electric_scooter", "is_disabled": 0, "lat": 38.904913666666666, "rental_uris": {"ios": "https://dc.lft.to/lastmile_qr_scan", "android": "https://dc.lft.to/lastmile_qr_scan"}, "is_reserved": 0, "fusion_lon": 0.0, "fusion_lat": 0.0, "lon": -76.94958383333334, "name": "7a0c42968b873ece99ab9a69087f52ad"}, {"bike_id": "db098767555a5d232ad9de587d1bf259", "type": "electric_scooter", "is_disabled": 0, "lat": 38.922072666666665, "rental_uris": {"ios": "https://dc.lft.to/lastmile_qr_scan", "android": "https://dc.lft.to/lastmile_qr_scan"}, "is_reserved": 0, "fusion_lon": 0.0, "fusion_lat": 0.0, "lon": -77.03654916666666, "name": "db098767555a5d232ad9de587d1bf259"}, {"bike_id": "9aec3668ab690794f265dcc25957b670", "type": "electric_scooter", "is_disabled": 0, "lat": 38.92478, "rental_uris": {"ios": "https://dc.lft.to/lastmile_qr_scan", "android": "https://dc.lft.to/lastmile_qr_scan"}, "is_reserved": 0, "fusion_lon": 0.0, "fusion_lat": 0.0, "lon": -77.0283965, "name": "9aec3668ab690794f265dcc25957b670"}, {"bike_id": "c78acd53839d19565751de2df412aa5c", "type": "electric_scooter", "is_disabled": 0, "lat": 38.910719666666665, "rental_uris": {"ios": "https://dc.lft.to/lastmile_qr_scan", "android": "https://dc.lft.to/lastmile_qr_scan"}, "is_reserved": 0, "fusion_lon": 0.0, "fusion_lat": 0.0, "lon": -77.02711466666666, "name": "c78acd53839d19565751de2df412aa5c"}, {"bike_id": "874d8cb9109ac143d68b8914055eb608", "type": "electric_scooter", "is_disabled": 0, "lat": 38.863715166666665, "rental_uris": {"ios": "https://dc.lft.to/lastmile_qr_scan", "android": "https://dc.lft.to/lastmile_qr_scan"}, "is_reserved": 0, "fusion_lon": 0.0, "fusion_lat": 0.0, "lon": -76.99059583333333, "name": "874d8cb9109ac143d68b8914055eb608"}, {"bike_id": "edaa9a896acabeca86937d427d7b0b99", "type": "electric_scooter", "is_disabled": 0, "lat": 38.86678933333334, "rental_uris": {"ios": "https://dc.lft.to/lastmile_qr_scan", "android": "https://dc.lft.to/lastmile_qr_scan"}, "is_reserved": 0, "fusion_lon": 0.0, "fusion_lat": 0.0, "lon": -76.98556433333333, "name": "edaa9a896acabeca86937d427d7b0b99"}, {"bike_id": "93ed7dd329001be312fb8b244f1524f4", "type": "electric_scooter", "is_disabled": 0, "lat": 38.92189533333333, "rental_uris": {"ios": "https://dc.lft.to/lastmile_qr_scan", "android": "https://dc.lft.to/lastmile_qr_scan"}, "is_reserved": 0, "fusion_lon": 0.0, "fusion_lat": 0.0, "lon": -77.04683, "name": "93ed7dd329001be312fb8b244f1524f4"}, {"bike_id": "6febebc7f40801756f5d87bdf92143a2", "type": "electric_scooter", "is_disabled": 0, "lat": 38.923275, "rental_uris": {"ios": "https://dc.lft.to/lastmile_qr_scan", "android": "https://dc.lft.to/lastmile_qr_scan"}, "is_reserved": 0, "fusion_lon": 0.0, "fusion_lat": 0.0, "lon": -77.03615133333334, "name": "6febebc7f40801756f5d87bdf92143a2"}, {"bike_id": "4784b63f861122a409632811ca0f923e", "type": "electric_scooter", "is_disabled": 0, "lat": 38.923745, "rental_uris": {"ios": "https://dc.lft.to/lastmile_qr_scan", "android": "https://dc.lft.to/lastmile_qr_scan"}, "is_reserved": 0, "fusion_lon": 0.0, "fusion_lat": 0.0, "lon": -77.03095533333334, "name": "4784b63f861122a409632811ca0f923e"}, {"bike_id": "98f9e57a53af5a95bd4196761466571e", "type": "electric_scooter", "is_disabled": 0, "lat": 38.931347833333334, "rental_uris": {"ios": "https://dc.lft.to/lastmile_qr_scan", "android": "https://dc.lft.to/lastmile_qr_scan"}, "is_reserved": 0, "fusion_lon": 0.0, "fusion_lat": 0.0, "lon": -77.043442, "name": "98f9e57a53af5a95bd4196761466571e"}, {"bike_id": "db525f569bcfc290fc27149ddd40f64a", "type": "electric_scooter", "is_disabled": 0, "lat": 38.89743166666667, "rental_uris": {"ios": "https://dc.lft.to/lastmile_qr_scan", "android": "https://dc.lft.to/lastmile_qr_scan"}, "is_reserved": 0, "fusion_lon": 0.0, "fusion_lat": 0.0, "lon": -77.04532216666666, "name": "db525f569bcfc290fc27149ddd40f64a"}, {"bike_id": "4e8b6c33345ae45984702993484545d9", "type": "electric_scooter", "is_disabled": 0, "lat": 38.90949883333333, "rental_uris": {"ios": "https://dc.lft.to/lastmile_qr_scan", "android": "https://dc.lft.to/lastmile_qr_scan"}, "is_reserved": 0, "fusion_lon": 0.0, "fusion_lat": 0.0, "lon": -77.032266, "name": "4e8b6c33345ae45984702993484545d9"}, {"bike_id": "5265eece6053a6497d894295c2bafc40", "type": "electric_scooter", "is_disabled": 0, "lat": 38.92369683333333, "rental_uris": {"ios": "https://dc.lft.to/lastmile_qr_scan", "android": "https://dc.lft.to/lastmile_qr_scan"}, "is_reserved": 0, "fusion_lon": 0.0, "fusion_lat": 0.0, "lon": -77.03123116666667, "name": "5265eece6053a6497d894295c2bafc40"}, {"bike_id": "733307cc8802553acd1c4dbcfa65eb60", "type": "electric_scooter", "is_disabled": 0, "lat": 38.92015416666667, "rental_uris": {"ios": "https://dc.lft.to/lastmile_qr_scan", "android": "https://dc.lft.to/lastmile_qr_scan"}, "is_reserved": 0, "fusion_lon": 0.0, "fusion_lat": 0.0, "lon": -77.01315633333333, "name": "733307cc8802553acd1c4dbcfa65eb60"}, {"bike_id": "8b6aaa6a4b1726154cfa42dd0f0f0bb8", "type": "electric_scooter", "is_disabled": 0, "lat": 38.91817233333333, "rental_uris": {"ios": "https://dc.lft.to/lastmile_qr_scan", "android": "https://dc.lft.to/lastmile_qr_scan"}, "is_reserved": 0, "fusion_lon": 0.0, "fusion_lat": 0.0, "lon": -77.02477116666667, "name": "8b6aaa6a4b1726154cfa42dd0f0f0bb8"}, {"bike_id": "06a2ea753bfbf257d9e6995f7b165212", "type": "electric_scooter", "is_disabled": 0, "lat": 38.94215616666666, "rental_uris": {"ios": "https://dc.lft.to/lastmile_qr_scan", "android": "https://dc.lft.to/lastmile_qr_scan"}, "is_reserved": 0, "fusion_lon": 0.0, "fusion_lat": 0.0, "lon": -77.0258045, "name": "06a2ea753bfbf257d9e6995f7b165212"}, {"bike_id": "769b0d85421ed57714deff091b4eda53", "type": "electric_scooter", "is_disabled": 0, "lat": 38.913316333333334, "rental_uris": {"ios": "https://dc.lft.to/lastmile_qr_scan", "android": "https://dc.lft.to/lastmile_qr_scan"}, "is_reserved": 0, "fusion_lon": 0.0, "fusion_lat": 0.0, "lon": -77.02688733333333, "name": "769b0d85421ed57714deff091b4eda53"}, {"bike_id": "2247e8af2ed4ed4722ebfd1a76a24fe7", "type": "electric_scooter", "is_disabled": 0, "lat": 38.936359833333334, "rental_uris": {"ios": "https://dc.lft.to/lastmile_qr_scan", "android": "https://dc.lft.to/lastmile_qr_scan"}, "is_reserved": 0, "fusion_lon": 0.0, "fusion_lat": 0.0, "lon": -77.0587725, "name": "2247e8af2ed4ed4722ebfd1a76a24fe7"}, {"bike_id": "e2bf719bda57cfc6f3385a4e2cac02ba", "type": "electric_scooter", "is_disabled": 0, "lat": 38.91926983333333, "rental_uris": {"ios": "https://dc.lft.to/lastmile_qr_scan", "android": "https://dc.lft.to/lastmile_qr_scan"}, "is_reserved": 0, "fusion_lon": 0.0, "fusion_lat": 0.0, "lon": -77.02567816666667, "name": "e2bf719bda57cfc6f3385a4e2cac02ba"}, {"bike_id": "d00be468edbfc7b652fcc56acc12743b", "type": "electric_scooter", "is_disabled": 0, "lat": 38.9163305, "rental_uris": {"ios": "https://dc.lft.to/lastmile_qr_scan", "android": "https://dc.lft.to/lastmile_qr_scan"}, "is_reserved": 0, "fusion_lon": 0.0, "fusion_lat": 0.0, "lon": -77.03038366666667, "name": "d00be468edbfc7b652fcc56acc12743b"}, {"bike_id": "8d18ddc1609dafbf9f41805bd8ba24aa", "type": "electric_scooter", "is_disabled": 0, "lat": 38.922325666666666, "rental_uris": {"ios": "https://dc.lft.to/lastmile_qr_scan", "android": "https://dc.lft.to/lastmile_qr_scan"}, "is_reserved": 0, "fusion_lon": 0.0, "fusion_lat": 0.0, "lon": -76.97343416666666, "name": "8d18ddc1609dafbf9f41805bd8ba24aa"}, {"bike_id": "af04f12172a5bf1e7d5140c40632550d", "type": "electric_bike", "is_disabled": 0, "lat": 38.9450895, "rental_uris": {"ios": "https://dc.lft.to/lastmile_qr_scan", "android": "https://dc.lft.to/lastmile_qr_scan"}, "is_reserved": 0, "fusion_lon": 0.0, "fusion_lat": 0.0, "lon": -77.00669516666666, "name": "af04f12172a5bf1e7d5140c40632550d"}, {"bike_id": "cace2d8ebb597090f4f59be5b72ccdbb", "type": "electric_bike", "is_disabled": 0, "lat": 38.8773115, "rental_uris": {"ios": "https://dc.lft.to/lastmile_qr_scan", "android": "https://dc.lft.to/lastmile_qr_scan"}, "is_reserved": 0, "fusion_lon": 0.0, "fusion_lat": 0.0, "lon": -77.00288833333333, "name": "cace2d8ebb597090f4f59be5b72ccdbb"}, {"bike_id": "1b3c8733debbf18d5532de7283217c1b", "type": "electric_scooter", "is_disabled": 0, "lat": 38.92276666666667, "rental_uris": {"ios": "https://dc.lft.to/lastmile_qr_scan", "android": "https://dc.lft.to/lastmile_qr_scan"}, "is_reserved": 0, "fusion_lon": 0.0, "fusion_lat": 0.0, "lon": -76.99455816666666, "name": "1b3c8733debbf18d5532de7283217c1b"}, {"bike_id": "dab7c1f3daed4e8f7a804356d8727dc7", "type": "electric_bike", "is_disabled": 0, "lat": 38.811608666666665, "rental_uris": {"ios": "https://dc.lft.to/lastmile_qr_scan", "android": "https://dc.lft.to/lastmile_qr_scan"}, "is_reserved": 0, "fusion_lon": 0.0, "fusion_lat": 0.0, "lon": -77.06957783333333, "name": "dab7c1f3daed4e8f7a804356d8727dc7"}, {"bike_id": "8bb17314e511bd9dd0ec677681264d40", "type": "electric_scooter", "is_disabled": 0, "lat": 38.9225445, "rental_uris": {"ios": "https://dc.lft.to/lastmile_qr_scan", "android": "https://dc.lft.to/lastmile_qr_scan"}, "is_reserved": 0, "fusion_lon": 0.0, "fusion_lat": 0.0, "lon": -77.03895966666667, "name": "8bb17314e511bd9dd0ec677681264d40"}, {"bike_id": "40dfef31a3dc33e5c8c98a795c7269b8", "type": "electric_scooter", "is_disabled": 0, "lat": 38.9196765, "rental_uris": {"ios": "https://dc.lft.to/lastmile_qr_scan", "android": "https://dc.lft.to/lastmile_qr_scan"}, "is_reserved": 0, "fusion_lon": 0.0, "fusion_lat": 0.0, "lon": -77.04201683333334, "name": "40dfef31a3dc33e5c8c98a795c7269b8"}, {"bike_id": "d83857afff461a1fafc9da3750b0ee6f", "type": "electric_scooter", "is_disabled": 0, "lat": 38.90553583333333, "rental_uris": {"ios": "https://dc.lft.to/lastmile_qr_scan", "android": "https://dc.lft.to/lastmile_qr_scan"}, "is_reserved": 0, "fusion_lon": 0.0, "fusion_lat": 0.0, "lon": -76.99620666666667, "name": "d83857afff461a1fafc9da3750b0ee6f"}, {"bike_id": "b6ba7184f24e2cb950a1f04fd9950445", "type": "electric_scooter", "is_disabled": 0, "lat": 38.92484983333333, "rental_uris": {"ios": "https://dc.lft.to/lastmile_qr_scan", "android": "https://dc.lft.to/lastmile_qr_scan"}, "is_reserved": 0, "fusion_lon": 0.0, "fusion_lat": 0.0, "lon": -77.05208483333334, "name": "b6ba7184f24e2cb950a1f04fd9950445"}, {"bike_id": "94d09e55125ca02f32bc586d71e1c4be", "type": "electric_scooter", "is_disabled": 0, "lat": 38.92648533333333, "rental_uris": {"ios": "https://dc.lft.to/lastmile_qr_scan", "android": "https://dc.lft.to/lastmile_qr_scan"}, "is_reserved": 0, "fusion_lon": 0.0, "fusion_lat": 0.0, "lon": -77.02451216666667, "name": "94d09e55125ca02f32bc586d71e1c4be"}, {"bike_id": "178e7abea27079ba44025854efec0240", "type": "electric_scooter", "is_disabled": 0, "lat": 38.88431583333333, "rental_uris": {"ios": "https://dc.lft.to/lastmile_qr_scan", "android": "https://dc.lft.to/lastmile_qr_scan"}, "is_reserved": 0, "fusion_lon": 0.0, "fusion_lat": 0.0, "lon": -76.9574645, "name": "178e7abea27079ba44025854efec0240"}, {"bike_id": "3a8d06fb6726ee1b74555d950d2717ce", "type": "electric_bike", "is_disabled": 0, "lat": 38.80410583333333, "rental_uris": {"ios": "https://dc.lft.to/lastmile_qr_scan", "android": "https://dc.lft.to/lastmile_qr_scan"}, "is_reserved": 0, "fusion_lon": 0.0, "fusion_lat": 0.0, "lon": -77.0554815, "name": "3a8d06fb6726ee1b74555d950d2717ce"}, {"bike_id": "d96052cd656d10d540dbd4a4ee6c3e4f", "type": "electric_scooter", "is_disabled": 0, "lat": 38.905752666666665, "rental_uris": {"ios": "https://dc.lft.to/lastmile_qr_scan", "android": "https://dc.lft.to/lastmile_qr_scan"}, "is_reserved": 0, "fusion_lon": 0.0, "fusion_lat": 0.0, "lon": -77.0059615, "name": "d96052cd656d10d540dbd4a4ee6c3e4f"}, {"bike_id": "6418d4fc1e616670b33c6ce3c6f2d28a", "type": "electric_scooter", "is_disabled": 0, "lat": 38.907171, "rental_uris": {"ios": "https://dc.lft.to/lastmile_qr_scan", "android": "https://dc.lft.to/lastmile_qr_scan"}, "is_reserved": 0, "fusion_lon": 0.0, "fusion_lat": 0.0, "lon": -77.01019583333333, "name": "6418d4fc1e616670b33c6ce3c6f2d28a"}, {"bike_id": "b029b1285fe7824002fbf7ebb7242471", "type": "electric_bike", "is_disabled": 0, "lat": 38.89997983333333, "rental_uris": {"ios": "https://dc.lft.to/lastmile_qr_scan", "android": "https://dc.lft.to/lastmile_qr_scan"}, "is_reserved": 0, "fusion_lon": 0.0, "fusion_lat": 0.0, "lon": -77.07546216666667, "name": "b029b1285fe7824002fbf7ebb7242471"}, {"bike_id": "52d8352690db147d8e4ed409201694ed", "type": "electric_bike", "is_disabled": 0, "lat": 38.953277666666665, "rental_uris": {"ios": "https://dc.lft.to/lastmile_qr_scan", "android": "https://dc.lft.to/lastmile_qr_scan"}, "is_reserved": 0, "fusion_lon": 0.0, "fusion_lat": 0.0, "lon": -76.9825215, "name": "52d8352690db147d8e4ed409201694ed"}, {"bike_id": "9250cae12253d68a19abb66fdb9637ca", "type": "electric_scooter", "is_disabled": 0, "lat": 38.920901666666666, "rental_uris": {"ios": "https://dc.lft.to/lastmile_qr_scan", "android": "https://dc.lft.to/lastmile_qr_scan"}, "is_reserved": 0, "fusion_lon": 0.0, "fusion_lat": 0.0, "lon": -77.03152416666667, "name": "9250cae12253d68a19abb66fdb9637ca"}, {"bike_id": "76ffcd28cefc1c7c53c5b9c6a40862a3", "type": "electric_scooter", "is_disabled": 0, "lat": 38.8805065, "rental_uris": {"ios": "https://dc.lft.to/lastmile_qr_scan", "android": "https://dc.lft.to/lastmile_qr_scan"}, "is_reserved": 0, "fusion_lon": 0.0, "fusion_lat": 0.0, "lon": -77.005357, "name": "76ffcd28cefc1c7c53c5b9c6a40862a3"}, {"bike_id": "b9bf329991e3e79160990cdc311192e4", "type": "electric_scooter", "is_disabled": 0, "lat": 38.91729633333333, "rental_uris": {"ios": "https://dc.lft.to/lastmile_qr_scan", "android": "https://dc.lft.to/lastmile_qr_scan"}, "is_reserved": 0, "fusion_lon": 0.0, "fusion_lat": 0.0, "lon": -77.02606433333334, "name": "b9bf329991e3e79160990cdc311192e4"}, {"bike_id": "246251ae358ae4a8cdc59bd20abe81b3", "type": "electric_scooter", "is_disabled": 0, "lat": 38.89249183333333, "rental_uris": {"ios": "https://dc.lft.to/lastmile_qr_scan", "android": "https://dc.lft.to/lastmile_qr_scan"}, "is_reserved": 0, "fusion_lon": 0.0, "fusion_lat": 0.0, "lon": -76.92565616666667, "name": "246251ae358ae4a8cdc59bd20abe81b3"}, {"bike_id": "a501788df510e22f4d4445dd8f75f2bb", "type": "electric_scooter", "is_disabled": 0, "lat": 38.90714, "rental_uris": {"ios": "https://dc.lft.to/lastmile_qr_scan", "android": "https://dc.lft.to/lastmile_qr_scan"}, "is_reserved": 0, "fusion_lon": 0.0, "fusion_lat": 0.0, "lon": -77.03432083333334, "name": "a501788df510e22f4d4445dd8f75f2bb"}, {"bike_id": "857e48452ac4ef2bc8501af49be53a6e", "type": "electric_scooter", "is_disabled": 0, "lat": 38.90225233333334, "rental_uris": {"ios": "https://dc.lft.to/lastmile_qr_scan", "android": "https://dc.lft.to/lastmile_qr_scan"}, "is_reserved": 0, "fusion_lon": 0.0, "fusion_lat": 0.0, "lon": -77.04146833333333, "name": "857e48452ac4ef2bc8501af49be53a6e"}, {"bike_id": "f33ce41d66e3f2409401f3e7b0517e90", "type": "electric_scooter", "is_disabled": 0, "lat": 38.921548, "rental_uris": {"ios": "https://dc.lft.to/lastmile_qr_scan", "android": "https://dc.lft.to/lastmile_qr_scan"}, "is_reserved": 0, "fusion_lon": 0.0, "fusion_lat": 0.0, "lon": -77.033732, "name": "f33ce41d66e3f2409401f3e7b0517e90"}, {"bike_id": "4db4dc66fd03c0e0060e18a8774d97d0", "type": "electric_scooter", "is_disabled": 0, "lat": 38.923197, "rental_uris": {"ios": "https://dc.lft.to/lastmile_qr_scan", "android": "https://dc.lft.to/lastmile_qr_scan"}, "is_reserved": 0, "fusion_lon": 0.0, "fusion_lat": 0.0, "lon": -77.03901783333333, "name": "4db4dc66fd03c0e0060e18a8774d97d0"}, {"bike_id": "050a8a05b80b0676f79a3d4b8705b7dc", "type": "electric_scooter", "is_disabled": 0, "lat": 38.86441516666667, "rental_uris": {"ios": "https://dc.lft.to/lastmile_qr_scan", "android": "https://dc.lft.to/lastmile_qr_scan"}, "is_reserved": 0, "fusion_lon": 0.0, "fusion_lat": 0.0, "lon": -76.97990033333333, "name": "050a8a05b80b0676f79a3d4b8705b7dc"}, {"bike_id": "5151481a1ad1253e9c597142a9029e9b", "type": "electric_bike", "is_disabled": 0, "lat": 38.99303333333334, "rental_uris": {"ios": "https://dc.lft.to/lastmile_qr_scan", "android": "https://dc.lft.to/lastmile_qr_scan"}, "is_reserved": 0, "fusion_lon": 0.0, "fusion_lat": 0.0, "lon": -77.02500433333333, "name": "5151481a1ad1253e9c597142a9029e9b"}, {"bike_id": "31b1496f9a8cf34827bf1967691b112b", "type": "electric_scooter", "is_disabled": 0, "lat": 38.956613833333336, "rental_uris": {"ios": "https://dc.lft.to/lastmile_qr_scan", "android": "https://dc.lft.to/lastmile_qr_scan"}, "is_reserved": 0, "fusion_lon": 0.0, "fusion_lat": 0.0, "lon": -77.02399733333333, "name": "31b1496f9a8cf34827bf1967691b112b"}, {"bike_id": "9afc277e2ddf2c4fd4298b253e87a9f9", "type": "electric_scooter", "is_disabled": 0, "lat": 38.924251, "rental_uris": {"ios": "https://dc.lft.to/lastmile_qr_scan", "android": "https://dc.lft.to/lastmile_qr_scan"}, "is_reserved": 0, "fusion_lon": 0.0, "fusion_lat": 0.0, "lon": -77.02262516666667, "name": "9afc277e2ddf2c4fd4298b253e87a9f9"}, {"bike_id": "c877a862c57562f992c9529f26e40744", "type": "electric_scooter", "is_disabled": 0, "lat": 38.91923666666667, "rental_uris": {"ios": "https://dc.lft.to/lastmile_qr_scan", "android": "https://dc.lft.to/lastmile_qr_scan"}, "is_reserved": 0, "fusion_lon": 0.0, "fusion_lat": 0.0, "lon": -77.02572583333334, "name": "c877a862c57562f992c9529f26e40744"}, {"bike_id": "1ec85e89287f2d4cf5b66669b4eac204", "type": "electric_scooter", "is_disabled": 0, "lat": 38.937483, "rental_uris": {"ios": "https://dc.lft.to/lastmile_qr_scan", "android": "https://dc.lft.to/lastmile_qr_scan"}, "is_reserved": 0, "fusion_lon": 0.0, "fusion_lat": 0.0, "lon": -77.02440883333334, "name": "1ec85e89287f2d4cf5b66669b4eac204"}, {"bike_id": "729d764cc5bfc377e5ab5b3e9e433507", "type": "electric_scooter", "is_disabled": 0, "lat": 38.9127325, "rental_uris": {"ios": "https://dc.lft.to/lastmile_qr_scan", "android": "https://dc.lft.to/lastmile_qr_scan"}, "is_reserved": 0, "fusion_lon": 0.0, "fusion_lat": 0.0, "lon": -77.0220915, "name": "729d764cc5bfc377e5ab5b3e9e433507"}, {"bike_id": "96022c4e5a85d10cfc57285de5761cc6", "type": "electric_scooter", "is_disabled": 0, "lat": 38.928640333333334, "rental_uris": {"ios": "https://dc.lft.to/lastmile_qr_scan", "android": "https://dc.lft.to/lastmile_qr_scan"}, "is_reserved": 0, "fusion_lon": 0.0, "fusion_lat": 0.0, "lon": -77.037051, "name": "96022c4e5a85d10cfc57285de5761cc6"}, {"bike_id": "a9684f04a15c9c6bbc231be8cbbb9ef1", "type": "electric_scooter", "is_disabled": 0, "lat": 38.91269116666667, "rental_uris": {"ios": "https://dc.lft.to/lastmile_qr_scan", "android": "https://dc.lft.to/lastmile_qr_scan"}, "is_reserved": 0, "fusion_lon": 0.0, "fusion_lat": 0.0, "lon": -77.022107, "name": "a9684f04a15c9c6bbc231be8cbbb9ef1"}, {"bike_id": "dd9ef7f100ecb2e2c599e0288dd2d910", "type": "electric_scooter", "is_disabled": 0, "lat": 38.918121666666664, "rental_uris": {"ios": "https://dc.lft.to/lastmile_qr_scan", "android": "https://dc.lft.to/lastmile_qr_scan"}, "is_reserved": 0, "fusion_lon": 0.0, "fusion_lat": 0.0, "lon": -77.00249266666667, "name": "dd9ef7f100ecb2e2c599e0288dd2d910"}, {"bike_id": "f7c9d81160f3c6fe0eca1de84cf889c3", "type": "electric_scooter", "is_disabled": 0, "lat": 38.921893, "rental_uris": {"ios": "https://dc.lft.to/lastmile_qr_scan", "android": "https://dc.lft.to/lastmile_qr_scan"}, "is_reserved": 0, "fusion_lon": 0.0, "fusion_lat": 0.0, "lon": -77.03800083333333, "name": "f7c9d81160f3c6fe0eca1de84cf889c3"}, {"bike_id": "bfbdc2d972776af7631cdbbd67862091", "type": "electric_scooter", "is_disabled": 0, "lat": 38.91412, "rental_uris": {"ios": "https://dc.lft.to/lastmile_qr_scan", "android": "https://dc.lft.to/lastmile_qr_scan"}, "is_reserved": 0, "fusion_lon": 0.0, "fusion_lat": 0.0, "lon": -77.02307583333334, "name": "bfbdc2d972776af7631cdbbd67862091"}, {"bike_id": "04d834585f43fad3fb93aa217b6c9e8c", "type": "electric_scooter", "is_disabled": 0, "lat": 38.919972666666666, "rental_uris": {"ios": "https://dc.lft.to/lastmile_qr_scan", "android": "https://dc.lft.to/lastmile_qr_scan"}, "is_reserved": 0, "fusion_lon": 0.0, "fusion_lat": 0.0, "lon": -77.03955583333334, "name": "04d834585f43fad3fb93aa217b6c9e8c"}, {"bike_id": "24a0bfa7a559316a9a86d8e9fe813e20", "type": "electric_scooter", "is_disabled": 0, "lat": 38.917888833333336, "rental_uris": {"ios": "https://dc.lft.to/lastmile_qr_scan", "android": "https://dc.lft.to/lastmile_qr_scan"}, "is_reserved": 0, "fusion_lon": 0.0, "fusion_lat": 0.0, "lon": -77.02311716666667, "name": "24a0bfa7a559316a9a86d8e9fe813e20"}, {"bike_id": "5982081579de4a8aac2b5bdc933fc270", "type": "electric_scooter", "is_disabled": 0, "lat": 38.91762333333333, "rental_uris": {"ios": "https://dc.lft.to/lastmile_qr_scan", "android": "https://dc.lft.to/lastmile_qr_scan"}, "is_reserved": 0, "fusion_lon": 0.0, "fusion_lat": 0.0, "lon": -77.04761133333334, "name": "5982081579de4a8aac2b5bdc933fc270"}, {"bike_id": "c4f1d5ff2822a127a16ade78ad02f318", "type": "electric_scooter", "is_disabled": 0, "lat": 38.91691983333333, "rental_uris": {"ios": "https://dc.lft.to/lastmile_qr_scan", "android": "https://dc.lft.to/lastmile_qr_scan"}, "is_reserved": 0, "fusion_lon": 0.0, "fusion_lat": 0.0, "lon": -77.023501, "name": "c4f1d5ff2822a127a16ade78ad02f318"}, {"bike_id": "7eb7c175d61359537ccc12406746fd51", "type": "electric_scooter", "is_disabled": 0, "lat": 38.91351183333333, "rental_uris": {"ios": "https://dc.lft.to/lastmile_qr_scan", "android": "https://dc.lft.to/lastmile_qr_scan"}, "is_reserved": 0, "fusion_lon": 0.0, "fusion_lat": 0.0, "lon": -77.02576033333334, "name": "7eb7c175d61359537ccc12406746fd51"}, {"bike_id": "9cbb455f52dca1ec417b78e6da60f834", "type": "electric_scooter", "is_disabled": 0, "lat": 38.92474966666666, "rental_uris": {"ios": "https://dc.lft.to/lastmile_qr_scan", "android": "https://dc.lft.to/lastmile_qr_scan"}, "is_reserved": 0, "fusion_lon": 0.0, "fusion_lat": 0.0, "lon": -77.026327, "name": "9cbb455f52dca1ec417b78e6da60f834"}, {"bike_id": "06db3738f6b7c73ffbc998b4c26512b6", "type": "electric_scooter", "is_disabled": 0, "lat": 38.908988, "rental_uris": {"ios": "https://dc.lft.to/lastmile_qr_scan", "android": "https://dc.lft.to/lastmile_qr_scan"}, "is_reserved": 0, "fusion_lon": 0.0, "fusion_lat": 0.0, "lon": -77.00316566666666, "name": "06db3738f6b7c73ffbc998b4c26512b6"}, {"bike_id": "e00c48446eee8f483cfb40863f1fc07f", "type": "electric_bike", "is_disabled": 0, "lat": 38.935799333333335, "rental_uris": {"ios": "https://dc.lft.to/lastmile_qr_scan", "android": "https://dc.lft.to/lastmile_qr_scan"}, "is_reserved": 0, "fusion_lon": 0.0, "fusion_lat": 0.0, "lon": -77.0235845, "name": "e00c48446eee8f483cfb40863f1fc07f"}, {"bike_id": "b5a803e78dc48b939457dd070a11a952", "type": "electric_scooter", "is_disabled": 0, "lat": 38.904771333333336, "rental_uris": {"ios": "https://dc.lft.to/lastmile_qr_scan", "android": "https://dc.lft.to/lastmile_qr_scan"}, "is_reserved": 0, "fusion_lon": 0.0, "fusion_lat": 0.0, "lon": -77.0269965, "name": "b5a803e78dc48b939457dd070a11a952"}, {"bike_id": "b98bba04738e6d03f045900a0e5edfa9", "type": "electric_scooter", "is_disabled": 0, "lat": 38.9641785, "rental_uris": {"ios": "https://dc.lft.to/lastmile_qr_scan", "android": "https://dc.lft.to/lastmile_qr_scan"}, "is_reserved": 0, "fusion_lon": 0.0, "fusion_lat": 0.0, "lon": -77.0242805, "name": "b98bba04738e6d03f045900a0e5edfa9"}, {"bike_id": "f58d4de4a7266b6364e07a88845dd5bb", "type": "electric_scooter", "is_disabled": 0, "lat": 38.898419, "rental_uris": {"ios": "https://dc.lft.to/lastmile_qr_scan", "android": "https://dc.lft.to/lastmile_qr_scan"}, "is_reserved": 0, "fusion_lon": 0.0, "fusion_lat": 0.0, "lon": -77.04647416666667, "name": "f58d4de4a7266b6364e07a88845dd5bb"}, {"bike_id": "014faf624256280c2cb26a3df0da2d24", "type": "electric_scooter", "is_disabled": 0, "lat": 38.89708483333333, "rental_uris": {"ios": "https://dc.lft.to/lastmile_qr_scan", "android": "https://dc.lft.to/lastmile_qr_scan"}, "is_reserved": 0, "fusion_lon": 0.0, "fusion_lat": 0.0, "lon": -77.02408616666666, "name": "014faf624256280c2cb26a3df0da2d24"}, {"bike_id": "cb277dfa43327301ea6d8167428b1a5a", "type": "electric_scooter", "is_disabled": 0, "lat": 38.9245715, "rental_uris": {"ios": "https://dc.lft.to/lastmile_qr_scan", "android": "https://dc.lft.to/lastmile_qr_scan"}, "is_reserved": 0, "fusion_lon": 0.0, "fusion_lat": 0.0, "lon": -77.04202566666666, "name": "cb277dfa43327301ea6d8167428b1a5a"}, {"bike_id": "c6acb253b39aca24f530d19e34ee4ae6", "type": "electric_scooter", "is_disabled": 0, "lat": 38.92217516666667, "rental_uris": {"ios": "https://dc.lft.to/lastmile_qr_scan", "android": "https://dc.lft.to/lastmile_qr_scan"}, "is_reserved": 0, "fusion_lon": 0.0, "fusion_lat": 0.0, "lon": -77.0328975, "name": "c6acb253b39aca24f530d19e34ee4ae6"}, {"bike_id": "d5889550f4a37760a6ab056757274ef1", "type": "electric_scooter", "is_disabled": 0, "lat": 38.918226833333335, "rental_uris": {"ios": "https://dc.lft.to/lastmile_qr_scan", "android": "https://dc.lft.to/lastmile_qr_scan"}, "is_reserved": 0, "fusion_lon": 0.0, "fusion_lat": 0.0, "lon": -77.0493645, "name": "d5889550f4a37760a6ab056757274ef1"}, {"bike_id": "40e24ffd268f6d6c6264472b10a9e34a", "type": "electric_scooter", "is_disabled": 0, "lat": 38.91115083333333, "rental_uris": {"ios": "https://dc.lft.to/lastmile_qr_scan", "android": "https://dc.lft.to/lastmile_qr_scan"}, "is_reserved": 0, "fusion_lon": 0.0, "fusion_lat": 0.0, "lon": -77.044543, "name": "40e24ffd268f6d6c6264472b10a9e34a"}, {"bike_id": "a7bad874fdfdac2e102eab3bbdf2b29e", "type": "electric_scooter", "is_disabled": 0, "lat": 38.91565533333333, "rental_uris": {"ios": "https://dc.lft.to/lastmile_qr_scan", "android": "https://dc.lft.to/lastmile_qr_scan"}, "is_reserved": 0, "fusion_lon": 0.0, "fusion_lat": 0.0, "lon": -77.044667, "name": "a7bad874fdfdac2e102eab3bbdf2b29e"}, {"bike_id": "3e61fc55b4aa4d9e218144904fc1560d", "type": "electric_scooter", "is_disabled": 0, "lat": 38.914210833333335, "rental_uris": {"ios": "https://dc.lft.to/lastmile_qr_scan", "android": "https://dc.lft.to/lastmile_qr_scan"}, "is_reserved": 0, "fusion_lon": 0.0, "fusion_lat": 0.0, "lon": -77.02202216666667, "name": "3e61fc55b4aa4d9e218144904fc1560d"}, {"bike_id": "7b586b3c9a0e84dc16f9866c93dbaa07", "type": "electric_scooter", "is_disabled": 0, "lat": 38.927944, "rental_uris": {"ios": "https://dc.lft.to/lastmile_qr_scan", "android": "https://dc.lft.to/lastmile_qr_scan"}, "is_reserved": 0, "fusion_lon": 0.0, "fusion_lat": 0.0, "lon": -77.043195, "name": "7b586b3c9a0e84dc16f9866c93dbaa07"}, {"bike_id": "dfb3cb941a80921688c38d7663f8a207", "type": "electric_bike", "is_disabled": 0, "lat": 38.897414166666664, "rental_uris": {"ios": "https://dc.lft.to/lastmile_qr_scan", "android": "https://dc.lft.to/lastmile_qr_scan"}, "is_reserved": 0, "fusion_lon": 0.0, "fusion_lat": 0.0, "lon": -76.92043833333334, "name": "dfb3cb941a80921688c38d7663f8a207"}, {"bike_id": "e30090a6db3e43a97a08aef116240564", "type": "electric_scooter", "is_disabled": 0, "lat": 38.92188383333333, "rental_uris": {"ios": "https://dc.lft.to/lastmile_qr_scan", "android": "https://dc.lft.to/lastmile_qr_scan"}, "is_reserved": 0, "fusion_lon": 0.0, "fusion_lat": 0.0, "lon": -77.01968, "name": "e30090a6db3e43a97a08aef116240564"}, {"bike_id": "bb5064689fb705e399f1298f7c8b56af", "type": "electric_scooter", "is_disabled": 0, "lat": 38.90475433333334, "rental_uris": {"ios": "https://dc.lft.to/lastmile_qr_scan", "android": "https://dc.lft.to/lastmile_qr_scan"}, "is_reserved": 0, "fusion_lon": 0.0, "fusion_lat": 0.0, "lon": -77.00920783333333, "name": "bb5064689fb705e399f1298f7c8b56af"}, {"bike_id": "8049ea9cc7c458cab9646ef1951930be", "type": "electric_bike", "is_disabled": 0, "lat": 38.957868500000004, "rental_uris": {"ios": "https://dc.lft.to/lastmile_qr_scan", "android": "https://dc.lft.to/lastmile_qr_scan"}, "is_reserved": 0, "fusion_lon": 0.0, "fusion_lat": 0.0, "lon": -77.019962, "name": "8049ea9cc7c458cab9646ef1951930be"}, {"bike_id": "49de02cf7af1bed001a4d8abe4a880f7", "type": "electric_scooter", "is_disabled": 0, "lat": 38.945588, "rental_uris": {"ios": "https://dc.lft.to/lastmile_qr_scan", "android": "https://dc.lft.to/lastmile_qr_scan"}, "is_reserved": 0, "fusion_lon": 0.0, "fusion_lat": 0.0, "lon": -77.07124916666666, "name": "49de02cf7af1bed001a4d8abe4a880f7"}, {"bike_id": "f0e593900b3d10165e4efc31602e66d8", "type": "electric_scooter", "is_disabled": 0, "lat": 38.884475333333334, "rental_uris": {"ios": "https://dc.lft.to/lastmile_qr_scan", "android": "https://dc.lft.to/lastmile_qr_scan"}, "is_reserved": 0, "fusion_lon": 0.0, "fusion_lat": 0.0, "lon": -76.950926, "name": "f0e593900b3d10165e4efc31602e66d8"}, {"bike_id": "59b70ee1f7fab9829ea43c1384feaa7c", "type": "electric_bike", "is_disabled": 0, "lat": 38.8589485, "rental_uris": {"ios": "https://dc.lft.to/lastmile_qr_scan", "android": "https://dc.lft.to/lastmile_qr_scan"}, "is_reserved": 0, "fusion_lon": 0.0, "fusion_lat": 0.0, "lon": -77.11862933333333, "name": "59b70ee1f7fab9829ea43c1384feaa7c"}, {"bike_id": "9254361d8c8de0bc5d82f09ed93b8f1b", "type": "electric_scooter", "is_disabled": 0, "lat": 38.905765, "rental_uris": {"ios": "https://dc.lft.to/lastmile_qr_scan", "android": "https://dc.lft.to/lastmile_qr_scan"}, "is_reserved": 0, "fusion_lon": 0.0, "fusion_lat": 0.0, "lon": -77.00626, "name": "9254361d8c8de0bc5d82f09ed93b8f1b"}, {"bike_id": "0e680fdd135a0a105f68ac77d3c5f7bd", "type": "electric_scooter", "is_disabled": 0, "lat": 38.91593733333333, "rental_uris": {"ios": "https://dc.lft.to/lastmile_qr_scan", "android": "https://dc.lft.to/lastmile_qr_scan"}, "is_reserved": 0, "fusion_lon": 0.0, "fusion_lat": 0.0, "lon": -77.001976, "name": "0e680fdd135a0a105f68ac77d3c5f7bd"}, {"bike_id": "c3d1a4c8a15335ad9aa4167a91c3dbfb", "type": "electric_scooter", "is_disabled": 0, "lat": 38.904100666666665, "rental_uris": {"ios": "https://dc.lft.to/lastmile_qr_scan", "android": "https://dc.lft.to/lastmile_qr_scan"}, "is_reserved": 0, "fusion_lon": 0.0, "fusion_lat": 0.0, "lon": -76.9733, "name": "c3d1a4c8a15335ad9aa4167a91c3dbfb"}, {"bike_id": "005955b11fd9be0f50edd39292c4bb18", "type": "electric_scooter", "is_disabled": 0, "lat": 38.89977116666667, "rental_uris": {"ios": "https://dc.lft.to/lastmile_qr_scan", "android": "https://dc.lft.to/lastmile_qr_scan"}, "is_reserved": 0, "fusion_lon": 0.0, "fusion_lat": 0.0, "lon": -76.98299583333333, "name": "005955b11fd9be0f50edd39292c4bb18"}, {"bike_id": "b651fe7b322c65f6327064d31f0da59d", "type": "electric_scooter", "is_disabled": 0, "lat": 38.917226666666664, "rental_uris": {"ios": "https://dc.lft.to/lastmile_qr_scan", "android": "https://dc.lft.to/lastmile_qr_scan"}, "is_reserved": 0, "fusion_lon": 0.0, "fusion_lat": 0.0, "lon": -77.029094, "name": "b651fe7b322c65f6327064d31f0da59d"}, {"bike_id": "d2cdb902126a65202f1eb42407eb40a6", "type": "electric_scooter", "is_disabled": 0, "lat": 38.90243383333333, "rental_uris": {"ios": "https://dc.lft.to/lastmile_qr_scan", "android": "https://dc.lft.to/lastmile_qr_scan"}, "is_reserved": 0, "fusion_lon": 0.0, "fusion_lat": 0.0, "lon": -77.01780166666667, "name": "d2cdb902126a65202f1eb42407eb40a6"}, {"bike_id": "cdfdc5c16938244c1dbd04ed1c9412aa", "type": "electric_scooter", "is_disabled": 0, "lat": 38.916299, "rental_uris": {"ios": "https://dc.lft.to/lastmile_qr_scan", "android": "https://dc.lft.to/lastmile_qr_scan"}, "is_reserved": 0, "fusion_lon": 0.0, "fusion_lat": 0.0, "lon": -77.048145, "name": "cdfdc5c16938244c1dbd04ed1c9412aa"}, {"bike_id": "c686a4e683743565321b921203127395", "type": "electric_scooter", "is_disabled": 0, "lat": 38.90576083333333, "rental_uris": {"ios": "https://dc.lft.to/lastmile_qr_scan", "android": "https://dc.lft.to/lastmile_qr_scan"}, "is_reserved": 0, "fusion_lon": 0.0, "fusion_lat": 0.0, "lon": -77.00539716666667, "name": "c686a4e683743565321b921203127395"}, {"bike_id": "f0d7c637bfcdf3b816c87052c5b312fc", "type": "electric_scooter", "is_disabled": 0, "lat": 38.937319, "rental_uris": {"ios": "https://dc.lft.to/lastmile_qr_scan", "android": "https://dc.lft.to/lastmile_qr_scan"}, "is_reserved": 0, "fusion_lon": 0.0, "fusion_lat": 0.0, "lon": -77.05952416666666, "name": "f0d7c637bfcdf3b816c87052c5b312fc"}, {"bike_id": "86703ee75744502da094b2bb621a8576", "type": "electric_scooter", "is_disabled": 0, "lat": 38.90722316666667, "rental_uris": {"ios": "https://dc.lft.to/lastmile_qr_scan", "android": "https://dc.lft.to/lastmile_qr_scan"}, "is_reserved": 0, "fusion_lon": 0.0, "fusion_lat": 0.0, "lon": -77.02533133333333, "name": "86703ee75744502da094b2bb621a8576"}, {"bike_id": "5013cc17aab6b9a078d031ef91a81738", "type": "electric_scooter", "is_disabled": 0, "lat": 38.90811766666667, "rental_uris": {"ios": "https://dc.lft.to/lastmile_qr_scan", "android": "https://dc.lft.to/lastmile_qr_scan"}, "is_reserved": 0, "fusion_lon": 0.0, "fusion_lat": 0.0, "lon": -77.02025966666666, "name": "5013cc17aab6b9a078d031ef91a81738"}, {"bike_id": "5474e8475bd7992301b17aa54025b6c5", "type": "electric_scooter", "is_disabled": 0, "lat": 38.923552, "rental_uris": {"ios": "https://dc.lft.to/lastmile_qr_scan", "android": "https://dc.lft.to/lastmile_qr_scan"}, "is_reserved": 0, "fusion_lon": 0.0, "fusion_lat": 0.0, "lon": -77.03524933333334, "name": "5474e8475bd7992301b17aa54025b6c5"}, {"bike_id": "741a9e291dd0ae48045b4f1cb92a48fd", "type": "electric_scooter", "is_disabled": 0, "lat": 38.87403, "rental_uris": {"ios": "https://dc.lft.to/lastmile_qr_scan", "android": "https://dc.lft.to/lastmile_qr_scan"}, "is_reserved": 0, "fusion_lon": 0.0, "fusion_lat": 0.0, "lon": -77.001989, "name": "741a9e291dd0ae48045b4f1cb92a48fd"}, {"bike_id": "2e984bd87fbc2b3a1c8d8a3ea03d6922", "type": "electric_scooter", "is_disabled": 0, "lat": 38.887058833333334, "rental_uris": {"ios": "https://dc.lft.to/lastmile_qr_scan", "android": "https://dc.lft.to/lastmile_qr_scan"}, "is_reserved": 0, "fusion_lon": 0.0, "fusion_lat": 0.0, "lon": -77.01363683333334, "name": "2e984bd87fbc2b3a1c8d8a3ea03d6922"}, {"bike_id": "18ed62c1b6bc8e823bf0b9d2f0562b30", "type": "electric_bike", "is_disabled": 0, "lat": 38.908293666666665, "rental_uris": {"ios": "https://dc.lft.to/lastmile_qr_scan", "android": "https://dc.lft.to/lastmile_qr_scan"}, "is_reserved": 0, "fusion_lon": 0.0, "fusion_lat": 0.0, "lon": -76.94154233333333, "name": "18ed62c1b6bc8e823bf0b9d2f0562b30"}, {"bike_id": "d8bcf95be4914ff9836f5c4f6e2386f5", "type": "electric_scooter", "is_disabled": 0, "lat": 38.93006233333333, "rental_uris": {"ios": "https://dc.lft.to/lastmile_qr_scan", "android": "https://dc.lft.to/lastmile_qr_scan"}, "is_reserved": 0, "fusion_lon": 0.0, "fusion_lat": 0.0, "lon": -77.03774133333333, "name": "d8bcf95be4914ff9836f5c4f6e2386f5"}, {"bike_id": "99b2e826468d8fe11b0e8ffd9bb7802d", "type": "electric_scooter", "is_disabled": 0, "lat": 38.932859, "rental_uris": {"ios": "https://dc.lft.to/lastmile_qr_scan", "android": "https://dc.lft.to/lastmile_qr_scan"}, "is_reserved": 0, "fusion_lon": 0.0, "fusion_lat": 0.0, "lon": -77.04036066666667, "name": "99b2e826468d8fe11b0e8ffd9bb7802d"}, {"bike_id": "1e6fcd8d132ce118849c6c540dac1b6a", "type": "electric_scooter", "is_disabled": 0, "lat": 38.906931166666666, "rental_uris": {"ios": "https://dc.lft.to/lastmile_qr_scan", "android": "https://dc.lft.to/lastmile_qr_scan"}, "is_reserved": 0, "fusion_lon": 0.0, "fusion_lat": 0.0, "lon": -77.053217, "name": "1e6fcd8d132ce118849c6c540dac1b6a"}, {"bike_id": "4e1c14dd92322b781128104533696b19", "type": "electric_scooter", "is_disabled": 0, "lat": 38.86256233333334, "rental_uris": {"ios": "https://dc.lft.to/lastmile_qr_scan", "android": "https://dc.lft.to/lastmile_qr_scan"}, "is_reserved": 0, "fusion_lon": 0.0, "fusion_lat": 0.0, "lon": -76.99263733333333, "name": "4e1c14dd92322b781128104533696b19"}, {"bike_id": "6bd716b04f1c95e3aa9bc851d5fc8353", "type": "electric_scooter", "is_disabled": 0, "lat": 38.926640666666664, "rental_uris": {"ios": "https://dc.lft.to/lastmile_qr_scan", "android": "https://dc.lft.to/lastmile_qr_scan"}, "is_reserved": 0, "fusion_lon": 0.0, "fusion_lat": 0.0, "lon": -77.037243, "name": "6bd716b04f1c95e3aa9bc851d5fc8353"}, {"bike_id": "533455ddabef2543b27bab81d9f3317d", "type": "electric_scooter", "is_disabled": 0, "lat": 38.89239533333333, "rental_uris": {"ios": "https://dc.lft.to/lastmile_qr_scan", "android": "https://dc.lft.to/lastmile_qr_scan"}, "is_reserved": 0, "fusion_lon": 0.0, "fusion_lat": 0.0, "lon": -77.03958766666666, "name": "533455ddabef2543b27bab81d9f3317d"}, {"bike_id": "c072045efcb092d467bbe5a240336997", "type": "electric_bike", "is_disabled": 0, "lat": 38.872948, "rental_uris": {"ios": "https://dc.lft.to/lastmile_qr_scan", "android": "https://dc.lft.to/lastmile_qr_scan"}, "is_reserved": 0, "fusion_lon": 0.0, "fusion_lat": 0.0, "lon": -76.96976583333333, "name": "c072045efcb092d467bbe5a240336997"}, {"bike_id": "5c7c91124cbd7bbdeb83305382efb14b", "type": "electric_scooter", "is_disabled": 0, "lat": 38.907315, "rental_uris": {"ios": "https://dc.lft.to/lastmile_qr_scan", "android": "https://dc.lft.to/lastmile_qr_scan"}, "is_reserved": 0, "fusion_lon": 0.0, "fusion_lat": 0.0, "lon": -77.00573733333333, "name": "5c7c91124cbd7bbdeb83305382efb14b"}, {"bike_id": "b484fbfa9996e535b66f9b6e51903ea2", "type": "electric_scooter", "is_disabled": 0, "lat": 38.863703, "rental_uris": {"ios": "https://dc.lft.to/lastmile_qr_scan", "android": "https://dc.lft.to/lastmile_qr_scan"},