{"data": {"bikes": [{"name": "b5c820fb2ba87ace7faf095fe5f75604", "lat": 38.89608966666667, "lon": -77.04555083333334, "fusion_lon": 0.0, "bike_id": "b5c820fb2ba87ace7faf095fe5f75604", "rental_uris": {"android": "https://dc.lft.to/lastmile_qr_scan", "ios": "https://dc.lft.to/lastmile_qr_scan"}, "is_reserved": 0, "type": "electric_scooter", "is_disabled": 0, "fusion_lat": 0.0}, {"name": "15acd8cb75a49fb3ed0a206b0711169b", "lat": 38.8989145, "lon": -76.9335965, "fusion_lon": 0.0, "bike_id": "15acd8cb75a49fb3ed0a206b0711169b", "rental_uris": {"android": "https://dc.lft.to/lastmile_qr_scan", "ios": "https://dc.lft.to/lastmile_qr_scan"}, "is_reserved": 0, "type": "electric_scooter", "is_disabled": 0, "fusion_lat": 0.0}, {"name": "417ffea33d367e2ab5e285292fce583b", "lat": 38.92251366666667, "lon": -77.01894916666667, "fusion_lon": 0.0, "bike_id": "417ffea33d367e2ab5e285292fce583b", "rental_uris": {"android": "https://dc.lft.to/lastmile_qr_scan", "ios": "https://dc.lft.to/lastmile_qr_scan"}, "is_reserved": 0, "type": "electric_scooter", "is_disabled": 0, "fusion_lat": 0.0}, {"name": "dd121d80885884f09942584af6a8bb67", "lat": 38.966219, "lon": -77.01997616666667, "fusion_lon": 0.0, "bike_id": "dd121d80885884f09942584af6a8bb67", "rental_uris": {"android": "https://dc.lft.to/lastmile_qr_scan", "ios": "https://dc.lft.to/lastmile_qr_scan"}, "is_reserved": 0, "type": "electric_scooter", "is_disabled": 0, "fusion_lat": 0.0}, {"name": "bc9cc71bfc66ede6fee7635f4ccc8bbc", "lat": 38.937341333333336, "lon": -77.03278316666666, "fusion_lon": 0.0, "bike_id": "bc9cc71bfc66ede6fee7635f4ccc8bbc", "rental_uris": {"android": "https://dc.lft.to/lastmile_qr_scan", "ios": "https://dc.lft.to/lastmile_qr_scan"}, "is_reserved": 0, "type": "electric_scooter", "is_disabled": 0, "fusion_lat": 0.0}, {"name": "7d113616d1429e8e02fa9fb057d4e333", "lat": 38.892327, "lon": -77.05002233333333, "fusion_lon": 0.0, "bike_id": "7d113616d1429e8e02fa9fb057d4e333", "rental_uris": {"android": "https://dc.lft.to/lastmile_qr_scan", "ios": "https://dc.lft.to/lastmile_qr_scan"}, "is_reserved": 0, "type": "electric_scooter", "is_disabled": 0, "fusion_lat": 0.0}, {"name": "53ba66827b67eab2539e02eab97a710e", "lat": 38.8812275, "lon": -77.00049083333333, "fusion_lon": 0.0, "bike_id": "53ba66827b67eab2539e02eab97a710e", "rental_uris": {"android": "https://dc.lft.to/lastmile_qr_scan", "ios": "https://dc.lft.to/lastmile_qr_scan"}, "is_reserved": 0, "type": "electric_scooter", "is_disabled": 0, "fusion_lat": 0.0}, {"name": "d4a19c398c32dbd34fc0af5ac67decd3", "lat": 38.900326166666666, "lon": -77.005506, "fusion_lon": 0.0, "bike_id": "d4a19c398c32dbd34fc0af5ac67decd3", "rental_uris": {"android": "https://dc.lft.to/lastmile_qr_scan", "ios": "https://dc.lft.to/lastmile_qr_scan"}, "is_reserved": 0, "type": "electric_scooter", "is_disabled": 0, "fusion_lat": 0.0}, {"name": "c82dbf42a8e9ca0db37347c1c76fa518", "lat": 38.954301, "lon": -77.0276525, "fusion_lon": 0.0, "bike_id": "c82dbf42a8e9ca0db37347c1c76fa518", "rental_uris": {"android": "https://dc.lft.to/lastmile_qr_scan", "ios": "https://dc.lft.to/lastmile_qr_scan"}, "is_reserved": 0, "type": "electric_scooter", "is_disabled": 0, "fusion_lat": 0.0}, {"name": "2b2a75155b3915217217220b6a0c6381", "lat": 38.913555833333334, "lon": -77.041644, "fusion_lon": 0.0, "bike_id": "2b2a75155b3915217217220b6a0c6381", "rental_uris": {"android": "https://dc.lft.to/lastmile_qr_scan", "ios": "https://dc.lft.to/lastmile_qr_scan"}, "is_reserved": 0, "type": "electric_scooter", "is_disabled": 0, "fusion_lat": 0.0}, {"name": "f4ec02854426e5e843871f81f9ce2440", "lat": 38.9019085, "lon": -76.92996, "fusion_lon": 0.0, "bike_id": "f4ec02854426e5e843871f81f9ce2440", "rental_uris": {"android": "https://dc.lft.to/lastmile_qr_scan", "ios": "https://dc.lft.to/lastmile_qr_scan"}, "is_reserved": 0, "type": "electric_scooter", "is_disabled": 0, "fusion_lat": 0.0}, {"name": "41f6b623959826015eee40ad1fbb0a95", "lat": 38.9192305, "lon": -77.03210983333334, "fusion_lon": 0.0, "bike_id": "41f6b623959826015eee40ad1fbb0a95", "rental_uris": {"android": "https://dc.lft.to/lastmile_qr_scan", "ios": "https://dc.lft.to/lastmile_qr_scan"}, "is_reserved": 0, "type": "electric_scooter", "is_disabled": 0, "fusion_lat": 0.0}, {"name": "d418361bb274824b9a401a8b7282d994", "lat": 38.95642933333333, "lon": -77.03291966666667, "fusion_lon": 0.0, "bike_id": "d418361bb274824b9a401a8b7282d994", "rental_uris": {"android": "https://dc.lft.to/lastmile_qr_scan", "ios": "https://dc.lft.to/lastmile_qr_scan"}, "is_reserved": 0, "type": "electric_scooter", "is_disabled": 0, "fusion_lat": 0.0}, {"name": "5da9ebb5b18e7eef421f33caa1cf7a54", "lat": 39.05191, "lon": -77.10930766666667, "fusion_lon": 0.0, "bike_id": "5da9ebb5b18e7eef421f33caa1cf7a54", "rental_uris": {"android": "https://dc.lft.to/lastmile_qr_scan", "ios": "https://dc.lft.to/lastmile_qr_scan"}, "is_reserved": 0, "type": "electric_bike", "is_disabled": 0, "fusion_lat": 0.0}, {"name": "2a3a26240422b5f08c68b9021335d3b3", "lat": 38.93192366666667, "lon": -77.02832266666667, "fusion_lon": 0.0, "bike_id": "2a3a26240422b5f08c68b9021335d3b3", "rental_uris": {"android": "https://dc.lft.to/lastmile_qr_scan", "ios": "https://dc.lft.to/lastmile_qr_scan"}, "is_reserved": 0, "type": "electric_scooter", "is_disabled": 0, "fusion_lat": 0.0}, {"name": "86cecbc30f9bb0aa0af5ddcc21e4b01a", "lat": 38.90548366666667, "lon": -77.04757433333333, "fusion_lon": 0.0, "bike_id": "86cecbc30f9bb0aa0af5ddcc21e4b01a", "rental_uris": {"android": "https://dc.lft.to/lastmile_qr_scan", "ios": "https://dc.lft.to/lastmile_qr_scan"}, "is_reserved": 0, "type": "electric_scooter", "is_disabled": 0, "fusion_lat": 0.0}, {"name": "4cdee0924c6487f8ceb69a5d60df9e1b", "lat": 38.91699833333333, "lon": -77.02175466666667, "fusion_lon": 0.0, "bike_id": "4cdee0924c6487f8ceb69a5d60df9e1b", "rental_uris": {"android": "https://dc.lft.to/lastmile_qr_scan", "ios": "https://dc.lft.to/lastmile_qr_scan"}, "is_reserved": 0, "type": "electric_scooter", "is_disabled": 0, "fusion_lat": 0.0}, {"name": "d6b5e9b262195c147f68d02800dd73d9", "lat": 38.903514666666666, "lon": -77.033026, "fusion_lon": 0.0, "bike_id": "d6b5e9b262195c147f68d02800dd73d9", "rental_uris": {"android": "https://dc.lft.to/lastmile_qr_scan", "ios": "https://dc.lft.to/lastmile_qr_scan"}, "is_reserved": 0, "type": "electric_scooter", "is_disabled": 0, "fusion_lat": 0.0}, {"name": "8eef9732d4edc2d87d4241b577353a70", "lat": 38.90327533333333, "lon": -76.97271283333333, "fusion_lon": 0.0, "bike_id": "8eef9732d4edc2d87d4241b577353a70", "rental_uris": {"android": "https://dc.lft.to/lastmile_qr_scan", "ios": "https://dc.lft.to/lastmile_qr_scan"}, "is_reserved": 0, "type": "electric_scooter", "is_disabled": 0, "fusion_lat": 0.0}, {"name": "7b47be485e43ac60b1bcfd4eb65d9611", "lat": 38.89796483333333, "lon": -77.006021, "fusion_lon": 0.0, "bike_id": "7b47be485e43ac60b1bcfd4eb65d9611", "rental_uris": {"android": "https://dc.lft.to/lastmile_qr_scan", "ios": "https://dc.lft.to/lastmile_qr_scan"}, "is_reserved": 0, "type": "electric_bike", "is_disabled": 0, "fusion_lat": 0.0}, {"name": "c331ce6fe087e1defb9130d09afd228e", "lat": 38.903561333333336, "lon": -77.04669116666666, "fusion_lon": 0.0, "bike_id": "c331ce6fe087e1defb9130d09afd228e", "rental_uris": {"android": "https://dc.lft.to/lastmile_qr_scan", "ios": "https://dc.lft.to/lastmile_qr_scan"}, "is_reserved": 0, "type": "electric_scooter", "is_disabled": 0, "fusion_lat": 0.0}, {"name": "bc3415336ac0e5cf0ddbf91281011005", "lat": 38.928474, "lon": -77.01407866666666, "fusion_lon": 0.0, "bike_id": "bc3415336ac0e5cf0ddbf91281011005", "rental_uris": {"android": "https://dc.lft.to/lastmile_qr_scan", "ios": "https://dc.lft.to/lastmile_qr_scan"}, "is_reserved": 0, "type": "electric_scooter", "is_disabled": 0, "fusion_lat": 0.0}, {"name": "d7c448bde8b22b51db02b6968a6ec695", "lat": 38.90550533333333, "lon": -77.040168, "fusion_lon": 0.0, "bike_id": "d7c448bde8b22b51db02b6968a6ec695", "rental_uris": {"android": "https://dc.lft.to/lastmile_qr_scan", "ios": "https://dc.lft.to/lastmile_qr_scan"}, "is_reserved": 0, "type": "electric_scooter", "is_disabled": 0, "fusion_lat": 0.0}, {"name": "35da01e35004c7b75cbd01187fc107c1", "lat": 38.895002833333336, "lon": -77.02281683333334, "fusion_lon": 0.0, "bike_id": "35da01e35004c7b75cbd01187fc107c1", "rental_uris": {"android": "https://dc.lft.to/lastmile_qr_scan", "ios": "https://dc.lft.to/lastmile_qr_scan"}, "is_reserved": 0, "type": "electric_scooter", "is_disabled": 0, "fusion_lat": 0.0}, {"name": "3d320fe4704441d0a50edb318775b521", "lat": 38.9077935, "lon": -77.07163783333333, "fusion_lon": 0.0, "bike_id": "3d320fe4704441d0a50edb318775b521", "rental_uris": {"android": "https://dc.lft.to/lastmile_qr_scan", "ios": "https://dc.lft.to/lastmile_qr_scan"}, "is_reserved": 0, "type": "electric_scooter", "is_disabled": 0, "fusion_lat": 0.0}, {"name": "51d6541aaf9ec4434ff5c9ebeb2f679d", "lat": 38.901723, "lon": -77.0467175, "fusion_lon": 0.0, "bike_id": "51d6541aaf9ec4434ff5c9ebeb2f679d", "rental_uris": {"android": "https://dc.lft.to/lastmile_qr_scan", "ios": "https://dc.lft.to/lastmile_qr_scan"}, "is_reserved": 0, "type": "electric_scooter", "is_disabled": 0, "fusion_lat": 0.0}, {"name": "d0cb706f66b8548d801f1de10eebd4e6", "lat": 38.92249433333333, "lon": -77.03026616666666, "fusion_lon": 0.0, "bike_id": "d0cb706f66b8548d801f1de10eebd4e6", "rental_uris": {"android": "https://dc.lft.to/lastmile_qr_scan", "ios": "https://dc.lft.to/lastmile_qr_scan"}, "is_reserved": 0, "type": "electric_scooter", "is_disabled": 0, "fusion_lat": 0.0}, {"name": "a71f6b7e9f54913da3e13b29af3176bb", "lat": 38.90335016666667, "lon": -77.02894866666666, "fusion_lon": 0.0, "bike_id": "a71f6b7e9f54913da3e13b29af3176bb", "rental_uris": {"android": "https://dc.lft.to/lastmile_qr_scan", "ios": "https://dc.lft.to/lastmile_qr_scan"}, "is_reserved": 0, "type": "electric_scooter", "is_disabled": 0, "fusion_lat": 0.0}, {"name": "7032e9cd232ff36aad53edb883ab84bc", "lat": 38.93266833333333, "lon": -77.03491533333333, "fusion_lon": 0.0, "bike_id": "7032e9cd232ff36aad53edb883ab84bc", "rental_uris": {"android": "https://dc.lft.to/lastmile_qr_scan", "ios": "https://dc.lft.to/lastmile_qr_scan"}, "is_reserved": 0, "type": "electric_scooter", "is_disabled": 0, "fusion_lat": 0.0}, {"name": "a5518f90c519fe98f62a9aad6839ebd8", "lat": 38.9235045, "lon": -77.0542445, "fusion_lon": 0.0, "bike_id": "a5518f90c519fe98f62a9aad6839ebd8", "rental_uris": {"android": "https://dc.lft.to/lastmile_qr_scan", "ios": "https://dc.lft.to/lastmile_qr_scan"}, "is_reserved": 0, "type": "electric_scooter", "is_disabled": 0, "fusion_lat": 0.0}, {"name": "7743e5b06c8c48b72acf1e81b8445f24", "lat": 38.91710066666667, "lon": -77.03471566666667, "fusion_lon": 0.0, "bike_id": "7743e5b06c8c48b72acf1e81b8445f24", "rental_uris": {"android": "https://dc.lft.to/lastmile_qr_scan", "ios": "https://dc.lft.to/lastmile_qr_scan"}, "is_reserved": 0, "type": "electric_scooter", "is_disabled": 0, "fusion_lat": 0.0}, {"name": "77c2f4d78367f89d7455a92f7518eab6", "lat": 38.9240925, "lon": -77.027485, "fusion_lon": 0.0, "bike_id": "77c2f4d78367f89d7455a92f7518eab6", "rental_uris": {"android": "https://dc.lft.to/lastmile_qr_scan", "ios": "https://dc.lft.to/lastmile_qr_scan"}, "is_reserved": 0, "type": "electric_scooter", "is_disabled": 0, "fusion_lat": 0.0}, {"name": "0028c0d13d070264540a18e1671c514a", "lat": 38.91389066666667, "lon": -77.01899033333333, "fusion_lon": 0.0, "bike_id": "0028c0d13d070264540a18e1671c514a", "rental_uris": {"android": "https://dc.lft.to/lastmile_qr_scan", "ios": "https://dc.lft.to/lastmile_qr_scan"}, "is_reserved": 0, "type": "electric_scooter", "is_disabled": 0, "fusion_lat": 0.0}, {"name": "da393beb8c5a6e8f8b0f8cc0e1fe2333", "lat": 38.916246666666666, "lon": -77.0315565, "fusion_lon": 0.0, "bike_id": "da393beb8c5a6e8f8b0f8cc0e1fe2333", "rental_uris": {"android": "https://dc.lft.to/lastmile_qr_scan", "ios": "https://dc.lft.to/lastmile_qr_scan"}, "is_reserved": 0, "type": "electric_scooter", "is_disabled": 0, "fusion_lat": 0.0}, {"name": "e5d86a23e2eaadef760586ccc538ef8b", "lat": 38.906423, "lon": -77.04241766666667, "fusion_lon": 0.0, "bike_id": "e5d86a23e2eaadef760586ccc538ef8b", "rental_uris": {"android": "https://dc.lft.to/lastmile_qr_scan", "ios": "https://dc.lft.to/lastmile_qr_scan"}, "is_reserved": 0, "type": "electric_scooter", "is_disabled": 0, "fusion_lat": 0.0}, {"name": "66cf2df59d3a564e28730a7101e94b4a", "lat": 38.927702333333336, "lon": -77.027308, "fusion_lon": 0.0, "bike_id": "66cf2df59d3a564e28730a7101e94b4a", "rental_uris": {"android": "https://dc.lft.to/lastmile_qr_scan", "ios": "https://dc.lft.to/lastmile_qr_scan"}, "is_reserved": 0, "type": "electric_scooter", "is_disabled": 0, "fusion_lat": 0.0}, {"name": "8e9deb3b841460af0de35e96c5aac350", "lat": 38.90345533333333, "lon": -77.03915733333334, "fusion_lon": 0.0, "bike_id": "8e9deb3b841460af0de35e96c5aac350", "rental_uris": {"android": "https://dc.lft.to/lastmile_qr_scan", "ios": "https://dc.lft.to/lastmile_qr_scan"}, "is_reserved": 0, "type": "electric_scooter", "is_disabled": 0, "fusion_lat": 0.0}, {"name": "d25bd18b028496a17e7f03af578cf7ab", "lat": 38.91755283333333, "lon": -77.03933316666667, "fusion_lon": 0.0, "bike_id": "d25bd18b028496a17e7f03af578cf7ab", "rental_uris": {"android": "https://dc.lft.to/lastmile_qr_scan", "ios": "https://dc.lft.to/lastmile_qr_scan"}, "is_reserved": 0, "type": "electric_scooter", "is_disabled": 0, "fusion_lat": 0.0}, {"name": "0bfb050aea044866680206da49fc8288", "lat": 38.91722983333333, "lon": -77.04392816666666, "fusion_lon": 0.0, "bike_id": "0bfb050aea044866680206da49fc8288", "rental_uris": {"android": "https://dc.lft.to/lastmile_qr_scan", "ios": "https://dc.lft.to/lastmile_qr_scan"}, "is_reserved": 0, "type": "electric_scooter", "is_disabled": 0, "fusion_lat": 0.0}, {"name": "b234b70162f904d1b0d4ed59362ea3af", "lat": 38.91710333333333, "lon": -77.02895133333334, "fusion_lon": 0.0, "bike_id": "b234b70162f904d1b0d4ed59362ea3af", "rental_uris": {"android": "https://dc.lft.to/lastmile_qr_scan", "ios": "https://dc.lft.to/lastmile_qr_scan"}, "is_reserved": 0, "type": "electric_scooter", "is_disabled": 0, "fusion_lat": 0.0}, {"name": "47331efae2093e2bc3ea55adcf64b32d", "lat": 38.907204, "lon": -77.00499816666667, "fusion_lon": 0.0, "bike_id": "47331efae2093e2bc3ea55adcf64b32d", "rental_uris": {"android": "https://dc.lft.to/lastmile_qr_scan", "ios": "https://dc.lft.to/lastmile_qr_scan"}, "is_reserved": 0, "type": "electric_scooter", "is_disabled": 0, "fusion_lat": 0.0}, {"name": "77e93e18fe02f7612b87bcf00d0f10e8", "lat": 38.93354516666667, "lon": -77.04129933333333, "fusion_lon": 0.0, "bike_id": "77e93e18fe02f7612b87bcf00d0f10e8", "rental_uris": {"android": "https://dc.lft.to/lastmile_qr_scan", "ios": "https://dc.lft.to/lastmile_qr_scan"}, "is_reserved": 0, "type": "electric_scooter", "is_disabled": 0, "fusion_lat": 0.0}, {"name": "b3c23f56c014b3beff312bc09d9416b6", "lat": 38.9040735, "lon": -77.0432405, "fusion_lon": 0.0, "bike_id": "b3c23f56c014b3beff312bc09d9416b6", "rental_uris": {"android": "https://dc.lft.to/lastmile_qr_scan", "ios": "https://dc.lft.to/lastmile_qr_scan"}, "is_reserved": 0, "type": "electric_scooter", "is_disabled": 0, "fusion_lat": 0.0}, {"name": "935ec21581fe061d0e38ea611b461a79", "lat": 38.917937333333334, "lon": -77.03203566666667, "fusion_lon": 0.0, "bike_id": "935ec21581fe061d0e38ea611b461a79", "rental_uris": {"android": "https://dc.lft.to/lastmile_qr_scan", "ios": "https://dc.lft.to/lastmile_qr_scan"}, "is_reserved": 0, "type": "electric_scooter", "is_disabled": 0, "fusion_lat": 0.0}, {"name": "4e24c88b6ff1f8c85b497a3dea3b1be3", "lat": 38.918307166666665, "lon": -77.03909566666667, "fusion_lon": 0.0, "bike_id": "4e24c88b6ff1f8c85b497a3dea3b1be3", "rental_uris": {"android": "https://dc.lft.to/lastmile_qr_scan", "ios": "https://dc.lft.to/lastmile_qr_scan"}, "is_reserved": 0, "type": "electric_scooter", "is_disabled": 0, "fusion_lat": 0.0}, {"name": "64030bdefe2809727be77aa472fd666c", "lat": 38.90019366666667, "lon": -77.04020633333333, "fusion_lon": 0.0, "bike_id": "64030bdefe2809727be77aa472fd666c", "rental_uris": {"android": "https://dc.lft.to/lastmile_qr_scan", "ios": "https://dc.lft.to/lastmile_qr_scan"}, "is_reserved": 0, "type": "electric_scooter", "is_disabled": 0, "fusion_lat": 0.0}, {"name": "49f95588dfe053825de7b6fcf0b102f4", "lat": 38.876290166666664, "lon": -76.96527, "fusion_lon": 0.0, "bike_id": "49f95588dfe053825de7b6fcf0b102f4", "rental_uris": {"android": "https://dc.lft.to/lastmile_qr_scan", "ios": "https://dc.lft.to/lastmile_qr_scan"}, "is_reserved": 0, "type": "electric_scooter", "is_disabled": 0, "fusion_lat": 0.0}, {"name": "342bf990b74e672fc90699d38492764e", "lat": 38.928586, "lon": -77.02952683333334, "fusion_lon": 0.0, "bike_id": "342bf990b74e672fc90699d38492764e", "rental_uris": {"android": "https://dc.lft.to/lastmile_qr_scan", "ios": "https://dc.lft.to/lastmile_qr_scan"}, "is_reserved": 0, "type": "electric_scooter", "is_disabled": 0, "fusion_lat": 0.0}, {"name": "9ba38eab2121ba96cb59c577b1e1c0f7", "lat": 38.87681533333333, "lon": -77.01791933333334, "fusion_lon": 0.0, "bike_id": "9ba38eab2121ba96cb59c577b1e1c0f7", "rental_uris": {"android": "https://dc.lft.to/lastmile_qr_scan", "ios": "https://dc.lft.to/lastmile_qr_scan"}, "is_reserved": 0, "type": "electric_scooter", "is_disabled": 0, "fusion_lat": 0.0}, {"name": "3de5b48259455ef8ccd8bf3ec10cff67", "lat": 38.91711466666667, "lon": -77.02768583333334, "fusion_lon": 0.0, "bike_id": "3de5b48259455ef8ccd8bf3ec10cff67", "rental_uris": {"android": "https://dc.lft.to/lastmile_qr_scan", "ios": "https://dc.lft.to/lastmile_qr_scan"}, "is_reserved": 0, "type": "electric_scooter", "is_disabled": 0, "fusion_lat": 0.0}, {"name": "a647bd32638b7b03bdd9f267780cccd3", "lat": 39.074945166666666, "lon": -77.116042, "fusion_lon": 0.0, "bike_id": "a647bd32638b7b03bdd9f267780cccd3", "rental_uris": {"android": "https://dc.lft.to/lastmile_qr_scan", "ios": "https://dc.lft.to/lastmile_qr_scan"}, "is_reserved": 0, "type": "electric_bike", "is_disabled": 0, "fusion_lat": 0.0}, {"name": "cb11d4261211c651f9d285d7d933587e", "lat": 38.943527333333336, "lon": -77.0772685, "fusion_lon": 0.0, "bike_id": "cb11d4261211c651f9d285d7d933587e", "rental_uris": {"android": "https://dc.lft.to/lastmile_qr_scan", "ios": "https://dc.lft.to/lastmile_qr_scan"}, "is_reserved": 0, "type": "electric_bike", "is_disabled": 0, "fusion_lat": 0.0}, {"name": "c052909625a882d4e9d1dd08882edd44", "lat": 38.929526, "lon": -77.02980383333333, "fusion_lon": 0.0, "bike_id": "c052909625a882d4e9d1dd08882edd44", "rental_uris": {"android": "https://dc.lft.to/lastmile_qr_scan", "ios": "https://dc.lft.to/lastmile_qr_scan"}, "is_reserved": 0, "type": "electric_scooter", "is_disabled": 0, "fusion_lat": 0.0}, {"name": "2699e93f8cf0c202b302b4d8f884a0e6", "lat": 38.91685183333333, "lon": -77.029615, "fusion_lon": 0.0, "bike_id": "2699e93f8cf0c202b302b4d8f884a0e6", "rental_uris": {"android": "https://dc.lft.to/lastmile_qr_scan", "ios": "https://dc.lft.to/lastmile_qr_scan"}, "is_reserved": 0, "type": "electric_scooter", "is_disabled": 0, "fusion_lat": 0.0}, {"name": "6cefbb33c6aa5b17d1b2b69414535c9b", "lat": 38.876744333333335, "lon": -77.014431, "fusion_lon": 0.0, "bike_id": "6cefbb33c6aa5b17d1b2b69414535c9b", "rental_uris": {"android": "https://dc.lft.to/lastmile_qr_scan", "ios": "https://dc.lft.to/lastmile_qr_scan"}, "is_reserved": 0, "type": "electric_bike", "is_disabled": 0, "fusion_lat": 0.0}, {"name": "9e1a18700a4c612fcf537be0e2b718c1", "lat": 38.89845233333333, "lon": -77.04369733333333, "fusion_lon": 0.0, "bike_id": "9e1a18700a4c612fcf537be0e2b718c1", "rental_uris": {"android": "https://dc.lft.to/lastmile_qr_scan", "ios": "https://dc.lft.to/lastmile_qr_scan"}, "is_reserved": 0, "type": "electric_scooter", "is_disabled": 0, "fusion_lat": 0.0}, {"name": "9a65fef6881fbca9a0879880c49f41e4", "lat": 38.919253833333336, "lon": -77.03176566666667, "fusion_lon": 0.0, "bike_id": "9a65fef6881fbca9a0879880c49f41e4", "rental_uris": {"android": "https://dc.lft.to/lastmile_qr_scan", "ios": "https://dc.lft.to/lastmile_qr_scan"}, "is_reserved": 0, "type": "electric_scooter", "is_disabled": 0, "fusion_lat": 0.0}, {"name": "c1edbef011af1b7157196bdcbdc2a205", "lat": 38.892229, "lon": -77.03976816666666, "fusion_lon": 0.0, "bike_id": "c1edbef011af1b7157196bdcbdc2a205", "rental_uris": {"android": "https://dc.lft.to/lastmile_qr_scan", "ios": "https://dc.lft.to/lastmile_qr_scan"}, "is_reserved": 0, "type": "electric_scooter", "is_disabled": 0, "fusion_lat": 0.0}, {"name": "a0032eb4937eb3a5f5c26d5a507d32cc", "lat": 38.8863315, "lon": -77.01539166666667, "fusion_lon": 0.0, "bike_id": "a0032eb4937eb3a5f5c26d5a507d32cc", "rental_uris": {"android": "https://dc.lft.to/lastmile_qr_scan", "ios": "https://dc.lft.to/lastmile_qr_scan"}, "is_reserved": 0, "type": "electric_scooter", "is_disabled": 0, "fusion_lat": 0.0}, {"name": "8cb91ec92cd9ced41fa841f42e7cc315", "lat": 38.90903516666667, "lon": -76.99770116666667, "fusion_lon": 0.0, "bike_id": "8cb91ec92cd9ced41fa841f42e7cc315", "rental_uris": {"android": "https://dc.lft.to/lastmile_qr_scan", "ios": "https://dc.lft.to/lastmile_qr_scan"}, "is_reserved": 0, "type": "electric_scooter", "is_disabled": 0, "fusion_lat": 0.0}, {"name": "99b4297902632d1ff8afd8715f464770", "lat": 38.924764833333334, "lon": -77.00227783333334, "fusion_lon": 0.0, "bike_id": "99b4297902632d1ff8afd8715f464770", "rental_uris": {"android": "https://dc.lft.to/lastmile_qr_scan", "ios": "https://dc.lft.to/lastmile_qr_scan"}, "is_reserved": 0, "type": "electric_scooter", "is_disabled": 0, "fusion_lat": 0.0}, {"name": "71e7bf9636f892a7b4a1501c54376bb3", "lat": 38.8318165, "lon": -77.066953, "fusion_lon": 0.0, "bike_id": "71e7bf9636f892a7b4a1501c54376bb3", "rental_uris": {"android": "https://dc.lft.to/lastmile_qr_scan", "ios": "https://dc.lft.to/lastmile_qr_scan"}, "is_reserved": 0, "type": "electric_bike", "is_disabled": 0, "fusion_lat": 0.0}, {"name": "6b660b781293f7ca2333408920e17fdd", "lat": 38.8940005, "lon": -77.02194983333334, "fusion_lon": 0.0, "bike_id": "6b660b781293f7ca2333408920e17fdd", "rental_uris": {"android": "https://dc.lft.to/lastmile_qr_scan", "ios": "https://dc.lft.to/lastmile_qr_scan"}, "is_reserved": 0, "type": "electric_scooter", "is_disabled": 0, "fusion_lat": 0.0}, {"name": "98f9f4579d61c6329a01ccc16cbe8c0c", "lat": 38.96275, "lon": -77.03425333333334, "fusion_lon": 0.0, "bike_id": "98f9f4579d61c6329a01ccc16cbe8c0c", "rental_uris": {"android": "https://dc.lft.to/lastmile_qr_scan", "ios": "https://dc.lft.to/lastmile_qr_scan"}, "is_reserved": 0, "type": "electric_scooter", "is_disabled": 0, "fusion_lat": 0.0}, {"name": "df4fe7649a114cace2a8f2228a75fa9a", "lat": 38.94956916666667, "lon": -77.08016066666667, "fusion_lon": 0.0, "bike_id": "df4fe7649a114cace2a8f2228a75fa9a", "rental_uris": {"android": "https://dc.lft.to/lastmile_qr_scan", "ios": "https://dc.lft.to/lastmile_qr_scan"}, "is_reserved": 0, "type": "electric_scooter", "is_disabled": 0, "fusion_lat": 0.0}, {"name": "6a877ac6089de97f2485cfb50abc638c", "lat": 38.9095915, "lon": -77.02280933333333, "fusion_lon": 0.0, "bike_id": "6a877ac6089de97f2485cfb50abc638c", "rental_uris": {"android": "https://dc.lft.to/lastmile_qr_scan", "ios": "https://dc.lft.to/lastmile_qr_scan"}, "is_reserved": 0, "type": "electric_scooter", "is_disabled": 0, "fusion_lat": 0.0}, {"name": "17da196c6c7cebc4b0584acebd4aa9a5", "lat": 38.921152166666666, "lon": -77.02546633333333, "fusion_lon": 0.0, "bike_id": "17da196c6c7cebc4b0584acebd4aa9a5", "rental_uris": {"android": "https://dc.lft.to/lastmile_qr_scan", "ios": "https://dc.lft.to/lastmile_qr_scan"}, "is_reserved": 0, "type": "electric_scooter", "is_disabled": 0, "fusion_lat": 0.0}, {"name": "0749600d30ed52d8bb2538604a2820eb", "lat": 38.905707, "lon": -77.04676983333333, "fusion_lon": 0.0, "bike_id": "0749600d30ed52d8bb2538604a2820eb", "rental_uris": {"android": "https://dc.lft.to/lastmile_qr_scan", "ios": "https://dc.lft.to/lastmile_qr_scan"}, "is_reserved": 0, "type": "electric_scooter", "is_disabled": 0, "fusion_lat": 0.0}, {"name": "e70c2b77137fb954ed4eaf2e55de1472", "lat": 38.92478533333333, "lon": -77.03499866666667, "fusion_lon": 0.0, "bike_id": "e70c2b77137fb954ed4eaf2e55de1472", "rental_uris": {"android": "https://dc.lft.to/lastmile_qr_scan", "ios": "https://dc.lft.to/lastmile_qr_scan"}, "is_reserved": 0, "type": "electric_scooter", "is_disabled": 0, "fusion_lat": 0.0}, {"name": "84906d3d8aafc9e94894153bef4c02cb", "lat": 38.911007833333336, "lon": -77.031846, "fusion_lon": 0.0, "bike_id": "84906d3d8aafc9e94894153bef4c02cb", "rental_uris": {"android": "https://dc.lft.to/lastmile_qr_scan", "ios": "https://dc.lft.to/lastmile_qr_scan"}, "is_reserved": 0, "type": "electric_scooter", "is_disabled": 0, "fusion_lat": 0.0}, {"name": "815ca1c565f393941f11886a17f11447", "lat": 38.88656316666667, "lon": -77.0243975, "fusion_lon": 0.0, "bike_id": "815ca1c565f393941f11886a17f11447", "rental_uris": {"android": "https://dc.lft.to/lastmile_qr_scan", "ios": "https://dc.lft.to/lastmile_qr_scan"}, "is_reserved": 0, "type": "electric_scooter", "is_disabled": 0, "fusion_lat": 0.0}, {"name": "79e79e649068c00f5761b41d753d3505", "lat": 38.890997, "lon": -76.91868, "fusion_lon": 0.0, "bike_id": "79e79e649068c00f5761b41d753d3505", "rental_uris": {"android": "https://dc.lft.to/lastmile_qr_scan", "ios": "https://dc.lft.to/lastmile_qr_scan"}, "is_reserved": 0, "type": "electric_scooter", "is_disabled": 0, "fusion_lat": 0.0}, {"name": "7510910e2166b1418c4008382d4cb926", "lat": 38.93744483333333, "lon": -76.9456775, "fusion_lon": 0.0, "bike_id": "7510910e2166b1418c4008382d4cb926", "rental_uris": {"android": "https://dc.lft.to/lastmile_qr_scan", "ios": "https://dc.lft.to/lastmile_qr_scan"}, "is_reserved": 0, "type": "electric_bike", "is_disabled": 0, "fusion_lat": 0.0}, {"name": "b672e9d403d440e11132e5eb6d45f81f", "lat": 38.903866, "lon": -77.04391966666667, "fusion_lon": 0.0, "bike_id": "b672e9d403d440e11132e5eb6d45f81f", "rental_uris": {"android": "https://dc.lft.to/lastmile_qr_scan", "ios": "https://dc.lft.to/lastmile_qr_scan"}, "is_reserved": 0, "type": "electric_scooter", "is_disabled": 0, "fusion_lat": 0.0}, {"name": "7f1a173783d4710078c806bfa4eabe5c", "lat": 38.85317533333333, "lon": -76.97998333333334, "fusion_lon": 0.0, "bike_id": "7f1a173783d4710078c806bfa4eabe5c", "rental_uris": {"android": "https://dc.lft.to/lastmile_qr_scan", "ios": "https://dc.lft.to/lastmile_qr_scan"}, "is_reserved": 0, "type": "electric_scooter", "is_disabled": 0, "fusion_lat": 0.0}, {"name": "3e82b3be4aa219a01dcc5526eb1fdebe", "lat": 38.920658333333336, "lon": -77.01668916666667, "fusion_lon": 0.0, "bike_id": "3e82b3be4aa219a01dcc5526eb1fdebe", "rental_uris": {"android": "https://dc.lft.to/lastmile_qr_scan", "ios": "https://dc.lft.to/lastmile_qr_scan"}, "is_reserved": 0, "type": "electric_scooter", "is_disabled": 0, "fusion_lat": 0.0}, {"name": "8694cee2842130e80c3673f5b992e0c7", "lat": 38.92266033333333, "lon": -77.01823833333333, "fusion_lon": 0.0, "bike_id": "8694cee2842130e80c3673f5b992e0c7", "rental_uris": {"android": "https://dc.lft.to/lastmile_qr_scan", "ios": "https://dc.lft.to/lastmile_qr_scan"}, "is_reserved": 0, "type": "electric_scooter", "is_disabled": 0, "fusion_lat": 0.0}, {"name": "b8857c86658c943a8e2b25daa3308d04", "lat": 38.91419883333333, "lon": -77.03244066666667, "fusion_lon": 0.0, "bike_id": "b8857c86658c943a8e2b25daa3308d04", "rental_uris": {"android": "https://dc.lft.to/lastmile_qr_scan", "ios": "https://dc.lft.to/lastmile_qr_scan"}, "is_reserved": 0, "type": "electric_scooter", "is_disabled": 0, "fusion_lat": 0.0}, {"name": "7b69deadf702f8c8b82a377291d40838", "lat": 38.911313666666665, "lon": -77.02692816666666, "fusion_lon": 0.0, "bike_id": "7b69deadf702f8c8b82a377291d40838", "rental_uris": {"android": "https://dc.lft.to/lastmile_qr_scan", "ios": "https://dc.lft.to/lastmile_qr_scan"}, "is_reserved": 0, "type": "electric_scooter", "is_disabled": 0, "fusion_lat": 0.0}, {"name": "fdbaf81a5aea89daae5c2f6593e7dee1", "lat": 38.887718666666665, "lon": -76.932585, "fusion_lon": 0.0, "bike_id": "fdbaf81a5aea89daae5c2f6593e7dee1", "rental_uris": {"android": "https://dc.lft.to/lastmile_qr_scan", "ios": "https://dc.lft.to/lastmile_qr_scan"}, "is_reserved": 0, "type": "electric_scooter", "is_disabled": 0, "fusion_lat": 0.0}, {"name": "55bf21af2f120f95ea55d224e9fa4939", "lat": 38.897301666666664, "lon": -77.02164183333333, "fusion_lon": 0.0, "bike_id": "55bf21af2f120f95ea55d224e9fa4939", "rental_uris": {"android": "https://dc.lft.to/lastmile_qr_scan", "ios": "https://dc.lft.to/lastmile_qr_scan"}, "is_reserved": 0, "type": "electric_scooter", "is_disabled": 0, "fusion_lat": 0.0}, {"name": "63f66646120b08375933abade537548e", "lat": 38.92145766666667, "lon": -77.04477383333334, "fusion_lon": 0.0, "bike_id": "63f66646120b08375933abade537548e", "rental_uris": {"android": "https://dc.lft.to/lastmile_qr_scan", "ios": "https://dc.lft.to/lastmile_qr_scan"}, "is_reserved": 0, "type": "electric_scooter", "is_disabled": 0, "fusion_lat": 0.0}, {"name": "e318d08f109fa939bc09b8e265ff2925", "lat": 38.928031833333335, "lon": -77.04319733333334, "fusion_lon": 0.0, "bike_id": "e318d08f109fa939bc09b8e265ff2925", "rental_uris": {"android": "https://dc.lft.to/lastmile_qr_scan", "ios": "https://dc.lft.to/lastmile_qr_scan"}, "is_reserved": 0, "type": "electric_scooter", "is_disabled": 0, "fusion_lat": 0.0}, {"name": "cd38346cc78d6e433c923cd8e1402488", "lat": 38.909774166666665, "lon": -77.0268995, "fusion_lon": 0.0, "bike_id": "cd38346cc78d6e433c923cd8e1402488", "rental_uris": {"android": "https://dc.lft.to/lastmile_qr_scan", "ios": "https://dc.lft.to/lastmile_qr_scan"}, "is_reserved": 0, "type": "electric_scooter", "is_disabled": 0, "fusion_lat": 0.0}, {"name": "2fbf1cbb458c71858bddba7ae9a569ea", "lat": 38.93146616666667, "lon": -77.03957033333333, "fusion_lon": 0.0, "bike_id": "2fbf1cbb458c71858bddba7ae9a569ea", "rental_uris": {"android": "https://dc.lft.to/lastmile_qr_scan", "ios": "https://dc.lft.to/lastmile_qr_scan"}, "is_reserved": 0, "type": "electric_scooter", "is_disabled": 0, "fusion_lat": 0.0}, {"name": "80b4ec03e80c53daf2158d1b6bcfeaad", "lat": 38.91688116666667, "lon": -77.03721916666667, "fusion_lon": 0.0, "bike_id": "80b4ec03e80c53daf2158d1b6bcfeaad", "rental_uris": {"android": "https://dc.lft.to/lastmile_qr_scan", "ios": "https://dc.lft.to/lastmile_qr_scan"}, "is_reserved": 0, "type": "electric_scooter", "is_disabled": 0, "fusion_lat": 0.0}, {"name": "3d38b56400616d8ab6d7b455540afc67", "lat": 38.87661083333333, "lon": -77.004409, "fusion_lon": 0.0, "bike_id": "3d38b56400616d8ab6d7b455540afc67", "rental_uris": {"android": "https://dc.lft.to/lastmile_qr_scan", "ios": "https://dc.lft.to/lastmile_qr_scan"}, "is_reserved": 0, "type": "electric_scooter", "is_disabled": 0, "fusion_lat": 0.0}, {"name": "834981a6d661578abfed038c287776b5", "lat": 38.8576975, "lon": -76.98763, "fusion_lon": 0.0, "bike_id": "834981a6d661578abfed038c287776b5", "rental_uris": {"android": "https://dc.lft.to/lastmile_qr_scan", "ios": "https://dc.lft.to/lastmile_qr_scan"}, "is_reserved": 0, "type": "electric_bike", "is_disabled": 0, "fusion_lat": 0.0}, {"name": "1768bb0530aaa43ed05c5d4d671e8a9a", "lat": 38.90263083333333, "lon": -77.03948766666667, "fusion_lon": 0.0, "bike_id": "1768bb0530aaa43ed05c5d4d671e8a9a", "rental_uris": {"android": "https://dc.lft.to/lastmile_qr_scan", "ios": "https://dc.lft.to/lastmile_qr_scan"}, "is_reserved": 0, "type": "electric_scooter", "is_disabled": 0, "fusion_lat": 0.0}, {"name": "c7f0e1b843f5ecbaebd0e917424c7f7d", "lat": 38.9009375, "lon": -77.04718916666667, "fusion_lon": 0.0, "bike_id": "c7f0e1b843f5ecbaebd0e917424c7f7d", "rental_uris": {"android": "https://dc.lft.to/lastmile_qr_scan", "ios": "https://dc.lft.to/lastmile_qr_scan"}, "is_reserved": 0, "type": "electric_scooter", "is_disabled": 0, "fusion_lat": 0.0}, {"name": "9b7a4577a36fec2c1fab6340b58055c3", "lat": 38.90581616666667, "lon": -77.0347035, "fusion_lon": 0.0, "bike_id": "9b7a4577a36fec2c1fab6340b58055c3", "rental_uris": {"android": "https://dc.lft.to/lastmile_qr_scan", "ios": "https://dc.lft.to/lastmile_qr_scan"}, "is_reserved": 0, "type": "electric_scooter", "is_disabled": 0, "fusion_lat": 0.0}, {"name": "bf1976b3331917415111c1cb45b0b657", "lat": 38.86210783333333, "lon": -76.997741, "fusion_lon": 0.0, "bike_id": "bf1976b3331917415111c1cb45b0b657", "rental_uris": {"android": "https://dc.lft.to/lastmile_qr_scan", "ios": "https://dc.lft.to/lastmile_qr_scan"}, "is_reserved": 0, "type": "electric_bike", "is_disabled": 0, "fusion_lat": 0.0}, {"name": "6dcf5c5ad42e6c6b48229afc3637cfdb", "lat": 38.9047545, "lon": -77.02723516666667, "fusion_lon": 0.0, "bike_id": "6dcf5c5ad42e6c6b48229afc3637cfdb", "rental_uris": {"android": "https://dc.lft.to/lastmile_qr_scan", "ios": "https://dc.lft.to/lastmile_qr_scan"}, "is_reserved": 0, "type": "electric_scooter", "is_disabled": 0, "fusion_lat": 0.0}, {"name": "d24103931f607fa1da1bedd5e98b03d7", "lat": 38.884717333333334, "lon": -76.998401, "fusion_lon": 0.0, "bike_id": "d24103931f607fa1da1bedd5e98b03d7", "rental_uris": {"android": "https://dc.lft.to/lastmile_qr_scan", "ios": "https://dc.lft.to/lastmile_qr_scan"}, "is_reserved": 0, "type": "electric_scooter", "is_disabled": 0, "fusion_lat": 0.0}, {"name": "d967682c511d97661d79ff531919d18d", "lat": 38.89913683333333, "lon": -76.93368066666666, "fusion_lon": 0.0, "bike_id": "d967682c511d97661d79ff531919d18d", "rental_uris": {"android": "https://dc.lft.to/lastmile_qr_scan", "ios": "https://dc.lft.to/lastmile_qr_scan"}, "is_reserved": 0, "type": "electric_scooter", "is_disabled": 0, "fusion_lat": 0.0}, {"name": "38dfe67dce47e5eba339e5129d63bef3", "lat": 38.921213333333334, "lon": -77.02560966666667, "fusion_lon": 0.0, "bike_id": "38dfe67dce47e5eba339e5129d63bef3", "rental_uris": {"android": "https://dc.lft.to/lastmile_qr_scan", "ios": "https://dc.lft.to/lastmile_qr_scan"}, "is_reserved": 0, "type": "electric_scooter", "is_disabled": 0, "fusion_lat": 0.0}, {"name": "f567e2bf5e0065e3a410e6e9dd3fd845", "lat": 38.8461365, "lon": -76.96905916666667, "fusion_lon": 0.0, "bike_id": "f567e2bf5e0065e3a410e6e9dd3fd845", "rental_uris": {"android": "https://dc.lft.to/lastmile_qr_scan", "ios": "https://dc.lft.to/lastmile_qr_scan"}, "is_reserved": 0, "type": "electric_bike", "is_disabled": 0, "fusion_lat": 0.0}, {"name": "d8e62f1ea2d0d41ce310e8142e027653", "lat": 38.950789666666665, "lon": -77.03097566666666, "fusion_lon": 0.0, "bike_id": "d8e62f1ea2d0d41ce310e8142e027653", "rental_uris": {"android": "https://dc.lft.to/lastmile_qr_scan", "ios": "https://dc.lft.to/lastmile_qr_scan"}, "is_reserved": 0, "type": "electric_scooter", "is_disabled": 0, "fusion_lat": 0.0}, {"name": "ec61ebfc7488fc5171dac047923a0def", "lat": 38.90716233333333, "lon": -77.04233716666667, "fusion_lon": 0.0, "bike_id": "ec61ebfc7488fc5171dac047923a0def", "rental_uris": {"android": "https://dc.lft.to/lastmile_qr_scan", "ios": "https://dc.lft.to/lastmile_qr_scan"}, "is_reserved": 0, "type": "electric_scooter", "is_disabled": 0, "fusion_lat": 0.0}, {"name": "8beba483b663eaca157f8a0d914f4b96", "lat": 38.90802683333333, "lon": -77.08398933333334, "fusion_lon": 0.0, "bike_id": "8beba483b663eaca157f8a0d914f4b96", "rental_uris": {"android": "https://dc.lft.to/lastmile_qr_scan", "ios": "https://dc.lft.to/lastmile_qr_scan"}, "is_reserved": 0, "type": "electric_scooter", "is_disabled": 0, "fusion_lat": 0.0}, {"name": "ba60975fc3ee289b21d1f336e6bbcbef", "lat": 38.9057035, "lon": -77.01417983333333, "fusion_lon": 0.0, "bike_id": "ba60975fc3ee289b21d1f336e6bbcbef", "rental_uris": {"android": "https://dc.lft.to/lastmile_qr_scan", "ios": "https://dc.lft.to/lastmile_qr_scan"}, "is_reserved": 0, "type": "electric_bike", "is_disabled": 0, "fusion_lat": 0.0}, {"name": "2de698a86951246fbe2cc2b04a51eab6", "lat": 38.89346233333333, "lon": -76.94937316666666, "fusion_lon": 0.0, "bike_id": "2de698a86951246fbe2cc2b04a51eab6", "rental_uris": {"android": "https://dc.lft.to/lastmile_qr_scan", "ios": "https://dc.lft.to/lastmile_qr_scan"}, "is_reserved": 0, "type": "electric_scooter", "is_disabled": 0, "fusion_lat": 0.0}, {"name": "248a08eb665b85ddf75c27074d148c54", "lat": 38.89729633333334, "lon": -77.02656366666666, "fusion_lon": 0.0, "bike_id": "248a08eb665b85ddf75c27074d148c54", "rental_uris": {"android": "https://dc.lft.to/lastmile_qr_scan", "ios": "https://dc.lft.to/lastmile_qr_scan"}, "is_reserved": 0, "type": "electric_scooter", "is_disabled": 0, "fusion_lat": 0.0}, {"name": "8a8c876a96580791f34f4ac8fcc05db1", "lat": 38.90905683333333, "lon": -76.99774, "fusion_lon": 0.0, "bike_id": "8a8c876a96580791f34f4ac8fcc05db1", "rental_uris": {"android": "https://dc.lft.to/lastmile_qr_scan", "ios": "https://dc.lft.to/lastmile_qr_scan"}, "is_reserved": 0, "type": "electric_scooter", "is_disabled": 0, "fusion_lat": 0.0}, {"name": "a119658fde557dc815666516f7be1918", "lat": 38.914768, "lon": -77.02187166666667, "fusion_lon": 0.0, "bike_id": "a119658fde557dc815666516f7be1918", "rental_uris": {"android": "https://dc.lft.to/lastmile_qr_scan", "ios": "https://dc.lft.to/lastmile_qr_scan"}, "is_reserved": 0, "type": "electric_scooter", "is_disabled": 0, "fusion_lat": 0.0}, {"name": "61a8fa4a7c84afa68475d87a0868a058", "lat": 38.928759166666666, "lon": -77.03333383333333, "fusion_lon": 0.0, "bike_id": "61a8fa4a7c84afa68475d87a0868a058", "rental_uris": {"android": "https://dc.lft.to/lastmile_qr_scan", "ios": "https://dc.lft.to/lastmile_qr_scan"}, "is_reserved": 0, "type": "electric_scooter", "is_disabled": 0, "fusion_lat": 0.0}, {"name": "8ea3afea917486d7346e4f48342daea0", "lat": 38.949599666666664, "lon": -77.02720333333333, "fusion_lon": 0.0, "bike_id": "8ea3afea917486d7346e4f48342daea0", "rental_uris": {"android": "https://dc.lft.to/lastmile_qr_scan", "ios": "https://dc.lft.to/lastmile_qr_scan"}, "is_reserved": 0, "type": "electric_scooter", "is_disabled": 0, "fusion_lat": 0.0}, {"name": "b42bd962c7c87ea665028e3ef482ef44", "lat": 38.90266833333333, "lon": -77.00888366666666, "fusion_lon": 0.0, "bike_id": "b42bd962c7c87ea665028e3ef482ef44", "rental_uris": {"android": "https://dc.lft.to/lastmile_qr_scan", "ios": "https://dc.lft.to/lastmile_qr_scan"}, "is_reserved": 0, "type": "electric_scooter", "is_disabled": 0, "fusion_lat": 0.0}, {"name": "cee749001febe36903239680d679356e", "lat": 38.93795316666667, "lon": -77.024283, "fusion_lon": 0.0, "bike_id": "cee749001febe36903239680d679356e", "rental_uris": {"android": "https://dc.lft.to/lastmile_qr_scan", "ios": "https://dc.lft.to/lastmile_qr_scan"}, "is_reserved": 0, "type": "electric_scooter", "is_disabled": 0, "fusion_lat": 0.0}, {"name": "6dfb2515f33392625889f441ca10a92f", "lat": 38.911696, "lon": -77.04471, "fusion_lon": 0.0, "bike_id": "6dfb2515f33392625889f441ca10a92f", "rental_uris": {"android": "https://dc.lft.to/lastmile_qr_scan", "ios": "https://dc.lft.to/lastmile_qr_scan"}, "is_reserved": 0, "type": "electric_scooter", "is_disabled": 0, "fusion_lat": 0.0}, {"name": "679d21ef706768c036d98e42fe166bbc", "lat": 38.88669566666667, "lon": -76.93614016666666, "fusion_lon": 0.0, "bike_id": "679d21ef706768c036d98e42fe166bbc", "rental_uris": {"android": "https://dc.lft.to/lastmile_qr_scan", "ios": "https://dc.lft.to/lastmile_qr_scan"}, "is_reserved": 0, "type": "electric_scooter", "is_disabled": 0, "fusion_lat": 0.0}, {"name": "f4eb1d945bf911d24ab81a5eb6a1eabe", "lat": 38.86311333333333, "lon": -76.98272083333333, "fusion_lon": 0.0, "bike_id": "f4eb1d945bf911d24ab81a5eb6a1eabe", "rental_uris": {"android": "https://dc.lft.to/lastmile_qr_scan", "ios": "https://dc.lft.to/lastmile_qr_scan"}, "is_reserved": 0, "type": "electric_scooter", "is_disabled": 0, "fusion_lat": 0.0}, {"name": "2399a00096355a44691c61be9e7f5900", "lat": 38.927232333333336, "lon": -77.0366375, "fusion_lon": 0.0, "bike_id": "2399a00096355a44691c61be9e7f5900", "rental_uris": {"android": "https://dc.lft.to/lastmile_qr_scan", "ios": "https://dc.lft.to/lastmile_qr_scan"}, "is_reserved": 0, "type": "electric_scooter", "is_disabled": 0, "fusion_lat": 0.0}, {"name": "c0bcf5c372c007064fe506ca8e191aa5", "lat": 38.925259, "lon": -77.0381785, "fusion_lon": 0.0, "bike_id": "c0bcf5c372c007064fe506ca8e191aa5", "rental_uris": {"android": "https://dc.lft.to/lastmile_qr_scan", "ios": "https://dc.lft.to/lastmile_qr_scan"}, "is_reserved": 0, "type": "electric_scooter", "is_disabled": 0, "fusion_lat": 0.0}, {"name": "a4f016f406b5e9cd956962121ca29e57", "lat": 38.91034766666667, "lon": -77.03126766666666, "fusion_lon": 0.0, "bike_id": "a4f016f406b5e9cd956962121ca29e57", "rental_uris": {"android": "https://dc.lft.to/lastmile_qr_scan", "ios": "https://dc.lft.to/lastmile_qr_scan"}, "is_reserved": 0, "type": "electric_scooter", "is_disabled": 0, "fusion_lat": 0.0}, {"name": "40a75661b6299a23fafffcbc00ab217a", "lat": 38.90382816666666, "lon": -77.03424416666667, "fusion_lon": 0.0, "bike_id": "40a75661b6299a23fafffcbc00ab217a", "rental_uris": {"android": "https://dc.lft.to/lastmile_qr_scan", "ios": "https://dc.lft.to/lastmile_qr_scan"}, "is_reserved": 0, "type": "electric_scooter", "is_disabled": 0, "fusion_lat": 0.0}, {"name": "51808970a069654815918b1a283ece96", "lat": 38.93879183333333, "lon": -77.03281566666666, "fusion_lon": 0.0, "bike_id": "51808970a069654815918b1a283ece96", "rental_uris": {"android": "https://dc.lft.to/lastmile_qr_scan", "ios": "https://dc.lft.to/lastmile_qr_scan"}, "is_reserved": 0, "type": "electric_scooter", "is_disabled": 0, "fusion_lat": 0.0}, {"name": "86fa723cbf42ad0f2426ab3c61677327", "lat": 38.928663, "lon": -77.033333, "fusion_lon": 0.0, "bike_id": "86fa723cbf42ad0f2426ab3c61677327", "rental_uris": {"android": "https://dc.lft.to/lastmile_qr_scan", "ios": "https://dc.lft.to/lastmile_qr_scan"}, "is_reserved": 0, "type": "electric_scooter", "is_disabled": 0, "fusion_lat": 0.0}, {"name": "b415ee14132efa87b6e9fc947f926b86", "lat": 38.910790666666664, "lon": -77.02291633333333, "fusion_lon": 0.0, "bike_id": "b415ee14132efa87b6e9fc947f926b86", "rental_uris": {"android": "https://dc.lft.to/lastmile_qr_scan", "ios": "https://dc.lft.to/lastmile_qr_scan"}, "is_reserved": 0, "type": "electric_scooter", "is_disabled": 0, "fusion_lat": 0.0}, {"name": "3d9c3ecf9153a8a1e9f690de2b1b504d", "lat": 38.89224766666667, "lon": -77.0432875, "fusion_lon": 0.0, "bike_id": "3d9c3ecf9153a8a1e9f690de2b1b504d", "rental_uris": {"android": "https://dc.lft.to/lastmile_qr_scan", "ios": "https://dc.lft.to/lastmile_qr_scan"}, "is_reserved": 0, "type": "electric_scooter", "is_disabled": 0, "fusion_lat": 0.0}, {"name": "a75698fb9ffd52136e94122fb4cbad5d", "lat": 38.89717516666666, "lon": -77.02449066666667, "fusion_lon": 0.0, "bike_id": "a75698fb9ffd52136e94122fb4cbad5d", "rental_uris": {"android": "https://dc.lft.to/lastmile_qr_scan", "ios": "https://dc.lft.to/lastmile_qr_scan"}, "is_reserved": 0, "type": "electric_scooter", "is_disabled": 0, "fusion_lat": 0.0}, {"name": "a234922704800aeb47cce6485c193926", "lat": 39.06294833333333, "lon": -77.04976783333333, "fusion_lon": 0.0, "bike_id": "a234922704800aeb47cce6485c193926", "rental_uris": {"android": "https://dc.lft.to/lastmile_qr_scan", "ios": "https://dc.lft.to/lastmile_qr_scan"}, "is_reserved": 0, "type": "electric_bike", "is_disabled": 0, "fusion_lat": 0.0}, {"name": "d830724f7e2c99fb6ecb654a483f71e6", "lat": 38.956318833333334, "lon": -77.03290916666667, "fusion_lon": 0.0, "bike_id": "d830724f7e2c99fb6ecb654a483f71e6", "rental_uris": {"android": "https://dc.lft.to/lastmile_qr_scan", "ios": "https://dc.lft.to/lastmile_qr_scan"}, "is_reserved": 0, "type": "electric_scooter", "is_disabled": 0, "fusion_lat": 0.0}, {"name": "f93b6db3a64e6532c2ee77b31d3c80b9", "lat": 38.896732, "lon": -76.9424465, "fusion_lon": 0.0, "bike_id": "f93b6db3a64e6532c2ee77b31d3c80b9", "rental_uris": {"android": "https://dc.lft.to/lastmile_qr_scan", "ios": "https://dc.lft.to/lastmile_qr_scan"}, "is_reserved": 0, "type": "electric_scooter", "is_disabled": 0, "fusion_lat": 0.0}, {"name": "a9b232fcb54cae3b834d005e4d24593e", "lat": 38.90623716666666, "lon": -77.04334683333333, "fusion_lon": 0.0, "bike_id": "a9b232fcb54cae3b834d005e4d24593e", "rental_uris": {"android": "https://dc.lft.to/lastmile_qr_scan", "ios": "https://dc.lft.to/lastmile_qr_scan"}, "is_reserved": 0, "type": "electric_scooter", "is_disabled": 0, "fusion_lat": 0.0}, {"name": "7fc7277e59d25f932144af030ec5759a", "lat": 38.92500283333333, "lon": -77.05755316666666, "fusion_lon": 0.0, "bike_id": "7fc7277e59d25f932144af030ec5759a", "rental_uris": {"android": "https://dc.lft.to/lastmile_qr_scan", "ios": "https://dc.lft.to/lastmile_qr_scan"}, "is_reserved": 0, "type": "electric_scooter", "is_disabled": 0, "fusion_lat": 0.0}, {"name": "52f9d997010de558856652d5514731fd", "lat": 38.903244666666666, "lon": -77.02752366666667, "fusion_lon": 0.0, "bike_id": "52f9d997010de558856652d5514731fd", "rental_uris": {"android": "https://dc.lft.to/lastmile_qr_scan", "ios": "https://dc.lft.to/lastmile_qr_scan"}, "is_reserved": 0, "type": "electric_scooter", "is_disabled": 0, "fusion_lat": 0.0}, {"name": "2511fa0949a72e772fed5551d2f40efa", "lat": 38.9049605, "lon": -77.00124716666667, "fusion_lon": 0.0, "bike_id": "2511fa0949a72e772fed5551d2f40efa", "rental_uris": {"android": "https://dc.lft.to/lastmile_qr_scan", "ios": "https://dc.lft.to/lastmile_qr_scan"}, "is_reserved": 0, "type": "electric_scooter", "is_disabled": 0, "fusion_lat": 0.0}, {"name": "b544f7388d57938f807583c85ae2dcc8", "lat": 38.871090333333335, "lon": -76.96628616666666, "fusion_lon": 0.0, "bike_id": "b544f7388d57938f807583c85ae2dcc8", "rental_uris": {"android": "https://dc.lft.to/lastmile_qr_scan", "ios": "https://dc.lft.to/lastmile_qr_scan"}, "is_reserved": 0, "type": "electric_scooter", "is_disabled": 0, "fusion_lat": 0.0}, {"name": "51805134a330c9bcdce291487497f161", "lat": 38.89825033333334, "lon": -77.03027433333334, "fusion_lon": 0.0, "bike_id": "51805134a330c9bcdce291487497f161", "rental_uris": {"android": "https://dc.lft.to/lastmile_qr_scan", "ios": "https://dc.lft.to/lastmile_qr_scan"}, "is_reserved": 0, "type": "electric_scooter", "is_disabled": 0, "fusion_lat": 0.0}, {"name": "648a70dbd6fe0693f7ccf2e192683f81", "lat": 38.885458166666666, "lon": -76.9962395, "fusion_lon": 0.0, "bike_id": "648a70dbd6fe0693f7ccf2e192683f81", "rental_uris": {"android": "https://dc.lft.to/lastmile_qr_scan", "ios": "https://dc.lft.to/lastmile_qr_scan"}, "is_reserved": 0, "type": "electric_scooter", "is_disabled": 0, "fusion_lat": 0.0}, {"name": "3403271c572b69f917531ea3e9cf2763", "lat": 38.8954385, "lon": -76.99520833333334, "fusion_lon": 0.0, "bike_id": "3403271c572b69f917531ea3e9cf2763", "rental_uris": {"android": "https://dc.lft.to/lastmile_qr_scan", "ios": "https://dc.lft.to/lastmile_qr_scan"}, "is_reserved": 0, "type": "electric_scooter", "is_disabled": 0, "fusion_lat": 0.0}, {"name": "b76ef0b7c5402ca7d078215c4744a1af", "lat": 38.91352533333333, "lon": -77.03184966666667, "fusion_lon": 0.0, "bike_id": "b76ef0b7c5402ca7d078215c4744a1af", "rental_uris": {"android": "https://dc.lft.to/lastmile_qr_scan", "ios": "https://dc.lft.to/lastmile_qr_scan"}, "is_reserved": 0, "type": "electric_scooter", "is_disabled": 0, "fusion_lat": 0.0}, {"name": "fa27bc74509b50127ec3a0bc8a66351e", "lat": 38.89381733333333, "lon": -76.94819866666667, "fusion_lon": 0.0, "bike_id": "fa27bc74509b50127ec3a0bc8a66351e", "rental_uris": {"android": "https://dc.lft.to/lastmile_qr_scan", "ios": "https://dc.lft.to/lastmile_qr_scan"}, "is_reserved": 0, "type": "electric_bike", "is_disabled": 0, "fusion_lat": 0.0}, {"name": "902cf0ba953722512a9a9d9e2b9d23a3", "lat": 38.887750833333335, "lon": -76.97709983333333, "fusion_lon": 0.0, "bike_id": "902cf0ba953722512a9a9d9e2b9d23a3", "rental_uris": {"android": "https://dc.lft.to/lastmile_qr_scan", "ios": "https://dc.lft.to/lastmile_qr_scan"}, "is_reserved": 0, "type": "electric_scooter", "is_disabled": 0, "fusion_lat": 0.0}, {"name": "328514ac5778133dd86d62c30fc13ea1", "lat": 38.85926416666667, "lon": -76.9677765, "fusion_lon": 0.0, "bike_id": "328514ac5778133dd86d62c30fc13ea1", "rental_uris": {"android": "https://dc.lft.to/lastmile_qr_scan", "ios": "https://dc.lft.to/lastmile_qr_scan"}, "is_reserved": 0, "type": "electric_scooter", "is_disabled": 0, "fusion_lat": 0.0}, {"name": "3f0265461c70e32ce99e9d3be56515a2", "lat": 38.876757166666664, "lon": -77.0179855, "fusion_lon": 0.0, "bike_id": "3f0265461c70e32ce99e9d3be56515a2", "rental_uris": {"android": "https://dc.lft.to/lastmile_qr_scan", "ios": "https://dc.lft.to/lastmile_qr_scan"}, "is_reserved": 0, "type": "electric_scooter", "is_disabled": 0, "fusion_lat": 0.0}, {"name": "90b939c8f5ee08ee2182cb5b721a0c3a", "lat": 38.96079916666667, "lon": -77.02843283333333, "fusion_lon": 0.0, "bike_id": "90b939c8f5ee08ee2182cb5b721a0c3a", "rental_uris": {"android": "https://dc.lft.to/lastmile_qr_scan", "ios": "https://dc.lft.to/lastmile_qr_scan"}, "is_reserved": 0, "type": "electric_scooter", "is_disabled": 0, "fusion_lat": 0.0}, {"name": "345180e54d2050bb0a213cb60a8cf1e3", "lat": 38.940079, "lon": -77.07240016666667, "fusion_lon": 0.0, "bike_id": "345180e54d2050bb0a213cb60a8cf1e3", "rental_uris": {"android": "https://dc.lft.to/lastmile_qr_scan", "ios": "https://dc.lft.to/lastmile_qr_scan"}, "is_reserved": 0, "type": "electric_scooter", "is_disabled": 0, "fusion_lat": 0.0}, {"name": "882939e2c5e3a9eaab4748c09d62c66d", "lat": 38.89302, "lon": -77.01503333333334, "fusion_lon": 0.0, "bike_id": "882939e2c5e3a9eaab4748c09d62c66d", "rental_uris": {"android": "https://dc.lft.to/lastmile_qr_scan", "ios": "https://dc.lft.to/lastmile_qr_scan"}, "is_reserved": 0, "type": "electric_scooter", "is_disabled": 0, "fusion_lat": 0.0}, {"name": "bdea274a5970247173cdff4c3df519fd", "lat": 38.86123583333333, "lon": -76.98373666666667, "fusion_lon": 0.0, "bike_id": "bdea274a5970247173cdff4c3df519fd", "rental_uris": {"android": "https://dc.lft.to/lastmile_qr_scan", "ios": "https://dc.lft.to/lastmile_qr_scan"}, "is_reserved": 0, "type": "electric_scooter", "is_disabled": 0, "fusion_lat": 0.0}, {"name": "01f25e81705ccfc3f357aa6f89fb1b94", "lat": 38.876509, "lon": -77.00166833333333, "fusion_lon": 0.0, "bike_id": "01f25e81705ccfc3f357aa6f89fb1b94", "rental_uris": {"android": "https://dc.lft.to/lastmile_qr_scan", "ios": "https://dc.lft.to/lastmile_qr_scan"}, "is_reserved": 0, "type": "electric_scooter", "is_disabled": 0, "fusion_lat": 0.0}, {"name": "b0b81599ea5b6206a7807ede2bd00ec8", "lat": 38.89703133333333, "lon": -77.004886, "fusion_lon": 0.0, "bike_id": "b0b81599ea5b6206a7807ede2bd00ec8", "rental_uris": {"android": "https://dc.lft.to/lastmile_qr_scan", "ios": "https://dc.lft.to/lastmile_qr_scan"}, "is_reserved": 0, "type": "electric_scooter", "is_disabled": 0, "fusion_lat": 0.0}, {"name": "91c078c99d8c77d2f7e1bca96dcbfcc4", "lat": 38.897483666666666, "lon": -77.033358, "fusion_lon": 0.0, "bike_id": "91c078c99d8c77d2f7e1bca96dcbfcc4", "rental_uris": {"android": "https://dc.lft.to/lastmile_qr_scan", "ios": "https://dc.lft.to/lastmile_qr_scan"}, "is_reserved": 0, "type": "electric_scooter", "is_disabled": 0, "fusion_lat": 0.0}, {"name": "3faaaafc3e8a530472fc019a732ee708", "lat": 38.90193516666667, "lon": -77.00903566666666, "fusion_lon": 0.0, "bike_id": "3faaaafc3e8a530472fc019a732ee708", "rental_uris": {"android": "https://dc.lft.to/lastmile_qr_scan", "ios": "https://dc.lft.to/lastmile_qr_scan"}, "is_reserved": 0, "type": "electric_scooter", "is_disabled": 0, "fusion_lat": 0.0}, {"name": "80e42800f6b97393e7c52815ee70eee4", "lat": 38.8974065, "lon": -77.01276133333333, "fusion_lon": 0.0, "bike_id": "80e42800f6b97393e7c52815ee70eee4", "rental_uris": {"android": "https://dc.lft.to/lastmile_qr_scan", "ios": "https://dc.lft.to/lastmile_qr_scan"}, "is_reserved": 0, "type": "electric_scooter", "is_disabled": 0, "fusion_lat": 0.0}, {"name": "49cdec957c40e9057e3df52620ecc27c", "lat": 38.909544333333336, "lon": -77.0472295, "fusion_lon": 0.0, "bike_id": "49cdec957c40e9057e3df52620ecc27c", "rental_uris": {"android": "https://dc.lft.to/lastmile_qr_scan", "ios": "https://dc.lft.to/lastmile_qr_scan"}, "is_reserved": 0, "type": "electric_scooter", "is_disabled": 0, "fusion_lat": 0.0}, {"name": "e8a89cd1887c45f59fcf1381b7af1af3", "lat": 38.892407166666665, "lon": -77.02605483333333, "fusion_lon": 0.0, "bike_id": "e8a89cd1887c45f59fcf1381b7af1af3", "rental_uris": {"android": "https://dc.lft.to/lastmile_qr_scan", "ios": "https://dc.lft.to/lastmile_qr_scan"}, "is_reserved": 0, "type": "electric_scooter", "is_disabled": 0, "fusion_lat": 0.0}, {"name": "e10ddf24ebd68de6e91360c688441883", "lat": 38.927501, "lon": -77.03268166666666, "fusion_lon": 0.0, "bike_id": "e10ddf24ebd68de6e91360c688441883", "rental_uris": {"android": "https://dc.lft.to/lastmile_qr_scan", "ios": "https://dc.lft.to/lastmile_qr_scan"}, "is_reserved": 0, "type": "electric_scooter", "is_disabled": 0, "fusion_lat": 0.0}, {"name": "dad6be4c05ab721d1b7164987fd7730e", "lat": 38.9037165, "lon": -77.04519383333333, "fusion_lon": 0.0, "bike_id": "dad6be4c05ab721d1b7164987fd7730e", "rental_uris": {"android": "https://dc.lft.to/lastmile_qr_scan", "ios": "https://dc.lft.to/lastmile_qr_scan"}, "is_reserved": 0, "type": "electric_scooter", "is_disabled": 0, "fusion_lat": 0.0}, {"name": "71252aaaddc89d5b397e4041d9c3170c", "lat": 38.89836966666667, "lon": -77.02866583333333, "fusion_lon": 0.0, "bike_id": "71252aaaddc89d5b397e4041d9c3170c", "rental_uris": {"android": "https://dc.lft.to/lastmile_qr_scan", "ios": "https://dc.lft.to/lastmile_qr_scan"}, "is_reserved": 0, "type": "electric_scooter", "is_disabled": 0, "fusion_lat": 0.0}, {"name": "0a5e215d797f93a6bd69ca97d227f6a7", "lat": 38.9014785, "lon": -77.03323483333334, "fusion_lon": 0.0, "bike_id": "0a5e215d797f93a6bd69ca97d227f6a7", "rental_uris": {"android": "https://dc.lft.to/lastmile_qr_scan", "ios": "https://dc.lft.to/lastmile_qr_scan"}, "is_reserved": 0, "type": "electric_scooter", "is_disabled": 0, "fusion_lat": 0.0}, {"name": "08817537bed281c7ededb783e073649e", "lat": 38.90537783333333, "lon": -77.03976566666667, "fusion_lon": 0.0, "bike_id": "08817537bed281c7ededb783e073649e", "rental_uris": {"android": "https://dc.lft.to/lastmile_qr_scan", "ios": "https://dc.lft.to/lastmile_qr_scan"}, "is_reserved": 0, "type": "electric_scooter", "is_disabled": 0, "fusion_lat": 0.0}, {"name": "3e87224638cd8e06fc49179376f6e3a3", "lat": 38.941846, "lon": -77.02490283333333, "fusion_lon": 0.0, "bike_id": "3e87224638cd8e06fc49179376f6e3a3", "rental_uris": {"android": "https://dc.lft.to/lastmile_qr_scan", "ios": "https://dc.lft.to/lastmile_qr_scan"}, "is_reserved": 0, "type": "electric_scooter", "is_disabled": 0, "fusion_lat": 0.0}, {"name": "70e0220df9b40fce5a72347d72cded25", "lat": 38.914767166666664, "lon": -77.02184983333333, "fusion_lon": 0.0, "bike_id": "70e0220df9b40fce5a72347d72cded25", "rental_uris": {"android": "https://dc.lft.to/lastmile_qr_scan", "ios": "https://dc.lft.to/lastmile_qr_scan"}, "is_reserved": 0, "type": "electric_scooter", "is_disabled": 0, "fusion_lat": 0.0}, {"name": "7cf2cfc8186dd2fa03e5000a18e06c81", "lat": 38.92805416666667, "lon": -77.022963, "fusion_lon": 0.0, "bike_id": "7cf2cfc8186dd2fa03e5000a18e06c81", "rental_uris": {"android": "https://dc.lft.to/lastmile_qr_scan", "ios": "https://dc.lft.to/lastmile_qr_scan"}, "is_reserved": 0, "type": "electric_scooter", "is_disabled": 0, "fusion_lat": 0.0}, {"name": "c398fa8a2a60f5804c01da6fc66b3caf", "lat": 38.892888, "lon": -77.04183433333333, "fusion_lon": 0.0, "bike_id": "c398fa8a2a60f5804c01da6fc66b3caf", "rental_uris": {"android": "https://dc.lft.to/lastmile_qr_scan", "ios": "https://dc.lft.to/lastmile_qr_scan"}, "is_reserved": 0, "type": "electric_scooter", "is_disabled": 0, "fusion_lat": 0.0}, {"name": "6c3090586c35557548dbe3d4b9e1d31a", "lat": 38.8620255, "lon": -76.99124966666666, "fusion_lon": 0.0, "bike_id": "6c3090586c35557548dbe3d4b9e1d31a", "rental_uris": {"android": "https://dc.lft.to/lastmile_qr_scan", "ios": "https://dc.lft.to/lastmile_qr_scan"}, "is_reserved": 0, "type": "electric_scooter", "is_disabled": 0, "fusion_lat": 0.0}, {"name": "52d57f0b2b3508e6836999b74d982369", "lat": 38.903997333333336, "lon": -77.04327433333333, "fusion_lon": 0.0, "bike_id": "52d57f0b2b3508e6836999b74d982369", "rental_uris": {"android": "https://dc.lft.to/lastmile_qr_scan", "ios": "https://dc.lft.to/lastmile_qr_scan"}, "is_reserved": 0, "type": "electric_scooter", "is_disabled": 0, "fusion_lat": 0.0}, {"name": "a8fc3c12879d2f989ff71514485848bf", "lat": 38.89391, "lon": -76.9501965, "fusion_lon": 0.0, "bike_id": "a8fc3c12879d2f989ff71514485848bf", "rental_uris": {"android": "https://dc.lft.to/lastmile_qr_scan", "ios": "https://dc.lft.to/lastmile_qr_scan"}, "is_reserved": 0, "type": "electric_scooter", "is_disabled": 0, "fusion_lat": 0.0}, {"name": "67251b45f0e8a30cd66a106a59f3e046", "lat": 38.9282725, "lon": -77.05439583333333, "fusion_lon": 0.0, "bike_id": "67251b45f0e8a30cd66a106a59f3e046", "rental_uris": {"android": "https://dc.lft.to/lastmile_qr_scan", "ios": "https://dc.lft.to/lastmile_qr_scan"}, "is_reserved": 0, "type": "electric_scooter", "is_disabled": 0, "fusion_lat": 0.0}, {"name": "1bc92b71cd664ad5a58fb5995e6ea77e", "lat": 38.945028, "lon": -77.038654, "fusion_lon": 0.0, "bike_id": "1bc92b71cd664ad5a58fb5995e6ea77e", "rental_uris": {"android": "https://dc.lft.to/lastmile_qr_scan", "ios": "https://dc.lft.to/lastmile_qr_scan"}, "is_reserved": 0, "type": "electric_scooter", "is_disabled": 0, "fusion_lat": 0.0}, {"name": "96a049c72e26626c6b9b710b7f56b516", "lat": 38.8850585, "lon": -77.00565683333333, "fusion_lon": 0.0, "bike_id": "96a049c72e26626c6b9b710b7f56b516", "rental_uris": {"android": "https://dc.lft.to/lastmile_qr_scan", "ios": "https://dc.lft.to/lastmile_qr_scan"}, "is_reserved": 0, "type": "electric_scooter", "is_disabled": 0, "fusion_lat": 0.0}, {"name": "6e23f0047fc13fdbc9ebc06ddb9fb1cc", "lat": 38.904274, "lon": -77.034277, "fusion_lon": 0.0, "bike_id": "6e23f0047fc13fdbc9ebc06ddb9fb1cc", "rental_uris": {"android": "https://dc.lft.to/lastmile_qr_scan", "ios": "https://dc.lft.to/lastmile_qr_scan"}, "is_reserved": 0, "type": "electric_scooter", "is_disabled": 0, "fusion_lat": 0.0}, {"name": "1e477b5c5cb49075fb3271c815acfc2d", "lat": 38.89553766666667, "lon": -76.94877233333334, "fusion_lon": 0.0, "bike_id": "1e477b5c5cb49075fb3271c815acfc2d", "rental_uris": {"android": "https://dc.lft.to/lastmile_qr_scan", "ios": "https://dc.lft.to/lastmile_qr_scan"}, "is_reserved": 0, "type": "electric_scooter", "is_disabled": 0, "fusion_lat": 0.0}, {"name": "0b83d2c4d5a669147c3247931461c3e5", "lat": 38.86697766666666, "lon": -76.98713083333334, "fusion_lon": 0.0, "bike_id": "0b83d2c4d5a669147c3247931461c3e5", "rental_uris": {"android": "https://dc.lft.to/lastmile_qr_scan", "ios": "https://dc.lft.to/lastmile_qr_scan"}, "is_reserved": 0, "type": "electric_scooter", "is_disabled": 0, "fusion_lat": 0.0}, {"name": "517683103c6f57283600eac163419a0f", "lat": 38.86374766666667, "lon": -76.99061333333333, "fusion_lon": 0.0, "bike_id": "517683103c6f57283600eac163419a0f", "rental_uris": {"android": "https://dc.lft.to/lastmile_qr_scan", "ios": "https://dc.lft.to/lastmile_qr_scan"}, "is_reserved": 0, "type": "electric_scooter", "is_disabled": 0, "fusion_lat": 0.0}, {"name": "f3c20f684710e31d1693720c89b76ce1", "lat": 38.928098, "lon": -77.05396466666667, "fusion_lon": 0.0, "bike_id": "f3c20f684710e31d1693720c89b76ce1", "rental_uris": {"android": "https://dc.lft.to/lastmile_qr_scan", "ios": "https://dc.lft.to/lastmile_qr_scan"}, "is_reserved": 0, "type": "electric_scooter", "is_disabled": 0, "fusion_lat": 0.0}, {"name": "20ff7f9735d09de31627a6bd69aa2c51", "lat": 38.90778133333333, "lon": -76.99708016666666, "fusion_lon": 0.0, "bike_id": "20ff7f9735d09de31627a6bd69aa2c51", "rental_uris": {"android": "https://dc.lft.to/lastmile_qr_scan", "ios": "https://dc.lft.to/lastmile_qr_scan"}, "is_reserved": 0, "type": "electric_scooter", "is_disabled": 0, "fusion_lat": 0.0}, {"name": "2ee8bcd898b8e9930dd723b5e565a34c", "lat": 38.9154655, "lon": -77.0118615, "fusion_lon": 0.0, "bike_id": "2ee8bcd898b8e9930dd723b5e565a34c", "rental_uris": {"android": "https://dc.lft.to/lastmile_qr_scan", "ios": "https://dc.lft.to/lastmile_qr_scan"}, "is_reserved": 0, "type": "electric_scooter", "is_disabled": 0, "fusion_lat": 0.0}, {"name": "5637d803ea8679a6d094275a02cecc04", "lat": 38.881244333333335, "lon": -77.01405566666666, "fusion_lon": 0.0, "bike_id": "5637d803ea8679a6d094275a02cecc04", "rental_uris": {"android": "https://dc.lft.to/lastmile_qr_scan", "ios": "https://dc.lft.to/lastmile_qr_scan"}, "is_reserved": 0, "type": "electric_scooter", "is_disabled": 0, "fusion_lat": 0.0}, {"name": "6a7789c89b1f53fce1c5456cf09c0400", "lat": 38.8862805, "lon": -76.99615666666666, "fusion_lon": 0.0, "bike_id": "6a7789c89b1f53fce1c5456cf09c0400", "rental_uris": {"android": "https://dc.lft.to/lastmile_qr_scan", "ios": "https://dc.lft.to/lastmile_qr_scan"}, "is_reserved": 0, "type": "electric_scooter", "is_disabled": 0, "fusion_lat": 0.0}, {"name": "05af1cf2268f6713f79cea418c99472b", "lat": 38.92402216666667, "lon": -77.02535916666666, "fusion_lon": 0.0, "bike_id": "05af1cf2268f6713f79cea418c99472b", "rental_uris": {"android": "https://dc.lft.to/lastmile_qr_scan", "ios": "https://dc.lft.to/lastmile_qr_scan"}, "is_reserved": 0, "type": "electric_scooter", "is_disabled": 0, "fusion_lat": 0.0}, {"name": "7e741713c29075325780598b6aea5e85", "lat": 38.8360825, "lon": -77.00383466666666, "fusion_lon": 0.0, "bike_id": "7e741713c29075325780598b6aea5e85", "rental_uris": {"android": "https://dc.lft.to/lastmile_qr_scan", "ios": "https://dc.lft.to/lastmile_qr_scan"}, "is_reserved": 0, "type": "electric_bike", "is_disabled": 0, "fusion_lat": 0.0}, {"name": "f38a5c5ae6a8e0faf10db636e53708fc", "lat": 38.932005333333336, "lon": -77.03853766666667, "fusion_lon": 0.0, "bike_id": "f38a5c5ae6a8e0faf10db636e53708fc", "rental_uris": {"android": "https://dc.lft.to/lastmile_qr_scan", "ios": "https://dc.lft.to/lastmile_qr_scan"}, "is_reserved": 0, "type": "electric_scooter", "is_disabled": 0, "fusion_lat": 0.0}, {"name": "c34d86202c4e0fce3979335a55ba3098", "lat": 38.9035865, "lon": -77.0316855, "fusion_lon": 0.0, "bike_id": "c34d86202c4e0fce3979335a55ba3098", "rental_uris": {"android": "https://dc.lft.to/lastmile_qr_scan", "ios": "https://dc.lft.to/lastmile_qr_scan"}, "is_reserved": 0, "type": "electric_scooter", "is_disabled": 0, "fusion_lat": 0.0}, {"name": "87d05ae66c41da40564c800377bd806b", "lat": 38.924764333333336, "lon": -77.025527, "fusion_lon": 0.0, "bike_id": "87d05ae66c41da40564c800377bd806b", "rental_uris": {"android": "https://dc.lft.to/lastmile_qr_scan", "ios": "https://dc.lft.to/lastmile_qr_scan"}, "is_reserved": 0, "type": "electric_scooter", "is_disabled": 0, "fusion_lat": 0.0}, {"name": "e6aae7f28af5c6a33202c46b488c23b5", "lat": 38.902384833333336, "lon": -77.03260733333333, "fusion_lon": 0.0, "bike_id": "e6aae7f28af5c6a33202c46b488c23b5", "rental_uris": {"android": "https://dc.lft.to/lastmile_qr_scan", "ios": "https://dc.lft.to/lastmile_qr_scan"}, "is_reserved": 0, "type": "electric_scooter", "is_disabled": 0, "fusion_lat": 0.0}, {"name": "c46352dae2902791e90542d688230a88", "lat": 38.941838833333335, "lon": -77.02490883333333, "fusion_lon": 0.0, "bike_id": "c46352dae2902791e90542d688230a88", "rental_uris": {"android": "https://dc.lft.to/lastmile_qr_scan", "ios": "https://dc.lft.to/lastmile_qr_scan"}, "is_reserved": 0, "type": "electric_scooter", "is_disabled": 0, "fusion_lat": 0.0}, {"name": "d9334108ad58ce49d9ad7d8ec9a99032", "lat": 38.905266, "lon": -76.98300666666667, "fusion_lon": 0.0, "bike_id": "d9334108ad58ce49d9ad7d8ec9a99032", "rental_uris": {"android": "https://dc.lft.to/lastmile_qr_scan", "ios": "https://dc.lft.to/lastmile_qr_scan"}, "is_reserved": 0, "type": "electric_scooter", "is_disabled": 0, "fusion_lat": 0.0}, {"name": "d5cc973d4630b7eb0d678862d100fded", "lat": 38.93933216666667, "lon": -77.03590133333333, "fusion_lon": 0.0, "bike_id": "d5cc973d4630b7eb0d678862d100fded", "rental_uris": {"android": "https://dc.lft.to/lastmile_qr_scan", "ios": "https://dc.lft.to/lastmile_qr_scan"}, "is_reserved": 0, "type": "electric_scooter", "is_disabled": 0, "fusion_lat": 0.0}, {"name": "04af5315ce6f2cae55551949a5c6635f", "lat": 38.9252855, "lon": -77.038521, "fusion_lon": 0.0, "bike_id": "04af5315ce6f2cae55551949a5c6635f", "rental_uris": {"android": "https://dc.lft.to/lastmile_qr_scan", "ios": "https://dc.lft.to/lastmile_qr_scan"}, "is_reserved": 0, "type": "electric_scooter", "is_disabled": 0, "fusion_lat": 0.0}, {"name": "45433c42a94514bf69459593ed0d69ef", "lat": 38.923229666666664, "lon": -77.043151, "fusion_lon": 0.0, "bike_id": "45433c42a94514bf69459593ed0d69ef", "rental_uris": {"android": "https://dc.lft.to/lastmile_qr_scan", "ios": "https://dc.lft.to/lastmile_qr_scan"}, "is_reserved": 0, "type": "electric_scooter", "is_disabled": 0, "fusion_lat": 0.0}, {"name": "052a0de169865057abdd9e5a97da66c8", "lat": 38.91913866666667, "lon": -77.0464305, "fusion_lon": 0.0, "bike_id": "052a0de169865057abdd9e5a97da66c8", "rental_uris": {"android": "https://dc.lft.to/lastmile_qr_scan", "ios": "https://dc.lft.to/lastmile_qr_scan"}, "is_reserved": 0, "type": "electric_scooter", "is_disabled": 0, "fusion_lat": 0.0}, {"name": "ca281482684c76a1da67dc9dacc79327", "lat": 38.907954833333335, "lon": -77.07165916666666, "fusion_lon": 0.0, "bike_id": "ca281482684c76a1da67dc9dacc79327", "rental_uris": {"android": "https://dc.lft.to/lastmile_qr_scan", "ios": "https://dc.lft.to/lastmile_qr_scan"}, "is_reserved": 0, "type": "electric_bike", "is_disabled": 0, "fusion_lat": 0.0}, {"name": "658175bb9a8d17fdbd63865f99c0ff25", "lat": 38.924205666666666, "lon": -77.05056766666667, "fusion_lon": 0.0, "bike_id": "658175bb9a8d17fdbd63865f99c0ff25", "rental_uris": {"android": "https://dc.lft.to/lastmile_qr_scan", "ios": "https://dc.lft.to/lastmile_qr_scan"}, "is_reserved": 0, "type": "electric_scooter", "is_disabled": 0, "fusion_lat": 0.0}, {"name": "078f2e86d3eff85e4e6fb2736464d34c", "lat": 38.87938583333333, "lon": -77.017094, "fusion_lon": 0.0, "bike_id": "078f2e86d3eff85e4e6fb2736464d34c", "rental_uris": {"android": "https://dc.lft.to/lastmile_qr_scan", "ios": "https://dc.lft.to/lastmile_qr_scan"}, "is_reserved": 0, "type": "electric_scooter", "is_disabled": 0, "fusion_lat": 0.0}, {"name": "c23e458b69e3a2012f18dfb3ef0f3e4e", "lat": 38.920492833333334, "lon": -77.02469166666667, "fusion_lon": 0.0, "bike_id": "c23e458b69e3a2012f18dfb3ef0f3e4e", "rental_uris": {"android": "https://dc.lft.to/lastmile_qr_scan", "ios": "https://dc.lft.to/lastmile_qr_scan"}, "is_reserved": 0, "type": "electric_scooter", "is_disabled": 0, "fusion_lat": 0.0}, {"name": "fe866400e3d1da0e54dbdb4e3a53df70", "lat": 38.90494, "lon": -76.94954916666667, "fusion_lon": 0.0, "bike_id": "fe866400e3d1da0e54dbdb4e3a53df70", "rental_uris": {"android": "https://dc.lft.to/lastmile_qr_scan", "ios": "https://dc.lft.to/lastmile_qr_scan"}, "is_reserved": 0, "type": "electric_scooter", "is_disabled": 0, "fusion_lat": 0.0}, {"name": "c1e5106cf35583ba6194cadb77a07f46", "lat": 38.914917, "lon": -77.03124766666667, "fusion_lon": 0.0, "bike_id": "c1e5106cf35583ba6194cadb77a07f46", "rental_uris": {"android": "https://dc.lft.to/lastmile_qr_scan", "ios": "https://dc.lft.to/lastmile_qr_scan"}, "is_reserved": 0, "type": "electric_scooter", "is_disabled": 0, "fusion_lat": 0.0}, {"name": "a2f8c71f0660735010cbe88c96f9c03a", "lat": 38.90359483333334, "lon": -77.05046566666667, "fusion_lon": 0.0, "bike_id": "a2f8c71f0660735010cbe88c96f9c03a", "rental_uris": {"android": "https://dc.lft.to/lastmile_qr_scan", "ios": "https://dc.lft.to/lastmile_qr_scan"}, "is_reserved": 0, "type": "electric_scooter", "is_disabled": 0, "fusion_lat": 0.0}, {"name": "66a921c206cbd5be6c3c8fda5bda628d", "lat": 38.887822166666666, "lon": -76.951227, "fusion_lon": 0.0, "bike_id": "66a921c206cbd5be6c3c8fda5bda628d", "rental_uris": {"android": "https://dc.lft.to/lastmile_qr_scan", "ios": "https://dc.lft.to/lastmile_qr_scan"}, "is_reserved": 0, "type": "electric_scooter", "is_disabled": 0, "fusion_lat": 0.0}, {"name": "dda2a2a5a721ce2f4be64a3be8b2fc2d", "lat": 38.93057533333333, "lon": -77.0379415, "fusion_lon": 0.0, "bike_id": "dda2a2a5a721ce2f4be64a3be8b2fc2d", "rental_uris": {"android": "https://dc.lft.to/lastmile_qr_scan", "ios": "https://dc.lft.to/lastmile_qr_scan"}, "is_reserved": 0, "type": "electric_scooter", "is_disabled": 0, "fusion_lat": 0.0}, {"name": "bcbbbea6b917989e7f82d0aa7f5e45df", "lat": 38.84297566666667, "lon": -77.0895605, "fusion_lon": 0.0, "bike_id": "bcbbbea6b917989e7f82d0aa7f5e45df", "rental_uris": {"android": "https://dc.lft.to/lastmile_qr_scan", "ios": "https://dc.lft.to/lastmile_qr_scan"}, "is_reserved": 0, "type": "electric_bike", "is_disabled": 0, "fusion_lat": 0.0}, {"name": "2a02266adf913b29321a211e8029a25e", "lat": 38.90568366666667, "lon": -77.022263, "fusion_lon": 0.0, "bike_id": "2a02266adf913b29321a211e8029a25e", "rental_uris": {"android": "https://dc.lft.to/lastmile_qr_scan", "ios": "https://dc.lft.to/lastmile_qr_scan"}, "is_reserved": 0, "type": "electric_scooter", "is_disabled": 0, "fusion_lat": 0.0}, {"name": "7f56e6065892c0a5d35f534a0f98c6ea", "lat": 38.87111216666667, "lon": -76.923328, "fusion_lon": 0.0, "bike_id": "7f56e6065892c0a5d35f534a0f98c6ea", "rental_uris": {"android": "https://dc.lft.to/lastmile_qr_scan", "ios": "https://dc.lft.to/lastmile_qr_scan"}, "is_reserved": 0, "type": "electric_bike", "is_disabled": 0, "fusion_lat": 0.0}, {"name": "fc2e93cfe0a0f8351ccb73b1f28ec554", "lat": 38.901252, "lon": -77.05795183333333, "fusion_lon": 0.0, "bike_id": "fc2e93cfe0a0f8351ccb73b1f28ec554", "rental_uris": {"android": "https://dc.lft.to/lastmile_qr_scan", "ios": "https://dc.lft.to/lastmile_qr_scan"}, "is_reserved": 0, "type": "electric_bike", "is_disabled": 0, "fusion_lat": 0.0}, {"name": "363c62af8940efac67175d91a596500a", "lat": 38.915587333333335, "lon": -77.021725, "fusion_lon": 0.0, "bike_id": "363c62af8940efac67175d91a596500a", "rental_uris": {"android": "https://dc.lft.to/lastmile_qr_scan", "ios": "https://dc.lft.to/lastmile_qr_scan"}, "is_reserved": 0, "type": "electric_scooter", "is_disabled": 0, "fusion_lat": 0.0}, {"name": "b3a1d96bd66ba71021de3985c1b93d17", "lat": 38.9288205, "lon": -77.03361866666667, "fusion_lon": 0.0, "bike_id": "b3a1d96bd66ba71021de3985c1b93d17", "rental_uris": {"android": "https://dc.lft.to/lastmile_qr_scan", "ios": "https://dc.lft.to/lastmile_qr_scan"}, "is_reserved": 0, "type": "electric_scooter", "is_disabled": 0, "fusion_lat": 0.0}, {"name": "e0d929ff693c32d3cac5bcdcd17e4890", "lat": 38.90714116666667, "lon": -77.05132183333333, "fusion_lon": 0.0, "bike_id": "e0d929ff693c32d3cac5bcdcd17e4890", "rental_uris": {"android": "https://dc.lft.to/lastmile_qr_scan", "ios": "https://dc.lft.to/lastmile_qr_scan"}, "is_reserved": 0, "type": "electric_scooter", "is_disabled": 0, "fusion_lat": 0.0}, {"name": "17157e576c5091582a331099dd1c4af7", "lat": 38.92669566666667, "lon": -77.0077045, "fusion_lon": 0.0, "bike_id": "17157e576c5091582a331099dd1c4af7", "rental_uris": {"android": "https://dc.lft.to/lastmile_qr_scan", "ios": "https://dc.lft.to/lastmile_qr_scan"}, "is_reserved": 0, "type": "electric_scooter", "is_disabled": 0, "fusion_lat": 0.0}, {"name": "87c599404821a0ddd338fc1341ad0735", "lat": 38.90247033333333, "lon": -77.0059345, "fusion_lon": 0.0, "bike_id": "87c599404821a0ddd338fc1341ad0735", "rental_uris": {"android": "https://dc.lft.to/lastmile_qr_scan", "ios": "https://dc.lft.to/lastmile_qr_scan"}, "is_reserved": 0, "type": "electric_bike", "is_disabled": 0, "fusion_lat": 0.0}, {"name": "fc9f79ef56a2e1088b29459f30c2332c", "lat": 38.90005766666667, "lon": -76.99840383333333, "fusion_lon": 0.0, "bike_id": "fc9f79ef56a2e1088b29459f30c2332c", "rental_uris": {"android": "https://dc.lft.to/lastmile_qr_scan", "ios": "https://dc.lft.to/lastmile_qr_scan"}, "is_reserved": 0, "type": "electric_scooter", "is_disabled": 0, "fusion_lat": 0.0}, {"name": "6f76ce28002e8c6bce2dffdf58d76efc", "lat": 38.903617833333335, "lon": -77.03967266666666, "fusion_lon": 0.0, "bike_id": "6f76ce28002e8c6bce2dffdf58d76efc", "rental_uris": {"android": "https://dc.lft.to/lastmile_qr_scan", "ios": "https://dc.lft.to/lastmile_qr_scan"}, "is_reserved": 0, "type": "electric_scooter", "is_disabled": 0, "fusion_lat": 0.0}, {"name": "6800addf0535b73fcc93dba59f518d49", "lat": 38.92610716666667, "lon": -77.02164833333333, "fusion_lon": 0.0, "bike_id": "6800addf0535b73fcc93dba59f518d49", "rental_uris": {"android": "https://dc.lft.to/lastmile_qr_scan", "ios": "https://dc.lft.to/lastmile_qr_scan"}, "is_reserved": 0, "type": "electric_scooter", "is_disabled": 0, "fusion_lat": 0.0}, {"name": "127ebaeb2e2911dfff400a41a039d143", "lat": 38.9418385, "lon": -77.024912, "fusion_lon": 0.0, "bike_id": "127ebaeb2e2911dfff400a41a039d143", "rental_uris": {"android": "https://dc.lft.to/lastmile_qr_scan", "ios": "https://dc.lft.to/lastmile_qr_scan"}, "is_reserved": 0, "type": "electric_scooter", "is_disabled": 0, "fusion_lat": 0.0}, {"name": "ba9cb4615c4d21e7c54381d30b3cbfc6", "lat": 38.93304116666667, "lon": -77.0280135, "fusion_lon": 0.0, "bike_id": "ba9cb4615c4d21e7c54381d30b3cbfc6", "rental_uris": {"android": "https://dc.lft.to/lastmile_qr_scan", "ios": "https://dc.lft.to/lastmile_qr_scan"}, "is_reserved": 0, "type": "electric_scooter", "is_disabled": 0, "fusion_lat": 0.0}, {"name": "226444e1afcd812b5018b2d1185ebc7b", "lat": 38.84797316666667, "lon": -76.96713233333334, "fusion_lon": 0.0, "bike_id": "226444e1afcd812b5018b2d1185ebc7b", "rental_uris": {"android": "https://dc.lft.to/lastmile_qr_scan", "ios": "https://dc.lft.to/lastmile_qr_scan"}, "is_reserved": 0, "type": "electric_scooter", "is_disabled": 0, "fusion_lat": 0.0}, {"name": "e2348e5c90d0c8a7bf660a843c64ca77", "lat": 38.900333833333335, "lon": -76.99868566666666, "fusion_lon": 0.0, "bike_id": "e2348e5c90d0c8a7bf660a843c64ca77", "rental_uris": {"android": "https://dc.lft.to/lastmile_qr_scan", "ios": "https://dc.lft.to/lastmile_qr_scan"}, "is_reserved": 0, "type": "electric_scooter", "is_disabled": 0, "fusion_lat": 0.0}, {"name": "11ad3da9aaddefea7d820b0cee6f1a87", "lat": 38.96619466666667, "lon": -76.9442145, "fusion_lon": 0.0, "bike_id": "11ad3da9aaddefea7d820b0cee6f1a87", "rental_uris": {"android": "https://dc.lft.to/lastmile_qr_scan", "ios": "https://dc.lft.to/lastmile_qr_scan"}, "is_reserved": 0, "type": "electric_bike", "is_disabled": 0, "fusion_lat": 0.0}, {"name": "693830ebbdefb19a9a894211af154ba1", "lat": 38.90382983333333, "lon": -77.02875983333334, "fusion_lon": 0.0, "bike_id": "693830ebbdefb19a9a894211af154ba1", "rental_uris": {"android": "https://dc.lft.to/lastmile_qr_scan", "ios": "https://dc.lft.to/lastmile_qr_scan"}, "is_reserved": 0, "type": "electric_scooter", "is_disabled": 0, "fusion_lat": 0.0}, {"name": "70e61884a0430e992f5fefa6a5c8ce1b", "lat": 38.95203083333333, "lon": -77.081337, "fusion_lon": 0.0, "bike_id": "70e61884a0430e992f5fefa6a5c8ce1b", "rental_uris": {"android": "https://dc.lft.to/lastmile_qr_scan", "ios": "https://dc.lft.to/lastmile_qr_scan"}, "is_reserved": 0, "type": "electric_bike", "is_disabled": 0, "fusion_lat": 0.0}, {"name": "4b97088437f65eeec167c36401217097", "lat": 38.930963, "lon": -77.03816433333333, "fusion_lon": 0.0, "bike_id": "4b97088437f65eeec167c36401217097", "rental_uris": {"android": "https://dc.lft.to/lastmile_qr_scan", "ios": "https://dc.lft.to/lastmile_qr_scan"}, "is_reserved": 0, "type": "electric_scooter", "is_disabled": 0, "fusion_lat": 0.0}, {"name": "5286c6df2da7f4156d53a493f4333690", "lat": 38.903499333333336, "lon": -77.0089495, "fusion_lon": 0.0, "bike_id": "5286c6df2da7f4156d53a493f4333690", "rental_uris": {"android": "https://dc.lft.to/lastmile_qr_scan", "ios": "https://dc.lft.to/lastmile_qr_scan"}, "is_reserved": 0, "type": "electric_scooter", "is_disabled": 0, "fusion_lat": 0.0}, {"name": "94a49f47ef7908f2bdc651dd29c9f4c4", "lat": 38.896071166666665, "lon": -77.02600016666666, "fusion_lon": 0.0, "bike_id": "94a49f47ef7908f2bdc651dd29c9f4c4", "rental_uris": {"android": "https://dc.lft.to/lastmile_qr_scan", "ios": "https://dc.lft.to/lastmile_qr_scan"}, "is_reserved": 0, "type": "electric_scooter", "is_disabled": 0, "fusion_lat": 0.0}, {"name": "6a5805b1cf76aa2969e62ee26425d655", "lat": 38.88707516666667, "lon": -77.01362566666667, "fusion_lon": 0.0, "bike_id": "6a5805b1cf76aa2969e62ee26425d655", "rental_uris": {"android": "https://dc.lft.to/lastmile_qr_scan", "ios": "https://dc.lft.to/lastmile_qr_scan"}, "is_reserved": 0, "type": "electric_scooter", "is_disabled": 0, "fusion_lat": 0.0}, {"name": "5fb9de6af13adee6b3a42d2e52f850a2", "lat": 38.9075825, "lon": -77.0013275, "fusion_lon": 0.0, "bike_id": "5fb9de6af13adee6b3a42d2e52f850a2", "rental_uris": {"android": "https://dc.lft.to/lastmile_qr_scan", "ios": "https://dc.lft.to/lastmile_qr_scan"}, "is_reserved": 0, "type": "electric_scooter", "is_disabled": 0, "fusion_lat": 0.0}, {"name": "b8a4cd6bf1444759507c582dcdb0a8c8", "lat": 38.85689466666667, "lon": -76.99596433333333, "fusion_lon": 0.0, "bike_id": "b8a4cd6bf1444759507c582dcdb0a8c8", "rental_uris": {"android": "https://dc.lft.to/lastmile_qr_scan", "ios": "https://dc.lft.to/lastmile_qr_scan"}, "is_reserved": 0, "type": "electric_scooter", "is_disabled": 0, "fusion_lat": 0.0}, {"name": "4915b34736f9865768f08932ef82e303", "lat": 38.9195075, "lon": -77.07971433333333, "fusion_lon": 0.0, "bike_id": "4915b34736f9865768f08932ef82e303", "rental_uris": {"android": "https://dc.lft.to/lastmile_qr_scan", "ios": "https://dc.lft.to/lastmile_qr_scan"}, "is_reserved": 0, "type": "electric_scooter", "is_disabled": 0, "fusion_lat": 0.0}, {"name": "546917170a3c070693b02c3727f428e8", "lat": 38.959429666666665, "lon": -77.0719075, "fusion_lon": 0.0, "bike_id": "546917170a3c070693b02c3727f428e8", "rental_uris": {"android": "https://dc.lft.to/lastmile_qr_scan", "ios": "https://dc.lft.to/lastmile_qr_scan"}, "is_reserved": 0, "type": "electric_scooter", "is_disabled": 0, "fusion_lat": 0.0}, {"name": "eda995c362de1a1e91928ab448d0e471", "lat": 38.829106333333335, "lon": -77.00830033333334, "fusion_lon": 0.0, "bike_id": "eda995c362de1a1e91928ab448d0e471", "rental_uris": {"android": "https://dc.lft.to/lastmile_qr_scan", "ios": "https://dc.lft.to/lastmile_qr_scan"}, "is_reserved": 0, "type": "electric_bike", "is_disabled": 0, "fusion_lat": 0.0}, {"name": "ccc125cf0a5a48e63214bf590e30aeeb", "lat": 38.917997666666665, "lon": -77.03210666666666, "fusion_lon": 0.0, "bike_id": "ccc125cf0a5a48e63214bf590e30aeeb", "rental_uris": {"android": "https://dc.lft.to/lastmile_qr_scan", "ios": "https://dc.lft.to/lastmile_qr_scan"}, "is_reserved": 0, "type": "electric_scooter", "is_disabled": 0, "fusion_lat": 0.0}, {"name": "7c38715521cbd811a87b3c1404c6b52a", "lat": 38.919124, "lon": -77.02165183333334, "fusion_lon": 0.0, "bike_id": "7c38715521cbd811a87b3c1404c6b52a", "rental_uris": {"android": "https://dc.lft.to/lastmile_qr_scan", "ios": "https://dc.lft.to/lastmile_qr_scan"}, "is_reserved": 0, "type": "electric_scooter", "is_disabled": 0, "fusion_lat": 0.0}, {"name": "a833c5351bd8737b55b5f8b52aa86516", "lat": 38.919770166666666, "lon": -77.04171133333334, "fusion_lon": 0.0, "bike_id": "a833c5351bd8737b55b5f8b52aa86516", "rental_uris": {"android": "https://dc.lft.to/lastmile_qr_scan", "ios": "https://dc.lft.to/lastmile_qr_scan"}, "is_reserved": 0, "type": "electric_scooter", "is_disabled": 0, "fusion_lat": 0.0}, {"name": "d52c4806cac6816d6d70ed29e425e38b", "lat": 38.880761666666665, "lon": -76.98522116666666, "fusion_lon": 0.0, "bike_id": "d52c4806cac6816d6d70ed29e425e38b", "rental_uris": {"android": "https://dc.lft.to/lastmile_qr_scan", "ios": "https://dc.lft.to/lastmile_qr_scan"}, "is_reserved": 0, "type": "electric_scooter", "is_disabled": 0, "fusion_lat": 0.0}, {"name": "ed9b5da20c00ed75d0e6c87d4588acda", "lat": 38.89839816666667, "lon": -77.00737833333334, "fusion_lon": 0.0, "bike_id": "ed9b5da20c00ed75d0e6c87d4588acda", "rental_uris": {"android": "https://dc.lft.to/lastmile_qr_scan", "ios": "https://dc.lft.to/lastmile_qr_scan"}, "is_reserved": 0, "type": "electric_scooter", "is_disabled": 0, "fusion_lat": 0.0}, {"name": "0dcd8680b52e6bb51e6b983554d94b7b", "lat": 38.91967433333333, "lon": -77.04852083333333, "fusion_lon": 0.0, "bike_id": "0dcd8680b52e6bb51e6b983554d94b7b", "rental_uris": {"android": "https://dc.lft.to/lastmile_qr_scan", "ios": "https://dc.lft.to/lastmile_qr_scan"}, "is_reserved": 0, "type": "electric_scooter", "is_disabled": 0, "fusion_lat": 0.0}, {"name": "9f0740631d79d9b43fe22ed83d9056f4", "lat": 38.9097065, "lon": -77.04615683333333, "fusion_lon": 0.0, "bike_id": "9f0740631d79d9b43fe22ed83d9056f4", "rental_uris": {"android": "https://dc.lft.to/lastmile_qr_scan", "ios": "https://dc.lft.to/lastmile_qr_scan"}, "is_reserved": 0, "type": "electric_scooter", "is_disabled": 0, "fusion_lat": 0.0}, {"name": "2b22be724ed5852215f31a9328be7e53", "lat": 38.866568666666666, "lon": -76.98884683333333, "fusion_lon": 0.0, "bike_id": "2b22be724ed5852215f31a9328be7e53", "rental_uris": {"android": "https://dc.lft.to/lastmile_qr_scan", "ios": "https://dc.lft.to/lastmile_qr_scan"}, "is_reserved": 0, "type": "electric_scooter", "is_disabled": 0, "fusion_lat": 0.0}, {"name": "21f38db33cce90f4db25dcff00659c0e", "lat": 38.8932825, "lon": -77.05581366666667, "fusion_lon": 0.0, "bike_id": "21f38db33cce90f4db25dcff00659c0e", "rental_uris": {"android": "https://dc.lft.to/lastmile_qr_scan", "ios": "https://dc.lft.to/lastmile_qr_scan"}, "is_reserved": 0, "type": "electric_scooter", "is_disabled": 0, "fusion_lat": 0.0}, {"name": "d9bdabc310d4395d33d2015b1d61a01d", "lat": 38.9169105, "lon": -77.03778216666667, "fusion_lon": 0.0, "bike_id": "d9bdabc310d4395d33d2015b1d61a01d", "rental_uris": {"android": "https://dc.lft.to/lastmile_qr_scan", "ios": "https://dc.lft.to/lastmile_qr_scan"}, "is_reserved": 0, "type": "electric_scooter", "is_disabled": 0, "fusion_lat": 0.0}, {"name": "af49d5ee615ce7185377793e3538337d", "lat": 38.907128, "lon": -77.029825, "fusion_lon": 0.0, "bike_id": "af49d5ee615ce7185377793e3538337d", "rental_uris": {"android": "https://dc.lft.to/lastmile_qr_scan", "ios": "https://dc.lft.to/lastmile_qr_scan"}, "is_reserved": 0, "type": "electric_scooter", "is_disabled": 0, "fusion_lat": 0.0}, {"name": "501156887f424d526e312f9ecc707e77", "lat": 38.92340466666667, "lon": -77.05168916666666, "fusion_lon": 0.0, "bike_id": "501156887f424d526e312f9ecc707e77", "rental_uris": {"android": "https://dc.lft.to/lastmile_qr_scan", "ios": "https://dc.lft.to/lastmile_qr_scan"}, "is_reserved": 0, "type": "electric_scooter", "is_disabled": 0, "fusion_lat": 0.0}, {"name": "972c20b01611e7b8eec4d56939cc92d6", "lat": 38.942598333333336, "lon": -77.0253205, "fusion_lon": 0.0, "bike_id": "972c20b01611e7b8eec4d56939cc92d6", "rental_uris": {"android": "https://dc.lft.to/lastmile_qr_scan", "ios": "https://dc.lft.to/lastmile_qr_scan"}, "is_reserved": 0, "type": "electric_scooter", "is_disabled": 0, "fusion_lat": 0.0}, {"name": "5a7920855168531b15c18230bedf1cd2", "lat": 38.93861116666667, "lon": -77.0248925, "fusion_lon": 0.0, "bike_id": "5a7920855168531b15c18230bedf1cd2", "rental_uris": {"android": "https://dc.lft.to/lastmile_qr_scan", "ios": "https://dc.lft.to/lastmile_qr_scan"}, "is_reserved": 0, "type": "electric_scooter", "is_disabled": 0, "fusion_lat": 0.0}, {"name": "88508f76007c3f08f46bc2b19e6f6d01", "lat": 38.91919716666666, "lon": -77.03357716666666, "fusion_lon": 0.0, "bike_id": "88508f76007c3f08f46bc2b19e6f6d01", "rental_uris": {"android": "https://dc.lft.to/lastmile_qr_scan", "ios": "https://dc.lft.to/lastmile_qr_scan"}, "is_reserved": 0, "type": "electric_scooter", "is_disabled": 0, "fusion_lat": 0.0}, {"name": "db910c49b1212ac6e1710a34d8402173", "lat": 38.878946666666664, "lon": -77.0057495, "fusion_lon": 0.0, "bike_id": "db910c49b1212ac6e1710a34d8402173", "rental_uris": {"android": "https://dc.lft.to/lastmile_qr_scan", "ios": "https://dc.lft.to/lastmile_qr_scan"}, "is_reserved": 0, "type": "electric_scooter", "is_disabled": 0, "fusion_lat": 0.0}, {"name": "7b991c89ea7b8f9dd73fd9a28e113b25", "lat": 38.872352666666664, "lon": -77.0116565, "fusion_lon": 0.0, "bike_id": "7b991c89ea7b8f9dd73fd9a28e113b25", "rental_uris": {"android": "https://dc.lft.to/lastmile_qr_scan", "ios": "https://dc.lft.to/lastmile_qr_scan"}, "is_reserved": 0, "type": "electric_bike", "is_disabled": 0, "fusion_lat": 0.0}, {"name": "e2fb859a2d15af22bb0fcd7d54f159f1", "lat": 38.8849315, "lon": -77.00726966666667, "fusion_lon": 0.0, "bike_id": "e2fb859a2d15af22bb0fcd7d54f159f1", "rental_uris": {"android": "https://dc.lft.to/lastmile_qr_scan", "ios": "https://dc.lft.to/lastmile_qr_scan"}, "is_reserved": 0, "type": "electric_scooter", "is_disabled": 0, "fusion_lat": 0.0}, {"name": "234b05a4f5b90e9616b35ee3746bd624", "lat": 38.902398833333336, "lon": -77.01637566666666, "fusion_lon": 0.0, "bike_id": "234b05a4f5b90e9616b35ee3746bd624", "rental_uris": {"android": "https://dc.lft.to/lastmile_qr_scan", "ios": "https://dc.lft.to/lastmile_qr_scan"}, "is_reserved": 0, "type": "electric_scooter", "is_disabled": 0, "fusion_lat": 0.0}, {"name": "c4739248f03cba299d8914aa15fb23f5", "lat": 38.876608, "lon": -77.00582933333334, "fusion_lon": 0.0, "bike_id": "c4739248f03cba299d8914aa15fb23f5", "rental_uris": {"android": "https://dc.lft.to/lastmile_qr_scan", "ios": "https://dc.lft.to/lastmile_qr_scan"}, "is_reserved": 0, "type": "electric_scooter", "is_disabled": 0, "fusion_lat": 0.0}, {"name": "fb7c55d63aed605e065494f3b63fcc8a", "lat": 38.880430833333335, "lon": -76.98632, "fusion_lon": 0.0, "bike_id": "fb7c55d63aed605e065494f3b63fcc8a", "rental_uris": {"android": "https://dc.lft.to/lastmile_qr_scan", "ios": "https://dc.lft.to/lastmile_qr_scan"}, "is_reserved": 0, "type": "electric_bike", "is_disabled": 0, "fusion_lat": 0.0}, {"name": "8dee73dfee0b0bd2ee4cd454cde3ecd9", "lat": 38.89222516666667, "lon": -77.04652516666667, "fusion_lon": 0.0, "bike_id": "8dee73dfee0b0bd2ee4cd454cde3ecd9", "rental_uris": {"android": "https://dc.lft.to/lastmile_qr_scan", "ios": "https://dc.lft.to/lastmile_qr_scan"}, "is_reserved": 0, "type": "electric_scooter", "is_disabled": 0, "fusion_lat": 0.0}, {"name": "d5056bf971ffb26c4fbb223385393158", "lat": 38.86745633333334, "lon": -77.117081, "fusion_lon": 0.0, "bike_id": "d5056bf971ffb26c4fbb223385393158", "rental_uris": {"android": "https://dc.lft.to/lastmile_qr_scan", "ios": "https://dc.lft.to/lastmile_qr_scan"}, "is_reserved": 0, "type": "electric_bike", "is_disabled": 0, "fusion_lat": 0.0}, {"name": "260f5260bad28b4a176f25f08060f5d2", "lat": 38.897526, "lon": -77.0075285, "fusion_lon": 0.0, "bike_id": "260f5260bad28b4a176f25f08060f5d2", "rental_uris": {"android": "https://dc.lft.to/lastmile_qr_scan", "ios": "https://dc.lft.to/lastmile_qr_scan"}, "is_reserved": 0, "type": "electric_scooter", "is_disabled": 0, "fusion_lat": 0.0}, {"name": "cb520761552dc0ad60c772659943a489", "lat": 38.9442305, "lon": -77.063274, "fusion_lon": 0.0, "bike_id": "cb520761552dc0ad60c772659943a489", "rental_uris": {"android": "https://dc.lft.to/lastmile_qr_scan", "ios": "https://dc.lft.to/lastmile_qr_scan"}, "is_reserved": 0, "type": "electric_scooter", "is_disabled": 0, "fusion_lat": 0.0}, {"name": "73c54869e16f908406b694b3d97f006b", "lat": 38.911095, "lon": -77.04503916666667, "fusion_lon": 0.0, "bike_id": "73c54869e16f908406b694b3d97f006b", "rental_uris": {"android": "https://dc.lft.to/lastmile_qr_scan", "ios": "https://dc.lft.to/lastmile_qr_scan"}, "is_reserved": 0, "type": "electric_scooter", "is_disabled": 0, "fusion_lat": 0.0}, {"name": "53ff278ed77b01904c8a8c3f173e6f5b", "lat": 38.8826295, "lon": -77.003722, "fusion_lon": 0.0, "bike_id": "53ff278ed77b01904c8a8c3f173e6f5b", "rental_uris": {"android": "https://dc.lft.to/lastmile_qr_scan", "ios": "https://dc.lft.to/lastmile_qr_scan"}, "is_reserved": 0, "type": "electric_scooter", "is_disabled": 0, "fusion_lat": 0.0}, {"name": "3b02891d3792790a20c788c81e644d16", "lat": 38.91843983333333, "lon": -77.02293816666666, "fusion_lon": 0.0, "bike_id": "3b02891d3792790a20c788c81e644d16", "rental_uris": {"android": "https://dc.lft.to/lastmile_qr_scan", "ios": "https://dc.lft.to/lastmile_qr_scan"}, "is_reserved": 0, "type": "electric_scooter", "is_disabled": 0, "fusion_lat": 0.0}, {"name": "a9ae6f1e8b7b34c72115f0667ca2c9eb", "lat": 38.9087275, "lon": -77.03465733333333, "fusion_lon": 0.0, "bike_id": "a9ae6f1e8b7b34c72115f0667ca2c9eb", "rental_uris": {"android": "https://dc.lft.to/lastmile_qr_scan", "ios": "https://dc.lft.to/lastmile_qr_scan"}, "is_reserved": 0, "type": "electric_scooter", "is_disabled": 0, "fusion_lat": 0.0}, {"name": "9136729e291b97d65ebca72ca149bb15", "lat": 38.90265316666667, "lon": -77.061621, "fusion_lon": 0.0, "bike_id": "9136729e291b97d65ebca72ca149bb15", "rental_uris": {"android": "https://dc.lft.to/lastmile_qr_scan", "ios": "https://dc.lft.to/lastmile_qr_scan"}, "is_reserved": 0, "type": "electric_scooter", "is_disabled": 0, "fusion_lat": 0.0}, {"name": "29248030270ae6bfa881f610e653b38f", "lat": 38.900243833333334, "lon": -76.98876516666667, "fusion_lon": 0.0, "bike_id": "29248030270ae6bfa881f610e653b38f", "rental_uris": {"android": "https://dc.lft.to/lastmile_qr_scan", "ios": "https://dc.lft.to/lastmile_qr_scan"}, "is_reserved": 0, "type": "electric_scooter", "is_disabled": 0, "fusion_lat": 0.0}, {"name": "b39ca9e9266e04371d85a78f7a175621", "lat": 38.89220733333333, "lon": -77.01955716666667, "fusion_lon": 0.0, "bike_id": "b39ca9e9266e04371d85a78f7a175621", "rental_uris": {"android": "https://dc.lft.to/lastmile_qr_scan", "ios": "https://dc.lft.to/lastmile_qr_scan"}, "is_reserved": 0, "type": "electric_scooter", "is_disabled": 0, "fusion_lat": 0.0}, {"name": "556fc2af16e74910bf6ecdabc5c8077d", "lat": 38.974951, "lon": -77.01689616666667, "fusion_lon": 0.0, "bike_id": "556fc2af16e74910bf6ecdabc5c8077d", "rental_uris": {"android": "https://dc.lft.to/lastmile_qr_scan", "ios": "https://dc.lft.to/lastmile_qr_scan"}, "is_reserved": 0, "type": "electric_scooter", "is_disabled": 0, "fusion_lat": 0.0}, {"name": "b749f1b8b7981615ee437c0679cc3a73", "lat": 38.907103666666664, "lon": -77.04233483333333, "fusion_lon": 0.0, "bike_id": "b749f1b8b7981615ee437c0679cc3a73", "rental_uris": {"android": "https://dc.lft.to/lastmile_qr_scan", "ios": "https://dc.lft.to/lastmile_qr_scan"}, "is_reserved": 0, "type": "electric_scooter", "is_disabled": 0, "fusion_lat": 0.0}, {"name": "33fa0fdc6afd7c3e07fc79e37afe674f", "lat": 38.9076935, "lon": -77.05548816666666, "fusion_lon": 0.0, "bike_id": "33fa0fdc6afd7c3e07fc79e37afe674f", "rental_uris": {"android": "https://dc.lft.to/lastmile_qr_scan", "ios": "https://dc.lft.to/lastmile_qr_scan"}, "is_reserved": 0, "type": "electric_scooter", "is_disabled": 0, "fusion_lat": 0.0}, {"name": "a30d8a89cdd8b934255c4cecaae4b93a", "lat": 38.9156895, "lon": -77.03213466666666, "fusion_lon": 0.0, "bike_id": "a30d8a89cdd8b934255c4cecaae4b93a", "rental_uris": {"android": "https://dc.lft.to/lastmile_qr_scan", "ios": "https://dc.lft.to/lastmile_qr_scan"}, "is_reserved": 0, "type": "electric_scooter", "is_disabled": 0, "fusion_lat": 0.0}, {"name": "09965c5a0f41eba7fbea4d88025da108", "lat": 38.90263866666667, "lon": -77.041194, "fusion_lon": 0.0, "bike_id": "09965c5a0f41eba7fbea4d88025da108", "rental_uris": {"android": "https://dc.lft.to/lastmile_qr_scan", "ios": "https://dc.lft.to/lastmile_qr_scan"}, "is_reserved": 0, "type": "electric_scooter", "is_disabled": 0, "fusion_lat": 0.0}, {"name": "e50ab40e32775089c2650cb265e2bd30", "lat": 38.8922045, "lon": -77.02368983333334, "fusion_lon": 0.0, "bike_id": "e50ab40e32775089c2650cb265e2bd30", "rental_uris": {"android": "https://dc.lft.to/lastmile_qr_scan", "ios": "https://dc.lft.to/lastmile_qr_scan"}, "is_reserved": 0, "type": "electric_scooter", "is_disabled": 0, "fusion_lat": 0.0}, {"name": "746c4bc4a2ae8e4d18c3f151de4f147a", "lat": 38.89875416666667, "lon": -76.931812, "fusion_lon": 0.0, "bike_id": "746c4bc4a2ae8e4d18c3f151de4f147a", "rental_uris": {"android": "https://dc.lft.to/lastmile_qr_scan", "ios": "https://dc.lft.to/lastmile_qr_scan"}, "is_reserved": 0, "type": "electric_scooter", "is_disabled": 0, "fusion_lat": 0.0}, {"name": "995b3fa06395fdc422adc5533e61d019", "lat": 38.92364283333333, "lon": -77.00384066666666, "fusion_lon": 0.0, "bike_id": "995b3fa06395fdc422adc5533e61d019", "rental_uris": {"android": "https://dc.lft.to/lastmile_qr_scan", "ios": "https://dc.lft.to/lastmile_qr_scan"}, "is_reserved": 0, "type": "electric_scooter", "is_disabled": 0, "fusion_lat": 0.0}, {"name": "a0ae9280aba88312d5b1ee13d030a03e", "lat": 38.899753833333335, "lon": -77.05583766666666, "fusion_lon": 0.0, "bike_id": "a0ae9280aba88312d5b1ee13d030a03e", "rental_uris": {"android": "https://dc.lft.to/lastmile_qr_scan", "ios": "https://dc.lft.to/lastmile_qr_scan"}, "is_reserved": 0, "type": "electric_scooter", "is_disabled": 0, "fusion_lat": 0.0}, {"name": "b49ef02b29bea250a12e6dd4a9450b76", "lat": 38.936772, "lon": -77.03260283333333, "fusion_lon": 0.0, "bike_id": "b49ef02b29bea250a12e6dd4a9450b76", "rental_uris": {"android": "https://dc.lft.to/lastmile_qr_scan", "ios": "https://dc.lft.to/lastmile_qr_scan"}, "is_reserved": 0, "type": "electric_scooter", "is_disabled": 0, "fusion_lat": 0.0}, {"name": "e2898b636839d00944f8a70c8e50953b", "lat": 38.852066, "lon": -77.1012835, "fusion_lon": 0.0, "bike_id": "e2898b636839d00944f8a70c8e50953b", "rental_uris": {"android": "https://dc.lft.to/lastmile_qr_scan", "ios": "https://dc.lft.to/lastmile_qr_scan"}, "is_reserved": 0, "type": "electric_bike", "is_disabled": 0, "fusion_lat": 0.0}, {"name": "93d4d2d53e61c8d6d1612cdd2751db09", "lat": 38.915477833333334, "lon": -77.0434775, "fusion_lon": 0.0, "bike_id": "93d4d2d53e61c8d6d1612cdd2751db09", "rental_uris": {"android": "https://dc.lft.to/lastmile_qr_scan", "ios": "https://dc.lft.to/lastmile_qr_scan"}, "is_reserved": 0, "type": "electric_scooter", "is_disabled": 0, "fusion_lat": 0.0}, {"name": "7cda9a0a94bf2be1982550402d6f89e7", "lat": 38.87730166666667, "lon": -77.11851083333333, "fusion_lon": 0.0, "bike_id": "7cda9a0a94bf2be1982550402d6f89e7", "rental_uris": {"android": "https://dc.lft.to/lastmile_qr_scan", "ios": "https://dc.lft.to/lastmile_qr_scan"}, "is_reserved": 0, "type": "electric_bike", "is_disabled": 0, "fusion_lat": 0.0}, {"name": "db9634347faa5ba2de36a51dc35f4fbb", "lat": 38.92473716666667, "lon": -77.021183, "fusion_lon": 0.0, "bike_id": "db9634347faa5ba2de36a51dc35f4fbb", "rental_uris": {"android": "https://dc.lft.to/lastmile_qr_scan", "ios": "https://dc.lft.to/lastmile_qr_scan"}, "is_reserved": 0, "type": "electric_scooter", "is_disabled": 0, "fusion_lat": 0.0}, {"name": "f8bbcdffe9c6fdc6800901a0495b8ef2", "lat": 38.926786666666665, "lon": -77.00756666666666, "fusion_lon": 0.0, "bike_id": "f8bbcdffe9c6fdc6800901a0495b8ef2", "rental_uris": {"android": "https://dc.lft.to/lastmile_qr_scan", "ios": "https://dc.lft.to/lastmile_qr_scan"}, "is_reserved": 0, "type": "electric_scooter", "is_disabled": 0, "fusion_lat": 0.0}, {"name": "fa4b29f07babae61d7b9c071ebc1af05", "lat": 38.9205875, "lon": -77.02511133333333, "fusion_lon": 0.0, "bike_id": "fa4b29f07babae61d7b9c071ebc1af05", "rental_uris": {"android": "https://dc.lft.to/lastmile_qr_scan", "ios": "https://dc.lft.to/lastmile_qr_scan"}, "is_reserved": 0, "type": "electric_scooter", "is_disabled": 0, "fusion_lat": 0.0}, {"name": "56a8c00f7db230f4c63e41931ec77aab", "lat": 38.892422, "lon": -77.03348533333333, "fusion_lon": 0.0, "bike_id": "56a8c00f7db230f4c63e41931ec77aab", "rental_uris": {"android": "https://dc.lft.to/lastmile_qr_scan", "ios": "https://dc.lft.to/lastmile_qr_scan"}, "is_reserved": 0, "type": "electric_scooter", "is_disabled": 0, "fusion_lat": 0.0}, {"name": "845937a0064843a9aa76cc4835c2973a", "lat": 38.86970133333333, "lon": -77.0135065, "fusion_lon": 0.0, "bike_id": "845937a0064843a9aa76cc4835c2973a", "rental_uris": {"android": "https://dc.lft.to/lastmile_qr_scan", "ios": "https://dc.lft.to/lastmile_qr_scan"}, "is_reserved": 0, "type": "electric_scooter", "is_disabled": 0, "fusion_lat": 0.0}, {"name": "67b1bee03a6a66efa6ec7122b898f9f3", "lat": 38.90825733333333, "lon": -76.99208766666666, "fusion_lon": 0.0, "bike_id": "67b1bee03a6a66efa6ec7122b898f9f3", "rental_uris": {"android": "https://dc.lft.to/lastmile_qr_scan", "ios": "https://dc.lft.to/lastmile_qr_scan"}, "is_reserved": 0, "type": "electric_scooter", "is_disabled": 0, "fusion_lat": 0.0}, {"name": "0f7c749ba0454d3d651b1ca5013efafd", "lat": 38.91149083333333, "lon": -77.01164266666666, "fusion_lon": 0.0, "bike_id": "0f7c749ba0454d3d651b1ca5013efafd", "rental_uris": {"android": "https://dc.lft.to/lastmile_qr_scan", "ios": "https://dc.lft.to/lastmile_qr_scan"}, "is_reserved": 0, "type": "electric_bike", "is_disabled": 0, "fusion_lat": 0.0}, {"name": "f0afefc425574a37fa302c71b4c52809", "lat": 38.907472166666665, "lon": -77.07164, "fusion_lon": 0.0, "bike_id": "f0afefc425574a37fa302c71b4c52809", "rental_uris": {"android": "https://dc.lft.to/lastmile_qr_scan", "ios": "https://dc.lft.to/lastmile_qr_scan"}, "is_reserved": 0, "type": "electric_bike", "is_disabled": 0, "fusion_lat": 0.0}, {"name": "f50ea71947475c8c19e9a50bbe53372f", "lat": 38.966383666666665, "lon": -77.01994216666667, "fusion_lon": 0.0, "bike_id": "f50ea71947475c8c19e9a50bbe53372f", "rental_uris": {"android": "https://dc.lft.to/lastmile_qr_scan", "ios": "https://dc.lft.to/lastmile_qr_scan"}, "is_reserved": 0, "type": "electric_scooter", "is_disabled": 0, "fusion_lat": 0.0}, {"name": "9e39a4d270d674b3cb0741f5a4e7a55e", "lat": 38.89972266666667, "lon": -77.02898433333333, "fusion_lon": 0.0, "bike_id": "9e39a4d270d674b3cb0741f5a4e7a55e", "rental_uris": {"android": "https://dc.lft.to/lastmile_qr_scan", "ios": "https://dc.lft.to/lastmile_qr_scan"}, "is_reserved": 0, "type": "electric_scooter", "is_disabled": 0, "fusion_lat": 0.0}, {"name": "8de11ee377040392e2e5f14aeed42d56", "lat": 38.939611166666666, "lon": -77.36091083333334, "fusion_lon": 0.0, "bike_id": "8de11ee377040392e2e5f14aeed42d56", "rental_uris": {"android": "https://dc.lft.to/lastmile_qr_scan", "ios": "https://dc.lft.to/lastmile_qr_scan"}, "is_reserved": 0, "type": "electric_bike", "is_disabled": 0, "fusion_lat": 0.0}, {"name": "4ed17d87e7e54ff11bc7d1bb8443bc39", "lat": 38.96217383333333, "lon": -77.02624183333333, "fusion_lon": 0.0, "bike_id": "4ed17d87e7e54ff11bc7d1bb8443bc39", "rental_uris": {"android": "https://dc.lft.to/lastmile_qr_scan", "ios": "https://dc.lft.to/lastmile_qr_scan"}, "is_reserved": 0, "type": "electric_bike", "is_disabled": 0, "fusion_lat": 0.0}, {"name": "96f2f31a2e452c7787e5378c4c07e3aa", "lat": 38.883214, "lon": -77.017642, "fusion_lon": 0.0, "bike_id": "96f2f31a2e452c7787e5378c4c07e3aa", "rental_uris": {"android": "https://dc.lft.to/lastmile_qr_scan", "ios": "https://dc.lft.to/lastmile_qr_scan"}, "is_reserved": 0, "type": "electric_scooter", "is_disabled": 0, "fusion_lat": 0.0}, {"name": "8893f52a9896088ab75b024567a97473", "lat": 38.92022433333333, "lon": -77.03181366666666, "fusion_lon": 0.0, "bike_id": "8893f52a9896088ab75b024567a97473", "rental_uris": {"android": "https://dc.lft.to/lastmile_qr_scan", "ios": "https://dc.lft.to/lastmile_qr_scan"}, "is_reserved": 0, "type": "electric_scooter", "is_disabled": 0, "fusion_lat": 0.0}, {"name": "aa7e7ef1258c7b31453516764670f2d6", "lat": 38.92251916666667, "lon": -77.03640416666667, "fusion_lon": 0.0, "bike_id": "aa7e7ef1258c7b31453516764670f2d6", "rental_uris": {"android": "https://dc.lft.to/lastmile_qr_scan", "ios": "https://dc.lft.to/lastmile_qr_scan"}, "is_reserved": 0, "type": "electric_scooter", "is_disabled": 0, "fusion_lat": 0.0}, {"name": "167866ceba9cfc4b641c1db951882a29", "lat": 38.92678683333333, "lon": -77.00745016666667, "fusion_lon": 0.0, "bike_id": "167866ceba9cfc4b641c1db951882a29", "rental_uris": {"android": "https://dc.lft.to/lastmile_qr_scan", "ios": "https://dc.lft.to/lastmile_qr_scan"}, "is_reserved": 0, "type": "electric_scooter", "is_disabled": 0, "fusion_lat": 0.0},