{"data": {"bikes": [{"rental_uris": {"android": "https://dc.lft.to/lastmile_qr_scan", "ios": "https://dc.lft.to/lastmile_qr_scan"}, "type": "electric_scooter", "lon": -77.0061295, "name": "ed8038857e551d65fa1708842d17f345", "bike_id": "ed8038857e551d65fa1708842d17f345", "fusion_lat": 0.0, "is_reserved": 0, "lat": 38.885046, "fusion_lon": 0.0, "is_disabled": 0}, {"rental_uris": {"android": "https://dc.lft.to/lastmile_qr_scan", "ios": "https://dc.lft.to/lastmile_qr_scan"}, "type": "electric_bike", "lon": -76.98125316666666, "name": "c125cc981a728163b5e339663b64c31f", "bike_id": "c125cc981a728163b5e339663b64c31f", "fusion_lat": 0.0, "is_reserved": 0, "lat": 38.896688, "fusion_lon": 0.0, "is_disabled": 0}, {"rental_uris": {"android": "https://dc.lft.to/lastmile_qr_scan", "ios": "https://dc.lft.to/lastmile_qr_scan"}, "type": "electric_scooter", "lon": -77.02157316666667, "name": "8e9d4024a832a235f35a4000361db39a", "bike_id": "8e9d4024a832a235f35a4000361db39a", "fusion_lat": 0.0, "is_reserved": 0, "lat": 38.92609516666667, "fusion_lon": 0.0, "is_disabled": 0}, {"rental_uris": {"android": "https://dc.lft.to/lastmile_qr_scan", "ios": "https://dc.lft.to/lastmile_qr_scan"}, "type": "electric_scooter", "lon": -77.0323645, "name": "78a13d272ee8171f9a40bce202a6b85c", "bike_id": "78a13d272ee8171f9a40bce202a6b85c", "fusion_lat": 0.0, "is_reserved": 0, "lat": 38.905548, "fusion_lon": 0.0, "is_disabled": 0}, {"rental_uris": {"android": "https://dc.lft.to/lastmile_qr_scan", "ios": "https://dc.lft.to/lastmile_qr_scan"}, "type": "electric_scooter", "lon": -77.0327745, "name": "5cdc211b1db55a45b38dc6b7fb93d7d1", "bike_id": "5cdc211b1db55a45b38dc6b7fb93d7d1", "fusion_lat": 0.0, "is_reserved": 0, "lat": 38.936867, "fusion_lon": 0.0, "is_disabled": 0}, {"rental_uris": {"android": "https://dc.lft.to/lastmile_qr_scan", "ios": "https://dc.lft.to/lastmile_qr_scan"}, "type": "electric_bike", "lon": -77.112182, "name": "535c4df16480cb08af87cea3c4da2046", "bike_id": "535c4df16480cb08af87cea3c4da2046", "fusion_lat": 0.0, "is_reserved": 0, "lat": 38.812260333333334, "fusion_lon": 0.0, "is_disabled": 0}, {"rental_uris": {"android": "https://dc.lft.to/lastmile_qr_scan", "ios": "https://dc.lft.to/lastmile_qr_scan"}, "type": "electric_scooter", "lon": -77.03756366666667, "name": "d40088ca8f3bbb0bf5eb539d9199f0e1", "bike_id": "d40088ca8f3bbb0bf5eb539d9199f0e1", "fusion_lat": 0.0, "is_reserved": 0, "lat": 38.92921916666667, "fusion_lon": 0.0, "is_disabled": 0}, {"rental_uris": {"android": "https://dc.lft.to/lastmile_qr_scan", "ios": "https://dc.lft.to/lastmile_qr_scan"}, "type": "electric_scooter", "lon": -77.03078783333333, "name": "e5abb6b3af9abc46838467fcdad8d8a9", "bike_id": "e5abb6b3af9abc46838467fcdad8d8a9", "fusion_lat": 0.0, "is_reserved": 0, "lat": 38.9238475, "fusion_lon": 0.0, "is_disabled": 0}, {"rental_uris": {"android": "https://dc.lft.to/lastmile_qr_scan", "ios": "https://dc.lft.to/lastmile_qr_scan"}, "type": "electric_bike", "lon": -77.1018135, "name": "3f0eb14f0189a6eae6c9d2cb537b278e", "bike_id": "3f0eb14f0189a6eae6c9d2cb537b278e", "fusion_lat": 0.0, "is_reserved": 0, "lat": 38.91813783333333, "fusion_lon": 0.0, "is_disabled": 0}, {"rental_uris": {"android": "https://dc.lft.to/lastmile_qr_scan", "ios": "https://dc.lft.to/lastmile_qr_scan"}, "type": "electric_scooter", "lon": -77.02791583333334, "name": "f3f966917baa4285e057b11db9743541", "bike_id": "f3f966917baa4285e057b11db9743541", "fusion_lat": 0.0, "is_reserved": 0, "lat": 38.930829833333334, "fusion_lon": 0.0, "is_disabled": 0}, {"rental_uris": {"android": "https://dc.lft.to/lastmile_qr_scan", "ios": "https://dc.lft.to/lastmile_qr_scan"}, "type": "electric_scooter", "lon": -77.02202066666666, "name": "d73131de995098c051bbe76f2457e4e5", "bike_id": "d73131de995098c051bbe76f2457e4e5", "fusion_lat": 0.0, "is_reserved": 0, "lat": 38.8871695, "fusion_lon": 0.0, "is_disabled": 0}, {"rental_uris": {"android": "https://dc.lft.to/lastmile_qr_scan", "ios": "https://dc.lft.to/lastmile_qr_scan"}, "type": "electric_bike", "lon": -76.98328583333333, "name": "cad4b0c6423aa3a071d33cfd6955b377", "bike_id": "cad4b0c6423aa3a071d33cfd6955b377", "fusion_lat": 0.0, "is_reserved": 0, "lat": 38.96607133333333, "fusion_lon": 0.0, "is_disabled": 0}, {"rental_uris": {"android": "https://dc.lft.to/lastmile_qr_scan", "ios": "https://dc.lft.to/lastmile_qr_scan"}, "type": "electric_scooter", "lon": -77.0415605, "name": "c714b7d4d43fbd3ac588cc7ca271cc46", "bike_id": "c714b7d4d43fbd3ac588cc7ca271cc46", "fusion_lat": 0.0, "is_reserved": 0, "lat": 38.910843166666666, "fusion_lon": 0.0, "is_disabled": 0}, {"rental_uris": {"android": "https://dc.lft.to/lastmile_qr_scan", "ios": "https://dc.lft.to/lastmile_qr_scan"}, "type": "electric_scooter", "lon": -77.03946433333333, "name": "df5b5c45c0a960eb57c6fcbf158acedb", "bike_id": "df5b5c45c0a960eb57c6fcbf158acedb", "fusion_lat": 0.0, "is_reserved": 0, "lat": 38.90300233333333, "fusion_lon": 0.0, "is_disabled": 0}, {"rental_uris": {"android": "https://dc.lft.to/lastmile_qr_scan", "ios": "https://dc.lft.to/lastmile_qr_scan"}, "type": "electric_scooter", "lon": -77.04121683333334, "name": "ed66874224a60dc1567e6ed84634e743", "bike_id": "ed66874224a60dc1567e6ed84634e743", "fusion_lat": 0.0, "is_reserved": 0, "lat": 38.92134216666667, "fusion_lon": 0.0, "is_disabled": 0}, {"rental_uris": {"android": "https://dc.lft.to/lastmile_qr_scan", "ios": "https://dc.lft.to/lastmile_qr_scan"}, "type": "electric_scooter", "lon": -77.03713416666666, "name": "4c4f4a33d7b1225ad9c5f7bffaf67561", "bike_id": "4c4f4a33d7b1225ad9c5f7bffaf67561", "fusion_lat": 0.0, "is_reserved": 0, "lat": 38.9180925, "fusion_lon": 0.0, "is_disabled": 0}, {"rental_uris": {"android": "https://dc.lft.to/lastmile_qr_scan", "ios": "https://dc.lft.to/lastmile_qr_scan"}, "type": "electric_scooter", "lon": -77.021186, "name": "f2fbf359d36d66e70280402b79151f21", "bike_id": "f2fbf359d36d66e70280402b79151f21", "fusion_lat": 0.0, "is_reserved": 0, "lat": 38.8851065, "fusion_lon": 0.0, "is_disabled": 0}, {"rental_uris": {"android": "https://dc.lft.to/lastmile_qr_scan", "ios": "https://dc.lft.to/lastmile_qr_scan"}, "type": "electric_scooter", "lon": -77.03182716666667, "name": "0ef9ec88f1b51030230994341a3fa39b", "bike_id": "0ef9ec88f1b51030230994341a3fa39b", "fusion_lat": 0.0, "is_reserved": 0, "lat": 38.907557, "fusion_lon": 0.0, "is_disabled": 0}, {"rental_uris": {"android": "https://dc.lft.to/lastmile_qr_scan", "ios": "https://dc.lft.to/lastmile_qr_scan"}, "type": "electric_bike", "lon": -76.99032733333334, "name": "977e48516537bae0e61576e0a6b64d32", "bike_id": "977e48516537bae0e61576e0a6b64d32", "fusion_lat": 0.0, "is_reserved": 0, "lat": 38.898093333333335, "fusion_lon": 0.0, "is_disabled": 0}, {"rental_uris": {"android": "https://dc.lft.to/lastmile_qr_scan", "ios": "https://dc.lft.to/lastmile_qr_scan"}, "type": "electric_scooter", "lon": -76.9957945, "name": "964c3746be60a5c08bd082d6caf8068a", "bike_id": "964c3746be60a5c08bd082d6caf8068a", "fusion_lat": 0.0, "is_reserved": 0, "lat": 38.94948933333333, "fusion_lon": 0.0, "is_disabled": 0}, {"rental_uris": {"android": "https://dc.lft.to/lastmile_qr_scan", "ios": "https://dc.lft.to/lastmile_qr_scan"}, "type": "electric_scooter", "lon": -76.98757633333334, "name": "b5d9adbab0355c06a99731cecca033b2", "bike_id": "b5d9adbab0355c06a99731cecca033b2", "fusion_lat": 0.0, "is_reserved": 0, "lat": 38.900218, "fusion_lon": 0.0, "is_disabled": 0}, {"rental_uris": {"android": "https://dc.lft.to/lastmile_qr_scan", "ios": "https://dc.lft.to/lastmile_qr_scan"}, "type": "electric_scooter", "lon": -77.086134, "name": "b011ea749b1d390b1fed7f5bc50c398f", "bike_id": "b011ea749b1d390b1fed7f5bc50c398f", "fusion_lat": 0.0, "is_reserved": 0, "lat": 38.9587425, "fusion_lon": 0.0, "is_disabled": 0}, {"rental_uris": {"android": "https://dc.lft.to/lastmile_qr_scan", "ios": "https://dc.lft.to/lastmile_qr_scan"}, "type": "electric_bike", "lon": -76.95207016666667, "name": "a6e71c1b1ba22d70524c859a868b1160", "bike_id": "a6e71c1b1ba22d70524c859a868b1160", "fusion_lat": 0.0, "is_reserved": 0, "lat": 38.936706, "fusion_lon": 0.0, "is_disabled": 0}, {"rental_uris": {"android": "https://dc.lft.to/lastmile_qr_scan", "ios": "https://dc.lft.to/lastmile_qr_scan"}, "type": "electric_scooter", "lon": -77.01869283333333, "name": "9d266cecb9ff1930939bdfebaddc8b4e", "bike_id": "9d266cecb9ff1930939bdfebaddc8b4e", "fusion_lat": 0.0, "is_reserved": 0, "lat": 38.900199666666666, "fusion_lon": 0.0, "is_disabled": 0}, {"rental_uris": {"android": "https://dc.lft.to/lastmile_qr_scan", "ios": "https://dc.lft.to/lastmile_qr_scan"}, "type": "electric_scooter", "lon": -77.04692033333333, "name": "d4686b19bd40dcdc5e469d92d030fa6a", "bike_id": "d4686b19bd40dcdc5e469d92d030fa6a", "fusion_lat": 0.0, "is_reserved": 0, "lat": 38.90380483333333, "fusion_lon": 0.0, "is_disabled": 0}, {"rental_uris": {"android": "https://dc.lft.to/lastmile_qr_scan", "ios": "https://dc.lft.to/lastmile_qr_scan"}, "type": "electric_scooter", "lon": -77.02864866666667, "name": "cae442e4b205a72f2803062c536c3f1c", "bike_id": "cae442e4b205a72f2803062c536c3f1c", "fusion_lat": 0.0, "is_reserved": 0, "lat": 38.9041995, "fusion_lon": 0.0, "is_disabled": 0}, {"rental_uris": {"android": "https://dc.lft.to/lastmile_qr_scan", "ios": "https://dc.lft.to/lastmile_qr_scan"}, "type": "electric_bike", "lon": -76.96489583333333, "name": "2f9d2aec3e38fa6ca95f14754b1bc257", "bike_id": "2f9d2aec3e38fa6ca95f14754b1bc257", "fusion_lat": 0.0, "is_reserved": 0, "lat": 38.875488, "fusion_lon": 0.0, "is_disabled": 0}, {"rental_uris": {"android": "https://dc.lft.to/lastmile_qr_scan", "ios": "https://dc.lft.to/lastmile_qr_scan"}, "type": "electric_scooter", "lon": -77.02350966666667, "name": "15c11c492a22816882d9c6c1073b1e3e", "bike_id": "15c11c492a22816882d9c6c1073b1e3e", "fusion_lat": 0.0, "is_reserved": 0, "lat": 38.929829166666664, "fusion_lon": 0.0, "is_disabled": 0}, {"rental_uris": {"android": "https://dc.lft.to/lastmile_qr_scan", "ios": "https://dc.lft.to/lastmile_qr_scan"}, "type": "electric_scooter", "lon": -77.01612466666667, "name": "65f75633ee2b18419cbae67558e4194c", "bike_id": "65f75633ee2b18419cbae67558e4194c", "fusion_lat": 0.0, "is_reserved": 0, "lat": 38.899793333333335, "fusion_lon": 0.0, "is_disabled": 0}, {"rental_uris": {"android": "https://dc.lft.to/lastmile_qr_scan", "ios": "https://dc.lft.to/lastmile_qr_scan"}, "type": "electric_scooter", "lon": -77.069718, "name": "81d13aff820fd019a37e4f656263b3fb", "bike_id": "81d13aff820fd019a37e4f656263b3fb", "fusion_lat": 0.0, "is_reserved": 0, "lat": 38.952934166666665, "fusion_lon": 0.0, "is_disabled": 0}, {"rental_uris": {"android": "https://dc.lft.to/lastmile_qr_scan", "ios": "https://dc.lft.to/lastmile_qr_scan"}, "type": "electric_scooter", "lon": -77.03866216666667, "name": "8e690e7bfbd5f0a580f4267183c8efb1", "bike_id": "8e690e7bfbd5f0a580f4267183c8efb1", "fusion_lat": 0.0, "is_reserved": 0, "lat": 38.90294166666666, "fusion_lon": 0.0, "is_disabled": 0}, {"rental_uris": {"android": "https://dc.lft.to/lastmile_qr_scan", "ios": "https://dc.lft.to/lastmile_qr_scan"}, "type": "electric_scooter", "lon": -77.01971983333334, "name": "31f58a061da2dcdcf00179f783e7093d", "bike_id": "31f58a061da2dcdcf00179f783e7093d", "fusion_lat": 0.0, "is_reserved": 0, "lat": 38.8838, "fusion_lon": 0.0, "is_disabled": 0}, {"rental_uris": {"android": "https://dc.lft.to/lastmile_qr_scan", "ios": "https://dc.lft.to/lastmile_qr_scan"}, "type": "electric_scooter", "lon": -76.9811375, "name": "00224771f0a162156508304fba2ff4d8", "bike_id": "00224771f0a162156508304fba2ff4d8", "fusion_lat": 0.0, "is_reserved": 0, "lat": 38.91470483333333, "fusion_lon": 0.0, "is_disabled": 0}, {"rental_uris": {"android": "https://dc.lft.to/lastmile_qr_scan", "ios": "https://dc.lft.to/lastmile_qr_scan"}, "type": "electric_scooter", "lon": -76.99628333333334, "name": "d976f2cd24368b512d5bc9792a47d80d", "bike_id": "d976f2cd24368b512d5bc9792a47d80d", "fusion_lat": 0.0, "is_reserved": 0, "lat": 38.846181333333334, "fusion_lon": 0.0, "is_disabled": 0}, {"rental_uris": {"android": "https://dc.lft.to/lastmile_qr_scan", "ios": "https://dc.lft.to/lastmile_qr_scan"}, "type": "electric_bike", "lon": -76.98745616666666, "name": "4330ed62dbaee16f8b78cb6dfdccd436", "bike_id": "4330ed62dbaee16f8b78cb6dfdccd436", "fusion_lat": 0.0, "is_reserved": 0, "lat": 38.9882315, "fusion_lon": 0.0, "is_disabled": 0}, {"rental_uris": {"android": "https://dc.lft.to/lastmile_qr_scan", "ios": "https://dc.lft.to/lastmile_qr_scan"}, "type": "electric_scooter", "lon": -77.02294216666667, "name": "1290736c1604a4ab460beb20af542bb8", "bike_id": "1290736c1604a4ab460beb20af542bb8", "fusion_lat": 0.0, "is_reserved": 0, "lat": 38.91770266666666, "fusion_lon": 0.0, "is_disabled": 0}, {"rental_uris": {"android": "https://dc.lft.to/lastmile_qr_scan", "ios": "https://dc.lft.to/lastmile_qr_scan"}, "type": "electric_scooter", "lon": -77.01134016666667, "name": "01a08990501017b1cf809a47a097c590", "bike_id": "01a08990501017b1cf809a47a097c590", "fusion_lat": 0.0, "is_reserved": 0, "lat": 38.90647333333333, "fusion_lon": 0.0, "is_disabled": 0}, {"rental_uris": {"android": "https://dc.lft.to/lastmile_qr_scan", "ios": "https://dc.lft.to/lastmile_qr_scan"}, "type": "electric_scooter", "lon": -77.019457, "name": "553c849191ac81567bbb9b1e0c127e56", "bike_id": "553c849191ac81567bbb9b1e0c127e56", "fusion_lat": 0.0, "is_reserved": 0, "lat": 38.924209, "fusion_lon": 0.0, "is_disabled": 0}, {"rental_uris": {"android": "https://dc.lft.to/lastmile_qr_scan", "ios": "https://dc.lft.to/lastmile_qr_scan"}, "type": "electric_scooter", "lon": -77.0465795, "name": "acc13de9905b44a96b371b3fbded92e4", "bike_id": "acc13de9905b44a96b371b3fbded92e4", "fusion_lat": 0.0, "is_reserved": 0, "lat": 38.89220383333333, "fusion_lon": 0.0, "is_disabled": 0}, {"rental_uris": {"android": "https://dc.lft.to/lastmile_qr_scan", "ios": "https://dc.lft.to/lastmile_qr_scan"}, "type": "electric_scooter", "lon": -76.99774366666666, "name": "965fc2d719869e60265430f46a45508e", "bike_id": "965fc2d719869e60265430f46a45508e", "fusion_lat": 0.0, "is_reserved": 0, "lat": 38.844256333333334, "fusion_lon": 0.0, "is_disabled": 0}, {"rental_uris": {"android": "https://dc.lft.to/lastmile_qr_scan", "ios": "https://dc.lft.to/lastmile_qr_scan"}, "type": "electric_scooter", "lon": -76.9346625, "name": "077416b5a3b89f0156d4ba5207855882", "bike_id": "077416b5a3b89f0156d4ba5207855882", "fusion_lat": 0.0, "is_reserved": 0, "lat": 38.901874, "fusion_lon": 0.0, "is_disabled": 0}, {"rental_uris": {"android": "https://dc.lft.to/lastmile_qr_scan", "ios": "https://dc.lft.to/lastmile_qr_scan"}, "type": "electric_bike", "lon": -76.93453516666666, "name": "9ed513d386150eb6a9b7a3c4e9cda26d", "bike_id": "9ed513d386150eb6a9b7a3c4e9cda26d", "fusion_lat": 0.0, "is_reserved": 0, "lat": 38.969564, "fusion_lon": 0.0, "is_disabled": 0}, {"rental_uris": {"android": "https://dc.lft.to/lastmile_qr_scan", "ios": "https://dc.lft.to/lastmile_qr_scan"}, "type": "electric_scooter", "lon": -77.02768333333333, "name": "ce2f8489e24488f4092fdc677703cf41", "bike_id": "ce2f8489e24488f4092fdc677703cf41", "fusion_lat": 0.0, "is_reserved": 0, "lat": 38.92676983333333, "fusion_lon": 0.0, "is_disabled": 0}, {"rental_uris": {"android": "https://dc.lft.to/lastmile_qr_scan", "ios": "https://dc.lft.to/lastmile_qr_scan"}, "type": "electric_bike", "lon": -77.078911, "name": "ca8999b5cdd7e994751c483f52033759", "bike_id": "ca8999b5cdd7e994751c483f52033759", "fusion_lat": 0.0, "is_reserved": 0, "lat": 38.83939683333333, "fusion_lon": 0.0, "is_disabled": 0}, {"rental_uris": {"android": "https://dc.lft.to/lastmile_qr_scan", "ios": "https://dc.lft.to/lastmile_qr_scan"}, "type": "electric_bike", "lon": -76.9447195, "name": "c6384d19d1146ab6f260448306f724ed", "bike_id": "c6384d19d1146ab6f260448306f724ed", "fusion_lat": 0.0, "is_reserved": 0, "lat": 38.9455705, "fusion_lon": 0.0, "is_disabled": 0}, {"rental_uris": {"android": "https://dc.lft.to/lastmile_qr_scan", "ios": "https://dc.lft.to/lastmile_qr_scan"}, "type": "electric_scooter", "lon": -77.02824316666667, "name": "779df0bfea169adbf293174d5a710788", "bike_id": "779df0bfea169adbf293174d5a710788", "fusion_lat": 0.0, "is_reserved": 0, "lat": 38.91553283333333, "fusion_lon": 0.0, "is_disabled": 0}, {"rental_uris": {"android": "https://dc.lft.to/lastmile_qr_scan", "ios": "https://dc.lft.to/lastmile_qr_scan"}, "type": "electric_scooter", "lon": -76.98361966666667, "name": "3df9a09b1725dbdff0521b171ada7f7b", "bike_id": "3df9a09b1725dbdff0521b171ada7f7b", "fusion_lat": 0.0, "is_reserved": 0, "lat": 38.861044166666666, "fusion_lon": 0.0, "is_disabled": 0}, {"rental_uris": {"android": "https://dc.lft.to/lastmile_qr_scan", "ios": "https://dc.lft.to/lastmile_qr_scan"}, "type": "electric_bike", "lon": -77.05090133333333, "name": "76888b510993ecbc8eca84138189b01a", "bike_id": "76888b510993ecbc8eca84138189b01a", "fusion_lat": 0.0, "is_reserved": 0, "lat": 38.8133065, "fusion_lon": 0.0, "is_disabled": 0}, {"rental_uris": {"android": "https://dc.lft.to/lastmile_qr_scan", "ios": "https://dc.lft.to/lastmile_qr_scan"}, "type": "electric_scooter", "lon": -77.0235425, "name": "cf9cccc3c74af2a5a5d678c9fd1aad6c", "bike_id": "cf9cccc3c74af2a5a5d678c9fd1aad6c", "fusion_lat": 0.0, "is_reserved": 0, "lat": 38.892212666666666, "fusion_lon": 0.0, "is_disabled": 0}, {"rental_uris": {"android": "https://dc.lft.to/lastmile_qr_scan", "ios": "https://dc.lft.to/lastmile_qr_scan"}, "type": "electric_scooter", "lon": -77.036529, "name": "d26b520dec0804377ed18be9e460cfcf", "bike_id": "d26b520dec0804377ed18be9e460cfcf", "fusion_lat": 0.0, "is_reserved": 0, "lat": 38.92123133333333, "fusion_lon": 0.0, "is_disabled": 0}, {"rental_uris": {"android": "https://dc.lft.to/lastmile_qr_scan", "ios": "https://dc.lft.to/lastmile_qr_scan"}, "type": "electric_scooter", "lon": -77.0129955, "name": "5d5bf8dc2db4d33326de67c7f3469f39", "bike_id": "5d5bf8dc2db4d33326de67c7f3469f39", "fusion_lat": 0.0, "is_reserved": 0, "lat": 38.930265, "fusion_lon": 0.0, "is_disabled": 0}, {"rental_uris": {"android": "https://dc.lft.to/lastmile_qr_scan", "ios": "https://dc.lft.to/lastmile_qr_scan"}, "type": "electric_scooter", "lon": -77.04170966666666, "name": "2ce06db3b156bc20046393cea5ed1be7", "bike_id": "2ce06db3b156bc20046393cea5ed1be7", "fusion_lat": 0.0, "is_reserved": 0, "lat": 38.91941333333333, "fusion_lon": 0.0, "is_disabled": 0}, {"rental_uris": {"android": "https://dc.lft.to/lastmile_qr_scan", "ios": "https://dc.lft.to/lastmile_qr_scan"}, "type": "electric_scooter", "lon": -77.0113555, "name": "583252255b380ea95cb97ba7c1315246", "bike_id": "583252255b380ea95cb97ba7c1315246", "fusion_lat": 0.0, "is_reserved": 0, "lat": 38.9096385, "fusion_lon": 0.0, "is_disabled": 0}, {"rental_uris": {"android": "https://dc.lft.to/lastmile_qr_scan", "ios": "https://dc.lft.to/lastmile_qr_scan"}, "type": "electric_scooter", "lon": -76.99665866666666, "name": "13735a8978237a86675a8e1b0543de68", "bike_id": "13735a8978237a86675a8e1b0543de68", "fusion_lat": 0.0, "is_reserved": 0, "lat": 38.8588145, "fusion_lon": 0.0, "is_disabled": 0}, {"rental_uris": {"android": "https://dc.lft.to/lastmile_qr_scan", "ios": "https://dc.lft.to/lastmile_qr_scan"}, "type": "electric_scooter", "lon": -77.05001366666667, "name": "c8548f77990ae47326c34d9f7097e554", "bike_id": "c8548f77990ae47326c34d9f7097e554", "fusion_lat": 0.0, "is_reserved": 0, "lat": 38.8922965, "fusion_lon": 0.0, "is_disabled": 0}, {"rental_uris": {"android": "https://dc.lft.to/lastmile_qr_scan", "ios": "https://dc.lft.to/lastmile_qr_scan"}, "type": "electric_scooter", "lon": -77.00020316666667, "name": "a6e33bd68e2eb00626655bb807110590", "bike_id": "a6e33bd68e2eb00626655bb807110590", "fusion_lat": 0.0, "is_reserved": 0, "lat": 38.9002625, "fusion_lon": 0.0, "is_disabled": 0}, {"rental_uris": {"android": "https://dc.lft.to/lastmile_qr_scan", "ios": "https://dc.lft.to/lastmile_qr_scan"}, "type": "electric_scooter", "lon": -77.017026, "name": "10c67da2acebe123bca9a6ac5d6f486d", "bike_id": "10c67da2acebe123bca9a6ac5d6f486d", "fusion_lat": 0.0, "is_reserved": 0, "lat": 38.920459666666666, "fusion_lon": 0.0, "is_disabled": 0}, {"rental_uris": {"android": "https://dc.lft.to/lastmile_qr_scan", "ios": "https://dc.lft.to/lastmile_qr_scan"}, "type": "electric_scooter", "lon": -77.04155016666667, "name": "2d6bcb96207bae6de8efad9f4b828f15", "bike_id": "2d6bcb96207bae6de8efad9f4b828f15", "fusion_lat": 0.0, "is_reserved": 0, "lat": 38.916135, "fusion_lon": 0.0, "is_disabled": 0}, {"rental_uris": {"android": "https://dc.lft.to/lastmile_qr_scan", "ios": "https://dc.lft.to/lastmile_qr_scan"}, "type": "electric_scooter", "lon": -77.01761916666666, "name": "2a0f67923d2516d77607cff0275e830b", "bike_id": "2a0f67923d2516d77607cff0275e830b", "fusion_lat": 0.0, "is_reserved": 0, "lat": 38.87720183333333, "fusion_lon": 0.0, "is_disabled": 0}, {"rental_uris": {"android": "https://dc.lft.to/lastmile_qr_scan", "ios": "https://dc.lft.to/lastmile_qr_scan"}, "type": "electric_scooter", "lon": -77.0341465, "name": "de6874a3fa047be76688e8e120d3b2f7", "bike_id": "de6874a3fa047be76688e8e120d3b2f7", "fusion_lat": 0.0, "is_reserved": 0, "lat": 38.9316885, "fusion_lon": 0.0, "is_disabled": 0}, {"rental_uris": {"android": "https://dc.lft.to/lastmile_qr_scan", "ios": "https://dc.lft.to/lastmile_qr_scan"}, "type": "electric_scooter", "lon": -77.04759566666667, "name": "d87f88307b59572f740bd7a126cc194e", "bike_id": "d87f88307b59572f740bd7a126cc194e", "fusion_lat": 0.0, "is_reserved": 0, "lat": 38.917660833333336, "fusion_lon": 0.0, "is_disabled": 0}, {"rental_uris": {"android": "https://dc.lft.to/lastmile_qr_scan", "ios": "https://dc.lft.to/lastmile_qr_scan"}, "type": "electric_scooter", "lon": -77.08441766666667, "name": "f8d56080349231aa84307e6abc3c61d5", "bike_id": "f8d56080349231aa84307e6abc3c61d5", "fusion_lat": 0.0, "is_reserved": 0, "lat": 38.911707666666665, "fusion_lon": 0.0, "is_disabled": 0}, {"rental_uris": {"android": "https://dc.lft.to/lastmile_qr_scan", "ios": "https://dc.lft.to/lastmile_qr_scan"}, "type": "electric_scooter", "lon": -77.03144816666666, "name": "8204ce61e936b5fb45fcccb60a48028d", "bike_id": "8204ce61e936b5fb45fcccb60a48028d", "fusion_lat": 0.0, "is_reserved": 0, "lat": 38.912608, "fusion_lon": 0.0, "is_disabled": 0}, {"rental_uris": {"android": "https://dc.lft.to/lastmile_qr_scan", "ios": "https://dc.lft.to/lastmile_qr_scan"}, "type": "electric_scooter", "lon": -77.02701733333333, "name": "e7663634e5869154c8a142075beef1f6", "bike_id": "e7663634e5869154c8a142075beef1f6", "fusion_lat": 0.0, "is_reserved": 0, "lat": 38.904558, "fusion_lon": 0.0, "is_disabled": 0}, {"rental_uris": {"android": "https://dc.lft.to/lastmile_qr_scan", "ios": "https://dc.lft.to/lastmile_qr_scan"}, "type": "electric_scooter", "lon": -76.97823016666666, "name": "d5b0aacb8ce00f4d744c1c628ed742ed", "bike_id": "d5b0aacb8ce00f4d744c1c628ed742ed", "fusion_lat": 0.0, "is_reserved": 0, "lat": 38.89605233333333, "fusion_lon": 0.0, "is_disabled": 0}, {"rental_uris": {"android": "https://dc.lft.to/lastmile_qr_scan", "ios": "https://dc.lft.to/lastmile_qr_scan"}, "type": "electric_scooter", "lon": -77.039997, "name": "c388e630af7e99253ea65a278e661653", "bike_id": "c388e630af7e99253ea65a278e661653", "fusion_lat": 0.0, "is_reserved": 0, "lat": 38.918139, "fusion_lon": 0.0, "is_disabled": 0}, {"rental_uris": {"android": "https://dc.lft.to/lastmile_qr_scan", "ios": "https://dc.lft.to/lastmile_qr_scan"}, "type": "electric_scooter", "lon": -77.0398515, "name": "409036872f431eacd1a2d568e0caae09", "bike_id": "409036872f431eacd1a2d568e0caae09", "fusion_lat": 0.0, "is_reserved": 0, "lat": 38.91631783333333, "fusion_lon": 0.0, "is_disabled": 0}, {"rental_uris": {"android": "https://dc.lft.to/lastmile_qr_scan", "ios": "https://dc.lft.to/lastmile_qr_scan"}, "type": "electric_scooter", "lon": -77.03636, "name": "e5b912ab57b574cec7d222e97152aff6", "bike_id": "e5b912ab57b574cec7d222e97152aff6", "fusion_lat": 0.0, "is_reserved": 0, "lat": 38.91769633333333, "fusion_lon": 0.0, "is_disabled": 0}, {"rental_uris": {"android": "https://dc.lft.to/lastmile_qr_scan", "ios": "https://dc.lft.to/lastmile_qr_scan"}, "type": "electric_scooter", "lon": -76.98849983333334, "name": "9f7eb9fbdf546edc254233881548debe", "bike_id": "9f7eb9fbdf546edc254233881548debe", "fusion_lat": 0.0, "is_reserved": 0, "lat": 38.903428, "fusion_lon": 0.0, "is_disabled": 0}, {"rental_uris": {"android": "https://dc.lft.to/lastmile_qr_scan", "ios": "https://dc.lft.to/lastmile_qr_scan"}, "type": "electric_bike", "lon": -77.12740216666667, "name": "8aeec9932d04bb69de20b7bf2d7d8a43", "bike_id": "8aeec9932d04bb69de20b7bf2d7d8a43", "fusion_lat": 0.0, "is_reserved": 0, "lat": 38.89564816666667, "fusion_lon": 0.0, "is_disabled": 0}, {"rental_uris": {"android": "https://dc.lft.to/lastmile_qr_scan", "ios": "https://dc.lft.to/lastmile_qr_scan"}, "type": "electric_scooter", "lon": -77.04988866666666, "name": "3d9a1af03ed208bbe8cc7a14e0233067", "bike_id": "3d9a1af03ed208bbe8cc7a14e0233067", "fusion_lat": 0.0, "is_reserved": 0, "lat": 38.9041575, "fusion_lon": 0.0, "is_disabled": 0}, {"rental_uris": {"android": "https://dc.lft.to/lastmile_qr_scan", "ios": "https://dc.lft.to/lastmile_qr_scan"}, "type": "electric_scooter", "lon": -77.01009116666667, "name": "200b312c2abe1b4b8373505fb393d595", "bike_id": "200b312c2abe1b4b8373505fb393d595", "fusion_lat": 0.0, "is_reserved": 0, "lat": 38.867126166666665, "fusion_lon": 0.0, "is_disabled": 0}, {"rental_uris": {"android": "https://dc.lft.to/lastmile_qr_scan", "ios": "https://dc.lft.to/lastmile_qr_scan"}, "type": "electric_scooter", "lon": -76.99364066666666, "name": "8cf82d37084d76e083f0812b9320ee3e", "bike_id": "8cf82d37084d76e083f0812b9320ee3e", "fusion_lat": 0.0, "is_reserved": 0, "lat": 38.90051033333334, "fusion_lon": 0.0, "is_disabled": 0}, {"rental_uris": {"android": "https://dc.lft.to/lastmile_qr_scan", "ios": "https://dc.lft.to/lastmile_qr_scan"}, "type": "electric_scooter", "lon": -77.02778383333333, "name": "7bcee37de44fbfa49655cbc114b34648", "bike_id": "7bcee37de44fbfa49655cbc114b34648", "fusion_lat": 0.0, "is_reserved": 0, "lat": 38.89218866666667, "fusion_lon": 0.0, "is_disabled": 0}, {"rental_uris": {"android": "https://dc.lft.to/lastmile_qr_scan", "ios": "https://dc.lft.to/lastmile_qr_scan"}, "type": "electric_scooter", "lon": -77.02500283333333, "name": "660581305017e673aa96e6e7307067ed", "bike_id": "660581305017e673aa96e6e7307067ed", "fusion_lat": 0.0, "is_reserved": 0, "lat": 38.9329015, "fusion_lon": 0.0, "is_disabled": 0}, {"rental_uris": {"android": "https://dc.lft.to/lastmile_qr_scan", "ios": "https://dc.lft.to/lastmile_qr_scan"}, "type": "electric_scooter", "lon": -77.03181633333334, "name": "cff413141090aa4f91811ee11d845669", "bike_id": "cff413141090aa4f91811ee11d845669", "fusion_lat": 0.0, "is_reserved": 0, "lat": 38.9155035, "fusion_lon": 0.0, "is_disabled": 0}, {"rental_uris": {"android": "https://dc.lft.to/lastmile_qr_scan", "ios": "https://dc.lft.to/lastmile_qr_scan"}, "type": "electric_scooter", "lon": -77.03287333333333, "name": "f61045b689cb70a410f2a2291f123711", "bike_id": "f61045b689cb70a410f2a2291f123711", "fusion_lat": 0.0, "is_reserved": 0, "lat": 38.956509833333335, "fusion_lon": 0.0, "is_disabled": 0}, {"rental_uris": {"android": "https://dc.lft.to/lastmile_qr_scan", "ios": "https://dc.lft.to/lastmile_qr_scan"}, "type": "electric_scooter", "lon": -77.05429833333334, "name": "3cde1dbdaef38bdded9c3c9dde4da080", "bike_id": "3cde1dbdaef38bdded9c3c9dde4da080", "fusion_lat": 0.0, "is_reserved": 0, "lat": 38.923144666666666, "fusion_lon": 0.0, "is_disabled": 0}, {"rental_uris": {"android": "https://dc.lft.to/lastmile_qr_scan", "ios": "https://dc.lft.to/lastmile_qr_scan"}, "type": "electric_scooter", "lon": -77.0389705, "name": "f0ce508cf5d5b5c175aa77f57d229f87", "bike_id": "f0ce508cf5d5b5c175aa77f57d229f87", "fusion_lat": 0.0, "is_reserved": 0, "lat": 38.92221, "fusion_lon": 0.0, "is_disabled": 0}, {"rental_uris": {"android": "https://dc.lft.to/lastmile_qr_scan", "ios": "https://dc.lft.to/lastmile_qr_scan"}, "type": "electric_scooter", "lon": -77.029979, "name": "8feafb0eaa16d00a75615420432b8aff", "bike_id": "8feafb0eaa16d00a75615420432b8aff", "fusion_lat": 0.0, "is_reserved": 0, "lat": 38.92791033333334, "fusion_lon": 0.0, "is_disabled": 0}, {"rental_uris": {"android": "https://dc.lft.to/lastmile_qr_scan", "ios": "https://dc.lft.to/lastmile_qr_scan"}, "type": "electric_scooter", "lon": -77.01627916666666, "name": "7202b1a11ef420ec3cbc1730c18ea569", "bike_id": "7202b1a11ef420ec3cbc1730c18ea569", "fusion_lat": 0.0, "is_reserved": 0, "lat": 38.882894, "fusion_lon": 0.0, "is_disabled": 0}, {"rental_uris": {"android": "https://dc.lft.to/lastmile_qr_scan", "ios": "https://dc.lft.to/lastmile_qr_scan"}, "type": "electric_bike", "lon": -77.35311633333333, "name": "590dfa3e38f34a3cff20669e0076c158", "bike_id": "590dfa3e38f34a3cff20669e0076c158", "fusion_lat": 0.0, "is_reserved": 0, "lat": 38.949985166666664, "fusion_lon": 0.0, "is_disabled": 0}, {"rental_uris": {"android": "https://dc.lft.to/lastmile_qr_scan", "ios": "https://dc.lft.to/lastmile_qr_scan"}, "type": "electric_scooter", "lon": -77.027235, "name": "448a3239a9526ad5095d01b9bd017658", "bike_id": "448a3239a9526ad5095d01b9bd017658", "fusion_lat": 0.0, "is_reserved": 0, "lat": 38.951345833333335, "fusion_lon": 0.0, "is_disabled": 0}, {"rental_uris": {"android": "https://dc.lft.to/lastmile_qr_scan", "ios": "https://dc.lft.to/lastmile_qr_scan"}, "type": "electric_scooter", "lon": -77.063391, "name": "c5abe2b7b381612e91b6621e4d07f708", "bike_id": "c5abe2b7b381612e91b6621e4d07f708", "fusion_lat": 0.0, "is_reserved": 0, "lat": 38.91340983333333, "fusion_lon": 0.0, "is_disabled": 0}, {"rental_uris": {"android": "https://dc.lft.to/lastmile_qr_scan", "ios": "https://dc.lft.to/lastmile_qr_scan"}, "type": "electric_bike", "lon": -77.0199705, "name": "3eb65a8d2e72e0641a33dcf3b0fd24ef", "bike_id": "3eb65a8d2e72e0641a33dcf3b0fd24ef", "fusion_lat": 0.0, "is_reserved": 0, "lat": 38.96020766666667, "fusion_lon": 0.0, "is_disabled": 0}, {"rental_uris": {"android": "https://dc.lft.to/lastmile_qr_scan", "ios": "https://dc.lft.to/lastmile_qr_scan"}, "type": "electric_scooter", "lon": -77.00921183333334, "name": "06c8d8f26a202f8b75b52316ac43e5ee", "bike_id": "06c8d8f26a202f8b75b52316ac43e5ee", "fusion_lat": 0.0, "is_reserved": 0, "lat": 38.89609316666667, "fusion_lon": 0.0, "is_disabled": 0}, {"rental_uris": {"android": "https://dc.lft.to/lastmile_qr_scan", "ios": "https://dc.lft.to/lastmile_qr_scan"}, "type": "electric_scooter", "lon": -76.9970095, "name": "2a86038732d55fadd9d9746c52e8fdc1", "bike_id": "2a86038732d55fadd9d9746c52e8fdc1", "fusion_lat": 0.0, "is_reserved": 0, "lat": 38.911179, "fusion_lon": 0.0, "is_disabled": 0}, {"rental_uris": {"android": "https://dc.lft.to/lastmile_qr_scan", "ios": "https://dc.lft.to/lastmile_qr_scan"}, "type": "electric_scooter", "lon": -77.04346883333334, "name": "3be62283765d4b7cddff832013df26e8", "bike_id": "3be62283765d4b7cddff832013df26e8", "fusion_lat": 0.0, "is_reserved": 0, "lat": 38.931311, "fusion_lon": 0.0, "is_disabled": 0}, {"rental_uris": {"android": "https://dc.lft.to/lastmile_qr_scan", "ios": "https://dc.lft.to/lastmile_qr_scan"}, "type": "electric_scooter", "lon": -77.00491983333333, "name": "1d209fa301bd405ba1dc0b00218b8047", "bike_id": "1d209fa301bd405ba1dc0b00218b8047", "fusion_lat": 0.0, "is_reserved": 0, "lat": 38.8969065, "fusion_lon": 0.0, "is_disabled": 0}, {"rental_uris": {"android": "https://dc.lft.to/lastmile_qr_scan", "ios": "https://dc.lft.to/lastmile_qr_scan"}, "type": "electric_scooter", "lon": -77.04379733333333, "name": "74256c8a8fa02cd9203bcc8701dd01cb", "bike_id": "74256c8a8fa02cd9203bcc8701dd01cb", "fusion_lat": 0.0, "is_reserved": 0, "lat": 38.920693166666666, "fusion_lon": 0.0, "is_disabled": 0}, {"rental_uris": {"android": "https://dc.lft.to/lastmile_qr_scan", "ios": "https://dc.lft.to/lastmile_qr_scan"}, "type": "electric_scooter", "lon": -77.06843883333333, "name": "f2e0478e68520cc4dfe7ec0b17f56001", "bike_id": "f2e0478e68520cc4dfe7ec0b17f56001", "fusion_lat": 0.0, "is_reserved": 0, "lat": 38.952115, "fusion_lon": 0.0, "is_disabled": 0}, {"rental_uris": {"android": "https://dc.lft.to/lastmile_qr_scan", "ios": "https://dc.lft.to/lastmile_qr_scan"}, "type": "electric_scooter", "lon": -77.0218035, "name": "4fd9905bed7153e1b33b83a464772ae6", "bike_id": "4fd9905bed7153e1b33b83a464772ae6", "fusion_lat": 0.0, "is_reserved": 0, "lat": 38.91881733333334, "fusion_lon": 0.0, "is_disabled": 0}, {"rental_uris": {"android": "https://dc.lft.to/lastmile_qr_scan", "ios": "https://dc.lft.to/lastmile_qr_scan"}, "type": "electric_scooter", "lon": -77.02717266666667, "name": "ae44e924dcfd9264783b3ad8dca05cc6", "bike_id": "ae44e924dcfd9264783b3ad8dca05cc6", "fusion_lat": 0.0, "is_reserved": 0, "lat": 38.95131, "fusion_lon": 0.0, "is_disabled": 0}, {"rental_uris": {"android": "https://dc.lft.to/lastmile_qr_scan", "ios": "https://dc.lft.to/lastmile_qr_scan"}, "type": "electric_bike", "lon": -76.94620283333333, "name": "cc5169e1c79071842769ab9670f2315e", "bike_id": "cc5169e1c79071842769ab9670f2315e", "fusion_lat": 0.0, "is_reserved": 0, "lat": 38.83245433333333, "fusion_lon": 0.0, "is_disabled": 0}, {"rental_uris": {"android": "https://dc.lft.to/lastmile_qr_scan", "ios": "https://dc.lft.to/lastmile_qr_scan"}, "type": "electric_scooter", "lon": -77.03788633333333, "name": "974f622d96439e1dbe921e41971ec153", "bike_id": "974f622d96439e1dbe921e41971ec153", "fusion_lat": 0.0, "is_reserved": 0, "lat": 38.933183, "fusion_lon": 0.0, "is_disabled": 0}, {"rental_uris": {"android": "https://dc.lft.to/lastmile_qr_scan", "ios": "https://dc.lft.to/lastmile_qr_scan"}, "type": "electric_scooter", "lon": -77.02570983333334, "name": "76ecb6e961b9509ceb2aa0f835da8dbf", "bike_id": "76ecb6e961b9509ceb2aa0f835da8dbf", "fusion_lat": 0.0, "is_reserved": 0, "lat": 38.925103, "fusion_lon": 0.0, "is_disabled": 0}, {"rental_uris": {"android": "https://dc.lft.to/lastmile_qr_scan", "ios": "https://dc.lft.to/lastmile_qr_scan"}, "type": "electric_scooter", "lon": -77.03285083333333, "name": "371a9ebbee119264a3ce2e4a707dbcc5", "bike_id": "371a9ebbee119264a3ce2e4a707dbcc5", "fusion_lat": 0.0, "is_reserved": 0, "lat": 38.928475166666665, "fusion_lon": 0.0, "is_disabled": 0}, {"rental_uris": {"android": "https://dc.lft.to/lastmile_qr_scan", "ios": "https://dc.lft.to/lastmile_qr_scan"}, "type": "electric_scooter", "lon": -76.98765366666666, "name": "f82b54b85b73feb0dc195f0b289bfd94", "bike_id": "f82b54b85b73feb0dc195f0b289bfd94", "fusion_lat": 0.0, "is_reserved": 0, "lat": 38.88317116666666, "fusion_lon": 0.0, "is_disabled": 0}, {"rental_uris": {"android": "https://dc.lft.to/lastmile_qr_scan", "ios": "https://dc.lft.to/lastmile_qr_scan"}, "type": "electric_scooter", "lon": -77.04347966666667, "name": "474b4ce97360fb53b3a27d78b75a2101", "bike_id": "474b4ce97360fb53b3a27d78b75a2101", "fusion_lat": 0.0, "is_reserved": 0, "lat": 38.9073545, "fusion_lon": 0.0, "is_disabled": 0}, {"rental_uris": {"android": "https://dc.lft.to/lastmile_qr_scan", "ios": "https://dc.lft.to/lastmile_qr_scan"}, "type": "electric_bike", "lon": -77.009049, "name": "cd0a01610ee9d874cf32b3d41cbb4958", "bike_id": "cd0a01610ee9d874cf32b3d41cbb4958", "fusion_lat": 0.0, "is_reserved": 0, "lat": 38.900243333333336, "fusion_lon": 0.0, "is_disabled": 0}, {"rental_uris": {"android": "https://dc.lft.to/lastmile_qr_scan", "ios": "https://dc.lft.to/lastmile_qr_scan"}, "type": "electric_scooter", "lon": -77.04883316666667, "name": "eef33ab1aacd2938eb2ef9a0d2d1fb4b", "bike_id": "eef33ab1aacd2938eb2ef9a0d2d1fb4b", "fusion_lat": 0.0, "is_reserved": 0, "lat": 38.903146, "fusion_lon": 0.0, "is_disabled": 0}, {"rental_uris": {"android": "https://dc.lft.to/lastmile_qr_scan", "ios": "https://dc.lft.to/lastmile_qr_scan"}, "type": "electric_scooter", "lon": -77.039339, "name": "3708e8c9438c5f2d392d0a9202a00ed1", "bike_id": "3708e8c9438c5f2d392d0a9202a00ed1", "fusion_lat": 0.0, "is_reserved": 0, "lat": 38.90825383333333, "fusion_lon": 0.0, "is_disabled": 0}, {"rental_uris": {"android": "https://dc.lft.to/lastmile_qr_scan", "ios": "https://dc.lft.to/lastmile_qr_scan"}, "type": "electric_bike", "lon": -76.95204766666667, "name": "8a6d810dafed958f7d3048879b095be3", "bike_id": "8a6d810dafed958f7d3048879b095be3", "fusion_lat": 0.0, "is_reserved": 0, "lat": 38.936715666666665, "fusion_lon": 0.0, "is_disabled": 0}, {"rental_uris": {"android": "https://dc.lft.to/lastmile_qr_scan", "ios": "https://dc.lft.to/lastmile_qr_scan"}, "type": "electric_scooter", "lon": -77.02345116666666, "name": "f19db22d0bd4dd53e71ee45221af8b82", "bike_id": "f19db22d0bd4dd53e71ee45221af8b82", "fusion_lat": 0.0, "is_reserved": 0, "lat": 38.92266516666667, "fusion_lon": 0.0, "is_disabled": 0}, {"rental_uris": {"android": "https://dc.lft.to/lastmile_qr_scan", "ios": "https://dc.lft.to/lastmile_qr_scan"}, "type": "electric_scooter", "lon": -77.02280616666667, "name": "ff254469d1b6f5d22fd66d183eb8144b", "bike_id": "ff254469d1b6f5d22fd66d183eb8144b", "fusion_lat": 0.0, "is_reserved": 0, "lat": 38.916129166666664, "fusion_lon": 0.0, "is_disabled": 0}, {"rental_uris": {"android": "https://dc.lft.to/lastmile_qr_scan", "ios": "https://dc.lft.to/lastmile_qr_scan"}, "type": "electric_scooter", "lon": -77.035516, "name": "057436ab958619320fb798e43225239b", "bike_id": "057436ab958619320fb798e43225239b", "fusion_lat": 0.0, "is_reserved": 0, "lat": 38.904688, "fusion_lon": 0.0, "is_disabled": 0}, {"rental_uris": {"android": "https://dc.lft.to/lastmile_qr_scan", "ios": "https://dc.lft.to/lastmile_qr_scan"}, "type": "electric_scooter", "lon": -76.987293, "name": "c5004eaad328b53201a3d23aa8d18121", "bike_id": "c5004eaad328b53201a3d23aa8d18121", "fusion_lat": 0.0, "is_reserved": 0, "lat": 38.867109666666664, "fusion_lon": 0.0, "is_disabled": 0}, {"rental_uris": {"android": "https://dc.lft.to/lastmile_qr_scan", "ios": "https://dc.lft.to/lastmile_qr_scan"}, "type": "electric_scooter", "lon": -77.04861916666667, "name": "4cbb9d24558c5ee1970080a9fa43b17b", "bike_id": "4cbb9d24558c5ee1970080a9fa43b17b", "fusion_lat": 0.0, "is_reserved": 0, "lat": 38.90374766666667, "fusion_lon": 0.0, "is_disabled": 0}, {"rental_uris": {"android": "https://dc.lft.to/lastmile_qr_scan", "ios": "https://dc.lft.to/lastmile_qr_scan"}, "type": "electric_scooter", "lon": -76.99092566666667, "name": "6c4b9c64a9292a99052d23770a62ec51", "bike_id": "6c4b9c64a9292a99052d23770a62ec51", "fusion_lat": 0.0, "is_reserved": 0, "lat": 38.863542833333334, "fusion_lon": 0.0, "is_disabled": 0}, {"rental_uris": {"android": "https://dc.lft.to/lastmile_qr_scan", "ios": "https://dc.lft.to/lastmile_qr_scan"}, "type": "electric_scooter", "lon": -77.02703616666666, "name": "32b4e9cb7e7f3bddf727276fd0e5cf8b", "bike_id": "32b4e9cb7e7f3bddf727276fd0e5cf8b", "fusion_lat": 0.0, "is_reserved": 0, "lat": 38.93984716666667, "fusion_lon": 0.0, "is_disabled": 0}, {"rental_uris": {"android": "https://dc.lft.to/lastmile_qr_scan", "ios": "https://dc.lft.to/lastmile_qr_scan"}, "type": "electric_scooter", "lon": -77.0275435, "name": "2a8dd69f951a86e5edcf455a97ed3bbd", "bike_id": "2a8dd69f951a86e5edcf455a97ed3bbd", "fusion_lat": 0.0, "is_reserved": 0, "lat": 38.954014666666666, "fusion_lon": 0.0, "is_disabled": 0}, {"rental_uris": {"android": "https://dc.lft.to/lastmile_qr_scan", "ios": "https://dc.lft.to/lastmile_qr_scan"}, "type": "electric_bike", "lon": -77.1318235, "name": "f82a94461194c2f22797f707d1b79c07", "bike_id": "f82a94461194c2f22797f707d1b79c07", "fusion_lat": 0.0, "is_reserved": 0, "lat": 38.86911116666667, "fusion_lon": 0.0, "is_disabled": 0}, {"rental_uris": {"android": "https://dc.lft.to/lastmile_qr_scan", "ios": "https://dc.lft.to/lastmile_qr_scan"}, "type": "electric_bike", "lon": -76.99760383333333, "name": "af9628ac61c9dbc8cf6d97ca1e5b35ae", "bike_id": "af9628ac61c9dbc8cf6d97ca1e5b35ae", "fusion_lat": 0.0, "is_reserved": 0, "lat": 39.00592116666667, "fusion_lon": 0.0, "is_disabled": 0}, {"rental_uris": {"android": "https://dc.lft.to/lastmile_qr_scan", "ios": "https://dc.lft.to/lastmile_qr_scan"}, "type": "electric_scooter", "lon": -76.99139283333334, "name": "29f2b190415c9116c236b298aa4f6aaf", "bike_id": "29f2b190415c9116c236b298aa4f6aaf", "fusion_lat": 0.0, "is_reserved": 0, "lat": 38.87906483333333, "fusion_lon": 0.0, "is_disabled": 0}, {"rental_uris": {"android": "https://dc.lft.to/lastmile_qr_scan", "ios": "https://dc.lft.to/lastmile_qr_scan"}, "type": "electric_scooter", "lon": -77.046859, "name": "964cf39b413c38bfd4405f1e5fd1230f", "bike_id": "964cf39b413c38bfd4405f1e5fd1230f", "fusion_lat": 0.0, "is_reserved": 0, "lat": 38.915774166666665, "fusion_lon": 0.0, "is_disabled": 0}, {"rental_uris": {"android": "https://dc.lft.to/lastmile_qr_scan", "ios": "https://dc.lft.to/lastmile_qr_scan"}, "type": "electric_scooter", "lon": -76.92954883333333, "name": "5fdaeaa450e212d9979d3422e675718d", "bike_id": "5fdaeaa450e212d9979d3422e675718d", "fusion_lat": 0.0, "is_reserved": 0, "lat": 38.898779, "fusion_lon": 0.0, "is_disabled": 0}, {"rental_uris": {"android": "https://dc.lft.to/lastmile_qr_scan", "ios": "https://dc.lft.to/lastmile_qr_scan"}, "type": "electric_scooter", "lon": -77.04980166666667, "name": "ffb7c28ab760613adca483423c3c8eef", "bike_id": "ffb7c28ab760613adca483423c3c8eef", "fusion_lat": 0.0, "is_reserved": 0, "lat": 38.90085883333333, "fusion_lon": 0.0, "is_disabled": 0}, {"rental_uris": {"android": "https://dc.lft.to/lastmile_qr_scan", "ios": "https://dc.lft.to/lastmile_qr_scan"}, "type": "electric_scooter", "lon": -77.038544, "name": "8c7a54c6f5692e3a2987537f4aaf82ce", "bike_id": "8c7a54c6f5692e3a2987537f4aaf82ce", "fusion_lat": 0.0, "is_reserved": 0, "lat": 38.91543083333333, "fusion_lon": 0.0, "is_disabled": 0}, {"rental_uris": {"android": "https://dc.lft.to/lastmile_qr_scan", "ios": "https://dc.lft.to/lastmile_qr_scan"}, "type": "electric_scooter", "lon": -77.0341455, "name": "c8e090199bca29191875f43859437357", "bike_id": "c8e090199bca29191875f43859437357", "fusion_lat": 0.0, "is_reserved": 0, "lat": 38.92947233333334, "fusion_lon": 0.0, "is_disabled": 0}, {"rental_uris": {"android": "https://dc.lft.to/lastmile_qr_scan", "ios": "https://dc.lft.to/lastmile_qr_scan"}, "type": "electric_scooter", "lon": -77.03652616666666, "name": "28d402fc2d05edc539c19ddc75efb66b", "bike_id": "28d402fc2d05edc539c19ddc75efb66b", "fusion_lat": 0.0, "is_reserved": 0, "lat": 38.92096133333333, "fusion_lon": 0.0, "is_disabled": 0}, {"rental_uris": {"android": "https://dc.lft.to/lastmile_qr_scan", "ios": "https://dc.lft.to/lastmile_qr_scan"}, "type": "electric_scooter", "lon": -77.01205816666666, "name": "f7defc9a59dcfa40cd35e0df2b7a2927", "bike_id": "f7defc9a59dcfa40cd35e0df2b7a2927", "fusion_lat": 0.0, "is_reserved": 0, "lat": 38.89330566666667, "fusion_lon": 0.0, "is_disabled": 0}, {"rental_uris": {"android": "https://dc.lft.to/lastmile_qr_scan", "ios": "https://dc.lft.to/lastmile_qr_scan"}, "type": "electric_scooter", "lon": -77.0306765, "name": "5800b3f4ad4a78c27bf7fb4a012f204a", "bike_id": "5800b3f4ad4a78c27bf7fb4a012f204a", "fusion_lat": 0.0, "is_reserved": 0, "lat": 38.88044433333334, "fusion_lon": 0.0, "is_disabled": 0}, {"rental_uris": {"android": "https://dc.lft.to/lastmile_qr_scan", "ios": "https://dc.lft.to/lastmile_qr_scan"}, "type": "electric_scooter", "lon": -77.02573733333334, "name": "e77aa4abbab2acf9c9dbb20d10dc721a", "bike_id": "e77aa4abbab2acf9c9dbb20d10dc721a", "fusion_lat": 0.0, "is_reserved": 0, "lat": 38.897127166666664, "fusion_lon": 0.0, "is_disabled": 0}, {"rental_uris": {"android": "https://dc.lft.to/lastmile_qr_scan", "ios": "https://dc.lft.to/lastmile_qr_scan"}, "type": "electric_scooter", "lon": -77.0347785, "name": "9d43013f42d00c250102896b5edf771f", "bike_id": "9d43013f42d00c250102896b5edf771f", "fusion_lat": 0.0, "is_reserved": 0, "lat": 38.902210333333336, "fusion_lon": 0.0, "is_disabled": 0}, {"rental_uris": {"android": "https://dc.lft.to/lastmile_qr_scan", "ios": "https://dc.lft.to/lastmile_qr_scan"}, "type": "electric_scooter", "lon": -77.03174216666666, "name": "b8e9bf28846342b57adfa1ebae2262d1", "bike_id": "b8e9bf28846342b57adfa1ebae2262d1", "fusion_lat": 0.0, "is_reserved": 0, "lat": 38.914193833333336, "fusion_lon": 0.0, "is_disabled": 0}, {"rental_uris": {"android": "https://dc.lft.to/lastmile_qr_scan", "ios": "https://dc.lft.to/lastmile_qr_scan"}, "type": "electric_scooter", "lon": -77.008852, "name": "e4cc28ae93dd1d1adc0eea26f81ade6e", "bike_id": "e4cc28ae93dd1d1adc0eea26f81ade6e", "fusion_lat": 0.0, "is_reserved": 0, "lat": 38.87635816666667, "fusion_lon": 0.0, "is_disabled": 0}, {"rental_uris": {"android": "https://dc.lft.to/lastmile_qr_scan", "ios": "https://dc.lft.to/lastmile_qr_scan"}, "type": "electric_scooter", "lon": -77.01206816666667, "name": "2836b992ea43b383e9e164c83d0c4efb", "bike_id": "2836b992ea43b383e9e164c83d0c4efb", "fusion_lat": 0.0, "is_reserved": 0, "lat": 38.871552, "fusion_lon": 0.0, "is_disabled": 0}, {"rental_uris": {"android": "https://dc.lft.to/lastmile_qr_scan", "ios": "https://dc.lft.to/lastmile_qr_scan"}, "type": "electric_scooter", "lon": -77.00377716666667, "name": "37d7c889ff3b32ddd74eb20d5a07d863", "bike_id": "37d7c889ff3b32ddd74eb20d5a07d863", "fusion_lat": 0.0, "is_reserved": 0, "lat": 38.89730933333333, "fusion_lon": 0.0, "is_disabled": 0}, {"rental_uris": {"android": "https://dc.lft.to/lastmile_qr_scan", "ios": "https://dc.lft.to/lastmile_qr_scan"}, "type": "electric_scooter", "lon": -76.99903416666666, "name": "1b7be5dd3edb7ac05ce05b0b71ffc722", "bike_id": "1b7be5dd3edb7ac05ce05b0b71ffc722", "fusion_lat": 0.0, "is_reserved": 0, "lat": 38.900347833333335, "fusion_lon": 0.0, "is_disabled": 0}, {"rental_uris": {"android": "https://dc.lft.to/lastmile_qr_scan", "ios": "https://dc.lft.to/lastmile_qr_scan"}, "type": "electric_bike", "lon": -77.11218666666667, "name": "b5b8041c3204bbed36122f626bcaf972", "bike_id": "b5b8041c3204bbed36122f626bcaf972", "fusion_lat": 0.0, "is_reserved": 0, "lat": 38.828732333333335, "fusion_lon": 0.0, "is_disabled": 0}, {"rental_uris": {"android": "https://dc.lft.to/lastmile_qr_scan", "ios": "https://dc.lft.to/lastmile_qr_scan"}, "type": "electric_scooter", "lon": -76.93157533333333, "name": "719e93ffdad65b09e23be99d1860437a", "bike_id": "719e93ffdad65b09e23be99d1860437a", "fusion_lat": 0.0, "is_reserved": 0, "lat": 38.898853, "fusion_lon": 0.0, "is_disabled": 0}, {"rental_uris": {"android": "https://dc.lft.to/lastmile_qr_scan", "ios": "https://dc.lft.to/lastmile_qr_scan"}, "type": "electric_scooter", "lon": -77.0157465, "name": "bd76b439f58f2ac2dcfd3aad940604e7", "bike_id": "bd76b439f58f2ac2dcfd3aad940604e7", "fusion_lat": 0.0, "is_reserved": 0, "lat": 38.876, "fusion_lon": 0.0, "is_disabled": 0}, {"rental_uris": {"android": "https://dc.lft.to/lastmile_qr_scan", "ios": "https://dc.lft.to/lastmile_qr_scan"}, "type": "electric_scooter", "lon": -77.03839766666667, "name": "d6c665d6b717066a1680465f0a8ae3a8", "bike_id": "d6c665d6b717066a1680465f0a8ae3a8", "fusion_lat": 0.0, "is_reserved": 0, "lat": 38.91209166666667, "fusion_lon": 0.0, "is_disabled": 0}, {"rental_uris": {"android": "https://dc.lft.to/lastmile_qr_scan", "ios": "https://dc.lft.to/lastmile_qr_scan"}, "type": "electric_scooter", "lon": -77.0095355, "name": "ac4896e9ec489e23cc1399574239139f", "bike_id": "ac4896e9ec489e23cc1399574239139f", "fusion_lat": 0.0, "is_reserved": 0, "lat": 38.921305333333336, "fusion_lon": 0.0, "is_disabled": 0}, {"rental_uris": {"android": "https://dc.lft.to/lastmile_qr_scan", "ios": "https://dc.lft.to/lastmile_qr_scan"}, "type": "electric_scooter", "lon": -76.9421255, "name": "60c7ed9482143ba3bb5cd5fa38a8dd92", "bike_id": "60c7ed9482143ba3bb5cd5fa38a8dd92", "fusion_lat": 0.0, "is_reserved": 0, "lat": 38.8968715, "fusion_lon": 0.0, "is_disabled": 0}, {"rental_uris": {"android": "https://dc.lft.to/lastmile_qr_scan", "ios": "https://dc.lft.to/lastmile_qr_scan"}, "type": "electric_bike", "lon": -76.874945, "name": "230af10aa2a89cd650d48a9130485f59", "bike_id": "230af10aa2a89cd650d48a9130485f59", "fusion_lat": 0.0, "is_reserved": 0, "lat": 38.990905833333336, "fusion_lon": 0.0, "is_disabled": 0}, {"rental_uris": {"android": "https://dc.lft.to/lastmile_qr_scan", "ios": "https://dc.lft.to/lastmile_qr_scan"}, "type": "electric_scooter", "lon": -77.000683, "name": "f0332a713d9483f518fc8f0f806405ec", "bike_id": "f0332a713d9483f518fc8f0f806405ec", "fusion_lat": 0.0, "is_reserved": 0, "lat": 38.897424666666666, "fusion_lon": 0.0, "is_disabled": 0}, {"rental_uris": {"android": "https://dc.lft.to/lastmile_qr_scan", "ios": "https://dc.lft.to/lastmile_qr_scan"}, "type": "electric_scooter", "lon": -77.01949716666667, "name": "e6d7270a66e57b3cd1fadf243e2d1ce6", "bike_id": "e6d7270a66e57b3cd1fadf243e2d1ce6", "fusion_lat": 0.0, "is_reserved": 0, "lat": 38.902097833333336, "fusion_lon": 0.0, "is_disabled": 0}, {"rental_uris": {"android": "https://dc.lft.to/lastmile_qr_scan", "ios": "https://dc.lft.to/lastmile_qr_scan"}, "type": "electric_scooter", "lon": -77.068074, "name": "ed405b0852756073c1039aa6cf518f86", "bike_id": "ed405b0852756073c1039aa6cf518f86", "fusion_lat": 0.0, "is_reserved": 0, "lat": 38.90502883333333, "fusion_lon": 0.0, "is_disabled": 0}, {"rental_uris": {"android": "https://dc.lft.to/lastmile_qr_scan", "ios": "https://dc.lft.to/lastmile_qr_scan"}, "type": "electric_scooter", "lon": -77.04870566666666, "name": "830489f0cf560d78dd83c360ed750059", "bike_id": "830489f0cf560d78dd83c360ed750059", "fusion_lat": 0.0, "is_reserved": 0, "lat": 38.909761833333334, "fusion_lon": 0.0, "is_disabled": 0}, {"rental_uris": {"android": "https://dc.lft.to/lastmile_qr_scan", "ios": "https://dc.lft.to/lastmile_qr_scan"}, "type": "electric_scooter", "lon": -77.02557983333334, "name": "3c060d31a8ec2e4f3dccc8128ddf9bf0", "bike_id": "3c060d31a8ec2e4f3dccc8128ddf9bf0", "fusion_lat": 0.0, "is_reserved": 0, "lat": 38.9416455, "fusion_lon": 0.0, "is_disabled": 0}, {"rental_uris": {"android": "https://dc.lft.to/lastmile_qr_scan", "ios": "https://dc.lft.to/lastmile_qr_scan"}, "type": "electric_scooter", "lon": -76.9919715, "name": "040fb39cf6a04910511214a12e12fc07", "bike_id": "040fb39cf6a04910511214a12e12fc07", "fusion_lat": 0.0, "is_reserved": 0, "lat": 38.895147333333334, "fusion_lon": 0.0, "is_disabled": 0}, {"rental_uris": {"android": "https://dc.lft.to/lastmile_qr_scan", "ios": "https://dc.lft.to/lastmile_qr_scan"}, "type": "electric_scooter", "lon": -77.02944416666666, "name": "4d9c1b9bbee95f111f9ff7ffbc5e02f7", "bike_id": "4d9c1b9bbee95f111f9ff7ffbc5e02f7", "fusion_lat": 0.0, "is_reserved": 0, "lat": 38.89808416666666, "fusion_lon": 0.0, "is_disabled": 0}, {"rental_uris": {"android": "https://dc.lft.to/lastmile_qr_scan", "ios": "https://dc.lft.to/lastmile_qr_scan"}, "type": "electric_scooter", "lon": -77.024114, "name": "e4b0b128b757bb1c46c798016b8c1049", "bike_id": "e4b0b128b757bb1c46c798016b8c1049", "fusion_lat": 0.0, "is_reserved": 0, "lat": 38.920854166666665, "fusion_lon": 0.0, "is_disabled": 0}, {"rental_uris": {"android": "https://dc.lft.to/lastmile_qr_scan", "ios": "https://dc.lft.to/lastmile_qr_scan"}, "type": "electric_scooter", "lon": -77.0318065, "name": "24b364ae40839b51fb12ece6b51a0171", "bike_id": "24b364ae40839b51fb12ece6b51a0171", "fusion_lat": 0.0, "is_reserved": 0, "lat": 38.886682, "fusion_lon": 0.0, "is_disabled": 0}, {"rental_uris": {"android": "https://dc.lft.to/lastmile_qr_scan", "ios": "https://dc.lft.to/lastmile_qr_scan"}, "type": "electric_scooter", "lon": -77.03146766666667, "name": "de3339aea70c6126f4fb7556485a3806", "bike_id": "de3339aea70c6126f4fb7556485a3806", "fusion_lat": 0.0, "is_reserved": 0, "lat": 38.89706183333333, "fusion_lon": 0.0, "is_disabled": 0}, {"rental_uris": {"android": "https://dc.lft.to/lastmile_qr_scan", "ios": "https://dc.lft.to/lastmile_qr_scan"}, "type": "electric_scooter", "lon": -77.01920083333333, "name": "111ab3d0382b74ef8dd7e96c99a2e311", "bike_id": "111ab3d0382b74ef8dd7e96c99a2e311", "fusion_lat": 0.0, "is_reserved": 0, "lat": 38.917306333333336, "fusion_lon": 0.0, "is_disabled": 0}, {"rental_uris": {"android": "https://dc.lft.to/lastmile_qr_scan", "ios": "https://dc.lft.to/lastmile_qr_scan"}, "type": "electric_scooter", "lon": -76.9852765, "name": "c76b244453feb51c31a52945884b2d08", "bike_id": "c76b244453feb51c31a52945884b2d08", "fusion_lat": 0.0, "is_reserved": 0, "lat": 38.8585205, "fusion_lon": 0.0, "is_disabled": 0}, {"rental_uris": {"android": "https://dc.lft.to/lastmile_qr_scan", "ios": "https://dc.lft.to/lastmile_qr_scan"}, "type": "electric_scooter", "lon": -77.02645766666667, "name": "fa6b11b894e15bd063513b9e9eb213cf", "bike_id": "fa6b11b894e15bd063513b9e9eb213cf", "fusion_lat": 0.0, "is_reserved": 0, "lat": 38.90256483333334, "fusion_lon": 0.0, "is_disabled": 0}, {"rental_uris": {"android": "https://dc.lft.to/lastmile_qr_scan", "ios": "https://dc.lft.to/lastmile_qr_scan"}, "type": "electric_scooter", "lon": -77.04651533333333, "name": "121b0db5de306d73fa7f42a59f4d810f", "bike_id": "121b0db5de306d73fa7f42a59f4d810f", "fusion_lat": 0.0, "is_reserved": 0, "lat": 38.8933205, "fusion_lon": 0.0, "is_disabled": 0}, {"rental_uris": {"android": "https://dc.lft.to/lastmile_qr_scan", "ios": "https://dc.lft.to/lastmile_qr_scan"}, "type": "electric_scooter", "lon": -77.001902, "name": "03832ac3e411b8fd8fed714f9b3b62e0", "bike_id": "03832ac3e411b8fd8fed714f9b3b62e0", "fusion_lat": 0.0, "is_reserved": 0, "lat": 38.87832133333333, "fusion_lon": 0.0, "is_disabled": 0}, {"rental_uris": {"android": "https://dc.lft.to/lastmile_qr_scan", "ios": "https://dc.lft.to/lastmile_qr_scan"}, "type": "electric_scooter", "lon": -77.02106766666667, "name": "73946f320680a35f176493baf1d36ed8", "bike_id": "73946f320680a35f176493baf1d36ed8", "fusion_lat": 0.0, "is_reserved": 0, "lat": 38.8947055, "fusion_lon": 0.0, "is_disabled": 0}, {"rental_uris": {"android": "https://dc.lft.to/lastmile_qr_scan", "ios": "https://dc.lft.to/lastmile_qr_scan"}, "type": "electric_scooter", "lon": -77.0139205, "name": "b3055e2cecef01fcb53a3264d4d3dbe6", "bike_id": "b3055e2cecef01fcb53a3264d4d3dbe6", "fusion_lat": 0.0, "is_reserved": 0, "lat": 38.88032116666667, "fusion_lon": 0.0, "is_disabled": 0}, {"rental_uris": {"android": "https://dc.lft.to/lastmile_qr_scan", "ios": "https://dc.lft.to/lastmile_qr_scan"}, "type": "electric_scooter", "lon": -77.04211583333333, "name": "b3374626387a40f4be19fa846d4c0fa6", "bike_id": "b3374626387a40f4be19fa846d4c0fa6", "fusion_lat": 0.0, "is_reserved": 0, "lat": 38.91703116666667, "fusion_lon": 0.0, "is_disabled": 0}, {"rental_uris": {"android": "https://dc.lft.to/lastmile_qr_scan", "ios": "https://dc.lft.to/lastmile_qr_scan"}, "type": "electric_bike", "lon": -77.1068015, "name": "07d017c9803b3866a5a2865719b7125b", "bike_id": "07d017c9803b3866a5a2865719b7125b", "fusion_lat": 0.0, "is_reserved": 0, "lat": 38.9358105, "fusion_lon": 0.0, "is_disabled": 0}, {"rental_uris": {"android": "https://dc.lft.to/lastmile_qr_scan", "ios": "https://dc.lft.to/lastmile_qr_scan"}, "type": "electric_scooter", "lon": -77.07105466666667, "name": "1acb8e5a1d564e0d584cddab201028ca", "bike_id": "1acb8e5a1d564e0d584cddab201028ca", "fusion_lat": 0.0, "is_reserved": 0, "lat": 38.914191833333334, "fusion_lon": 0.0, "is_disabled": 0}, {"rental_uris": {"android": "https://dc.lft.to/lastmile_qr_scan", "ios": "https://dc.lft.to/lastmile_qr_scan"}, "type": "electric_scooter", "lon": -77.048726, "name": "2c154907bd8369866e1e24deda759720", "bike_id": "2c154907bd8369866e1e24deda759720", "fusion_lat": 0.0, "is_reserved": 0, "lat": 38.8929295, "fusion_lon": 0.0, "is_disabled": 0}, {"rental_uris": {"android": "https://dc.lft.to/lastmile_qr_scan", "ios": "https://dc.lft.to/lastmile_qr_scan"}, "type": "electric_scooter", "lon": -77.02403383333333, "name": "d62d1675f2932c14317f910578ff01ed", "bike_id": "d62d1675f2932c14317f910578ff01ed", "fusion_lat": 0.0, "is_reserved": 0, "lat": 38.90193766666667, "fusion_lon": 0.0, "is_disabled": 0}, {"rental_uris": {"android": "https://dc.lft.to/lastmile_qr_scan", "ios": "https://dc.lft.to/lastmile_qr_scan"}, "type": "electric_scooter", "lon": -77.0447925, "name": "49522d7cefa7213c88fe809f24a1ac11", "bike_id": "49522d7cefa7213c88fe809f24a1ac11", "fusion_lat": 0.0, "is_reserved": 0, "lat": 38.90373783333333, "fusion_lon": 0.0, "is_disabled": 0}, {"rental_uris": {"android": "https://dc.lft.to/lastmile_qr_scan", "ios": "https://dc.lft.to/lastmile_qr_scan"}, "type": "electric_scooter", "lon": -76.9790385, "name": "dda0f0437c587fcf2f4dfa2a1bd1aef2", "bike_id": "dda0f0437c587fcf2f4dfa2a1bd1aef2", "fusion_lat": 0.0, "is_reserved": 0, "lat": 38.89431, "fusion_lon": 0.0, "is_disabled": 0}, {"rental_uris": {"android": "https://dc.lft.to/lastmile_qr_scan", "ios": "https://dc.lft.to/lastmile_qr_scan"}, "type": "electric_scooter", "lon": -76.97714766666667, "name": "a68f784d0c38455eb4383834ae745e73", "bike_id": "a68f784d0c38455eb4383834ae745e73", "fusion_lat": 0.0, "is_reserved": 0, "lat": 38.9002715, "fusion_lon": 0.0, "is_disabled": 0}, {"rental_uris": {"android": "https://dc.lft.to/lastmile_qr_scan", "ios": "https://dc.lft.to/lastmile_qr_scan"}, "type": "electric_scooter", "lon": -77.0223705, "name": "a76fe31f305aa30d46d622f3bbb10f62", "bike_id": "a76fe31f305aa30d46d622f3bbb10f62", "fusion_lat": 0.0, "is_reserved": 0, "lat": 38.9135705, "fusion_lon": 0.0, "is_disabled": 0}, {"rental_uris": {"android": "https://dc.lft.to/lastmile_qr_scan", "ios": "https://dc.lft.to/lastmile_qr_scan"}, "type": "electric_scooter", "lon": -77.04701683333333, "name": "312af514a70c6b0a6f00e074f4a857fa", "bike_id": "312af514a70c6b0a6f00e074f4a857fa", "fusion_lat": 0.0, "is_reserved": 0, "lat": 38.91257316666667, "fusion_lon": 0.0, "is_disabled": 0}, {"rental_uris": {"android": "https://dc.lft.to/lastmile_qr_scan", "ios": "https://dc.lft.to/lastmile_qr_scan"}, "type": "electric_scooter", "lon": -77.02793733333333, "name": "892744d644d67093832f6032ce5fba76", "bike_id": "892744d644d67093832f6032ce5fba76", "fusion_lat": 0.0, "is_reserved": 0, "lat": 38.96144233333333, "fusion_lon": 0.0, "is_disabled": 0}, {"rental_uris": {"android": "https://dc.lft.to/lastmile_qr_scan", "ios": "https://dc.lft.to/lastmile_qr_scan"}, "type": "electric_scooter", "lon": -77.03410866666667, "name": "03571ca4424ef3f7ce0bd1dccece48fd", "bike_id": "03571ca4424ef3f7ce0bd1dccece48fd", "fusion_lat": 0.0, "is_reserved": 0, "lat": 38.90330616666667, "fusion_lon": 0.0, "is_disabled": 0}, {"rental_uris": {"android": "https://dc.lft.to/lastmile_qr_scan", "ios": "https://dc.lft.to/lastmile_qr_scan"}, "type": "electric_scooter", "lon": -77.03945816666666, "name": "365d32b566fdf41ccee4550596c50699", "bike_id": "365d32b566fdf41ccee4550596c50699", "fusion_lat": 0.0, "is_reserved": 0, "lat": 38.90442516666667, "fusion_lon": 0.0, "is_disabled": 0}, {"rental_uris": {"android": "https://dc.lft.to/lastmile_qr_scan", "ios": "https://dc.lft.to/lastmile_qr_scan"}, "type": "electric_scooter", "lon": -77.04643166666666, "name": "1b8506b72219551c71804f19ab40d59a", "bike_id": "1b8506b72219551c71804f19ab40d59a", "fusion_lat": 0.0, "is_reserved": 0, "lat": 38.90501233333333, "fusion_lon": 0.0, "is_disabled": 0}, {"rental_uris": {"android": "https://dc.lft.to/lastmile_qr_scan", "ios": "https://dc.lft.to/lastmile_qr_scan"}, "type": "electric_scooter", "lon": -77.0328025, "name": "fa99f9a8bb415c3f3156278593b7ee0f", "bike_id": "fa99f9a8bb415c3f3156278593b7ee0f", "fusion_lat": 0.0, "is_reserved": 0, "lat": 38.93986983333333, "fusion_lon": 0.0, "is_disabled": 0}, {"rental_uris": {"android": "https://dc.lft.to/lastmile_qr_scan", "ios": "https://dc.lft.to/lastmile_qr_scan"}, "type": "electric_scooter", "lon": -77.02718466666667, "name": "0a84bab219dc2e4485155e0d6adab731", "bike_id": "0a84bab219dc2e4485155e0d6adab731", "fusion_lat": 0.0, "is_reserved": 0, "lat": 38.934057833333334, "fusion_lon": 0.0, "is_disabled": 0}, {"rental_uris": {"android": "https://dc.lft.to/lastmile_qr_scan", "ios": "https://dc.lft.to/lastmile_qr_scan"}, "type": "electric_scooter", "lon": -77.03201783333333, "name": "2514556ae1ca848b21e0acba88b97dfc", "bike_id": "2514556ae1ca848b21e0acba88b97dfc", "fusion_lat": 0.0, "is_reserved": 0, "lat": 38.909177166666666, "fusion_lon": 0.0, "is_disabled": 0}, {"rental_uris": {"android": "https://dc.lft.to/lastmile_qr_scan", "ios": "https://dc.lft.to/lastmile_qr_scan"}, "type": "electric_scooter", "lon": -77.05625016666667, "name": "0a89bed7aeeb08f4301909ced940ca89", "bike_id": "0a89bed7aeeb08f4301909ced940ca89", "fusion_lat": 0.0, "is_reserved": 0, "lat": 38.92409416666667, "fusion_lon": 0.0, "is_disabled": 0}, {"rental_uris": {"android": "https://dc.lft.to/lastmile_qr_scan", "ios": "https://dc.lft.to/lastmile_qr_scan"}, "type": "electric_scooter", "lon": -77.091905, "name": "17498a9955443fb3fe570a8e70e075ee", "bike_id": "17498a9955443fb3fe570a8e70e075ee", "fusion_lat": 0.0, "is_reserved": 0, "lat": 38.91710783333333, "fusion_lon": 0.0, "is_disabled": 0}, {"rental_uris": {"android": "https://dc.lft.to/lastmile_qr_scan", "ios": "https://dc.lft.to/lastmile_qr_scan"}, "type": "electric_scooter", "lon": -77.02582033333333, "name": "0e20e9580b58943a2eb821346a78abfe", "bike_id": "0e20e9580b58943a2eb821346a78abfe", "fusion_lat": 0.0, "is_reserved": 0, "lat": 38.90489066666667, "fusion_lon": 0.0, "is_disabled": 0}, {"rental_uris": {"android": "https://dc.lft.to/lastmile_qr_scan", "ios": "https://dc.lft.to/lastmile_qr_scan"}, "type": "electric_scooter", "lon": -77.02757833333334, "name": "9f752be5cfb2d1d4321df21da013f7ca", "bike_id": "9f752be5cfb2d1d4321df21da013f7ca", "fusion_lat": 0.0, "is_reserved": 0, "lat": 38.9238435, "fusion_lon": 0.0, "is_disabled": 0}, {"rental_uris": {"android": "https://dc.lft.to/lastmile_qr_scan", "ios": "https://dc.lft.to/lastmile_qr_scan"}, "type": "electric_scooter", "lon": -77.0498575, "name": "3961bc2abd23e791f396fcccf4d479df", "bike_id": "3961bc2abd23e791f396fcccf4d479df", "fusion_lat": 0.0, "is_reserved": 0, "lat": 38.900915833333336, "fusion_lon": 0.0, "is_disabled": 0}, {"rental_uris": {"android": "https://dc.lft.to/lastmile_qr_scan", "ios": "https://dc.lft.to/lastmile_qr_scan"}, "type": "electric_scooter", "lon": -77.00446466666666, "name": "443dda37509666447a0c52b7c5975de6", "bike_id": "443dda37509666447a0c52b7c5975de6", "fusion_lat": 0.0, "is_reserved": 0, "lat": 38.92893883333333, "fusion_lon": 0.0, "is_disabled": 0}, {"rental_uris": {"android": "https://dc.lft.to/lastmile_qr_scan", "ios": "https://dc.lft.to/lastmile_qr_scan"}, "type": "electric_scooter", "lon": -77.04961, "name": "9178e074755d9eb3463230e7fadecf79", "bike_id": "9178e074755d9eb3463230e7fadecf79", "fusion_lat": 0.0, "is_reserved": 0, "lat": 38.91257183333333, "fusion_lon": 0.0, "is_disabled": 0}, {"rental_uris": {"android": "https://dc.lft.to/lastmile_qr_scan", "ios": "https://dc.lft.to/lastmile_qr_scan"}, "type": "electric_scooter", "lon": -76.98775866666666, "name": "db7e3336496a3588c9deb732151bd3be", "bike_id": "db7e3336496a3588c9deb732151bd3be", "fusion_lat": 0.0, "is_reserved": 0, "lat": 38.9003445, "fusion_lon": 0.0, "is_disabled": 0}, {"rental_uris": {"android": "https://dc.lft.to/lastmile_qr_scan", "ios": "https://dc.lft.to/lastmile_qr_scan"}, "type": "electric_scooter", "lon": -76.9902475, "name": "faa02f7413150082f73a3384d4aac033", "bike_id": "faa02f7413150082f73a3384d4aac033", "fusion_lat": 0.0, "is_reserved": 0, "lat": 38.864065333333336, "fusion_lon": 0.0, "is_disabled": 0}, {"rental_uris": {"android": "https://dc.lft.to/lastmile_qr_scan", "ios": "https://dc.lft.to/lastmile_qr_scan"}, "type": "electric_bike", "lon": -76.92343483333333, "name": "5a8b7fa9258aec37ca5e90f188e8b5b5", "bike_id": "5a8b7fa9258aec37ca5e90f188e8b5b5", "fusion_lat": 0.0, "is_reserved": 0, "lat": 38.88783933333333, "fusion_lon": 0.0, "is_disabled": 0}, {"rental_uris": {"android": "https://dc.lft.to/lastmile_qr_scan", "ios": "https://dc.lft.to/lastmile_qr_scan"}, "type": "electric_bike", "lon": -77.02976133333334, "name": "17421865a9e5908813bf826443ee131e", "bike_id": "17421865a9e5908813bf826443ee131e", "fusion_lat": 0.0, "is_reserved": 0, "lat": 38.9370065, "fusion_lon": 0.0, "is_disabled": 0}, {"rental_uris": {"android": "https://dc.lft.to/lastmile_qr_scan", "ios": "https://dc.lft.to/lastmile_qr_scan"}, "type": "electric_scooter", "lon": -77.03505916666667, "name": "af6cbe085844831f0047bdf4ebfc3e24", "bike_id": "af6cbe085844831f0047bdf4ebfc3e24", "fusion_lat": 0.0, "is_reserved": 0, "lat": 38.921424, "fusion_lon": 0.0, "is_disabled": 0}, {"rental_uris": {"android": "https://dc.lft.to/lastmile_qr_scan", "ios": "https://dc.lft.to/lastmile_qr_scan"}, "type": "electric_scooter", "lon": -77.0422145, "name": "a39bc6452e7706ec5c3431d48f84f905", "bike_id": "a39bc6452e7706ec5c3431d48f84f905", "fusion_lat": 0.0, "is_reserved": 0, "lat": 38.92624966666666, "fusion_lon": 0.0, "is_disabled": 0}, {"rental_uris": {"android": "https://dc.lft.to/lastmile_qr_scan", "ios": "https://dc.lft.to/lastmile_qr_scan"}, "type": "electric_scooter", "lon": -77.02984166666667, "name": "43a4152193b0cc0225e9c42e60f9b318", "bike_id": "43a4152193b0cc0225e9c42e60f9b318", "fusion_lat": 0.0, "is_reserved": 0, "lat": 38.937575333333335, "fusion_lon": 0.0, "is_disabled": 0}, {"rental_uris": {"android": "https://dc.lft.to/lastmile_qr_scan", "ios": "https://dc.lft.to/lastmile_qr_scan"}, "type": "electric_scooter", "lon": -77.072727, "name": "96f9717d9356d85a164393776105de88", "bike_id": "96f9717d9356d85a164393776105de88", "fusion_lat": 0.0, "is_reserved": 0, "lat": 38.93480816666667, "fusion_lon": 0.0, "is_disabled": 0}, {"rental_uris": {"android": "https://dc.lft.to/lastmile_qr_scan", "ios": "https://dc.lft.to/lastmile_qr_scan"}, "type": "electric_bike", "lon": -77.05172166666667, "name": "42fe329eb47a33e178ea30b796e09e5b", "bike_id": "42fe329eb47a33e178ea30b796e09e5b", "fusion_lat": 0.0, "is_reserved": 0, "lat": 38.9031475, "fusion_lon": 0.0, "is_disabled": 0}, {"rental_uris": {"android": "https://dc.lft.to/lastmile_qr_scan", "ios": "https://dc.lft.to/lastmile_qr_scan"}, "type": "electric_scooter", "lon": -77.0378305, "name": "8817e7f0f21b9613a0270d92e71f3c6c", "bike_id": "8817e7f0f21b9613a0270d92e71f3c6c", "fusion_lat": 0.0, "is_reserved": 0, "lat": 38.926274666666664, "fusion_lon": 0.0, "is_disabled": 0}, {"rental_uris": {"android": "https://dc.lft.to/lastmile_qr_scan", "ios": "https://dc.lft.to/lastmile_qr_scan"}, "type": "electric_scooter", "lon": -77.03280466666666, "name": "5a3fb2b1c43849a4139920736b35a9bc", "bike_id": "5a3fb2b1c43849a4139920736b35a9bc", "fusion_lat": 0.0, "is_reserved": 0, "lat": 38.89881033333333, "fusion_lon": 0.0, "is_disabled": 0}, {"rental_uris": {"android": "https://dc.lft.to/lastmile_qr_scan", "ios": "https://dc.lft.to/lastmile_qr_scan"}, "type": "electric_bike", "lon": -76.9638785, "name": "ae7f4ea324318d54f4c0ca7225f552af", "bike_id": "ae7f4ea324318d54f4c0ca7225f552af", "fusion_lat": 0.0, "is_reserved": 0, "lat": 38.97574216666667, "fusion_lon": 0.0, "is_disabled": 0}, {"rental_uris": {"android": "https://dc.lft.to/lastmile_qr_scan", "ios": "https://dc.lft.to/lastmile_qr_scan"}, "type": "electric_scooter", "lon": -77.02352183333333, "name": "d11c3cc3d75c621b6e2fdc45d3a0497b", "bike_id": "d11c3cc3d75c621b6e2fdc45d3a0497b", "fusion_lat": 0.0, "is_reserved": 0, "lat": 38.904211, "fusion_lon": 0.0, "is_disabled": 0}, {"rental_uris": {"android": "https://dc.lft.to/lastmile_qr_scan", "ios": "https://dc.lft.to/lastmile_qr_scan"}, "type": "electric_bike", "lon": -76.9487045, "name": "e9711b2a61b4e949954f3715554be909", "bike_id": "e9711b2a61b4e949954f3715554be909", "fusion_lat": 0.0, "is_reserved": 0, "lat": 38.889710666666666, "fusion_lon": 0.0, "is_disabled": 0}, {"rental_uris": {"android": "https://dc.lft.to/lastmile_qr_scan", "ios": "https://dc.lft.to/lastmile_qr_scan"}, "type": "electric_bike", "lon": -76.9852415, "name": "388274583362bf121231db1381e9ea7f", "bike_id": "388274583362bf121231db1381e9ea7f", "fusion_lat": 0.0, "is_reserved": 0, "lat": 38.919966333333335, "fusion_lon": 0.0, "is_disabled": 0}, {"rental_uris": {"android": "https://dc.lft.to/lastmile_qr_scan", "ios": "https://dc.lft.to/lastmile_qr_scan"}, "type": "electric_scooter", "lon": -76.987744, "name": "769f8a965901801d77ae50b6b8e3a7d0", "bike_id": "769f8a965901801d77ae50b6b8e3a7d0", "fusion_lat": 0.0, "is_reserved": 0, "lat": 38.90030316666667, "fusion_lon": 0.0, "is_disabled": 0}, {"rental_uris": {"android": "https://dc.lft.to/lastmile_qr_scan", "ios": "https://dc.lft.to/lastmile_qr_scan"}, "type": "electric_scooter", "lon": -77.0295505, "name": "fec17800ce4e793d62225a211ff1c457", "bike_id": "fec17800ce4e793d62225a211ff1c457", "fusion_lat": 0.0, "is_reserved": 0, "lat": 38.93246383333334, "fusion_lon": 0.0, "is_disabled": 0}, {"rental_uris": {"android": "https://dc.lft.to/lastmile_qr_scan", "ios": "https://dc.lft.to/lastmile_qr_scan"}, "type": "electric_scooter", "lon": -76.98776666666667, "name": "15713cbefd8ba57a2da7498f6133c184", "bike_id": "15713cbefd8ba57a2da7498f6133c184", "fusion_lat": 0.0, "is_reserved": 0, "lat": 38.900268, "fusion_lon": 0.0, "is_disabled": 0}, {"rental_uris": {"android": "https://dc.lft.to/lastmile_qr_scan", "ios": "https://dc.lft.to/lastmile_qr_scan"}, "type": "electric_bike", "lon": -76.87774233333333, "name": "1de23388755dc78e19e6f917fae9b5c3", "bike_id": "1de23388755dc78e19e6f917fae9b5c3", "fusion_lat": 0.0, "is_reserved": 0, "lat": 38.99231183333333, "fusion_lon": 0.0, "is_disabled": 0}, {"rental_uris": {"android": "https://dc.lft.to/lastmile_qr_scan", "ios": "https://dc.lft.to/lastmile_qr_scan"}, "type": "electric_scooter", "lon": -77.04333583333333, "name": "e94071eaa2dee507249b71a223d01c4c", "bike_id": "e94071eaa2dee507249b71a223d01c4c", "fusion_lat": 0.0, "is_reserved": 0, "lat": 38.908798833333336, "fusion_lon": 0.0, "is_disabled": 0}, {"rental_uris": {"android": "https://dc.lft.to/lastmile_qr_scan", "ios": "https://dc.lft.to/lastmile_qr_scan"}, "type": "electric_scooter", "lon": -77.0185645, "name": "c77c03d546d4e17595d8ff894d3cd885", "bike_id": "c77c03d546d4e17595d8ff894d3cd885", "fusion_lat": 0.0, "is_reserved": 0, "lat": 38.949214, "fusion_lon": 0.0, "is_disabled": 0}, {"rental_uris": {"android": "https://dc.lft.to/lastmile_qr_scan", "ios": "https://dc.lft.to/lastmile_qr_scan"}, "type": "electric_scooter", "lon": -77.04744516666666, "name": "bb132234f60cf89523885b04d0801c84", "bike_id": "bb132234f60cf89523885b04d0801c84", "fusion_lat": 0.0, "is_reserved": 0, "lat": 38.905295333333335, "fusion_lon": 0.0, "is_disabled": 0}, {"rental_uris": {"android": "https://dc.lft.to/lastmile_qr_scan", "ios": "https://dc.lft.to/lastmile_qr_scan"}, "type": "electric_scooter", "lon": -77.06350216666667, "name": "d287065edbd93d12b6b068e018b27963", "bike_id": "d287065edbd93d12b6b068e018b27963", "fusion_lat": 0.0, "is_reserved": 0, "lat": 38.94433383333333, "fusion_lon": 0.0, "is_disabled": 0}, {"rental_uris": {"android": "https://dc.lft.to/lastmile_qr_scan", "ios": "https://dc.lft.to/lastmile_qr_scan"}, "type": "electric_scooter", "lon": -77.021692, "name": "33eec25482989af7f9bdf4ff18e26f44", "bike_id": "33eec25482989af7f9bdf4ff18e26f44", "fusion_lat": 0.0, "is_reserved": 0, "lat": 38.8874785, "fusion_lon": 0.0, "is_disabled": 0}, {"rental_uris": {"android": "https://dc.lft.to/lastmile_qr_scan", "ios": "https://dc.lft.to/lastmile_qr_scan"}, "type": "electric_scooter", "lon": -77.05249733333333, "name": "51f316f52880c345805cb938117f88fc", "bike_id": "51f316f52880c345805cb938117f88fc", "fusion_lat": 0.0, "is_reserved": 0, "lat": 38.923803666666664, "fusion_lon": 0.0, "is_disabled": 0}, {"rental_uris": {"android": "https://dc.lft.to/lastmile_qr_scan", "ios": "https://dc.lft.to/lastmile_qr_scan"}, "type": "electric_scooter", "lon": -77.03261616666667, "name": "fed5f9c1de0d115ec9450c3ed3abbbd9", "bike_id": "fed5f9c1de0d115ec9450c3ed3abbbd9", "fusion_lat": 0.0, "is_reserved": 0, "lat": 38.902167666666664, "fusion_lon": 0.0, "is_disabled": 0}, {"rental_uris": {"android": "https://dc.lft.to/lastmile_qr_scan", "ios": "https://dc.lft.to/lastmile_qr_scan"}, "type": "electric_scooter", "lon": -77.05008316666667, "name": "a35714c748dbe3fc53336592b6880b21", "bike_id": "a35714c748dbe3fc53336592b6880b21", "fusion_lat": 0.0, "is_reserved": 0, "lat": 38.9055105, "fusion_lon": 0.0, "is_disabled": 0}, {"rental_uris": {"android": "https://dc.lft.to/lastmile_qr_scan", "ios": "https://dc.lft.to/lastmile_qr_scan"}, "type": "electric_scooter", "lon": -77.02828366666667, "name": "a5d626c775e231c6b11610e0fd0d1974", "bike_id": "a5d626c775e231c6b11610e0fd0d1974", "fusion_lat": 0.0, "is_reserved": 0, "lat": 38.93286116666667, "fusion_lon": 0.0, "is_disabled": 0}, {"rental_uris": {"android": "https://dc.lft.to/lastmile_qr_scan", "ios": "https://dc.lft.to/lastmile_qr_scan"}, "type": "electric_scooter", "lon": -77.04051116666666, "name": "c5959dbcf4f45fdcfa414129c9dde4b6", "bike_id": "c5959dbcf4f45fdcfa414129c9dde4b6", "fusion_lat": 0.0, "is_reserved": 0, "lat": 38.926434, "fusion_lon": 0.0, "is_disabled": 0}, {"rental_uris": {"android": "https://dc.lft.to/lastmile_qr_scan", "ios": "https://dc.lft.to/lastmile_qr_scan"}, "type": "electric_bike", "lon": -76.90531766666666, "name": "f15038ff707df48f1e3a807e6ac1fe36", "bike_id": "f15038ff707df48f1e3a807e6ac1fe36", "fusion_lat": 0.0, "is_reserved": 0, "lat": 38.89736216666667, "fusion_lon": 0.0, "is_disabled": 0}, {"rental_uris": {"android": "https://dc.lft.to/lastmile_qr_scan", "ios": "https://dc.lft.to/lastmile_qr_scan"}, "type": "electric_scooter", "lon": -77.008328, "name": "9c3e1b2648c9caeb31ddec0d44e07239", "bike_id": "9c3e1b2648c9caeb31ddec0d44e07239", "fusion_lat": 0.0, "is_reserved": 0, "lat": 38.9155095, "fusion_lon": 0.0, "is_disabled": 0}, {"rental_uris": {"android": "https://dc.lft.to/lastmile_qr_scan", "ios": "https://dc.lft.to/lastmile_qr_scan"}, "type": "electric_scooter", "lon": -77.03262716666667, "name": "ab97fa03a54e719c269562e2190225df", "bike_id": "ab97fa03a54e719c269562e2190225df", "fusion_lat": 0.0, "is_reserved": 0, "lat": 38.92870333333333, "fusion_lon": 0.0, "is_disabled": 0}, {"rental_uris": {"android": "https://dc.lft.to/lastmile_qr_scan", "ios": "https://dc.lft.to/lastmile_qr_scan"}, "type": "electric_bike", "lon": -77.0901595, "name": "951a7ddf7d57da77ee71bfcda26227dd", "bike_id": "951a7ddf7d57da77ee71bfcda26227dd", "fusion_lat": 0.0, "is_reserved": 0, "lat": 38.841176, "fusion_lon": 0.0, "is_disabled": 0}, {"rental_uris": {"android": "https://dc.lft.to/lastmile_qr_scan", "ios": "https://dc.lft.to/lastmile_qr_scan"}, "type": "electric_bike", "lon": -77.14987433333333, "name": "f8431b5b865cd4fadbfb97f2a1d48beb", "bike_id": "f8431b5b865cd4fadbfb97f2a1d48beb", "fusion_lat": 0.0, "is_reserved": 0, "lat": 39.094597, "fusion_lon": 0.0, "is_disabled": 0}, {"rental_uris": {"android": "https://dc.lft.to/lastmile_qr_scan", "ios": "https://dc.lft.to/lastmile_qr_scan"}, "type": "electric_scooter", "lon": -77.048825, "name": "0ef0c1f5db2bf6bd37970f3befdb0d3e", "bike_id": "0ef0c1f5db2bf6bd37970f3befdb0d3e", "fusion_lat": 0.0, "is_reserved": 0, "lat": 38.905616, "fusion_lon": 0.0, "is_disabled": 0}, {"rental_uris": {"android": "https://dc.lft.to/lastmile_qr_scan", "ios": "https://dc.lft.to/lastmile_qr_scan"}, "type": "electric_bike", "lon": -77.19911083333334, "name": "47b715128d965ba1b3bfc0a1e4e25e3a", "bike_id": "47b715128d965ba1b3bfc0a1e4e25e3a", "fusion_lat": 0.0, "is_reserved": 0, "lat": 38.8752895, "fusion_lon": 0.0, "is_disabled": 0}, {"rental_uris": {"android": "https://dc.lft.to/lastmile_qr_scan", "ios": "https://dc.lft.to/lastmile_qr_scan"}, "type": "electric_scooter", "lon": -77.073193, "name": "fef878841279672fc25441af0ab9cb1f", "bike_id": "fef878841279672fc25441af0ab9cb1f", "fusion_lat": 0.0, "is_reserved": 0, "lat": 38.91198266666667, "fusion_lon": 0.0, "is_disabled": 0}, {"rental_uris": {"android": "https://dc.lft.to/lastmile_qr_scan", "ios": "https://dc.lft.to/lastmile_qr_scan"}, "type": "electric_scooter", "lon": -77.04089983333333, "name": "4934bbf8355e132d8cd389d93aef7b78", "bike_id": "4934bbf8355e132d8cd389d93aef7b78", "fusion_lat": 0.0, "is_reserved": 0, "lat": 38.91110366666667, "fusion_lon": 0.0, "is_disabled": 0}, {"rental_uris": {"android": "https://dc.lft.to/lastmile_qr_scan", "ios": "https://dc.lft.to/lastmile_qr_scan"}, "type": "electric_scooter", "lon": -77.038893, "name": "79c3dea104622146c09d505d1e10bf74", "bike_id": "79c3dea104622146c09d505d1e10bf74", "fusion_lat": 0.0, "is_reserved": 0, "lat": 38.934156333333334, "fusion_lon": 0.0, "is_disabled": 0}, {"rental_uris": {"android": "https://dc.lft.to/lastmile_qr_scan", "ios": "https://dc.lft.to/lastmile_qr_scan"}, "type": "electric_bike", "lon": -76.975547, "name": "59c4df76d344bad4f3fb3b0acf014ee9", "bike_id": "59c4df76d344bad4f3fb3b0acf014ee9", "fusion_lat": 0.0, "is_reserved": 0, "lat": 38.92453166666667, "fusion_lon": 0.0, "is_disabled": 0}, {"rental_uris": {"android": "https://dc.lft.to/lastmile_qr_scan", "ios": "https://dc.lft.to/lastmile_qr_scan"}, "type": "electric_scooter", "lon": -77.0385645, "name": "325051334b51c5a0b02c9d6b607dd4de", "bike_id": "325051334b51c5a0b02c9d6b607dd4de", "fusion_lat": 0.0, "is_reserved": 0, "lat": 38.90996783333333, "fusion_lon": 0.0, "is_disabled": 0}, {"rental_uris": {"android": "https://dc.lft.to/lastmile_qr_scan", "ios": "https://dc.lft.to/lastmile_qr_scan"}, "type": "electric_scooter", "lon": -76.992233, "name": "b59cc1cc546596eb5860b13e89bd4c7a", "bike_id": "b59cc1cc546596eb5860b13e89bd4c7a", "fusion_lat": 0.0, "is_reserved": 0, "lat": 38.898890333333334, "fusion_lon": 0.0, "is_disabled": 0}, {"rental_uris": {"android": "https://dc.lft.to/lastmile_qr_scan", "ios": "https://dc.lft.to/lastmile_qr_scan"}, "type": "electric_scooter", "lon": -76.954121, "name": "fce9f8563d58b52aa1fcae1456a5fc28", "bike_id": "fce9f8563d58b52aa1fcae1456a5fc28", "fusion_lat": 0.0, "is_reserved": 0, "lat": 38.88406916666667, "fusion_lon": 0.0, "is_disabled": 0}, {"rental_uris": {"android": "https://dc.lft.to/lastmile_qr_scan", "ios": "https://dc.lft.to/lastmile_qr_scan"}, "type": "electric_scooter", "lon": -77.02698516666666, "name": "8b06fb53e57c9bae8493e0ad6d7706f6", "bike_id": "8b06fb53e57c9bae8493e0ad6d7706f6", "fusion_lat": 0.0, "is_reserved": 0, "lat": 38.88149833333333, "fusion_lon": 0.0, "is_disabled": 0}, {"rental_uris": {"android": "https://dc.lft.to/lastmile_qr_scan", "ios": "https://dc.lft.to/lastmile_qr_scan"}, "type": "electric_scooter", "lon": -77.02324316666666, "name": "a6e9a81a3e71d5a5ea1ac5eb66a105fc", "bike_id": "a6e9a81a3e71d5a5ea1ac5eb66a105fc", "fusion_lat": 0.0, "is_reserved": 0, "lat": 38.92714816666667, "fusion_lon": 0.0, "is_disabled": 0}, {"rental_uris": {"android": "https://dc.lft.to/lastmile_qr_scan", "ios": "https://dc.lft.to/lastmile_qr_scan"}, "type": "electric_scooter", "lon": -77.03299316666667, "name": "c871b4f3d9d7d42ee632220f3bcea1a4", "bike_id": "c871b4f3d9d7d42ee632220f3bcea1a4", "fusion_lat": 0.0, "is_reserved": 0, "lat": 38.928526, "fusion_lon": 0.0, "is_disabled": 0}, {"rental_uris": {"android": "https://dc.lft.to/lastmile_qr_scan", "ios": "https://dc.lft.to/lastmile_qr_scan"}, "type": "electric_scooter", "lon": -76.93260933333333, "name": "561ce69e13a8b4208af33eda7e3d1e22", "bike_id": "561ce69e13a8b4208af33eda7e3d1e22", "fusion_lat": 0.0, "is_reserved": 0, "lat": 38.88773416666667, "fusion_lon": 0.0, "is_disabled": 0}, {"rental_uris": {"android": "https://dc.lft.to/lastmile_qr_scan", "ios": "https://dc.lft.to/lastmile_qr_scan"}, "type": "electric_scooter", "lon": -77.01226266666667, "name": "c60936929a99864fd30ffaf943e236ff", "bike_id": "c60936929a99864fd30ffaf943e236ff", "fusion_lat": 0.0, "is_reserved": 0, "lat": 38.913539166666666, "fusion_lon": 0.0, "is_disabled": 0}, {"rental_uris": {"android": "https://dc.lft.to/lastmile_qr_scan", "ios": "https://dc.lft.to/lastmile_qr_scan"}, "type": "electric_scooter", "lon": -77.00363233333333, "name": "f9a535b50afaccda70b6cbd0bfe079be", "bike_id": "f9a535b50afaccda70b6cbd0bfe079be", "fusion_lat": 0.0, "is_reserved": 0, "lat": 38.91757283333333, "fusion_lon": 0.0, "is_disabled": 0}, {"rental_uris": {"android": "https://dc.lft.to/lastmile_qr_scan", "ios": "https://dc.lft.to/lastmile_qr_scan"}, "type": "electric_scooter", "lon": -77.04653766666667, "name": "d4d965488b01f8e9926880ca5c546b84", "bike_id": "d4d965488b01f8e9926880ca5c546b84", "fusion_lat": 0.0, "is_reserved": 0, "lat": 38.893403666666664, "fusion_lon": 0.0, "is_disabled": 0}, {"rental_uris": {"android": "https://dc.lft.to/lastmile_qr_scan", "ios": "https://dc.lft.to/lastmile_qr_scan"}, "type": "electric_scooter", "lon": -77.04157833333333, "name": "561e69d90c4ba852602a6c2fa4b0e69a", "bike_id": "561e69d90c4ba852602a6c2fa4b0e69a", "fusion_lat": 0.0, "is_reserved": 0, "lat": 38.916132833333336, "fusion_lon": 0.0, "is_disabled": 0}, {"rental_uris": {"android": "https://dc.lft.to/lastmile_qr_scan", "ios": "https://dc.lft.to/lastmile_qr_scan"}, "type": "electric_scooter", "lon": -76.986151, "name": "192858ead5e123257bac4eab6af9810e", "bike_id": "192858ead5e123257bac4eab6af9810e", "fusion_lat": 0.0, "is_reserved": 0, "lat": 38.906938, "fusion_lon": 0.0, "is_disabled": 0}, {"rental_uris": {"android": "https://dc.lft.to/lastmile_qr_scan", "ios": "https://dc.lft.to/lastmile_qr_scan"}, "type": "electric_bike", "lon": -76.956809, "name": "0185b48b37aa81542e39fde99fe9a939", "bike_id": "0185b48b37aa81542e39fde99fe9a939", "fusion_lat": 0.0, "is_reserved": 0, "lat": 38.947307, "fusion_lon": 0.0, "is_disabled": 0}, {"rental_uris": {"android": "https://dc.lft.to/lastmile_qr_scan", "ios": "https://dc.lft.to/lastmile_qr_scan"}, "type": "electric_scooter", "lon": -77.038766, "name": "93c7430eb80c59f0c95823c87299dc96", "bike_id": "93c7430eb80c59f0c95823c87299dc96", "fusion_lat": 0.0, "is_reserved": 0, "lat": 38.93247433333333, "fusion_lon": 0.0, "is_disabled": 0}, {"rental_uris": {"android": "https://dc.lft.to/lastmile_qr_scan", "ios": "https://dc.lft.to/lastmile_qr_scan"}, "type": "electric_scooter", "lon": -77.04659516666666, "name": "96367135f613ae76b006edd82068fdbb", "bike_id": "96367135f613ae76b006edd82068fdbb", "fusion_lat": 0.0, "is_reserved": 0, "lat": 38.899164, "fusion_lon": 0.0, "is_disabled": 0}, {"rental_uris": {"android": "https://dc.lft.to/lastmile_qr_scan", "ios": "https://dc.lft.to/lastmile_qr_scan"}, "type": "electric_scooter", "lon": -77.01119833333334, "name": "d2bb0aff0015c6e48fac06523ebbf2ff", "bike_id": "d2bb0aff0015c6e48fac06523ebbf2ff", "fusion_lat": 0.0, "is_reserved": 0, "lat": 38.870745, "fusion_lon": 0.0, "is_disabled": 0}, {"rental_uris": {"android": "https://dc.lft.to/lastmile_qr_scan", "ios": "https://dc.lft.to/lastmile_qr_scan"}, "type": "electric_scooter", "lon": -76.98871583333333, "name": "313f05ebc0cb0a700b63b8c11e9ec016", "bike_id": "313f05ebc0cb0a700b63b8c11e9ec016", "fusion_lat": 0.0, "is_reserved": 0, "lat": 38.90634933333333, "fusion_lon": 0.0, "is_disabled": 0}, {"rental_uris": {"android": "https://dc.lft.to/lastmile_qr_scan", "ios": "https://dc.lft.to/lastmile_qr_scan"}, "type": "electric_scooter", "lon": -77.02389133333334, "name": "2de32625716979ad8a6494094bcfe625", "bike_id": "2de32625716979ad8a6494094bcfe625", "fusion_lat": 0.0, "is_reserved": 0, "lat": 38.907236, "fusion_lon": 0.0, "is_disabled": 0}, {"rental_uris": {"android": "https://dc.lft.to/lastmile_qr_scan", "ios": "https://dc.lft.to/lastmile_qr_scan"}, "type": "electric_scooter", "lon": -77.0152055, "name": "9080a1cd841286d896312f2ec308e3de", "bike_id": "9080a1cd841286d896312f2ec308e3de", "fusion_lat": 0.0, "is_reserved": 0, "lat": 38.913509166666664, "fusion_lon": 0.0, "is_disabled": 0}, {"rental_uris": {"android": "https://dc.lft.to/lastmile_qr_scan", "ios": "https://dc.lft.to/lastmile_qr_scan"}, "type": "electric_scooter", "lon": -77.02207283333334, "name": "1eaa820d2fa49a626fed7f914aa8072b", "bike_id": "1eaa820d2fa49a626fed7f914aa8072b", "fusion_lat": 0.0, "is_reserved": 0, "lat": 38.90572866666667, "fusion_lon": 0.0, "is_disabled": 0}, {"rental_uris": {"android": "https://dc.lft.to/lastmile_qr_scan", "ios": "https://dc.lft.to/lastmile_qr_scan"}, "type": "electric_scooter", "lon": -77.043301, "name": "54a73c879a2f8c964a441af647ff9222", "bike_id": "54a73c879a2f8c964a441af647ff9222", "fusion_lat": 0.0, "is_reserved": 0, "lat": 38.905061, "fusion_lon": 0.0, "is_disabled": 0}, {"rental_uris": {"android": "https://dc.lft.to/lastmile_qr_scan", "ios": "https://dc.lft.to/lastmile_qr_scan"}, "type": "electric_scooter", "lon": -77.02684933333333, "name": "cf7ca441105db946e3f124e3162d64c9", "bike_id": "cf7ca441105db946e3f124e3162d64c9", "fusion_lat": 0.0, "is_reserved": 0, "lat": 38.983997333333335, "fusion_lon": 0.0, "is_disabled": 0}, {"rental_uris": {"android": "https://dc.lft.to/lastmile_qr_scan", "ios": "https://dc.lft.to/lastmile_qr_scan"}, "type": "electric_scooter", "lon": -76.98475233333333, "name": "218b3bb7d4164b877d1d6c39e5c81781", "bike_id": "218b3bb7d4164b877d1d6c39e5c81781", "fusion_lat": 0.0, "is_reserved": 0, "lat": 38.908574333333334, "fusion_lon": 0.0, "is_disabled": 0}, {"rental_uris": {"android": "https://dc.lft.to/lastmile_qr_scan", "ios": "https://dc.lft.to/lastmile_qr_scan"}, "type": "electric_scooter", "lon": -77.00596516666667, "name": "81082edc1eff98f2f6c83e3c1369181b", "bike_id": "81082edc1eff98f2f6c83e3c1369181b", "fusion_lat": 0.0, "is_reserved": 0, "lat": 38.905505, "fusion_lon": 0.0, "is_disabled": 0}, {"rental_uris": {"android": "https://dc.lft.to/lastmile_qr_scan", "ios": "https://dc.lft.to/lastmile_qr_scan"}, "type": "electric_scooter", "lon": -76.95107266666666, "name": "2c51aa26bbf6143902496492aca6ace9", "bike_id": "2c51aa26bbf6143902496492aca6ace9", "fusion_lat": 0.0, "is_reserved": 0, "lat": 38.88795133333333, "fusion_lon": 0.0, "is_disabled": 0}, {"rental_uris": {"android": "https://dc.lft.to/lastmile_qr_scan", "ios": "https://dc.lft.to/lastmile_qr_scan"}, "type": "electric_scooter", "lon": -77.021736, "name": "0ea3a72cfc67fe55242e608c9baa31e0", "bike_id": "0ea3a72cfc67fe55242e608c9baa31e0", "fusion_lat": 0.0, "is_reserved": 0, "lat": 38.89609383333333, "fusion_lon": 0.0, "is_disabled": 0}, {"rental_uris": {"android": "https://dc.lft.to/lastmile_qr_scan", "ios": "https://dc.lft.to/lastmile_qr_scan"}, "type": "electric_bike", "lon": -77.08046166666666, "name": "f22faa14e2a62de1f74cd4bf37adc903", "bike_id": "f22faa14e2a62de1f74cd4bf37adc903", "fusion_lat": 0.0, "is_reserved": 0, "lat": 38.848427, "fusion_lon": 0.0, "is_disabled": 0}, {"rental_uris": {"android": "https://dc.lft.to/lastmile_qr_scan", "ios": "https://dc.lft.to/lastmile_qr_scan"}, "type": "electric_bike", "lon": -76.98170333333333, "name": "b1fae356990c1acb87300c9c3e961575", "bike_id": "b1fae356990c1acb87300c9c3e961575", "fusion_lat": 0.0, "is_reserved": 0, "lat": 38.959667, "fusion_lon": 0.0, "is_disabled": 0}, {"rental_uris": {"android": "https://dc.lft.to/lastmile_qr_scan", "ios": "https://dc.lft.to/lastmile_qr_scan"}, "type": "electric_scooter", "lon": -77.04371883333333, "name": "0419ddd8c4c4ee9b4b1f6ae05fc4efce", "bike_id": "0419ddd8c4c4ee9b4b1f6ae05fc4efce", "fusion_lat": 0.0, "is_reserved": 0, "lat": 38.925779, "fusion_lon": 0.0, "is_disabled": 0}, {"rental_uris": {"android": "https://dc.lft.to/lastmile_qr_scan", "ios": "https://dc.lft.to/lastmile_qr_scan"}, "type": "electric_scooter", "lon": -76.994574, "name": "7233d11bd08859e380f8f5074241f36f", "bike_id": "7233d11bd08859e380f8f5074241f36f", "fusion_lat": 0.0, "is_reserved": 0, "lat": 38.85161866666667, "fusion_lon": 0.0, "is_disabled": 0}, {"rental_uris": {"android": "https://dc.lft.to/lastmile_qr_scan", "ios": "https://dc.lft.to/lastmile_qr_scan"}, "type": "electric_scooter", "lon": -76.99134266666667, "name": "3b319fd52c9da3a1b6dbe46bfcfbc046", "bike_id": "3b319fd52c9da3a1b6dbe46bfcfbc046", "fusion_lat": 0.0, "is_reserved": 0, "lat": 38.882231166666664, "fusion_lon": 0.0, "is_disabled": 0}, {"rental_uris": {"android": "https://dc.lft.to/lastmile_qr_scan", "ios": "https://dc.lft.to/lastmile_qr_scan"}, "type": "electric_scooter", "lon": -77.01050283333333, "name": "cef0fc4104e25a7fa0db7eaa09da973f", "bike_id": "cef0fc4104e25a7fa0db7eaa09da973f", "fusion_lat": 0.0, "is_reserved": 0, "lat": 38.92987333333333, "fusion_lon": 0.0, "is_disabled": 0}, {"rental_uris": {"android": "https://dc.lft.to/lastmile_qr_scan", "ios": "https://dc.lft.to/lastmile_qr_scan"}, "type": "electric_scooter", "lon": -77.04316866666667, "name": "117c82e866276e062013c880ab8f2e67", "bike_id": "117c82e866276e062013c880ab8f2e67", "fusion_lat": 0.0, "is_reserved": 0, "lat": 38.89222633333333, "fusion_lon": 0.0, "is_disabled": 0}, {"rental_uris": {"android": "https://dc.lft.to/lastmile_qr_scan", "ios": "https://dc.lft.to/lastmile_qr_scan"}, "type": "electric_bike", "lon": -77.01681233333333, "name": "cac8d7a99e0846c9742e99326672c0ec", "bike_id": "cac8d7a99e0846c9742e99326672c0ec", "fusion_lat": 0.0, "is_reserved": 0, "lat": 38.97523016666667, "fusion_lon": 0.0, "is_disabled": 0}, {"rental_uris": {"android": "https://dc.lft.to/lastmile_qr_scan", "ios": "https://dc.lft.to/lastmile_qr_scan"}, "type": "electric_scooter", "lon": -77.03837466666667, "name": "49b7a7c9c1bf045e2c67999950a04317", "bike_id": "49b7a7c9c1bf045e2c67999950a04317", "fusion_lat": 0.0, "is_reserved": 0, "lat": 38.915601333333335, "fusion_lon": 0.0, "is_disabled": 0}, {"rental_uris": {"android": "https://dc.lft.to/lastmile_qr_scan", "ios": "https://dc.lft.to/lastmile_qr_scan"}, "type": "electric_scooter", "lon": -77.04670483333334, "name": "4cd0a937e3b52bf308ae911c77d0d586", "bike_id": "4cd0a937e3b52bf308ae911c77d0d586", "fusion_lat": 0.0, "is_reserved": 0, "lat": 38.9084575, "fusion_lon": 0.0, "is_disabled": 0}, {"rental_uris": {"android": "https://dc.lft.to/lastmile_qr_scan", "ios": "https://dc.lft.to/lastmile_qr_scan"}, "type": "electric_bike", "lon": -77.06471316666666, "name": "158da6771f4d91a9374f2d7032759a5b", "bike_id": "158da6771f4d91a9374f2d7032759a5b", "fusion_lat": 0.0, "is_reserved": 0, "lat": 38.97382833333333, "fusion_lon": 0.0, "is_disabled": 0}, {"rental_uris": {"android": "https://dc.lft.to/lastmile_qr_scan", "ios": "https://dc.lft.to/lastmile_qr_scan"}, "type": "electric_scooter", "lon": -77.04227983333334, "name": "08c4f70a96a17eee8cb7b5a1d53750b3", "bike_id": "08c4f70a96a17eee8cb7b5a1d53750b3", "fusion_lat": 0.0, "is_reserved": 0, "lat": 38.911098, "fusion_lon": 0.0, "is_disabled": 0}, {"rental_uris": {"android": "https://dc.lft.to/lastmile_qr_scan", "ios": "https://dc.lft.to/lastmile_qr_scan"}, "type": "electric_scooter", "lon": -77.0330395, "name": "27a7763991db10e0ae609b0e86c3f3ab", "bike_id": "27a7763991db10e0ae609b0e86c3f3ab", "fusion_lat": 0.0, "is_reserved": 0, "lat": 38.90357683333333, "fusion_lon": 0.0, "is_disabled": 0}, {"rental_uris": {"android": "https://dc.lft.to/lastmile_qr_scan", "ios": "https://dc.lft.to/lastmile_qr_scan"}, "type": "electric_scooter", "lon": -76.991664, "name": "7c243f9b9701cb1cb882c8aa4dcf05d4", "bike_id": "7c243f9b9701cb1cb882c8aa4dcf05d4", "fusion_lat": 0.0, "is_reserved": 0, "lat": 38.87925833333333, "fusion_lon": 0.0, "is_disabled": 0}, {"rental_uris": {"android": "https://dc.lft.to/lastmile_qr_scan", "ios": "https://dc.lft.to/lastmile_qr_scan"}, "type": "electric_scooter", "lon": -76.994955, "name": "d8a3702605bb8bfa2df76b495f3310a8", "bike_id": "d8a3702605bb8bfa2df76b495f3310a8", "fusion_lat": 0.0, "is_reserved": 0, "lat": 38.92666216666667, "fusion_lon": 0.0, "is_disabled": 0}, {"rental_uris": {"android": "https://dc.lft.to/lastmile_qr_scan", "ios": "https://dc.lft.to/lastmile_qr_scan"}, "type": "electric_scooter", "lon": -77.01211766666667, "name": "f9fe64b9daae6cd102b5630bd89f6742", "bike_id": "f9fe64b9daae6cd102b5630bd89f6742", "fusion_lat": 0.0, "is_reserved": 0, "lat": 38.9066755, "fusion_lon": 0.0, "is_disabled": 0}, {"rental_uris": {"android": "https://dc.lft.to/lastmile_qr_scan", "ios": "https://dc.lft.to/lastmile_qr_scan"}, "type": "electric_scooter", "lon": -77.02414866666666, "name": "ac6ce4ea4b21abcf132ff2e2678b2ddd", "bike_id": "ac6ce4ea4b21abcf132ff2e2678b2ddd", "fusion_lat": 0.0, "is_reserved": 0, "lat": 38.95732816666667, "fusion_lon": 0.0, "is_disabled": 0}, {"rental_uris": {"android": "https://dc.lft.to/lastmile_qr_scan", "ios": "https://dc.lft.to/lastmile_qr_scan"}, "type": "electric_scooter", "lon": -77.02478316666667, "name": "9076be971702f8a9d3106a7f96de53f6", "bike_id": "9076be971702f8a9d3106a7f96de53f6", "fusion_lat": 0.0, "is_reserved": 0, "lat": 38.93853716666667, "fusion_lon": 0.0, "is_disabled": 0}, {"rental_uris": {"android": "https://dc.lft.to/lastmile_qr_scan", "ios": "https://dc.lft.to/lastmile_qr_scan"}, "type": "electric_scooter", "lon": -77.019471, "name": "31839518cb112b4d9434ffb23b0b9ff1", "bike_id": "31839518cb112b4d9434ffb23b0b9ff1", "fusion_lat": 0.0, "is_reserved": 0, "lat": 38.92255816666667, "fusion_lon": 0.0, "is_disabled": 0}, {"rental_uris": {"android": "https://dc.lft.to/lastmile_qr_scan", "ios": "https://dc.lft.to/lastmile_qr_scan"}, "type": "electric_scooter", "lon": -77.06269366666666, "name": "1b197d3ceff64218273aa187a602bc63", "bike_id": "1b197d3ceff64218273aa187a602bc63", "fusion_lat": 0.0, "is_reserved": 0, "lat": 38.9061545, "fusion_lon": 0.0, "is_disabled": 0}, {"rental_uris": {"android": "https://dc.lft.to/lastmile_qr_scan", "ios": "https://dc.lft.to/lastmile_qr_scan"}, "type": "electric_bike", "lon": -77.02876683333334, "name": "a6e0f4f7f51b56c6b0528397477f8053", "bike_id": "a6e0f4f7f51b56c6b0528397477f8053", "fusion_lat": 0.0, "is_reserved": 0, "lat": 38.979452, "fusion_lon": 0.0, "is_disabled": 0}, {"rental_uris": {"android": "https://dc.lft.to/lastmile_qr_scan", "ios": "https://dc.lft.to/lastmile_qr_scan"}, "type": "electric_scooter", "lon": -76.94826983333333, "name": "a421a767bfb2eba98a31c6df094499b3", "bike_id": "a421a767bfb2eba98a31c6df094499b3", "fusion_lat": 0.0, "is_reserved": 0, "lat": 38.885154666666665, "fusion_lon": 0.0, "is_disabled": 0}, {"rental_uris": {"android": "https://dc.lft.to/lastmile_qr_scan", "ios": "https://dc.lft.to/lastmile_qr_scan"}, "type": "electric_scooter", "lon": -77.04157316666667, "name": "28f362e39c7088b56eb9b95be8e066de", "bike_id": "28f362e39c7088b56eb9b95be8e066de", "fusion_lat": 0.0, "is_reserved": 0, "lat": 38.892648666666666, "fusion_lon": 0.0, "is_disabled": 0}, {"rental_uris": {"android": "https://dc.lft.to/lastmile_qr_scan", "ios": "https://dc.lft.to/lastmile_qr_scan"}, "type": "electric_scooter", "lon": -77.0218575, "name": "50ed6567945e034f0040bb19e43f2090", "bike_id": "50ed6567945e034f0040bb19e43f2090", "fusion_lat": 0.0, "is_reserved": 0, "lat": 38.8949015, "fusion_lon": 0.0, "is_disabled": 0}, {"rental_uris": {"android": "https://dc.lft.to/lastmile_qr_scan", "ios": "https://dc.lft.to/lastmile_qr_scan"}, "type": "electric_scooter", "lon": -76.98595533333334, "name": "8ed25b14197bf2dcf5f6e419ad2b8341", "bike_id": "8ed25b14197bf2dcf5f6e419ad2b8341", "fusion_lat": 0.0, "is_reserved": 0, "lat": 38.900108333333336, "fusion_lon": 0.0, "is_disabled": 0}, {"rental_uris": {"android": "https://dc.lft.to/lastmile_qr_scan", "ios": "https://dc.lft.to/lastmile_qr_scan"}, "type": "electric_scooter", "lon": -77.0436735, "name": "10352a86a8e0b3483d350076e2315cb4", "bike_id": "10352a86a8e0b3483d350076e2315cb4", "fusion_lat": 0.0, "is_reserved": 0, "lat": 38.9111095, "fusion_lon": 0.0, "is_disabled": 0}, {"rental_uris": {"android": "https://dc.lft.to/lastmile_qr_scan", "ios": "https://dc.lft.to/lastmile_qr_scan"}, "type": "electric_scooter", "lon": -77.03858066666666, "name": "d9a1f823e6cee0a8af23bc831245c997", "bike_id": "d9a1f823e6cee0a8af23bc831245c997", "fusion_lat": 0.0, "is_reserved": 0, "lat": 38.917181, "fusion_lon": 0.0, "is_disabled": 0}, {"rental_uris": {"android": "https://dc.lft.to/lastmile_qr_scan", "ios": "https://dc.lft.to/lastmile_qr_scan"}, "type": "electric_scooter", "lon": -77.04596283333333, "name": "9c7e9f46243fd5a1935943f6edc8573d", "bike_id": "9c7e9f46243fd5a1935943f6edc8573d", "fusion_lat": 0.0, "is_reserved": 0, "lat": 38.90664433333333, "fusion_lon": 0.0, "is_disabled": 0}, {"rental_uris": {"android": "https://dc.lft.to/lastmile_qr_scan", "ios": "https://dc.lft.to/lastmile_qr_scan"}, "type": "electric_scooter", "lon": -77.02680116666667, "name": "e963fd3f890e171b5ad5d78d73baee4f", "bike_id": "e963fd3f890e171b5ad5d78d73baee4f", "fusion_lat": 0.0, "is_reserved": 0, "lat": 38.909585, "fusion_lon": 0.0, "is_disabled": 0}, {"rental_uris": {"android": "https://dc.lft.to/lastmile_qr_scan", "ios": "https://dc.lft.to/lastmile_qr_scan"}, "type": "electric_scooter", "lon": -77.03277983333334, "name": "8a1f11a2d0527fd19b1f66e32cc0205d", "bike_id": "8a1f11a2d0527fd19b1f66e32cc0205d", "fusion_lat": 0.0, "is_reserved": 0, "lat": 38.93686266666667, "fusion_lon": 0.0, "is_disabled": 0}, {"rental_uris": {"android": "https://dc.lft.to/lastmile_qr_scan", "ios": "https://dc.lft.to/lastmile_qr_scan"}, "type": "electric_scooter", "lon": -76.98335783333333, "name": "2c37d4aed7ff6265e58f77bf1fda96cc", "bike_id": "2c37d4aed7ff6265e58f77bf1fda96cc", "fusion_lat": 0.0, "is_reserved": 0, "lat": 38.8625615, "fusion_lon": 0.0, "is_disabled": 0}, {"rental_uris": {"android": "https://dc.lft.to/lastmile_qr_scan", "ios": "https://dc.lft.to/lastmile_qr_scan"}, "type": "electric_scooter", "lon": -76.987542, "name": "cb138b990365c56b8c738eb3edc97393", "bike_id": "cb138b990365c56b8c738eb3edc97393", "fusion_lat": 0.0, "is_reserved": 0, "lat": 38.908030333333336, "fusion_lon": 0.0, "is_disabled": 0}, {"rental_uris": {"android": "https://dc.lft.to/lastmile_qr_scan", "ios": "https://dc.lft.to/lastmile_qr_scan"}, "type": "electric_scooter", "lon": -77.0161045, "name": "bdc40d549d128d7f895f10a14438f02f", "bike_id": "bdc40d549d128d7f895f10a14438f02f", "fusion_lat": 0.0, "is_reserved": 0, "lat": 38.917582833333334, "fusion_lon": 0.0, "is_disabled": 0}, {"rental_uris": {"android": "https://dc.lft.to/lastmile_qr_scan", "ios": "https://dc.lft.to/lastmile_qr_scan"}, "type": "electric_scooter", "lon": -77.03120566666666, "name": "9644328085c303ea3039894e997bdcf2", "bike_id": "9644328085c303ea3039894e997bdcf2", "fusion_lat": 0.0, "is_reserved": 0, "lat": 38.9237275, "fusion_lon": 0.0, "is_disabled": 0}, {"rental_uris": {"android": "https://dc.lft.to/lastmile_qr_scan", "ios": "https://dc.lft.to/lastmile_qr_scan"}, "type": "electric_scooter", "lon": -76.999463, "name": "b811d1266757d18aedb070f8b802ae74", "bike_id": "b811d1266757d18aedb070f8b802ae74", "fusion_lat": 0.0, "is_reserved": 0, "lat": 38.84294383333334, "fusion_lon": 0.0, "is_disabled": 0}, {"rental_uris": {"android": "https://dc.lft.to/lastmile_qr_scan", "ios": "https://dc.lft.to/lastmile_qr_scan"}, "type": "electric_bike", "lon": -77.0779335, "name": "d318e73c72129859517504bbd12c8da0", "bike_id": "d318e73c72129859517504bbd12c8da0", "fusion_lat": 0.0, "is_reserved": 0, "lat": 38.84515066666667, "fusion_lon": 0.0, "is_disabled": 0}, {"rental_uris": {"android": "https://dc.lft.to/lastmile_qr_scan", "ios": "https://dc.lft.to/lastmile_qr_scan"}, "type": "electric_scooter", "lon": -77.05141916666666, "name": "a85c9acfbafbd4fb50d0d748444b7cdd", "bike_id": "a85c9acfbafbd4fb50d0d748444b7cdd", "fusion_lat": 0.0, "is_reserved": 0, "lat": 38.9043335, "fusion_lon": 0.0, "is_disabled": 0}, {"rental_uris": {"android": "https://dc.lft.to/lastmile_qr_scan", "ios": "https://dc.lft.to/lastmile_qr_scan"}, "type": "electric_scooter", "lon": -77.02158133333333, "name": "5b1d637f1a5fb829ebe4effde5e6f275", "bike_id": "5b1d637f1a5fb829ebe4effde5e6f275", "fusion_lat": 0.0, "is_reserved": 0, "lat": 38.92613083333333, "fusion_lon": 0.0, "is_disabled": 0}, {"rental_uris": {"android": "https://dc.lft.to/lastmile_qr_scan", "ios": "https://dc.lft.to/lastmile_qr_scan"}, "type": "electric_scooter", "lon": -77.0424055, "name": "94566b7544b0511d717ead6b2e683e4e", "bike_id": "94566b7544b0511d717ead6b2e683e4e", "fusion_lat": 0.0, "is_reserved": 0, "lat": 38.945467, "fusion_lon": 0.0, "is_disabled": 0}, {"rental_uris": {"android": "https://dc.lft.to/lastmile_qr_scan", "ios": "https://dc.lft.to/lastmile_qr_scan"},