{"data": {"bikes": [{"rental_uris": {"ios": "https://dc.lft.to/lastmile_qr_scan", "android": "https://dc.lft.to/lastmile_qr_scan"}, "lon": -77.0962065, "type": "electric_bike", "fusion_lat": 0.0, "lat": 38.84573233333333, "name": "bdd210c0f7795f0069c7e7ef8c0676b7", "fusion_lon": 0.0, "bike_id": "bdd210c0f7795f0069c7e7ef8c0676b7", "is_disabled": 0, "is_reserved": 0}, {"rental_uris": {"ios": "https://dc.lft.to/lastmile_qr_scan", "android": "https://dc.lft.to/lastmile_qr_scan"}, "lon": -77.029682, "type": "electric_bike", "fusion_lat": 0.0, "lat": 38.927157666666666, "name": "201dbec63c7c27b239b93271deb2dc1c", "fusion_lon": 0.0, "bike_id": "201dbec63c7c27b239b93271deb2dc1c", "is_disabled": 0, "is_reserved": 0}, {"rental_uris": {"ios": "https://dc.lft.to/lastmile_qr_scan", "android": "https://dc.lft.to/lastmile_qr_scan"}, "lon": -77.00123266666667, "type": "electric_scooter", "fusion_lat": 0.0, "lat": 38.924499, "name": "060ec1ff4d4b3c4c7fdcf01084c82d60", "fusion_lon": 0.0, "bike_id": "060ec1ff4d4b3c4c7fdcf01084c82d60", "is_disabled": 0, "is_reserved": 0}, {"rental_uris": {"ios": "https://dc.lft.to/lastmile_qr_scan", "android": "https://dc.lft.to/lastmile_qr_scan"}, "lon": -77.04620183333333, "type": "electric_bike", "fusion_lat": 0.0, "lat": 38.9991915, "name": "b23ad826f0703a3a9c0ce52725a2452a", "fusion_lon": 0.0, "bike_id": "b23ad826f0703a3a9c0ce52725a2452a", "is_disabled": 0, "is_reserved": 0}, {"rental_uris": {"ios": "https://dc.lft.to/lastmile_qr_scan", "android": "https://dc.lft.to/lastmile_qr_scan"}, "lon": -77.03806283333333, "type": "electric_scooter", "fusion_lat": 0.0, "lat": 38.9311255, "name": "c4553d606bcad611546969d33655af10", "fusion_lon": 0.0, "bike_id": "c4553d606bcad611546969d33655af10", "is_disabled": 0, "is_reserved": 0}, {"rental_uris": {"ios": "https://dc.lft.to/lastmile_qr_scan", "android": "https://dc.lft.to/lastmile_qr_scan"}, "lon": -77.0318045, "type": "electric_scooter", "fusion_lat": 0.0, "lat": 38.92020633333333, "name": "42cfdf9fbf5a3343c68c4fb1d314f4e2", "fusion_lon": 0.0, "bike_id": "42cfdf9fbf5a3343c68c4fb1d314f4e2", "is_disabled": 0, "is_reserved": 0}, {"rental_uris": {"ios": "https://dc.lft.to/lastmile_qr_scan", "android": "https://dc.lft.to/lastmile_qr_scan"}, "lon": -77.06476316666667, "type": "electric_bike", "fusion_lat": 0.0, "lat": 38.97382016666667, "name": "d0c445656b047a7b542cf50348fb3dec", "fusion_lon": 0.0, "bike_id": "d0c445656b047a7b542cf50348fb3dec", "is_disabled": 0, "is_reserved": 0}, {"rental_uris": {"ios": "https://dc.lft.to/lastmile_qr_scan", "android": "https://dc.lft.to/lastmile_qr_scan"}, "lon": -77.01122283333333, "type": "electric_scooter", "fusion_lat": 0.0, "lat": 38.9126955, "name": "2ec6e551d02e035b9df23b27d922d691", "fusion_lon": 0.0, "bike_id": "2ec6e551d02e035b9df23b27d922d691", "is_disabled": 0, "is_reserved": 0}, {"rental_uris": {"ios": "https://dc.lft.to/lastmile_qr_scan", "android": "https://dc.lft.to/lastmile_qr_scan"}, "lon": -76.972159, "type": "electric_bike", "fusion_lat": 0.0, "lat": 38.844826833333336, "name": "f145521fe6eef815a0cd114492e4ee32", "fusion_lon": 0.0, "bike_id": "f145521fe6eef815a0cd114492e4ee32", "is_disabled": 0, "is_reserved": 0}, {"rental_uris": {"ios": "https://dc.lft.to/lastmile_qr_scan", "android": "https://dc.lft.to/lastmile_qr_scan"}, "lon": -77.03214533333333, "type": "electric_scooter", "fusion_lat": 0.0, "lat": 38.93387283333333, "name": "a2708fa173b1c0f2398fe7e461d517f5", "fusion_lon": 0.0, "bike_id": "a2708fa173b1c0f2398fe7e461d517f5", "is_disabled": 0, "is_reserved": 0}, {"rental_uris": {"ios": "https://dc.lft.to/lastmile_qr_scan", "android": "https://dc.lft.to/lastmile_qr_scan"}, "lon": -76.944392, "type": "electric_bike", "fusion_lat": 0.0, "lat": 38.902969166666665, "name": "a80a2d73579887ceb9ef75a62d347d74", "fusion_lon": 0.0, "bike_id": "a80a2d73579887ceb9ef75a62d347d74", "is_disabled": 0, "is_reserved": 0}, {"rental_uris": {"ios": "https://dc.lft.to/lastmile_qr_scan", "android": "https://dc.lft.to/lastmile_qr_scan"}, "lon": -77.04672183333334, "type": "electric_scooter", "fusion_lat": 0.0, "lat": 38.90576033333333, "name": "0ca40558d139b71bdc91086687db37d5", "fusion_lon": 0.0, "bike_id": "0ca40558d139b71bdc91086687db37d5", "is_disabled": 0, "is_reserved": 0}, {"rental_uris": {"ios": "https://dc.lft.to/lastmile_qr_scan", "android": "https://dc.lft.to/lastmile_qr_scan"}, "lon": -77.02143616666666, "type": "electric_scooter", "fusion_lat": 0.0, "lat": 38.93306033333333, "name": "05dd2a07114e6070f5a09f99694c88cc", "fusion_lon": 0.0, "bike_id": "05dd2a07114e6070f5a09f99694c88cc", "is_disabled": 0, "is_reserved": 0}, {"rental_uris": {"ios": "https://dc.lft.to/lastmile_qr_scan", "android": "https://dc.lft.to/lastmile_qr_scan"}, "lon": -77.02466866666667, "type": "electric_scooter", "fusion_lat": 0.0, "lat": 38.9310315, "name": "e2b01315b973d9345ae43c11195e78a0", "fusion_lon": 0.0, "bike_id": "e2b01315b973d9345ae43c11195e78a0", "is_disabled": 0, "is_reserved": 0}, {"rental_uris": {"ios": "https://dc.lft.to/lastmile_qr_scan", "android": "https://dc.lft.to/lastmile_qr_scan"}, "lon": -77.04517316666667, "type": "electric_scooter", "fusion_lat": 0.0, "lat": 38.91288266666667, "name": "18241ce91c3a8e5c80fa97cc0660ab4a", "fusion_lon": 0.0, "bike_id": "18241ce91c3a8e5c80fa97cc0660ab4a", "is_disabled": 0, "is_reserved": 0}, {"rental_uris": {"ios": "https://dc.lft.to/lastmile_qr_scan", "android": "https://dc.lft.to/lastmile_qr_scan"}, "lon": -77.03190883333333, "type": "electric_scooter", "fusion_lat": 0.0, "lat": 38.92287366666667, "name": "af66f2e636a4413bc77ad1e138873068", "fusion_lon": 0.0, "bike_id": "af66f2e636a4413bc77ad1e138873068", "is_disabled": 0, "is_reserved": 0}, {"rental_uris": {"ios": "https://dc.lft.to/lastmile_qr_scan", "android": "https://dc.lft.to/lastmile_qr_scan"}, "lon": -77.03710466666666, "type": "electric_scooter", "fusion_lat": 0.0, "lat": 38.92629866666667, "name": "36abb7054ad2cd9016d94c85fdbbfd8b", "fusion_lon": 0.0, "bike_id": "36abb7054ad2cd9016d94c85fdbbfd8b", "is_disabled": 0, "is_reserved": 0}, {"rental_uris": {"ios": "https://dc.lft.to/lastmile_qr_scan", "android": "https://dc.lft.to/lastmile_qr_scan"}, "lon": -77.00587583333333, "type": "electric_scooter", "fusion_lat": 0.0, "lat": 38.91562066666667, "name": "b014bed5fd9ae6235295a39ee19408b5", "fusion_lon": 0.0, "bike_id": "b014bed5fd9ae6235295a39ee19408b5", "is_disabled": 0, "is_reserved": 0}, {"rental_uris": {"ios": "https://dc.lft.to/lastmile_qr_scan", "android": "https://dc.lft.to/lastmile_qr_scan"}, "lon": -77.0240085, "type": "electric_scooter", "fusion_lat": 0.0, "lat": 38.9311365, "name": "8eeabeb7203f859d21047ab1cf8dc593", "fusion_lon": 0.0, "bike_id": "8eeabeb7203f859d21047ab1cf8dc593", "is_disabled": 0, "is_reserved": 0}, {"rental_uris": {"ios": "https://dc.lft.to/lastmile_qr_scan", "android": "https://dc.lft.to/lastmile_qr_scan"}, "lon": -77.0153905, "type": "electric_scooter", "fusion_lat": 0.0, "lat": 38.892055666666664, "name": "3bd27ad0d43ad420593882970e0ca301", "fusion_lon": 0.0, "bike_id": "3bd27ad0d43ad420593882970e0ca301", "is_disabled": 0, "is_reserved": 0}, {"rental_uris": {"ios": "https://dc.lft.to/lastmile_qr_scan", "android": "https://dc.lft.to/lastmile_qr_scan"}, "lon": -77.1250385, "type": "electric_bike", "fusion_lat": 0.0, "lat": 39.024188, "name": "4e8a300c90d175a824b45a5087f91ff6", "fusion_lon": 0.0, "bike_id": "4e8a300c90d175a824b45a5087f91ff6", "is_disabled": 0, "is_reserved": 0}, {"rental_uris": {"ios": "https://dc.lft.to/lastmile_qr_scan", "android": "https://dc.lft.to/lastmile_qr_scan"}, "lon": -77.04787, "type": "electric_scooter", "fusion_lat": 0.0, "lat": 38.908656666666666, "name": "35249a3b4f2977f32850fe92aadb2b2d", "fusion_lon": 0.0, "bike_id": "35249a3b4f2977f32850fe92aadb2b2d", "is_disabled": 0, "is_reserved": 0}, {"rental_uris": {"ios": "https://dc.lft.to/lastmile_qr_scan", "android": "https://dc.lft.to/lastmile_qr_scan"}, "lon": -76.99493416666667, "type": "electric_bike", "fusion_lat": 0.0, "lat": 38.899962, "name": "b08700ad2151e8f47d87a6972ac2f267", "fusion_lon": 0.0, "bike_id": "b08700ad2151e8f47d87a6972ac2f267", "is_disabled": 0, "is_reserved": 0}, {"rental_uris": {"ios": "https://dc.lft.to/lastmile_qr_scan", "android": "https://dc.lft.to/lastmile_qr_scan"}, "lon": -77.03121116666667, "type": "electric_scooter", "fusion_lat": 0.0, "lat": 38.913409, "name": "661644aeee7a14397158de5607fceb5c", "fusion_lon": 0.0, "bike_id": "661644aeee7a14397158de5607fceb5c", "is_disabled": 0, "is_reserved": 0}, {"rental_uris": {"ios": "https://dc.lft.to/lastmile_qr_scan", "android": "https://dc.lft.to/lastmile_qr_scan"}, "lon": -76.97627966666667, "type": "electric_scooter", "fusion_lat": 0.0, "lat": 38.90571583333333, "name": "a5e4ec925bc9f644fbd03c83c86cd3a0", "fusion_lon": 0.0, "bike_id": "a5e4ec925bc9f644fbd03c83c86cd3a0", "is_disabled": 0, "is_reserved": 0}, {"rental_uris": {"ios": "https://dc.lft.to/lastmile_qr_scan", "android": "https://dc.lft.to/lastmile_qr_scan"}, "lon": -77.05213866666666, "type": "electric_scooter", "fusion_lat": 0.0, "lat": 38.924329166666666, "name": "df54d9b343c602d307efb4c2e837352b", "fusion_lon": 0.0, "bike_id": "df54d9b343c602d307efb4c2e837352b", "is_disabled": 0, "is_reserved": 0}, {"rental_uris": {"ios": "https://dc.lft.to/lastmile_qr_scan", "android": "https://dc.lft.to/lastmile_qr_scan"}, "lon": -77.05886383333333, "type": "electric_scooter", "fusion_lat": 0.0, "lat": 38.936326666666666, "name": "dc012c1680148eb3601fb099841d4e48", "fusion_lon": 0.0, "bike_id": "dc012c1680148eb3601fb099841d4e48", "is_disabled": 0, "is_reserved": 0}, {"rental_uris": {"ios": "https://dc.lft.to/lastmile_qr_scan", "android": "https://dc.lft.to/lastmile_qr_scan"}, "lon": -77.00228083333333, "type": "electric_scooter", "fusion_lat": 0.0, "lat": 38.9119265, "name": "a2638db1ca8f924f0a99d6480d2a2308", "fusion_lon": 0.0, "bike_id": "a2638db1ca8f924f0a99d6480d2a2308", "is_disabled": 0, "is_reserved": 0}, {"rental_uris": {"ios": "https://dc.lft.to/lastmile_qr_scan", "android": "https://dc.lft.to/lastmile_qr_scan"}, "lon": -76.9868335, "type": "electric_scooter", "fusion_lat": 0.0, "lat": 38.88204233333333, "name": "4a43de01a9bd2f7197ace5a78046627f", "fusion_lon": 0.0, "bike_id": "4a43de01a9bd2f7197ace5a78046627f", "is_disabled": 0, "is_reserved": 0}, {"rental_uris": {"ios": "https://dc.lft.to/lastmile_qr_scan", "android": "https://dc.lft.to/lastmile_qr_scan"}, "lon": -76.9830855, "type": "electric_scooter", "fusion_lat": 0.0, "lat": 38.8689075, "name": "162d483d6876108f30cf49a81a56a1a1", "fusion_lon": 0.0, "bike_id": "162d483d6876108f30cf49a81a56a1a1", "is_disabled": 0, "is_reserved": 0}, {"rental_uris": {"ios": "https://dc.lft.to/lastmile_qr_scan", "android": "https://dc.lft.to/lastmile_qr_scan"}, "lon": -77.00199566666667, "type": "electric_bike", "fusion_lat": 0.0, "lat": 38.883028333333336, "name": "615ca6de6c6e3120b0bcc1bc41f946d9", "fusion_lon": 0.0, "bike_id": "615ca6de6c6e3120b0bcc1bc41f946d9", "is_disabled": 0, "is_reserved": 0}, {"rental_uris": {"ios": "https://dc.lft.to/lastmile_qr_scan", "android": "https://dc.lft.to/lastmile_qr_scan"}, "lon": -77.02894183333333, "type": "electric_scooter", "fusion_lat": 0.0, "lat": 38.92573766666667, "name": "28541cf2ef4d6f995bf1a5031a1fcc40", "fusion_lon": 0.0, "bike_id": "28541cf2ef4d6f995bf1a5031a1fcc40", "is_disabled": 0, "is_reserved": 0}, {"rental_uris": {"ios": "https://dc.lft.to/lastmile_qr_scan", "android": "https://dc.lft.to/lastmile_qr_scan"}, "lon": -77.0455245, "type": "electric_scooter", "fusion_lat": 0.0, "lat": 38.90385116666667, "name": "537153f8fe37fbfa8c2b9c6b75034a78", "fusion_lon": 0.0, "bike_id": "537153f8fe37fbfa8c2b9c6b75034a78", "is_disabled": 0, "is_reserved": 0}, {"rental_uris": {"ios": "https://dc.lft.to/lastmile_qr_scan", "android": "https://dc.lft.to/lastmile_qr_scan"}, "lon": -77.00568366666667, "type": "electric_scooter", "fusion_lat": 0.0, "lat": 38.90340716666667, "name": "d76c8839d0454881d2be92c0a19fa76a", "fusion_lon": 0.0, "bike_id": "d76c8839d0454881d2be92c0a19fa76a", "is_disabled": 0, "is_reserved": 0}, {"rental_uris": {"ios": "https://dc.lft.to/lastmile_qr_scan", "android": "https://dc.lft.to/lastmile_qr_scan"}, "lon": -77.02689983333333, "type": "electric_scooter", "fusion_lat": 0.0, "lat": 38.925997833333334, "name": "56af6cd5adbd318be05d223201a12ccc", "fusion_lon": 0.0, "bike_id": "56af6cd5adbd318be05d223201a12ccc", "is_disabled": 0, "is_reserved": 0}, {"rental_uris": {"ios": "https://dc.lft.to/lastmile_qr_scan", "android": "https://dc.lft.to/lastmile_qr_scan"}, "lon": -76.96060983333334, "type": "electric_bike", "fusion_lat": 0.0, "lat": 38.8840345, "name": "d193ab6c90af9eb9592096080c47f2de", "fusion_lon": 0.0, "bike_id": "d193ab6c90af9eb9592096080c47f2de", "is_disabled": 0, "is_reserved": 0}, {"rental_uris": {"ios": "https://dc.lft.to/lastmile_qr_scan", "android": "https://dc.lft.to/lastmile_qr_scan"}, "lon": -77.02836133333334, "type": "electric_scooter", "fusion_lat": 0.0, "lat": 38.93185066666667, "name": "028fdfe4a80ce0ca9c9cd3f406f89a9e", "fusion_lon": 0.0, "bike_id": "028fdfe4a80ce0ca9c9cd3f406f89a9e", "is_disabled": 0, "is_reserved": 0}, {"rental_uris": {"ios": "https://dc.lft.to/lastmile_qr_scan", "android": "https://dc.lft.to/lastmile_qr_scan"}, "lon": -77.02475333333334, "type": "electric_scooter", "fusion_lat": 0.0, "lat": 38.93104266666667, "name": "652f575030791f7931465d4646f154f1", "fusion_lon": 0.0, "bike_id": "652f575030791f7931465d4646f154f1", "is_disabled": 0, "is_reserved": 0}, {"rental_uris": {"ios": "https://dc.lft.to/lastmile_qr_scan", "android": "https://dc.lft.to/lastmile_qr_scan"}, "lon": -76.90815283333333, "type": "electric_bike", "fusion_lat": 0.0, "lat": 38.994542833333334, "name": "859eb2be9a0841221bed9682fcd46f57", "fusion_lon": 0.0, "bike_id": "859eb2be9a0841221bed9682fcd46f57", "is_disabled": 0, "is_reserved": 0}, {"rental_uris": {"ios": "https://dc.lft.to/lastmile_qr_scan", "android": "https://dc.lft.to/lastmile_qr_scan"}, "lon": -77.01122416666666, "type": "electric_scooter", "fusion_lat": 0.0, "lat": 38.89538233333333, "name": "0265d4c03834e88ec0d759eadaa994bc", "fusion_lon": 0.0, "bike_id": "0265d4c03834e88ec0d759eadaa994bc", "is_disabled": 0, "is_reserved": 0}, {"rental_uris": {"ios": "https://dc.lft.to/lastmile_qr_scan", "android": "https://dc.lft.to/lastmile_qr_scan"}, "lon": -77.08195366666666, "type": "electric_scooter", "fusion_lat": 0.0, "lat": 38.9492825, "name": "03adf2bb9d358e854e12879bd4ee29ce", "fusion_lon": 0.0, "bike_id": "03adf2bb9d358e854e12879bd4ee29ce", "is_disabled": 0, "is_reserved": 0}, {"rental_uris": {"ios": "https://dc.lft.to/lastmile_qr_scan", "android": "https://dc.lft.to/lastmile_qr_scan"}, "lon": -77.048196, "type": "electric_scooter", "fusion_lat": 0.0, "lat": 38.913315833333336, "name": "5c57dc93b9c56c7b7d1dba125cc95997", "fusion_lon": 0.0, "bike_id": "5c57dc93b9c56c7b7d1dba125cc95997", "is_disabled": 0, "is_reserved": 0}, {"rental_uris": {"ios": "https://dc.lft.to/lastmile_qr_scan", "android": "https://dc.lft.to/lastmile_qr_scan"}, "lon": -77.03475466666667, "type": "electric_scooter", "fusion_lat": 0.0, "lat": 38.930455, "name": "6fac624f6e12cbc6f0a7523367593901", "fusion_lon": 0.0, "bike_id": "6fac624f6e12cbc6f0a7523367593901", "is_disabled": 0, "is_reserved": 0}, {"rental_uris": {"ios": "https://dc.lft.to/lastmile_qr_scan", "android": "https://dc.lft.to/lastmile_qr_scan"}, "lon": -77.012211, "type": "electric_scooter", "fusion_lat": 0.0, "lat": 38.9127015, "name": "a6bc72f44db4b5ff86f5d025ca7fe97a", "fusion_lon": 0.0, "bike_id": "a6bc72f44db4b5ff86f5d025ca7fe97a", "is_disabled": 0, "is_reserved": 0}, {"rental_uris": {"ios": "https://dc.lft.to/lastmile_qr_scan", "android": "https://dc.lft.to/lastmile_qr_scan"}, "lon": -77.113169, "type": "electric_bike", "fusion_lat": 0.0, "lat": 38.85566433333334, "name": "9ed68f2a024e515f9cc4d98711c1217a", "fusion_lon": 0.0, "bike_id": "9ed68f2a024e515f9cc4d98711c1217a", "is_disabled": 0, "is_reserved": 0}, {"rental_uris": {"ios": "https://dc.lft.to/lastmile_qr_scan", "android": "https://dc.lft.to/lastmile_qr_scan"}, "lon": -76.997896, "type": "electric_bike", "fusion_lat": 0.0, "lat": 38.922675, "name": "60f45028c14614be00e6cca90d7da303", "fusion_lon": 0.0, "bike_id": "60f45028c14614be00e6cca90d7da303", "is_disabled": 0, "is_reserved": 0}, {"rental_uris": {"ios": "https://dc.lft.to/lastmile_qr_scan", "android": "https://dc.lft.to/lastmile_qr_scan"}, "lon": -77.02444933333334, "type": "electric_scooter", "fusion_lat": 0.0, "lat": 38.92039166666667, "name": "f5b1aebfa4f59f320dee0967e8060262", "fusion_lon": 0.0, "bike_id": "f5b1aebfa4f59f320dee0967e8060262", "is_disabled": 0, "is_reserved": 0}, {"rental_uris": {"ios": "https://dc.lft.to/lastmile_qr_scan", "android": "https://dc.lft.to/lastmile_qr_scan"}, "lon": -77.027159, "type": "electric_scooter", "fusion_lat": 0.0, "lat": 38.906887833333336, "name": "a793e57831492cfb5d46ac384e4c4516", "fusion_lon": 0.0, "bike_id": "a793e57831492cfb5d46ac384e4c4516", "is_disabled": 0, "is_reserved": 0}, {"rental_uris": {"ios": "https://dc.lft.to/lastmile_qr_scan", "android": "https://dc.lft.to/lastmile_qr_scan"}, "lon": -76.988851, "type": "electric_scooter", "fusion_lat": 0.0, "lat": 38.866608166666666, "name": "cbdb5e29b07b9baa6b44fff43fe481ed", "fusion_lon": 0.0, "bike_id": "cbdb5e29b07b9baa6b44fff43fe481ed", "is_disabled": 0, "is_reserved": 0}, {"rental_uris": {"ios": "https://dc.lft.to/lastmile_qr_scan", "android": "https://dc.lft.to/lastmile_qr_scan"}, "lon": -77.03881516666667, "type": "electric_scooter", "fusion_lat": 0.0, "lat": 38.902966666666664, "name": "1519709f0d0f98123a687789f2112ca2", "fusion_lon": 0.0, "bike_id": "1519709f0d0f98123a687789f2112ca2", "is_disabled": 0, "is_reserved": 0}, {"rental_uris": {"ios": "https://dc.lft.to/lastmile_qr_scan", "android": "https://dc.lft.to/lastmile_qr_scan"}, "lon": -77.0300135, "type": "electric_scooter", "fusion_lat": 0.0, "lat": 38.9126045, "name": "e42d3a51a9b826ba6f758b2004c4dce5", "fusion_lon": 0.0, "bike_id": "e42d3a51a9b826ba6f758b2004c4dce5", "is_disabled": 0, "is_reserved": 0}, {"rental_uris": {"ios": "https://dc.lft.to/lastmile_qr_scan", "android": "https://dc.lft.to/lastmile_qr_scan"}, "lon": -77.07080283333333, "type": "electric_bike", "fusion_lat": 0.0, "lat": 38.955613666666665, "name": "6fe14467738fd34c70c657eb24c38120", "fusion_lon": 0.0, "bike_id": "6fe14467738fd34c70c657eb24c38120", "is_disabled": 0, "is_reserved": 0}, {"rental_uris": {"ios": "https://dc.lft.to/lastmile_qr_scan", "android": "https://dc.lft.to/lastmile_qr_scan"}, "lon": -76.93173933333334, "type": "electric_scooter", "fusion_lat": 0.0, "lat": 38.898835, "name": "ef2f6b435b9a8da3040af08051c5f367", "fusion_lon": 0.0, "bike_id": "ef2f6b435b9a8da3040af08051c5f367", "is_disabled": 0, "is_reserved": 0}, {"rental_uris": {"ios": "https://dc.lft.to/lastmile_qr_scan", "android": "https://dc.lft.to/lastmile_qr_scan"}, "lon": -77.06886383333334, "type": "electric_scooter", "fusion_lat": 0.0, "lat": 38.907713333333334, "name": "fc8571e11a446bb8a99055ea9f993575", "fusion_lon": 0.0, "bike_id": "fc8571e11a446bb8a99055ea9f993575", "is_disabled": 0, "is_reserved": 0}, {"rental_uris": {"ios": "https://dc.lft.to/lastmile_qr_scan", "android": "https://dc.lft.to/lastmile_qr_scan"}, "lon": -77.02980483333333, "type": "electric_scooter", "fusion_lat": 0.0, "lat": 38.938826166666665, "name": "27bb3b42856e6afb416fa47660817d2d", "fusion_lon": 0.0, "bike_id": "27bb3b42856e6afb416fa47660817d2d", "is_disabled": 0, "is_reserved": 0}, {"rental_uris": {"ios": "https://dc.lft.to/lastmile_qr_scan", "android": "https://dc.lft.to/lastmile_qr_scan"}, "lon": -77.03060316666667, "type": "electric_scooter", "fusion_lat": 0.0, "lat": 38.89728433333333, "name": "0bbe8a7e6ea7d320e0a6554c21d91db0", "fusion_lon": 0.0, "bike_id": "0bbe8a7e6ea7d320e0a6554c21d91db0", "is_disabled": 0, "is_reserved": 0}, {"rental_uris": {"ios": "https://dc.lft.to/lastmile_qr_scan", "android": "https://dc.lft.to/lastmile_qr_scan"}, "lon": -77.01184966666666, "type": "electric_scooter", "fusion_lat": 0.0, "lat": 38.91112566666666, "name": "c353649be3923aa689d1c40637bca163", "fusion_lon": 0.0, "bike_id": "c353649be3923aa689d1c40637bca163", "is_disabled": 0, "is_reserved": 0}, {"rental_uris": {"ios": "https://dc.lft.to/lastmile_qr_scan", "android": "https://dc.lft.to/lastmile_qr_scan"}, "lon": -77.02653316666667, "type": "electric_scooter", "fusion_lat": 0.0, "lat": 38.895860166666665, "name": "f4e20a1e248192dab0282cbd605b77d5", "fusion_lon": 0.0, "bike_id": "f4e20a1e248192dab0282cbd605b77d5", "is_disabled": 0, "is_reserved": 0}, {"rental_uris": {"ios": "https://dc.lft.to/lastmile_qr_scan", "android": "https://dc.lft.to/lastmile_qr_scan"}, "lon": -77.04066316666666, "type": "electric_scooter", "fusion_lat": 0.0, "lat": 38.92388183333333, "name": "4c65130cfda4d2db577b41f7f7d41ea3", "fusion_lon": 0.0, "bike_id": "4c65130cfda4d2db577b41f7f7d41ea3", "is_disabled": 0, "is_reserved": 0}, {"rental_uris": {"ios": "https://dc.lft.to/lastmile_qr_scan", "android": "https://dc.lft.to/lastmile_qr_scan"}, "lon": -76.9237265, "type": "electric_bike", "fusion_lat": 0.0, "lat": 38.88379033333333, "name": "bdafc81fae3d93cf134c4d390be0c07e", "fusion_lon": 0.0, "bike_id": "bdafc81fae3d93cf134c4d390be0c07e", "is_disabled": 0, "is_reserved": 0}, {"rental_uris": {"ios": "https://dc.lft.to/lastmile_qr_scan", "android": "https://dc.lft.to/lastmile_qr_scan"}, "lon": -77.03218183333334, "type": "electric_scooter", "fusion_lat": 0.0, "lat": 38.91692416666667, "name": "fe2f6825803b4a53915586d10b6e7dbb", "fusion_lon": 0.0, "bike_id": "fe2f6825803b4a53915586d10b6e7dbb", "is_disabled": 0, "is_reserved": 0}, {"rental_uris": {"ios": "https://dc.lft.to/lastmile_qr_scan", "android": "https://dc.lft.to/lastmile_qr_scan"}, "lon": -77.01566116666666, "type": "electric_scooter", "fusion_lat": 0.0, "lat": 38.90008916666667, "name": "113eed43249c01cee7a651d1604f4cd3", "fusion_lon": 0.0, "bike_id": "113eed43249c01cee7a651d1604f4cd3", "is_disabled": 0, "is_reserved": 0}, {"rental_uris": {"ios": "https://dc.lft.to/lastmile_qr_scan", "android": "https://dc.lft.to/lastmile_qr_scan"}, "lon": -77.048224, "type": "electric_scooter", "fusion_lat": 0.0, "lat": 38.907976833333336, "name": "f835f146069cfe579358b7dc28cb3b4b", "fusion_lon": 0.0, "bike_id": "f835f146069cfe579358b7dc28cb3b4b", "is_disabled": 0, "is_reserved": 0}, {"rental_uris": {"ios": "https://dc.lft.to/lastmile_qr_scan", "android": "https://dc.lft.to/lastmile_qr_scan"}, "lon": -77.02176366666667, "type": "electric_scooter", "fusion_lat": 0.0, "lat": 38.94292266666667, "name": "01f877cfe19058553c7dab1c76165665", "fusion_lon": 0.0, "bike_id": "01f877cfe19058553c7dab1c76165665", "is_disabled": 0, "is_reserved": 0}, {"rental_uris": {"ios": "https://dc.lft.to/lastmile_qr_scan", "android": "https://dc.lft.to/lastmile_qr_scan"}, "lon": -77.013667, "type": "electric_scooter", "fusion_lat": 0.0, "lat": 38.86369533333333, "name": "942f8dfacb86b1070b41e7ef61bdf3bf", "fusion_lon": 0.0, "bike_id": "942f8dfacb86b1070b41e7ef61bdf3bf", "is_disabled": 0, "is_reserved": 0}, {"rental_uris": {"ios": "https://dc.lft.to/lastmile_qr_scan", "android": "https://dc.lft.to/lastmile_qr_scan"}, "lon": -77.058618, "type": "electric_scooter", "fusion_lat": 0.0, "lat": 38.93605816666667, "name": "c642f6a90d3a4b3c4530077ad7515af7", "fusion_lon": 0.0, "bike_id": "c642f6a90d3a4b3c4530077ad7515af7", "is_disabled": 0, "is_reserved": 0}, {"rental_uris": {"ios": "https://dc.lft.to/lastmile_qr_scan", "android": "https://dc.lft.to/lastmile_qr_scan"}, "lon": -77.06040683333333, "type": "electric_scooter", "fusion_lat": 0.0, "lat": 38.93914, "name": "2777a9ef7b933ded9d840d5b5d0abb18", "fusion_lon": 0.0, "bike_id": "2777a9ef7b933ded9d840d5b5d0abb18", "is_disabled": 0, "is_reserved": 0}, {"rental_uris": {"ios": "https://dc.lft.to/lastmile_qr_scan", "android": "https://dc.lft.to/lastmile_qr_scan"}, "lon": -76.94630483333333, "type": "electric_scooter", "fusion_lat": 0.0, "lat": 38.898432666666665, "name": "60335b67fa7ad2a17465d15cb7b8aacb", "fusion_lon": 0.0, "bike_id": "60335b67fa7ad2a17465d15cb7b8aacb", "is_disabled": 0, "is_reserved": 0}, {"rental_uris": {"ios": "https://dc.lft.to/lastmile_qr_scan", "android": "https://dc.lft.to/lastmile_qr_scan"}, "lon": -77.03589716666667, "type": "electric_scooter", "fusion_lat": 0.0, "lat": 38.932320833333335, "name": "bb5cc507e7121bddf0daf9b101105b6d", "fusion_lon": 0.0, "bike_id": "bb5cc507e7121bddf0daf9b101105b6d", "is_disabled": 0, "is_reserved": 0}, {"rental_uris": {"ios": "https://dc.lft.to/lastmile_qr_scan", "android": "https://dc.lft.to/lastmile_qr_scan"}, "lon": -77.06334166666667, "type": "electric_bike", "fusion_lat": 0.0, "lat": 38.92110616666667, "name": "37772d851939437d9ede9f7d45f9587e", "fusion_lon": 0.0, "bike_id": "37772d851939437d9ede9f7d45f9587e", "is_disabled": 0, "is_reserved": 0}, {"rental_uris": {"ios": "https://dc.lft.to/lastmile_qr_scan", "android": "https://dc.lft.to/lastmile_qr_scan"}, "lon": -77.044861, "type": "electric_scooter", "fusion_lat": 0.0, "lat": 38.9187385, "name": "b9096234e626652cf4252dd99fbbdd63", "fusion_lon": 0.0, "bike_id": "b9096234e626652cf4252dd99fbbdd63", "is_disabled": 0, "is_reserved": 0}, {"rental_uris": {"ios": "https://dc.lft.to/lastmile_qr_scan", "android": "https://dc.lft.to/lastmile_qr_scan"}, "lon": -76.998744, "type": "electric_scooter", "fusion_lat": 0.0, "lat": 38.90744566666667, "name": "218150ac68df57751b7bcade815828a7", "fusion_lon": 0.0, "bike_id": "218150ac68df57751b7bcade815828a7", "is_disabled": 0, "is_reserved": 0}, {"rental_uris": {"ios": "https://dc.lft.to/lastmile_qr_scan", "android": "https://dc.lft.to/lastmile_qr_scan"}, "lon": -77.01501633333334, "type": "electric_scooter", "fusion_lat": 0.0, "lat": 38.901604166666665, "name": "5c81f1fef078b60c761e380d76263e0e", "fusion_lon": 0.0, "bike_id": "5c81f1fef078b60c761e380d76263e0e", "is_disabled": 0, "is_reserved": 0}, {"rental_uris": {"ios": "https://dc.lft.to/lastmile_qr_scan", "android": "https://dc.lft.to/lastmile_qr_scan"}, "lon": -77.02649233333334, "type": "electric_scooter", "fusion_lat": 0.0, "lat": 38.896123333333335, "name": "eb5e7c4ef522023fd57293295dec4437", "fusion_lon": 0.0, "bike_id": "eb5e7c4ef522023fd57293295dec4437", "is_disabled": 0, "is_reserved": 0}, {"rental_uris": {"ios": "https://dc.lft.to/lastmile_qr_scan", "android": "https://dc.lft.to/lastmile_qr_scan"}, "lon": -76.97206833333334, "type": "electric_scooter", "fusion_lat": 0.0, "lat": 38.85501383333333, "name": "82f98518e03b05e07b0697a289d27950", "fusion_lon": 0.0, "bike_id": "82f98518e03b05e07b0697a289d27950", "is_disabled": 0, "is_reserved": 0}, {"rental_uris": {"ios": "https://dc.lft.to/lastmile_qr_scan", "android": "https://dc.lft.to/lastmile_qr_scan"}, "lon": -76.9462875, "type": "electric_bike", "fusion_lat": 0.0, "lat": 38.946266333333334, "name": "4ce68885847eb9fbbaa15540ffbe3666", "fusion_lon": 0.0, "bike_id": "4ce68885847eb9fbbaa15540ffbe3666", "is_disabled": 0, "is_reserved": 0}, {"rental_uris": {"ios": "https://dc.lft.to/lastmile_qr_scan", "android": "https://dc.lft.to/lastmile_qr_scan"}, "lon": -77.043277, "type": "electric_scooter", "fusion_lat": 0.0, "lat": 38.895899166666666, "name": "0d9b092c7472ae758b5f917bb0078d10", "fusion_lon": 0.0, "bike_id": "0d9b092c7472ae758b5f917bb0078d10", "is_disabled": 0, "is_reserved": 0}, {"rental_uris": {"ios": "https://dc.lft.to/lastmile_qr_scan", "android": "https://dc.lft.to/lastmile_qr_scan"}, "lon": -77.03468283333333, "type": "electric_scooter", "fusion_lat": 0.0, "lat": 38.917156, "name": "43429ba50d76c1564f74d2fb67978ddc", "fusion_lon": 0.0, "bike_id": "43429ba50d76c1564f74d2fb67978ddc", "is_disabled": 0, "is_reserved": 0}, {"rental_uris": {"ios": "https://dc.lft.to/lastmile_qr_scan", "android": "https://dc.lft.to/lastmile_qr_scan"}, "lon": -77.03212383333333, "type": "electric_scooter", "fusion_lat": 0.0, "lat": 38.907597833333334, "name": "87a8dd52b0840daf7aa07e22ae168f18", "fusion_lon": 0.0, "bike_id": "87a8dd52b0840daf7aa07e22ae168f18", "is_disabled": 0, "is_reserved": 0}, {"rental_uris": {"ios": "https://dc.lft.to/lastmile_qr_scan", "android": "https://dc.lft.to/lastmile_qr_scan"}, "lon": -77.0285785, "type": "electric_scooter", "fusion_lat": 0.0, "lat": 38.88755883333333, "name": "a4f6c18f0db434664871ea0df05bed0a", "fusion_lon": 0.0, "bike_id": "a4f6c18f0db434664871ea0df05bed0a", "is_disabled": 0, "is_reserved": 0}, {"rental_uris": {"ios": "https://dc.lft.to/lastmile_qr_scan", "android": "https://dc.lft.to/lastmile_qr_scan"}, "lon": -77.03838383333333, "type": "electric_scooter", "fusion_lat": 0.0, "lat": 38.9264735, "name": "e7c6ddeee2fd4d71e88e4dc6e8beca5d", "fusion_lon": 0.0, "bike_id": "e7c6ddeee2fd4d71e88e4dc6e8beca5d", "is_disabled": 0, "is_reserved": 0}, {"rental_uris": {"ios": "https://dc.lft.to/lastmile_qr_scan", "android": "https://dc.lft.to/lastmile_qr_scan"}, "lon": -77.04684416666667, "type": "electric_scooter", "fusion_lat": 0.0, "lat": 38.903772000000004, "name": "55a2e2b3d501f7c3908bbf8128089cd7", "fusion_lon": 0.0, "bike_id": "55a2e2b3d501f7c3908bbf8128089cd7", "is_disabled": 0, "is_reserved": 0}, {"rental_uris": {"ios": "https://dc.lft.to/lastmile_qr_scan", "android": "https://dc.lft.to/lastmile_qr_scan"}, "lon": -77.03225333333333, "type": "electric_scooter", "fusion_lat": 0.0, "lat": 38.926730666666664, "name": "cd71b2da3cc9e3f9f7af85ae5a87a01b", "fusion_lon": 0.0, "bike_id": "cd71b2da3cc9e3f9f7af85ae5a87a01b", "is_disabled": 0, "is_reserved": 0}, {"rental_uris": {"ios": "https://dc.lft.to/lastmile_qr_scan", "android": "https://dc.lft.to/lastmile_qr_scan"}, "lon": -76.97491516666666, "type": "electric_bike", "fusion_lat": 0.0, "lat": 38.920060666666664, "name": "e16a07fa7403d706153fd4c870890fba", "fusion_lon": 0.0, "bike_id": "e16a07fa7403d706153fd4c870890fba", "is_disabled": 0, "is_reserved": 0}, {"rental_uris": {"ios": "https://dc.lft.to/lastmile_qr_scan", "android": "https://dc.lft.to/lastmile_qr_scan"}, "lon": -77.04111466666667, "type": "electric_scooter", "fusion_lat": 0.0, "lat": 38.9244735, "name": "c4a643217346fc9123d5e293d2d8ea02", "fusion_lon": 0.0, "bike_id": "c4a643217346fc9123d5e293d2d8ea02", "is_disabled": 0, "is_reserved": 0}, {"rental_uris": {"ios": "https://dc.lft.to/lastmile_qr_scan", "android": "https://dc.lft.to/lastmile_qr_scan"}, "lon": -77.040054, "type": "electric_scooter", "fusion_lat": 0.0, "lat": 38.910005166666664, "name": "147f91d6cd05e995891b3d82eceee086", "fusion_lon": 0.0, "bike_id": "147f91d6cd05e995891b3d82eceee086", "is_disabled": 0, "is_reserved": 0}, {"rental_uris": {"ios": "https://dc.lft.to/lastmile_qr_scan", "android": "https://dc.lft.to/lastmile_qr_scan"}, "lon": -77.0022735, "type": "electric_scooter", "fusion_lat": 0.0, "lat": 38.9117975, "name": "8bf6836db1a0d6501c7d4d255f4a3fca", "fusion_lon": 0.0, "bike_id": "8bf6836db1a0d6501c7d4d255f4a3fca", "is_disabled": 0, "is_reserved": 0}, {"rental_uris": {"ios": "https://dc.lft.to/lastmile_qr_scan", "android": "https://dc.lft.to/lastmile_qr_scan"}, "lon": -77.05456683333334, "type": "electric_scooter", "fusion_lat": 0.0, "lat": 38.929011, "name": "974bb7cc807132fc9a6f7ae66d6f2834", "fusion_lon": 0.0, "bike_id": "974bb7cc807132fc9a6f7ae66d6f2834", "is_disabled": 0, "is_reserved": 0}, {"rental_uris": {"ios": "https://dc.lft.to/lastmile_qr_scan", "android": "https://dc.lft.to/lastmile_qr_scan"}, "lon": -76.97408283333333, "type": "electric_scooter", "fusion_lat": 0.0, "lat": 38.90156866666667, "name": "1b9b9198f90acce0fa2f33213b5b3b51", "fusion_lon": 0.0, "bike_id": "1b9b9198f90acce0fa2f33213b5b3b51", "is_disabled": 0, "is_reserved": 0}, {"rental_uris": {"ios": "https://dc.lft.to/lastmile_qr_scan", "android": "https://dc.lft.to/lastmile_qr_scan"}, "lon": -76.937197, "type": "electric_scooter", "fusion_lat": 0.0, "lat": 38.895893666666666, "name": "b85ba436c6e3fabb4adbe6f4f65754b4", "fusion_lon": 0.0, "bike_id": "b85ba436c6e3fabb4adbe6f4f65754b4", "is_disabled": 0, "is_reserved": 0}, {"rental_uris": {"ios": "https://dc.lft.to/lastmile_qr_scan", "android": "https://dc.lft.to/lastmile_qr_scan"}, "lon": -77.0341625, "type": "electric_scooter", "fusion_lat": 0.0, "lat": 38.93541833333333, "name": "7b7758f4708c166ef79e48d467128bd7", "fusion_lon": 0.0, "bike_id": "7b7758f4708c166ef79e48d467128bd7", "is_disabled": 0, "is_reserved": 0}, {"rental_uris": {"ios": "https://dc.lft.to/lastmile_qr_scan", "android": "https://dc.lft.to/lastmile_qr_scan"}, "lon": -77.027147, "type": "electric_scooter", "fusion_lat": 0.0, "lat": 38.92468083333333, "name": "7cc93a549be76c02a26fcb8f300dbe43", "fusion_lon": 0.0, "bike_id": "7cc93a549be76c02a26fcb8f300dbe43", "is_disabled": 0, "is_reserved": 0}, {"rental_uris": {"ios": "https://dc.lft.to/lastmile_qr_scan", "android": "https://dc.lft.to/lastmile_qr_scan"}, "lon": -77.05619933333334, "type": "electric_bike", "fusion_lat": 0.0, "lat": 38.92406666666667, "name": "34235adbb02dafebfd2298498ff059c8", "fusion_lon": 0.0, "bike_id": "34235adbb02dafebfd2298498ff059c8", "is_disabled": 0, "is_reserved": 0}, {"rental_uris": {"ios": "https://dc.lft.to/lastmile_qr_scan", "android": "https://dc.lft.to/lastmile_qr_scan"}, "lon": -77.02948666666667, "type": "electric_scooter", "fusion_lat": 0.0, "lat": 38.90523833333334, "name": "4ad890815788496cb0d8462d9eb89919", "fusion_lon": 0.0, "bike_id": "4ad890815788496cb0d8462d9eb89919", "is_disabled": 0, "is_reserved": 0}, {"rental_uris": {"ios": "https://dc.lft.to/lastmile_qr_scan", "android": "https://dc.lft.to/lastmile_qr_scan"}, "lon": -76.99772716666666, "type": "electric_bike", "fusion_lat": 0.0, "lat": 38.90933183333333, "name": "59278d4489dfd31e8537b53bdafbd3cd", "fusion_lon": 0.0, "bike_id": "59278d4489dfd31e8537b53bdafbd3cd", "is_disabled": 0, "is_reserved": 0}, {"rental_uris": {"ios": "https://dc.lft.to/lastmile_qr_scan", "android": "https://dc.lft.to/lastmile_qr_scan"}, "lon": -77.05045133333333, "type": "electric_scooter", "fusion_lat": 0.0, "lat": 38.900153, "name": "8f6103fa85d40886c49045bbe9fb51d5", "fusion_lon": 0.0, "bike_id": "8f6103fa85d40886c49045bbe9fb51d5", "is_disabled": 0, "is_reserved": 0}, {"rental_uris": {"ios": "https://dc.lft.to/lastmile_qr_scan", "android": "https://dc.lft.to/lastmile_qr_scan"}, "lon": -77.00279583333334, "type": "electric_scooter", "fusion_lat": 0.0, "lat": 38.9014015, "name": "822c364190950a11e2140e0297df50b2", "fusion_lon": 0.0, "bike_id": "822c364190950a11e2140e0297df50b2", "is_disabled": 0, "is_reserved": 0}, {"rental_uris": {"ios": "https://dc.lft.to/lastmile_qr_scan", "android": "https://dc.lft.to/lastmile_qr_scan"}, "lon": -77.03839266666667, "type": "electric_scooter", "fusion_lat": 0.0, "lat": 38.931126666666664, "name": "ec063df082c8502ea1473180f9cf0af5", "fusion_lon": 0.0, "bike_id": "ec063df082c8502ea1473180f9cf0af5", "is_disabled": 0, "is_reserved": 0}, {"rental_uris": {"ios": "https://dc.lft.to/lastmile_qr_scan", "android": "https://dc.lft.to/lastmile_qr_scan"}, "lon": -76.98883816666667, "type": "electric_scooter", "fusion_lat": 0.0, "lat": 38.8666065, "name": "ef5b5ab1d666d6eb42adead5e452bdbd", "fusion_lon": 0.0, "bike_id": "ef5b5ab1d666d6eb42adead5e452bdbd", "is_disabled": 0, "is_reserved": 0}, {"rental_uris": {"ios": "https://dc.lft.to/lastmile_qr_scan", "android": "https://dc.lft.to/lastmile_qr_scan"}, "lon": -77.04502216666667, "type": "electric_scooter", "fusion_lat": 0.0, "lat": 38.9194555, "name": "3c489f3e717bd801821e4d204b445541", "fusion_lon": 0.0, "bike_id": "3c489f3e717bd801821e4d204b445541", "is_disabled": 0, "is_reserved": 0}, {"rental_uris": {"ios": "https://dc.lft.to/lastmile_qr_scan", "android": "https://dc.lft.to/lastmile_qr_scan"}, "lon": -77.0484035, "type": "electric_scooter", "fusion_lat": 0.0, "lat": 38.909705333333335, "name": "41406754e0737f306710324280ff4b0d", "fusion_lon": 0.0, "bike_id": "41406754e0737f306710324280ff4b0d", "is_disabled": 0, "is_reserved": 0}, {"rental_uris": {"ios": "https://dc.lft.to/lastmile_qr_scan", "android": "https://dc.lft.to/lastmile_qr_scan"}, "lon": -77.01111333333333, "type": "electric_scooter", "fusion_lat": 0.0, "lat": 38.894934, "name": "30c094c6463652ed9158481ddb22279f", "fusion_lon": 0.0, "bike_id": "30c094c6463652ed9158481ddb22279f", "is_disabled": 0, "is_reserved": 0}, {"rental_uris": {"ios": "https://dc.lft.to/lastmile_qr_scan", "android": "https://dc.lft.to/lastmile_qr_scan"}, "lon": -76.97554633333333, "type": "electric_scooter", "fusion_lat": 0.0, "lat": 38.904379, "name": "5dc0337a4a42c1290043ca38ecc1bfb4", "fusion_lon": 0.0, "bike_id": "5dc0337a4a42c1290043ca38ecc1bfb4", "is_disabled": 0, "is_reserved": 0}, {"rental_uris": {"ios": "https://dc.lft.to/lastmile_qr_scan", "android": "https://dc.lft.to/lastmile_qr_scan"}, "lon": -77.04892683333334, "type": "electric_scooter", "fusion_lat": 0.0, "lat": 38.9188685, "name": "c13aab86ccb07bf645c8d6eba5b0771b", "fusion_lon": 0.0, "bike_id": "c13aab86ccb07bf645c8d6eba5b0771b", "is_disabled": 0, "is_reserved": 0}, {"rental_uris": {"ios": "https://dc.lft.to/lastmile_qr_scan", "android": "https://dc.lft.to/lastmile_qr_scan"}, "lon": -76.98576616666666, "type": "electric_scooter", "fusion_lat": 0.0, "lat": 38.86148883333333, "name": "abeac2bcb9ecbab068f5e5371b2d1de4", "fusion_lon": 0.0, "bike_id": "abeac2bcb9ecbab068f5e5371b2d1de4", "is_disabled": 0, "is_reserved": 0}, {"rental_uris": {"ios": "https://dc.lft.to/lastmile_qr_scan", "android": "https://dc.lft.to/lastmile_qr_scan"}, "lon": -76.9960945, "type": "electric_scooter", "fusion_lat": 0.0, "lat": 38.88621283333333, "name": "a6a629a276e85e01eb11dc8444a8b2f6", "fusion_lon": 0.0, "bike_id": "a6a629a276e85e01eb11dc8444a8b2f6", "is_disabled": 0, "is_reserved": 0}, {"rental_uris": {"ios": "https://dc.lft.to/lastmile_qr_scan", "android": "https://dc.lft.to/lastmile_qr_scan"}, "lon": -77.00348516666666, "type": "electric_scooter", "fusion_lat": 0.0, "lat": 38.90722516666666, "name": "92e5db51743826575df01f010ece4889", "fusion_lon": 0.0, "bike_id": "92e5db51743826575df01f010ece4889", "is_disabled": 0, "is_reserved": 0}, {"rental_uris": {"ios": "https://dc.lft.to/lastmile_qr_scan", "android": "https://dc.lft.to/lastmile_qr_scan"}, "lon": -77.042248, "type": "electric_scooter", "fusion_lat": 0.0, "lat": 38.92127083333333, "name": "53d036f742ee273ff36c35b69ace1049", "fusion_lon": 0.0, "bike_id": "53d036f742ee273ff36c35b69ace1049", "is_disabled": 0, "is_reserved": 0}, {"rental_uris": {"ios": "https://dc.lft.to/lastmile_qr_scan", "android": "https://dc.lft.to/lastmile_qr_scan"}, "lon": -76.99518466666666, "type": "electric_scooter", "fusion_lat": 0.0, "lat": 38.894914, "name": "541732f00e3797c9e987872057d9628b", "fusion_lon": 0.0, "bike_id": "541732f00e3797c9e987872057d9628b", "is_disabled": 0, "is_reserved": 0}, {"rental_uris": {"ios": "https://dc.lft.to/lastmile_qr_scan", "android": "https://dc.lft.to/lastmile_qr_scan"}, "lon": -76.99561833333334, "type": "electric_scooter", "fusion_lat": 0.0, "lat": 38.928773666666665, "name": "eb4be5d576439647c8ba19d997d01cfc", "fusion_lon": 0.0, "bike_id": "eb4be5d576439647c8ba19d997d01cfc", "is_disabled": 0, "is_reserved": 0}, {"rental_uris": {"ios": "https://dc.lft.to/lastmile_qr_scan", "android": "https://dc.lft.to/lastmile_qr_scan"}, "lon": -76.9386845, "type": "electric_scooter", "fusion_lat": 0.0, "lat": 38.90082783333333, "name": "6d2fbb061421ed6a3840acdcb39cdb47", "fusion_lon": 0.0, "bike_id": "6d2fbb061421ed6a3840acdcb39cdb47", "is_disabled": 0, "is_reserved": 0}, {"rental_uris": {"ios": "https://dc.lft.to/lastmile_qr_scan", "android": "https://dc.lft.to/lastmile_qr_scan"}, "lon": -76.98654583333334, "type": "electric_scooter", "fusion_lat": 0.0, "lat": 38.858063, "name": "063a3bb43600cddf9d2415d5720f8f32", "fusion_lon": 0.0, "bike_id": "063a3bb43600cddf9d2415d5720f8f32", "is_disabled": 0, "is_reserved": 0}, {"rental_uris": {"ios": "https://dc.lft.to/lastmile_qr_scan", "android": "https://dc.lft.to/lastmile_qr_scan"}, "lon": -76.99613083333334, "type": "electric_scooter", "fusion_lat": 0.0, "lat": 38.897448833333335, "name": "f5b76d3a7bbe7e8e82c057282813be9c", "fusion_lon": 0.0, "bike_id": "f5b76d3a7bbe7e8e82c057282813be9c", "is_disabled": 0, "is_reserved": 0}, {"rental_uris": {"ios": "https://dc.lft.to/lastmile_qr_scan", "android": "https://dc.lft.to/lastmile_qr_scan"}, "lon": -77.04512166666666, "type": "electric_scooter", "fusion_lat": 0.0, "lat": 38.90019433333333, "name": "c8ee44a38f047267ac8c426739564acf", "fusion_lon": 0.0, "bike_id": "c8ee44a38f047267ac8c426739564acf", "is_disabled": 0, "is_reserved": 0}, {"rental_uris": {"ios": "https://dc.lft.to/lastmile_qr_scan", "android": "https://dc.lft.to/lastmile_qr_scan"}, "lon": -77.046694, "type": "electric_scooter", "fusion_lat": 0.0, "lat": 38.907525166666666, "name": "db66dddc261e2d25d88bd54c3c417649", "fusion_lon": 0.0, "bike_id": "db66dddc261e2d25d88bd54c3c417649", "is_disabled": 0, "is_reserved": 0}, {"rental_uris": {"ios": "https://dc.lft.to/lastmile_qr_scan", "android": "https://dc.lft.to/lastmile_qr_scan"}, "lon": -77.03991916666666, "type": "electric_scooter", "fusion_lat": 0.0, "lat": 38.90837716666667, "name": "2a9817087d0c7580948798466d077502", "fusion_lon": 0.0, "bike_id": "2a9817087d0c7580948798466d077502", "is_disabled": 0, "is_reserved": 0}, {"rental_uris": {"ios": "https://dc.lft.to/lastmile_qr_scan", "android": "https://dc.lft.to/lastmile_qr_scan"}, "lon": -77.00658983333334, "type": "electric_scooter", "fusion_lat": 0.0, "lat": 38.912059, "name": "a1e54eb04830ff1b50471fdb2dddc68a", "fusion_lon": 0.0, "bike_id": "a1e54eb04830ff1b50471fdb2dddc68a", "is_disabled": 0, "is_reserved": 0}, {"rental_uris": {"ios": "https://dc.lft.to/lastmile_qr_scan", "android": "https://dc.lft.to/lastmile_qr_scan"}, "lon": -77.06104433333333, "type": "electric_scooter", "fusion_lat": 0.0, "lat": 38.93705416666667, "name": "adb133b2e569c967b04e69b0092fad1a", "fusion_lon": 0.0, "bike_id": "adb133b2e569c967b04e69b0092fad1a", "is_disabled": 0, "is_reserved": 0}, {"rental_uris": {"ios": "https://dc.lft.to/lastmile_qr_scan", "android": "https://dc.lft.to/lastmile_qr_scan"}, "lon": -76.99678566666667, "type": "electric_scooter", "fusion_lat": 0.0, "lat": 38.910107833333335, "name": "b208547756a236099f1214f29cb6f68b", "fusion_lon": 0.0, "bike_id": "b208547756a236099f1214f29cb6f68b", "is_disabled": 0, "is_reserved": 0}, {"rental_uris": {"ios": "https://dc.lft.to/lastmile_qr_scan", "android": "https://dc.lft.to/lastmile_qr_scan"}, "lon": -77.01419916666667, "type": "electric_scooter", "fusion_lat": 0.0, "lat": 38.91708766666667, "name": "74c6f4104b3a8a39b26ba6a98a1ad538", "fusion_lon": 0.0, "bike_id": "74c6f4104b3a8a39b26ba6a98a1ad538", "is_disabled": 0, "is_reserved": 0}, {"rental_uris": {"ios": "https://dc.lft.to/lastmile_qr_scan", "android": "https://dc.lft.to/lastmile_qr_scan"}, "lon": -77.022129, "type": "electric_scooter", "fusion_lat": 0.0, "lat": 38.91270033333333, "name": "b0a998ceb8dc43e650f6c6c3d83ba761", "fusion_lon": 0.0, "bike_id": "b0a998ceb8dc43e650f6c6c3d83ba761", "is_disabled": 0, "is_reserved": 0}, {"rental_uris": {"ios": "https://dc.lft.to/lastmile_qr_scan", "android": "https://dc.lft.to/lastmile_qr_scan"}, "lon": -76.9336795, "type": "electric_scooter", "fusion_lat": 0.0, "lat": 38.89912533333333, "name": "79bf0530ad9f8b7d451362c648b5ad97", "fusion_lon": 0.0, "bike_id": "79bf0530ad9f8b7d451362c648b5ad97", "is_disabled": 0, "is_reserved": 0}, {"rental_uris": {"ios": "https://dc.lft.to/lastmile_qr_scan", "android": "https://dc.lft.to/lastmile_qr_scan"}, "lon": -77.0388525, "type": "electric_scooter", "fusion_lat": 0.0, "lat": 38.934304, "name": "037b08d929b9af56a42cd6ba387ef2cd", "fusion_lon": 0.0, "bike_id": "037b08d929b9af56a42cd6ba387ef2cd", "is_disabled": 0, "is_reserved": 0}, {"rental_uris": {"ios": "https://dc.lft.to/lastmile_qr_scan", "android": "https://dc.lft.to/lastmile_qr_scan"}, "lon": -77.03661916666667, "type": "electric_scooter", "fusion_lat": 0.0, "lat": 38.918118666666665, "name": "a8dfa5e9000cb55a10eff2309f9fe14b", "fusion_lon": 0.0, "bike_id": "a8dfa5e9000cb55a10eff2309f9fe14b", "is_disabled": 0, "is_reserved": 0}, {"rental_uris": {"ios": "https://dc.lft.to/lastmile_qr_scan", "android": "https://dc.lft.to/lastmile_qr_scan"}, "lon": -76.9362965, "type": "electric_scooter", "fusion_lat": 0.0, "lat": 38.88985316666667, "name": "67349706eb467004086a26682544acb1", "fusion_lon": 0.0, "bike_id": "67349706eb467004086a26682544acb1", "is_disabled": 0, "is_reserved": 0}, {"rental_uris": {"ios": "https://dc.lft.to/lastmile_qr_scan", "android": "https://dc.lft.to/lastmile_qr_scan"}, "lon": -77.0222685, "type": "electric_scooter", "fusion_lat": 0.0, "lat": 38.8922115, "name": "58ca8e7dc0a4a1d822e860dc9c607c3d", "fusion_lon": 0.0, "bike_id": "58ca8e7dc0a4a1d822e860dc9c607c3d", "is_disabled": 0, "is_reserved": 0}, {"rental_uris": {"ios": "https://dc.lft.to/lastmile_qr_scan", "android": "https://dc.lft.to/lastmile_qr_scan"}, "lon": -77.06633266666667, "type": "electric_scooter", "fusion_lat": 0.0, "lat": 38.928038666666666, "name": "979ec57b795f689e018901eef6edccab", "fusion_lon": 0.0, "bike_id": "979ec57b795f689e018901eef6edccab", "is_disabled": 0, "is_reserved": 0}, {"rental_uris": {"ios": "https://dc.lft.to/lastmile_qr_scan", "android": "https://dc.lft.to/lastmile_qr_scan"}, "lon": -76.98903666666666, "type": "electric_scooter", "fusion_lat": 0.0, "lat": 38.866946666666664, "name": "3c7561b5a989e626ef8a929c399abcc5", "fusion_lon": 0.0, "bike_id": "3c7561b5a989e626ef8a929c399abcc5", "is_disabled": 0, "is_reserved": 0}, {"rental_uris": {"ios": "https://dc.lft.to/lastmile_qr_scan", "android": "https://dc.lft.to/lastmile_qr_scan"}, "lon": -77.02173833333333, "type": "electric_scooter", "fusion_lat": 0.0, "lat": 38.942918166666665, "name": "d541167b59ce917f6fa2cbc1fbe1620b", "fusion_lon": 0.0, "bike_id": "d541167b59ce917f6fa2cbc1fbe1620b", "is_disabled": 0, "is_reserved": 0}, {"rental_uris": {"ios": "https://dc.lft.to/lastmile_qr_scan", "android": "https://dc.lft.to/lastmile_qr_scan"}, "lon": -77.04204233333333, "type": "electric_scooter", "fusion_lat": 0.0, "lat": 38.91104633333333, "name": "3c15234164ff1a5cc6073c38457e0cad", "fusion_lon": 0.0, "bike_id": "3c15234164ff1a5cc6073c38457e0cad", "is_disabled": 0, "is_reserved": 0}, {"rental_uris": {"ios": "https://dc.lft.to/lastmile_qr_scan", "android": "https://dc.lft.to/lastmile_qr_scan"}, "lon": -77.03663516666667, "type": "electric_scooter", "fusion_lat": 0.0, "lat": 38.92206383333333, "name": "4b43a99e96963a21830873becfa84eef", "fusion_lon": 0.0, "bike_id": "4b43a99e96963a21830873becfa84eef", "is_disabled": 0, "is_reserved": 0}, {"rental_uris": {"ios": "https://dc.lft.to/lastmile_qr_scan", "android": "https://dc.lft.to/lastmile_qr_scan"}, "lon": -77.035579, "type": "electric_scooter", "fusion_lat": 0.0, "lat": 38.918101666666665, "name": "3a8121308c0702828fcc2fa78e4495a4", "fusion_lon": 0.0, "bike_id": "3a8121308c0702828fcc2fa78e4495a4", "is_disabled": 0, "is_reserved": 0}, {"rental_uris": {"ios": "https://dc.lft.to/lastmile_qr_scan", "android": "https://dc.lft.to/lastmile_qr_scan"}, "lon": -77.009865, "type": "electric_scooter", "fusion_lat": 0.0, "lat": 38.872897333333334, "name": "006b0cbd7a3d83cb242d2d31f674243d", "fusion_lon": 0.0, "bike_id": "006b0cbd7a3d83cb242d2d31f674243d", "is_disabled": 0, "is_reserved": 0}, {"rental_uris": {"ios": "https://dc.lft.to/lastmile_qr_scan", "android": "https://dc.lft.to/lastmile_qr_scan"}, "lon": -77.06997066666666, "type": "electric_bike", "fusion_lat": 0.0, "lat": 38.9550875, "name": "5ce88d7f75e3adf8fe6008f22eeedcc6", "fusion_lon": 0.0, "bike_id": "5ce88d7f75e3adf8fe6008f22eeedcc6", "is_disabled": 0, "is_reserved": 0}, {"rental_uris": {"ios": "https://dc.lft.to/lastmile_qr_scan", "android": "https://dc.lft.to/lastmile_qr_scan"}, "lon": -77.038577, "type": "electric_scooter", "fusion_lat": 0.0, "lat": 38.907794333333335, "name": "30185c140240f24d22b210bdf970ca1c", "fusion_lon": 0.0, "bike_id": "30185c140240f24d22b210bdf970ca1c", "is_disabled": 0, "is_reserved": 0}, {"rental_uris": {"ios": "https://dc.lft.to/lastmile_qr_scan", "android": "https://dc.lft.to/lastmile_qr_scan"}, "lon": -77.10781516666667, "type": "electric_bike", "fusion_lat": 0.0, "lat": 38.89217033333333, "name": "9356dfb3645cbb31449b5bcf9c884e48", "fusion_lon": 0.0, "bike_id": "9356dfb3645cbb31449b5bcf9c884e48", "is_disabled": 0, "is_reserved": 0}, {"rental_uris": {"ios": "https://dc.lft.to/lastmile_qr_scan", "android": "https://dc.lft.to/lastmile_qr_scan"}, "lon": -76.99944516666666, "type": "electric_scooter", "fusion_lat": 0.0, "lat": 38.9069135, "name": "bec68fbf0081000b1d0a09c7f057a8ae", "fusion_lon": 0.0, "bike_id": "bec68fbf0081000b1d0a09c7f057a8ae", "is_disabled": 0, "is_reserved": 0}, {"rental_uris": {"ios": "https://dc.lft.to/lastmile_qr_scan", "android": "https://dc.lft.to/lastmile_qr_scan"}, "lon": -77.05116, "type": "electric_scooter", "fusion_lat": 0.0, "lat": 38.9012565, "name": "8a6d40ee52d141f24e176d2540c86e1b", "fusion_lon": 0.0, "bike_id": "8a6d40ee52d141f24e176d2540c86e1b", "is_disabled": 0, "is_reserved": 0}, {"rental_uris": {"ios": "https://dc.lft.to/lastmile_qr_scan", "android": "https://dc.lft.to/lastmile_qr_scan"}, "lon": -77.00508716666667, "type": "electric_scooter", "fusion_lat": 0.0, "lat": 38.917140333333336, "name": "daa2fa684d5f733748a23fe3423351bc", "fusion_lon": 0.0, "bike_id": "daa2fa684d5f733748a23fe3423351bc", "is_disabled": 0, "is_reserved": 0}, {"rental_uris": {"ios": "https://dc.lft.to/lastmile_qr_scan", "android": "https://dc.lft.to/lastmile_qr_scan"}, "lon": -76.99978316666666, "type": "electric_scooter", "fusion_lat": 0.0, "lat": 38.83836683333333, "name": "4f6fc309c9ae45df677fca4194101d4f", "fusion_lon": 0.0, "bike_id": "4f6fc309c9ae45df677fca4194101d4f", "is_disabled": 0, "is_reserved": 0}, {"rental_uris": {"ios": "https://dc.lft.to/lastmile_qr_scan", "android": "https://dc.lft.to/lastmile_qr_scan"}, "lon": -77.04016883333334, "type": "electric_scooter", "fusion_lat": 0.0, "lat": 38.90129616666667, "name": "65e33d6dc120402c9423fe252e40be05", "fusion_lon": 0.0, "bike_id": "65e33d6dc120402c9423fe252e40be05", "is_disabled": 0, "is_reserved": 0}, {"rental_uris": {"ios": "https://dc.lft.to/lastmile_qr_scan", "android": "https://dc.lft.to/lastmile_qr_scan"}, "lon": -77.02617566666666, "type": "electric_scooter", "fusion_lat": 0.0, "lat": 38.93401133333333, "name": "2bff91587ae6d5f8b59da93ec0040a56", "fusion_lon": 0.0, "bike_id": "2bff91587ae6d5f8b59da93ec0040a56", "is_disabled": 0, "is_reserved": 0}, {"rental_uris": {"ios": "https://dc.lft.to/lastmile_qr_scan", "android": "https://dc.lft.to/lastmile_qr_scan"}, "lon": -77.06985666666667, "type": "electric_scooter", "fusion_lat": 0.0, "lat": 38.954875333333334, "name": "0902aca893a5734c8a4ba511e23ddfc2", "fusion_lon": 0.0, "bike_id": "0902aca893a5734c8a4ba511e23ddfc2", "is_disabled": 0, "is_reserved": 0}, {"rental_uris": {"ios": "https://dc.lft.to/lastmile_qr_scan", "android": "https://dc.lft.to/lastmile_qr_scan"}, "lon": -77.06328583333334, "type": "electric_scooter", "fusion_lat": 0.0, "lat": 38.907642333333335, "name": "daa43dfa9b47527ea831cc85a0b2edf8", "fusion_lon": 0.0, "bike_id": "daa43dfa9b47527ea831cc85a0b2edf8", "is_disabled": 0, "is_reserved": 0}, {"rental_uris": {"ios": "https://dc.lft.to/lastmile_qr_scan", "android": "https://dc.lft.to/lastmile_qr_scan"}, "lon": -76.99505383333333, "type": "electric_bike", "fusion_lat": 0.0, "lat": 39.0000945, "name": "64ccbcdb034cb12307d9e944f3ecba1a", "fusion_lon": 0.0, "bike_id": "64ccbcdb034cb12307d9e944f3ecba1a", "is_disabled": 0, "is_reserved": 0}, {"rental_uris": {"ios": "https://dc.lft.to/lastmile_qr_scan", "android": "https://dc.lft.to/lastmile_qr_scan"}, "lon": -77.02207166666666, "type": "electric_scooter", "fusion_lat": 0.0, "lat": 38.91549033333333, "name": "10a1f2bb7b4e89dd98a3b7230dc9eeeb", "fusion_lon": 0.0, "bike_id": "10a1f2bb7b4e89dd98a3b7230dc9eeeb", "is_disabled": 0, "is_reserved": 0}, {"rental_uris": {"ios": "https://dc.lft.to/lastmile_qr_scan", "android": "https://dc.lft.to/lastmile_qr_scan"}, "lon": -76.997889, "type": "electric_scooter", "fusion_lat": 0.0, "lat": 38.921927333333336, "name": "0405661d25585a9cb97e2d4b3caa11b2", "fusion_lon": 0.0, "bike_id": "0405661d25585a9cb97e2d4b3caa11b2", "is_disabled": 0, "is_reserved": 0}, {"rental_uris": {"ios": "https://dc.lft.to/lastmile_qr_scan", "android": "https://dc.lft.to/lastmile_qr_scan"}, "lon": -77.06009683333333, "type": "electric_scooter", "fusion_lat": 0.0, "lat": 38.912620833333335, "name": "8f7483b5956b51e4e0c42f3b3f07dba6", "fusion_lon": 0.0, "bike_id": "8f7483b5956b51e4e0c42f3b3f07dba6", "is_disabled": 0, "is_reserved": 0}, {"rental_uris": {"ios": "https://dc.lft.to/lastmile_qr_scan", "android": "https://dc.lft.to/lastmile_qr_scan"}, "lon": -77.0374, "type": "electric_scooter", "fusion_lat": 0.0, "lat": 38.92904216666667, "name": "b9e356f8e76fd425752689ae1727beee", "fusion_lon": 0.0, "bike_id": "b9e356f8e76fd425752689ae1727beee", "is_disabled": 0, "is_reserved": 0}, {"rental_uris": {"ios": "https://dc.lft.to/lastmile_qr_scan", "android": "https://dc.lft.to/lastmile_qr_scan"}, "lon": -77.03615033333334, "type": "electric_scooter", "fusion_lat": 0.0, "lat": 38.932641333333336, "name": "37fc6bcad77a9c6d5c6f7a5867133746", "fusion_lon": 0.0, "bike_id": "37fc6bcad77a9c6d5c6f7a5867133746", "is_disabled": 0, "is_reserved": 0}, {"rental_uris": {"ios": "https://dc.lft.to/lastmile_qr_scan", "android": "https://dc.lft.to/lastmile_qr_scan"}, "lon": -76.98713366666667, "type": "electric_scooter", "fusion_lat": 0.0, "lat": 38.86258866666667, "name": "b4927ad8271004f67424bf58da691ded", "fusion_lon": 0.0, "bike_id": "b4927ad8271004f67424bf58da691ded", "is_disabled": 0, "is_reserved": 0}, {"rental_uris": {"ios": "https://dc.lft.to/lastmile_qr_scan", "android": "https://dc.lft.to/lastmile_qr_scan"}, "lon": -76.94172516666667, "type": "electric_scooter", "fusion_lat": 0.0, "lat": 38.882244666666665, "name": "78fd3ba9e7eb951bdd09f446e4d49a6a", "fusion_lon": 0.0, "bike_id": "78fd3ba9e7eb951bdd09f446e4d49a6a", "is_disabled": 0, "is_reserved": 0}, {"rental_uris": {"ios": "https://dc.lft.to/lastmile_qr_scan", "android": "https://dc.lft.to/lastmile_qr_scan"}, "lon": -77.03229033333334, "type": "electric_scooter", "fusion_lat": 0.0, "lat": 38.91553783333333, "name": "98a9424d853e9da37a58c7b2ec20ce70", "fusion_lon": 0.0, "bike_id": "98a9424d853e9da37a58c7b2ec20ce70", "is_disabled": 0, "is_reserved": 0}, {"rental_uris": {"ios": "https://dc.lft.to/lastmile_qr_scan", "android": "https://dc.lft.to/lastmile_qr_scan"}, "lon": -77.054678, "type": "electric_scooter", "fusion_lat": 0.0, "lat": 38.920976833333334, "name": "f0ccf03d52167dfdb9414c6a8ddfaa1f", "fusion_lon": 0.0, "bike_id": "f0ccf03d52167dfdb9414c6a8ddfaa1f", "is_disabled": 0, "is_reserved": 0}, {"rental_uris": {"ios": "https://dc.lft.to/lastmile_qr_scan", "android": "https://dc.lft.to/lastmile_qr_scan"}, "lon": -77.02713783333333, "type": "electric_scooter", "fusion_lat": 0.0, "lat": 38.924688333333336, "name": "0de81a2a370f4daa673874357d9e4470", "fusion_lon": 0.0, "bike_id": "0de81a2a370f4daa673874357d9e4470", "is_disabled": 0, "is_reserved": 0}, {"rental_uris": {"ios": "https://dc.lft.to/lastmile_qr_scan", "android": "https://dc.lft.to/lastmile_qr_scan"}, "lon": -76.95534183333334, "type": "electric_scooter", "fusion_lat": 0.0, "lat": 38.887861666666666, "name": "e31d3c00e8cd67fde4a781ff42b48e23", "fusion_lon": 0.0, "bike_id": "e31d3c00e8cd67fde4a781ff42b48e23", "is_disabled": 0, "is_reserved": 0}, {"rental_uris": {"ios": "https://dc.lft.to/lastmile_qr_scan", "android": "https://dc.lft.to/lastmile_qr_scan"}, "lon": -77.0534945, "type": "electric_scooter", "fusion_lat": 0.0, "lat": 38.92720633333333, "name": "b666f88cad5e0d5f2b4e13a3c390fe32", "fusion_lon": 0.0, "bike_id": "b666f88cad5e0d5f2b4e13a3c390fe32", "is_disabled": 0, "is_reserved": 0}, {"rental_uris": {"ios": "https://dc.lft.to/lastmile_qr_scan", "android": "https://dc.lft.to/lastmile_qr_scan"}, "lon": -77.04129216666666, "type": "electric_scooter", "fusion_lat": 0.0, "lat": 38.9243455, "name": "0761f1684cf06b96ad07da6dd6a00be9", "fusion_lon": 0.0, "bike_id": "0761f1684cf06b96ad07da6dd6a00be9", "is_disabled": 0, "is_reserved": 0}, {"rental_uris": {"ios": "https://dc.lft.to/lastmile_qr_scan", "android": "https://dc.lft.to/lastmile_qr_scan"}, "lon": -77.02951883333333, "type": "electric_scooter", "fusion_lat": 0.0, "lat": 38.932432, "name": "1782c7039c3d4f21ece251897ee21522", "fusion_lon": 0.0, "bike_id": "1782c7039c3d4f21ece251897ee21522", "is_disabled": 0, "is_reserved": 0}, {"rental_uris": {"ios": "https://dc.lft.to/lastmile_qr_scan", "android": "https://dc.lft.to/lastmile_qr_scan"}, "lon": -77.02835466666667, "type": "electric_scooter", "fusion_lat": 0.0, "lat": 38.928591833333336, "name": "9f5c60595b072cecd852c46fc33a7eaf", "fusion_lon": 0.0, "bike_id": "9f5c60595b072cecd852c46fc33a7eaf", "is_disabled": 0, "is_reserved": 0}, {"rental_uris": {"ios": "https://dc.lft.to/lastmile_qr_scan", "android": "https://dc.lft.to/lastmile_qr_scan"}, "lon": -77.03067866666666, "type": "electric_scooter", "fusion_lat": 0.0, "lat": 38.894672, "name": "5e5268863ef4f0bc24cd9947bf2ea327", "fusion_lon": 0.0, "bike_id": "5e5268863ef4f0bc24cd9947bf2ea327", "is_disabled": 0, "is_reserved": 0}, {"rental_uris": {"ios": "https://dc.lft.to/lastmile_qr_scan", "android": "https://dc.lft.to/lastmile_qr_scan"}, "lon": -77.07391066666666, "type": "electric_bike", "fusion_lat": 0.0, "lat": 38.9617845, "name": "951f1c9a9ec067beeecbde6d6d3f30af", "fusion_lon": 0.0, "bike_id": "951f1c9a9ec067beeecbde6d6d3f30af", "is_disabled": 0, "is_reserved": 0}, {"rental_uris": {"ios": "https://dc.lft.to/lastmile_qr_scan", "android": "https://dc.lft.to/lastmile_qr_scan"}, "lon": -77.10508366666667, "type": "electric_bike", "fusion_lat": 0.0, "lat": 38.928489666666664, "name": "e89053a25f8c94cd3a398a961711a03f", "fusion_lon": 0.0, "bike_id": "e89053a25f8c94cd3a398a961711a03f", "is_disabled": 0, "is_reserved": 0}, {"rental_uris": {"ios": "https://dc.lft.to/lastmile_qr_scan", "android": "https://dc.lft.to/lastmile_qr_scan"}, "lon": -77.03639066666666, "type": "electric_scooter", "fusion_lat": 0.0, "lat": 38.906832, "name": "1328d0375b1a386dc84e56d4944123d0", "fusion_lon": 0.0, "bike_id": "1328d0375b1a386dc84e56d4944123d0", "is_disabled": 0, "is_reserved": 0}, {"rental_uris": {"ios": "https://dc.lft.to/lastmile_qr_scan", "android": "https://dc.lft.to/lastmile_qr_scan"}, "lon": -76.969872, "type": "electric_scooter", "fusion_lat": 0.0, "lat": 38.86161466666667, "name": "2bcc2fcbd5bdd1c3436a3f2f65929c32", "fusion_lon": 0.0, "bike_id": "2bcc2fcbd5bdd1c3436a3f2f65929c32", "is_disabled": 0, "is_reserved": 0}, {"rental_uris": {"ios": "https://dc.lft.to/lastmile_qr_scan", "android": "https://dc.lft.to/lastmile_qr_scan"}, "lon": -76.99959316666667, "type": "electric_scooter", "fusion_lat": 0.0, "lat": 38.908690166666666, "name": "864ce14a002d6f43740d64f0f34e634a", "fusion_lon": 0.0, "bike_id": "864ce14a002d6f43740d64f0f34e634a", "is_disabled": 0, "is_reserved": 0}, {"rental_uris": {"ios": "https://dc.lft.to/lastmile_qr_scan", "android": "https://dc.lft.to/lastmile_qr_scan"}, "lon": -77.01537833333333, "type": "electric_scooter", "fusion_lat": 0.0, "lat": 38.88739116666667, "name": "12f8b46f06b3c0d147b85a715927c4c1", "fusion_lon": 0.0, "bike_id": "12f8b46f06b3c0d147b85a715927c4c1", "is_disabled": 0, "is_reserved": 0}, {"rental_uris": {"ios": "https://dc.lft.to/lastmile_qr_scan", "android": "https://dc.lft.to/lastmile_qr_scan"}, "lon": -77.027468, "type": "electric_scooter", "fusion_lat": 0.0, "lat": 38.9277045, "name": "17134564ad591a046e52d9ebf09ae2ef", "fusion_lon": 0.0, "bike_id": "17134564ad591a046e52d9ebf09ae2ef", "is_disabled": 0, "is_reserved": 0}, {"rental_uris": {"ios": "https://dc.lft.to/lastmile_qr_scan", "android": "https://dc.lft.to/lastmile_qr_scan"}, "lon": -77.03071983333334, "type": "electric_scooter", "fusion_lat": 0.0, "lat": 38.92388916666667, "name": "c0c0c5c7764cc8cb72c3084b76fcd9dd", "fusion_lon": 0.0, "bike_id": "c0c0c5c7764cc8cb72c3084b76fcd9dd", "is_disabled": 0, "is_reserved": 0}, {"rental_uris": {"ios": "https://dc.lft.to/lastmile_qr_scan", "android": "https://dc.lft.to/lastmile_qr_scan"}, "lon": -76.9486385, "type": "electric_scooter", "fusion_lat": 0.0, "lat": 38.895952666666666, "name": "38fb7ae1e4e6e28cb2d5465699d6f6e4", "fusion_lon": 0.0, "bike_id": "38fb7ae1e4e6e28cb2d5465699d6f6e4", "is_disabled": 0, "is_reserved": 0}, {"rental_uris": {"ios": "https://dc.lft.to/lastmile_qr_scan", "android": "https://dc.lft.to/lastmile_qr_scan"}, "lon": -77.02802133333333, "type": "electric_scooter", "fusion_lat": 0.0, "lat": 38.910711166666665, "name": "8314ff894f3c1ebe18b8d9db2dd50df5", "fusion_lon": 0.0, "bike_id": "8314ff894f3c1ebe18b8d9db2dd50df5", "is_disabled": 0, "is_reserved": 0}, {"rental_uris": {"ios": "https://dc.lft.to/lastmile_qr_scan", "android": "https://dc.lft.to/lastmile_qr_scan"}, "lon": -77.027189, "type": "electric_scooter", "fusion_lat": 0.0, "lat": 38.90684866666667, "name": "e9f2e1c8bbcca018f32f2dd8d0033f9a", "fusion_lon": 0.0, "bike_id": "e9f2e1c8bbcca018f32f2dd8d0033f9a", "is_disabled": 0, "is_reserved": 0}, {"rental_uris": {"ios": "https://dc.lft.to/lastmile_qr_scan", "android": "https://dc.lft.to/lastmile_qr_scan"}, "lon": -77.12731883333333, "type": "electric_bike", "fusion_lat": 0.0, "lat": 38.895643666666665, "name": "8f73ec0355592eb77b30b62af6d3494d", "fusion_lon": 0.0, "bike_id": "8f73ec0355592eb77b30b62af6d3494d", "is_disabled": 0, "is_reserved": 0}, {"rental_uris": {"ios": "https://dc.lft.to/lastmile_qr_scan", "android": "https://dc.lft.to/lastmile_qr_scan"}, "lon": -77.0271385, "type": "electric_scooter", "fusion_lat": 0.0, "lat": 38.909134333333334, "name": "23d304fcbf66f7f7dbcf1e2864114c91", "fusion_lon": 0.0, "bike_id": "23d304fcbf66f7f7dbcf1e2864114c91", "is_disabled": 0, "is_reserved": 0}, {"rental_uris": {"ios": "https://dc.lft.to/lastmile_qr_scan", "android": "https://dc.lft.to/lastmile_qr_scan"}, "lon": -77.01069116666666, "type": "electric_bike", "fusion_lat": 0.0, "lat": 38.919189833333334, "name": "866753b2dcfc625c2ef26670ba65e3bd", "fusion_lon": 0.0, "bike_id": "866753b2dcfc625c2ef26670ba65e3bd", "is_disabled": 0, "is_reserved": 0}, {"rental_uris": {"ios": "https://dc.lft.to/lastmile_qr_scan", "android": "https://dc.lft.to/lastmile_qr_scan"}, "lon": -76.916527, "type": "electric_bike", "fusion_lat": 0.0, "lat": 38.86858133333333, "name": "aa6c72790482e02a4564532e3265f743", "fusion_lon": 0.0, "bike_id": "aa6c72790482e02a4564532e3265f743", "is_disabled": 0, "is_reserved": 0}, {"rental_uris": {"ios": "https://dc.lft.to/lastmile_qr_scan", "android": "https://dc.lft.to/lastmile_qr_scan"}, "lon": -76.990107, "type": "electric_scooter", "fusion_lat": 0.0, "lat": 38.903884833333336, "name": "8c0f67605c26f2536db53fddfa132ff2", "fusion_lon": 0.0, "bike_id": "8c0f67605c26f2536db53fddfa132ff2", "is_disabled": 0, "is_reserved": 0}, {"rental_uris": {"ios": "https://dc.lft.to/lastmile_qr_scan", "android": "https://dc.lft.to/lastmile_qr_scan"}, "lon": -77.01069266666667, "type": "electric_scooter", "fusion_lat": 0.0, "lat": 38.874747, "name": "9632971eb95d2fc0385992bed7681089", "fusion_lon": 0.0, "bike_id": "9632971eb95d2fc0385992bed7681089", "is_disabled": 0, "is_reserved": 0}, {"rental_uris": {"ios": "https://dc.lft.to/lastmile_qr_scan", "android": "https://dc.lft.to/lastmile_qr_scan"}, "lon": -77.0097705, "type": "electric_scooter", "fusion_lat": 0.0, "lat": 38.914170666666664, "name": "a663af05f954d3dd40fcea39a3528033", "fusion_lon": 0.0, "bike_id": "a663af05f954d3dd40fcea39a3528033", "is_disabled": 0, "is_reserved": 0}, {"rental_uris": {"ios": "https://dc.lft.to/lastmile_qr_scan", "android": "https://dc.lft.to/lastmile_qr_scan"}, "lon": -77.12624733333334, "type": "electric_bike", "fusion_lat": 0.0, "lat": 39.05812533333334, "name": "0527e927826fd3df3075569ecb0924e3", "fusion_lon": 0.0, "bike_id": "0527e927826fd3df3075569ecb0924e3", "is_disabled": 0, "is_reserved": 0}, {"rental_uris": {"ios": "https://dc.lft.to/lastmile_qr_scan", "android": "https://dc.lft.to/lastmile_qr_scan"}, "lon": -76.978321, "type": "electric_bike", "fusion_lat": 0.0, "lat": 38.8460735, "name": "65d79f4e548eddae93217481bfa1f901", "fusion_lon": 0.0, "bike_id": "65d79f4e548eddae93217481bfa1f901", "is_disabled": 0, "is_reserved": 0}, {"rental_uris": {"ios": "https://dc.lft.to/lastmile_qr_scan", "android": "https://dc.lft.to/lastmile_qr_scan"}, "lon": -77.013825, "type": "electric_scooter", "fusion_lat": 0.0, "lat": 38.928393166666666, "name": "56a188ac3310ae87fc1682d2c12bd900", "fusion_lon": 0.0, "bike_id": "56a188ac3310ae87fc1682d2c12bd900", "is_disabled": 0, "is_reserved": 0}, {"rental_uris": {"ios": "https://dc.lft.to/lastmile_qr_scan", "android": "https://dc.lft.to/lastmile_qr_scan"}, "lon": -77.03913233333333, "type": "electric_scooter", "fusion_lat": 0.0, "lat": 38.92100533333333, "name": "b46438ef35a63fc335032ec3c59a49f9", "fusion_lon": 0.0, "bike_id": "b46438ef35a63fc335032ec3c59a49f9", "is_disabled": 0, "is_reserved": 0}, {"rental_uris": {"ios": "https://dc.lft.to/lastmile_qr_scan", "android": "https://dc.lft.to/lastmile_qr_scan"}, "lon": -77.17847983333333, "type": "electric_bike", "fusion_lat": 0.0, "lat": 39.089008166666666, "name": "e5cd9c250f2610c002d66e5e19f1de14", "fusion_lon": 0.0, "bike_id": "e5cd9c250f2610c002d66e5e19f1de14", "is_disabled": 0, "is_reserved": 0}, {"rental_uris": {"ios": "https://dc.lft.to/lastmile_qr_scan", "android": "https://dc.lft.to/lastmile_qr_scan"}, "lon": -77.041604, "type": "electric_scooter", "fusion_lat": 0.0, "lat": 38.914844, "name": "8bdd108dae7435abd524c92f93aeb6e1", "fusion_lon": 0.0, "bike_id": "8bdd108dae7435abd524c92f93aeb6e1", "is_disabled": 0, "is_reserved": 0}, {"rental_uris": {"ios": "https://dc.lft.to/lastmile_qr_scan", "android": "https://dc.lft.to/lastmile_qr_scan"}, "lon": -77.00799433333333, "type": "electric_bike", "fusion_lat": 0.0, "lat": 38.949213, "name": "58b796efa654a1ad46dcc8fcb4c84334", "fusion_lon": 0.0, "bike_id": "58b796efa654a1ad46dcc8fcb4c84334", "is_disabled": 0, "is_reserved": 0}, {"rental_uris": {"ios": "https://dc.lft.to/lastmile_qr_scan", "android": "https://dc.lft.to/lastmile_qr_scan"}, "lon": -77.0322495, "type": "electric_scooter", "fusion_lat": 0.0, "lat": 38.90771516666667, "name": "ce3d996e4b1323807b227c89ad7f5207", "fusion_lon": 0.0, "bike_id": "ce3d996e4b1323807b227c89ad7f5207", "is_disabled": 0, "is_reserved": 0}, {"rental_uris": {"ios": "https://dc.lft.to/lastmile_qr_scan", "android": "https://dc.lft.to/lastmile_qr_scan"}, "lon": -76.99632516666667, "type": "electric_bike", "fusion_lat": 0.0, "lat": 38.84667, "name": "ad5774db3c2e13a6d34ea084c6eb6808", "fusion_lon": 0.0, "bike_id": "ad5774db3c2e13a6d34ea084c6eb6808", "is_disabled": 0, "is_reserved": 0}, {"rental_uris": {"ios": "https://dc.lft.to/lastmile_qr_scan", "android": "https://dc.lft.to/lastmile_qr_scan"}, "lon": -77.02214383333333, "type": "electric_scooter", "fusion_lat": 0.0, "lat": 38.912694333333334, "name": "d277393a26033f19767457cefef25d3c", "fusion_lon": 0.0, "bike_id": "d277393a26033f19767457cefef25d3c", "is_disabled": 0, "is_reserved": 0}, {"rental_uris": {"ios": "https://dc.lft.to/lastmile_qr_scan", "android": "https://dc.lft.to/lastmile_qr_scan"}, "lon": -77.0706345, "type": "electric_scooter", "fusion_lat": 0.0, "lat": 38.9011105, "name": "193f27266e9f1bbdfa9180f24e2b141e", "fusion_lon": 0.0, "bike_id": "193f27266e9f1bbdfa9180f24e2b141e", "is_disabled": 0, "is_reserved": 0}, {"rental_uris": {"ios": "https://dc.lft.to/lastmile_qr_scan", "android": "https://dc.lft.to/lastmile_qr_scan"}, "lon": -77.12374033333333, "type": "electric_bike", "fusion_lat": 0.0, "lat": 38.847382333333336, "name": "0a137a81f05d7838a536d5f08de708ab", "fusion_lon": 0.0, "bike_id": "0a137a81f05d7838a536d5f08de708ab", "is_disabled": 0, "is_reserved": 0}, {"rental_uris": {"ios": "https://dc.lft.to/lastmile_qr_scan", "android": "https://dc.lft.to/lastmile_qr_scan"}, "lon": -77.0295395, "type": "electric_scooter", "fusion_lat": 0.0, "lat": 38.91631433333333, "name": "c3f09b1980fbb4947db7cec1912b65f9", "fusion_lon": 0.0, "bike_id": "c3f09b1980fbb4947db7cec1912b65f9", "is_disabled": 0, "is_reserved": 0}, {"rental_uris": {"ios": "https://dc.lft.to/lastmile_qr_scan", "android": "https://dc.lft.to/lastmile_qr_scan"}, "lon": -77.0437445, "type": "electric_scooter", "fusion_lat": 0.0, "lat": 38.93157083333333, "name": "2fce928c8ced3e59bd7d259e21fc4319", "fusion_lon": 0.0, "bike_id": "2fce928c8ced3e59bd7d259e21fc4319", "is_disabled": 0, "is_reserved": 0}, {"rental_uris": {"ios": "https://dc.lft.to/lastmile_qr_scan", "android": "https://dc.lft.to/lastmile_qr_scan"}, "lon": -77.008812, "type": "electric_scooter", "fusion_lat": 0.0, "lat": 38.879137, "name": "21aabe98bd61853345d681a910824446", "fusion_lon": 0.0, "bike_id": "21aabe98bd61853345d681a910824446", "is_disabled": 0, "is_reserved": 0}, {"rental_uris": {"ios": "https://dc.lft.to/lastmile_qr_scan", "android": "https://dc.lft.to/lastmile_qr_scan"}, "lon": -77.03219666666666, "type": "electric_scooter", "fusion_lat": 0.0, "lat": 38.918080333333336, "name": "730171b317085e018c69bbf033d0193a", "fusion_lon": 0.0, "bike_id": "730171b317085e018c69bbf033d0193a", "is_disabled": 0, "is_reserved": 0}, {"rental_uris": {"ios": "https://dc.lft.to/lastmile_qr_scan", "android": "https://dc.lft.to/lastmile_qr_scan"}, "lon": -77.02453066666666, "type": "electric_scooter", "fusion_lat": 0.0, "lat": 38.9385215, "name": "69cf557d8efeeb5388949d61f6b25578", "fusion_lon": 0.0, "bike_id": "69cf557d8efeeb5388949d61f6b25578", "is_disabled": 0, "is_reserved": 0}, {"rental_uris": {"ios": "https://dc.lft.to/lastmile_qr_scan", "android": "https://dc.lft.to/lastmile_qr_scan"}, "lon": -76.98823783333333, "type": "electric_scooter", "fusion_lat": 0.0, "lat": 38.880245333333335, "name": "584dee94e059dd20ca7b961e05b79a9a", "fusion_lon": 0.0, "bike_id": "584dee94e059dd20ca7b961e05b79a9a", "is_disabled": 0, "is_reserved": 0}, {"rental_uris": {"ios": "https://dc.lft.to/lastmile_qr_scan", "android": "https://dc.lft.to/lastmile_qr_scan"}, "lon": -77.04841416666666, "type": "electric_scooter", "fusion_lat": 0.0, "lat": 38.91108883333333, "name": "80732adba86c096a09417a777666ed4a", "fusion_lon": 0.0, "bike_id": "80732adba86c096a09417a777666ed4a", "is_disabled": 0, "is_reserved": 0}, {"rental_uris": {"ios": "https://dc.lft.to/lastmile_qr_scan", "android": "https://dc.lft.to/lastmile_qr_scan"}, "lon": -77.0357185, "type": "electric_scooter", "fusion_lat": 0.0, "lat": 38.92742033333333, "name": "c59ae1df2738bfad007030bb83b0a13f", "fusion_lon": 0.0, "bike_id": "c59ae1df2738bfad007030bb83b0a13f", "is_disabled": 0, "is_reserved": 0}, {"rental_uris": {"ios": "https://dc.lft.to/lastmile_qr_scan", "android": "https://dc.lft.to/lastmile_qr_scan"}, "lon": -77.03586683333333, "type": "electric_scooter", "fusion_lat": 0.0, "lat": 38.9314125, "name": "d7f04364c721495f561601cf12e8bebd", "fusion_lon": 0.0, "bike_id": "d7f04364c721495f561601cf12e8bebd", "is_disabled": 0, "is_reserved": 0}, {"rental_uris": {"ios": "https://dc.lft.to/lastmile_qr_scan", "android": "https://dc.lft.to/lastmile_qr_scan"}, "lon": -77.0688075, "type": "electric_scooter", "fusion_lat": 0.0, "lat": 38.90513383333333, "name": "bca2b2be639e1f4de95038b1e2d3aab5", "fusion_lon": 0.0, "bike_id": "bca2b2be639e1f4de95038b1e2d3aab5", "is_disabled": 0, "is_reserved": 0}, {"rental_uris": {"ios": "https://dc.lft.to/lastmile_qr_scan", "android": "https://dc.lft.to/lastmile_qr_scan"}, "lon": -77.00201983333334, "type": "electric_scooter", "fusion_lat": 0.0, "lat": 38.9083715, "name": "22997af3928fffeec534c929ba7fc44a", "fusion_lon": 0.0, "bike_id": "22997af3928fffeec534c929ba7fc44a", "is_disabled": 0, "is_reserved": 0}, {"rental_uris": {"ios": "https://dc.lft.to/lastmile_qr_scan", "android": "https://dc.lft.to/lastmile_qr_scan"}, "lon": -77.04136016666666, "type": "electric_scooter", "fusion_lat": 0.0, "lat": 38.92203766666667, "name": "90fb0b2448b36d3bdb1141bdb4f004d5", "fusion_lon": 0.0, "bike_id": "90fb0b2448b36d3bdb1141bdb4f004d5", "is_disabled": 0, "is_reserved": 0}, {"rental_uris": {"ios": "https://dc.lft.to/lastmile_qr_scan", "android": "https://dc.lft.to/lastmile_qr_scan"}, "lon": -77.06362166666666, "type": "electric_scooter", "fusion_lat": 0.0, "lat": 38.909375833333335, "name": "620f3d684f1ceda7a037202435914583", "fusion_lon": 0.0, "bike_id": "620f3d684f1ceda7a037202435914583", "is_disabled": 0, "is_reserved": 0}, {"rental_uris": {"ios": "https://dc.lft.to/lastmile_qr_scan", "android": "https://dc.lft.to/lastmile_qr_scan"}, "lon": -77.02408866666667, "type": "electric_bike", "fusion_lat": 0.0, "lat": 38.994357666666666, "name": "87e8c4d95688e790a25145c9e32d1026", "fusion_lon": 0.0, "bike_id": "87e8c4d95688e790a25145c9e32d1026", "is_disabled": 0, "is_reserved": 0}, {"rental_uris": {"ios": "https://dc.lft.to/lastmile_qr_scan", "android": "https://dc.lft.to/lastmile_qr_scan"}, "lon": -77.04520216666667, "type": "electric_scooter", "fusion_lat": 0.0, "lat": 38.9128285, "name": "60ec457f03365d84fc93ef7331a08b41", "fusion_lon": 0.0, "bike_id": "60ec457f03365d84fc93ef7331a08b41", "is_disabled": 0, "is_reserved": 0}, {"rental_uris": {"ios": "https://dc.lft.to/lastmile_qr_scan", "android": "https://dc.lft.to/lastmile_qr_scan"}, "lon": -76.98820533333334, "type": "electric_scooter", "fusion_lat": 0.0, "lat": 38.83583216666667, "name": "3eb3368ef02dbc2b83588e74a1de7d7d", "fusion_lon": 0.0, "bike_id": "3eb3368ef02dbc2b83588e74a1de7d7d", "is_disabled": 0, "is_reserved": 0}, {"rental_uris": {"ios": "https://dc.lft.to/lastmile_qr_scan", "android": "https://dc.lft.to/lastmile_qr_scan"}, "lon": -77.07048266666666, "type": "electric_bike", "fusion_lat": 0.0, "lat": 38.82440616666667, "name": "4b6f223fd914acddcd5e87415e3894cd", "fusion_lon": 0.0, "bike_id": "4b6f223fd914acddcd5e87415e3894cd", "is_disabled": 0, "is_reserved": 0}, {"rental_uris": {"ios": "https://dc.lft.to/lastmile_qr_scan", "android": "https://dc.lft.to/lastmile_qr_scan"}, "lon": -77.03983683333334, "type": "electric_scooter", "fusion_lat": 0.0, "lat": 38.902825666666665, "name": "34e1b8119fecfb098a79c161bb63919e", "fusion_lon": 0.0, "bike_id": "34e1b8119fecfb098a79c161bb63919e", "is_disabled": 0, "is_reserved": 0}, {"rental_uris": {"ios": "https://dc.lft.to/lastmile_qr_scan", "android": "https://dc.lft.to/lastmile_qr_scan"}, "lon": -77.01634533333333, "type": "electric_scooter", "fusion_lat": 0.0, "lat": 38.90370883333333, "name": "be07f45200062ea6eff0373b887f9d95", "fusion_lon": 0.0, "bike_id": "be07f45200062ea6eff0373b887f9d95", "is_disabled": 0, "is_reserved": 0}, {"rental_uris": {"ios": "https://dc.lft.to/lastmile_qr_scan", "android": "https://dc.lft.to/lastmile_qr_scan"}, "lon": -77.040555, "type": "electric_scooter", "fusion_lat": 0.0, "lat": 38.926514166666664, "name": "51b88505b0cb2f575783423e49673114", "fusion_lon": 0.0, "bike_id": "51b88505b0cb2f575783423e49673114", "is_disabled": 0, "is_reserved": 0}, {"rental_uris": {"ios": "https://dc.lft.to/lastmile_qr_scan", "android": "https://dc.lft.to/lastmile_qr_scan"}, "lon": -77.00931033333333, "type": "electric_scooter", "fusion_lat": 0.0, "lat": 38.8719655, "name": "9740a3832dd666ef086d73425eb3759f", "fusion_lon": 0.0, "bike_id": "9740a3832dd666ef086d73425eb3759f", "is_disabled": 0, "is_reserved": 0}, {"rental_uris": {"ios": "https://dc.lft.to/lastmile_qr_scan", "android": "https://dc.lft.to/lastmile_qr_scan"}, "lon": -76.91603866666667, "type": "electric_bike", "fusion_lat": 0.0, "lat": 38.879835166666666, "name": "b08716bfd2c8428c0ac4a9651641a6b0", "fusion_lon": 0.0, "bike_id": "b08716bfd2c8428c0ac4a9651641a6b0", "is_disabled": 0, "is_reserved": 0}, {"rental_uris": {"ios": "https://dc.lft.to/lastmile_qr_scan", "android": "https://dc.lft.to/lastmile_qr_scan"}, "lon": -77.066015, "type": "electric_scooter", "fusion_lat": 0.0, "lat": 38.9053045, "name": "ee8d3124d79351f5be633ccdcaba5365", "fusion_lon": 0.0, "bike_id": "ee8d3124d79351f5be633ccdcaba5365", "is_disabled": 0, "is_reserved": 0}, {"rental_uris": {"ios": "https://dc.lft.to/lastmile_qr_scan", "android": "https://dc.lft.to/lastmile_qr_scan"}, "lon": -77.048121, "type": "electric_scooter", "fusion_lat": 0.0, "lat": 38.9163415, "name": "e483569c0e7377ce787dea1139f8a62b", "fusion_lon": 0.0, "bike_id": "e483569c0e7377ce787dea1139f8a62b", "is_disabled": 0, "is_reserved": 0}, {"rental_uris": {"ios": "https://dc.lft.to/lastmile_qr_scan", "android": "https://dc.lft.to/lastmile_qr_scan"}, "lon": -77.03260266666666, "type": "electric_scooter", "fusion_lat": 0.0, "lat": 38.944159166666665, "name": "e9e1e01d62337430686311efde590e12", "fusion_lon": 0.0, "bike_id": "e9e1e01d62337430686311efde590e12", "is_disabled": 0, "is_reserved": 0}, {"rental_uris": {"ios": "https://dc.lft.to/lastmile_qr_scan", "android": "https://dc.lft.to/lastmile_qr_scan"}, "lon": -76.99778316666666, "type": "electric_scooter", "fusion_lat": 0.0, "lat": 38.8442765, "name": "8ad0b27ede7d4b34b86c7d2c4431c16b", "fusion_lon": 0.0, "bike_id": "8ad0b27ede7d4b34b86c7d2c4431c16b", "is_disabled": 0, "is_reserved": 0}, {"rental_uris": {"ios": "https://dc.lft.to/lastmile_qr_scan", "android": "https://dc.lft.to/lastmile_qr_scan"}, "lon": -77.03037833333333, "type": "electric_scooter", "fusion_lat": 0.0, "lat": 38.922452, "name": "def4b6e9d583be1e82f079a10fe5ab76", "fusion_lon": 0.0, "bike_id": "def4b6e9d583be1e82f079a10fe5ab76", "is_disabled": 0, "is_reserved": 0}, {"rental_uris": {"ios": "https://dc.lft.to/lastmile_qr_scan", "android": "https://dc.lft.to/lastmile_qr_scan"}, "lon": -77.01793916666666, "type": "electric_scooter", "fusion_lat": 0.0, "lat": 38.941232166666666, "name": "490872ab513acb8b89c2d9b530a62f13", "fusion_lon": 0.0, "bike_id": "490872ab513acb8b89c2d9b530a62f13", "is_disabled": 0, "is_reserved": 0}, {"rental_uris": {"ios": "https://dc.lft.to/lastmile_qr_scan", "android": "https://dc.lft.to/lastmile_qr_scan"}, "lon": -76.99947383333334, "type": "electric_bike", "fusion_lat": 0.0, "lat": 38.92342683333333, "name": "218efbd2c3c5af7bd0004946cc9263bf", "fusion_lon": 0.0, "bike_id": "218efbd2c3c5af7bd0004946cc9263bf", "is_disabled": 0, "is_reserved": 0}, {"rental_uris": {"ios": "https://dc.lft.to/lastmile_qr_scan", "android": "https://dc.lft.to/lastmile_qr_scan"}, "lon": -77.0332575, "type": "electric_scooter", "fusion_lat": 0.0, "lat": 38.89827583333334, "name": "b5df2529c81840299539972903c6a956", "fusion_lon": 0.0, "bike_id": "b5df2529c81840299539972903c6a956", "is_disabled": 0, "is_reserved": 0}, {"rental_uris": {"ios": "https://dc.lft.to/lastmile_qr_scan", "android": "https://dc.lft.to/lastmile_qr_scan"}, "lon": -77.029595, "type": "electric_scooter", "fusion_lat": 0.0, "lat": 38.9252845, "name": "6489bc565f996e0a2ad3897ed8944bd6", "fusion_lon": 0.0, "bike_id": "6489bc565f996e0a2ad3897ed8944bd6", "is_disabled": 0, "is_reserved": 0}, {"rental_uris": {"ios": "https://dc.lft.to/lastmile_qr_scan", "android": "https://dc.lft.to/lastmile_qr_scan"}, "lon": -77.02765633333334, "type": "electric_scooter", "fusion_lat": 0.0, "lat": 38.91691, "name": "13cce692bf43bdadb169adb94e3fe5ae", "fusion_lon": 0.0, "bike_id": "13cce692bf43bdadb169adb94e3fe5ae", "is_disabled": 0, "is_reserved": 0}, {"rental_uris": {"ios": "https://dc.lft.to/lastmile_qr_scan", "android": "https://dc.lft.to/lastmile_qr_scan"}, "lon": -77.04557133333333, "type": "electric_scooter", "fusion_lat": 0.0, "lat": 38.903793, "name": "88e55596f397f75b6235b98581f7b78c", "fusion_lon": 0.0, "bike_id": "88e55596f397f75b6235b98581f7b78c", "is_disabled": 0, "is_reserved": 0}, {"rental_uris": {"ios": "https://dc.lft.to/lastmile_qr_scan", "android": "https://dc.lft.to/lastmile_qr_scan"}, "lon": -77.04810916666666, "type": "electric_scooter", "fusion_lat": 0.0, "lat": 38.8974505, "name": "7e7505d97ef0063469befbd7cfb03fc1", "fusion_lon": 0.0, "bike_id": "7e7505d97ef0063469befbd7cfb03fc1", "is_disabled": 0, "is_reserved": 0}, {"rental_uris": {"ios": "https://dc.lft.to/lastmile_qr_scan", "android": "https://dc.lft.to/lastmile_qr_scan"}, "lon": -77.01218483333334, "type": "electric_scooter", "fusion_lat": 0.0, "lat": 38.92036016666667, "name": "a697f07379432ea3ce81eaf62e70a8e4", "fusion_lon": 0.0, "bike_id": "a697f07379432ea3ce81eaf62e70a8e4", "is_disabled": 0, "is_reserved": 0}, {"rental_uris": {"ios": "https://dc.lft.to/lastmile_qr_scan", "android": "https://dc.lft.to/lastmile_qr_scan"}, "lon": -77.02372083333333, "type": "electric_scooter", "fusion_lat": 0.0, "lat": 38.91960483333333, "name": "9801f18b7f8d0e9bacd00a5b783c3e17", "fusion_lon": 0.0, "bike_id": "9801f18b7f8d0e9bacd00a5b783c3e17", "is_disabled": 0, "is_reserved": 0}, {"rental_uris": {"ios": "https://dc.lft.to/lastmile_qr_scan", "android": "https://dc.lft.to/lastmile_qr_scan"}, "lon": -76.99161333333333, "type": "electric_scooter", "fusion_lat": 0.0, "lat": 38.89344033333333, "name": "a49deee813b4af49934ff799e1e03057", "fusion_lon": 0.0, "bike_id": "a49deee813b4af49934ff799e1e03057", "is_disabled": 0, "is_reserved": 0}, {"rental_uris": {"ios": "https://dc.lft.to/lastmile_qr_scan", "android": "https://dc.lft.to/lastmile_qr_scan"}, "lon": -77.05519616666666, "type": "electric_scooter", "fusion_lat": 0.0, "lat": 38.91057383333333, "name": "733ccd35a1b32094957fa90baafc90e5", "fusion_lon": 0.0, "bike_id": "733ccd35a1b32094957fa90baafc90e5", "is_disabled": 0, "is_reserved": 0}, {"rental_uris": {"ios": "https://dc.lft.to/lastmile_qr_scan", "android": "https://dc.lft.to/lastmile_qr_scan"}, "lon": -77.02978183333333, "type": "electric_scooter", "fusion_lat": 0.0, "lat": 38.91633366666667, "name": "829e8891041606e211d759f3d5c1b66e", "fusion_lon": 0.0, "bike_id": "829e8891041606e211d759f3d5c1b66e", "is_disabled": 0, "is_reserved": 0}, {"rental_uris": {"ios": "https://dc.lft.to/lastmile_qr_scan", "android": "https://dc.lft.to/lastmile_qr_scan"}, "lon": -76.9843555, "type": "electric_scooter", "fusion_lat": 0.0, "lat": 38.91460333333333, "name": "25a581eb2acff7406f11cb2d7d46e708", "fusion_lon": 0.0, "bike_id": "25a581eb2acff7406f11cb2d7d46e708", "is_disabled": 0, "is_reserved": 0}, {"rental_uris": {"ios": "https://dc.lft.to/lastmile_qr_scan", "android": "https://dc.lft.to/lastmile_qr_scan"}, "lon": -76.99363283333334, "type": "electric_scooter", "fusion_lat": 0.0, "lat": 38.90041183333334, "name": "6e0ff0556a74711a7d11d28b346dc0f8", "fusion_lon": 0.0, "bike_id": "6e0ff0556a74711a7d11d28b346dc0f8", "is_disabled": 0, "is_reserved": 0}, {"rental_uris": {"ios": "https://dc.lft.to/lastmile_qr_scan", "android": "https://dc.lft.to/lastmile_qr_scan"}, "lon": -77.05756133333334, "type": "electric_scooter", "fusion_lat": 0.0, "lat": 38.924654833333335, "name": "8278af971f0543011f4831116c6a83d4", "fusion_lon": 0.0, "bike_id": "8278af971f0543011f4831116c6a83d4", "is_disabled": 0, "is_reserved": 0}, {"rental_uris": {"ios": "https://dc.lft.to/lastmile_qr_scan", "android": "https://dc.lft.to/lastmile_qr_scan"}, "lon": -76.9981305, "type": "electric_scooter", "fusion_lat": 0.0, "lat": 38.90019, "name": "5838810ebb192c67f3b0877bc0623283", "fusion_lon": 0.0, "bike_id": "5838810ebb192c67f3b0877bc0623283", "is_disabled": 0, "is_reserved": 0}, {"rental_uris": {"ios": "https://dc.lft.to/lastmile_qr_scan", "android": "https://dc.lft.to/lastmile_qr_scan"}, "lon": -77.02455416666666, "type": "electric_scooter", "fusion_lat": 0.0, "lat": 38.90251, "name": "8bff1f8dc51fbaf3bd13a3c8aa63d374", "fusion_lon": 0.0, "bike_id": "8bff1f8dc51fbaf3bd13a3c8aa63d374", "is_disabled": 0, "is_reserved": 0}, {"rental_uris": {"ios": "https://dc.lft.to/lastmile_qr_scan", "android": "https://dc.lft.to/lastmile_qr_scan"}, "lon": -77.027089, "type": "electric_scooter", "fusion_lat": 0.0, "lat": 38.91811883333333, "name": "bee3e685ca54e6d5d861200737d748ae", "fusion_lon": 0.0, "bike_id": "bee3e685ca54e6d5d861200737d748ae", "is_disabled": 0, "is_reserved": 0}, {"rental_uris": {"ios": "https://dc.lft.to/lastmile_qr_scan", "android": "https://dc.lft.to/lastmile_qr_scan"}, "lon": -77.0445745, "type": "electric_scooter", "fusion_lat": 0.0, "lat": 38.90573033333333, "name": "dd0da06d13c6d0a7511912b713864944", "fusion_lon": 0.0, "bike_id": "dd0da06d13c6d0a7511912b713864944", "is_disabled": 0, "is_reserved": 0}, {"rental_uris": {"ios": "https://dc.lft.to/lastmile_qr_scan", "android": "https://dc.lft.to/lastmile_qr_scan"}, "lon": -77.01121166666667, "type": "electric_scooter", "fusion_lat": 0.0, "lat": 38.91182466666667, "name": "89e04dab88ebcc7d18959426cd94ad49", "fusion_lon": 0.0, "bike_id": "89e04dab88ebcc7d18959426cd94ad49", "is_disabled": 0, "is_reserved": 0}, {"rental_uris": {"ios": "https://dc.lft.to/lastmile_qr_scan", "android": "https://dc.lft.to/lastmile_qr_scan"}, "lon": -76.895331, "type": "electric_bike", "fusion_lat": 0.0, "lat": 38.945459166666666, "name": "7a6b7b9fe4c2e6b19ab520de54992d13", "fusion_lon": 0.0, "bike_id": "7a6b7b9fe4c2e6b19ab520de54992d13", "is_disabled": 0, "is_reserved": 0}, {"rental_uris": {"ios": "https://dc.lft.to/lastmile_qr_scan", "android": "https://dc.lft.to/lastmile_qr_scan"}, "lon": -77.048739, "type": "electric_scooter", "fusion_lat": 0.0, "lat": 38.90945466666667, "name": "1c235d20103ed4a70d5dde05e6615acf", "fusion_lon": 0.0, "bike_id": "1c235d20103ed4a70d5dde05e6615acf", "is_disabled": 0, "is_reserved": 0}, {"rental_uris": {"ios": "https://dc.lft.to/lastmile_qr_scan", "android": "https://dc.lft.to/lastmile_qr_scan"}, "lon": -77.02697183333333, "type": "electric_scooter", "fusion_lat": 0.0, "lat": 38.91865283333333, "name": "1b15d91c9cf824916073cb046b5f20df", "fusion_lon": 0.0, "bike_id": "1b15d91c9cf824916073cb046b5f20df", "is_disabled": 0, "is_reserved": 0}, {"rental_uris": {"ios": "https://dc.lft.to/lastmile_qr_scan", "android": "https://dc.lft.to/lastmile_qr_scan"}, "lon": -77.01583316666667, "type": "electric_scooter", "fusion_lat": 0.0, "lat": 38.88744233333333, "name": "b2af22441bcc4e34f848f4644218745f", "fusion_lon": 0.0, "bike_id": "b2af22441bcc4e34f848f4644218745f", "is_disabled": 0, "is_reserved": 0}, {"rental_uris": {"ios": "https://dc.lft.to/lastmile_qr_scan", "android": "https://dc.lft.to/lastmile_qr_scan"}, "lon": -77.04873333333333, "type": "electric_scooter", "fusion_lat": 0.0, "lat": 38.90325933333333, "name": "cf58e21379c490c093e5db108ec6ced6", "fusion_lon": 0.0, "bike_id": "cf58e21379c490c093e5db108ec6ced6", "is_disabled": 0, "is_reserved": 0}, {"rental_uris": {"ios": "https://dc.lft.to/lastmile_qr_scan", "android": "https://dc.lft.to/lastmile_qr_scan"}, "lon": -77.0362455, "type": "electric_scooter", "fusion_lat": 0.0, "lat": 38.93688433333333, "name": "cd0b3c85d010c98d47f3ec8dc2848041", "fusion_lon": 0.0, "bike_id": "cd0b3c85d010c98d47f3ec8dc2848041", "is_disabled": 0, "is_reserved": 0}, {"rental_uris": {"ios": "https://dc.lft.to/lastmile_qr_scan", "android": "https://dc.lft.to/lastmile_qr_scan"}, "lon": -77.05329683333333, "type": "electric_scooter", "fusion_lat": 0.0, "lat": 38.902947, "name": "14fbbcd010f8de1bc838461ff6c89ce9", "fusion_lon": 0.0, "bike_id": "14fbbcd010f8de1bc838461ff6c89ce9", "is_disabled": 0, "is_reserved": 0}, {"rental_uris": {"ios": "https://dc.lft.to/lastmile_qr_scan", "android": "https://dc.lft.to/lastmile_qr_scan"}, "lon": -77.0506515, "type": "electric_scooter", "fusion_lat": 0.0, "lat": 38.9004285, "name": "4e44025b2274d5581dd03a884f487306", "fusion_lon": 0.0, "bike_id": "4e44025b2274d5581dd03a884f487306", "is_disabled": 0, "is_reserved": 0}, {"rental_uris": {"ios": "https://dc.lft.to/lastmile_qr_scan", "android": "https://dc.lft.to/lastmile_qr_scan"}, "lon": -77.03799583333333, "type": "electric_bike", "fusion_lat": 0.0, "lat": 38.996783, "name": "188ea45ea99c792f516a7989e2c77882", "fusion_lon": 0.0, "bike_id": "188ea45ea99c792f516a7989e2c77882", "is_disabled": 0, "is_reserved": 0}, {"rental_uris": {"ios": "https://dc.lft.to/lastmile_qr_scan", "android": "https://dc.lft.to/lastmile_qr_scan"}, "lon": -76.9499035, "type": "electric_scooter", "fusion_lat": 0.0, "lat": 38.8936465, "name": "6ddfbc19ab4f34a42ce224bf0c9ac726", "fusion_lon": 0.0, "bike_id": "6ddfbc19ab4f34a42ce224bf0c9ac726", "is_disabled": 0, "is_reserved": 0}, {"rental_uris": {"ios": "https://dc.lft.to/lastmile_qr_scan", "android": "https://dc.lft.to/lastmile_qr_scan"}, "lon": -76.9772905, "type": "electric_scooter", "fusion_lat": 0.0, "lat": 38.87292766666667, "name": "1924a6109c64930e16aed2d500c49402", "fusion_lon": 0.0, "bike_id": "1924a6109c64930e16aed2d500c49402", "is_disabled": 0, "is_reserved": 0}, {"rental_uris": {"ios": "https://dc.lft.to/lastmile_qr_scan", "android": "https://dc.lft.to/lastmile_qr_scan"}, "lon": -76.97426266666666, "type": "electric_bike", "fusion_lat": 0.0, "lat": 38.86400866666666, "name": "e05b94af632fe3a866783db90fd31d38", "fusion_lon": 0.0, "bike_id": "e05b94af632fe3a866783db90fd31d38", "is_disabled": 0, "is_reserved": 0}, {"rental_uris": {"ios": "https://dc.lft.to/lastmile_qr_scan", "android": "https://dc.lft.to/lastmile_qr_scan"}, "lon": -76.99773866666666, "type": "electric_scooter", "fusion_lat": 0.0, "lat": 38.84425916666667, "name": "9b12e2ece919cd3fa61d94900cf33990", "fusion_lon": 0.0, "bike_id": "9b12e2ece919cd3fa61d94900cf33990", "is_disabled": 0, "is_reserved": 0}, {"rental_uris": {"ios": "https://dc.lft.to/lastmile_qr_scan", "android": "https://dc.lft.to/lastmile_qr_scan"}, "lon": -77.0151695, "type": "electric_scooter", "fusion_lat": 0.0, "lat": 38.89816533333333, "name": "0602c3dae80040338ef15cecfba97df5", "fusion_lon": 0.0, "bike_id": "0602c3dae80040338ef15cecfba97df5", "is_disabled": 0, "is_reserved": 0}, {"rental_uris": {"ios": "https://dc.lft.to/lastmile_qr_scan", "android": "https://dc.lft.to/lastmile_qr_scan"}, "lon": -77.0186795, "type": "electric_scooter", "fusion_lat": 0.0, "lat": 38.915744333333336, "name": "ad623e90523daed9f55fd60d100c9fc4", "fusion_lon": 0.0, "bike_id": "ad623e90523daed9f55fd60d100c9fc4", "is_disabled": 0, "is_reserved": 0}, {"rental_uris": {"ios": "https://dc.lft.to/lastmile_qr_scan", "android": "https://dc.lft.to/lastmile_qr_scan"}, "lon": -77.04127983333333, "type": "electric_scooter", "fusion_lat": 0.0, "lat": 38.90597233333333, "name": "16dad7c6fef1cbab3f207e510e687d28", "fusion_lon": 0.0, "bike_id": "16dad7c6fef1cbab3f207e510e687d28", "is_disabled": 0, "is_reserved": 0}, {"rental_uris": {"ios": "https://dc.lft.to/lastmile_qr_scan", "android": "https://dc.lft.to/lastmile_qr_scan"}, "lon": -77.00006066666667, "type": "electric_bike", "fusion_lat": 0.0, "lat": 38.923971, "name": "1794e6e7ebed74c4172d1d01878ec922", "fusion_lon": 0.0, "bike_id": "1794e6e7ebed74c4172d1d01878ec922", "is_disabled": 0, "is_reserved": 0}, {"rental_uris": {"ios": "https://dc.lft.to/lastmile_qr_scan", "android": "https://dc.lft.to/lastmile_qr_scan"}, "lon": -77.00216766666667, "type": "electric_scooter", "fusion_lat": 0.0, "lat": 38.908319666666664, "name": "9de042b6ac4aa6652985260ef39cffb5", "fusion_lon": 0.0, "bike_id": "9de042b6ac4aa6652985260ef39cffb5", "is_disabled": 0, "is_reserved": 0}, {"rental_uris": {"ios": "https://dc.lft.to/lastmile_qr_scan", "android": "https://dc.lft.to/lastmile_qr_scan"}, "lon": -77.029601, "type": "electric_scooter", "fusion_lat": 0.0, "lat": 38.90055433333333, "name": "263e2a286d5ceaeb69d2c6e83fb76ecd", "fusion_lon": 0.0, "bike_id": "263e2a286d5ceaeb69d2c6e83fb76ecd", "is_disabled": 0, "is_reserved": 0}, {"rental_uris": {"ios": "https://dc.lft.to/lastmile_qr_scan", "android": "https://dc.lft.to/lastmile_qr_scan"}, "lon": -76.95741833333334, "type": "electric_scooter", "fusion_lat": 0.0, "lat": 38.89217283333333, "name": "778a917ff7690c24e8228b393066a95f", "fusion_lon": 0.0, "bike_id": "778a917ff7690c24e8228b393066a95f", "is_disabled": 0, "is_reserved": 0}, {"rental_uris": {"ios": "https://dc.lft.to/lastmile_qr_scan", "android": "https://dc.lft.to/lastmile_qr_scan"}, "lon": -77.0358455, "type": "electric_scooter", "fusion_lat": 0.0, "lat": 38.932407166666664, "name": "4ce504160a1f421563573b75a1c6c7ae", "fusion_lon": 0.0, "bike_id": "4ce504160a1f421563573b75a1c6c7ae", "is_disabled": 0, "is_reserved": 0}, {"rental_uris": {"ios": "https://dc.lft.to/lastmile_qr_scan", "android": "https://dc.lft.to/lastmile_qr_scan"}, "lon": -77.035054, "type": "electric_scooter", "fusion_lat": 0.0, "lat": 38.92150916666667, "name": "ea8782400bfa69c9b2b928af94684925", "fusion_lon": 0.0, "bike_id": "ea8782400bfa69c9b2b928af94684925", "is_disabled": 0, "is_reserved": 0}, {"rental_uris": {"ios": "https://dc.lft.to/lastmile_qr_scan", "android": "https://dc.lft.to/lastmile_qr_scan"}, "lon": -77.13183416666666, "type": "electric_bike", "fusion_lat": 0.0, "lat": 38.86914683333333, "name": "3cbb7affecc57bc46a219a7bd5b0108a", "fusion_lon": 0.0, "bike_id": "3cbb7affecc57bc46a219a7bd5b0108a", "is_disabled": 0, "is_reserved": 0}, {"rental_uris": {"ios": "https://dc.lft.to/lastmile_qr_scan", "android": "https://dc.lft.to/lastmile_qr_scan"}, "lon": -77.04266783333334, "type": "electric_scooter", "fusion_lat": 0.0, "lat": 38.9055775, "name": "134c49e7736639eb6516c2dc4c8bc6f1", "fusion_lon": 0.0, "bike_id": "134c49e7736639eb6516c2dc4c8bc6f1", "is_disabled": 0, "is_reserved": 0}, {"rental_uris": {"ios": "https://dc.lft.to/lastmile_qr_scan", "android": "https://dc.lft.to/lastmile_qr_scan"}, "lon": -77.02303916666666, "type": "electric_scooter", "fusion_lat": 0.0, "lat": 38.918875, "name": "d86d6aee4e04dbd02b5e1b2f0137c284", "fusion_lon": 0.0, "bike_id": "d86d6aee4e04dbd02b5e1b2f0137c284", "is_disabled": 0, "is_reserved": 0}, {"rental_uris": {"ios": "https://dc.lft.to/lastmile_qr_scan", "android": "https://dc.lft.to/lastmile_qr_scan"}, "lon": -77.02786233333333, "type": "electric_scooter", "fusion_lat": 0.0, "lat": 38.8962235, "name": "0f2b27f834eccffe1c6bfa027c983601", "fusion_lon": 0.0, "bike_id": "0f2b27f834eccffe1c6bfa027c983601", "is_disabled": 0, "is_reserved": 0}, {"rental_uris": {"ios": "https://dc.lft.to/lastmile_qr_scan", "android": "https://dc.lft.to/lastmile_qr_scan"}, "lon": -77.02429816666667, "type": "electric_scooter", "fusion_lat": 0.0, "lat": 38.918433, "name": "d59d237ca7cfd1b6de1917e1933b2364", "fusion_lon": 0.0, "bike_id": "d59d237ca7cfd1b6de1917e1933b2364", "is_disabled": 0, "is_reserved": 0}, {"rental_uris": {"ios": "https://dc.lft.to/lastmile_qr_scan", "android": "https://dc.lft.to/lastmile_qr_scan"}, "lon": -77.03236183333334, "type": "electric_scooter", "fusion_lat": 0.0, "lat": 38.927625, "name": "a309b980dc360626af06c50b4b86c100", "fusion_lon": 0.0, "bike_id": "a309b980dc360626af06c50b4b86c100", "is_disabled": 0, "is_reserved": 0}, {"rental_uris": {"ios": "https://dc.lft.to/lastmile_qr_scan", "android": "https://dc.lft.to/lastmile_qr_scan"}, "lon": -77.01433783333333, "type": "electric_scooter", "fusion_lat": 0.0, "lat": 38.92989983333333, "name": "9093ddff99d13210c30209324476a145", "fusion_lon": 0.0, "bike_id": "9093ddff99d13210c30209324476a145", "is_disabled": 0, "is_reserved": 0}, {"rental_uris": {"ios": "https://dc.lft.to/lastmile_qr_scan", "android": "https://dc.lft.to/lastmile_qr_scan"}, "lon": -77.032131, "type": "electric_scooter", "fusion_lat": 0.0, "lat": 38.91683866666666, "name": "8e0200e662686a286d56ac723c0cebed", "fusion_lon": 0.0, "bike_id": "8e0200e662686a286d56ac723c0cebed", "is_disabled": 0, "is_reserved": 0}, {"rental_uris": {"ios": "https://dc.lft.to/lastmile_qr_scan", "android": "https://dc.lft.to/lastmile_qr_scan"}, "lon": -77.00200566666666, "type": "electric_scooter", "fusion_lat": 0.0, "lat": 38.89976733333334, "name": "0947da57117532827f69339a44133df3", "fusion_lon": 0.0, "bike_id": "0947da57117532827f69339a44133df3", "is_disabled": 0, "is_reserved": 0}, {"rental_uris": {"ios": "https://dc.lft.to/lastmile_qr_scan", "android": "https://dc.lft.to/lastmile_qr_scan"}, "lon": -77.05541483333333, "type": "electric_scooter", "fusion_lat": 0.0, "lat": 38.898821, "name": "225d700193927798bed3eab7575dffff", "fusion_lon": 0.0, "bike_id": "225d700193927798bed3eab7575dffff", "is_disabled": 0, "is_reserved": 0}, {"rental_uris": {"ios": "https://dc.lft.to/lastmile_qr_scan", "android": "https://dc.lft.to/lastmile_qr_scan"}, "lon": -76.9575545, "type": "electric_scooter", "fusion_lat": 0.0, "lat": 38.88431966666667, "name": "63ba79d1d0cf7b9b983050438dac3e0e", "fusion_lon": 0.0, "bike_id": "63ba79d1d0cf7b9b983050438dac3e0e", "is_disabled": 0, "is_reserved": 0}, {"rental_uris": {"ios": "https://dc.lft.to/lastmile_qr_scan", "android": "https://dc.lft.to/lastmile_qr_scan"}, "lon": -77.03078383333333, "type": "electric_scooter", "fusion_lat": 0.0, "lat": 38.88033683333333, "name": "240f0256816ca8039c9c9e8292c428ec", "fusion_lon": 0.0, "bike_id": "240f0256816ca8039c9c9e8292c428ec", "is_disabled": 0, "is_reserved": 0}, {"rental_uris": {"ios": "https://dc.lft.to/lastmile_qr_scan", "android": "https://dc.lft.to/lastmile_qr_scan"}, "lon": -76.96502716666667, "type": "electric_scooter", "fusion_lat": 0.0, "lat": 38.87650933333333, "name": "ee76a05a9798e2479127924f1760298f", "fusion_lon": 0.0, "bike_id": "ee76a05a9798e2479127924f1760298f", "is_disabled": 0, "is_reserved": 0}, {"rental_uris": {"ios": "https://dc.lft.to/lastmile_qr_scan", "android": "https://dc.lft.to/lastmile_qr_scan"}, "lon": -77.02489066666666, "type": "electric_scooter", "fusion_lat": 0.0, "lat": 38.941834166666666, "name": "2d4444a41b6004add37b0577e9f63cb8", "fusion_lon": 0.0, "bike_id": "2d4444a41b6004add37b0577e9f63cb8", "is_disabled": 0, "is_reserved": 0}, {"rental_uris": {"ios": "https://dc.lft.to/lastmile_qr_scan", "android": "https://dc.lft.to/lastmile_qr_scan"}, "lon": -77.15267916666667, "type": "electric_bike", "fusion_lat": 0.0, "lat": 39.105661, "name": "2634760295b9b99931e63c8ca8ee1ab8", "fusion_lon": 0.0, "bike_id": "2634760295b9b99931e63c8ca8ee1ab8", "is_disabled": 0, "is_reserved": 0}, {"rental_uris": {"ios": "https://dc.lft.to/lastmile_qr_scan", "android": "https://dc.lft.to/lastmile_qr_scan"}, "lon": -77.01712083333334, "type": "electric_scooter", "fusion_lat": 0.0, "lat": 38.91178716666667, "name": "a812209ff87ab9f1fccc5295bd7464eb", "fusion_lon": 0.0, "bike_id": "a812209ff87ab9f1fccc5295bd7464eb", "is_disabled": 0, "is_reserved": 0}, {"rental_uris": {"ios": "https://dc.lft.to/lastmile_qr_scan", "android": "https://dc.lft.to/lastmile_qr_scan"}, "lon": -76.93800633333333, "type": "electric_scooter", "fusion_lat": 0.0, "lat": 38.890837, "name": "e1395a7eab7581a3d86bf7fab71a1c79", "fusion_lon": 0.0, "bike_id": "e1395a7eab7581a3d86bf7fab71a1c79", "is_disabled": 0, "is_reserved": 0}, {"rental_uris": {"ios": "https://dc.lft.to/lastmile_qr_scan", "android": "https://dc.lft.to/lastmile_qr_scan"}, "lon": -77.03894516666666, "type": "electric_scooter", "fusion_lat": 0.0, "lat": 38.92186733333333, "name": "045c3c4f555f49100ab31eaa7de982d0", "fusion_lon": 0.0, "bike_id": "045c3c4f555f49100ab31eaa7de982d0", "is_disabled": 0, "is_reserved": 0}, {"rental_uris": {"ios": "https://dc.lft.to/lastmile_qr_scan", "android": "https://dc.lft.to/lastmile_qr_scan"}, "lon": -76.93174766666667, "type": "electric_scooter", "fusion_lat": 0.0, "lat": 38.89883, "name": "ae423a4f46dc9464918d524a25d46708", "fusion_lon": 0.0, "bike_id": "ae423a4f46dc9464918d524a25d46708", "is_disabled": 0, "is_reserved": 0}, {"rental_uris": {"ios": "https://dc.lft.to/lastmile_qr_scan", "android": "https://dc.lft.to/lastmile_qr_scan"}, "lon": -77.011089, "type": "electric_scooter", "fusion_lat": 0.0, "lat": 38.895089666666664, "name": "f3a043fcbaaffd540f0966bf0ac61bec", "fusion_lon": 0.0, "bike_id": "f3a043fcbaaffd540f0966bf0ac61bec", "is_disabled": 0, "is_reserved": 0}, {"rental_uris": {"ios": "https://dc.lft.to/lastmile_qr_scan", "android": "https://dc.lft.to/lastmile_qr_scan"}, "lon": -77.0344645, "type": "electric_scooter", "fusion_lat": 0.0, "lat": 38.918274333333336, "name": "0b6370ffd5bcbbf3c1f7a7baa9beefbf", "fusion_lon": 0.0, "bike_id": "0b6370ffd5bcbbf3c1f7a7baa9beefbf", "is_disabled": 0, "is_reserved": 0}, {"rental_uris": {"ios": "https://dc.lft.to/lastmile_qr_scan", "android": "https://dc.lft.to/lastmile_qr_scan"}, "lon": -76.93172683333333, "type": "electric_scooter", "fusion_lat": 0.0, "lat": 38.89886816666667, "name": "3f9def70f0567ae4e8e1b66c6506affa", "fusion_lon": 0.0, "bike_id": "3f9def70f0567ae4e8e1b66c6506affa", "is_disabled": 0, "is_reserved": 0}, {"rental_uris": {"ios": "https://dc.lft.to/lastmile_qr_scan", "android": "https://dc.lft.to/lastmile_qr_scan"},