{"data": {"bikes": [{"rental_uris": {"ios": "https://dc.lft.to/lastmile_qr_scan", "android": "https://dc.lft.to/lastmile_qr_scan"}, "type": "electric_bike", "name": "31cc109885aae646f8c8a495207167dc", "is_reserved": 0, "lon": -77.09961066666666, "is_disabled": 0, "fusion_lat": 0.0, "lat": 38.857892166666666, "bike_id": "31cc109885aae646f8c8a495207167dc", "fusion_lon": 0.0}, {"rental_uris": {"ios": "https://dc.lft.to/lastmile_qr_scan", "android": "https://dc.lft.to/lastmile_qr_scan"}, "type": "electric_scooter", "name": "586b2034da4cbfa3ab46006ba20eb088", "is_reserved": 0, "lon": -77.0094245, "is_disabled": 0, "fusion_lat": 0.0, "lat": 38.91263516666667, "bike_id": "586b2034da4cbfa3ab46006ba20eb088", "fusion_lon": 0.0}, {"rental_uris": {"ios": "https://dc.lft.to/lastmile_qr_scan", "android": "https://dc.lft.to/lastmile_qr_scan"}, "type": "electric_scooter", "name": "d87ca8ab7cdc1d9c21373068b3d99641", "is_reserved": 0, "lon": -77.03214783333334, "is_disabled": 0, "fusion_lat": 0.0, "lat": 38.91204316666666, "bike_id": "d87ca8ab7cdc1d9c21373068b3d99641", "fusion_lon": 0.0}, {"rental_uris": {"ios": "https://dc.lft.to/lastmile_qr_scan", "android": "https://dc.lft.to/lastmile_qr_scan"}, "type": "electric_scooter", "name": "c84b894103e35c60e07bbc66cba0c9c5", "is_reserved": 0, "lon": -76.97940233333334, "is_disabled": 0, "fusion_lat": 0.0, "lat": 38.9160435, "bike_id": "c84b894103e35c60e07bbc66cba0c9c5", "fusion_lon": 0.0}, {"rental_uris": {"ios": "https://dc.lft.to/lastmile_qr_scan", "android": "https://dc.lft.to/lastmile_qr_scan"}, "type": "electric_scooter", "name": "9586d39847a0cd573ac2d2ae824140b8", "is_reserved": 0, "lon": -77.02528716666667, "is_disabled": 0, "fusion_lat": 0.0, "lat": 38.918170333333336, "bike_id": "9586d39847a0cd573ac2d2ae824140b8", "fusion_lon": 0.0}, {"rental_uris": {"ios": "https://dc.lft.to/lastmile_qr_scan", "android": "https://dc.lft.to/lastmile_qr_scan"}, "type": "electric_scooter", "name": "ddd0a0c6f427bd2e7217cc451855403f", "is_reserved": 0, "lon": -77.01125966666666, "is_disabled": 0, "fusion_lat": 0.0, "lat": 38.89494366666667, "bike_id": "ddd0a0c6f427bd2e7217cc451855403f", "fusion_lon": 0.0}, {"rental_uris": {"ios": "https://dc.lft.to/lastmile_qr_scan", "android": "https://dc.lft.to/lastmile_qr_scan"}, "type": "electric_scooter", "name": "9ee6aa6bb191ef1fa5eebe71b4b0c047", "is_reserved": 0, "lon": -77.00566166666667, "is_disabled": 0, "fusion_lat": 0.0, "lat": 38.874597, "bike_id": "9ee6aa6bb191ef1fa5eebe71b4b0c047", "fusion_lon": 0.0}, {"rental_uris": {"ios": "https://dc.lft.to/lastmile_qr_scan", "android": "https://dc.lft.to/lastmile_qr_scan"}, "type": "electric_scooter", "name": "1e2f40b4c048d3bd0937067817942200", "is_reserved": 0, "lon": -77.03189033333334, "is_disabled": 0, "fusion_lat": 0.0, "lat": 38.91915233333334, "bike_id": "1e2f40b4c048d3bd0937067817942200", "fusion_lon": 0.0}, {"rental_uris": {"ios": "https://dc.lft.to/lastmile_qr_scan", "android": "https://dc.lft.to/lastmile_qr_scan"}, "type": "electric_scooter", "name": "cc395c56c266b634896c5311b693006b", "is_reserved": 0, "lon": -77.04128966666667, "is_disabled": 0, "fusion_lat": 0.0, "lat": 38.91408333333333, "bike_id": "cc395c56c266b634896c5311b693006b", "fusion_lon": 0.0}, {"rental_uris": {"ios": "https://dc.lft.to/lastmile_qr_scan", "android": "https://dc.lft.to/lastmile_qr_scan"}, "type": "electric_scooter", "name": "7b08b7bd9d7cf7dda6846df403ca080b", "is_reserved": 0, "lon": -77.016626, "is_disabled": 0, "fusion_lat": 0.0, "lat": 38.879513, "bike_id": "7b08b7bd9d7cf7dda6846df403ca080b", "fusion_lon": 0.0}, {"rental_uris": {"ios": "https://dc.lft.to/lastmile_qr_scan", "android": "https://dc.lft.to/lastmile_qr_scan"}, "type": "electric_scooter", "name": "319629a30ac5587e1a19d892fdee9e4c", "is_reserved": 0, "lon": -76.97332366666667, "is_disabled": 0, "fusion_lat": 0.0, "lat": 38.904083, "bike_id": "319629a30ac5587e1a19d892fdee9e4c", "fusion_lon": 0.0}, {"rental_uris": {"ios": "https://dc.lft.to/lastmile_qr_scan", "android": "https://dc.lft.to/lastmile_qr_scan"}, "type": "electric_scooter", "name": "ab668362d87a5a146969e324bed1b1a6", "is_reserved": 0, "lon": -76.99173416666666, "is_disabled": 0, "fusion_lat": 0.0, "lat": 38.889292833333336, "bike_id": "ab668362d87a5a146969e324bed1b1a6", "fusion_lon": 0.0}, {"rental_uris": {"ios": "https://dc.lft.to/lastmile_qr_scan", "android": "https://dc.lft.to/lastmile_qr_scan"}, "type": "electric_scooter", "name": "5213a4fc565da32242b25b02ee7b112e", "is_reserved": 0, "lon": -77.01742633333333, "is_disabled": 0, "fusion_lat": 0.0, "lat": 38.87454833333334, "bike_id": "5213a4fc565da32242b25b02ee7b112e", "fusion_lon": 0.0}, {"rental_uris": {"ios": "https://dc.lft.to/lastmile_qr_scan", "android": "https://dc.lft.to/lastmile_qr_scan"}, "type": "electric_scooter", "name": "589dbfcbf1c21b9b53c8048b98e8fd30", "is_reserved": 0, "lon": -76.9869665, "is_disabled": 0, "fusion_lat": 0.0, "lat": 38.8884685, "bike_id": "589dbfcbf1c21b9b53c8048b98e8fd30", "fusion_lon": 0.0}, {"rental_uris": {"ios": "https://dc.lft.to/lastmile_qr_scan", "android": "https://dc.lft.to/lastmile_qr_scan"}, "type": "electric_scooter", "name": "96ffbc28bc3994d81879873ad5f34899", "is_reserved": 0, "lon": -77.01312016666667, "is_disabled": 0, "fusion_lat": 0.0, "lat": 38.920295833333334, "bike_id": "96ffbc28bc3994d81879873ad5f34899", "fusion_lon": 0.0}, {"rental_uris": {"ios": "https://dc.lft.to/lastmile_qr_scan", "android": "https://dc.lft.to/lastmile_qr_scan"}, "type": "electric_scooter", "name": "7da77a2f2782f4bff8fbb363c540a47e", "is_reserved": 0, "lon": -76.9994425, "is_disabled": 0, "fusion_lat": 0.0, "lat": 38.900595333333335, "bike_id": "7da77a2f2782f4bff8fbb363c540a47e", "fusion_lon": 0.0}, {"rental_uris": {"ios": "https://dc.lft.to/lastmile_qr_scan", "android": "https://dc.lft.to/lastmile_qr_scan"}, "type": "electric_scooter", "name": "39517da4d8c51fe175d9c3170b9a5c02", "is_reserved": 0, "lon": -76.9955165, "is_disabled": 0, "fusion_lat": 0.0, "lat": 38.86231683333333, "bike_id": "39517da4d8c51fe175d9c3170b9a5c02", "fusion_lon": 0.0}, {"rental_uris": {"ios": "https://dc.lft.to/lastmile_qr_scan", "android": "https://dc.lft.to/lastmile_qr_scan"}, "type": "electric_bike", "name": "bff88d53f9d5fcf62b77b306082104fc", "is_reserved": 0, "lon": -76.94534583333333, "is_disabled": 0, "fusion_lat": 0.0, "lat": 38.86757016666667, "bike_id": "bff88d53f9d5fcf62b77b306082104fc", "fusion_lon": 0.0}, {"rental_uris": {"ios": "https://dc.lft.to/lastmile_qr_scan", "android": "https://dc.lft.to/lastmile_qr_scan"}, "type": "electric_scooter", "name": "7a0a4c9fc06647315a6e3af67571a246", "is_reserved": 0, "lon": -76.99921616666667, "is_disabled": 0, "fusion_lat": 0.0, "lat": 38.900519, "bike_id": "7a0a4c9fc06647315a6e3af67571a246", "fusion_lon": 0.0}, {"rental_uris": {"ios": "https://dc.lft.to/lastmile_qr_scan", "android": "https://dc.lft.to/lastmile_qr_scan"}, "type": "electric_bike", "name": "a37ac07ac971394d6d10a09442c5424b", "is_reserved": 0, "lon": -76.94151683333334, "is_disabled": 0, "fusion_lat": 0.0, "lat": 38.89017366666667, "bike_id": "a37ac07ac971394d6d10a09442c5424b", "fusion_lon": 0.0}, {"rental_uris": {"ios": "https://dc.lft.to/lastmile_qr_scan", "android": "https://dc.lft.to/lastmile_qr_scan"}, "type": "electric_scooter", "name": "9ad8a81aebe4e657b21e59ddd937eb76", "is_reserved": 0, "lon": -76.98735366666666, "is_disabled": 0, "fusion_lat": 0.0, "lat": 38.8784665, "bike_id": "9ad8a81aebe4e657b21e59ddd937eb76", "fusion_lon": 0.0}, {"rental_uris": {"ios": "https://dc.lft.to/lastmile_qr_scan", "android": "https://dc.lft.to/lastmile_qr_scan"}, "type": "electric_bike", "name": "4df23904320b52fc24e5b61a50f84510", "is_reserved": 0, "lon": -76.99525816666667, "is_disabled": 0, "fusion_lat": 0.0, "lat": 38.884099166666665, "bike_id": "4df23904320b52fc24e5b61a50f84510", "fusion_lon": 0.0}, {"rental_uris": {"ios": "https://dc.lft.to/lastmile_qr_scan", "android": "https://dc.lft.to/lastmile_qr_scan"}, "type": "electric_bike", "name": "494ae1d5cc5dadd19096abef93316baf", "is_reserved": 0, "lon": -77.12934166666666, "is_disabled": 0, "fusion_lat": 0.0, "lat": 38.865966, "bike_id": "494ae1d5cc5dadd19096abef93316baf", "fusion_lon": 0.0}, {"rental_uris": {"ios": "https://dc.lft.to/lastmile_qr_scan", "android": "https://dc.lft.to/lastmile_qr_scan"}, "type": "electric_scooter", "name": "2382bde8c1011939a9699a86889a0f7b", "is_reserved": 0, "lon": -77.0003945, "is_disabled": 0, "fusion_lat": 0.0, "lat": 38.906819666666664, "bike_id": "2382bde8c1011939a9699a86889a0f7b", "fusion_lon": 0.0}, {"rental_uris": {"ios": "https://dc.lft.to/lastmile_qr_scan", "android": "https://dc.lft.to/lastmile_qr_scan"}, "type": "electric_scooter", "name": "03732038b9454e39fc6c8fbd24a3bdda", "is_reserved": 0, "lon": -77.02494916666667, "is_disabled": 0, "fusion_lat": 0.0, "lat": 38.931087833333336, "bike_id": "03732038b9454e39fc6c8fbd24a3bdda", "fusion_lon": 0.0}, {"rental_uris": {"ios": "https://dc.lft.to/lastmile_qr_scan", "android": "https://dc.lft.to/lastmile_qr_scan"}, "type": "electric_scooter", "name": "db128f1ecafc261b3403661a77a3f77b", "is_reserved": 0, "lon": -77.0007115, "is_disabled": 0, "fusion_lat": 0.0, "lat": 38.8743135, "bike_id": "db128f1ecafc261b3403661a77a3f77b", "fusion_lon": 0.0}, {"rental_uris": {"ios": "https://dc.lft.to/lastmile_qr_scan", "android": "https://dc.lft.to/lastmile_qr_scan"}, "type": "electric_scooter", "name": "8c5faa3dc9f993d6cf0c763d804fd4fc", "is_reserved": 0, "lon": -77.04577983333333, "is_disabled": 0, "fusion_lat": 0.0, "lat": 38.909536, "bike_id": "8c5faa3dc9f993d6cf0c763d804fd4fc", "fusion_lon": 0.0}, {"rental_uris": {"ios": "https://dc.lft.to/lastmile_qr_scan", "android": "https://dc.lft.to/lastmile_qr_scan"}, "type": "electric_scooter", "name": "d15feefe393ac355adfef9005aaf7b5d", "is_reserved": 0, "lon": -77.03827683333333, "is_disabled": 0, "fusion_lat": 0.0, "lat": 38.96270666666667, "bike_id": "d15feefe393ac355adfef9005aaf7b5d", "fusion_lon": 0.0}, {"rental_uris": {"ios": "https://dc.lft.to/lastmile_qr_scan", "android": "https://dc.lft.to/lastmile_qr_scan"}, "type": "electric_scooter", "name": "0981f9219fbc460be2ce2dc36c15cd81", "is_reserved": 0, "lon": -77.03935883333334, "is_disabled": 0, "fusion_lat": 0.0, "lat": 38.900869166666666, "bike_id": "0981f9219fbc460be2ce2dc36c15cd81", "fusion_lon": 0.0}, {"rental_uris": {"ios": "https://dc.lft.to/lastmile_qr_scan", "android": "https://dc.lft.to/lastmile_qr_scan"}, "type": "electric_scooter", "name": "2d45feb10e587a8e07917c865ad07e1d", "is_reserved": 0, "lon": -77.0702155, "is_disabled": 0, "fusion_lat": 0.0, "lat": 38.893447333333334, "bike_id": "2d45feb10e587a8e07917c865ad07e1d", "fusion_lon": 0.0}, {"rental_uris": {"ios": "https://dc.lft.to/lastmile_qr_scan", "android": "https://dc.lft.to/lastmile_qr_scan"}, "type": "electric_scooter", "name": "c40c3ef8e3fd9ee97dad3f2a4e5260b0", "is_reserved": 0, "lon": -77.05000733333334, "is_disabled": 0, "fusion_lat": 0.0, "lat": 38.8923585, "bike_id": "c40c3ef8e3fd9ee97dad3f2a4e5260b0", "fusion_lon": 0.0}, {"rental_uris": {"ios": "https://dc.lft.to/lastmile_qr_scan", "android": "https://dc.lft.to/lastmile_qr_scan"}, "type": "electric_scooter", "name": "68501a3e4ab57f423fe5a52b108c5de4", "is_reserved": 0, "lon": -77.04680716666667, "is_disabled": 0, "fusion_lat": 0.0, "lat": 38.892231333333335, "bike_id": "68501a3e4ab57f423fe5a52b108c5de4", "fusion_lon": 0.0}, {"rental_uris": {"ios": "https://dc.lft.to/lastmile_qr_scan", "android": "https://dc.lft.to/lastmile_qr_scan"}, "type": "electric_scooter", "name": "3b55964f8514ddf8ad9bff24c1d081d5", "is_reserved": 0, "lon": -77.06121666666667, "is_disabled": 0, "fusion_lat": 0.0, "lat": 38.90610816666667, "bike_id": "3b55964f8514ddf8ad9bff24c1d081d5", "fusion_lon": 0.0}, {"rental_uris": {"ios": "https://dc.lft.to/lastmile_qr_scan", "android": "https://dc.lft.to/lastmile_qr_scan"}, "type": "electric_scooter", "name": "4d21c576ce07d44e5c111e61afa870d8", "is_reserved": 0, "lon": -77.01072416666666, "is_disabled": 0, "fusion_lat": 0.0, "lat": 38.8941515, "bike_id": "4d21c576ce07d44e5c111e61afa870d8", "fusion_lon": 0.0}, {"rental_uris": {"ios": "https://dc.lft.to/lastmile_qr_scan", "android": "https://dc.lft.to/lastmile_qr_scan"}, "type": "electric_scooter", "name": "c8e50e388033f785b7119f3f84c50416", "is_reserved": 0, "lon": -77.02813783333333, "is_disabled": 0, "fusion_lat": 0.0, "lat": 38.898845666666666, "bike_id": "c8e50e388033f785b7119f3f84c50416", "fusion_lon": 0.0}, {"rental_uris": {"ios": "https://dc.lft.to/lastmile_qr_scan", "android": "https://dc.lft.to/lastmile_qr_scan"}, "type": "electric_scooter", "name": "0d39bff9dba6c64112d563dc7d2dba12", "is_reserved": 0, "lon": -77.01940633333334, "is_disabled": 0, "fusion_lat": 0.0, "lat": 38.946927, "bike_id": "0d39bff9dba6c64112d563dc7d2dba12", "fusion_lon": 0.0}, {"rental_uris": {"ios": "https://dc.lft.to/lastmile_qr_scan", "android": "https://dc.lft.to/lastmile_qr_scan"}, "type": "electric_scooter", "name": "c96d39cae539434ec38fa8d2bf60be47", "is_reserved": 0, "lon": -77.01900716666667, "is_disabled": 0, "fusion_lat": 0.0, "lat": 38.9034275, "bike_id": "c96d39cae539434ec38fa8d2bf60be47", "fusion_lon": 0.0}, {"rental_uris": {"ios": "https://dc.lft.to/lastmile_qr_scan", "android": "https://dc.lft.to/lastmile_qr_scan"}, "type": "electric_scooter", "name": "6ef2d0ef999249918cee21902c5192fc", "is_reserved": 0, "lon": -77.0077255, "is_disabled": 0, "fusion_lat": 0.0, "lat": 38.952456, "bike_id": "6ef2d0ef999249918cee21902c5192fc", "fusion_lon": 0.0}, {"rental_uris": {"ios": "https://dc.lft.to/lastmile_qr_scan", "android": "https://dc.lft.to/lastmile_qr_scan"}, "type": "electric_scooter", "name": "8c84b3852847f9f27bc8879e1bc84f5f", "is_reserved": 0, "lon": -77.00157066666667, "is_disabled": 0, "fusion_lat": 0.0, "lat": 38.821343666666664, "bike_id": "8c84b3852847f9f27bc8879e1bc84f5f", "fusion_lon": 0.0}, {"rental_uris": {"ios": "https://dc.lft.to/lastmile_qr_scan", "android": "https://dc.lft.to/lastmile_qr_scan"}, "type": "electric_bike", "name": "a49f2803ddd3e19f36c44aab1afc421d", "is_reserved": 0, "lon": -76.9753985, "is_disabled": 0, "fusion_lat": 0.0, "lat": 38.90431983333333, "bike_id": "a49f2803ddd3e19f36c44aab1afc421d", "fusion_lon": 0.0}, {"rental_uris": {"ios": "https://dc.lft.to/lastmile_qr_scan", "android": "https://dc.lft.to/lastmile_qr_scan"}, "type": "electric_scooter", "name": "c0902c11c815e073b2b414cfb4c25fe0", "is_reserved": 0, "lon": -76.93042616666666, "is_disabled": 0, "fusion_lat": 0.0, "lat": 38.883849166666664, "bike_id": "c0902c11c815e073b2b414cfb4c25fe0", "fusion_lon": 0.0}, {"rental_uris": {"ios": "https://dc.lft.to/lastmile_qr_scan", "android": "https://dc.lft.to/lastmile_qr_scan"}, "type": "electric_bike", "name": "7898ddbc87f30c765e195a8e1fbddb7e", "is_reserved": 0, "lon": -76.95154916666667, "is_disabled": 0, "fusion_lat": 0.0, "lat": 39.08437333333333, "bike_id": "7898ddbc87f30c765e195a8e1fbddb7e", "fusion_lon": 0.0}, {"rental_uris": {"ios": "https://dc.lft.to/lastmile_qr_scan", "android": "https://dc.lft.to/lastmile_qr_scan"}, "type": "electric_scooter", "name": "e671e706e515bbce3a25a2350083edaf", "is_reserved": 0, "lon": -77.03465666666666, "is_disabled": 0, "fusion_lat": 0.0, "lat": 38.935406, "bike_id": "e671e706e515bbce3a25a2350083edaf", "fusion_lon": 0.0}, {"rental_uris": {"ios": "https://dc.lft.to/lastmile_qr_scan", "android": "https://dc.lft.to/lastmile_qr_scan"}, "type": "electric_bike", "name": "4343466afc736f4d131bd73c2b8b5832", "is_reserved": 0, "lon": -77.01217866666667, "is_disabled": 0, "fusion_lat": 0.0, "lat": 38.871944166666665, "bike_id": "4343466afc736f4d131bd73c2b8b5832", "fusion_lon": 0.0}, {"rental_uris": {"ios": "https://dc.lft.to/lastmile_qr_scan", "android": "https://dc.lft.to/lastmile_qr_scan"}, "type": "electric_bike", "name": "100157291eb81d2aee2dab721b6feb2b", "is_reserved": 0, "lon": -77.06523983333334, "is_disabled": 0, "fusion_lat": 0.0, "lat": 38.992328666666666, "bike_id": "100157291eb81d2aee2dab721b6feb2b", "fusion_lon": 0.0}, {"rental_uris": {"ios": "https://dc.lft.to/lastmile_qr_scan", "android": "https://dc.lft.to/lastmile_qr_scan"}, "type": "electric_bike", "name": "b47478b0c775b5be2d19fb6f470421c7", "is_reserved": 0, "lon": -77.09723466666667, "is_disabled": 0, "fusion_lat": 0.0, "lat": 38.8073895, "bike_id": "b47478b0c775b5be2d19fb6f470421c7", "fusion_lon": 0.0}, {"rental_uris": {"ios": "https://dc.lft.to/lastmile_qr_scan", "android": "https://dc.lft.to/lastmile_qr_scan"}, "type": "electric_scooter", "name": "ec9e607dde46e8f538454b9376e957b6", "is_reserved": 0, "lon": -77.03475533333334, "is_disabled": 0, "fusion_lat": 0.0, "lat": 38.93123716666667, "bike_id": "ec9e607dde46e8f538454b9376e957b6", "fusion_lon": 0.0}, {"rental_uris": {"ios": "https://dc.lft.to/lastmile_qr_scan", "android": "https://dc.lft.to/lastmile_qr_scan"}, "type": "electric_scooter", "name": "bf3fd06df1b0a0f15dfa524a29561f83", "is_reserved": 0, "lon": -77.05692033333334, "is_disabled": 0, "fusion_lat": 0.0, "lat": 38.904830833333335, "bike_id": "bf3fd06df1b0a0f15dfa524a29561f83", "fusion_lon": 0.0}, {"rental_uris": {"ios": "https://dc.lft.to/lastmile_qr_scan", "android": "https://dc.lft.to/lastmile_qr_scan"}, "type": "electric_scooter", "name": "cd063c50c5b25e3a52db9a2daae0daa6", "is_reserved": 0, "lon": -77.055118, "is_disabled": 0, "fusion_lat": 0.0, "lat": 38.9282685, "bike_id": "cd063c50c5b25e3a52db9a2daae0daa6", "fusion_lon": 0.0}, {"rental_uris": {"ios": "https://dc.lft.to/lastmile_qr_scan", "android": "https://dc.lft.to/lastmile_qr_scan"}, "type": "electric_scooter", "name": "20690e9df96a23465dbb22ac29fa3a4f", "is_reserved": 0, "lon": -77.026871, "is_disabled": 0, "fusion_lat": 0.0, "lat": 38.916953166666666, "bike_id": "20690e9df96a23465dbb22ac29fa3a4f", "fusion_lon": 0.0}, {"rental_uris": {"ios": "https://dc.lft.to/lastmile_qr_scan", "android": "https://dc.lft.to/lastmile_qr_scan"}, "type": "electric_scooter", "name": "192e01d56f6c51b89a0ff2d0aa55fc7a", "is_reserved": 0, "lon": -76.98810766666666, "is_disabled": 0, "fusion_lat": 0.0, "lat": 38.88160233333333, "bike_id": "192e01d56f6c51b89a0ff2d0aa55fc7a", "fusion_lon": 0.0}, {"rental_uris": {"ios": "https://dc.lft.to/lastmile_qr_scan", "android": "https://dc.lft.to/lastmile_qr_scan"}, "type": "electric_bike", "name": "493edb3a5b62fcb9b378c314f9aabe99", "is_reserved": 0, "lon": -77.2166385, "is_disabled": 0, "fusion_lat": 0.0, "lat": 38.89509566666667, "bike_id": "493edb3a5b62fcb9b378c314f9aabe99", "fusion_lon": 0.0}, {"rental_uris": {"ios": "https://dc.lft.to/lastmile_qr_scan", "android": "https://dc.lft.to/lastmile_qr_scan"}, "type": "electric_scooter", "name": "d1f9421f3165d57cc0f567e8cb153770", "is_reserved": 0, "lon": -77.043223, "is_disabled": 0, "fusion_lat": 0.0, "lat": 38.9089385, "bike_id": "d1f9421f3165d57cc0f567e8cb153770", "fusion_lon": 0.0}, {"rental_uris": {"ios": "https://dc.lft.to/lastmile_qr_scan", "android": "https://dc.lft.to/lastmile_qr_scan"}, "type": "electric_scooter", "name": "736753ba380b3fa475cb23e8e958d5ad", "is_reserved": 0, "lon": -77.01556166666667, "is_disabled": 0, "fusion_lat": 0.0, "lat": 38.90270733333333, "bike_id": "736753ba380b3fa475cb23e8e958d5ad", "fusion_lon": 0.0}, {"rental_uris": {"ios": "https://dc.lft.to/lastmile_qr_scan", "android": "https://dc.lft.to/lastmile_qr_scan"}, "type": "electric_scooter", "name": "e62c216b479c2267d4723c3237e6eb02", "is_reserved": 0, "lon": -76.988872, "is_disabled": 0, "fusion_lat": 0.0, "lat": 38.899596333333335, "bike_id": "e62c216b479c2267d4723c3237e6eb02", "fusion_lon": 0.0}, {"rental_uris": {"ios": "https://dc.lft.to/lastmile_qr_scan", "android": "https://dc.lft.to/lastmile_qr_scan"}, "type": "electric_scooter", "name": "3522f6709f105f86fd7967e9dbea67d3", "is_reserved": 0, "lon": -77.03128183333334, "is_disabled": 0, "fusion_lat": 0.0, "lat": 38.918724166666664, "bike_id": "3522f6709f105f86fd7967e9dbea67d3", "fusion_lon": 0.0}, {"rental_uris": {"ios": "https://dc.lft.to/lastmile_qr_scan", "android": "https://dc.lft.to/lastmile_qr_scan"}, "type": "electric_scooter", "name": "4b02aed51ea3b0a2249747872edfaaec", "is_reserved": 0, "lon": -77.04168533333333, "is_disabled": 0, "fusion_lat": 0.0, "lat": 38.901544333333334, "bike_id": "4b02aed51ea3b0a2249747872edfaaec", "fusion_lon": 0.0}, {"rental_uris": {"ios": "https://dc.lft.to/lastmile_qr_scan", "android": "https://dc.lft.to/lastmile_qr_scan"}, "type": "electric_scooter", "name": "8ca4846421bc7cd7a416c0e30217f1df", "is_reserved": 0, "lon": -77.031847, "is_disabled": 0, "fusion_lat": 0.0, "lat": 38.924877333333335, "bike_id": "8ca4846421bc7cd7a416c0e30217f1df", "fusion_lon": 0.0}, {"rental_uris": {"ios": "https://dc.lft.to/lastmile_qr_scan", "android": "https://dc.lft.to/lastmile_qr_scan"}, "type": "electric_scooter", "name": "b2a3781f3503e554310c867aedb38f5a", "is_reserved": 0, "lon": -76.99100816666666, "is_disabled": 0, "fusion_lat": 0.0, "lat": 38.85725566666667, "bike_id": "b2a3781f3503e554310c867aedb38f5a", "fusion_lon": 0.0}, {"rental_uris": {"ios": "https://dc.lft.to/lastmile_qr_scan", "android": "https://dc.lft.to/lastmile_qr_scan"}, "type": "electric_scooter", "name": "94eac7ea9a1dedd543cfcc95c7d0cfbd", "is_reserved": 0, "lon": -77.04399483333333, "is_disabled": 0, "fusion_lat": 0.0, "lat": 38.91091466666666, "bike_id": "94eac7ea9a1dedd543cfcc95c7d0cfbd", "fusion_lon": 0.0}, {"rental_uris": {"ios": "https://dc.lft.to/lastmile_qr_scan", "android": "https://dc.lft.to/lastmile_qr_scan"}, "type": "electric_scooter", "name": "7815edfe9b650c58c42d2069fd35dde4", "is_reserved": 0, "lon": -77.0500815, "is_disabled": 0, "fusion_lat": 0.0, "lat": 38.900549166666664, "bike_id": "7815edfe9b650c58c42d2069fd35dde4", "fusion_lon": 0.0}, {"rental_uris": {"ios": "https://dc.lft.to/lastmile_qr_scan", "android": "https://dc.lft.to/lastmile_qr_scan"}, "type": "electric_scooter", "name": "76389015e5ccd1292552d0f82fbb347d", "is_reserved": 0, "lon": -77.02207116666666, "is_disabled": 0, "fusion_lat": 0.0, "lat": 38.89231683333333, "bike_id": "76389015e5ccd1292552d0f82fbb347d", "fusion_lon": 0.0}, {"rental_uris": {"ios": "https://dc.lft.to/lastmile_qr_scan", "android": "https://dc.lft.to/lastmile_qr_scan"}, "type": "electric_scooter", "name": "e26045d15258a69a7c267a4c45184a3b", "is_reserved": 0, "lon": -77.01217633333333, "is_disabled": 0, "fusion_lat": 0.0, "lat": 38.876646, "bike_id": "e26045d15258a69a7c267a4c45184a3b", "fusion_lon": 0.0}, {"rental_uris": {"ios": "https://dc.lft.to/lastmile_qr_scan", "android": "https://dc.lft.to/lastmile_qr_scan"}, "type": "electric_bike", "name": "12d8525a3e3bcfac900643a7da0d0387", "is_reserved": 0, "lon": -76.986661, "is_disabled": 0, "fusion_lat": 0.0, "lat": 38.89973483333333, "bike_id": "12d8525a3e3bcfac900643a7da0d0387", "fusion_lon": 0.0}, {"rental_uris": {"ios": "https://dc.lft.to/lastmile_qr_scan", "android": "https://dc.lft.to/lastmile_qr_scan"}, "type": "electric_scooter", "name": "5ad20ae142b4f1df6239cbcbfc26b679", "is_reserved": 0, "lon": -77.03658266666666, "is_disabled": 0, "fusion_lat": 0.0, "lat": 38.9396205, "bike_id": "5ad20ae142b4f1df6239cbcbfc26b679", "fusion_lon": 0.0}, {"rental_uris": {"ios": "https://dc.lft.to/lastmile_qr_scan", "android": "https://dc.lft.to/lastmile_qr_scan"}, "type": "electric_bike", "name": "38b6d1b0e940d8620bfb125c1311226a", "is_reserved": 0, "lon": -77.0219855, "is_disabled": 0, "fusion_lat": 0.0, "lat": 38.880151, "bike_id": "38b6d1b0e940d8620bfb125c1311226a", "fusion_lon": 0.0}, {"rental_uris": {"ios": "https://dc.lft.to/lastmile_qr_scan", "android": "https://dc.lft.to/lastmile_qr_scan"}, "type": "electric_scooter", "name": "704ef0c2bf54ec4610eeaf16dd1e2a0a", "is_reserved": 0, "lon": -77.04831366666667, "is_disabled": 0, "fusion_lat": 0.0, "lat": 38.9006475, "bike_id": "704ef0c2bf54ec4610eeaf16dd1e2a0a", "fusion_lon": 0.0}, {"rental_uris": {"ios": "https://dc.lft.to/lastmile_qr_scan", "android": "https://dc.lft.to/lastmile_qr_scan"}, "type": "electric_scooter", "name": "bcf36fb4b07ed8c5ea4d8a249d52a073", "is_reserved": 0, "lon": -77.0166615, "is_disabled": 0, "fusion_lat": 0.0, "lat": 38.8794845, "bike_id": "bcf36fb4b07ed8c5ea4d8a249d52a073", "fusion_lon": 0.0}, {"rental_uris": {"ios": "https://dc.lft.to/lastmile_qr_scan", "android": "https://dc.lft.to/lastmile_qr_scan"}, "type": "electric_scooter", "name": "d59b188c8147f324c7c7695a68d3304d", "is_reserved": 0, "lon": -77.03284966666666, "is_disabled": 0, "fusion_lat": 0.0, "lat": 38.89873566666667, "bike_id": "d59b188c8147f324c7c7695a68d3304d", "fusion_lon": 0.0}, {"rental_uris": {"ios": "https://dc.lft.to/lastmile_qr_scan", "android": "https://dc.lft.to/lastmile_qr_scan"}, "type": "electric_scooter", "name": "0226ea9aa94244a01afadf2d981c7e14", "is_reserved": 0, "lon": -77.03851116666667, "is_disabled": 0, "fusion_lat": 0.0, "lat": 38.911763, "bike_id": "0226ea9aa94244a01afadf2d981c7e14", "fusion_lon": 0.0}, {"rental_uris": {"ios": "https://dc.lft.to/lastmile_qr_scan", "android": "https://dc.lft.to/lastmile_qr_scan"}, "type": "electric_bike", "name": "969802c676d539d939ee4c8b00b0bb97", "is_reserved": 0, "lon": -77.2218085, "is_disabled": 0, "fusion_lat": 0.0, "lat": 38.871647333333335, "bike_id": "969802c676d539d939ee4c8b00b0bb97", "fusion_lon": 0.0}, {"rental_uris": {"ios": "https://dc.lft.to/lastmile_qr_scan", "android": "https://dc.lft.to/lastmile_qr_scan"}, "type": "electric_scooter", "name": "8ceb847301fdc9b5470357b6d455f7e9", "is_reserved": 0, "lon": -77.03848533333333, "is_disabled": 0, "fusion_lat": 0.0, "lat": 38.9109115, "bike_id": "8ceb847301fdc9b5470357b6d455f7e9", "fusion_lon": 0.0}, {"rental_uris": {"ios": "https://dc.lft.to/lastmile_qr_scan", "android": "https://dc.lft.to/lastmile_qr_scan"}, "type": "electric_scooter", "name": "009566c039157a76860f25d1aaba8542", "is_reserved": 0, "lon": -77.00583083333333, "is_disabled": 0, "fusion_lat": 0.0, "lat": 38.900328, "bike_id": "009566c039157a76860f25d1aaba8542", "fusion_lon": 0.0}, {"rental_uris": {"ios": "https://dc.lft.to/lastmile_qr_scan", "android": "https://dc.lft.to/lastmile_qr_scan"}, "type": "electric_scooter", "name": "630b433dfd7c96ab1169475df6b88024", "is_reserved": 0, "lon": -77.055034, "is_disabled": 0, "fusion_lat": 0.0, "lat": 38.92968, "bike_id": "630b433dfd7c96ab1169475df6b88024", "fusion_lon": 0.0}, {"rental_uris": {"ios": "https://dc.lft.to/lastmile_qr_scan", "android": "https://dc.lft.to/lastmile_qr_scan"}, "type": "electric_scooter", "name": "b0e821368f1cba021b4004c7ab2a80a6", "is_reserved": 0, "lon": -77.02569716666666, "is_disabled": 0, "fusion_lat": 0.0, "lat": 38.935265666666666, "bike_id": "b0e821368f1cba021b4004c7ab2a80a6", "fusion_lon": 0.0}, {"rental_uris": {"ios": "https://dc.lft.to/lastmile_qr_scan", "android": "https://dc.lft.to/lastmile_qr_scan"}, "type": "electric_scooter", "name": "d18ef7f01a545b1b7fdd01c09978093e", "is_reserved": 0, "lon": -77.031859, "is_disabled": 0, "fusion_lat": 0.0, "lat": 38.93045516666667, "bike_id": "d18ef7f01a545b1b7fdd01c09978093e", "fusion_lon": 0.0}, {"rental_uris": {"ios": "https://dc.lft.to/lastmile_qr_scan", "android": "https://dc.lft.to/lastmile_qr_scan"}, "type": "electric_scooter", "name": "c8339ab03bb66a58999e15395f25d8be", "is_reserved": 0, "lon": -76.98159466666667, "is_disabled": 0, "fusion_lat": 0.0, "lat": 38.86182083333333, "bike_id": "c8339ab03bb66a58999e15395f25d8be", "fusion_lon": 0.0}, {"rental_uris": {"ios": "https://dc.lft.to/lastmile_qr_scan", "android": "https://dc.lft.to/lastmile_qr_scan"}, "type": "electric_scooter", "name": "ee70bb1154d4a758434dda5f1302f686", "is_reserved": 0, "lon": -77.02155633333334, "is_disabled": 0, "fusion_lat": 0.0, "lat": 38.9260455, "bike_id": "ee70bb1154d4a758434dda5f1302f686", "fusion_lon": 0.0}, {"rental_uris": {"ios": "https://dc.lft.to/lastmile_qr_scan", "android": "https://dc.lft.to/lastmile_qr_scan"}, "type": "electric_scooter", "name": "b4a07db322a5355abd09aba791caab3d", "is_reserved": 0, "lon": -77.012098, "is_disabled": 0, "fusion_lat": 0.0, "lat": 38.917092833333335, "bike_id": "b4a07db322a5355abd09aba791caab3d", "fusion_lon": 0.0}, {"rental_uris": {"ios": "https://dc.lft.to/lastmile_qr_scan", "android": "https://dc.lft.to/lastmile_qr_scan"}, "type": "electric_scooter", "name": "bf8b0634debf5048e0864904ffbb84ba", "is_reserved": 0, "lon": -77.02134466666666, "is_disabled": 0, "fusion_lat": 0.0, "lat": 38.924470666666664, "bike_id": "bf8b0634debf5048e0864904ffbb84ba", "fusion_lon": 0.0}, {"rental_uris": {"ios": "https://dc.lft.to/lastmile_qr_scan", "android": "https://dc.lft.to/lastmile_qr_scan"}, "type": "electric_scooter", "name": "26d04c503a1906a430c2a0b151af8239", "is_reserved": 0, "lon": -77.00437116666667, "is_disabled": 0, "fusion_lat": 0.0, "lat": 38.920940333333334, "bike_id": "26d04c503a1906a430c2a0b151af8239", "fusion_lon": 0.0}, {"rental_uris": {"ios": "https://dc.lft.to/lastmile_qr_scan", "android": "https://dc.lft.to/lastmile_qr_scan"}, "type": "electric_scooter", "name": "c7b5a6413a0e891c7323974d123e2093", "is_reserved": 0, "lon": -77.01954416666666, "is_disabled": 0, "fusion_lat": 0.0, "lat": 38.92912183333333, "bike_id": "c7b5a6413a0e891c7323974d123e2093", "fusion_lon": 0.0}, {"rental_uris": {"ios": "https://dc.lft.to/lastmile_qr_scan", "android": "https://dc.lft.to/lastmile_qr_scan"}, "type": "electric_bike", "name": "5e37fe0e159a267d5c363d19afca7c0a", "is_reserved": 0, "lon": -76.995009, "is_disabled": 0, "fusion_lat": 0.0, "lat": 38.88180333333333, "bike_id": "5e37fe0e159a267d5c363d19afca7c0a", "fusion_lon": 0.0}, {"rental_uris": {"ios": "https://dc.lft.to/lastmile_qr_scan", "android": "https://dc.lft.to/lastmile_qr_scan"}, "type": "electric_scooter", "name": "a78f50e9ec0021528bbe7fce602ae5a5", "is_reserved": 0, "lon": -77.01372933333333, "is_disabled": 0, "fusion_lat": 0.0, "lat": 38.86963816666667, "bike_id": "a78f50e9ec0021528bbe7fce602ae5a5", "fusion_lon": 0.0}, {"rental_uris": {"ios": "https://dc.lft.to/lastmile_qr_scan", "android": "https://dc.lft.to/lastmile_qr_scan"}, "type": "electric_scooter", "name": "ee95b0f759194eb5be66d0a7838f1454", "is_reserved": 0, "lon": -77.02231683333333, "is_disabled": 0, "fusion_lat": 0.0, "lat": 38.91115666666666, "bike_id": "ee95b0f759194eb5be66d0a7838f1454", "fusion_lon": 0.0}, {"rental_uris": {"ios": "https://dc.lft.to/lastmile_qr_scan", "android": "https://dc.lft.to/lastmile_qr_scan"}, "type": "electric_scooter", "name": "414309cc6eeaa5c281347cb5d0dd7192", "is_reserved": 0, "lon": -77.0460545, "is_disabled": 0, "fusion_lat": 0.0, "lat": 38.919154, "bike_id": "414309cc6eeaa5c281347cb5d0dd7192", "fusion_lon": 0.0}, {"rental_uris": {"ios": "https://dc.lft.to/lastmile_qr_scan", "android": "https://dc.lft.to/lastmile_qr_scan"}, "type": "electric_scooter", "name": "f028d0f1d0d089694c666749df62f718", "is_reserved": 0, "lon": -77.07564683333334, "is_disabled": 0, "fusion_lat": 0.0, "lat": 38.920867333333334, "bike_id": "f028d0f1d0d089694c666749df62f718", "fusion_lon": 0.0}, {"rental_uris": {"ios": "https://dc.lft.to/lastmile_qr_scan", "android": "https://dc.lft.to/lastmile_qr_scan"}, "type": "electric_scooter", "name": "1f2f69ae0ce96679f0aa74362158880d", "is_reserved": 0, "lon": -77.06002433333333, "is_disabled": 0, "fusion_lat": 0.0, "lat": 38.90405716666667, "bike_id": "1f2f69ae0ce96679f0aa74362158880d", "fusion_lon": 0.0}, {"rental_uris": {"ios": "https://dc.lft.to/lastmile_qr_scan", "android": "https://dc.lft.to/lastmile_qr_scan"}, "type": "electric_scooter", "name": "922a257f30e5be63bb22255d55b6a001", "is_reserved": 0, "lon": -77.023144, "is_disabled": 0, "fusion_lat": 0.0, "lat": 38.89738583333333, "bike_id": "922a257f30e5be63bb22255d55b6a001", "fusion_lon": 0.0}, {"rental_uris": {"ios": "https://dc.lft.to/lastmile_qr_scan", "android": "https://dc.lft.to/lastmile_qr_scan"}, "type": "electric_scooter", "name": "23a6d82acd5c8bf203bbb7a6a30e8d54", "is_reserved": 0, "lon": -77.03274566666667, "is_disabled": 0, "fusion_lat": 0.0, "lat": 38.90565616666667, "bike_id": "23a6d82acd5c8bf203bbb7a6a30e8d54", "fusion_lon": 0.0}, {"rental_uris": {"ios": "https://dc.lft.to/lastmile_qr_scan", "android": "https://dc.lft.to/lastmile_qr_scan"}, "type": "electric_scooter", "name": "72f779ceec14ad19ca952585f3f15dfc", "is_reserved": 0, "lon": -77.002021, "is_disabled": 0, "fusion_lat": 0.0, "lat": 38.902385, "bike_id": "72f779ceec14ad19ca952585f3f15dfc", "fusion_lon": 0.0}, {"rental_uris": {"ios": "https://dc.lft.to/lastmile_qr_scan", "android": "https://dc.lft.to/lastmile_qr_scan"}, "type": "electric_scooter", "name": "b8251ab6ed8553609fe0f725302c2c32", "is_reserved": 0, "lon": -77.02696633333333, "is_disabled": 0, "fusion_lat": 0.0, "lat": 38.9723125, "bike_id": "b8251ab6ed8553609fe0f725302c2c32", "fusion_lon": 0.0}, {"rental_uris": {"ios": "https://dc.lft.to/lastmile_qr_scan", "android": "https://dc.lft.to/lastmile_qr_scan"}, "type": "electric_scooter", "name": "1467d610d174913680b25f77e470ca47", "is_reserved": 0, "lon": -77.01836666666667, "is_disabled": 0, "fusion_lat": 0.0, "lat": 38.922292, "bike_id": "1467d610d174913680b25f77e470ca47", "fusion_lon": 0.0}, {"rental_uris": {"ios": "https://dc.lft.to/lastmile_qr_scan", "android": "https://dc.lft.to/lastmile_qr_scan"}, "type": "electric_scooter", "name": "1c990d196323c7e419e5492d6fdc7a28", "is_reserved": 0, "lon": -77.032032, "is_disabled": 0, "fusion_lat": 0.0, "lat": 38.917092833333335, "bike_id": "1c990d196323c7e419e5492d6fdc7a28", "fusion_lon": 0.0}, {"rental_uris": {"ios": "https://dc.lft.to/lastmile_qr_scan", "android": "https://dc.lft.to/lastmile_qr_scan"}, "type": "electric_scooter", "name": "18120406402ef8678dc8afe4a55ce9b2", "is_reserved": 0, "lon": -76.99469, "is_disabled": 0, "fusion_lat": 0.0, "lat": 38.9055485, "bike_id": "18120406402ef8678dc8afe4a55ce9b2", "fusion_lon": 0.0}, {"rental_uris": {"ios": "https://dc.lft.to/lastmile_qr_scan", "android": "https://dc.lft.to/lastmile_qr_scan"}, "type": "electric_scooter", "name": "44894cef8507ab5b3124496122ba3f0d", "is_reserved": 0, "lon": -77.02153333333334, "is_disabled": 0, "fusion_lat": 0.0, "lat": 38.903052833333334, "bike_id": "44894cef8507ab5b3124496122ba3f0d", "fusion_lon": 0.0}, {"rental_uris": {"ios": "https://dc.lft.to/lastmile_qr_scan", "android": "https://dc.lft.to/lastmile_qr_scan"}, "type": "electric_scooter", "name": "251057dd03c2e24aacc55a2df02f4195", "is_reserved": 0, "lon": -76.94197183333333, "is_disabled": 0, "fusion_lat": 0.0, "lat": 38.90228916666667, "bike_id": "251057dd03c2e24aacc55a2df02f4195", "fusion_lon": 0.0}, {"rental_uris": {"ios": "https://dc.lft.to/lastmile_qr_scan", "android": "https://dc.lft.to/lastmile_qr_scan"}, "type": "electric_scooter", "name": "e849d4268fadfbc3f13413a60f36c9c5", "is_reserved": 0, "lon": -77.03667316666667, "is_disabled": 0, "fusion_lat": 0.0, "lat": 38.9211965, "bike_id": "e849d4268fadfbc3f13413a60f36c9c5", "fusion_lon": 0.0}, {"rental_uris": {"ios": "https://dc.lft.to/lastmile_qr_scan", "android": "https://dc.lft.to/lastmile_qr_scan"}, "type": "electric_scooter", "name": "396cd4bd5324748299962170260ac7fe", "is_reserved": 0, "lon": -77.0741105, "is_disabled": 0, "fusion_lat": 0.0, "lat": 38.89730816666667, "bike_id": "396cd4bd5324748299962170260ac7fe", "fusion_lon": 0.0}, {"rental_uris": {"ios": "https://dc.lft.to/lastmile_qr_scan", "android": "https://dc.lft.to/lastmile_qr_scan"}, "type": "electric_scooter", "name": "17479edda49558dad879d00f915db72e", "is_reserved": 0, "lon": -76.92304716666666, "is_disabled": 0, "fusion_lat": 0.0, "lat": 38.89393116666667, "bike_id": "17479edda49558dad879d00f915db72e", "fusion_lon": 0.0}, {"rental_uris": {"ios": "https://dc.lft.to/lastmile_qr_scan", "android": "https://dc.lft.to/lastmile_qr_scan"}, "type": "electric_scooter", "name": "5a8db090e2d6f394820d2cafe61cc1b0", "is_reserved": 0, "lon": -77.04386316666667, "is_disabled": 0, "fusion_lat": 0.0, "lat": 38.916651, "bike_id": "5a8db090e2d6f394820d2cafe61cc1b0", "fusion_lon": 0.0}, {"rental_uris": {"ios": "https://dc.lft.to/lastmile_qr_scan", "android": "https://dc.lft.to/lastmile_qr_scan"}, "type": "electric_bike", "name": "92c4a7df367ac7e7124a0148f3e16e99", "is_reserved": 0, "lon": -77.102903, "is_disabled": 0, "fusion_lat": 0.0, "lat": 38.852580833333334, "bike_id": "92c4a7df367ac7e7124a0148f3e16e99", "fusion_lon": 0.0}, {"rental_uris": {"ios": "https://dc.lft.to/lastmile_qr_scan", "android": "https://dc.lft.to/lastmile_qr_scan"}, "type": "electric_scooter", "name": "91c92c3d4c5103067148dce0fc40fb68", "is_reserved": 0, "lon": -77.02761, "is_disabled": 0, "fusion_lat": 0.0, "lat": 38.91346816666667, "bike_id": "91c92c3d4c5103067148dce0fc40fb68", "fusion_lon": 0.0}, {"rental_uris": {"ios": "https://dc.lft.to/lastmile_qr_scan", "android": "https://dc.lft.to/lastmile_qr_scan"}, "type": "electric_scooter", "name": "f5218d2c88cc7acf48ca7036e42996b9", "is_reserved": 0, "lon": -77.03413583333334, "is_disabled": 0, "fusion_lat": 0.0, "lat": 38.9014265, "bike_id": "f5218d2c88cc7acf48ca7036e42996b9", "fusion_lon": 0.0}, {"rental_uris": {"ios": "https://dc.lft.to/lastmile_qr_scan", "android": "https://dc.lft.to/lastmile_qr_scan"}, "type": "electric_scooter", "name": "834463ef2f30891b1a59f2ca77fc1cb9", "is_reserved": 0, "lon": -77.04816283333334, "is_disabled": 0, "fusion_lat": 0.0, "lat": 38.90486033333333, "bike_id": "834463ef2f30891b1a59f2ca77fc1cb9", "fusion_lon": 0.0}, {"rental_uris": {"ios": "https://dc.lft.to/lastmile_qr_scan", "android": "https://dc.lft.to/lastmile_qr_scan"}, "type": "electric_scooter", "name": "6f75b54fcad7d860a145276547afbfde", "is_reserved": 0, "lon": -77.02007316666666, "is_disabled": 0, "fusion_lat": 0.0, "lat": 38.92808316666667, "bike_id": "6f75b54fcad7d860a145276547afbfde", "fusion_lon": 0.0}, {"rental_uris": {"ios": "https://dc.lft.to/lastmile_qr_scan", "android": "https://dc.lft.to/lastmile_qr_scan"}, "type": "electric_scooter", "name": "b70b53f20956ae171c8e2d3ec0c6c7ab", "is_reserved": 0, "lon": -77.0385475, "is_disabled": 0, "fusion_lat": 0.0, "lat": 38.905566, "bike_id": "b70b53f20956ae171c8e2d3ec0c6c7ab", "fusion_lon": 0.0}, {"rental_uris": {"ios": "https://dc.lft.to/lastmile_qr_scan", "android": "https://dc.lft.to/lastmile_qr_scan"}, "type": "electric_scooter", "name": "87cc25a75acb0f9b9b6339e884224a05", "is_reserved": 0, "lon": -76.98647883333334, "is_disabled": 0, "fusion_lat": 0.0, "lat": 38.905472833333334, "bike_id": "87cc25a75acb0f9b9b6339e884224a05", "fusion_lon": 0.0}, {"rental_uris": {"ios": "https://dc.lft.to/lastmile_qr_scan", "android": "https://dc.lft.to/lastmile_qr_scan"}, "type": "electric_scooter", "name": "c79d9764d7be4c0273f570352a41b959", "is_reserved": 0, "lon": -77.025766, "is_disabled": 0, "fusion_lat": 0.0, "lat": 38.94851883333333, "bike_id": "c79d9764d7be4c0273f570352a41b959", "fusion_lon": 0.0}, {"rental_uris": {"ios": "https://dc.lft.to/lastmile_qr_scan", "android": "https://dc.lft.to/lastmile_qr_scan"}, "type": "electric_scooter", "name": "fd57d61f3bae50b4f0939aa316e4b7da", "is_reserved": 0, "lon": -77.00562683333334, "is_disabled": 0, "fusion_lat": 0.0, "lat": 38.8766905, "bike_id": "fd57d61f3bae50b4f0939aa316e4b7da", "fusion_lon": 0.0}, {"rental_uris": {"ios": "https://dc.lft.to/lastmile_qr_scan", "android": "https://dc.lft.to/lastmile_qr_scan"}, "type": "electric_bike", "name": "3cfbda856b0fe78558d2a1e5c7c81167", "is_reserved": 0, "lon": -77.06484733333333, "is_disabled": 0, "fusion_lat": 0.0, "lat": 38.90977, "bike_id": "3cfbda856b0fe78558d2a1e5c7c81167", "fusion_lon": 0.0}, {"rental_uris": {"ios": "https://dc.lft.to/lastmile_qr_scan", "android": "https://dc.lft.to/lastmile_qr_scan"}, "type": "electric_scooter", "name": "9549d742665798e060a78b5f61489991", "is_reserved": 0, "lon": -77.0212905, "is_disabled": 0, "fusion_lat": 0.0, "lat": 38.924141166666665, "bike_id": "9549d742665798e060a78b5f61489991", "fusion_lon": 0.0}, {"rental_uris": {"ios": "https://dc.lft.to/lastmile_qr_scan", "android": "https://dc.lft.to/lastmile_qr_scan"}, "type": "electric_scooter", "name": "6641cf038f946640bd079e46687a4e5a", "is_reserved": 0, "lon": -77.041484, "is_disabled": 0, "fusion_lat": 0.0, "lat": 38.9229865, "bike_id": "6641cf038f946640bd079e46687a4e5a", "fusion_lon": 0.0}, {"rental_uris": {"ios": "https://dc.lft.to/lastmile_qr_scan", "android": "https://dc.lft.to/lastmile_qr_scan"}, "type": "electric_scooter", "name": "4c9a85670489e0924501dd29b466570f", "is_reserved": 0, "lon": -77.04546783333333, "is_disabled": 0, "fusion_lat": 0.0, "lat": 38.9177985, "bike_id": "4c9a85670489e0924501dd29b466570f", "fusion_lon": 0.0}, {"rental_uris": {"ios": "https://dc.lft.to/lastmile_qr_scan", "android": "https://dc.lft.to/lastmile_qr_scan"}, "type": "electric_scooter", "name": "c35858f6f85cd0975aab4ed515d04982", "is_reserved": 0, "lon": -76.9851185, "is_disabled": 0, "fusion_lat": 0.0, "lat": 38.8808455, "bike_id": "c35858f6f85cd0975aab4ed515d04982", "fusion_lon": 0.0}, {"rental_uris": {"ios": "https://dc.lft.to/lastmile_qr_scan", "android": "https://dc.lft.to/lastmile_qr_scan"}, "type": "electric_scooter", "name": "870c8818d6e8331901deeedc34fc9573", "is_reserved": 0, "lon": -77.042497, "is_disabled": 0, "fusion_lat": 0.0, "lat": 38.922260666666666, "bike_id": "870c8818d6e8331901deeedc34fc9573", "fusion_lon": 0.0}, {"rental_uris": {"ios": "https://dc.lft.to/lastmile_qr_scan", "android": "https://dc.lft.to/lastmile_qr_scan"}, "type": "electric_scooter", "name": "157189af856250bb341b30d37682f63b", "is_reserved": 0, "lon": -77.01666533333334, "is_disabled": 0, "fusion_lat": 0.0, "lat": 38.911051666666665, "bike_id": "157189af856250bb341b30d37682f63b", "fusion_lon": 0.0}, {"rental_uris": {"ios": "https://dc.lft.to/lastmile_qr_scan", "android": "https://dc.lft.to/lastmile_qr_scan"}, "type": "electric_scooter", "name": "62a153eefdfb32a2292e9c9b727901c1", "is_reserved": 0, "lon": -77.04288683333333, "is_disabled": 0, "fusion_lat": 0.0, "lat": 38.92238916666667, "bike_id": "62a153eefdfb32a2292e9c9b727901c1", "fusion_lon": 0.0}, {"rental_uris": {"ios": "https://dc.lft.to/lastmile_qr_scan", "android": "https://dc.lft.to/lastmile_qr_scan"}, "type": "electric_scooter", "name": "0eaaff4d4ed66955c1b2874b40b60d04", "is_reserved": 0, "lon": -77.04236783333333, "is_disabled": 0, "fusion_lat": 0.0, "lat": 38.9215535, "bike_id": "0eaaff4d4ed66955c1b2874b40b60d04", "fusion_lon": 0.0}, {"rental_uris": {"ios": "https://dc.lft.to/lastmile_qr_scan", "android": "https://dc.lft.to/lastmile_qr_scan"}, "type": "electric_scooter", "name": "e5e9bd8f6cf550636ea4dd1472ba7453", "is_reserved": 0, "lon": -77.038385, "is_disabled": 0, "fusion_lat": 0.0, "lat": 38.931134, "bike_id": "e5e9bd8f6cf550636ea4dd1472ba7453", "fusion_lon": 0.0}, {"rental_uris": {"ios": "https://dc.lft.to/lastmile_qr_scan", "android": "https://dc.lft.to/lastmile_qr_scan"}, "type": "electric_scooter", "name": "097666c95c1be8446dd809aa2a2f3606", "is_reserved": 0, "lon": -77.03884916666667, "is_disabled": 0, "fusion_lat": 0.0, "lat": 38.903529666666664, "bike_id": "097666c95c1be8446dd809aa2a2f3606", "fusion_lon": 0.0}, {"rental_uris": {"ios": "https://dc.lft.to/lastmile_qr_scan", "android": "https://dc.lft.to/lastmile_qr_scan"}, "type": "electric_bike", "name": "eec57a4fd970cdd88336ae107735f717", "is_reserved": 0, "lon": -76.96888233333334, "is_disabled": 0, "fusion_lat": 0.0, "lat": 38.8698595, "bike_id": "eec57a4fd970cdd88336ae107735f717", "fusion_lon": 0.0}, {"rental_uris": {"ios": "https://dc.lft.to/lastmile_qr_scan", "android": "https://dc.lft.to/lastmile_qr_scan"}, "type": "electric_scooter", "name": "9b72a00a1c769a0b7d8cf43d47a7a78f", "is_reserved": 0, "lon": -76.9914405, "is_disabled": 0, "fusion_lat": 0.0, "lat": 38.873387, "bike_id": "9b72a00a1c769a0b7d8cf43d47a7a78f", "fusion_lon": 0.0}, {"rental_uris": {"ios": "https://dc.lft.to/lastmile_qr_scan", "android": "https://dc.lft.to/lastmile_qr_scan"}, "type": "electric_scooter", "name": "0ce9c33e9848d1524a195b547949cd70", "is_reserved": 0, "lon": -77.00066616666666, "is_disabled": 0, "fusion_lat": 0.0, "lat": 38.87690766666667, "bike_id": "0ce9c33e9848d1524a195b547949cd70", "fusion_lon": 0.0}, {"rental_uris": {"ios": "https://dc.lft.to/lastmile_qr_scan", "android": "https://dc.lft.to/lastmile_qr_scan"}, "type": "electric_scooter", "name": "ade9158126cc5daf90d36e53a27abc06", "is_reserved": 0, "lon": -77.027101, "is_disabled": 0, "fusion_lat": 0.0, "lat": 38.9206685, "bike_id": "ade9158126cc5daf90d36e53a27abc06", "fusion_lon": 0.0}, {"rental_uris": {"ios": "https://dc.lft.to/lastmile_qr_scan", "android": "https://dc.lft.to/lastmile_qr_scan"}, "type": "electric_scooter", "name": "791991d3ca5167017fa73e5da8749d55", "is_reserved": 0, "lon": -77.04475166666667, "is_disabled": 0, "fusion_lat": 0.0, "lat": 38.9108385, "bike_id": "791991d3ca5167017fa73e5da8749d55", "fusion_lon": 0.0}, {"rental_uris": {"ios": "https://dc.lft.to/lastmile_qr_scan", "android": "https://dc.lft.to/lastmile_qr_scan"}, "type": "electric_scooter", "name": "246316ebd9b5b4dcfa6e55e781eb1bf0", "is_reserved": 0, "lon": -77.042387, "is_disabled": 0, "fusion_lat": 0.0, "lat": 38.92277, "bike_id": "246316ebd9b5b4dcfa6e55e781eb1bf0", "fusion_lon": 0.0}, {"rental_uris": {"ios": "https://dc.lft.to/lastmile_qr_scan", "android": "https://dc.lft.to/lastmile_qr_scan"}, "type": "electric_scooter", "name": "636d64ccd04d2066956037d0edb12e8e", "is_reserved": 0, "lon": -77.06379333333334, "is_disabled": 0, "fusion_lat": 0.0, "lat": 38.908680833333335, "bike_id": "636d64ccd04d2066956037d0edb12e8e", "fusion_lon": 0.0}, {"rental_uris": {"ios": "https://dc.lft.to/lastmile_qr_scan", "android": "https://dc.lft.to/lastmile_qr_scan"}, "type": "electric_bike", "name": "e792d12e009cd3da4491ed4b372e92a2", "is_reserved": 0, "lon": -77.12890133333333, "is_disabled": 0, "fusion_lat": 0.0, "lat": 38.9060455, "bike_id": "e792d12e009cd3da4491ed4b372e92a2", "fusion_lon": 0.0}, {"rental_uris": {"ios": "https://dc.lft.to/lastmile_qr_scan", "android": "https://dc.lft.to/lastmile_qr_scan"}, "type": "electric_scooter", "name": "53532f29c8d2de92f1119b17e58c97f0", "is_reserved": 0, "lon": -77.053168, "is_disabled": 0, "fusion_lat": 0.0, "lat": 38.940951166666665, "bike_id": "53532f29c8d2de92f1119b17e58c97f0", "fusion_lon": 0.0}, {"rental_uris": {"ios": "https://dc.lft.to/lastmile_qr_scan", "android": "https://dc.lft.to/lastmile_qr_scan"}, "type": "electric_scooter", "name": "4edb4119870f7f09144fdac1595f65b2", "is_reserved": 0, "lon": -77.04008266666666, "is_disabled": 0, "fusion_lat": 0.0, "lat": 38.93426816666667, "bike_id": "4edb4119870f7f09144fdac1595f65b2", "fusion_lon": 0.0}, {"rental_uris": {"ios": "https://dc.lft.to/lastmile_qr_scan", "android": "https://dc.lft.to/lastmile_qr_scan"}, "type": "electric_scooter", "name": "e5585462a45615bd3d1401a54c9966fa", "is_reserved": 0, "lon": -76.97652766666667, "is_disabled": 0, "fusion_lat": 0.0, "lat": 38.903659, "bike_id": "e5585462a45615bd3d1401a54c9966fa", "fusion_lon": 0.0}, {"rental_uris": {"ios": "https://dc.lft.to/lastmile_qr_scan", "android": "https://dc.lft.to/lastmile_qr_scan"}, "type": "electric_scooter", "name": "446961e1aa358e106313b23148e58949", "is_reserved": 0, "lon": -77.06113316666666, "is_disabled": 0, "fusion_lat": 0.0, "lat": 38.905012166666666, "bike_id": "446961e1aa358e106313b23148e58949", "fusion_lon": 0.0}, {"rental_uris": {"ios": "https://dc.lft.to/lastmile_qr_scan", "android": "https://dc.lft.to/lastmile_qr_scan"}, "type": "electric_scooter", "name": "bffc4232c352e5cf75d3b64954f8397d", "is_reserved": 0, "lon": -77.01512633333333, "is_disabled": 0, "fusion_lat": 0.0, "lat": 38.886995666666664, "bike_id": "bffc4232c352e5cf75d3b64954f8397d", "fusion_lon": 0.0}, {"rental_uris": {"ios": "https://dc.lft.to/lastmile_qr_scan", "android": "https://dc.lft.to/lastmile_qr_scan"}, "type": "electric_scooter", "name": "5cb0d4e63c636c6bb5ac4ca1320636a1", "is_reserved": 0, "lon": -77.04092183333333, "is_disabled": 0, "fusion_lat": 0.0, "lat": 38.920605333333334, "bike_id": "5cb0d4e63c636c6bb5ac4ca1320636a1", "fusion_lon": 0.0}, {"rental_uris": {"ios": "https://dc.lft.to/lastmile_qr_scan", "android": "https://dc.lft.to/lastmile_qr_scan"}, "type": "electric_scooter", "name": "85b0047bc01a9b1297ac8cdbf3b9ad54", "is_reserved": 0, "lon": -77.03474283333334, "is_disabled": 0, "fusion_lat": 0.0, "lat": 38.91706766666667, "bike_id": "85b0047bc01a9b1297ac8cdbf3b9ad54", "fusion_lon": 0.0}, {"rental_uris": {"ios": "https://dc.lft.to/lastmile_qr_scan", "android": "https://dc.lft.to/lastmile_qr_scan"}, "type": "electric_scooter", "name": "261bc5d9c415b7755890d5e76539301d", "is_reserved": 0, "lon": -77.03170516666667, "is_disabled": 0, "fusion_lat": 0.0, "lat": 38.91556033333333, "bike_id": "261bc5d9c415b7755890d5e76539301d", "fusion_lon": 0.0}, {"rental_uris": {"ios": "https://dc.lft.to/lastmile_qr_scan", "android": "https://dc.lft.to/lastmile_qr_scan"}, "type": "electric_scooter", "name": "b8f8014264b23dda4b2b8fc7d70241e4", "is_reserved": 0, "lon": -77.00045566666667, "is_disabled": 0, "fusion_lat": 0.0, "lat": 38.873886666666664, "bike_id": "b8f8014264b23dda4b2b8fc7d70241e4", "fusion_lon": 0.0}, {"rental_uris": {"ios": "https://dc.lft.to/lastmile_qr_scan", "android": "https://dc.lft.to/lastmile_qr_scan"}, "type": "electric_scooter", "name": "bf3f6ffa0d527c93f11f1057d5ef9682", "is_reserved": 0, "lon": -77.0254175, "is_disabled": 0, "fusion_lat": 0.0, "lat": 38.9171035, "bike_id": "bf3f6ffa0d527c93f11f1057d5ef9682", "fusion_lon": 0.0}, {"rental_uris": {"ios": "https://dc.lft.to/lastmile_qr_scan", "android": "https://dc.lft.to/lastmile_qr_scan"}, "type": "electric_scooter", "name": "0ae5a80c66938c9f2753d26e20e7d464", "is_reserved": 0, "lon": -76.941623, "is_disabled": 0, "fusion_lat": 0.0, "lat": 38.901773666666664, "bike_id": "0ae5a80c66938c9f2753d26e20e7d464", "fusion_lon": 0.0}, {"rental_uris": {"ios": "https://dc.lft.to/lastmile_qr_scan", "android": "https://dc.lft.to/lastmile_qr_scan"}, "type": "electric_bike", "name": "542ea1ca3e49ce126702f9f77ab76d6f", "is_reserved": 0, "lon": -77.0836505, "is_disabled": 0, "fusion_lat": 0.0, "lat": 38.85419733333333, "bike_id": "542ea1ca3e49ce126702f9f77ab76d6f", "fusion_lon": 0.0}, {"rental_uris": {"ios": "https://dc.lft.to/lastmile_qr_scan", "android": "https://dc.lft.to/lastmile_qr_scan"}, "type": "electric_scooter", "name": "dcecf004a4ad2ead261c1b1ebf30185e", "is_reserved": 0, "lon": -77.01619, "is_disabled": 0, "fusion_lat": 0.0, "lat": 38.901354, "bike_id": "dcecf004a4ad2ead261c1b1ebf30185e", "fusion_lon": 0.0}, {"rental_uris": {"ios": "https://dc.lft.to/lastmile_qr_scan", "android": "https://dc.lft.to/lastmile_qr_scan"}, "type": "electric_scooter", "name": "ecc34aecfa3dc8fb998802efedb3fe36", "is_reserved": 0, "lon": -77.03421283333333, "is_disabled": 0, "fusion_lat": 0.0, "lat": 38.93537233333333, "bike_id": "ecc34aecfa3dc8fb998802efedb3fe36", "fusion_lon": 0.0}, {"rental_uris": {"ios": "https://dc.lft.to/lastmile_qr_scan", "android": "https://dc.lft.to/lastmile_qr_scan"}, "type": "electric_scooter", "name": "2478ef98b4a982367756b0d36aa124f9", "is_reserved": 0, "lon": -76.99739783333334, "is_disabled": 0, "fusion_lat": 0.0, "lat": 38.920596333333336, "bike_id": "2478ef98b4a982367756b0d36aa124f9", "fusion_lon": 0.0}, {"rental_uris": {"ios": "https://dc.lft.to/lastmile_qr_scan", "android": "https://dc.lft.to/lastmile_qr_scan"}, "type": "electric_bike", "name": "29b1c3f870392ad32612185e7edbb2a2", "is_reserved": 0, "lon": -76.9770405, "is_disabled": 0, "fusion_lat": 0.0, "lat": 38.822074666666666, "bike_id": "29b1c3f870392ad32612185e7edbb2a2", "fusion_lon": 0.0}, {"rental_uris": {"ios": "https://dc.lft.to/lastmile_qr_scan", "android": "https://dc.lft.to/lastmile_qr_scan"}, "type": "electric_scooter", "name": "89510a3eae80aa0653780f859e75c091", "is_reserved": 0, "lon": -77.02579866666666, "is_disabled": 0, "fusion_lat": 0.0, "lat": 38.896446, "bike_id": "89510a3eae80aa0653780f859e75c091", "fusion_lon": 0.0}, {"rental_uris": {"ios": "https://dc.lft.to/lastmile_qr_scan", "android": "https://dc.lft.to/lastmile_qr_scan"}, "type": "electric_scooter", "name": "bc7712fe10da79d975406a006c4ff7f2", "is_reserved": 0, "lon": -77.02399383333334, "is_disabled": 0, "fusion_lat": 0.0, "lat": 38.892368, "bike_id": "bc7712fe10da79d975406a006c4ff7f2", "fusion_lon": 0.0}, {"rental_uris": {"ios": "https://dc.lft.to/lastmile_qr_scan", "android": "https://dc.lft.to/lastmile_qr_scan"}, "type": "electric_scooter", "name": "e774f360e4d826a4b67ef886e2861ef7", "is_reserved": 0, "lon": -77.000342, "is_disabled": 0, "fusion_lat": 0.0, "lat": 38.87627616666666, "bike_id": "e774f360e4d826a4b67ef886e2861ef7", "fusion_lon": 0.0}, {"rental_uris": {"ios": "https://dc.lft.to/lastmile_qr_scan", "android": "https://dc.lft.to/lastmile_qr_scan"}, "type": "electric_scooter", "name": "c7487b9874b8628756cf21658a635f14", "is_reserved": 0, "lon": -76.965453, "is_disabled": 0, "fusion_lat": 0.0, "lat": 38.878902333333336, "bike_id": "c7487b9874b8628756cf21658a635f14", "fusion_lon": 0.0}, {"rental_uris": {"ios": "https://dc.lft.to/lastmile_qr_scan", "android": "https://dc.lft.to/lastmile_qr_scan"}, "type": "electric_scooter", "name": "80e8efb6c302a6e2566dbdc27c0e2a8b", "is_reserved": 0, "lon": -77.0465305, "is_disabled": 0, "fusion_lat": 0.0, "lat": 38.91053216666667, "bike_id": "80e8efb6c302a6e2566dbdc27c0e2a8b", "fusion_lon": 0.0}, {"rental_uris": {"ios": "https://dc.lft.to/lastmile_qr_scan", "android": "https://dc.lft.to/lastmile_qr_scan"}, "type": "electric_scooter", "name": "ba68310becc9ddec8061c0a13c7a660e", "is_reserved": 0, "lon": -77.0298185, "is_disabled": 0, "fusion_lat": 0.0, "lat": 38.9155425, "bike_id": "ba68310becc9ddec8061c0a13c7a660e", "fusion_lon": 0.0}, {"rental_uris": {"ios": "https://dc.lft.to/lastmile_qr_scan", "android": "https://dc.lft.to/lastmile_qr_scan"}, "type": "electric_scooter", "name": "faef24939899a26bc7882276b32283e6", "is_reserved": 0, "lon": -77.01259416666667, "is_disabled": 0, "fusion_lat": 0.0, "lat": 38.897271, "bike_id": "faef24939899a26bc7882276b32283e6", "fusion_lon": 0.0}, {"rental_uris": {"ios": "https://dc.lft.to/lastmile_qr_scan", "android": "https://dc.lft.to/lastmile_qr_scan"}, "type": "electric_scooter", "name": "9db176df6cbe8a2aaebbaa9b4503e00d", "is_reserved": 0, "lon": -77.04996416666667, "is_disabled": 0, "fusion_lat": 0.0, "lat": 38.907900833333336, "bike_id": "9db176df6cbe8a2aaebbaa9b4503e00d", "fusion_lon": 0.0}, {"rental_uris": {"ios": "https://dc.lft.to/lastmile_qr_scan", "android": "https://dc.lft.to/lastmile_qr_scan"}, "type": "electric_scooter", "name": "3e5418971fae474e7f969866e3e40464", "is_reserved": 0, "lon": -77.04254583333334, "is_disabled": 0, "fusion_lat": 0.0, "lat": 38.92233383333333, "bike_id": "3e5418971fae474e7f969866e3e40464", "fusion_lon": 0.0}, {"rental_uris": {"ios": "https://dc.lft.to/lastmile_qr_scan", "android": "https://dc.lft.to/lastmile_qr_scan"}, "type": "electric_scooter", "name": "1d17da93f3e804767c997f6ee9218b1b", "is_reserved": 0, "lon": -77.02184683333333, "is_disabled": 0, "fusion_lat": 0.0, "lat": 38.88728283333333, "bike_id": "1d17da93f3e804767c997f6ee9218b1b", "fusion_lon": 0.0}, {"rental_uris": {"ios": "https://dc.lft.to/lastmile_qr_scan", "android": "https://dc.lft.to/lastmile_qr_scan"}, "type": "electric_scooter", "name": "71d2966250fcd0f123c91318ef76321d", "is_reserved": 0, "lon": -76.9960905, "is_disabled": 0, "fusion_lat": 0.0, "lat": 38.909132666666665, "bike_id": "71d2966250fcd0f123c91318ef76321d", "fusion_lon": 0.0}, {"rental_uris": {"ios": "https://dc.lft.to/lastmile_qr_scan", "android": "https://dc.lft.to/lastmile_qr_scan"}, "type": "electric_scooter", "name": "630f26f0696e77ca9b4b79e60b2fd3c0", "is_reserved": 0, "lon": -77.042398, "is_disabled": 0, "fusion_lat": 0.0, "lat": 38.907106666666664, "bike_id": "630f26f0696e77ca9b4b79e60b2fd3c0", "fusion_lon": 0.0}, {"rental_uris": {"ios": "https://dc.lft.to/lastmile_qr_scan", "android": "https://dc.lft.to/lastmile_qr_scan"}, "type": "electric_scooter", "name": "b19878ab66d9d379dc303a559d3dd096", "is_reserved": 0, "lon": -76.97150833333333, "is_disabled": 0, "fusion_lat": 0.0, "lat": 38.916203833333334, "bike_id": "b19878ab66d9d379dc303a559d3dd096", "fusion_lon": 0.0}, {"rental_uris": {"ios": "https://dc.lft.to/lastmile_qr_scan", "android": "https://dc.lft.to/lastmile_qr_scan"}, "type": "electric_scooter", "name": "5915e820a3dd4575522a75549e5fd29d", "is_reserved": 0, "lon": -77.0217925, "is_disabled": 0, "fusion_lat": 0.0, "lat": 38.89403166666666, "bike_id": "5915e820a3dd4575522a75549e5fd29d", "fusion_lon": 0.0}, {"rental_uris": {"ios": "https://dc.lft.to/lastmile_qr_scan", "android": "https://dc.lft.to/lastmile_qr_scan"}, "type": "electric_bike", "name": "35bedf0f7b483e815687154ebbc62f3a", "is_reserved": 0, "lon": -76.98687083333333, "is_disabled": 0, "fusion_lat": 0.0, "lat": 38.944720333333336, "bike_id": "35bedf0f7b483e815687154ebbc62f3a", "fusion_lon": 0.0}, {"rental_uris": {"ios": "https://dc.lft.to/lastmile_qr_scan", "android": "https://dc.lft.to/lastmile_qr_scan"}, "type": "electric_scooter", "name": "8ea364a245a60edcaad34752e61c6d29", "is_reserved": 0, "lon": -77.02590016666667, "is_disabled": 0, "fusion_lat": 0.0, "lat": 38.95821216666667, "bike_id": "8ea364a245a60edcaad34752e61c6d29", "fusion_lon": 0.0}, {"rental_uris": {"ios": "https://dc.lft.to/lastmile_qr_scan", "android": "https://dc.lft.to/lastmile_qr_scan"}, "type": "electric_scooter", "name": "adbacd249f070ed0f19c3ef0acaa2f2a", "is_reserved": 0, "lon": -76.98508183333334, "is_disabled": 0, "fusion_lat": 0.0, "lat": 38.879921, "bike_id": "adbacd249f070ed0f19c3ef0acaa2f2a", "fusion_lon": 0.0}, {"rental_uris": {"ios": "https://dc.lft.to/lastmile_qr_scan", "android": "https://dc.lft.to/lastmile_qr_scan"}, "type": "electric_bike", "name": "05313693b95d79d1e1a7bbddc432b5ac", "is_reserved": 0, "lon": -77.10213166666666, "is_disabled": 0, "fusion_lat": 0.0, "lat": 38.92001916666667, "bike_id": "05313693b95d79d1e1a7bbddc432b5ac", "fusion_lon": 0.0}, {"rental_uris": {"ios": "https://dc.lft.to/lastmile_qr_scan", "android": "https://dc.lft.to/lastmile_qr_scan"}, "type": "electric_scooter", "name": "cfbefd936a914927e9f383883fd5d6db", "is_reserved": 0, "lon": -77.038482, "is_disabled": 0, "fusion_lat": 0.0, "lat": 38.9317335, "bike_id": "cfbefd936a914927e9f383883fd5d6db", "fusion_lon": 0.0}, {"rental_uris": {"ios": "https://dc.lft.to/lastmile_qr_scan", "android": "https://dc.lft.to/lastmile_qr_scan"}, "type": "electric_bike", "name": "0351de98f9f2144cd9dfbda0cc5cea6a", "is_reserved": 0, "lon": -77.00817833333333, "is_disabled": 0, "fusion_lat": 0.0, "lat": 38.875016, "bike_id": "0351de98f9f2144cd9dfbda0cc5cea6a", "fusion_lon": 0.0}, {"rental_uris": {"ios": "https://dc.lft.to/lastmile_qr_scan", "android": "https://dc.lft.to/lastmile_qr_scan"}, "type": "electric_bike", "name": "883ce46845d25ec7515d3862660737e2", "is_reserved": 0, "lon": -77.0003655, "is_disabled": 0, "fusion_lat": 0.0, "lat": 38.88988766666667, "bike_id": "883ce46845d25ec7515d3862660737e2", "fusion_lon": 0.0}, {"rental_uris": {"ios": "https://dc.lft.to/lastmile_qr_scan", "android": "https://dc.lft.to/lastmile_qr_scan"}, "type": "electric_scooter", "name": "ef5d6d68d40f0b2000a222f20422e9a1", "is_reserved": 0, "lon": -77.0249965, "is_disabled": 0, "fusion_lat": 0.0, "lat": 38.9196695, "bike_id": "ef5d6d68d40f0b2000a222f20422e9a1", "fusion_lon": 0.0}, {"rental_uris": {"ios": "https://dc.lft.to/lastmile_qr_scan", "android": "https://dc.lft.to/lastmile_qr_scan"}, "type": "electric_bike", "name": "9102538877bbdb4895096f2025dc42e2", "is_reserved": 0, "lon": -76.962592, "is_disabled": 0, "fusion_lat": 0.0, "lat": 38.967848833333335, "bike_id": "9102538877bbdb4895096f2025dc42e2", "fusion_lon": 0.0}, {"rental_uris": {"ios": "https://dc.lft.to/lastmile_qr_scan", "android": "https://dc.lft.to/lastmile_qr_scan"}, "type": "electric_scooter", "name": "fc18af0c95e14848adc0785627ccd8dd", "is_reserved": 0, "lon": -77.01518333333334, "is_disabled": 0, "fusion_lat": 0.0, "lat": 38.88698333333333, "bike_id": "fc18af0c95e14848adc0785627ccd8dd", "fusion_lon": 0.0}, {"rental_uris": {"ios": "https://dc.lft.to/lastmile_qr_scan", "android": "https://dc.lft.to/lastmile_qr_scan"}, "type": "electric_scooter", "name": "8d822362dac10bf18bd656447adfe599", "is_reserved": 0, "lon": -77.01447366666666, "is_disabled": 0, "fusion_lat": 0.0, "lat": 38.9180685, "bike_id": "8d822362dac10bf18bd656447adfe599", "fusion_lon": 0.0}, {"rental_uris": {"ios": "https://dc.lft.to/lastmile_qr_scan", "android": "https://dc.lft.to/lastmile_qr_scan"}, "type": "electric_scooter", "name": "4b938ac68494bde9d09d7e67225d2bbd", "is_reserved": 0, "lon": -76.99620716666666, "is_disabled": 0, "fusion_lat": 0.0, "lat": 38.889695833333334, "bike_id": "4b938ac68494bde9d09d7e67225d2bbd", "fusion_lon": 0.0}, {"rental_uris": {"ios": "https://dc.lft.to/lastmile_qr_scan", "android": "https://dc.lft.to/lastmile_qr_scan"}, "type": "electric_scooter", "name": "9371d12e0147c77db3139f66f9a29c7c", "is_reserved": 0, "lon": -77.038091, "is_disabled": 0, "fusion_lat": 0.0, "lat": 38.910499, "bike_id": "9371d12e0147c77db3139f66f9a29c7c", "fusion_lon": 0.0}, {"rental_uris": {"ios": "https://dc.lft.to/lastmile_qr_scan", "android": "https://dc.lft.to/lastmile_qr_scan"}, "type": "electric_scooter", "name": "f2a93e6eded33b72cdf3d35881e38e49", "is_reserved": 0, "lon": -77.037107, "is_disabled": 0, "fusion_lat": 0.0, "lat": 38.926565833333335, "bike_id": "f2a93e6eded33b72cdf3d35881e38e49", "fusion_lon": 0.0}, {"rental_uris": {"ios": "https://dc.lft.to/lastmile_qr_scan", "android": "https://dc.lft.to/lastmile_qr_scan"}, "type": "electric_scooter", "name": "c0937c5164ea48e7ea4b9fbafbd298ed", "is_reserved": 0, "lon": -77.03431966666666, "is_disabled": 0, "fusion_lat": 0.0, "lat": 38.904227, "bike_id": "c0937c5164ea48e7ea4b9fbafbd298ed", "fusion_lon": 0.0}, {"rental_uris": {"ios": "https://dc.lft.to/lastmile_qr_scan", "android": "https://dc.lft.to/lastmile_qr_scan"}, "type": "electric_scooter", "name": "da2a80fee372df5f1781e029145fcb05", "is_reserved": 0, "lon": -77.0379685, "is_disabled": 0, "fusion_lat": 0.0, "lat": 38.93100166666667, "bike_id": "da2a80fee372df5f1781e029145fcb05", "fusion_lon": 0.0}, {"rental_uris": {"ios": "https://dc.lft.to/lastmile_qr_scan", "android": "https://dc.lft.to/lastmile_qr_scan"}, "type": "electric_scooter", "name": "6c6dd15533167ad1ec67196466915dbb", "is_reserved": 0, "lon": -77.07908816666666, "is_disabled": 0, "fusion_lat": 0.0, "lat": 38.947902166666665, "bike_id": "6c6dd15533167ad1ec67196466915dbb", "fusion_lon": 0.0}, {"rental_uris": {"ios": "https://dc.lft.to/lastmile_qr_scan", "android": "https://dc.lft.to/lastmile_qr_scan"}, "type": "electric_scooter", "name": "dcba9b32c3be6c3a75e9580944c55867", "is_reserved": 0, "lon": -76.93730533333333, "is_disabled": 0, "fusion_lat": 0.0, "lat": 38.888833, "bike_id": "dcba9b32c3be6c3a75e9580944c55867", "fusion_lon": 0.0}, {"rental_uris": {"ios": "https://dc.lft.to/lastmile_qr_scan", "android": "https://dc.lft.to/lastmile_qr_scan"}, "type": "electric_scooter", "name": "44a8d73b620e09ee7a24ee1dd4266fca", "is_reserved": 0, "lon": -77.04678316666667, "is_disabled": 0, "fusion_lat": 0.0, "lat": 38.90281366666667, "bike_id": "44a8d73b620e09ee7a24ee1dd4266fca", "fusion_lon": 0.0}, {"rental_uris": {"ios": "https://dc.lft.to/lastmile_qr_scan", "android": "https://dc.lft.to/lastmile_qr_scan"}, "type": "electric_bike", "name": "71552ca93b54576eb64bcbb66a63b794", "is_reserved": 0, "lon": -77.12733283333333, "is_disabled": 0, "fusion_lat": 0.0, "lat": 38.89562683333333, "bike_id": "71552ca93b54576eb64bcbb66a63b794", "fusion_lon": 0.0}, {"rental_uris": {"ios": "https://dc.lft.to/lastmile_qr_scan", "android": "https://dc.lft.to/lastmile_qr_scan"}, "type": "electric_bike", "name": "13e944310729c17b52672ea5db3afdec", "is_reserved": 0, "lon": -77.0790405, "is_disabled": 0, "fusion_lat": 0.0, "lat": 38.83933583333334, "bike_id": "13e944310729c17b52672ea5db3afdec", "fusion_lon": 0.0}, {"rental_uris": {"ios": "https://dc.lft.to/lastmile_qr_scan", "android": "https://dc.lft.to/lastmile_qr_scan"}, "type": "electric_scooter", "name": "1ba06286a4d38432900e0e067afe0e13", "is_reserved": 0, "lon": -77.0358705, "is_disabled": 0, "fusion_lat": 0.0, "lat": 38.90266466666667, "bike_id": "1ba06286a4d38432900e0e067afe0e13", "fusion_lon": 0.0}, {"rental_uris": {"ios": "https://dc.lft.to/lastmile_qr_scan", "android": "https://dc.lft.to/lastmile_qr_scan"}, "type": "electric_scooter", "name": "3dd4cf055af86441fc0fac19d20093df", "is_reserved": 0, "lon": -77.04945516666666, "is_disabled": 0, "fusion_lat": 0.0, "lat": 38.905378166666665, "bike_id": "3dd4cf055af86441fc0fac19d20093df", "fusion_lon": 0.0}, {"rental_uris": {"ios": "https://dc.lft.to/lastmile_qr_scan", "android": "https://dc.lft.to/lastmile_qr_scan"}, "type": "electric_scooter", "name": "0438401ba1c35c6bd2c81a8e9eef1f72", "is_reserved": 0, "lon": -77.038043, "is_disabled": 0, "fusion_lat": 0.0, "lat": 38.932215, "bike_id": "0438401ba1c35c6bd2c81a8e9eef1f72", "fusion_lon": 0.0}, {"rental_uris": {"ios": "https://dc.lft.to/lastmile_qr_scan", "android": "https://dc.lft.to/lastmile_qr_scan"}, "type": "electric_scooter", "name": "45dfa0117ae3f0e3c4f906a21db93b03", "is_reserved": 0, "lon": -77.0640045, "is_disabled": 0, "fusion_lat": 0.0, "lat": 38.90859316666667, "bike_id": "45dfa0117ae3f0e3c4f906a21db93b03", "fusion_lon": 0.0}, {"rental_uris": {"ios": "https://dc.lft.to/lastmile_qr_scan", "android": "https://dc.lft.to/lastmile_qr_scan"}, "type": "electric_scooter", "name": "ce6418f740ef51b23fa0c653671ad06b", "is_reserved": 0, "lon": -77.013538, "is_disabled": 0, "fusion_lat": 0.0, "lat": 38.8949155, "bike_id": "ce6418f740ef51b23fa0c653671ad06b", "fusion_lon": 0.0}, {"rental_uris": {"ios": "https://dc.lft.to/lastmile_qr_scan", "android": "https://dc.lft.to/lastmile_qr_scan"}, "type": "electric_scooter", "name": "b708f8a402fae774df8b9af864ea1451", "is_reserved": 0, "lon": -77.0386575, "is_disabled": 0, "fusion_lat": 0.0, "lat": 38.91118633333333, "bike_id": "b708f8a402fae774df8b9af864ea1451", "fusion_lon": 0.0}, {"rental_uris": {"ios": "https://dc.lft.to/lastmile_qr_scan", "android": "https://dc.lft.to/lastmile_qr_scan"}, "type": "electric_scooter", "name": "5f779c543c87605002ab8e52cfd8c8a5", "is_reserved": 0, "lon": -77.04660683333333, "is_disabled": 0, "fusion_lat": 0.0, "lat": 38.907607666666664, "bike_id": "5f779c543c87605002ab8e52cfd8c8a5", "fusion_lon": 0.0}, {"rental_uris": {"ios": "https://dc.lft.to/lastmile_qr_scan", "android": "https://dc.lft.to/lastmile_qr_scan"}, "type": "electric_scooter", "name": "576e239efcb6bf085d6c3ccc378a0e57", "is_reserved": 0, "lon": -76.92828583333333, "is_disabled": 0, "fusion_lat": 0.0, "lat": 38.901819333333336, "bike_id": "576e239efcb6bf085d6c3ccc378a0e57", "fusion_lon": 0.0}, {"rental_uris": {"ios": "https://dc.lft.to/lastmile_qr_scan", "android": "https://dc.lft.to/lastmile_qr_scan"}, "type": "electric_scooter", "name": "639dfcbefbc84882991dc75b55ec52ba", "is_reserved": 0, "lon": -77.0451185, "is_disabled": 0, "fusion_lat": 0.0, "lat": 38.916035, "bike_id": "639dfcbefbc84882991dc75b55ec52ba", "fusion_lon": 0.0}, {"rental_uris": {"ios": "https://dc.lft.to/lastmile_qr_scan", "android": "https://dc.lft.to/lastmile_qr_scan"}, "type": "electric_scooter", "name": "9d22d53db2a3ecd60700ba13ece32f79", "is_reserved": 0, "lon": -77.03588366666666, "is_disabled": 0, "fusion_lat": 0.0, "lat": 38.92777133333333, "bike_id": "9d22d53db2a3ecd60700ba13ece32f79", "fusion_lon": 0.0}, {"rental_uris": {"ios": "https://dc.lft.to/lastmile_qr_scan", "android": "https://dc.lft.to/lastmile_qr_scan"}, "type": "electric_scooter", "name": "7fe678cae746b0b83d6514e8337783c8", "is_reserved": 0, "lon": -77.063731, "is_disabled": 0, "fusion_lat": 0.0, "lat": 38.93559716666667, "bike_id": "7fe678cae746b0b83d6514e8337783c8", "fusion_lon": 0.0}, {"rental_uris": {"ios": "https://dc.lft.to/lastmile_qr_scan", "android": "https://dc.lft.to/lastmile_qr_scan"}, "type": "electric_scooter", "name": "6d239f7ad55bc9e3df121b643d71afe7", "is_reserved": 0, "lon": -77.0436645, "is_disabled": 0, "fusion_lat": 0.0, "lat": 38.90782683333333, "bike_id": "6d239f7ad55bc9e3df121b643d71afe7", "fusion_lon": 0.0}, {"rental_uris": {"ios": "https://dc.lft.to/lastmile_qr_scan", "android": "https://dc.lft.to/lastmile_qr_scan"}, "type": "electric_scooter", "name": "22b45bc9412983db9492a805f2f5821b", "is_reserved": 0, "lon": -76.94703966666667, "is_disabled": 0, "fusion_lat": 0.0, "lat": 38.893018166666664, "bike_id": "22b45bc9412983db9492a805f2f5821b", "fusion_lon": 0.0}, {"rental_uris": {"ios": "https://dc.lft.to/lastmile_qr_scan", "android": "https://dc.lft.to/lastmile_qr_scan"}, "type": "electric_bike", "name": "cc3135eaaa74194b552093387e53079a", "is_reserved": 0, "lon": -76.95248916666667, "is_disabled": 0, "fusion_lat": 0.0, "lat": 38.90695066666667, "bike_id": "cc3135eaaa74194b552093387e53079a", "fusion_lon": 0.0}, {"rental_uris": {"ios": "https://dc.lft.to/lastmile_qr_scan", "android": "https://dc.lft.to/lastmile_qr_scan"}, "type": "electric_scooter", "name": "837958a93e73b784109dc18aca6d37d0", "is_reserved": 0, "lon": -77.03832766666666, "is_disabled": 0, "fusion_lat": 0.0, "lat": 38.91185983333333, "bike_id": "837958a93e73b784109dc18aca6d37d0", "fusion_lon": 0.0}, {"rental_uris": {"ios": "https://dc.lft.to/lastmile_qr_scan", "android": "https://dc.lft.to/lastmile_qr_scan"}, "type": "electric_bike", "name": "8af23e3bfbbc26a3ce96aede6cfc88d6", "is_reserved": 0, "lon": -77.126495, "is_disabled": 0, "fusion_lat": 0.0, "lat": 38.8190595, "bike_id": "8af23e3bfbbc26a3ce96aede6cfc88d6", "fusion_lon": 0.0}, {"rental_uris": {"ios": "https://dc.lft.to/lastmile_qr_scan", "android": "https://dc.lft.to/lastmile_qr_scan"}, "type": "electric_scooter", "name": "02fca9cb4256f134c5094a9915de70e8", "is_reserved": 0, "lon": -77.04687, "is_disabled": 0, "fusion_lat": 0.0, "lat": 38.892250833333335, "bike_id": "02fca9cb4256f134c5094a9915de70e8", "fusion_lon": 0.0}, {"rental_uris": {"ios": "https://dc.lft.to/lastmile_qr_scan", "android": "https://dc.lft.to/lastmile_qr_scan"}, "type": "electric_scooter", "name": "13a54a4ff5798f29c9ac4fef0d7eb157", "is_reserved": 0, "lon": -77.037148, "is_disabled": 0, "fusion_lat": 0.0, "lat": 38.927930833333335, "bike_id": "13a54a4ff5798f29c9ac4fef0d7eb157", "fusion_lon": 0.0}, {"rental_uris": {"ios": "https://dc.lft.to/lastmile_qr_scan", "android": "https://dc.lft.to/lastmile_qr_scan"}, "type": "electric_bike", "name": "423fb690b9fc8a33e8a09a4115027ca4", "is_reserved": 0, "lon": -76.99678833333333, "is_disabled": 0, "fusion_lat": 0.0, "lat": 38.838273, "bike_id": "423fb690b9fc8a33e8a09a4115027ca4", "fusion_lon": 0.0}, {"rental_uris": {"ios": "https://dc.lft.to/lastmile_qr_scan", "android": "https://dc.lft.to/lastmile_qr_scan"}, "type": "electric_bike", "name": "7bf25b7721e98812ac34bbca8bd4116f", "is_reserved": 0, "lon": -77.02977116666666, "is_disabled": 0, "fusion_lat": 0.0, "lat": 38.92250883333333, "bike_id": "7bf25b7721e98812ac34bbca8bd4116f", "fusion_lon": 0.0}, {"rental_uris": {"ios": "https://dc.lft.to/lastmile_qr_scan", "android": "https://dc.lft.to/lastmile_qr_scan"}, "type": "electric_scooter", "name": "24656db8a3d65bcae40bf3356cc57e65", "is_reserved": 0, "lon": -76.93427783333334, "is_disabled": 0, "fusion_lat": 0.0, "lat": 38.893490666666665, "bike_id": "24656db8a3d65bcae40bf3356cc57e65", "fusion_lon": 0.0}, {"rental_uris": {"ios": "https://dc.lft.to/lastmile_qr_scan", "android": "https://dc.lft.to/lastmile_qr_scan"}, "type": "electric_bike", "name": "0e2fc5db3cb97388aba2d7c3e1277b98", "is_reserved": 0, "lon": -77.0122255, "is_disabled": 0, "fusion_lat": 0.0, "lat": 38.9507395, "bike_id": "0e2fc5db3cb97388aba2d7c3e1277b98", "fusion_lon": 0.0}, {"rental_uris": {"ios": "https://dc.lft.to/lastmile_qr_scan", "android": "https://dc.lft.to/lastmile_qr_scan"}, "type": "electric_scooter", "name": "b4e4d9479d90bedcc1e3cfd463270058", "is_reserved": 0, "lon": -77.02348683333334, "is_disabled": 0, "fusion_lat": 0.0, "lat": 38.93180066666667, "bike_id": "b4e4d9479d90bedcc1e3cfd463270058", "fusion_lon": 0.0}, {"rental_uris": {"ios": "https://dc.lft.to/lastmile_qr_scan", "android": "https://dc.lft.to/lastmile_qr_scan"}, "type": "electric_scooter", "name": "938075ef7fa0d661c9e3942a5423b03b", "is_reserved": 0, "lon": -77.05815533333333, "is_disabled": 0, "fusion_lat": 0.0, "lat": 38.905605333333334, "bike_id": "938075ef7fa0d661c9e3942a5423b03b", "fusion_lon": 0.0}, {"rental_uris": {"ios": "https://dc.lft.to/lastmile_qr_scan", "android": "https://dc.lft.to/lastmile_qr_scan"}, "type": "electric_scooter", "name": "a47abe0a331a81c601b952db4ea8aae5", "is_reserved": 0, "lon": -77.04137583333333, "is_disabled": 0, "fusion_lat": 0.0, "lat": 38.907193, "bike_id": "a47abe0a331a81c601b952db4ea8aae5", "fusion_lon": 0.0}, {"rental_uris": {"ios": "https://dc.lft.to/lastmile_qr_scan", "android": "https://dc.lft.to/lastmile_qr_scan"}, "type": "electric_scooter", "name": "9f89f2c60b9c1555c6d414e7fb78320a", "is_reserved": 0, "lon": -77.026016, "is_disabled": 0, "fusion_lat": 0.0, "lat": 38.90068933333333, "bike_id": "9f89f2c60b9c1555c6d414e7fb78320a", "fusion_lon": 0.0}, {"rental_uris": {"ios": "https://dc.lft.to/lastmile_qr_scan", "android": "https://dc.lft.to/lastmile_qr_scan"}, "type": "electric_scooter", "name": "58d0c946be691c49f5c0b5e74bbc23ae", "is_reserved": 0, "lon": -77.05147916666667, "is_disabled": 0, "fusion_lat": 0.0, "lat": 38.904724, "bike_id": "58d0c946be691c49f5c0b5e74bbc23ae", "fusion_lon": 0.0}, {"rental_uris": {"ios": "https://dc.lft.to/lastmile_qr_scan", "android": "https://dc.lft.to/lastmile_qr_scan"}, "type": "electric_scooter", "name": "06d168476f39d07b444e1eaffb5f273b", "is_reserved": 0, "lon": -77.035139, "is_disabled": 0, "fusion_lat": 0.0, "lat": 38.9096455, "bike_id": "06d168476f39d07b444e1eaffb5f273b", "fusion_lon": 0.0}, {"rental_uris": {"ios": "https://dc.lft.to/lastmile_qr_scan", "android": "https://dc.lft.to/lastmile_qr_scan"}, "type": "electric_scooter", "name": "dbfb9b0e426a51a8a09f37f001c16401", "is_reserved": 0, "lon": -77.00894233333334, "is_disabled": 0, "fusion_lat": 0.0, "lat": 38.898704333333335, "bike_id": "dbfb9b0e426a51a8a09f37f001c16401", "fusion_lon": 0.0}, {"rental_uris": {"ios": "https://dc.lft.to/lastmile_qr_scan", "android": "https://dc.lft.to/lastmile_qr_scan"}, "type": "electric_scooter", "name": "f06ecd366e2f92a3cbe82ecc93eab515", "is_reserved": 0, "lon": -77.0568925, "is_disabled": 0, "fusion_lat": 0.0, "lat": 38.90482633333333, "bike_id": "f06ecd366e2f92a3cbe82ecc93eab515", "fusion_lon": 0.0}, {"rental_uris": {"ios": "https://dc.lft.to/lastmile_qr_scan", "android": "https://dc.lft.to/lastmile_qr_scan"}, "type": "electric_scooter", "name": "f5208b4ab632ee34e2d3645cbdeeda2a", "is_reserved": 0, "lon": -77.0965515, "is_disabled": 0, "fusion_lat": 0.0, "lat": 38.91625583333333, "bike_id": "f5208b4ab632ee34e2d3645cbdeeda2a", "fusion_lon": 0.0}, {"rental_uris": {"ios": "https://dc.lft.to/lastmile_qr_scan", "android": "https://dc.lft.to/lastmile_qr_scan"}, "type": "electric_scooter", "name": "67cf993ea4cee6bbf0fcea9878361897", "is_reserved": 0, "lon": -77.033307, "is_disabled": 0, "fusion_lat": 0.0, "lat": 38.904192333333334, "bike_id": "67cf993ea4cee6bbf0fcea9878361897", "fusion_lon": 0.0}, {"rental_uris": {"ios": "https://dc.lft.to/lastmile_qr_scan", "android": "https://dc.lft.to/lastmile_qr_scan"}, "type": "electric_bike", "name": "918ba5def6e39c544b251b21afecae48", "is_reserved": 0, "lon": -77.00148366666667, "is_disabled": 0, "fusion_lat": 0.0, "lat": 38.99507666666667, "bike_id": "918ba5def6e39c544b251b21afecae48", "fusion_lon": 0.0}, {"rental_uris": {"ios": "https://dc.lft.to/lastmile_qr_scan", "android": "https://dc.lft.to/lastmile_qr_scan"}, "type": "electric_scooter", "name": "06086b3f6ad5e62883c23094a7cc4457", "is_reserved": 0, "lon": -77.05786166666667, "is_disabled": 0, "fusion_lat": 0.0, "lat": 38.90514816666666, "bike_id": "06086b3f6ad5e62883c23094a7cc4457", "fusion_lon": 0.0}, {"rental_uris": {"ios": "https://dc.lft.to/lastmile_qr_scan", "android": "https://dc.lft.to/lastmile_qr_scan"}, "type": "electric_scooter", "name": "7c044c999da973673b0d908a0fc1c040", "is_reserved": 0, "lon": -77.00202433333334, "is_disabled": 0, "fusion_lat": 0.0, "lat": 38.893261333333335, "bike_id": "7c044c999da973673b0d908a0fc1c040", "fusion_lon": 0.0}, {"rental_uris": {"ios": "https://dc.lft.to/lastmile_qr_scan", "android": "https://dc.lft.to/lastmile_qr_scan"}, "type": "electric_scooter", "name": "a4cf81de82b0736ac477c1db589f49a6", "is_reserved": 0, "lon": -77.01663666666667, "is_disabled": 0, "fusion_lat": 0.0, "lat": 38.935206666666666, "bike_id": "a4cf81de82b0736ac477c1db589f49a6", "fusion_lon": 0.0}, {"rental_uris": {"ios": "https://dc.lft.to/lastmile_qr_scan", "android": "https://dc.lft.to/lastmile_qr_scan"}, "type": "electric_bike", "name": "38d1b62d80ae2f4fa05086b0f6ce6b09", "is_reserved": 0, "lon": -76.96917816666667, "is_disabled": 0, "fusion_lat": 0.0, "lat": 38.8461695, "bike_id": "38d1b62d80ae2f4fa05086b0f6ce6b09", "fusion_lon": 0.0}, {"rental_uris": {"ios": "https://dc.lft.to/lastmile_qr_scan", "android": "https://dc.lft.to/lastmile_qr_scan"}, "type": "electric_scooter", "name": "b0befccccf337c7e267e54cddc83500c", "is_reserved": 0, "lon": -76.97935483333333, "is_disabled": 0, "fusion_lat": 0.0, "lat": 38.90661083333333, "bike_id": "b0befccccf337c7e267e54cddc83500c", "fusion_lon": 0.0}, {"rental_uris": {"ios": "https://dc.lft.to/lastmile_qr_scan", "android": "https://dc.lft.to/lastmile_qr_scan"}, "type": "electric_scooter", "name": "22787810e63793a756adf32f18b13753", "is_reserved": 0, "lon": -77.0050625, "is_disabled": 0, "fusion_lat": 0.0, "lat": 38.96051383333333, "bike_id": "22787810e63793a756adf32f18b13753", "fusion_lon": 0.0}, {"rental_uris": {"ios": "https://dc.lft.to/lastmile_qr_scan", "android": "https://dc.lft.to/lastmile_qr_scan"}, "type": "electric_scooter", "name": "65c6a7912b47720dcd56acdd3b790892", "is_reserved": 0, "lon": -77.03215316666666, "is_disabled": 0, "fusion_lat": 0.0, "lat": 38.916318, "bike_id": "65c6a7912b47720dcd56acdd3b790892", "fusion_lon": 0.0}, {"rental_uris": {"ios": "https://dc.lft.to/lastmile_qr_scan", "android": "https://dc.lft.to/lastmile_qr_scan"}, "type": "electric_scooter", "name": "09fe7d65a39ea8709c8f856d9a3a0a5a", "is_reserved": 0, "lon": -77.0135705, "is_disabled": 0, "fusion_lat": 0.0, "lat": 38.89600183333334, "bike_id": "09fe7d65a39ea8709c8f856d9a3a0a5a", "fusion_lon": 0.0}, {"rental_uris": {"ios": "https://dc.lft.to/lastmile_qr_scan", "android": "https://dc.lft.to/lastmile_qr_scan"}, "type": "electric_scooter", "name": "ac64deaae74c60e46c6ee5eef218bf4a", "is_reserved": 0, "lon": -77.0320625, "is_disabled": 0, "fusion_lat": 0.0, "lat": 38.91209466666667, "bike_id": "ac64deaae74c60e46c6ee5eef218bf4a", "fusion_lon": 0.0}, {"rental_uris": {"ios": "https://dc.lft.to/lastmile_qr_scan", "android": "https://dc.lft.to/lastmile_qr_scan"}, "type": "electric_scooter", "name": "7b2fcf6a125153ac54ecd57668aca365", "is_reserved": 0, "lon": -77.0440345, "is_disabled": 0, "fusion_lat": 0.0, "lat": 38.929508, "bike_id": "7b2fcf6a125153ac54ecd57668aca365", "fusion_lon": 0.0}, {"rental_uris": {"ios": "https://dc.lft.to/lastmile_qr_scan", "android": "https://dc.lft.to/lastmile_qr_scan"}, "type": "electric_scooter", "name": "e1fd1e9fe5837fb6853f708a747ed55b", "is_reserved": 0, "lon": -77.04923266666667, "is_disabled": 0, "fusion_lat": 0.0, "lat": 38.89973416666667, "bike_id": "e1fd1e9fe5837fb6853f708a747ed55b", "fusion_lon": 0.0}, {"rental_uris": {"ios": "https://dc.lft.to/lastmile_qr_scan", "android": "https://dc.lft.to/lastmile_qr_scan"}, "type": "electric_scooter", "name": "e36bdc918954dbe2f9b47e82b1dfa5bc", "is_reserved": 0, "lon": -77.04254333333333, "is_disabled": 0, "fusion_lat": 0.0, "lat": 38.904632, "bike_id": "e36bdc918954dbe2f9b47e82b1dfa5bc", "fusion_lon": 0.0}, {"rental_uris": {"ios": "https://dc.lft.to/lastmile_qr_scan", "android": "https://dc.lft.to/lastmile_qr_scan"}, "type": "electric_bike", "name": "65a50c3e17ea2179fd475bc14be00fb4", "is_reserved": 0, "lon": -77.02817333333333, "is_disabled": 0, "fusion_lat": 0.0, "lat": 38.904704, "bike_id": "65a50c3e17ea2179fd475bc14be00fb4", "fusion_lon": 0.0}, {"rental_uris": {"ios": "https://dc.lft.to/lastmile_qr_scan", "android": "https://dc.lft.to/lastmile_qr_scan"}, "type": "electric_scooter", "name": "80e9c87f5a49599b03779461dbba8119", "is_reserved": 0, "lon": -76.95189716666667, "is_disabled": 0, "fusion_lat": 0.0, "lat": 38.905118333333334, "bike_id": "80e9c87f5a49599b03779461dbba8119", "fusion_lon": 0.0}, {"rental_uris": {"ios": "https://dc.lft.to/lastmile_qr_scan", "android": "https://dc.lft.to/lastmile_qr_scan"}, "type": "electric_scooter", "name": "e62f3a61616d9ce80627b99ab81110aa", "is_reserved": 0, "lon": -76.99214416666666, "is_disabled": 0, "fusion_lat": 0.0, "lat": 38.8897395, "bike_id": "e62f3a61616d9ce80627b99ab81110aa", "fusion_lon": 0.0}, {"rental_uris": {"ios": "https://dc.lft.to/lastmile_qr_scan", "android": "https://dc.lft.to/lastmile_qr_scan"}, "type": "electric_scooter", "name": "8fb16036b57c15c6ecc942530983adfc", "is_reserved": 0, "lon": -77.06149833333333, "is_disabled": 0, "fusion_lat": 0.0, "lat": 38.91302866666667, "bike_id": "8fb16036b57c15c6ecc942530983adfc", "fusion_lon": 0.0}, {"rental_uris": {"ios": "https://dc.lft.to/lastmile_qr_scan", "android": "https://dc.lft.to/lastmile_qr_scan"}, "type": "electric_scooter", "name": "746616ea6e3c8d924e27c5596b724054", "is_reserved": 0, "lon": -76.99480883333334, "is_disabled": 0, "fusion_lat": 0.0, "lat": 38.862136, "bike_id": "746616ea6e3c8d924e27c5596b724054", "fusion_lon": 0.0}, {"rental_uris": {"ios": "https://dc.lft.to/lastmile_qr_scan", "android": "https://dc.lft.to/lastmile_qr_scan"}, "type": "electric_scooter", "name": "84e6a0e021b6e820dd0d190950f10fb4", "is_reserved": 0, "lon": -77.030583, "is_disabled": 0, "fusion_lat": 0.0, "lat": 38.908277, "bike_id": "84e6a0e021b6e820dd0d190950f10fb4", "fusion_lon": 0.0}, {"rental_uris": {"ios": "https://dc.lft.to/lastmile_qr_scan", "android": "https://dc.lft.to/lastmile_qr_scan"}, "type": "electric_scooter", "name": "6b2b0f032546695deb7d1f30931921a2", "is_reserved": 0, "lon": -77.00552483333334, "is_disabled": 0, "fusion_lat": 0.0, "lat": 38.87535716666667, "bike_id": "6b2b0f032546695deb7d1f30931921a2", "fusion_lon": 0.0}, {"rental_uris": {"ios": "https://dc.lft.to/lastmile_qr_scan", "android": "https://dc.lft.to/lastmile_qr_scan"}, "type": "electric_bike", "name": "4ba04b47ee62cc0052af76341a063462", "is_reserved": 0, "lon": -77.02358416666667, "is_disabled": 0, "fusion_lat": 0.0, "lat": 38.884907166666665, "bike_id": "4ba04b47ee62cc0052af76341a063462", "fusion_lon": 0.0}, {"rental_uris": {"ios": "https://dc.lft.to/lastmile_qr_scan", "android": "https://dc.lft.to/lastmile_qr_scan"}, "type": "electric_scooter", "name": "14d49cdd893178660e78127290b337b1", "is_reserved": 0, "lon": -77.01817066666666, "is_disabled": 0, "fusion_lat": 0.0, "lat": 38.919875, "bike_id": "14d49cdd893178660e78127290b337b1", "fusion_lon": 0.0}, {"rental_uris": {"ios": "https://dc.lft.to/lastmile_qr_scan", "android": "https://dc.lft.to/lastmile_qr_scan"}, "type": "electric_scooter", "name": "419a4c0351b33a964f0462dae2b7bd6a", "is_reserved": 0, "lon": -77.04507, "is_disabled": 0, "fusion_lat": 0.0, "lat": 38.892278, "bike_id": "419a4c0351b33a964f0462dae2b7bd6a", "fusion_lon": 0.0}, {"rental_uris": {"ios": "https://dc.lft.to/lastmile_qr_scan", "android": "https://dc.lft.to/lastmile_qr_scan"}, "type": "electric_scooter", "name": "ffafca361eb88c9f5088882c7838d8ff", "is_reserved": 0, "lon": -77.0491405, "is_disabled": 0, "fusion_lat": 0.0, "lat": 38.9104145, "bike_id": "ffafca361eb88c9f5088882c7838d8ff", "fusion_lon": 0.0}, {"rental_uris": {"ios": "https://dc.lft.to/lastmile_qr_scan", "android": "https://dc.lft.to/lastmile_qr_scan"}, "type": "electric_scooter", "name": "88eeb54c5268d11a126922ebb38920a5", "is_reserved": 0, "lon": -77.05452866666667, "is_disabled": 0, "fusion_lat": 0.0, "lat": 38.92901483333333, "bike_id": "88eeb54c5268d11a126922ebb38920a5", "fusion_lon": 0.0}, {"rental_uris": {"ios": "https://dc.lft.to/lastmile_qr_scan", "android": "https://dc.lft.to/lastmile_qr_scan"}, "type": "electric_scooter", "name": "a1849ee7a5909525fd0b2041a29cb4a1", "is_reserved": 0, "lon": -77.0312595, "is_disabled": 0, "fusion_lat": 0.0, "lat": 38.9202075, "bike_id": "a1849ee7a5909525fd0b2041a29cb4a1", "fusion_lon": 0.0}, {"rental_uris": {"ios": "https://dc.lft.to/lastmile_qr_scan", "android": "https://dc.lft.to/lastmile_qr_scan"}, "type": "electric_scooter", "name": "6f1f257b9956e94c797a66497075c175", "is_reserved": 0, "lon": -77.04407183333333, "is_disabled": 0, "fusion_lat": 0.0, "lat": 38.89614666666667, "bike_id": "6f1f257b9956e94c797a66497075c175", "fusion_lon": 0.0}, {"rental_uris": {"ios": "https://dc.lft.to/lastmile_qr_scan", "android": "https://dc.lft.to/lastmile_qr_scan"}, "type": "electric_scooter", "name": "8dfcd889897bfb53b265049247b8746b", "is_reserved": 0, "lon": -77.0029465, "is_disabled": 0, "fusion_lat": 0.0, "lat": 38.90127833333333, "bike_id": "8dfcd889897bfb53b265049247b8746b", "fusion_lon": 0.0}, {"rental_uris": {"ios": "https://dc.lft.to/lastmile_qr_scan", "android": "https://dc.lft.to/lastmile_qr_scan"}, "type": "electric_scooter", "name": "db18a1645df136e734a766c081f4d2e8", "is_reserved": 0, "lon": -77.02164433333333, "is_disabled": 0, "fusion_lat": 0.0, "lat": 38.89407166666667, "bike_id": "db18a1645df136e734a766c081f4d2e8", "fusion_lon": 0.0}, {"rental_uris": {"ios": "https://dc.lft.to/lastmile_qr_scan", "android": "https://dc.lft.to/lastmile_qr_scan"}, "type": "electric_scooter", "name": "d853b8828d816128f7fe75d259ed62d7", "is_reserved": 0, "lon": -77.05866833333333, "is_disabled": 0, "fusion_lat": 0.0, "lat": 38.90444466666667, "bike_id": "d853b8828d816128f7fe75d259ed62d7", "fusion_lon": 0.0}, {"rental_uris": {"ios": "https://dc.lft.to/lastmile_qr_scan", "android": "https://dc.lft.to/lastmile_qr_scan"}, "type": "electric_scooter", "name": "d767bb1dfebb948c26e6f1d78c14334f", "is_reserved": 0, "lon": -77.0351415, "is_disabled": 0, "fusion_lat": 0.0, "lat": 38.906879833333335, "bike_id": "d767bb1dfebb948c26e6f1d78c14334f", "fusion_lon": 0.0}, {"rental_uris": {"ios": "https://dc.lft.to/lastmile_qr_scan", "android": "https://dc.lft.to/lastmile_qr_scan"}, "type": "electric_scooter", "name": "f4dfb54f7215e1106021747a2b6727e0", "is_reserved": 0, "lon": -77.01836233333333, "is_disabled": 0, "fusion_lat": 0.0, "lat": 38.91519683333333, "bike_id": "f4dfb54f7215e1106021747a2b6727e0", "fusion_lon": 0.0}, {"rental_uris": {"ios": "https://dc.lft.to/lastmile_qr_scan", "android": "https://dc.lft.to/lastmile_qr_scan"}, "type": "electric_scooter", "name": "e5acf04d9ddea28a7378bd9a7862fba2", "is_reserved": 0, "lon": -77.009297, "is_disabled": 0, "fusion_lat": 0.0, "lat": 38.8960895, "bike_id": "e5acf04d9ddea28a7378bd9a7862fba2", "fusion_lon": 0.0}, {"rental_uris": {"ios": "https://dc.lft.to/lastmile_qr_scan", "android": "https://dc.lft.to/lastmile_qr_scan"}, "type": "electric_scooter", "name": "b3a489fa2bb9b733c13716db27f90ec9", "is_reserved": 0, "lon": -77.02940433333333, "is_disabled": 0, "fusion_lat": 0.0, "lat": 38.91553183333333, "bike_id": "b3a489fa2bb9b733c13716db27f90ec9", "fusion_lon": 0.0}, {"rental_uris": {"ios": "https://dc.lft.to/lastmile_qr_scan", "android": "https://dc.lft.to/lastmile_qr_scan"}, "type": "electric_scooter", "name": "3cac0da7e71294b0dea4ea82e438a25e", "is_reserved": 0, "lon": -77.02878066666666, "is_disabled": 0, "fusion_lat": 0.0, "lat": 38.90371583333334, "bike_id": "3cac0da7e71294b0dea4ea82e438a25e", "fusion_lon": 0.0}, {"rental_uris": {"ios": "https://dc.lft.to/lastmile_qr_scan", "android": "https://dc.lft.to/lastmile_qr_scan"}, "type": "electric_scooter", "name": "569959354e73732ef9384f0ae0b33e9f", "is_reserved": 0, "lon": -77.023102, "is_disabled": 0, "fusion_lat": 0.0, "lat": 38.917805, "bike_id": "569959354e73732ef9384f0ae0b33e9f", "fusion_lon": 0.0}, {"rental_uris": {"ios": "https://dc.lft.to/lastmile_qr_scan", "android": "https://dc.lft.to/lastmile_qr_scan"}, "type": "electric_scooter", "name": "2ae67801db1752ee1555ddddc5874bd0", "is_reserved": 0, "lon": -77.04395083333333, "is_disabled": 0, "fusion_lat": 0.0, "lat": 38.909084, "bike_id": "2ae67801db1752ee1555ddddc5874bd0", "fusion_lon": 0.0}, {"rental_uris": {"ios": "https://dc.lft.to/lastmile_qr_scan", "android": "https://dc.lft.to/lastmile_qr_scan"}, "type": "electric_scooter", "name": "d3ca1a17f56f0231f6ba8735681bfa6f", "is_reserved": 0, "lon": -77.014554, "is_disabled": 0, "fusion_lat": 0.0, "lat": 38.92658483333334, "bike_id": "d3ca1a17f56f0231f6ba8735681bfa6f", "fusion_lon": 0.0}, {"rental_uris": {"ios": "https://dc.lft.to/lastmile_qr_scan", "android": "https://dc.lft.to/lastmile_qr_scan"}, "type": "electric_scooter", "name": "bd6420b0ff7f1bbd4f12fdc958f40c8d", "is_reserved": 0, "lon": -77.05021183333334, "is_disabled": 0, "fusion_lat": 0.0, "lat": 38.9235585, "bike_id": "bd6420b0ff7f1bbd4f12fdc958f40c8d", "fusion_lon": 0.0}, {"rental_uris": {"ios": "https://dc.lft.to/lastmile_qr_scan", "android": "https://dc.lft.to/lastmile_qr_scan"}, "type": "electric_scooter", "name": "12de6b4adfa4eee1daf01728b1aec04d", "is_reserved": 0, "lon": -77.0004465, "is_disabled": 0, "fusion_lat": 0.0, "lat": 38.8750695, "bike_id": "12de6b4adfa4eee1daf01728b1aec04d", "fusion_lon": 0.0}, {"rental_uris": {"ios": "https://dc.lft.to/lastmile_qr_scan", "android": "https://dc.lft.to/lastmile_qr_scan"}, "type": "electric_scooter", "name": "e382a4825146eb323dbb1f836aea94fe", "is_reserved": 0, "lon": -77.03186766666667, "is_disabled": 0, "fusion_lat": 0.0, "lat": 38.91177916666667, "bike_id": "e382a4825146eb323dbb1f836aea94fe", "fusion_lon": 0.0}, {"rental_uris": {"ios": "https://dc.lft.to/lastmile_qr_scan", "android": "https://dc.lft.to/lastmile_qr_scan"}, "type": "electric_bike", "name": "b24c644feb6000efbb2c9e8d82acb96e", "is_reserved": 0, "lon": -76.961518, "is_disabled": 0, "fusion_lat": 0.0, "lat": 38.856204, "bike_id": "b24c644feb6000efbb2c9e8d82acb96e", "fusion_lon": 0.0}, {"rental_uris": {"ios": "https://dc.lft.to/lastmile_qr_scan", "android": "https://dc.lft.to/lastmile_qr_scan"}, "type": "electric_scooter", "name": "542bc4caab8850ef9cb92ca16653435a", "is_reserved": 0, "lon": -77.00361916666667, "is_disabled": 0, "fusion_lat": 0.0, "lat": 38.89913983333334, "bike_id": "542bc4caab8850ef9cb92ca16653435a", "fusion_lon": 0.0}, {"rental_uris": {"ios": "https://dc.lft.to/lastmile_qr_scan", "android": "https://dc.lft.to/lastmile_qr_scan"}, "type": "electric_scooter", "name": "05e68be6b6a07d7317fde62e4b7c3ce1", "is_reserved": 0, "lon": -77.06514466666667, "is_disabled": 0, "fusion_lat": 0.0, "lat": 38.91112533333333, "bike_id": "05e68be6b6a07d7317fde62e4b7c3ce1", "fusion_lon": 0.0}, {"rental_uris": {"ios": "https://dc.lft.to/lastmile_qr_scan", "android": "https://dc.lft.to/lastmile_qr_scan"}, "type": "electric_scooter", "name": "0b6cf421dd04995fe68a5db7963fde7e", "is_reserved": 0, "lon": -77.039404, "is_disabled": 0, "fusion_lat": 0.0, "lat": 38.9009075, "bike_id": "0b6cf421dd04995fe68a5db7963fde7e", "fusion_lon": 0.0}, {"rental_uris": {"ios": "https://dc.lft.to/lastmile_qr_scan", "android": "https://dc.lft.to/lastmile_qr_scan"}, "type": "electric_scooter", "name": "1256e39a08c0d0ab084737af11bb4b0b", "is_reserved": 0, "lon": -77.0488295, "is_disabled": 0, "fusion_lat": 0.0, "lat": 38.91833583333333, "bike_id": "1256e39a08c0d0ab084737af11bb4b0b", "fusion_lon": 0.0}, {"rental_uris": {"ios": "https://dc.lft.to/lastmile_qr_scan", "android": "https://dc.lft.to/lastmile_qr_scan"}, "type": "electric_scooter", "name": "ba9a49a2c2db8b1e64d5853a1312aac6", "is_reserved": 0, "lon": -77.02493483333333, "is_disabled": 0, "fusion_lat": 0.0, "lat": 38.92592966666667, "bike_id": "ba9a49a2c2db8b1e64d5853a1312aac6", "fusion_lon": 0.0}, {"rental_uris": {"ios": "https://dc.lft.to/lastmile_qr_scan", "android": "https://dc.lft.to/lastmile_qr_scan"}, "type": "electric_scooter", "name": "395c6acd77a502d897d0843b84fdeb4d", "is_reserved": 0, "lon": -77.042827, "is_disabled": 0, "fusion_lat": 0.0, "lat": 38.906560666666664, "bike_id": "395c6acd77a502d897d0843b84fdeb4d", "fusion_lon": 0.0}, {"rental_uris": {"ios": "https://dc.lft.to/lastmile_qr_scan", "android": "https://dc.lft.to/lastmile_qr_scan"}, "type": "electric_scooter", "name": "afcf214edcd13e9c76bda2f08c013f0b", "is_reserved": 0, "lon": -77.0402825, "is_disabled": 0, "fusion_lat": 0.0, "lat": 38.91827633333333, "bike_id": "afcf214edcd13e9c76bda2f08c013f0b", "fusion_lon": 0.0}, {"rental_uris": {"ios": "https://dc.lft.to/lastmile_qr_scan", "android": "https://dc.lft.to/lastmile_qr_scan"}, "type": "electric_scooter", "name": "c1caefddece30600a6695976d6f4ee5e", "is_reserved": 0, "lon": -76.99410566666667, "is_disabled": 0, "fusion_lat": 0.0, "lat": 38.92074183333333, "bike_id": "c1caefddece30600a6695976d6f4ee5e", "fusion_lon": 0.0}, {"rental_uris": {"ios": "https://dc.lft.to/lastmile_qr_scan", "android": "https://dc.lft.to/lastmile_qr_scan"}, "type": "electric_scooter", "name": "64ac1ba153cec0cda32ce627d649c5f1", "is_reserved": 0, "lon": -77.05023533333333, "is_disabled": 0, "fusion_lat": 0.0, "lat": 38.92354733333333, "bike_id": "64ac1ba153cec0cda32ce627d649c5f1", "fusion_lon": 0.0}, {"rental_uris": {"ios": "https://dc.lft.to/lastmile_qr_scan", "android": "https://dc.lft.to/lastmile_qr_scan"}, "type": "electric_scooter", "name": "63afcf84f0ed314006f47b607b51c852", "is_reserved": 0, "lon": -77.04483333333333, "is_disabled": 0, "fusion_lat": 0.0, "lat": 38.893416333333334, "bike_id": "63afcf84f0ed314006f47b607b51c852", "fusion_lon": 0.0}, {"rental_uris": {"ios": "https://dc.lft.to/lastmile_qr_scan", "android": "https://dc.lft.to/lastmile_qr_scan"}, "type": "electric_scooter", "name": "24963ac1d4c7159988396e76bfd90224", "is_reserved": 0, "lon": -77.009508, "is_disabled": 0, "fusion_lat": 0.0, "lat": 38.8763455, "bike_id": "24963ac1d4c7159988396e76bfd90224", "fusion_lon": 0.0}, {"rental_uris": {"ios": "https://dc.lft.to/lastmile_qr_scan", "android": "https://dc.lft.to/lastmile_qr_scan"}, "type": "electric_scooter", "name": "a83d2502b30bffb27c0f1c7e803f9917", "is_reserved": 0, "lon": -77.03664816666667, "is_disabled": 0, "fusion_lat": 0.0, "lat": 38.90956716666667, "bike_id": "a83d2502b30bffb27c0f1c7e803f9917", "fusion_lon": 0.0}, {"rental_uris": {"ios": "https://dc.lft.to/lastmile_qr_scan", "android": "https://dc.lft.to/lastmile_qr_scan"}, "type": "electric_scooter", "name": "32fad33fd8c00bff4075ea9e8c44bf88", "is_reserved": 0, "lon": -77.00741766666667, "is_disabled": 0, "fusion_lat": 0.0, "lat": 38.87645833333333, "bike_id": "32fad33fd8c00bff4075ea9e8c44bf88", "fusion_lon": 0.0}, {"rental_uris": {"ios": "https://dc.lft.to/lastmile_qr_scan", "android": "https://dc.lft.to/lastmile_qr_scan"}, "type": "electric_scooter", "name": "fbedd08d306c524424a1169324372010", "is_reserved": 0, "lon": -77.03545683333333, "is_disabled": 0, "fusion_lat": 0.0, "lat": 38.9047085, "bike_id": "fbedd08d306c524424a1169324372010", "fusion_lon": 0.0}, {"rental_uris": {"ios": "https://dc.lft.to/lastmile_qr_scan", "android": "https://dc.lft.to/lastmile_qr_scan"}, "type": "electric_scooter", "name": "01eda25e50ddde0c6f94acc02b8c14b7", "is_reserved": 0, "lon": -77.01087766666667, "is_disabled": 0, "fusion_lat": 0.0, "lat": 38.9033175, "bike_id": "01eda25e50ddde0c6f94acc02b8c14b7", "fusion_lon": 0.0}, {"rental_uris": {"ios": "https://dc.lft.to/lastmile_qr_scan", "android": "https://dc.lft.to/lastmile_qr_scan"}, "type": "electric_scooter", "name": "9b4a05c68265edd620403ccf6ac714db", "is_reserved": 0, "lon": -77.04199266666667, "is_disabled": 0, "fusion_lat": 0.0, "lat": 38.90557416666667, "bike_id": "9b4a05c68265edd620403ccf6ac714db", "fusion_lon": 0.0}, {"rental_uris": {"ios": "https://dc.lft.to/lastmile_qr_scan", "android": "https://dc.lft.to/lastmile_qr_scan"}, "type": "electric_scooter", "name": "e8a6113fbc402046b2780cb86edd3406", "is_reserved": 0, "lon": -77.0307655, "is_disabled": 0, "fusion_lat": 0.0, "lat": 38.92248083333333, "bike_id": "e8a6113fbc402046b2780cb86edd3406", "fusion_lon": 0.0}, {"rental_uris": {"ios": "https://dc.lft.to/lastmile_qr_scan", "android": "https://dc.lft.to/lastmile_qr_scan"}, "type": "electric_scooter", "name": "df2c4474cb1f3233a22fd1b8e2a3ba26", "is_reserved": 0, "lon": -77.03351916666666, "is_disabled": 0, "fusion_lat": 0.0, "lat": 38.954785, "bike_id": "df2c4474cb1f3233a22fd1b8e2a3ba26", "fusion_lon": 0.0}, {"rental_uris": {"ios": "https://dc.lft.to/lastmile_qr_scan", "android": "https://dc.lft.to/lastmile_qr_scan"}, "type": "electric_scooter", "name": "9ce7eef0e0567922170bc31904363c92", "is_reserved": 0, "lon": -76.99706116666667, "is_disabled": 0, "fusion_lat": 0.0, "lat": 38.887609, "bike_id": "9ce7eef0e0567922170bc31904363c92", "fusion_lon": 0.0}, {"rental_uris": {"ios": "https://dc.lft.to/lastmile_qr_scan", "android": "https://dc.lft.to/lastmile_qr_scan"}, "type": "electric_scooter", "name": "083fd466f6f899fe9cbd91c0466dbb68", "is_reserved": 0, "lon": -77.04479616666667, "is_disabled": 0, "fusion_lat": 0.0, "lat": 38.910730666666666, "bike_id": "083fd466f6f899fe9cbd91c0466dbb68", "fusion_lon": 0.0}, {"rental_uris": {"ios": "https://dc.lft.to/lastmile_qr_scan", "android": "https://dc.lft.to/lastmile_qr_scan"}, "type": "electric_scooter", "name": "6805ddec6feff733b48f78e7e96d45fb", "is_reserved": 0, "lon": -77.07447733333333, "is_disabled": 0, "fusion_lat": 0.0, "lat": 38.93780433333333, "bike_id": "6805ddec6feff733b48f78e7e96d45fb", "fusion_lon": 0.0}, {"rental_uris": {"ios": "https://dc.lft.to/lastmile_qr_scan", "android": "https://dc.lft.to/lastmile_qr_scan"}, "type": "electric_scooter", "name": "167dc84997233aaf485c103cac162996", "is_reserved": 0, "lon": -77.012089, "is_disabled": 0, "fusion_lat": 0.0, "lat": 38.91682566666667, "bike_id": "167dc84997233aaf485c103cac162996", "fusion_lon": 0.0}, {"rental_uris": {"ios": "https://dc.lft.to/lastmile_qr_scan", "android": "https://dc.lft.to/lastmile_qr_scan"}, "type": "electric_scooter", "name": "6cbeba3cdc2c04c992d49abbed4f947a", "is_reserved": 0, "lon": -77.02163483333334, "is_disabled": 0, "fusion_lat": 0.0, "lat": 38.894761, "bike_id": "6cbeba3cdc2c04c992d49abbed4f947a", "fusion_lon": 0.0}, {"rental_uris": {"ios": "https://dc.lft.to/lastmile_qr_scan", "android": "https://dc.lft.to/lastmile_qr_scan"}, "type": "electric_scooter", "name": "c7949143178742a678a47f08db358e35", "is_reserved": 0, "lon": -76.9492245, "is_disabled": 0, "fusion_lat": 0.0, "lat": 38.89546633333333, "bike_id": "c7949143178742a678a47f08db358e35", "fusion_lon": 0.0}, {"rental_uris": {"ios": "https://dc.lft.to/lastmile_qr_scan", "android": "https://dc.lft.to/lastmile_qr_scan"}, "type": "electric_scooter", "name": "640f079987d0e8b442691a216a966a17", "is_reserved": 0, "lon": -77.04668983333333, "is_disabled": 0, "fusion_lat": 0.0, "lat": 38.91802366666667, "bike_id": "640f079987d0e8b442691a216a966a17", "fusion_lon": 0.0}, {"rental_uris": {"ios": "https://dc.lft.to/lastmile_qr_scan", "android": "https://dc.lft.to/lastmile_qr_scan"}, "type": "electric_scooter", "name": "d642fa4406ba0fbeda77fbe472e41837", "is_reserved": 0, "lon": -77.02191216666667, "is_disabled": 0, "fusion_lat": 0.0, "lat": 38.89613133333334, "bike_id": "d642fa4406ba0fbeda77fbe472e41837", "fusion_lon": 0.0}, {"rental_uris": {"ios": "https://dc.lft.to/lastmile_qr_scan", "android": "https://dc.lft.to/lastmile_qr_scan"}, "type": "electric_scooter", "name": "36e1dc67e47dfad4184cf126b74e6362", "is_reserved": 0, "lon": -77.00841666666666, "is_disabled": 0, "fusion_lat": 0.0, "lat": 38.89715616666667, "bike_id": "36e1dc67e47dfad4184cf126b74e6362", "fusion_lon": 0.0}, {"rental_uris": {"ios": "https://dc.lft.to/lastmile_qr_scan", "android": "https://dc.lft.to/lastmile_qr_scan"}, "type": "electric_scooter", "name": "84c842dabf89da306a7449dcae8490ee", "is_reserved": 0, "lon": -77.04534066666666, "is_disabled": 0, "fusion_lat": 0.0, "lat": 38.89727083333333, "bike_id": "84c842dabf89da306a7449dcae8490ee", "fusion_lon": 0.0}, {"rental_uris": {"ios": "https://dc.lft.to/lastmile_qr_scan", "android": "https://dc.lft.to/lastmile_qr_scan"},