{"data": {"bikes": [{"is_disabled": 0, "fusion_lat": 0.0, "lat": 38.920131, "type": "electric_scooter", "lon": -77.02184033333333, "is_reserved": 0, "fusion_lon": 0.0, "bike_id": "10c3848062ba09157470ff983e8d2e8c", "name": "10c3848062ba09157470ff983e8d2e8c", "rental_uris": {"ios": "https://dc.lft.to/lastmile_qr_scan", "android": "https://dc.lft.to/lastmile_qr_scan"}}, {"is_disabled": 0, "fusion_lat": 0.0, "lat": 38.90132216666667, "type": "electric_scooter", "lon": -76.99712716666667, "is_reserved": 0, "fusion_lon": 0.0, "bike_id": "99d1697b123cf6d72e8d88e90262ac55", "name": "99d1697b123cf6d72e8d88e90262ac55", "rental_uris": {"ios": "https://dc.lft.to/lastmile_qr_scan", "android": "https://dc.lft.to/lastmile_qr_scan"}}, {"is_disabled": 0, "fusion_lat": 0.0, "lat": 38.91156183333333, "type": "electric_scooter", "lon": -76.98658883333333, "is_reserved": 0, "fusion_lon": 0.0, "bike_id": "dcbbfe6294c2170b13705c2472adac61", "name": "dcbbfe6294c2170b13705c2472adac61", "rental_uris": {"ios": "https://dc.lft.to/lastmile_qr_scan", "android": "https://dc.lft.to/lastmile_qr_scan"}}, {"is_disabled": 0, "fusion_lat": 0.0, "lat": 38.952667, "type": "electric_scooter", "lon": -77.06848216666667, "is_reserved": 0, "fusion_lon": 0.0, "bike_id": "4294627726eee21c479f8026de946070", "name": "4294627726eee21c479f8026de946070", "rental_uris": {"ios": "https://dc.lft.to/lastmile_qr_scan", "android": "https://dc.lft.to/lastmile_qr_scan"}}, {"is_disabled": 0, "fusion_lat": 0.0, "lat": 38.927050666666666, "type": "electric_scooter", "lon": -77.04047033333333, "is_reserved": 0, "fusion_lon": 0.0, "bike_id": "483511da91be7313e3fa16d5260332fe", "name": "483511da91be7313e3fa16d5260332fe", "rental_uris": {"ios": "https://dc.lft.to/lastmile_qr_scan", "android": "https://dc.lft.to/lastmile_qr_scan"}}, {"is_disabled": 0, "fusion_lat": 0.0, "lat": 38.9201055, "type": "electric_scooter", "lon": -77.04078683333333, "is_reserved": 0, "fusion_lon": 0.0, "bike_id": "4ce854bf8cbc20a9380e2829ac8cbae8", "name": "4ce854bf8cbc20a9380e2829ac8cbae8", "rental_uris": {"ios": "https://dc.lft.to/lastmile_qr_scan", "android": "https://dc.lft.to/lastmile_qr_scan"}}, {"is_disabled": 0, "fusion_lat": 0.0, "lat": 38.906318666666664, "type": "electric_scooter", "lon": -77.03588316666666, "is_reserved": 0, "fusion_lon": 0.0, "bike_id": "0d995e1e250b3102ca751e616aee8241", "name": "0d995e1e250b3102ca751e616aee8241", "rental_uris": {"ios": "https://dc.lft.to/lastmile_qr_scan", "android": "https://dc.lft.to/lastmile_qr_scan"}}, {"is_disabled": 0, "fusion_lat": 0.0, "lat": 38.93422416666667, "type": "electric_scooter", "lon": -77.028436, "is_reserved": 0, "fusion_lon": 0.0, "bike_id": "e3ec278f3493fbacd50a2085997a3749", "name": "e3ec278f3493fbacd50a2085997a3749", "rental_uris": {"ios": "https://dc.lft.to/lastmile_qr_scan", "android": "https://dc.lft.to/lastmile_qr_scan"}}, {"is_disabled": 0, "fusion_lat": 0.0, "lat": 38.87744883333333, "type": "electric_bike", "lon": -76.9805625, "is_reserved": 0, "fusion_lon": 0.0, "bike_id": "31d123868a98575dbdd2b497152accf2", "name": "31d123868a98575dbdd2b497152accf2", "rental_uris": {"ios": "https://dc.lft.to/lastmile_qr_scan", "android": "https://dc.lft.to/lastmile_qr_scan"}}, {"is_disabled": 0, "fusion_lat": 0.0, "lat": 38.8820695, "type": "electric_scooter", "lon": -76.9994895, "is_reserved": 0, "fusion_lon": 0.0, "bike_id": "a2e3656cffc3a364c7586052fffb7f74", "name": "a2e3656cffc3a364c7586052fffb7f74", "rental_uris": {"ios": "https://dc.lft.to/lastmile_qr_scan", "android": "https://dc.lft.to/lastmile_qr_scan"}}, {"is_disabled": 0, "fusion_lat": 0.0, "lat": 38.8104365, "type": "electric_bike", "lon": -77.08510166666667, "is_reserved": 0, "fusion_lon": 0.0, "bike_id": "02092065ddd75b72f4d3ce76e6df0486", "name": "02092065ddd75b72f4d3ce76e6df0486", "rental_uris": {"ios": "https://dc.lft.to/lastmile_qr_scan", "android": "https://dc.lft.to/lastmile_qr_scan"}}, {"is_disabled": 0, "fusion_lat": 0.0, "lat": 38.915502333333336, "type": "electric_scooter", "lon": -77.00976633333333, "is_reserved": 0, "fusion_lon": 0.0, "bike_id": "0ab506bcca1e9dd2247258f42b84291e", "name": "0ab506bcca1e9dd2247258f42b84291e", "rental_uris": {"ios": "https://dc.lft.to/lastmile_qr_scan", "android": "https://dc.lft.to/lastmile_qr_scan"}}, {"is_disabled": 0, "fusion_lat": 0.0, "lat": 38.92604216666667, "type": "electric_scooter", "lon": -77.05693366666667, "is_reserved": 0, "fusion_lon": 0.0, "bike_id": "b4b57da58d3ac8221111d7115d62d5f3", "name": "b4b57da58d3ac8221111d7115d62d5f3", "rental_uris": {"ios": "https://dc.lft.to/lastmile_qr_scan", "android": "https://dc.lft.to/lastmile_qr_scan"}}, {"is_disabled": 0, "fusion_lat": 0.0, "lat": 38.90362016666667, "type": "electric_scooter", "lon": -77.003451, "is_reserved": 0, "fusion_lon": 0.0, "bike_id": "ef21c3c617732fc8f435389edfa0f0f1", "name": "ef21c3c617732fc8f435389edfa0f0f1", "rental_uris": {"ios": "https://dc.lft.to/lastmile_qr_scan", "android": "https://dc.lft.to/lastmile_qr_scan"}}, {"is_disabled": 0, "fusion_lat": 0.0, "lat": 38.90803533333333, "type": "electric_scooter", "lon": -77.0339535, "is_reserved": 0, "fusion_lon": 0.0, "bike_id": "ad43a5e0184014581161088da9fa2620", "name": "ad43a5e0184014581161088da9fa2620", "rental_uris": {"ios": "https://dc.lft.to/lastmile_qr_scan", "android": "https://dc.lft.to/lastmile_qr_scan"}}, {"is_disabled": 0, "fusion_lat": 0.0, "lat": 38.909456666666664, "type": "electric_scooter", "lon": -77.0465785, "is_reserved": 0, "fusion_lon": 0.0, "bike_id": "e68dddab3a2c58d44f816b76a57c275b", "name": "e68dddab3a2c58d44f816b76a57c275b", "rental_uris": {"ios": "https://dc.lft.to/lastmile_qr_scan", "android": "https://dc.lft.to/lastmile_qr_scan"}}, {"is_disabled": 0, "fusion_lat": 0.0, "lat": 38.89610833333333, "type": "electric_scooter", "lon": -77.04506483333333, "is_reserved": 0, "fusion_lon": 0.0, "bike_id": "1a6fc935342ee76951022c61dade4580", "name": "1a6fc935342ee76951022c61dade4580", "rental_uris": {"ios": "https://dc.lft.to/lastmile_qr_scan", "android": "https://dc.lft.to/lastmile_qr_scan"}}, {"is_disabled": 0, "fusion_lat": 0.0, "lat": 38.8543515, "type": "electric_bike", "lon": -76.90977983333333, "is_reserved": 0, "fusion_lon": 0.0, "bike_id": "f1c5a3eaa608b4ddc54ea4e4c6541209", "name": "f1c5a3eaa608b4ddc54ea4e4c6541209", "rental_uris": {"ios": "https://dc.lft.to/lastmile_qr_scan", "android": "https://dc.lft.to/lastmile_qr_scan"}}, {"is_disabled": 0, "fusion_lat": 0.0, "lat": 38.88681833333333, "type": "electric_scooter", "lon": -77.00212433333333, "is_reserved": 0, "fusion_lon": 0.0, "bike_id": "856d01dc1659f818809e44e1da225e67", "name": "856d01dc1659f818809e44e1da225e67", "rental_uris": {"ios": "https://dc.lft.to/lastmile_qr_scan", "android": "https://dc.lft.to/lastmile_qr_scan"}}, {"is_disabled": 0, "fusion_lat": 0.0, "lat": 38.90639783333334, "type": "electric_scooter", "lon": -77.01140583333333, "is_reserved": 0, "fusion_lon": 0.0, "bike_id": "97c7beea4016fad31d0935657918e095", "name": "97c7beea4016fad31d0935657918e095", "rental_uris": {"ios": "https://dc.lft.to/lastmile_qr_scan", "android": "https://dc.lft.to/lastmile_qr_scan"}}, {"is_disabled": 0, "fusion_lat": 0.0, "lat": 38.844275333333336, "type": "electric_scooter", "lon": -76.99778316666666, "is_reserved": 0, "fusion_lon": 0.0, "bike_id": "b3b67749387f047ad6f46a8b68a2e51b", "name": "b3b67749387f047ad6f46a8b68a2e51b", "rental_uris": {"ios": "https://dc.lft.to/lastmile_qr_scan", "android": "https://dc.lft.to/lastmile_qr_scan"}}, {"is_disabled": 0, "fusion_lat": 0.0, "lat": 38.8922155, "type": "electric_scooter", "lon": -77.04863266666666, "is_reserved": 0, "fusion_lon": 0.0, "bike_id": "63aeb67433852068850d72e822e86f65", "name": "63aeb67433852068850d72e822e86f65", "rental_uris": {"ios": "https://dc.lft.to/lastmile_qr_scan", "android": "https://dc.lft.to/lastmile_qr_scan"}}, {"is_disabled": 0, "fusion_lat": 0.0, "lat": 38.911157833333334, "type": "electric_scooter", "lon": -77.038413, "is_reserved": 0, "fusion_lon": 0.0, "bike_id": "4c4c7ceee5ee2806a1c2509abc57e0df", "name": "4c4c7ceee5ee2806a1c2509abc57e0df", "rental_uris": {"ios": "https://dc.lft.to/lastmile_qr_scan", "android": "https://dc.lft.to/lastmile_qr_scan"}}, {"is_disabled": 0, "fusion_lat": 0.0, "lat": 38.866179833333334, "type": "electric_scooter", "lon": -76.986521, "is_reserved": 0, "fusion_lon": 0.0, "bike_id": "20c8e47057e5a2ca535006e26ef07d20", "name": "20c8e47057e5a2ca535006e26ef07d20", "rental_uris": {"ios": "https://dc.lft.to/lastmile_qr_scan", "android": "https://dc.lft.to/lastmile_qr_scan"}}, {"is_disabled": 0, "fusion_lat": 0.0, "lat": 38.915628, "type": "electric_scooter", "lon": -77.032081, "is_reserved": 0, "fusion_lon": 0.0, "bike_id": "035957fb29e68d880537264419298adc", "name": "035957fb29e68d880537264419298adc", "rental_uris": {"ios": "https://dc.lft.to/lastmile_qr_scan", "android": "https://dc.lft.to/lastmile_qr_scan"}}, {"is_disabled": 0, "fusion_lat": 0.0, "lat": 38.802194, "type": "electric_bike", "lon": -77.07914216666667, "is_reserved": 0, "fusion_lon": 0.0, "bike_id": "f36245da0b6c69e549eb92fc20f2c587", "name": "f36245da0b6c69e549eb92fc20f2c587", "rental_uris": {"ios": "https://dc.lft.to/lastmile_qr_scan", "android": "https://dc.lft.to/lastmile_qr_scan"}}, {"is_disabled": 0, "fusion_lat": 0.0, "lat": 38.862524666666665, "type": "electric_scooter", "lon": -76.98695633333334, "is_reserved": 0, "fusion_lon": 0.0, "bike_id": "ff5b5a6fab96429bce76107cda1deb37", "name": "ff5b5a6fab96429bce76107cda1deb37", "rental_uris": {"ios": "https://dc.lft.to/lastmile_qr_scan", "android": "https://dc.lft.to/lastmile_qr_scan"}}, {"is_disabled": 0, "fusion_lat": 0.0, "lat": 38.909688333333335, "type": "electric_scooter", "lon": -77.03868033333333, "is_reserved": 0, "fusion_lon": 0.0, "bike_id": "b128cc505ea03bdfdaf40f7b00a445da", "name": "b128cc505ea03bdfdaf40f7b00a445da", "rental_uris": {"ios": "https://dc.lft.to/lastmile_qr_scan", "android": "https://dc.lft.to/lastmile_qr_scan"}}, {"is_disabled": 0, "fusion_lat": 0.0, "lat": 38.901992, "type": "electric_scooter", "lon": -77.02371833333333, "is_reserved": 0, "fusion_lon": 0.0, "bike_id": "e9438e6487b995560cce4f1532c1a926", "name": "e9438e6487b995560cce4f1532c1a926", "rental_uris": {"ios": "https://dc.lft.to/lastmile_qr_scan", "android": "https://dc.lft.to/lastmile_qr_scan"}}, {"is_disabled": 0, "fusion_lat": 0.0, "lat": 38.9063935, "type": "electric_scooter", "lon": -77.0467025, "is_reserved": 0, "fusion_lon": 0.0, "bike_id": "92fb2da099706a5a81c11a48d1cbbd8a", "name": "92fb2da099706a5a81c11a48d1cbbd8a", "rental_uris": {"ios": "https://dc.lft.to/lastmile_qr_scan", "android": "https://dc.lft.to/lastmile_qr_scan"}}, {"is_disabled": 0, "fusion_lat": 0.0, "lat": 38.90694716666667, "type": "electric_scooter", "lon": -77.06336183333333, "is_reserved": 0, "fusion_lon": 0.0, "bike_id": "f05aace3ef7f7f002e6386281833b192", "name": "f05aace3ef7f7f002e6386281833b192", "rental_uris": {"ios": "https://dc.lft.to/lastmile_qr_scan", "android": "https://dc.lft.to/lastmile_qr_scan"}}, {"is_disabled": 0, "fusion_lat": 0.0, "lat": 38.889866, "type": "electric_scooter", "lon": -76.99507266666667, "is_reserved": 0, "fusion_lon": 0.0, "bike_id": "bdb9fa1f356410c3301c576527521be3", "name": "bdb9fa1f356410c3301c576527521be3", "rental_uris": {"ios": "https://dc.lft.to/lastmile_qr_scan", "android": "https://dc.lft.to/lastmile_qr_scan"}}, {"is_disabled": 0, "fusion_lat": 0.0, "lat": 38.844256666666666, "type": "electric_scooter", "lon": -76.9977835, "is_reserved": 0, "fusion_lon": 0.0, "bike_id": "b4a8eeca9e927ec9a424c3179be81e9f", "name": "b4a8eeca9e927ec9a424c3179be81e9f", "rental_uris": {"ios": "https://dc.lft.to/lastmile_qr_scan", "android": "https://dc.lft.to/lastmile_qr_scan"}}, {"is_disabled": 0, "fusion_lat": 0.0, "lat": 38.915478666666665, "type": "electric_scooter", "lon": -77.04156766666667, "is_reserved": 0, "fusion_lon": 0.0, "bike_id": "16ac33a850ac78d5782003afa03bde39", "name": "16ac33a850ac78d5782003afa03bde39", "rental_uris": {"ios": "https://dc.lft.to/lastmile_qr_scan", "android": "https://dc.lft.to/lastmile_qr_scan"}}, {"is_disabled": 0, "fusion_lat": 0.0, "lat": 38.90680316666667, "type": "electric_bike", "lon": -76.95184933333333, "is_reserved": 0, "fusion_lon": 0.0, "bike_id": "77fe2c5f2da04b1879372b94a9f074bf", "name": "77fe2c5f2da04b1879372b94a9f074bf", "rental_uris": {"ios": "https://dc.lft.to/lastmile_qr_scan", "android": "https://dc.lft.to/lastmile_qr_scan"}}, {"is_disabled": 0, "fusion_lat": 0.0, "lat": 38.90766583333333, "type": "electric_scooter", "lon": -77.02064683333333, "is_reserved": 0, "fusion_lon": 0.0, "bike_id": "f58bd731935c7778360df6755f60be3d", "name": "f58bd731935c7778360df6755f60be3d", "rental_uris": {"ios": "https://dc.lft.to/lastmile_qr_scan", "android": "https://dc.lft.to/lastmile_qr_scan"}}, {"is_disabled": 0, "fusion_lat": 0.0, "lat": 38.88264366666667, "type": "electric_scooter", "lon": -76.99542366666667, "is_reserved": 0, "fusion_lon": 0.0, "bike_id": "d34674ee3aeac944383a72730e9dbef0", "name": "d34674ee3aeac944383a72730e9dbef0", "rental_uris": {"ios": "https://dc.lft.to/lastmile_qr_scan", "android": "https://dc.lft.to/lastmile_qr_scan"}}, {"is_disabled": 0, "fusion_lat": 0.0, "lat": 38.930635333333335, "type": "electric_scooter", "lon": -77.0312635, "is_reserved": 0, "fusion_lon": 0.0, "bike_id": "db650b80aa7d52dd744d88755c3b949d", "name": "db650b80aa7d52dd744d88755c3b949d", "rental_uris": {"ios": "https://dc.lft.to/lastmile_qr_scan", "android": "https://dc.lft.to/lastmile_qr_scan"}}, {"is_disabled": 0, "fusion_lat": 0.0, "lat": 38.88861416666667, "type": "electric_bike", "lon": -76.99468166666666, "is_reserved": 0, "fusion_lon": 0.0, "bike_id": "daae103b7bd48afc705c4d732508afc4", "name": "daae103b7bd48afc705c4d732508afc4", "rental_uris": {"ios": "https://dc.lft.to/lastmile_qr_scan", "android": "https://dc.lft.to/lastmile_qr_scan"}}, {"is_disabled": 0, "fusion_lat": 0.0, "lat": 38.89363, "type": "electric_scooter", "lon": -77.047857, "is_reserved": 0, "fusion_lon": 0.0, "bike_id": "f058ddd313b2e2437fe2c20b47c80ae0", "name": "f058ddd313b2e2437fe2c20b47c80ae0", "rental_uris": {"ios": "https://dc.lft.to/lastmile_qr_scan", "android": "https://dc.lft.to/lastmile_qr_scan"}}, {"is_disabled": 0, "fusion_lat": 0.0, "lat": 38.89841216666667, "type": "electric_scooter", "lon": -77.0334505, "is_reserved": 0, "fusion_lon": 0.0, "bike_id": "7c45844ae168bf2494efdac4eebc73a1", "name": "7c45844ae168bf2494efdac4eebc73a1", "rental_uris": {"ios": "https://dc.lft.to/lastmile_qr_scan", "android": "https://dc.lft.to/lastmile_qr_scan"}}, {"is_disabled": 0, "fusion_lat": 0.0, "lat": 38.949049333333335, "type": "electric_bike", "lon": -76.97241783333334, "is_reserved": 0, "fusion_lon": 0.0, "bike_id": "e479908a36d2d673a332a2416c1f4ffc", "name": "e479908a36d2d673a332a2416c1f4ffc", "rental_uris": {"ios": "https://dc.lft.to/lastmile_qr_scan", "android": "https://dc.lft.to/lastmile_qr_scan"}}, {"is_disabled": 0, "fusion_lat": 0.0, "lat": 38.942332666666665, "type": "electric_scooter", "lon": -77.07227516666667, "is_reserved": 0, "fusion_lon": 0.0, "bike_id": "33e7024065ba4bedf410eb4af2c904af", "name": "33e7024065ba4bedf410eb4af2c904af", "rental_uris": {"ios": "https://dc.lft.to/lastmile_qr_scan", "android": "https://dc.lft.to/lastmile_qr_scan"}}, {"is_disabled": 0, "fusion_lat": 0.0, "lat": 38.904058, "type": "electric_scooter", "lon": -77.053329, "is_reserved": 0, "fusion_lon": 0.0, "bike_id": "1577f91fb6c4cd2950ed5037494b2112", "name": "1577f91fb6c4cd2950ed5037494b2112", "rental_uris": {"ios": "https://dc.lft.to/lastmile_qr_scan", "android": "https://dc.lft.to/lastmile_qr_scan"}}, {"is_disabled": 0, "fusion_lat": 0.0, "lat": 38.919806333333334, "type": "electric_scooter", "lon": -76.97315733333333, "is_reserved": 0, "fusion_lon": 0.0, "bike_id": "e263f769507148222fa4ab01fa6158a5", "name": "e263f769507148222fa4ab01fa6158a5", "rental_uris": {"ios": "https://dc.lft.to/lastmile_qr_scan", "android": "https://dc.lft.to/lastmile_qr_scan"}}, {"is_disabled": 0, "fusion_lat": 0.0, "lat": 38.960219, "type": "electric_bike", "lon": -77.01726166666667, "is_reserved": 0, "fusion_lon": 0.0, "bike_id": "87c6472c30b246831407c9debe211994", "name": "87c6472c30b246831407c9debe211994", "rental_uris": {"ios": "https://dc.lft.to/lastmile_qr_scan", "android": "https://dc.lft.to/lastmile_qr_scan"}}, {"is_disabled": 0, "fusion_lat": 0.0, "lat": 38.93604783333333, "type": "electric_scooter", "lon": -77.037569, "is_reserved": 0, "fusion_lon": 0.0, "bike_id": "cc2c70a4096837edeef08d3114513c08", "name": "cc2c70a4096837edeef08d3114513c08", "rental_uris": {"ios": "https://dc.lft.to/lastmile_qr_scan", "android": "https://dc.lft.to/lastmile_qr_scan"}}, {"is_disabled": 0, "fusion_lat": 0.0, "lat": 39.029326833333336, "type": "electric_bike", "lon": -77.04928, "is_reserved": 0, "fusion_lon": 0.0, "bike_id": "03ece78c64edb095fa6e9889e7029c5a", "name": "03ece78c64edb095fa6e9889e7029c5a", "rental_uris": {"ios": "https://dc.lft.to/lastmile_qr_scan", "android": "https://dc.lft.to/lastmile_qr_scan"}}, {"is_disabled": 0, "fusion_lat": 0.0, "lat": 38.9352015, "type": "electric_scooter", "lon": -77.02364433333334, "is_reserved": 0, "fusion_lon": 0.0, "bike_id": "644905db72571cda2dca9be7cb9ecc2e", "name": "644905db72571cda2dca9be7cb9ecc2e", "rental_uris": {"ios": "https://dc.lft.to/lastmile_qr_scan", "android": "https://dc.lft.to/lastmile_qr_scan"}}, {"is_disabled": 0, "fusion_lat": 0.0, "lat": 38.908545333333336, "type": "electric_bike", "lon": -77.0807935, "is_reserved": 0, "fusion_lon": 0.0, "bike_id": "4364adc2c789a32e838cbfefa70f8fcf", "name": "4364adc2c789a32e838cbfefa70f8fcf", "rental_uris": {"ios": "https://dc.lft.to/lastmile_qr_scan", "android": "https://dc.lft.to/lastmile_qr_scan"}}, {"is_disabled": 0, "fusion_lat": 0.0, "lat": 38.911034666666666, "type": "electric_scooter", "lon": -77.04201433333333, "is_reserved": 0, "fusion_lon": 0.0, "bike_id": "fcb949343c1053f1bbf0cf530431e969", "name": "fcb949343c1053f1bbf0cf530431e969", "rental_uris": {"ios": "https://dc.lft.to/lastmile_qr_scan", "android": "https://dc.lft.to/lastmile_qr_scan"}}, {"is_disabled": 0, "fusion_lat": 0.0, "lat": 38.956415166666666, "type": "electric_scooter", "lon": -76.9979845, "is_reserved": 0, "fusion_lon": 0.0, "bike_id": "9d0a4dcbbd82fa55fdf8ded4688ccedb", "name": "9d0a4dcbbd82fa55fdf8ded4688ccedb", "rental_uris": {"ios": "https://dc.lft.to/lastmile_qr_scan", "android": "https://dc.lft.to/lastmile_qr_scan"}}, {"is_disabled": 0, "fusion_lat": 0.0, "lat": 38.8823125, "type": "electric_scooter", "lon": -76.9908365, "is_reserved": 0, "fusion_lon": 0.0, "bike_id": "453621bd2c65ee6b82e377c4dad11056", "name": "453621bd2c65ee6b82e377c4dad11056", "rental_uris": {"ios": "https://dc.lft.to/lastmile_qr_scan", "android": "https://dc.lft.to/lastmile_qr_scan"}}, {"is_disabled": 0, "fusion_lat": 0.0, "lat": 38.88604633333333, "type": "electric_scooter", "lon": -77.019502, "is_reserved": 0, "fusion_lon": 0.0, "bike_id": "f4e49982eb09484c9bc81438e8bc0f76", "name": "f4e49982eb09484c9bc81438e8bc0f76", "rental_uris": {"ios": "https://dc.lft.to/lastmile_qr_scan", "android": "https://dc.lft.to/lastmile_qr_scan"}}, {"is_disabled": 0, "fusion_lat": 0.0, "lat": 38.87966466666666, "type": "electric_scooter", "lon": -76.98548233333334, "is_reserved": 0, "fusion_lon": 0.0, "bike_id": "677b0b1bd247735c52947a0d95e94d35", "name": "677b0b1bd247735c52947a0d95e94d35", "rental_uris": {"ios": "https://dc.lft.to/lastmile_qr_scan", "android": "https://dc.lft.to/lastmile_qr_scan"}}, {"is_disabled": 0, "fusion_lat": 0.0, "lat": 38.991456, "type": "electric_scooter", "lon": -77.047366, "is_reserved": 0, "fusion_lon": 0.0, "bike_id": "2d5116d714a89dc15bb2639aa713ec0c", "name": "2d5116d714a89dc15bb2639aa713ec0c", "rental_uris": {"ios": "https://dc.lft.to/lastmile_qr_scan", "android": "https://dc.lft.to/lastmile_qr_scan"}}, {"is_disabled": 0, "fusion_lat": 0.0, "lat": 38.887371, "type": "electric_scooter", "lon": -77.02022833333334, "is_reserved": 0, "fusion_lon": 0.0, "bike_id": "269c2cb001621a7dd8f469aa5f2b1552", "name": "269c2cb001621a7dd8f469aa5f2b1552", "rental_uris": {"ios": "https://dc.lft.to/lastmile_qr_scan", "android": "https://dc.lft.to/lastmile_qr_scan"}}, {"is_disabled": 0, "fusion_lat": 0.0, "lat": 38.91101966666667, "type": "electric_scooter", "lon": -77.0482505, "is_reserved": 0, "fusion_lon": 0.0, "bike_id": "09e493e3cdb4fbb4e6139343a373f65a", "name": "09e493e3cdb4fbb4e6139343a373f65a", "rental_uris": {"ios": "https://dc.lft.to/lastmile_qr_scan", "android": "https://dc.lft.to/lastmile_qr_scan"}}, {"is_disabled": 0, "fusion_lat": 0.0, "lat": 38.92949766666667, "type": "electric_bike", "lon": -77.04398766666667, "is_reserved": 0, "fusion_lon": 0.0, "bike_id": "63c0f65c71984323f4e80ee83918971f", "name": "63c0f65c71984323f4e80ee83918971f", "rental_uris": {"ios": "https://dc.lft.to/lastmile_qr_scan", "android": "https://dc.lft.to/lastmile_qr_scan"}}, {"is_disabled": 0, "fusion_lat": 0.0, "lat": 38.92213066666667, "type": "electric_scooter", "lon": -77.03291316666666, "is_reserved": 0, "fusion_lon": 0.0, "bike_id": "47245212a7660cf592ee18281d6382f0", "name": "47245212a7660cf592ee18281d6382f0", "rental_uris": {"ios": "https://dc.lft.to/lastmile_qr_scan", "android": "https://dc.lft.to/lastmile_qr_scan"}}, {"is_disabled": 0, "fusion_lat": 0.0, "lat": 39.08856983333333, "type": "electric_bike", "lon": -77.178456, "is_reserved": 0, "fusion_lon": 0.0, "bike_id": "d203353f6c5e11e1fd66dbb1d02be592", "name": "d203353f6c5e11e1fd66dbb1d02be592", "rental_uris": {"ios": "https://dc.lft.to/lastmile_qr_scan", "android": "https://dc.lft.to/lastmile_qr_scan"}}, {"is_disabled": 0, "fusion_lat": 0.0, "lat": 38.901559, "type": "electric_scooter", "lon": -76.976312, "is_reserved": 0, "fusion_lon": 0.0, "bike_id": "f901da782274012967bf5e59e4484320", "name": "f901da782274012967bf5e59e4484320", "rental_uris": {"ios": "https://dc.lft.to/lastmile_qr_scan", "android": "https://dc.lft.to/lastmile_qr_scan"}}, {"is_disabled": 0, "fusion_lat": 0.0, "lat": 38.91924133333333, "type": "electric_scooter", "lon": -77.0318105, "is_reserved": 0, "fusion_lon": 0.0, "bike_id": "2968c74cccc44f8156af86e43b6749ea", "name": "2968c74cccc44f8156af86e43b6749ea", "rental_uris": {"ios": "https://dc.lft.to/lastmile_qr_scan", "android": "https://dc.lft.to/lastmile_qr_scan"}}, {"is_disabled": 0, "fusion_lat": 0.0, "lat": 38.929465, "type": "electric_bike", "lon": -77.03770266666666, "is_reserved": 0, "fusion_lon": 0.0, "bike_id": "abb7b61827de86a7f35d9a618922fdc4", "name": "abb7b61827de86a7f35d9a618922fdc4", "rental_uris": {"ios": "https://dc.lft.to/lastmile_qr_scan", "android": "https://dc.lft.to/lastmile_qr_scan"}}, {"is_disabled": 0, "fusion_lat": 0.0, "lat": 38.9405285, "type": "electric_bike", "lon": -76.953828, "is_reserved": 0, "fusion_lon": 0.0, "bike_id": "11ffefaf1bb803da03e68ecf6d1efb99", "name": "11ffefaf1bb803da03e68ecf6d1efb99", "rental_uris": {"ios": "https://dc.lft.to/lastmile_qr_scan", "android": "https://dc.lft.to/lastmile_qr_scan"}}, {"is_disabled": 0, "fusion_lat": 0.0, "lat": 38.8872095, "type": "electric_scooter", "lon": -77.03221466666666, "is_reserved": 0, "fusion_lon": 0.0, "bike_id": "3812dcf7b79961788502a0134f4cac55", "name": "3812dcf7b79961788502a0134f4cac55", "rental_uris": {"ios": "https://dc.lft.to/lastmile_qr_scan", "android": "https://dc.lft.to/lastmile_qr_scan"}}, {"is_disabled": 0, "fusion_lat": 0.0, "lat": 38.8980675, "type": "electric_bike", "lon": -76.99068133333333, "is_reserved": 0, "fusion_lon": 0.0, "bike_id": "5cb3848328ed51cbfa9fc26822d95900", "name": "5cb3848328ed51cbfa9fc26822d95900", "rental_uris": {"ios": "https://dc.lft.to/lastmile_qr_scan", "android": "https://dc.lft.to/lastmile_qr_scan"}}, {"is_disabled": 0, "fusion_lat": 0.0, "lat": 38.983604666666665, "type": "electric_scooter", "lon": -77.02646033333333, "is_reserved": 0, "fusion_lon": 0.0, "bike_id": "c6ab8264f4be79ea8e34dfbbbe937c63", "name": "c6ab8264f4be79ea8e34dfbbbe937c63", "rental_uris": {"ios": "https://dc.lft.to/lastmile_qr_scan", "android": "https://dc.lft.to/lastmile_qr_scan"}}, {"is_disabled": 0, "fusion_lat": 0.0, "lat": 38.92841766666667, "type": "electric_bike", "lon": -77.02054783333334, "is_reserved": 0, "fusion_lon": 0.0, "bike_id": "e4f9da1754e35654849b0b958dfc4b7b", "name": "e4f9da1754e35654849b0b958dfc4b7b", "rental_uris": {"ios": "https://dc.lft.to/lastmile_qr_scan", "android": "https://dc.lft.to/lastmile_qr_scan"}}, {"is_disabled": 0, "fusion_lat": 0.0, "lat": 38.88403733333333, "type": "electric_scooter", "lon": -77.030418, "is_reserved": 0, "fusion_lon": 0.0, "bike_id": "a4cc763f76a7d5c0e4d099c35299d779", "name": "a4cc763f76a7d5c0e4d099c35299d779", "rental_uris": {"ios": "https://dc.lft.to/lastmile_qr_scan", "android": "https://dc.lft.to/lastmile_qr_scan"}}, {"is_disabled": 0, "fusion_lat": 0.0, "lat": 38.92851866666667, "type": "electric_bike", "lon": -77.222218, "is_reserved": 0, "fusion_lon": 0.0, "bike_id": "d1f0cc9554ee86699ac40ec9bd706da6", "name": "d1f0cc9554ee86699ac40ec9bd706da6", "rental_uris": {"ios": "https://dc.lft.to/lastmile_qr_scan", "android": "https://dc.lft.to/lastmile_qr_scan"}}, {"is_disabled": 0, "fusion_lat": 0.0, "lat": 38.899555666666664, "type": "electric_bike", "lon": -77.05501033333333, "is_reserved": 0, "fusion_lon": 0.0, "bike_id": "5b1841ab1eaef8e09c0af994fbd75968", "name": "5b1841ab1eaef8e09c0af994fbd75968", "rental_uris": {"ios": "https://dc.lft.to/lastmile_qr_scan", "android": "https://dc.lft.to/lastmile_qr_scan"}}, {"is_disabled": 0, "fusion_lat": 0.0, "lat": 38.92310533333333, "type": "electric_scooter", "lon": -77.04518033333333, "is_reserved": 0, "fusion_lon": 0.0, "bike_id": "8d4dcd3a25ec015f4f0d5edca59670f9", "name": "8d4dcd3a25ec015f4f0d5edca59670f9", "rental_uris": {"ios": "https://dc.lft.to/lastmile_qr_scan", "android": "https://dc.lft.to/lastmile_qr_scan"}}, {"is_disabled": 0, "fusion_lat": 0.0, "lat": 38.9050115, "type": "electric_scooter", "lon": -77.04349233333333, "is_reserved": 0, "fusion_lon": 0.0, "bike_id": "6732f6dddfa80676b4748b747de96d7c", "name": "6732f6dddfa80676b4748b747de96d7c", "rental_uris": {"ios": "https://dc.lft.to/lastmile_qr_scan", "android": "https://dc.lft.to/lastmile_qr_scan"}}, {"is_disabled": 0, "fusion_lat": 0.0, "lat": 38.915467166666666, "type": "electric_scooter", "lon": -77.0384115, "is_reserved": 0, "fusion_lon": 0.0, "bike_id": "ac8858eb73c85c8838b92511ee3c72a3", "name": "ac8858eb73c85c8838b92511ee3c72a3", "rental_uris": {"ios": "https://dc.lft.to/lastmile_qr_scan", "android": "https://dc.lft.to/lastmile_qr_scan"}}, {"is_disabled": 0, "fusion_lat": 0.0, "lat": 38.8555465, "type": "electric_scooter", "lon": -76.99498616666666, "is_reserved": 0, "fusion_lon": 0.0, "bike_id": "1449f576fc3268b94ef089f7f112e262", "name": "1449f576fc3268b94ef089f7f112e262", "rental_uris": {"ios": "https://dc.lft.to/lastmile_qr_scan", "android": "https://dc.lft.to/lastmile_qr_scan"}}, {"is_disabled": 0, "fusion_lat": 0.0, "lat": 38.927231, "type": "electric_scooter", "lon": -77.036611, "is_reserved": 0, "fusion_lon": 0.0, "bike_id": "7d17cfbdd542d21fbfe4aafbc1cd4063", "name": "7d17cfbdd542d21fbfe4aafbc1cd4063", "rental_uris": {"ios": "https://dc.lft.to/lastmile_qr_scan", "android": "https://dc.lft.to/lastmile_qr_scan"}}, {"is_disabled": 0, "fusion_lat": 0.0, "lat": 38.92008166666667, "type": "electric_scooter", "lon": -77.021839, "is_reserved": 0, "fusion_lon": 0.0, "bike_id": "7d2b893f3642ae8c00ce9f3dc98d2239", "name": "7d2b893f3642ae8c00ce9f3dc98d2239", "rental_uris": {"ios": "https://dc.lft.to/lastmile_qr_scan", "android": "https://dc.lft.to/lastmile_qr_scan"}}, {"is_disabled": 0, "fusion_lat": 0.0, "lat": 38.90585933333333, "type": "electric_scooter", "lon": -77.00590283333334, "is_reserved": 0, "fusion_lon": 0.0, "bike_id": "bc4056921001f47c9e206ba82b8b85f7", "name": "bc4056921001f47c9e206ba82b8b85f7", "rental_uris": {"ios": "https://dc.lft.to/lastmile_qr_scan", "android": "https://dc.lft.to/lastmile_qr_scan"}}, {"is_disabled": 0, "fusion_lat": 0.0, "lat": 38.93142433333333, "type": "electric_scooter", "lon": -77.02989016666666, "is_reserved": 0, "fusion_lon": 0.0, "bike_id": "96f1ea7003f63d86bf0dd1b7a306f8b6", "name": "96f1ea7003f63d86bf0dd1b7a306f8b6", "rental_uris": {"ios": "https://dc.lft.to/lastmile_qr_scan", "android": "https://dc.lft.to/lastmile_qr_scan"}}, {"is_disabled": 0, "fusion_lat": 0.0, "lat": 38.9025765, "type": "electric_scooter", "lon": -77.040126, "is_reserved": 0, "fusion_lon": 0.0, "bike_id": "b60d467ca64af66b6783d65312ccc1ac", "name": "b60d467ca64af66b6783d65312ccc1ac", "rental_uris": {"ios": "https://dc.lft.to/lastmile_qr_scan", "android": "https://dc.lft.to/lastmile_qr_scan"}}, {"is_disabled": 0, "fusion_lat": 0.0, "lat": 38.915533, "type": "electric_scooter", "lon": -77.02154, "is_reserved": 0, "fusion_lon": 0.0, "bike_id": "779afd3f968e374fe20ee75356ab76a2", "name": "779afd3f968e374fe20ee75356ab76a2", "rental_uris": {"ios": "https://dc.lft.to/lastmile_qr_scan", "android": "https://dc.lft.to/lastmile_qr_scan"}}, {"is_disabled": 0, "fusion_lat": 0.0, "lat": 38.9174195, "type": "electric_scooter", "lon": -77.0345775, "is_reserved": 0, "fusion_lon": 0.0, "bike_id": "95d89c047cf23691b5f54f0c68593062", "name": "95d89c047cf23691b5f54f0c68593062", "rental_uris": {"ios": "https://dc.lft.to/lastmile_qr_scan", "android": "https://dc.lft.to/lastmile_qr_scan"}}, {"is_disabled": 0, "fusion_lat": 0.0, "lat": 38.8750335, "type": "electric_bike", "lon": -77.02592616666666, "is_reserved": 0, "fusion_lon": 0.0, "bike_id": "bab9810e0266d0b6291222255182645e", "name": "bab9810e0266d0b6291222255182645e", "rental_uris": {"ios": "https://dc.lft.to/lastmile_qr_scan", "android": "https://dc.lft.to/lastmile_qr_scan"}}, {"is_disabled": 0, "fusion_lat": 0.0, "lat": 38.9196745, "type": "electric_scooter", "lon": -77.04318833333333, "is_reserved": 0, "fusion_lon": 0.0, "bike_id": "baa677d38bc3d56274efa099e8401d72", "name": "baa677d38bc3d56274efa099e8401d72", "rental_uris": {"ios": "https://dc.lft.to/lastmile_qr_scan", "android": "https://dc.lft.to/lastmile_qr_scan"}}, {"is_disabled": 0, "fusion_lat": 0.0, "lat": 38.907261, "type": "electric_scooter", "lon": -77.01073833333334, "is_reserved": 0, "fusion_lon": 0.0, "bike_id": "9dc66aa48bbbcce4266869a4ed8840bd", "name": "9dc66aa48bbbcce4266869a4ed8840bd", "rental_uris": {"ios": "https://dc.lft.to/lastmile_qr_scan", "android": "https://dc.lft.to/lastmile_qr_scan"}}, {"is_disabled": 0, "fusion_lat": 0.0, "lat": 38.90566, "type": "electric_scooter", "lon": -77.04867216666666, "is_reserved": 0, "fusion_lon": 0.0, "bike_id": "020e6d8175dd4462a92c2a64e406d6e7", "name": "020e6d8175dd4462a92c2a64e406d6e7", "rental_uris": {"ios": "https://dc.lft.to/lastmile_qr_scan", "android": "https://dc.lft.to/lastmile_qr_scan"}}, {"is_disabled": 0, "fusion_lat": 0.0, "lat": 38.9110405, "type": "electric_scooter", "lon": -77.03753533333334, "is_reserved": 0, "fusion_lon": 0.0, "bike_id": "000d12ac4c462a6826c1c8e13c771ec5", "name": "000d12ac4c462a6826c1c8e13c771ec5", "rental_uris": {"ios": "https://dc.lft.to/lastmile_qr_scan", "android": "https://dc.lft.to/lastmile_qr_scan"}}, {"is_disabled": 0, "fusion_lat": 0.0, "lat": 38.881231, "type": "electric_scooter", "lon": -77.0267365, "is_reserved": 0, "fusion_lon": 0.0, "bike_id": "8e2185aeb8aabea6f07c3d85a3a1a679", "name": "8e2185aeb8aabea6f07c3d85a3a1a679", "rental_uris": {"ios": "https://dc.lft.to/lastmile_qr_scan", "android": "https://dc.lft.to/lastmile_qr_scan"}}, {"is_disabled": 0, "fusion_lat": 0.0, "lat": 39.015922833333335, "type": "electric_bike", "lon": -77.04428766666666, "is_reserved": 0, "fusion_lon": 0.0, "bike_id": "5fae3341067c471cfb5baa8f1b4b91e0", "name": "5fae3341067c471cfb5baa8f1b4b91e0", "rental_uris": {"ios": "https://dc.lft.to/lastmile_qr_scan", "android": "https://dc.lft.to/lastmile_qr_scan"}}, {"is_disabled": 0, "fusion_lat": 0.0, "lat": 38.89121333333333, "type": "electric_scooter", "lon": -76.940877, "is_reserved": 0, "fusion_lon": 0.0, "bike_id": "ff4811b1c76a1891465990461ab1f5bf", "name": "ff4811b1c76a1891465990461ab1f5bf", "rental_uris": {"ios": "https://dc.lft.to/lastmile_qr_scan", "android": "https://dc.lft.to/lastmile_qr_scan"}}, {"is_disabled": 0, "fusion_lat": 0.0, "lat": 38.92057666666667, "type": "electric_scooter", "lon": -77.034655, "is_reserved": 0, "fusion_lon": 0.0, "bike_id": "a4d2a3af9e2e922bf5caf8137ee530be", "name": "a4d2a3af9e2e922bf5caf8137ee530be", "rental_uris": {"ios": "https://dc.lft.to/lastmile_qr_scan", "android": "https://dc.lft.to/lastmile_qr_scan"}}, {"is_disabled": 0, "fusion_lat": 0.0, "lat": 38.90832983333333, "type": "electric_scooter", "lon": -77.08511783333333, "is_reserved": 0, "fusion_lon": 0.0, "bike_id": "a00faa6d5ed5db506c9be58679a8071a", "name": "a00faa6d5ed5db506c9be58679a8071a", "rental_uris": {"ios": "https://dc.lft.to/lastmile_qr_scan", "android": "https://dc.lft.to/lastmile_qr_scan"}}, {"is_disabled": 0, "fusion_lat": 0.0, "lat": 38.91033133333333, "type": "electric_scooter", "lon": -77.02184283333334, "is_reserved": 0, "fusion_lon": 0.0, "bike_id": "0c6e078f0e5c235fee17a9a0badd309d", "name": "0c6e078f0e5c235fee17a9a0badd309d", "rental_uris": {"ios": "https://dc.lft.to/lastmile_qr_scan", "android": "https://dc.lft.to/lastmile_qr_scan"}}, {"is_disabled": 0, "fusion_lat": 0.0, "lat": 38.871854166666665, "type": "electric_bike", "lon": -77.084075, "is_reserved": 0, "fusion_lon": 0.0, "bike_id": "fee0f039181e078fbda4ee8ae9bf8d0d", "name": "fee0f039181e078fbda4ee8ae9bf8d0d", "rental_uris": {"ios": "https://dc.lft.to/lastmile_qr_scan", "android": "https://dc.lft.to/lastmile_qr_scan"}}, {"is_disabled": 0, "fusion_lat": 0.0, "lat": 38.93238983333333, "type": "electric_scooter", "lon": -77.03289, "is_reserved": 0, "fusion_lon": 0.0, "bike_id": "8e3bc1d54d5d329771c797280fc204e5", "name": "8e3bc1d54d5d329771c797280fc204e5", "rental_uris": {"ios": "https://dc.lft.to/lastmile_qr_scan", "android": "https://dc.lft.to/lastmile_qr_scan"}}, {"is_disabled": 0, "fusion_lat": 0.0, "lat": 38.92844066666667, "type": "electric_scooter", "lon": -77.05441083333334, "is_reserved": 0, "fusion_lon": 0.0, "bike_id": "eed4971d60febe8a091efcca33ef652e", "name": "eed4971d60febe8a091efcca33ef652e", "rental_uris": {"ios": "https://dc.lft.to/lastmile_qr_scan", "android": "https://dc.lft.to/lastmile_qr_scan"}}, {"is_disabled": 0, "fusion_lat": 0.0, "lat": 38.9328765, "type": "electric_scooter", "lon": -77.0397545, "is_reserved": 0, "fusion_lon": 0.0, "bike_id": "166251d99434c7e87a75516a5fffd910", "name": "166251d99434c7e87a75516a5fffd910", "rental_uris": {"ios": "https://dc.lft.to/lastmile_qr_scan", "android": "https://dc.lft.to/lastmile_qr_scan"}}, {"is_disabled": 0, "fusion_lat": 0.0, "lat": 38.909664666666664, "type": "electric_scooter", "lon": -77.04049283333333, "is_reserved": 0, "fusion_lon": 0.0, "bike_id": "21727b4a1567cc0439de64107561534d", "name": "21727b4a1567cc0439de64107561534d", "rental_uris": {"ios": "https://dc.lft.to/lastmile_qr_scan", "android": "https://dc.lft.to/lastmile_qr_scan"}}, {"is_disabled": 0, "fusion_lat": 0.0, "lat": 38.898363833333335, "type": "electric_scooter", "lon": -77.033106, "is_reserved": 0, "fusion_lon": 0.0, "bike_id": "f20588b811ddd7848f42a1b223731f1d", "name": "f20588b811ddd7848f42a1b223731f1d", "rental_uris": {"ios": "https://dc.lft.to/lastmile_qr_scan", "android": "https://dc.lft.to/lastmile_qr_scan"}}, {"is_disabled": 0, "fusion_lat": 0.0, "lat": 38.9110555, "type": "electric_scooter", "lon": -77.04841016666667, "is_reserved": 0, "fusion_lon": 0.0, "bike_id": "1051becd1cfe9f5b4dcd404dc7f152ac", "name": "1051becd1cfe9f5b4dcd404dc7f152ac", "rental_uris": {"ios": "https://dc.lft.to/lastmile_qr_scan", "android": "https://dc.lft.to/lastmile_qr_scan"}}, {"is_disabled": 0, "fusion_lat": 0.0, "lat": 38.896191, "type": "electric_scooter", "lon": -76.99846766666667, "is_reserved": 0, "fusion_lon": 0.0, "bike_id": "7f8d0cd69a87fd9f1225604e4b22d036", "name": "7f8d0cd69a87fd9f1225604e4b22d036", "rental_uris": {"ios": "https://dc.lft.to/lastmile_qr_scan", "android": "https://dc.lft.to/lastmile_qr_scan"}}, {"is_disabled": 0, "fusion_lat": 0.0, "lat": 38.89493516666667, "type": "electric_scooter", "lon": -77.02284583333334, "is_reserved": 0, "fusion_lon": 0.0, "bike_id": "042a8206d93ba6b10d143424b59bae87", "name": "042a8206d93ba6b10d143424b59bae87", "rental_uris": {"ios": "https://dc.lft.to/lastmile_qr_scan", "android": "https://dc.lft.to/lastmile_qr_scan"}}, {"is_disabled": 0, "fusion_lat": 0.0, "lat": 38.9056835, "type": "electric_scooter", "lon": -77.03079183333334, "is_reserved": 0, "fusion_lon": 0.0, "bike_id": "4165e0cdd5e5049d2992dc98335e1ece", "name": "4165e0cdd5e5049d2992dc98335e1ece", "rental_uris": {"ios": "https://dc.lft.to/lastmile_qr_scan", "android": "https://dc.lft.to/lastmile_qr_scan"}}, {"is_disabled": 0, "fusion_lat": 0.0, "lat": 38.892205, "type": "electric_scooter", "lon": -77.046379, "is_reserved": 0, "fusion_lon": 0.0, "bike_id": "feb01b992bff6da384efbdd34006b4ab", "name": "feb01b992bff6da384efbdd34006b4ab", "rental_uris": {"ios": "https://dc.lft.to/lastmile_qr_scan", "android": "https://dc.lft.to/lastmile_qr_scan"}}, {"is_disabled": 0, "fusion_lat": 0.0, "lat": 38.927110166666665, "type": "electric_scooter", "lon": -77.02084316666667, "is_reserved": 0, "fusion_lon": 0.0, "bike_id": "b6365783de95a6b6053e3cbe7f657111", "name": "b6365783de95a6b6053e3cbe7f657111", "rental_uris": {"ios": "https://dc.lft.to/lastmile_qr_scan", "android": "https://dc.lft.to/lastmile_qr_scan"}}, {"is_disabled": 0, "fusion_lat": 0.0, "lat": 38.869083, "type": "electric_bike", "lon": -77.13180766666666, "is_reserved": 0, "fusion_lon": 0.0, "bike_id": "f64e8d0802a4989d83c7313d4e7af626", "name": "f64e8d0802a4989d83c7313d4e7af626", "rental_uris": {"ios": "https://dc.lft.to/lastmile_qr_scan", "android": "https://dc.lft.to/lastmile_qr_scan"}}, {"is_disabled": 0, "fusion_lat": 0.0, "lat": 38.819936, "type": "electric_bike", "lon": -76.99805866666667, "is_reserved": 0, "fusion_lon": 0.0, "bike_id": "812c144a66292b4c08b8c50a25bf64ec", "name": "812c144a66292b4c08b8c50a25bf64ec", "rental_uris": {"ios": "https://dc.lft.to/lastmile_qr_scan", "android": "https://dc.lft.to/lastmile_qr_scan"}}, {"is_disabled": 0, "fusion_lat": 0.0, "lat": 38.932430333333336, "type": "electric_scooter", "lon": -77.03113033333334, "is_reserved": 0, "fusion_lon": 0.0, "bike_id": "ca7b709a23388a34a8b064eb049ecde0", "name": "ca7b709a23388a34a8b064eb049ecde0", "rental_uris": {"ios": "https://dc.lft.to/lastmile_qr_scan", "android": "https://dc.lft.to/lastmile_qr_scan"}}, {"is_disabled": 0, "fusion_lat": 0.0, "lat": 38.941494666666664, "type": "electric_scooter", "lon": -77.02985083333333, "is_reserved": 0, "fusion_lon": 0.0, "bike_id": "213eb710d4eaab7a92187183b67f9ece", "name": "213eb710d4eaab7a92187183b67f9ece", "rental_uris": {"ios": "https://dc.lft.to/lastmile_qr_scan", "android": "https://dc.lft.to/lastmile_qr_scan"}}, {"is_disabled": 0, "fusion_lat": 0.0, "lat": 38.92766266666667, "type": "electric_scooter", "lon": -77.027047, "is_reserved": 0, "fusion_lon": 0.0, "bike_id": "d5702e2cb5038a6d609551325e90364f", "name": "d5702e2cb5038a6d609551325e90364f", "rental_uris": {"ios": "https://dc.lft.to/lastmile_qr_scan", "android": "https://dc.lft.to/lastmile_qr_scan"}}, {"is_disabled": 0, "fusion_lat": 0.0, "lat": 38.8988095, "type": "electric_scooter", "lon": -77.03313133333333, "is_reserved": 0, "fusion_lon": 0.0, "bike_id": "3d87a85be1ea696b53733e0395fc276c", "name": "3d87a85be1ea696b53733e0395fc276c", "rental_uris": {"ios": "https://dc.lft.to/lastmile_qr_scan", "android": "https://dc.lft.to/lastmile_qr_scan"}}, {"is_disabled": 0, "fusion_lat": 0.0, "lat": 38.8921985, "type": "electric_scooter", "lon": -77.04635966666666, "is_reserved": 0, "fusion_lon": 0.0, "bike_id": "3c793b51bb9d57f1e9b2486a7229d502", "name": "3c793b51bb9d57f1e9b2486a7229d502", "rental_uris": {"ios": "https://dc.lft.to/lastmile_qr_scan", "android": "https://dc.lft.to/lastmile_qr_scan"}}, {"is_disabled": 0, "fusion_lat": 0.0, "lat": 38.8936745, "type": "electric_scooter", "lon": -76.94964266666666, "is_reserved": 0, "fusion_lon": 0.0, "bike_id": "d773d53f60d0c97ae1d3f3eb5c1a623e", "name": "d773d53f60d0c97ae1d3f3eb5c1a623e", "rental_uris": {"ios": "https://dc.lft.to/lastmile_qr_scan", "android": "https://dc.lft.to/lastmile_qr_scan"}}, {"is_disabled": 0, "fusion_lat": 0.0, "lat": 38.92900066666667, "type": "electric_scooter", "lon": -77.03178433333333, "is_reserved": 0, "fusion_lon": 0.0, "bike_id": "932d48981464f3883dfc7ad29163f104", "name": "932d48981464f3883dfc7ad29163f104", "rental_uris": {"ios": "https://dc.lft.to/lastmile_qr_scan", "android": "https://dc.lft.to/lastmile_qr_scan"}}, {"is_disabled": 0, "fusion_lat": 0.0, "lat": 38.935371833333335, "type": "electric_scooter", "lon": -77.0727275, "is_reserved": 0, "fusion_lon": 0.0, "bike_id": "2cc5c8dca64db137c1f703953dc581a5", "name": "2cc5c8dca64db137c1f703953dc581a5", "rental_uris": {"ios": "https://dc.lft.to/lastmile_qr_scan", "android": "https://dc.lft.to/lastmile_qr_scan"}}, {"is_disabled": 0, "fusion_lat": 0.0, "lat": 38.845903666666665, "type": "electric_bike", "lon": -77.0768195, "is_reserved": 0, "fusion_lon": 0.0, "bike_id": "5630b359c904978df4ca0ae9ee6a4bbc", "name": "5630b359c904978df4ca0ae9ee6a4bbc", "rental_uris": {"ios": "https://dc.lft.to/lastmile_qr_scan", "android": "https://dc.lft.to/lastmile_qr_scan"}}, {"is_disabled": 0, "fusion_lat": 0.0, "lat": 38.896102666666664, "type": "electric_scooter", "lon": -77.0450375, "is_reserved": 0, "fusion_lon": 0.0, "bike_id": "bc47d0130e6f3c54307951f68a21dcc7", "name": "bc47d0130e6f3c54307951f68a21dcc7", "rental_uris": {"ios": "https://dc.lft.to/lastmile_qr_scan", "android": "https://dc.lft.to/lastmile_qr_scan"}}, {"is_disabled": 0, "fusion_lat": 0.0, "lat": 38.940378833333334, "type": "electric_scooter", "lon": -77.02903633333334, "is_reserved": 0, "fusion_lon": 0.0, "bike_id": "a954548a2e5599807a70b4d9580bb2a4", "name": "a954548a2e5599807a70b4d9580bb2a4", "rental_uris": {"ios": "https://dc.lft.to/lastmile_qr_scan", "android": "https://dc.lft.to/lastmile_qr_scan"}}, {"is_disabled": 0, "fusion_lat": 0.0, "lat": 38.905699166666665, "type": "electric_scooter", "lon": -77.02211866666667, "is_reserved": 0, "fusion_lon": 0.0, "bike_id": "bc890438f0df094658809c8db3a91733", "name": "bc890438f0df094658809c8db3a91733", "rental_uris": {"ios": "https://dc.lft.to/lastmile_qr_scan", "android": "https://dc.lft.to/lastmile_qr_scan"}}, {"is_disabled": 0, "fusion_lat": 0.0, "lat": 38.8661955, "type": "electric_scooter", "lon": -76.98669916666667, "is_reserved": 0, "fusion_lon": 0.0, "bike_id": "8a577b1cedce5b46a600dd759e3a924c", "name": "8a577b1cedce5b46a600dd759e3a924c", "rental_uris": {"ios": "https://dc.lft.to/lastmile_qr_scan", "android": "https://dc.lft.to/lastmile_qr_scan"}}, {"is_disabled": 0, "fusion_lat": 0.0, "lat": 38.911139166666665, "type": "electric_scooter", "lon": -77.03837866666667, "is_reserved": 0, "fusion_lon": 0.0, "bike_id": "01794221ccedb101810a10a1fe95e77b", "name": "01794221ccedb101810a10a1fe95e77b", "rental_uris": {"ios": "https://dc.lft.to/lastmile_qr_scan", "android": "https://dc.lft.to/lastmile_qr_scan"}}, {"is_disabled": 0, "fusion_lat": 0.0, "lat": 38.916492166666664, "type": "electric_scooter", "lon": -77.03843816666667, "is_reserved": 0, "fusion_lon": 0.0, "bike_id": "c78cf5a5908127cd93a3ad869fc6a707", "name": "c78cf5a5908127cd93a3ad869fc6a707", "rental_uris": {"ios": "https://dc.lft.to/lastmile_qr_scan", "android": "https://dc.lft.to/lastmile_qr_scan"}}, {"is_disabled": 0, "fusion_lat": 0.0, "lat": 38.920868166666665, "type": "electric_scooter", "lon": -77.03179116666666, "is_reserved": 0, "fusion_lon": 0.0, "bike_id": "7f949b598e7fd281f14429cf3c966809", "name": "7f949b598e7fd281f14429cf3c966809", "rental_uris": {"ios": "https://dc.lft.to/lastmile_qr_scan", "android": "https://dc.lft.to/lastmile_qr_scan"}}, {"is_disabled": 0, "fusion_lat": 0.0, "lat": 38.93343383333333, "type": "electric_scooter", "lon": -77.05866066666667, "is_reserved": 0, "fusion_lon": 0.0, "bike_id": "eec963645491dcc76e24f2a7b6cfcaee", "name": "eec963645491dcc76e24f2a7b6cfcaee", "rental_uris": {"ios": "https://dc.lft.to/lastmile_qr_scan", "android": "https://dc.lft.to/lastmile_qr_scan"}}, {"is_disabled": 0, "fusion_lat": 0.0, "lat": 38.912684666666664, "type": "electric_scooter", "lon": -77.038696, "is_reserved": 0, "fusion_lon": 0.0, "bike_id": "88d06b3afe346c093b020a0729fa3722", "name": "88d06b3afe346c093b020a0729fa3722", "rental_uris": {"ios": "https://dc.lft.to/lastmile_qr_scan", "android": "https://dc.lft.to/lastmile_qr_scan"}}, {"is_disabled": 0, "fusion_lat": 0.0, "lat": 38.8991135, "type": "electric_scooter", "lon": -76.93378866666667, "is_reserved": 0, "fusion_lon": 0.0, "bike_id": "f8c0c24216707f5a1cb360fc961e9b98", "name": "f8c0c24216707f5a1cb360fc961e9b98", "rental_uris": {"ios": "https://dc.lft.to/lastmile_qr_scan", "android": "https://dc.lft.to/lastmile_qr_scan"}}, {"is_disabled": 0, "fusion_lat": 0.0, "lat": 38.928424166666666, "type": "electric_scooter", "lon": -77.03290583333333, "is_reserved": 0, "fusion_lon": 0.0, "bike_id": "f8d8b926d37b11009a08ac84de23355c", "name": "f8d8b926d37b11009a08ac84de23355c", "rental_uris": {"ios": "https://dc.lft.to/lastmile_qr_scan", "android": "https://dc.lft.to/lastmile_qr_scan"}}, {"is_disabled": 0, "fusion_lat": 0.0, "lat": 38.923142, "type": "electric_scooter", "lon": -77.03805233333334, "is_reserved": 0, "fusion_lon": 0.0, "bike_id": "e75bb86a666e70825fc1bedfaf4ff653", "name": "e75bb86a666e70825fc1bedfaf4ff653", "rental_uris": {"ios": "https://dc.lft.to/lastmile_qr_scan", "android": "https://dc.lft.to/lastmile_qr_scan"}}, {"is_disabled": 0, "fusion_lat": 0.0, "lat": 38.91047233333333, "type": "electric_scooter", "lon": -77.0150985, "is_reserved": 0, "fusion_lon": 0.0, "bike_id": "1add22ece26953843d34f8825c9581a6", "name": "1add22ece26953843d34f8825c9581a6", "rental_uris": {"ios": "https://dc.lft.to/lastmile_qr_scan", "android": "https://dc.lft.to/lastmile_qr_scan"}}, {"is_disabled": 0, "fusion_lat": 0.0, "lat": 38.934005666666664, "type": "electric_bike", "lon": -77.04125783333333, "is_reserved": 0, "fusion_lon": 0.0, "bike_id": "27c4bcc10fa3dc8dc67ec60591ce1bcb", "name": "27c4bcc10fa3dc8dc67ec60591ce1bcb", "rental_uris": {"ios": "https://dc.lft.to/lastmile_qr_scan", "android": "https://dc.lft.to/lastmile_qr_scan"}}, {"is_disabled": 0, "fusion_lat": 0.0, "lat": 38.930976333333334, "type": "electric_scooter", "lon": -77.037669, "is_reserved": 0, "fusion_lon": 0.0, "bike_id": "e1de15fe5e76c879a84dc0fd9888d9e0", "name": "e1de15fe5e76c879a84dc0fd9888d9e0", "rental_uris": {"ios": "https://dc.lft.to/lastmile_qr_scan", "android": "https://dc.lft.to/lastmile_qr_scan"}}, {"is_disabled": 0, "fusion_lat": 0.0, "lat": 38.862854666666664, "type": "electric_scooter", "lon": -76.99237566666666, "is_reserved": 0, "fusion_lon": 0.0, "bike_id": "505e6c9761ee4c04a817c8cd8260b272", "name": "505e6c9761ee4c04a817c8cd8260b272", "rental_uris": {"ios": "https://dc.lft.to/lastmile_qr_scan", "android": "https://dc.lft.to/lastmile_qr_scan"}}, {"is_disabled": 0, "fusion_lat": 0.0, "lat": 38.9330435, "type": "electric_bike", "lon": -77.02161283333334, "is_reserved": 0, "fusion_lon": 0.0, "bike_id": "a7178193d9f345955d943a40821189d7", "name": "a7178193d9f345955d943a40821189d7", "rental_uris": {"ios": "https://dc.lft.to/lastmile_qr_scan", "android": "https://dc.lft.to/lastmile_qr_scan"}}, {"is_disabled": 0, "fusion_lat": 0.0, "lat": 38.8725875, "type": "electric_bike", "lon": -76.97909133333333, "is_reserved": 0, "fusion_lon": 0.0, "bike_id": "5fc15468d82bd8c42c7744d8725f3527", "name": "5fc15468d82bd8c42c7744d8725f3527", "rental_uris": {"ios": "https://dc.lft.to/lastmile_qr_scan", "android": "https://dc.lft.to/lastmile_qr_scan"}}, {"is_disabled": 0, "fusion_lat": 0.0, "lat": 38.9269735, "type": "electric_scooter", "lon": -77.024277, "is_reserved": 0, "fusion_lon": 0.0, "bike_id": "4dd6994933a0e5e1edfe739d7991986b", "name": "4dd6994933a0e5e1edfe739d7991986b", "rental_uris": {"ios": "https://dc.lft.to/lastmile_qr_scan", "android": "https://dc.lft.to/lastmile_qr_scan"}}, {"is_disabled": 0, "fusion_lat": 0.0, "lat": 38.9346805, "type": "electric_scooter", "lon": -77.02927066666666, "is_reserved": 0, "fusion_lon": 0.0, "bike_id": "e7d0e110031aa780bd9441e9203c87c4", "name": "e7d0e110031aa780bd9441e9203c87c4", "rental_uris": {"ios": "https://dc.lft.to/lastmile_qr_scan", "android": "https://dc.lft.to/lastmile_qr_scan"}}, {"is_disabled": 0, "fusion_lat": 0.0, "lat": 38.88700733333334, "type": "electric_scooter", "lon": -77.0137455, "is_reserved": 0, "fusion_lon": 0.0, "bike_id": "b4d34661adf20df035878a4563683ac8", "name": "b4d34661adf20df035878a4563683ac8", "rental_uris": {"ios": "https://dc.lft.to/lastmile_qr_scan", "android": "https://dc.lft.to/lastmile_qr_scan"}}, {"is_disabled": 0, "fusion_lat": 0.0, "lat": 38.87797183333333, "type": "electric_bike", "lon": -77.007662, "is_reserved": 0, "fusion_lon": 0.0, "bike_id": "6d048d9b61070a1a1d9ada14f68be520", "name": "6d048d9b61070a1a1d9ada14f68be520", "rental_uris": {"ios": "https://dc.lft.to/lastmile_qr_scan", "android": "https://dc.lft.to/lastmile_qr_scan"}}, {"is_disabled": 0, "fusion_lat": 0.0, "lat": 38.898446, "type": "electric_scooter", "lon": -76.94478183333334, "is_reserved": 0, "fusion_lon": 0.0, "bike_id": "e91323dce0a9242cbfe6defb49919f93", "name": "e91323dce0a9242cbfe6defb49919f93", "rental_uris": {"ios": "https://dc.lft.to/lastmile_qr_scan", "android": "https://dc.lft.to/lastmile_qr_scan"}}, {"is_disabled": 0, "fusion_lat": 0.0, "lat": 38.950125, "type": "electric_bike", "lon": -77.015592, "is_reserved": 0, "fusion_lon": 0.0, "bike_id": "ee34f82ff075b0e68bce9e62e7fe6dd4", "name": "ee34f82ff075b0e68bce9e62e7fe6dd4", "rental_uris": {"ios": "https://dc.lft.to/lastmile_qr_scan", "android": "https://dc.lft.to/lastmile_qr_scan"}}, {"is_disabled": 0, "fusion_lat": 0.0, "lat": 38.9167865, "type": "electric_scooter", "lon": -77.02958983333333, "is_reserved": 0, "fusion_lon": 0.0, "bike_id": "b1aaf9e2d158df34e08127829c785899", "name": "b1aaf9e2d158df34e08127829c785899", "rental_uris": {"ios": "https://dc.lft.to/lastmile_qr_scan", "android": "https://dc.lft.to/lastmile_qr_scan"}}, {"is_disabled": 0, "fusion_lat": 0.0, "lat": 38.9024725, "type": "electric_scooter", "lon": -77.04274733333334, "is_reserved": 0, "fusion_lon": 0.0, "bike_id": "f881fc7e0e18b8e856335f0631f344ac", "name": "f881fc7e0e18b8e856335f0631f344ac", "rental_uris": {"ios": "https://dc.lft.to/lastmile_qr_scan", "android": "https://dc.lft.to/lastmile_qr_scan"}}, {"is_disabled": 0, "fusion_lat": 0.0, "lat": 39.09435216666667, "type": "electric_bike", "lon": -77.134595, "is_reserved": 0, "fusion_lon": 0.0, "bike_id": "dadfc0c2246fb3d28e6edb575719250f", "name": "dadfc0c2246fb3d28e6edb575719250f", "rental_uris": {"ios": "https://dc.lft.to/lastmile_qr_scan", "android": "https://dc.lft.to/lastmile_qr_scan"}}, {"is_disabled": 0, "fusion_lat": 0.0, "lat": 38.926689, "type": "electric_bike", "lon": -77.00817416666666, "is_reserved": 0, "fusion_lon": 0.0, "bike_id": "1e09dec7c83b91eb00083d2fd891c480", "name": "1e09dec7c83b91eb00083d2fd891c480", "rental_uris": {"ios": "https://dc.lft.to/lastmile_qr_scan", "android": "https://dc.lft.to/lastmile_qr_scan"}}, {"is_disabled": 0, "fusion_lat": 0.0, "lat": 38.92787466666667, "type": "electric_scooter", "lon": -77.027245, "is_reserved": 0, "fusion_lon": 0.0, "bike_id": "a2536784cff10cd869be2dcc6226ab67", "name": "a2536784cff10cd869be2dcc6226ab67", "rental_uris": {"ios": "https://dc.lft.to/lastmile_qr_scan", "android": "https://dc.lft.to/lastmile_qr_scan"}}, {"is_disabled": 0, "fusion_lat": 0.0, "lat": 38.90716166666667, "type": "electric_scooter", "lon": -77.02508716666667, "is_reserved": 0, "fusion_lon": 0.0, "bike_id": "847105d811f8b019b478811572c8cc4b", "name": "847105d811f8b019b478811572c8cc4b", "rental_uris": {"ios": "https://dc.lft.to/lastmile_qr_scan", "android": "https://dc.lft.to/lastmile_qr_scan"}}, {"is_disabled": 0, "fusion_lat": 0.0, "lat": 38.903336833333334, "type": "electric_scooter", "lon": -77.06599416666667, "is_reserved": 0, "fusion_lon": 0.0, "bike_id": "c14d278093e6b36b0e795a8f1367fc21", "name": "c14d278093e6b36b0e795a8f1367fc21", "rental_uris": {"ios": "https://dc.lft.to/lastmile_qr_scan", "android": "https://dc.lft.to/lastmile_qr_scan"}}, {"is_disabled": 0, "fusion_lat": 0.0, "lat": 38.89914, "type": "electric_scooter", "lon": -76.93384433333334, "is_reserved": 0, "fusion_lon": 0.0, "bike_id": "0204c41a8dde699c66a709a4edbcdda5", "name": "0204c41a8dde699c66a709a4edbcdda5", "rental_uris": {"ios": "https://dc.lft.to/lastmile_qr_scan", "android": "https://dc.lft.to/lastmile_qr_scan"}}, {"is_disabled": 0, "fusion_lat": 0.0, "lat": 38.842909166666665, "type": "electric_scooter", "lon": -76.99951366666667, "is_reserved": 0, "fusion_lon": 0.0, "bike_id": "9f33fa893f4733cbc6e460af64ab3845", "name": "9f33fa893f4733cbc6e460af64ab3845", "rental_uris": {"ios": "https://dc.lft.to/lastmile_qr_scan", "android": "https://dc.lft.to/lastmile_qr_scan"}}, {"is_disabled": 0, "fusion_lat": 0.0, "lat": 38.957747166666664, "type": "electric_scooter", "lon": -77.02462683333333, "is_reserved": 0, "fusion_lon": 0.0, "bike_id": "d6bbf479544427927323635e963182de", "name": "d6bbf479544427927323635e963182de", "rental_uris": {"ios": "https://dc.lft.to/lastmile_qr_scan", "android": "https://dc.lft.to/lastmile_qr_scan"}}, {"is_disabled": 0, "fusion_lat": 0.0, "lat": 38.95547666666667, "type": "electric_bike", "lon": -76.9353965, "is_reserved": 0, "fusion_lon": 0.0, "bike_id": "9d01813b448765ad698e8dba37f4c6dc", "name": "9d01813b448765ad698e8dba37f4c6dc", "rental_uris": {"ios": "https://dc.lft.to/lastmile_qr_scan", "android": "https://dc.lft.to/lastmile_qr_scan"}}, {"is_disabled": 0, "fusion_lat": 0.0, "lat": 38.9213465, "type": "electric_scooter", "lon": -77.044184, "is_reserved": 0, "fusion_lon": 0.0, "bike_id": "cfb8bb49963746f5e85adc99abdfc789", "name": "cfb8bb49963746f5e85adc99abdfc789", "rental_uris": {"ios": "https://dc.lft.to/lastmile_qr_scan", "android": "https://dc.lft.to/lastmile_qr_scan"}}, {"is_disabled": 0, "fusion_lat": 0.0, "lat": 38.863451, "type": "electric_scooter", "lon": -76.989993, "is_reserved": 0, "fusion_lon": 0.0, "bike_id": "e50a1283a97936805b20554031b97ab2", "name": "e50a1283a97936805b20554031b97ab2", "rental_uris": {"ios": "https://dc.lft.to/lastmile_qr_scan", "android": "https://dc.lft.to/lastmile_qr_scan"}}, {"is_disabled": 0, "fusion_lat": 0.0, "lat": 38.898449666666664, "type": "electric_scooter", "lon": -77.03296466666667, "is_reserved": 0, "fusion_lon": 0.0, "bike_id": "8028d1dd3358f969f2e352d532bbbb7b", "name": "8028d1dd3358f969f2e352d532bbbb7b", "rental_uris": {"ios": "https://dc.lft.to/lastmile_qr_scan", "android": "https://dc.lft.to/lastmile_qr_scan"}}, {"is_disabled": 0, "fusion_lat": 0.0, "lat": 38.93312516666667, "type": "electric_scooter", "lon": -77.03290033333333, "is_reserved": 0, "fusion_lon": 0.0, "bike_id": "965b0f4a4cf6dc9bf87c1a06da138de5", "name": "965b0f4a4cf6dc9bf87c1a06da138de5", "rental_uris": {"ios": "https://dc.lft.to/lastmile_qr_scan", "android": "https://dc.lft.to/lastmile_qr_scan"}}, {"is_disabled": 0, "fusion_lat": 0.0, "lat": 38.9650375, "type": "electric_bike", "lon": -77.0282985, "is_reserved": 0, "fusion_lon": 0.0, "bike_id": "a3ecbf7c780682b4498594a44a52ebd9", "name": "a3ecbf7c780682b4498594a44a52ebd9", "rental_uris": {"ios": "https://dc.lft.to/lastmile_qr_scan", "android": "https://dc.lft.to/lastmile_qr_scan"}}, {"is_disabled": 0, "fusion_lat": 0.0, "lat": 38.925464166666664, "type": "electric_scooter", "lon": -77.05294716666667, "is_reserved": 0, "fusion_lon": 0.0, "bike_id": "06925fc7f477c34ab18a0efc71ea7127", "name": "06925fc7f477c34ab18a0efc71ea7127", "rental_uris": {"ios": "https://dc.lft.to/lastmile_qr_scan", "android": "https://dc.lft.to/lastmile_qr_scan"}}, {"is_disabled": 0, "fusion_lat": 0.0, "lat": 38.90365116666667, "type": "electric_scooter", "lon": -77.01077766666667, "is_reserved": 0, "fusion_lon": 0.0, "bike_id": "1f2dc76500a8226128d2c7bd40725d39", "name": "1f2dc76500a8226128d2c7bd40725d39", "rental_uris": {"ios": "https://dc.lft.to/lastmile_qr_scan", "android": "https://dc.lft.to/lastmile_qr_scan"}}, {"is_disabled": 0, "fusion_lat": 0.0, "lat": 38.95192566666667, "type": "electric_bike", "lon": -76.96722583333333, "is_reserved": 0, "fusion_lon": 0.0, "bike_id": "6b32f444a92b2664c0bba3c38301e07e", "name": "6b32f444a92b2664c0bba3c38301e07e", "rental_uris": {"ios": "https://dc.lft.to/lastmile_qr_scan", "android": "https://dc.lft.to/lastmile_qr_scan"}}, {"is_disabled": 0, "fusion_lat": 0.0, "lat": 38.903401, "type": "electric_scooter", "lon": -76.97558883333333, "is_reserved": 0, "fusion_lon": 0.0, "bike_id": "64c9d9f3ab9b1628c51870b991c65fd7", "name": "64c9d9f3ab9b1628c51870b991c65fd7", "rental_uris": {"ios": "https://dc.lft.to/lastmile_qr_scan", "android": "https://dc.lft.to/lastmile_qr_scan"}}, {"is_disabled": 0, "fusion_lat": 0.0, "lat": 38.913283666666665, "type": "electric_scooter", "lon": -77.030113, "is_reserved": 0, "fusion_lon": 0.0, "bike_id": "35df0c3b1405288d20350e44fb02977c", "name": "35df0c3b1405288d20350e44fb02977c", "rental_uris": {"ios": "https://dc.lft.to/lastmile_qr_scan", "android": "https://dc.lft.to/lastmile_qr_scan"}}, {"is_disabled": 0, "fusion_lat": 0.0, "lat": 38.99814166666667, "type": "electric_bike", "lon": -76.883741, "is_reserved": 0, "fusion_lon": 0.0, "bike_id": "1cff697e80af6426f62d06bb9d3fb840", "name": "1cff697e80af6426f62d06bb9d3fb840", "rental_uris": {"ios": "https://dc.lft.to/lastmile_qr_scan", "android": "https://dc.lft.to/lastmile_qr_scan"}}, {"is_disabled": 0, "fusion_lat": 0.0, "lat": 38.94165266666667, "type": "electric_scooter", "lon": -77.0413195, "is_reserved": 0, "fusion_lon": 0.0, "bike_id": "1e0452c52d945e69b431b9210b4644ae", "name": "1e0452c52d945e69b431b9210b4644ae", "rental_uris": {"ios": "https://dc.lft.to/lastmile_qr_scan", "android": "https://dc.lft.to/lastmile_qr_scan"}}, {"is_disabled": 0, "fusion_lat": 0.0, "lat": 38.90680366666667, "type": "electric_scooter", "lon": -77.0635265, "is_reserved": 0, "fusion_lon": 0.0, "bike_id": "1121dd26dc26ea739355760f8e5f3fab", "name": "1121dd26dc26ea739355760f8e5f3fab", "rental_uris": {"ios": "https://dc.lft.to/lastmile_qr_scan", "android": "https://dc.lft.to/lastmile_qr_scan"}}, {"is_disabled": 0, "fusion_lat": 0.0, "lat": 38.91125533333334, "type": "electric_scooter", "lon": -77.04456083333334, "is_reserved": 0, "fusion_lon": 0.0, "bike_id": "aa5a427f16b54b263cbf60ea8f12457f", "name": "aa5a427f16b54b263cbf60ea8f12457f", "rental_uris": {"ios": "https://dc.lft.to/lastmile_qr_scan", "android": "https://dc.lft.to/lastmile_qr_scan"}}, {"is_disabled": 0, "fusion_lat": 0.0, "lat": 38.86390566666667, "type": "electric_bike", "lon": -76.98987766666667, "is_reserved": 0, "fusion_lon": 0.0, "bike_id": "e72181a67df68d4d7c7d55b883afcfee", "name": "e72181a67df68d4d7c7d55b883afcfee", "rental_uris": {"ios": "https://dc.lft.to/lastmile_qr_scan", "android": "https://dc.lft.to/lastmile_qr_scan"}}, {"is_disabled": 0, "fusion_lat": 0.0, "lat": 38.89761133333333, "type": "electric_scooter", "lon": -76.98553716666666, "is_reserved": 0, "fusion_lon": 0.0, "bike_id": "80e99bd930f81088612cb7de3c658e75", "name": "80e99bd930f81088612cb7de3c658e75", "rental_uris": {"ios": "https://dc.lft.to/lastmile_qr_scan", "android": "https://dc.lft.to/lastmile_qr_scan"}}, {"is_disabled": 0, "fusion_lat": 0.0, "lat": 38.90514483333333, "type": "electric_scooter", "lon": -77.0514685, "is_reserved": 0, "fusion_lon": 0.0, "bike_id": "5856797e8d943395a63bec110e6a0f45", "name": "5856797e8d943395a63bec110e6a0f45", "rental_uris": {"ios": "https://dc.lft.to/lastmile_qr_scan", "android": "https://dc.lft.to/lastmile_qr_scan"}}, {"is_disabled": 0, "fusion_lat": 0.0, "lat": 38.85804133333333, "type": "electric_scooter", "lon": -76.98649983333334, "is_reserved": 0, "fusion_lon": 0.0, "bike_id": "df498dc61e5a2a8a8853ad88b2c3dd46", "name": "df498dc61e5a2a8a8853ad88b2c3dd46", "rental_uris": {"ios": "https://dc.lft.to/lastmile_qr_scan", "android": "https://dc.lft.to/lastmile_qr_scan"}}, {"is_disabled": 0, "fusion_lat": 0.0, "lat": 38.90794966666667, "type": "electric_scooter", "lon": -77.03417033333334, "is_reserved": 0, "fusion_lon": 0.0, "bike_id": "c49f7494b1c058547c263adbc16547fd", "name": "c49f7494b1c058547c263adbc16547fd", "rental_uris": {"ios": "https://dc.lft.to/lastmile_qr_scan", "android": "https://dc.lft.to/lastmile_qr_scan"}}, {"is_disabled": 0, "fusion_lat": 0.0, "lat": 38.942022, "type": "electric_bike", "lon": -77.01824183333333, "is_reserved": 0, "fusion_lon": 0.0, "bike_id": "1cd200c6eab614355beb018fe0469b1c", "name": "1cd200c6eab614355beb018fe0469b1c", "rental_uris": {"ios": "https://dc.lft.to/lastmile_qr_scan", "android": "https://dc.lft.to/lastmile_qr_scan"}}, {"is_disabled": 0, "fusion_lat": 0.0, "lat": 38.90585866666667, "type": "electric_scooter", "lon": -77.0348635, "is_reserved": 0, "fusion_lon": 0.0, "bike_id": "eb18c39938366c9a8b4550cb767c4f22", "name": "eb18c39938366c9a8b4550cb767c4f22", "rental_uris": {"ios": "https://dc.lft.to/lastmile_qr_scan", "android": "https://dc.lft.to/lastmile_qr_scan"}}, {"is_disabled": 0, "fusion_lat": 0.0, "lat": 38.89219416666667, "type": "electric_scooter", "lon": -77.02443083333333, "is_reserved": 0, "fusion_lon": 0.0, "bike_id": "24b18b0273b7799c23a88fcb92fa9804", "name": "24b18b0273b7799c23a88fcb92fa9804", "rental_uris": {"ios": "https://dc.lft.to/lastmile_qr_scan", "android": "https://dc.lft.to/lastmile_qr_scan"}}, {"is_disabled": 0, "fusion_lat": 0.0, "lat": 38.944369, "type": "electric_scooter", "lon": -77.06353566666667, "is_reserved": 0, "fusion_lon": 0.0, "bike_id": "299e5857f401fe1446857f9e09c050e6", "name": "299e5857f401fe1446857f9e09c050e6", "rental_uris": {"ios": "https://dc.lft.to/lastmile_qr_scan", "android": "https://dc.lft.to/lastmile_qr_scan"}}, {"is_disabled": 0, "fusion_lat": 0.0, "lat": 38.90487483333333, "type": "electric_scooter", "lon": -77.060149, "is_reserved": 0, "fusion_lon": 0.0, "bike_id": "7b46ee5cc31a0fcf8a9ff25f18bf97c2", "name": "7b46ee5cc31a0fcf8a9ff25f18bf97c2", "rental_uris": {"ios": "https://dc.lft.to/lastmile_qr_scan", "android": "https://dc.lft.to/lastmile_qr_scan"}}, {"is_disabled": 0, "fusion_lat": 0.0, "lat": 38.94230616666667, "type": "electric_scooter", "lon": -77.01533383333333, "is_reserved": 0, "fusion_lon": 0.0, "bike_id": "6ed58e53da038963d76679fe2ba5a5b6", "name": "6ed58e53da038963d76679fe2ba5a5b6", "rental_uris": {"ios": "https://dc.lft.to/lastmile_qr_scan", "android": "https://dc.lft.to/lastmile_qr_scan"}}, {"is_disabled": 0, "fusion_lat": 0.0, "lat": 39.03880933333333, "type": "electric_bike", "lon": -76.99041733333334, "is_reserved": 0, "fusion_lon": 0.0, "bike_id": "d8a7458051194815ee4bf70ba060a50e", "name": "d8a7458051194815ee4bf70ba060a50e", "rental_uris": {"ios": "https://dc.lft.to/lastmile_qr_scan", "android": "https://dc.lft.to/lastmile_qr_scan"}}, {"is_disabled": 0, "fusion_lat": 0.0, "lat": 38.920373166666664, "type": "electric_scooter", "lon": -76.97908533333333, "is_reserved": 0, "fusion_lon": 0.0, "bike_id": "90b081af8436052e57f0854f6e9066ad", "name": "90b081af8436052e57f0854f6e9066ad", "rental_uris": {"ios": "https://dc.lft.to/lastmile_qr_scan", "android": "https://dc.lft.to/lastmile_qr_scan"}}, {"is_disabled": 0, "fusion_lat": 0.0, "lat": 38.9031915, "type": "electric_scooter", "lon": -77.03777683333334, "is_reserved": 0, "fusion_lon": 0.0, "bike_id": "cb71204246f650fcb3dbb443d24da1b9", "name": "cb71204246f650fcb3dbb443d24da1b9", "rental_uris": {"ios": "https://dc.lft.to/lastmile_qr_scan", "android": "https://dc.lft.to/lastmile_qr_scan"}}, {"is_disabled": 0, "fusion_lat": 0.0, "lat": 38.894805833333336, "type": "electric_scooter", "lon": -77.02189233333333, "is_reserved": 0, "fusion_lon": 0.0, "bike_id": "63533bc54a4e26a6a1f3909fed5c850f", "name": "63533bc54a4e26a6a1f3909fed5c850f", "rental_uris": {"ios": "https://dc.lft.to/lastmile_qr_scan", "android": "https://dc.lft.to/lastmile_qr_scan"}}, {"is_disabled": 0, "fusion_lat": 0.0, "lat": 38.90513266666667, "type": "electric_scooter", "lon": -77.04773116666667, "is_reserved": 0, "fusion_lon": 0.0, "bike_id": "0e358fcdcd008bacba5f2d273000ce81", "name": "0e358fcdcd008bacba5f2d273000ce81", "rental_uris": {"ios": "https://dc.lft.to/lastmile_qr_scan", "android": "https://dc.lft.to/lastmile_qr_scan"}}, {"is_disabled": 0, "fusion_lat": 0.0, "lat": 38.91403433333333, "type": "electric_scooter", "lon": -77.01842566666667, "is_reserved": 0, "fusion_lon": 0.0, "bike_id": "65eee4a2eaca7faa1636dc38ecc101b3", "name": "65eee4a2eaca7faa1636dc38ecc101b3", "rental_uris": {"ios": "https://dc.lft.to/lastmile_qr_scan", "android": "https://dc.lft.to/lastmile_qr_scan"}}, {"is_disabled": 0, "fusion_lat": 0.0, "lat": 38.9060395, "type": "electric_scooter", "lon": -77.039588, "is_reserved": 0, "fusion_lon": 0.0, "bike_id": "b89d7bfbc77cc67b0c18522534b8664e", "name": "b89d7bfbc77cc67b0c18522534b8664e", "rental_uris": {"ios": "https://dc.lft.to/lastmile_qr_scan", "android": "https://dc.lft.to/lastmile_qr_scan"}}, {"is_disabled": 0, "fusion_lat": 0.0, "lat": 38.90269966666666, "type": "electric_scooter", "lon": -77.038388, "is_reserved": 0, "fusion_lon": 0.0, "bike_id": "fd76469cff0c0dc863b7690547da3290", "name": "fd76469cff0c0dc863b7690547da3290", "rental_uris": {"ios": "https://dc.lft.to/lastmile_qr_scan", "android": "https://dc.lft.to/lastmile_qr_scan"}}, {"is_disabled": 0, "fusion_lat": 0.0, "lat": 38.90183, "type": "electric_scooter", "lon": -77.02170216666667, "is_reserved": 0, "fusion_lon": 0.0, "bike_id": "fe28612ece630b112d9549778d4e0082", "name": "fe28612ece630b112d9549778d4e0082", "rental_uris": {"ios": "https://dc.lft.to/lastmile_qr_scan", "android": "https://dc.lft.to/lastmile_qr_scan"}}, {"is_disabled": 0, "fusion_lat": 0.0, "lat": 38.922383333333336, "type": "electric_scooter", "lon": -77.03661433333333, "is_reserved": 0, "fusion_lon": 0.0, "bike_id": "2ebea3272d17f85a35090ab5d13f1d82", "name": "2ebea3272d17f85a35090ab5d13f1d82", "rental_uris": {"ios": "https://dc.lft.to/lastmile_qr_scan", "android": "https://dc.lft.to/lastmile_qr_scan"}}, {"is_disabled": 0, "fusion_lat": 0.0, "lat": 38.91100983333333, "type": "electric_scooter", "lon": -77.04202233333334, "is_reserved": 0, "fusion_lon": 0.0, "bike_id": "45e2ac5054ab75d11318ca71e11a0b23", "name": "45e2ac5054ab75d11318ca71e11a0b23", "rental_uris": {"ios": "https://dc.lft.to/lastmile_qr_scan", "android": "https://dc.lft.to/lastmile_qr_scan"}}, {"is_disabled": 0, "fusion_lat": 0.0, "lat": 38.91543333333333, "type": "electric_scooter", "lon": -77.0384215, "is_reserved": 0, "fusion_lon": 0.0, "bike_id": "62f6fda7b960f100b8ddcab913abed51", "name": "62f6fda7b960f100b8ddcab913abed51", "rental_uris": {"ios": "https://dc.lft.to/lastmile_qr_scan", "android": "https://dc.lft.to/lastmile_qr_scan"}}, {"is_disabled": 0, "fusion_lat": 0.0, "lat": 38.921611666666664, "type": "electric_scooter", "lon": -77.03547183333333, "is_reserved": 0, "fusion_lon": 0.0, "bike_id": "dedc7d95d0deb26baacbf3256e99d1b1", "name": "dedc7d95d0deb26baacbf3256e99d1b1", "rental_uris": {"ios": "https://dc.lft.to/lastmile_qr_scan", "android": "https://dc.lft.to/lastmile_qr_scan"}}, {"is_disabled": 0, "fusion_lat": 0.0, "lat": 38.924805166666665, "type": "electric_scooter", "lon": -77.02724133333334, "is_reserved": 0, "fusion_lon": 0.0, "bike_id": "66895deaacf9ead2f377580733d8950f", "name": "66895deaacf9ead2f377580733d8950f", "rental_uris": {"ios": "https://dc.lft.to/lastmile_qr_scan", "android": "https://dc.lft.to/lastmile_qr_scan"}}, {"is_disabled": 0, "fusion_lat": 0.0, "lat": 38.90838433333333, "type": "electric_scooter", "lon": -77.02698716666667, "is_reserved": 0, "fusion_lon": 0.0, "bike_id": "d81a6be29ad297185ab5f2ea0f5f9533", "name": "d81a6be29ad297185ab5f2ea0f5f9533", "rental_uris": {"ios": "https://dc.lft.to/lastmile_qr_scan", "android": "https://dc.lft.to/lastmile_qr_scan"}}, {"is_disabled": 0, "fusion_lat": 0.0, "lat": 38.884328, "type": "electric_scooter", "lon": -77.02563233333333, "is_reserved": 0, "fusion_lon": 0.0, "bike_id": "23b4f50c1f6671210a557bd6a0a917b5", "name": "23b4f50c1f6671210a557bd6a0a917b5", "rental_uris": {"ios": "https://dc.lft.to/lastmile_qr_scan", "android": "https://dc.lft.to/lastmile_qr_scan"}}, {"is_disabled": 0, "fusion_lat": 0.0, "lat": 38.919253166666664, "type": "electric_scooter", "lon": -77.0318745, "is_reserved": 0, "fusion_lon": 0.0, "bike_id": "b93a35df7fe55502e5ecc58bba933367", "name": "b93a35df7fe55502e5ecc58bba933367", "rental_uris": {"ios": "https://dc.lft.to/lastmile_qr_scan", "android": "https://dc.lft.to/lastmile_qr_scan"}}, {"is_disabled": 0, "fusion_lat": 0.0, "lat": 38.92480283333333, "type": "electric_scooter", "lon": -77.028456, "is_reserved": 0, "fusion_lon": 0.0, "bike_id": "f49afe98fb18496a04f8fdf896506101", "name": "f49afe98fb18496a04f8fdf896506101", "rental_uris": {"ios": "https://dc.lft.to/lastmile_qr_scan", "android": "https://dc.lft.to/lastmile_qr_scan"}}, {"is_disabled": 0, "fusion_lat": 0.0, "lat": 38.92563833333333, "type": "electric_scooter", "lon": -77.03916766666667, "is_reserved": 0, "fusion_lon": 0.0, "bike_id": "00f90d8ec64b406fc5e50f2b851314c3", "name": "00f90d8ec64b406fc5e50f2b851314c3", "rental_uris": {"ios": "https://dc.lft.to/lastmile_qr_scan", "android": "https://dc.lft.to/lastmile_qr_scan"}}, {"is_disabled": 0, "fusion_lat": 0.0, "lat": 38.920052, "type": "electric_scooter", "lon": -77.071258, "is_reserved": 0, "fusion_lon": 0.0, "bike_id": "5615f63e2a54d91943688c6865e64155", "name": "5615f63e2a54d91943688c6865e64155", "rental_uris": {"ios": "https://dc.lft.to/lastmile_qr_scan", "android": "https://dc.lft.to/lastmile_qr_scan"}}, {"is_disabled": 0, "fusion_lat": 0.0, "lat": 38.928354166666665, "type": "electric_scooter", "lon": -77.05514616666666, "is_reserved": 0, "fusion_lon": 0.0, "bike_id": "cf27bc27155549f7d6bff7080595b968", "name": "cf27bc27155549f7d6bff7080595b968", "rental_uris": {"ios": "https://dc.lft.to/lastmile_qr_scan", "android": "https://dc.lft.to/lastmile_qr_scan"}}, {"is_disabled": 0, "fusion_lat": 0.0, "lat": 38.91691983333333, "type": "electric_scooter", "lon": -77.03109466666666, "is_reserved": 0, "fusion_lon": 0.0, "bike_id": "bcb7cbbefaeaebf226298a1bcae1dc40", "name": "bcb7cbbefaeaebf226298a1bcae1dc40", "rental_uris": {"ios": "https://dc.lft.to/lastmile_qr_scan", "android": "https://dc.lft.to/lastmile_qr_scan"}}, {"is_disabled": 0, "fusion_lat": 0.0, "lat": 38.91875983333333, "type": "electric_scooter", "lon": -77.03545466666667, "is_reserved": 0, "fusion_lon": 0.0, "bike_id": "408a20e48376526203978ee67e54c2bb", "name": "408a20e48376526203978ee67e54c2bb", "rental_uris": {"ios": "https://dc.lft.to/lastmile_qr_scan", "android": "https://dc.lft.to/lastmile_qr_scan"}}, {"is_disabled": 0, "fusion_lat": 0.0, "lat": 38.9097565, "type": "electric_scooter", "lon": -77.031837, "is_reserved": 0, "fusion_lon": 0.0, "bike_id": "512a6aa2368fb62a9143962d20a132b1", "name": "512a6aa2368fb62a9143962d20a132b1", "rental_uris": {"ios": "https://dc.lft.to/lastmile_qr_scan", "android": "https://dc.lft.to/lastmile_qr_scan"}}, {"is_disabled": 0, "fusion_lat": 0.0, "lat": 38.90051116666667, "type": "electric_scooter", "lon": -77.0020765, "is_reserved": 0, "fusion_lon": 0.0, "bike_id": "9b4c736fb3bb01970fc01da7ea33288a", "name": "9b4c736fb3bb01970fc01da7ea33288a", "rental_uris": {"ios": "https://dc.lft.to/lastmile_qr_scan", "android": "https://dc.lft.to/lastmile_qr_scan"}}, {"is_disabled": 0, "fusion_lat": 0.0, "lat": 38.86560083333333, "type": "electric_scooter", "lon": -76.98951066666666, "is_reserved": 0, "fusion_lon": 0.0, "bike_id": "08919d8cab90ee6d956590bcfcd1e769", "name": "08919d8cab90ee6d956590bcfcd1e769", "rental_uris": {"ios": "https://dc.lft.to/lastmile_qr_scan", "android": "https://dc.lft.to/lastmile_qr_scan"}}, {"is_disabled": 0, "fusion_lat": 0.0, "lat": 38.90201733333333, "type": "electric_scooter", "lon": -77.04346066666666, "is_reserved": 0, "fusion_lon": 0.0, "bike_id": "6bda3721dcb03b4759c4ac0a522a72fc", "name": "6bda3721dcb03b4759c4ac0a522a72fc", "rental_uris": {"ios": "https://dc.lft.to/lastmile_qr_scan", "android": "https://dc.lft.to/lastmile_qr_scan"}}, {"is_disabled": 0, "fusion_lat": 0.0, "lat": 38.94832133333333, "type": "electric_scooter", "lon": -77.02560433333333, "is_reserved": 0, "fusion_lon": 0.0, "bike_id": "057cf09506b8ac5dcb839175382be1c1", "name": "057cf09506b8ac5dcb839175382be1c1", "rental_uris": {"ios": "https://dc.lft.to/lastmile_qr_scan", "android": "https://dc.lft.to/lastmile_qr_scan"}}, {"is_disabled": 0, "fusion_lat": 0.0, "lat": 38.95930116666667, "type": "electric_scooter", "lon": -77.033262, "is_reserved": 0, "fusion_lon": 0.0, "bike_id": "95e2221c1699a8d13a845fc5695edd32", "name": "95e2221c1699a8d13a845fc5695edd32", "rental_uris": {"ios": "https://dc.lft.to/lastmile_qr_scan", "android": "https://dc.lft.to/lastmile_qr_scan"}}, {"is_disabled": 0, "fusion_lat": 0.0, "lat": 38.917653666666666, "type": "electric_scooter", "lon": -77.03188883333333, "is_reserved": 0, "fusion_lon": 0.0, "bike_id": "23bb3a63ddd2e2a844f6c75be05c5c66", "name": "23bb3a63ddd2e2a844f6c75be05c5c66", "rental_uris": {"ios": "https://dc.lft.to/lastmile_qr_scan", "android": "https://dc.lft.to/lastmile_qr_scan"}}, {"is_disabled": 0, "fusion_lat": 0.0, "lat": 38.908012666666664, "type": "electric_scooter", "lon": -77.01867966666667, "is_reserved": 0, "fusion_lon": 0.0, "bike_id": "d94b316b50ab61336c5f0f27c7806d21", "name": "d94b316b50ab61336c5f0f27c7806d21", "rental_uris": {"ios": "https://dc.lft.to/lastmile_qr_scan", "android": "https://dc.lft.to/lastmile_qr_scan"}}, {"is_disabled": 0, "fusion_lat": 0.0, "lat": 38.91608466666667, "type": "electric_scooter", "lon": -77.02711416666666, "is_reserved": 0, "fusion_lon": 0.0, "bike_id": "cb4c1792a363fad4c33befeb8f39a606", "name": "cb4c1792a363fad4c33befeb8f39a606", "rental_uris": {"ios": "https://dc.lft.to/lastmile_qr_scan", "android": "https://dc.lft.to/lastmile_qr_scan"}}, {"is_disabled": 0, "fusion_lat": 0.0, "lat": 38.9126795, "type": "electric_scooter", "lon": -77.041705, "is_reserved": 0, "fusion_lon": 0.0, "bike_id": "e26ff6a37b9c7f5673d673ac4d01b41e", "name": "e26ff6a37b9c7f5673d673ac4d01b41e", "rental_uris": {"ios": "https://dc.lft.to/lastmile_qr_scan", "android": "https://dc.lft.to/lastmile_qr_scan"}}, {"is_disabled": 0, "fusion_lat": 0.0, "lat": 38.90851516666667, "type": "electric_scooter", "lon": -77.0246105, "is_reserved": 0, "fusion_lon": 0.0, "bike_id": "936f57566d9c3727b1bbc91c10fc7ab1", "name": "936f57566d9c3727b1bbc91c10fc7ab1", "rental_uris": {"ios": "https://dc.lft.to/lastmile_qr_scan", "android": "https://dc.lft.to/lastmile_qr_scan"}}, {"is_disabled": 0, "fusion_lat": 0.0, "lat": 38.87145116666667, "type": "electric_bike", "lon": -76.93664583333333, "is_reserved": 0, "fusion_lon": 0.0, "bike_id": "1728d9a461544328521fab35f05d92ef", "name": "1728d9a461544328521fab35f05d92ef", "rental_uris": {"ios": "https://dc.lft.to/lastmile_qr_scan", "android": "https://dc.lft.to/lastmile_qr_scan"}}, {"is_disabled": 0, "fusion_lat": 0.0, "lat": 38.947941, "type": "electric_bike", "lon": -77.008027, "is_reserved": 0, "fusion_lon": 0.0, "bike_id": "503763f1747b3cc1959876bd2c4e85d7", "name": "503763f1747b3cc1959876bd2c4e85d7", "rental_uris": {"ios": "https://dc.lft.to/lastmile_qr_scan", "android": "https://dc.lft.to/lastmile_qr_scan"}}, {"is_disabled": 0, "fusion_lat": 0.0, "lat": 38.95356816666666, "type": "electric_bike", "lon": -76.98091, "is_reserved": 0, "fusion_lon": 0.0, "bike_id": "f615bb132bb1728b7df73fc3a8c83c91", "name": "f615bb132bb1728b7df73fc3a8c83c91", "rental_uris": {"ios": "https://dc.lft.to/lastmile_qr_scan", "android": "https://dc.lft.to/lastmile_qr_scan"}}, {"is_disabled": 0, "fusion_lat": 0.0, "lat": 38.896168833333334, "type": "electric_scooter", "lon": -76.99413916666667, "is_reserved": 0, "fusion_lon": 0.0, "bike_id": "ea74277e6a0db9e99501cf2cd1827fcf", "name": "ea74277e6a0db9e99501cf2cd1827fcf", "rental_uris": {"ios": "https://dc.lft.to/lastmile_qr_scan", "android": "https://dc.lft.to/lastmile_qr_scan"}}, {"is_disabled": 0, "fusion_lat": 0.0, "lat": 38.924960666666664, "type": "electric_scooter", "lon": -77.021524, "is_reserved": 0, "fusion_lon": 0.0, "bike_id": "03a365874b146254f1299222179322ef", "name": "03a365874b146254f1299222179322ef", "rental_uris": {"ios": "https://dc.lft.to/lastmile_qr_scan", "android": "https://dc.lft.to/lastmile_qr_scan"}}, {"is_disabled": 0, "fusion_lat": 0.0, "lat": 38.899977666666665, "type": "electric_scooter", "lon": -77.00615383333333, "is_reserved": 0, "fusion_lon": 0.0, "bike_id": "d25f671513c3e3408611173cc700cb98", "name": "d25f671513c3e3408611173cc700cb98", "rental_uris": {"ios": "https://dc.lft.to/lastmile_qr_scan", "android": "https://dc.lft.to/lastmile_qr_scan"}}, {"is_disabled": 0, "fusion_lat": 0.0, "lat": 38.90157966666666, "type": "electric_scooter", "lon": -77.02545866666667, "is_reserved": 0, "fusion_lon": 0.0, "bike_id": "38295c02afb7511de94fd39ef96dec55", "name": "38295c02afb7511de94fd39ef96dec55", "rental_uris": {"ios": "https://dc.lft.to/lastmile_qr_scan", "android": "https://dc.lft.to/lastmile_qr_scan"}}, {"is_disabled": 0, "fusion_lat": 0.0, "lat": 38.883124, "type": "electric_scooter", "lon": -77.009375, "is_reserved": 0, "fusion_lon": 0.0, "bike_id": "78e9eb7d390356d6815e5a804d5b2baa", "name": "78e9eb7d390356d6815e5a804d5b2baa", "rental_uris": {"ios": "https://dc.lft.to/lastmile_qr_scan", "android": "https://dc.lft.to/lastmile_qr_scan"}}, {"is_disabled": 0, "fusion_lat": 0.0, "lat": 38.922903833333336, "type": "electric_scooter", "lon": -77.03196783333334, "is_reserved": 0, "fusion_lon": 0.0, "bike_id": "cf09718a760a548a356f83cc29503578", "name": "cf09718a760a548a356f83cc29503578", "rental_uris": {"ios": "https://dc.lft.to/lastmile_qr_scan", "android": "https://dc.lft.to/lastmile_qr_scan"}}, {"is_disabled": 0, "fusion_lat": 0.0, "lat": 38.8754075, "type": "electric_scooter", "lon": -77.00065316666667, "is_reserved": 0, "fusion_lon": 0.0, "bike_id": "1dac2306e81ccda7e7454983e2ac30a9", "name": "1dac2306e81ccda7e7454983e2ac30a9", "rental_uris": {"ios": "https://dc.lft.to/lastmile_qr_scan", "android": "https://dc.lft.to/lastmile_qr_scan"}}, {"is_disabled": 0, "fusion_lat": 0.0, "lat": 38.8991085, "type": "electric_scooter", "lon": -77.032927, "is_reserved": 0, "fusion_lon": 0.0, "bike_id": "b8e23525f1e4288ccbe78345ec4e8144", "name": "b8e23525f1e4288ccbe78345ec4e8144", "rental_uris": {"ios": "https://dc.lft.to/lastmile_qr_scan", "android": "https://dc.lft.to/lastmile_qr_scan"}}, {"is_disabled": 0, "fusion_lat": 0.0, "lat": 38.94890316666667, "type": "electric_bike", "lon": -76.96377933333333, "is_reserved": 0, "fusion_lon": 0.0, "bike_id": "f6a12e0db267cd3b46f20cfe01ef6f5c", "name": "f6a12e0db267cd3b46f20cfe01ef6f5c", "rental_uris": {"ios": "https://dc.lft.to/lastmile_qr_scan", "android": "https://dc.lft.to/lastmile_qr_scan"}}, {"is_disabled": 0, "fusion_lat": 0.0, "lat": 38.88451516666667, "type": "electric_scooter", "lon": -77.00568583333333, "is_reserved": 0, "fusion_lon": 0.0, "bike_id": "ae91313f2dcdcee1d4df30a557160342", "name": "ae91313f2dcdcee1d4df30a557160342", "rental_uris": {"ios": "https://dc.lft.to/lastmile_qr_scan", "android": "https://dc.lft.to/lastmile_qr_scan"}}, {"is_disabled": 0, "fusion_lat": 0.0, "lat": 38.9215165, "type": "electric_scooter", "lon": -77.03869983333334, "is_reserved": 0, "fusion_lon": 0.0, "bike_id": "e54bfa5455ea7c7ac5f77b384d2c6d5d", "name": "e54bfa5455ea7c7ac5f77b384d2c6d5d", "rental_uris": {"ios": "https://dc.lft.to/lastmile_qr_scan", "android": "https://dc.lft.to/lastmile_qr_scan"}}, {"is_disabled": 0, "fusion_lat": 0.0, "lat": 38.90358583333333, "type": "electric_scooter", "lon": -77.03895916666667, "is_reserved": 0, "fusion_lon": 0.0, "bike_id": "ded87236b8bab2cd51bc8f7bc0111613", "name": "ded87236b8bab2cd51bc8f7bc0111613", "rental_uris": {"ios": "https://dc.lft.to/lastmile_qr_scan", "android": "https://dc.lft.to/lastmile_qr_scan"}}, {"is_disabled": 0, "fusion_lat": 0.0, "lat": 38.89246466666667, "type": "electric_scooter", "lon": -76.94323083333333, "is_reserved": 0, "fusion_lon": 0.0, "bike_id": "0fa7f7498f08ebaa36818f3159d50e29", "name": "0fa7f7498f08ebaa36818f3159d50e29", "rental_uris": {"ios": "https://dc.lft.to/lastmile_qr_scan", "android": "https://dc.lft.to/lastmile_qr_scan"}}, {"is_disabled": 0, "fusion_lat": 0.0, "lat": 38.903567, "type": "electric_scooter", "lon": -76.99707766666667, "is_reserved": 0, "fusion_lon": 0.0, "bike_id": "6cb5e8173dd76c7bf736907dabd3ff02", "name": "6cb5e8173dd76c7bf736907dabd3ff02", "rental_uris": {"ios": "https://dc.lft.to/lastmile_qr_scan", "android": "https://dc.lft.to/lastmile_qr_scan"}}, {"is_disabled": 0, "fusion_lat": 0.0, "lat": 38.90142266666667, "type": "electric_scooter", "lon": -76.99797533333333, "is_reserved": 0, "fusion_lon": 0.0, "bike_id": "39a038be89ecbbe1c8717f7c72712496", "name": "39a038be89ecbbe1c8717f7c72712496", "rental_uris": {"ios": "https://dc.lft.to/lastmile_qr_scan", "android": "https://dc.lft.to/lastmile_qr_scan"}}, {"is_disabled": 0, "fusion_lat": 0.0, "lat": 38.938221666666664, "type": "electric_bike", "lon": -77.03280833333334, "is_reserved": 0, "fusion_lon": 0.0, "bike_id": "c687a08f52a2445b49c44845087c6ac8", "name": "c687a08f52a2445b49c44845087c6ac8", "rental_uris": {"ios": "https://dc.lft.to/lastmile_qr_scan", "android": "https://dc.lft.to/lastmile_qr_scan"}}, {"is_disabled": 0, "fusion_lat": 0.0, "lat": 38.92548566666667, "type": "electric_bike", "lon": -77.0013115, "is_reserved": 0, "fusion_lon": 0.0, "bike_id": "0fbeb80c33a85c23a07542813dffa53b", "name": "0fbeb80c33a85c23a07542813dffa53b", "rental_uris": {"ios": "https://dc.lft.to/lastmile_qr_scan", "android": "https://dc.lft.to/lastmile_qr_scan"}}, {"is_disabled": 0, "fusion_lat": 0.0, "lat": 38.916936, "type": "electric_scooter", "lon": -77.03869333333333, "is_reserved": 0, "fusion_lon": 0.0, "bike_id": "a8291362eb15fa70a20c7a80588835d0", "name": "a8291362eb15fa70a20c7a80588835d0", "rental_uris": {"ios": "https://dc.lft.to/lastmile_qr_scan", "android": "https://dc.lft.to/lastmile_qr_scan"}}, {"is_disabled": 0, "fusion_lat": 0.0, "lat": 38.9003555, "type": "electric_scooter", "lon": -77.01204, "is_reserved": 0, "fusion_lon": 0.0, "bike_id": "899bf29cc631299f7109791316bfb0f3", "name": "899bf29cc631299f7109791316bfb0f3", "rental_uris": {"ios": "https://dc.lft.to/lastmile_qr_scan", "android": "https://dc.lft.to/lastmile_qr_scan"}}, {"is_disabled": 0, "fusion_lat": 0.0, "lat": 38.898847833333335, "type": "electric_scooter", "lon": -76.9317715, "is_reserved": 0, "fusion_lon": 0.0, "bike_id": "cefcbddb1f229db61b13507092c75826", "name": "cefcbddb1f229db61b13507092c75826", "rental_uris": {"ios": "https://dc.lft.to/lastmile_qr_scan", "android": "https://dc.lft.to/lastmile_qr_scan"}}, {"is_disabled": 0, "fusion_lat": 0.0, "lat": 38.863691833333334, "type": "electric_bike", "lon": -76.97006566666667, "is_reserved": 0, "fusion_lon": 0.0, "bike_id": "0c14610cee93a20f9c3e30868980fe7b", "name": "0c14610cee93a20f9c3e30868980fe7b", "rental_uris": {"ios": "https://dc.lft.to/lastmile_qr_scan", "android": "https://dc.lft.to/lastmile_qr_scan"}}, {"is_disabled": 0, "fusion_lat": 0.0, "lat": 38.92065933333333, "type": "electric_scooter", "lon": -77.04379216666666, "is_reserved": 0, "fusion_lon": 0.0, "bike_id": "13d0e27850967e176c4d7560d07466db", "name": "13d0e27850967e176c4d7560d07466db", "rental_uris": {"ios": "https://dc.lft.to/lastmile_qr_scan", "android": "https://dc.lft.to/lastmile_qr_scan"}}, {"is_disabled": 0, "fusion_lat": 0.0, "lat": 38.915486666666666, "type": "electric_scooter", "lon": -77.04160116666667, "is_reserved": 0, "fusion_lon": 0.0, "bike_id": "155113cf931d4ad27e0b04e1e3a99277", "name": "155113cf931d4ad27e0b04e1e3a99277", "rental_uris": {"ios": "https://dc.lft.to/lastmile_qr_scan", "android": "https://dc.lft.to/lastmile_qr_scan"}}, {"is_disabled": 0, "fusion_lat": 0.0, "lat": 38.914517000000004, "type": "electric_scooter", "lon": -77.04604566666667, "is_reserved": 0, "fusion_lon": 0.0, "bike_id": "c367776206b888b1278eb32397ec29ec", "name": "c367776206b888b1278eb32397ec29ec", "rental_uris": {"ios": "https://dc.lft.to/lastmile_qr_scan", "android": "https://dc.lft.to/lastmile_qr_scan"}}, {"is_disabled": 0, "fusion_lat": 0.0, "lat": 38.902499, "type": "electric_scooter", "lon": -77.046112, "is_reserved": 0, "fusion_lon": 0.0, "bike_id": "8c5cee6cf8c9a38505ac183c212376d0", "name": "8c5cee6cf8c9a38505ac183c212376d0", "rental_uris": {"ios": "https://dc.lft.to/lastmile_qr_scan", "android": "https://dc.lft.to/lastmile_qr_scan"}}, {"is_disabled": 0, "fusion_lat": 0.0, "lat": 38.850586166666666, "type": "electric_bike", "lon": -76.97331283333334, "is_reserved": 0, "fusion_lon": 0.0, "bike_id": "514e86423cb0651e0d96424905395dbf", "name": "514e86423cb0651e0d96424905395dbf", "rental_uris": {"ios": "https://dc.lft.to/lastmile_qr_scan", "android": "https://dc.lft.to/lastmile_qr_scan"}}, {"is_disabled": 0, "fusion_lat": 0.0, "lat": 38.92563416666667, "type": "electric_scooter", "lon": -77.05270433333334, "is_reserved": 0, "fusion_lon": 0.0, "bike_id": "8c04abf1b74f4aa28dbacfdc77e15b44", "name": "8c04abf1b74f4aa28dbacfdc77e15b44", "rental_uris": {"ios": "https://dc.lft.to/lastmile_qr_scan", "android": "https://dc.lft.to/lastmile_qr_scan"}}, {"is_disabled": 0, "fusion_lat": 0.0, "lat": 38.9402035, "type": "electric_scooter", "lon": -77.07172466666667, "is_reserved": 0, "fusion_lon": 0.0, "bike_id": "e8b7c65fe5cf800afd3dfe3144556f9b", "name": "e8b7c65fe5cf800afd3dfe3144556f9b", "rental_uris": {"ios": "https://dc.lft.to/lastmile_qr_scan", "android": "https://dc.lft.to/lastmile_qr_scan"}}, {"is_disabled": 0, "fusion_lat": 0.0, "lat": 38.907097, "type": "electric_scooter", "lon": -77.029562, "is_reserved": 0, "fusion_lon": 0.0, "bike_id": "c7bf1c7e030e2c5a1b84049b2e97f5b0", "name": "c7bf1c7e030e2c5a1b84049b2e97f5b0", "rental_uris": {"ios": "https://dc.lft.to/lastmile_qr_scan", "android": "https://dc.lft.to/lastmile_qr_scan"}}, {"is_disabled": 0, "fusion_lat": 0.0, "lat": 38.9037245, "type": "electric_scooter", "lon": -77.04466566666666, "is_reserved": 0, "fusion_lon": 0.0, "bike_id": "c6cc0819795d6461d4bfe9063cff1a8e", "name": "c6cc0819795d6461d4bfe9063cff1a8e", "rental_uris": {"ios": "https://dc.lft.to/lastmile_qr_scan", "android": "https://dc.lft.to/lastmile_qr_scan"}}, {"is_disabled": 0, "fusion_lat": 0.0, "lat": 38.89615116666667, "type": "electric_scooter", "lon": -77.04414933333334, "is_reserved": 0, "fusion_lon": 0.0, "bike_id": "77949e3e14059e9ce0563fc6dc34e6ba", "name": "77949e3e14059e9ce0563fc6dc34e6ba", "rental_uris": {"ios": "https://dc.lft.to/lastmile_qr_scan", "android": "https://dc.lft.to/lastmile_qr_scan"}}, {"is_disabled": 0, "fusion_lat": 0.0, "lat": 38.910997, "type": "electric_scooter", "lon": -77.00214633333333, "is_reserved": 0, "fusion_lon": 0.0, "bike_id": "b061f1973df607d0055a4d85b0a313ed", "name": "b061f1973df607d0055a4d85b0a313ed", "rental_uris": {"ios": "https://dc.lft.to/lastmile_qr_scan", "android": "https://dc.lft.to/lastmile_qr_scan"}}, {"is_disabled": 0, "fusion_lat": 0.0, "lat": 38.902588333333334, "type": "electric_scooter", "lon": -77.01755883333334, "is_reserved": 0, "fusion_lon": 0.0, "bike_id": "2dfadcd9fa89d438f87162b70148a485", "name": "2dfadcd9fa89d438f87162b70148a485", "rental_uris": {"ios": "https://dc.lft.to/lastmile_qr_scan", "android": "https://dc.lft.to/lastmile_qr_scan"}}, {"is_disabled": 0, "fusion_lat": 0.0, "lat": 38.92146416666667, "type": "electric_scooter", "lon": -77.0421845, "is_reserved": 0, "fusion_lon": 0.0, "bike_id": "127256d029aff5f8926ccf783bb88d81", "name": "127256d029aff5f8926ccf783bb88d81", "rental_uris": {"ios": "https://dc.lft.to/lastmile_qr_scan", "android": "https://dc.lft.to/lastmile_qr_scan"}}, {"is_disabled": 0, "fusion_lat": 0.0, "lat": 38.930971166666666, "type": "electric_scooter", "lon": -77.025074, "is_reserved": 0, "fusion_lon": 0.0, "bike_id": "b088dcb17866f897c0985d27f6538918", "name": "b088dcb17866f897c0985d27f6538918", "rental_uris": {"ios": "https://dc.lft.to/lastmile_qr_scan", "android": "https://dc.lft.to/lastmile_qr_scan"}}, {"is_disabled": 0, "fusion_lat": 0.0, "lat": 38.91882583333334, "type": "electric_scooter", "lon": -77.039054, "is_reserved": 0, "fusion_lon": 0.0, "bike_id": "7e3a6893b944cd26a27af466d4abeebc", "name": "7e3a6893b944cd26a27af466d4abeebc", "rental_uris": {"ios": "https://dc.lft.to/lastmile_qr_scan", "android": "https://dc.lft.to/lastmile_qr_scan"}}, {"is_disabled": 0, "fusion_lat": 0.0, "lat": 38.921488833333335, "type": "electric_scooter", "lon": -77.02430333333334, "is_reserved": 0, "fusion_lon": 0.0, "bike_id": "86255e06cfddfb3d66c15f3f83c16670", "name": "86255e06cfddfb3d66c15f3f83c16670", "rental_uris": {"ios": "https://dc.lft.to/lastmile_qr_scan", "android": "https://dc.lft.to/lastmile_qr_scan"}}, {"is_disabled": 0, "fusion_lat": 0.0, "lat": 38.91865683333333, "type": "electric_scooter", "lon": -77.02595583333333, "is_reserved": 0, "fusion_lon": 0.0, "bike_id": "9f8f36ff8c103165e29fc5f090db7024", "name": "9f8f36ff8c103165e29fc5f090db7024", "rental_uris": {"ios": "https://dc.lft.to/lastmile_qr_scan", "android": "https://dc.lft.to/lastmile_qr_scan"}}, {"is_disabled": 0, "fusion_lat": 0.0, "lat": 38.895644833333336, "type": "electric_bike", "lon": -77.12736533333333, "is_reserved": 0, "fusion_lon": 0.0, "bike_id": "c6a7ac4a7687880758d18f007421f719", "name": "c6a7ac4a7687880758d18f007421f719", "rental_uris": {"ios": "https://dc.lft.to/lastmile_qr_scan", "android": "https://dc.lft.to/lastmile_qr_scan"}}, {"is_disabled": 0, "fusion_lat": 0.0, "lat": 38.896143333333335, "type": "electric_scooter", "lon": -76.95588733333334, "is_reserved": 0, "fusion_lon": 0.0, "bike_id": "df5d169f76754728bcd27518fee5f1fa", "name": "df5d169f76754728bcd27518fee5f1fa", "rental_uris": {"ios": "https://dc.lft.to/lastmile_qr_scan", "android": "https://dc.lft.to/lastmile_qr_scan"}}, {"is_disabled": 0, "fusion_lat": 0.0, "lat": 38.9141625, "type": "electric_scooter", "lon": -77.01956766666666, "is_reserved": 0, "fusion_lon": 0.0, "bike_id": "d441941a8f6f3e48fc21575935c246bf", "name": "d441941a8f6f3e48fc21575935c246bf", "rental_uris": {"ios": "https://dc.lft.to/lastmile_qr_scan", "android": "https://dc.lft.to/lastmile_qr_scan"}}, {"is_disabled": 0, "fusion_lat": 0.0, "lat": 38.905743, "type": "electric_scooter", "lon": -77.034904, "is_reserved": 0, "fusion_lon": 0.0, "bike_id": "ae16d3f80c2509dc7c3f9cf27c833516", "name": "ae16d3f80c2509dc7c3f9cf27c833516", "rental_uris": {"ios": "https://dc.lft.to/lastmile_qr_scan", "android": "https://dc.lft.to/lastmile_qr_scan"}}, {"is_disabled": 0, "fusion_lat": 0.0, "lat": 38.92322216666667, "type": "electric_scooter", "lon": -77.03958866666666, "is_reserved": 0, "fusion_lon": 0.0, "bike_id": "970ea42599779f3463fdd632c9c4356e", "name": "970ea42599779f3463fdd632c9c4356e", "rental_uris": {"ios": "https://dc.lft.to/lastmile_qr_scan", "android": "https://dc.lft.to/lastmile_qr_scan"}}, {"is_disabled": 0, "fusion_lat": 0.0, "lat": 38.917867, "type": "electric_scooter", "lon": -77.0231585, "is_reserved": 0, "fusion_lon": 0.0, "bike_id": "5de63d23685281b9268783b3b86dff18", "name": "5de63d23685281b9268783b3b86dff18", "rental_uris": {"ios": "https://dc.lft.to/lastmile_qr_scan", "android": "https://dc.lft.to/lastmile_qr_scan"}}, {"is_disabled": 0, "fusion_lat": 0.0, "lat": 38.904027666666664, "type": "electric_scooter", "lon": -77.03192983333334, "is_reserved": 0, "fusion_lon": 0.0, "bike_id": "311ef172fca62ed92ac56910fdf41e58", "name": "311ef172fca62ed92ac56910fdf41e58", "rental_uris": {"ios": "https://dc.lft.to/lastmile_qr_scan", "android": "https://dc.lft.to/lastmile_qr_scan"}}, {"is_disabled": 0, "fusion_lat": 0.0, "lat": 38.91680566666667, "type": "electric_scooter", "lon": -77.03687533333333, "is_reserved": 0, "fusion_lon": 0.0, "bike_id": "a3b60429244c68ecbcc371b7c36b80cd", "name": "a3b60429244c68ecbcc371b7c36b80cd", "rental_uris": {"ios": "https://dc.lft.to/lastmile_qr_scan", "android": "https://dc.lft.to/lastmile_qr_scan"}}, {"is_disabled": 0, "fusion_lat": 0.0, "lat": 38.876276, "type": "electric_scooter", "lon": -76.96526066666667, "is_reserved": 0, "fusion_lon": 0.0, "bike_id": "73bdd3ab2604497e2fcf7562f5a7e683", "name": "73bdd3ab2604497e2fcf7562f5a7e683", "rental_uris": {"ios": "https://dc.lft.to/lastmile_qr_scan", "android": "https://dc.lft.to/lastmile_qr_scan"}}, {"is_disabled": 0, "fusion_lat": 0.0, "lat": 38.9101255, "type": "electric_scooter", "lon": -77.02916383333333, "is_reserved": 0, "fusion_lon": 0.0, "bike_id": "7660bf86763a34ab65776f141db52722", "name": "7660bf86763a34ab65776f141db52722", "rental_uris": {"ios": "https://dc.lft.to/lastmile_qr_scan", "android": "https://dc.lft.to/lastmile_qr_scan"}}, {"is_disabled": 0, "fusion_lat": 0.0, "lat": 38.92184116666667, "type": "electric_scooter", "lon": -77.03208933333333, "is_reserved": 0, "fusion_lon": 0.0, "bike_id": "6fc17a48a94f8e94d0ec231b55185011", "name": "6fc17a48a94f8e94d0ec231b55185011", "rental_uris": {"ios": "https://dc.lft.to/lastmile_qr_scan", "android": "https://dc.lft.to/lastmile_qr_scan"}}, {"is_disabled": 0, "fusion_lat": 0.0, "lat": 38.89329133333333, "type": "electric_scooter", "lon": -76.92991466666666, "is_reserved": 0, "fusion_lon": 0.0, "bike_id": "df0e9ef9cde7c9178dc937a612a441b0", "name": "df0e9ef9cde7c9178dc937a612a441b0", "rental_uris": {"ios": "https://dc.lft.to/lastmile_qr_scan", "android": "https://dc.lft.to/lastmile_qr_scan"}}, {"is_disabled": 0, "fusion_lat": 0.0, "lat": 38.90512983333333, "type": "electric_scooter", "lon": -76.9883805, "is_reserved": 0, "fusion_lon": 0.0, "bike_id": "810a06194e5b06fdec5fc3e44e725609", "name": "810a06194e5b06fdec5fc3e44e725609", "rental_uris": {"ios": "https://dc.lft.to/lastmile_qr_scan", "android": "https://dc.lft.to/lastmile_qr_scan"}}, {"is_disabled": 0, "fusion_lat": 0.0, "lat": 38.8997405, "type": "electric_scooter", "lon": -77.0216265, "is_reserved": 0, "fusion_lon": 0.0, "bike_id": "50c7a36da18195c55ce38611691ec8fc", "name": "50c7a36da18195c55ce38611691ec8fc", "rental_uris": {"ios": "https://dc.lft.to/lastmile_qr_scan", "android": "https://dc.lft.to/lastmile_qr_scan"}}, {"is_disabled": 0, "fusion_lat": 0.0, "lat": 38.90506, "type": "electric_scooter", "lon": -77.0513365, "is_reserved": 0, "fusion_lon": 0.0, "bike_id": "1c169b355731d55c99bf69d2312265c9", "name": "1c169b355731d55c99bf69d2312265c9", "rental_uris": {"ios": "https://dc.lft.to/lastmile_qr_scan", "android": "https://dc.lft.to/lastmile_qr_scan"}}, {"is_disabled": 0, "fusion_lat": 0.0, "lat": 38.87368816666667, "type": "electric_scooter", "lon": -77.00095683333333, "is_reserved": 0, "fusion_lon": 0.0, "bike_id": "9869ac92a978089375a66a90b9bafdd6", "name": "9869ac92a978089375a66a90b9bafdd6", "rental_uris": {"ios": "https://dc.lft.to/lastmile_qr_scan", "android": "https://dc.lft.to/lastmile_qr_scan"}}, {"is_disabled": 0, "fusion_lat": 0.0, "lat": 38.90319616666667, "type": "electric_scooter", "lon": -77.05171483333334, "is_reserved": 0, "fusion_lon": 0.0, "bike_id": "d1a4c4a22648b1908a662dbe542e65e6", "name": "d1a4c4a22648b1908a662dbe542e65e6", "rental_uris": {"ios": "https://dc.lft.to/lastmile_qr_scan", "android": "https://dc.lft.to/lastmile_qr_scan"}}, {"is_disabled": 0, "fusion_lat": 0.0, "lat": 38.89222266666667, "type": "electric_scooter", "lon": -77.04444766666667, "is_reserved": 0, "fusion_lon": 0.0, "bike_id": "899585c44f4d9d6f3943081c8cddead2", "name": "899585c44f4d9d6f3943081c8cddead2", "rental_uris": {"ios": "https://dc.lft.to/lastmile_qr_scan", "android": "https://dc.lft.to/lastmile_qr_scan"}}, {"is_disabled": 0, "fusion_lat": 0.0, "lat": 38.91429133333333, "type": "electric_scooter", "lon": -77.03204616666666, "is_reserved": 0, "fusion_lon": 0.0, "bike_id": "a8135b09f19ed5e2028f60df009e6c6e", "name": "a8135b09f19ed5e2028f60df009e6c6e", "rental_uris": {"ios": "https://dc.lft.to/lastmile_qr_scan", "android": "https://dc.lft.to/lastmile_qr_scan"}}, {"is_disabled": 0, "fusion_lat": 0.0, "lat": 38.91761266666666, "type": "electric_scooter", "lon": -77.004028, "is_reserved": 0, "fusion_lon": 0.0, "bike_id": "a7796550555c185a77326b95cea91851", "name": "a7796550555c185a77326b95cea91851", "rental_uris": {"ios": "https://dc.lft.to/lastmile_qr_scan", "android": "https://dc.lft.to/lastmile_qr_scan"}}, {"is_disabled": 0, "fusion_lat": 0.0, "lat": 38.923610333333336, "type": "electric_scooter", "lon": -77.05129883333333, "is_reserved": 0, "fusion_lon": 0.0, "bike_id": "54f01b787f0d2ae2aec17eb6901e0a80", "name": "54f01b787f0d2ae2aec17eb6901e0a80", "rental_uris": {"ios": "https://dc.lft.to/lastmile_qr_scan", "android": "https://dc.lft.to/lastmile_qr_scan"}}, {"is_disabled": 0, "fusion_lat": 0.0, "lat": 38.90777083333333, "type": "electric_scooter", "lon": -77.0386485, "is_reserved": 0, "fusion_lon": 0.0, "bike_id": "adb7ef8d9ba1d0732b8f9857cbb5395f", "name": "adb7ef8d9ba1d0732b8f9857cbb5395f", "rental_uris": {"ios": "https://dc.lft.to/lastmile_qr_scan", "android": "https://dc.lft.to/lastmile_qr_scan"}}, {"is_disabled": 0, "fusion_lat": 0.0, "lat": 38.913998666666664, "type": "electric_scooter", "lon": -77.0392635, "is_reserved": 0, "fusion_lon": 0.0, "bike_id": "f1e424490c98920eb22f14abdf582ce2", "name": "f1e424490c98920eb22f14abdf582ce2", "rental_uris": {"ios": "https://dc.lft.to/lastmile_qr_scan", "android": "https://dc.lft.to/lastmile_qr_scan"}}, {"is_disabled": 0, "fusion_lat": 0.0, "lat": 38.872416, "type": "electric_scooter", "lon": -76.9772385, "is_reserved": 0, "fusion_lon": 0.0, "bike_id": "fc9e9113e464ba338b2cfbc0ef08e7f1", "name": "fc9e9113e464ba338b2cfbc0ef08e7f1", "rental_uris": {"ios": "https://dc.lft.to/lastmile_qr_scan", "android": "https://dc.lft.to/lastmile_qr_scan"}}, {"is_disabled": 0, "fusion_lat": 0.0, "lat": 38.92132516666667, "type": "electric_scooter", "lon": -77.01782333333334, "is_reserved": 0, "fusion_lon": 0.0, "bike_id": "88596498ee8eef66d10246a9e2bba7c3", "name": "88596498ee8eef66d10246a9e2bba7c3", "rental_uris": {"ios": "https://dc.lft.to/lastmile_qr_scan", "android": "https://dc.lft.to/lastmile_qr_scan"}}, {"is_disabled": 0, "fusion_lat": 0.0, "lat": 38.89531233333334, "type": "electric_scooter", "lon": -76.9489155, "is_reserved": 0, "fusion_lon": 0.0, "bike_id": "1e20f81db26891a61f937f371650dee2", "name": "1e20f81db26891a61f937f371650dee2", "rental_uris": {"ios": "https://dc.lft.to/lastmile_qr_scan", "android": "https://dc.lft.to/lastmile_qr_scan"}}, {"is_disabled": 0, "fusion_lat": 0.0, "lat": 38.855253, "type": "electric_scooter", "lon": -76.96918616666666, "is_reserved": 0, "fusion_lon": 0.0, "bike_id": "bddb682bd8e03cd426f9eae09c0cd6f0", "name": "bddb682bd8e03cd426f9eae09c0cd6f0", "rental_uris": {"ios": "https://dc.lft.to/lastmile_qr_scan", "android": "https://dc.lft.to/lastmile_qr_scan"}}, {"is_disabled": 0, "fusion_lat": 0.0, "lat": 38.901694, "type": "electric_scooter", "lon": -76.9806775, "is_reserved": 0, "fusion_lon": 0.0, "bike_id": "e7f0903e41320f5af7d460173d568464", "name": "e7f0903e41320f5af7d460173d568464", "rental_uris": {"ios": "https://dc.lft.to/lastmile_qr_scan", "android": "https://dc.lft.to/lastmile_qr_scan"}}, {"is_disabled": 0, "fusion_lat": 0.0, "lat": 38.91173383333334, "type": "electric_scooter", "lon": -77.068278, "is_reserved": 0, "fusion_lon": 0.0, "bike_id": "682d9b8d2921f3e997ec72cd83723868", "name": "682d9b8d2921f3e997ec72cd83723868", "rental_uris": {"ios": "https://dc.lft.to/lastmile_qr_scan", "android": "https://dc.lft.to/lastmile_qr_scan"}}, {"is_disabled": 0, "fusion_lat": 0.0, "lat": 38.986483666666665, "type": "electric_bike", "lon": -77.05636383333334, "is_reserved": 0, "fusion_lon": 0.0, "bike_id": "b799beebb604f99793b58e9d0c55919b", "name": "b799beebb604f99793b58e9d0c55919b", "rental_uris": {"ios": "https://dc.lft.to/lastmile_qr_scan", "android": "https://dc.lft.to/lastmile_qr_scan"}},