{"data": {"bikes": [{"is_reserved": 0, "bike_id": "4b667fc326c7494e0f1c51024178ad57", "type": "electric_bike", "name": "4b667fc326c7494e0f1c51024178ad57", "is_disabled": 0, "fusion_lon": 0.0, "rental_uris": {"android": "https://dc.lft.to/lastmile_qr_scan", "ios": "https://dc.lft.to/lastmile_qr_scan"}, "lat": 38.9922805, "lon": -77.035855, "fusion_lat": 0.0}, {"is_reserved": 0, "bike_id": "3351d56451d6da22e83b815c230e7ba2", "type": "electric_scooter", "name": "3351d56451d6da22e83b815c230e7ba2", "is_disabled": 0, "fusion_lon": 0.0, "rental_uris": {"android": "https://dc.lft.to/lastmile_qr_scan", "ios": "https://dc.lft.to/lastmile_qr_scan"}, "lat": 38.94740816666667, "lon": -77.02367583333333, "fusion_lat": 0.0}, {"is_reserved": 0, "bike_id": "236ab7bf361b6b2e78eeebeab6ac239a", "type": "electric_bike", "name": "236ab7bf361b6b2e78eeebeab6ac239a", "is_disabled": 0, "fusion_lon": 0.0, "rental_uris": {"android": "https://dc.lft.to/lastmile_qr_scan", "ios": "https://dc.lft.to/lastmile_qr_scan"}, "lat": 38.836063333333335, "lon": -77.00374783333334, "fusion_lat": 0.0}, {"is_reserved": 0, "bike_id": "c50ec3722dc70e129473a6aaa4e28177", "type": "electric_scooter", "name": "c50ec3722dc70e129473a6aaa4e28177", "is_disabled": 0, "fusion_lon": 0.0, "rental_uris": {"android": "https://dc.lft.to/lastmile_qr_scan", "ios": "https://dc.lft.to/lastmile_qr_scan"}, "lat": 38.904663, "lon": -77.016401, "fusion_lat": 0.0}, {"is_reserved": 0, "bike_id": "495e48cb804f65c34e2808651bb110f4", "type": "electric_scooter", "name": "495e48cb804f65c34e2808651bb110f4", "is_disabled": 0, "fusion_lon": 0.0, "rental_uris": {"android": "https://dc.lft.to/lastmile_qr_scan", "ios": "https://dc.lft.to/lastmile_qr_scan"}, "lat": 38.89736766666667, "lon": -77.0078005, "fusion_lat": 0.0}, {"is_reserved": 0, "bike_id": "66243f0f57e3b0e57d2c57813aa0968c", "type": "electric_scooter", "name": "66243f0f57e3b0e57d2c57813aa0968c", "is_disabled": 0, "fusion_lon": 0.0, "rental_uris": {"android": "https://dc.lft.to/lastmile_qr_scan", "ios": "https://dc.lft.to/lastmile_qr_scan"}, "lat": 38.899804333333336, "lon": -77.02813816666666, "fusion_lat": 0.0}, {"is_reserved": 0, "bike_id": "76d9dd903dafceaccc09245008906230", "type": "electric_scooter", "name": "76d9dd903dafceaccc09245008906230", "is_disabled": 0, "fusion_lon": 0.0, "rental_uris": {"android": "https://dc.lft.to/lastmile_qr_scan", "ios": "https://dc.lft.to/lastmile_qr_scan"}, "lat": 38.897543166666665, "lon": -77.027, "fusion_lat": 0.0}, {"is_reserved": 0, "bike_id": "fdcd5ade289b1333f47b9e83d1429d12", "type": "electric_scooter", "name": "fdcd5ade289b1333f47b9e83d1429d12", "is_disabled": 0, "fusion_lon": 0.0, "rental_uris": {"android": "https://dc.lft.to/lastmile_qr_scan", "ios": "https://dc.lft.to/lastmile_qr_scan"}, "lat": 38.931892, "lon": -77.0387145, "fusion_lat": 0.0}, {"is_reserved": 0, "bike_id": "36221ba5bf25015b6054458a8db3fd7c", "type": "electric_bike", "name": "36221ba5bf25015b6054458a8db3fd7c", "is_disabled": 0, "fusion_lon": 0.0, "rental_uris": {"android": "https://dc.lft.to/lastmile_qr_scan", "ios": "https://dc.lft.to/lastmile_qr_scan"}, "lat": 38.838043666666664, "lon": -77.00274, "fusion_lat": 0.0}, {"is_reserved": 0, "bike_id": "9cfd654cc84814c97566e021d7fa7b62", "type": "electric_scooter", "name": "9cfd654cc84814c97566e021d7fa7b62", "is_disabled": 0, "fusion_lon": 0.0, "rental_uris": {"android": "https://dc.lft.to/lastmile_qr_scan", "ios": "https://dc.lft.to/lastmile_qr_scan"}, "lat": 38.915861666666665, "lon": -77.014579, "fusion_lat": 0.0}, {"is_reserved": 0, "bike_id": "9e85d1fbd407e499320bb8d8796056f4", "type": "electric_scooter", "name": "9e85d1fbd407e499320bb8d8796056f4", "is_disabled": 0, "fusion_lon": 0.0, "rental_uris": {"android": "https://dc.lft.to/lastmile_qr_scan", "ios": "https://dc.lft.to/lastmile_qr_scan"}, "lat": 38.91571916666667, "lon": -77.01991616666666, "fusion_lat": 0.0}, {"is_reserved": 0, "bike_id": "e16226b3f4b2f486446cd42d103f7957", "type": "electric_scooter", "name": "e16226b3f4b2f486446cd42d103f7957", "is_disabled": 0, "fusion_lon": 0.0, "rental_uris": {"android": "https://dc.lft.to/lastmile_qr_scan", "ios": "https://dc.lft.to/lastmile_qr_scan"}, "lat": 38.91935566666667, "lon": -77.0343045, "fusion_lat": 0.0}, {"is_reserved": 0, "bike_id": "6de2dfff4a17738047fe41dbfbe230fb", "type": "electric_scooter", "name": "6de2dfff4a17738047fe41dbfbe230fb", "is_disabled": 0, "fusion_lon": 0.0, "rental_uris": {"android": "https://dc.lft.to/lastmile_qr_scan", "ios": "https://dc.lft.to/lastmile_qr_scan"}, "lat": 38.96647566666667, "lon": -77.02743266666667, "fusion_lat": 0.0}, {"is_reserved": 0, "bike_id": "7e445680149132280c090e9cac1a6327", "type": "electric_scooter", "name": "7e445680149132280c090e9cac1a6327", "is_disabled": 0, "fusion_lon": 0.0, "rental_uris": {"android": "https://dc.lft.to/lastmile_qr_scan", "ios": "https://dc.lft.to/lastmile_qr_scan"}, "lat": 38.9208755, "lon": -77.02522933333333, "fusion_lat": 0.0}, {"is_reserved": 0, "bike_id": "5df897880598796d82a85a460de8bba1", "type": "electric_scooter", "name": "5df897880598796d82a85a460de8bba1", "is_disabled": 0, "fusion_lon": 0.0, "rental_uris": {"android": "https://dc.lft.to/lastmile_qr_scan", "ios": "https://dc.lft.to/lastmile_qr_scan"}, "lat": 38.90898716666667, "lon": -76.99895966666666, "fusion_lat": 0.0}, {"is_reserved": 0, "bike_id": "ccad1878b07585e49c170e432e96d122", "type": "electric_scooter", "name": "ccad1878b07585e49c170e432e96d122", "is_disabled": 0, "fusion_lon": 0.0, "rental_uris": {"android": "https://dc.lft.to/lastmile_qr_scan", "ios": "https://dc.lft.to/lastmile_qr_scan"}, "lat": 38.9097145, "lon": -77.04016916666667, "fusion_lat": 0.0}, {"is_reserved": 0, "bike_id": "5d00a13f1ad982ec4f44a0a2045d7fa3", "type": "electric_scooter", "name": "5d00a13f1ad982ec4f44a0a2045d7fa3", "is_disabled": 0, "fusion_lon": 0.0, "rental_uris": {"android": "https://dc.lft.to/lastmile_qr_scan", "ios": "https://dc.lft.to/lastmile_qr_scan"}, "lat": 38.8972245, "lon": -76.98358983333333, "fusion_lat": 0.0}, {"is_reserved": 0, "bike_id": "3e6e80c061ec0433456992e2f9fc75d8", "type": "electric_scooter", "name": "3e6e80c061ec0433456992e2f9fc75d8", "is_disabled": 0, "fusion_lon": 0.0, "rental_uris": {"android": "https://dc.lft.to/lastmile_qr_scan", "ios": "https://dc.lft.to/lastmile_qr_scan"}, "lat": 38.8763275, "lon": -77.00957266666667, "fusion_lat": 0.0}, {"is_reserved": 0, "bike_id": "f05614000286f6a95144ae5c638c0494", "type": "electric_scooter", "name": "f05614000286f6a95144ae5c638c0494", "is_disabled": 0, "fusion_lon": 0.0, "rental_uris": {"android": "https://dc.lft.to/lastmile_qr_scan", "ios": "https://dc.lft.to/lastmile_qr_scan"}, "lat": 38.901590666666664, "lon": -77.05921383333333, "fusion_lat": 0.0}, {"is_reserved": 0, "bike_id": "67b782b0d0b38c271851e1ba9d2c0914", "type": "electric_scooter", "name": "67b782b0d0b38c271851e1ba9d2c0914", "is_disabled": 0, "fusion_lon": 0.0, "rental_uris": {"android": "https://dc.lft.to/lastmile_qr_scan", "ios": "https://dc.lft.to/lastmile_qr_scan"}, "lat": 38.88125816666667, "lon": -76.993445, "fusion_lat": 0.0}, {"is_reserved": 0, "bike_id": "c7d1bbb6d5813bab7b3aa1b239bd2742", "type": "electric_scooter", "name": "c7d1bbb6d5813bab7b3aa1b239bd2742", "is_disabled": 0, "fusion_lon": 0.0, "rental_uris": {"android": "https://dc.lft.to/lastmile_qr_scan", "ios": "https://dc.lft.to/lastmile_qr_scan"}, "lat": 38.89843783333333, "lon": -77.01372766666667, "fusion_lat": 0.0}, {"is_reserved": 0, "bike_id": "191a5930cd7478771c414c4a98b59268", "type": "electric_scooter", "name": "191a5930cd7478771c414c4a98b59268", "is_disabled": 0, "fusion_lon": 0.0, "rental_uris": {"android": "https://dc.lft.to/lastmile_qr_scan", "ios": "https://dc.lft.to/lastmile_qr_scan"}, "lat": 38.91189766666667, "lon": -77.00734633333333, "fusion_lat": 0.0}, {"is_reserved": 0, "bike_id": "12aaf6a60bf91d91429134ea4ff53216", "type": "electric_scooter", "name": "12aaf6a60bf91d91429134ea4ff53216", "is_disabled": 0, "fusion_lon": 0.0, "rental_uris": {"android": "https://dc.lft.to/lastmile_qr_scan", "ios": "https://dc.lft.to/lastmile_qr_scan"}, "lat": 38.914785333333334, "lon": -77.04547066666667, "fusion_lat": 0.0}, {"is_reserved": 0, "bike_id": "6b2f01e32f6c4fe073906f387086a210", "type": "electric_scooter", "name": "6b2f01e32f6c4fe073906f387086a210", "is_disabled": 0, "fusion_lon": 0.0, "rental_uris": {"android": "https://dc.lft.to/lastmile_qr_scan", "ios": "https://dc.lft.to/lastmile_qr_scan"}, "lat": 38.926551333333336, "lon": -76.9954305, "fusion_lat": 0.0}, {"is_reserved": 0, "bike_id": "0afece850147ba98e83b6d7207e8dc1c", "type": "electric_bike", "name": "0afece850147ba98e83b6d7207e8dc1c", "is_disabled": 0, "fusion_lon": 0.0, "rental_uris": {"android": "https://dc.lft.to/lastmile_qr_scan", "ios": "https://dc.lft.to/lastmile_qr_scan"}, "lat": 38.90697516666667, "lon": -76.95254116666666, "fusion_lat": 0.0}, {"is_reserved": 0, "bike_id": "793ca84f203e643832f0d4fd0a3300bb", "type": "electric_scooter", "name": "793ca84f203e643832f0d4fd0a3300bb", "is_disabled": 0, "fusion_lon": 0.0, "rental_uris": {"android": "https://dc.lft.to/lastmile_qr_scan", "ios": "https://dc.lft.to/lastmile_qr_scan"}, "lat": 38.89359566666667, "lon": -77.0033945, "fusion_lat": 0.0}, {"is_reserved": 0, "bike_id": "16185ac8ecaef2a5a727379363634481", "type": "electric_scooter", "name": "16185ac8ecaef2a5a727379363634481", "is_disabled": 0, "fusion_lon": 0.0, "rental_uris": {"android": "https://dc.lft.to/lastmile_qr_scan", "ios": "https://dc.lft.to/lastmile_qr_scan"}, "lat": 38.92362516666667, "lon": -77.03394883333333, "fusion_lat": 0.0}, {"is_reserved": 0, "bike_id": "71c186e85698ed30621af7b43cabbbb6", "type": "electric_scooter", "name": "71c186e85698ed30621af7b43cabbbb6", "is_disabled": 0, "fusion_lon": 0.0, "rental_uris": {"android": "https://dc.lft.to/lastmile_qr_scan", "ios": "https://dc.lft.to/lastmile_qr_scan"}, "lat": 38.895484, "lon": -77.00919716666667, "fusion_lat": 0.0}, {"is_reserved": 0, "bike_id": "9ff91c5c4e2780e679a2cb8a61d974d7", "type": "electric_scooter", "name": "9ff91c5c4e2780e679a2cb8a61d974d7", "is_disabled": 0, "fusion_lon": 0.0, "rental_uris": {"android": "https://dc.lft.to/lastmile_qr_scan", "ios": "https://dc.lft.to/lastmile_qr_scan"}, "lat": 38.92245033333333, "lon": -77.0336765, "fusion_lat": 0.0}, {"is_reserved": 0, "bike_id": "9fb543d1e50808b061a0a549ae9bffe1", "type": "electric_scooter", "name": "9fb543d1e50808b061a0a549ae9bffe1", "is_disabled": 0, "fusion_lon": 0.0, "rental_uris": {"android": "https://dc.lft.to/lastmile_qr_scan", "ios": "https://dc.lft.to/lastmile_qr_scan"}, "lat": 38.936196, "lon": -77.03279483333333, "fusion_lat": 0.0}, {"is_reserved": 0, "bike_id": "58ee65d069a457ad13c158d8dccb3e45", "type": "electric_scooter", "name": "58ee65d069a457ad13c158d8dccb3e45", "is_disabled": 0, "fusion_lon": 0.0, "rental_uris": {"android": "https://dc.lft.to/lastmile_qr_scan", "ios": "https://dc.lft.to/lastmile_qr_scan"}, "lat": 38.93195083333333, "lon": -77.03748766666666, "fusion_lat": 0.0}, {"is_reserved": 0, "bike_id": "560582b691149dbe727a02b2eade205b", "type": "electric_scooter", "name": "560582b691149dbe727a02b2eade205b", "is_disabled": 0, "fusion_lon": 0.0, "rental_uris": {"android": "https://dc.lft.to/lastmile_qr_scan", "ios": "https://dc.lft.to/lastmile_qr_scan"}, "lat": 38.9385875, "lon": -77.0246115, "fusion_lat": 0.0}, {"is_reserved": 0, "bike_id": "36244862dbb7570612ee2c7186053e37", "type": "electric_scooter", "name": "36244862dbb7570612ee2c7186053e37", "is_disabled": 0, "fusion_lon": 0.0, "rental_uris": {"android": "https://dc.lft.to/lastmile_qr_scan", "ios": "https://dc.lft.to/lastmile_qr_scan"}, "lat": 38.89187966666667, "lon": -76.9985125, "fusion_lat": 0.0}, {"is_reserved": 0, "bike_id": "04fb2b5dcbc02db9821afdc928106280", "type": "electric_scooter", "name": "04fb2b5dcbc02db9821afdc928106280", "is_disabled": 0, "fusion_lon": 0.0, "rental_uris": {"android": "https://dc.lft.to/lastmile_qr_scan", "ios": "https://dc.lft.to/lastmile_qr_scan"}, "lat": 38.9408905, "lon": -77.02324116666666, "fusion_lat": 0.0}, {"is_reserved": 0, "bike_id": "8ea7edde2ef01b3951280f81d600eb60", "type": "electric_bike", "name": "8ea7edde2ef01b3951280f81d600eb60", "is_disabled": 0, "fusion_lon": 0.0, "rental_uris": {"android": "https://dc.lft.to/lastmile_qr_scan", "ios": "https://dc.lft.to/lastmile_qr_scan"}, "lat": 38.882493333333336, "lon": -76.96255883333333, "fusion_lat": 0.0}, {"is_reserved": 0, "bike_id": "006ea87f7b332a9e2bd2af42b28662b7", "type": "electric_scooter", "name": "006ea87f7b332a9e2bd2af42b28662b7", "is_disabled": 0, "fusion_lon": 0.0, "rental_uris": {"android": "https://dc.lft.to/lastmile_qr_scan", "ios": "https://dc.lft.to/lastmile_qr_scan"}, "lat": 38.904621666666664, "lon": -77.02950383333334, "fusion_lat": 0.0}, {"is_reserved": 0, "bike_id": "8259c127a94eec470353f174ddd7c779", "type": "electric_scooter", "name": "8259c127a94eec470353f174ddd7c779", "is_disabled": 0, "fusion_lon": 0.0, "rental_uris": {"android": "https://dc.lft.to/lastmile_qr_scan", "ios": "https://dc.lft.to/lastmile_qr_scan"}, "lat": 38.8755895, "lon": -77.00604783333333, "fusion_lat": 0.0}, {"is_reserved": 0, "bike_id": "72439ce510b0d82e3f7ded7b03168bfc", "type": "electric_scooter", "name": "72439ce510b0d82e3f7ded7b03168bfc", "is_disabled": 0, "fusion_lon": 0.0, "rental_uris": {"android": "https://dc.lft.to/lastmile_qr_scan", "ios": "https://dc.lft.to/lastmile_qr_scan"}, "lat": 38.914240166666666, "lon": -77.01804516666667, "fusion_lat": 0.0}, {"is_reserved": 0, "bike_id": "702243f9fd6a314d306f05f1cc2fc4e0", "type": "electric_scooter", "name": "702243f9fd6a314d306f05f1cc2fc4e0", "is_disabled": 0, "fusion_lon": 0.0, "rental_uris": {"android": "https://dc.lft.to/lastmile_qr_scan", "ios": "https://dc.lft.to/lastmile_qr_scan"}, "lat": 38.90648266666667, "lon": -77.00606183333333, "fusion_lat": 0.0}, {"is_reserved": 0, "bike_id": "0468a1039e740836ef8ba070d7774f4d", "type": "electric_scooter", "name": "0468a1039e740836ef8ba070d7774f4d", "is_disabled": 0, "fusion_lon": 0.0, "rental_uris": {"android": "https://dc.lft.to/lastmile_qr_scan", "ios": "https://dc.lft.to/lastmile_qr_scan"}, "lat": 38.912771166666666, "lon": -77.02389466666666, "fusion_lat": 0.0}, {"is_reserved": 0, "bike_id": "79e6a49f7707081afdc3bcefa5be4252", "type": "electric_scooter", "name": "79e6a49f7707081afdc3bcefa5be4252", "is_disabled": 0, "fusion_lon": 0.0, "rental_uris": {"android": "https://dc.lft.to/lastmile_qr_scan", "ios": "https://dc.lft.to/lastmile_qr_scan"}, "lat": 38.92340016666667, "lon": -77.036165, "fusion_lat": 0.0}, {"is_reserved": 0, "bike_id": "dd250820edf180b39c55dc53b02dfbf8", "type": "electric_scooter", "name": "dd250820edf180b39c55dc53b02dfbf8", "is_disabled": 0, "fusion_lon": 0.0, "rental_uris": {"android": "https://dc.lft.to/lastmile_qr_scan", "ios": "https://dc.lft.to/lastmile_qr_scan"}, "lat": 38.88747166666667, "lon": -77.0314945, "fusion_lat": 0.0}, {"is_reserved": 0, "bike_id": "71cbe51742a5ad4f9fbada7a0e1aba14", "type": "electric_scooter", "name": "71cbe51742a5ad4f9fbada7a0e1aba14", "is_disabled": 0, "fusion_lon": 0.0, "rental_uris": {"android": "https://dc.lft.to/lastmile_qr_scan", "ios": "https://dc.lft.to/lastmile_qr_scan"}, "lat": 38.904130333333335, "lon": -77.06283166666667, "fusion_lat": 0.0}, {"is_reserved": 0, "bike_id": "6d134dfc1a8a40886e1dc6f374ba8674", "type": "electric_bike", "name": "6d134dfc1a8a40886e1dc6f374ba8674", "is_disabled": 0, "fusion_lon": 0.0, "rental_uris": {"android": "https://dc.lft.to/lastmile_qr_scan", "ios": "https://dc.lft.to/lastmile_qr_scan"}, "lat": 38.950683833333336, "lon": -76.99602116666667, "fusion_lat": 0.0}, {"is_reserved": 0, "bike_id": "a7bf40818e0de5e775dbe92a6d205f7f", "type": "electric_scooter", "name": "a7bf40818e0de5e775dbe92a6d205f7f", "is_disabled": 0, "fusion_lon": 0.0, "rental_uris": {"android": "https://dc.lft.to/lastmile_qr_scan", "ios": "https://dc.lft.to/lastmile_qr_scan"}, "lat": 38.924763166666665, "lon": -77.02989266666667, "fusion_lat": 0.0}, {"is_reserved": 0, "bike_id": "fc3f8471c0b8a7422f8e0924c0d30438", "type": "electric_scooter", "name": "fc3f8471c0b8a7422f8e0924c0d30438", "is_disabled": 0, "fusion_lon": 0.0, "rental_uris": {"android": "https://dc.lft.to/lastmile_qr_scan", "ios": "https://dc.lft.to/lastmile_qr_scan"}, "lat": 38.904193666666664, "lon": -77.06842083333333, "fusion_lat": 0.0}, {"is_reserved": 0, "bike_id": "b2a4edf9d4ad3b98f746cadae9820ede", "type": "electric_scooter", "name": "b2a4edf9d4ad3b98f746cadae9820ede", "is_disabled": 0, "fusion_lon": 0.0, "rental_uris": {"android": "https://dc.lft.to/lastmile_qr_scan", "ios": "https://dc.lft.to/lastmile_qr_scan"}, "lat": 38.90169216666666, "lon": -77.04164983333334, "fusion_lat": 0.0}, {"is_reserved": 0, "bike_id": "564ad4843f1c14666ae29c4045e1b11c", "type": "electric_scooter", "name": "564ad4843f1c14666ae29c4045e1b11c", "is_disabled": 0, "fusion_lon": 0.0, "rental_uris": {"android": "https://dc.lft.to/lastmile_qr_scan", "ios": "https://dc.lft.to/lastmile_qr_scan"}, "lat": 38.906555833333336, "lon": -77.0111245, "fusion_lat": 0.0}, {"is_reserved": 0, "bike_id": "da4773e5f0d020926ff38b59946a4a5e", "type": "electric_scooter", "name": "da4773e5f0d020926ff38b59946a4a5e", "is_disabled": 0, "fusion_lon": 0.0, "rental_uris": {"android": "https://dc.lft.to/lastmile_qr_scan", "ios": "https://dc.lft.to/lastmile_qr_scan"}, "lat": 38.916422833333336, "lon": -77.02879833333333, "fusion_lat": 0.0}, {"is_reserved": 0, "bike_id": "3147e5fec96269fefe7d474072075dbb", "type": "electric_scooter", "name": "3147e5fec96269fefe7d474072075dbb", "is_disabled": 0, "fusion_lon": 0.0, "rental_uris": {"android": "https://dc.lft.to/lastmile_qr_scan", "ios": "https://dc.lft.to/lastmile_qr_scan"}, "lat": 38.92443516666667, "lon": -77.03316266666667, "fusion_lat": 0.0}, {"is_reserved": 0, "bike_id": "27bfd3daedff980e0a60d2df4721faf8", "type": "electric_scooter", "name": "27bfd3daedff980e0a60d2df4721faf8", "is_disabled": 0, "fusion_lon": 0.0, "rental_uris": {"android": "https://dc.lft.to/lastmile_qr_scan", "ios": "https://dc.lft.to/lastmile_qr_scan"}, "lat": 38.90820733333334, "lon": -76.99460483333333, "fusion_lat": 0.0}, {"is_reserved": 0, "bike_id": "fe1a7f76af10a10894b5b4fbc6a01c2a", "type": "electric_scooter", "name": "fe1a7f76af10a10894b5b4fbc6a01c2a", "is_disabled": 0, "fusion_lon": 0.0, "rental_uris": {"android": "https://dc.lft.to/lastmile_qr_scan", "ios": "https://dc.lft.to/lastmile_qr_scan"}, "lat": 38.942653, "lon": -77.0298355, "fusion_lat": 0.0}, {"is_reserved": 0, "bike_id": "9fc27d9a9d3b7963a9cb5b6982d4fad2", "type": "electric_scooter", "name": "9fc27d9a9d3b7963a9cb5b6982d4fad2", "is_disabled": 0, "fusion_lon": 0.0, "rental_uris": {"android": "https://dc.lft.to/lastmile_qr_scan", "ios": "https://dc.lft.to/lastmile_qr_scan"}, "lat": 38.929797, "lon": -77.0261795, "fusion_lat": 0.0}, {"is_reserved": 0, "bike_id": "bb05e1c336fdb83f90daee0751cd5bb3", "type": "electric_scooter", "name": "bb05e1c336fdb83f90daee0751cd5bb3", "is_disabled": 0, "fusion_lon": 0.0, "rental_uris": {"android": "https://dc.lft.to/lastmile_qr_scan", "ios": "https://dc.lft.to/lastmile_qr_scan"}, "lat": 38.92158116666667, "lon": -77.01811583333334, "fusion_lat": 0.0}, {"is_reserved": 0, "bike_id": "85440ae50231b73e570f4ea457a68b36", "type": "electric_scooter", "name": "85440ae50231b73e570f4ea457a68b36", "is_disabled": 0, "fusion_lon": 0.0, "rental_uris": {"android": "https://dc.lft.to/lastmile_qr_scan", "ios": "https://dc.lft.to/lastmile_qr_scan"}, "lat": 38.88721066666667, "lon": -77.0198085, "fusion_lat": 0.0}, {"is_reserved": 0, "bike_id": "571ff9bae1933b317875ab7091e66d27", "type": "electric_bike", "name": "571ff9bae1933b317875ab7091e66d27", "is_disabled": 0, "fusion_lon": 0.0, "rental_uris": {"android": "https://dc.lft.to/lastmile_qr_scan", "ios": "https://dc.lft.to/lastmile_qr_scan"}, "lat": 38.98503566666667, "lon": -76.95563883333334, "fusion_lat": 0.0}, {"is_reserved": 0, "bike_id": "d801f8beb69aafaf675340cb249d79aa", "type": "electric_scooter", "name": "d801f8beb69aafaf675340cb249d79aa", "is_disabled": 0, "fusion_lon": 0.0, "rental_uris": {"android": "https://dc.lft.to/lastmile_qr_scan", "ios": "https://dc.lft.to/lastmile_qr_scan"}, "lat": 38.92235083333333, "lon": -77.04266366666667, "fusion_lat": 0.0}, {"is_reserved": 0, "bike_id": "0490fccb390bfdbca7cf9dcafdb19ccf", "type": "electric_bike", "name": "0490fccb390bfdbca7cf9dcafdb19ccf", "is_disabled": 0, "fusion_lon": 0.0, "rental_uris": {"android": "https://dc.lft.to/lastmile_qr_scan", "ios": "https://dc.lft.to/lastmile_qr_scan"}, "lat": 38.950779, "lon": -77.0120685, "fusion_lat": 0.0}, {"is_reserved": 0, "bike_id": "fdfde9dc1987f1f9c68a22de9367ebcd", "type": "electric_scooter", "name": "fdfde9dc1987f1f9c68a22de9367ebcd", "is_disabled": 0, "fusion_lon": 0.0, "rental_uris": {"android": "https://dc.lft.to/lastmile_qr_scan", "ios": "https://dc.lft.to/lastmile_qr_scan"}, "lat": 38.9213875, "lon": -77.01807316666667, "fusion_lat": 0.0}, {"is_reserved": 0, "bike_id": "0c05b0e02e02dab26a175f2e321ce9df", "type": "electric_scooter", "name": "0c05b0e02e02dab26a175f2e321ce9df", "is_disabled": 0, "fusion_lon": 0.0, "rental_uris": {"android": "https://dc.lft.to/lastmile_qr_scan", "ios": "https://dc.lft.to/lastmile_qr_scan"}, "lat": 38.934792, "lon": -77.07279616666666, "fusion_lat": 0.0}, {"is_reserved": 0, "bike_id": "1e72a34e099aca475b54ad8a3e3858e5", "type": "electric_scooter", "name": "1e72a34e099aca475b54ad8a3e3858e5", "is_disabled": 0, "fusion_lon": 0.0, "rental_uris": {"android": "https://dc.lft.to/lastmile_qr_scan", "ios": "https://dc.lft.to/lastmile_qr_scan"}, "lat": 38.92472716666666, "lon": -77.0446555, "fusion_lat": 0.0}, {"is_reserved": 0, "bike_id": "081b8c7f332eb4231326aaa6cceaf565", "type": "electric_scooter", "name": "081b8c7f332eb4231326aaa6cceaf565", "is_disabled": 0, "fusion_lon": 0.0, "rental_uris": {"android": "https://dc.lft.to/lastmile_qr_scan", "ios": "https://dc.lft.to/lastmile_qr_scan"}, "lat": 38.87463016666667, "lon": -77.015887, "fusion_lat": 0.0}, {"is_reserved": 0, "bike_id": "43c04700f32795c7e7a16e85d404a092", "type": "electric_scooter", "name": "43c04700f32795c7e7a16e85d404a092", "is_disabled": 0, "fusion_lon": 0.0, "rental_uris": {"android": "https://dc.lft.to/lastmile_qr_scan", "ios": "https://dc.lft.to/lastmile_qr_scan"}, "lat": 38.915013, "lon": -76.98373766666667, "fusion_lat": 0.0}, {"is_reserved": 0, "bike_id": "71d884028675b84fed16add078501b04", "type": "electric_scooter", "name": "71d884028675b84fed16add078501b04", "is_disabled": 0, "fusion_lon": 0.0, "rental_uris": {"android": "https://dc.lft.to/lastmile_qr_scan", "ios": "https://dc.lft.to/lastmile_qr_scan"}, "lat": 38.90398166666667, "lon": -77.06301416666666, "fusion_lat": 0.0}, {"is_reserved": 0, "bike_id": "451946af0ef443c9b4d57f49614df6b6", "type": "electric_scooter", "name": "451946af0ef443c9b4d57f49614df6b6", "is_disabled": 0, "fusion_lon": 0.0, "rental_uris": {"android": "https://dc.lft.to/lastmile_qr_scan", "ios": "https://dc.lft.to/lastmile_qr_scan"}, "lat": 38.893434666666664, "lon": -77.01509833333333, "fusion_lat": 0.0}, {"is_reserved": 0, "bike_id": "8721dc90d906960eceaebbd6d2f054ad", "type": "electric_scooter", "name": "8721dc90d906960eceaebbd6d2f054ad", "is_disabled": 0, "fusion_lon": 0.0, "rental_uris": {"android": "https://dc.lft.to/lastmile_qr_scan", "ios": "https://dc.lft.to/lastmile_qr_scan"}, "lat": 38.908983166666665, "lon": -77.0457515, "fusion_lat": 0.0}, {"is_reserved": 0, "bike_id": "6d1a3fe1393f5818ac2dd8b4cfd27f1b", "type": "electric_scooter", "name": "6d1a3fe1393f5818ac2dd8b4cfd27f1b", "is_disabled": 0, "fusion_lon": 0.0, "rental_uris": {"android": "https://dc.lft.to/lastmile_qr_scan", "ios": "https://dc.lft.to/lastmile_qr_scan"}, "lat": 38.9192695, "lon": -77.03251383333334, "fusion_lat": 0.0}, {"is_reserved": 0, "bike_id": "8a4f7ea4913433fde88ab2464d889d7e", "type": "electric_scooter", "name": "8a4f7ea4913433fde88ab2464d889d7e", "is_disabled": 0, "fusion_lon": 0.0, "rental_uris": {"android": "https://dc.lft.to/lastmile_qr_scan", "ios": "https://dc.lft.to/lastmile_qr_scan"}, "lat": 38.903674333333335, "lon": -77.01110666666666, "fusion_lat": 0.0}, {"is_reserved": 0, "bike_id": "56166a49ff09d3ce751a4e163747f391", "type": "electric_scooter", "name": "56166a49ff09d3ce751a4e163747f391", "is_disabled": 0, "fusion_lon": 0.0, "rental_uris": {"android": "https://dc.lft.to/lastmile_qr_scan", "ios": "https://dc.lft.to/lastmile_qr_scan"}, "lat": 38.9048675, "lon": -77.03566983333333, "fusion_lat": 0.0}, {"is_reserved": 0, "bike_id": "599ab4795f3d609c81ccc7d53a598daf", "type": "electric_scooter", "name": "599ab4795f3d609c81ccc7d53a598daf", "is_disabled": 0, "fusion_lon": 0.0, "rental_uris": {"android": "https://dc.lft.to/lastmile_qr_scan", "ios": "https://dc.lft.to/lastmile_qr_scan"}, "lat": 38.90020883333333, "lon": -77.04664416666667, "fusion_lat": 0.0}, {"is_reserved": 0, "bike_id": "650942901abd4d349fc137810bdcea0e", "type": "electric_scooter", "name": "650942901abd4d349fc137810bdcea0e", "is_disabled": 0, "fusion_lon": 0.0, "rental_uris": {"android": "https://dc.lft.to/lastmile_qr_scan", "ios": "https://dc.lft.to/lastmile_qr_scan"}, "lat": 38.913565, "lon": -77.02057316666667, "fusion_lat": 0.0}, {"is_reserved": 0, "bike_id": "4c050c8f3185947d23fe21a7546067d9", "type": "electric_bike", "name": "4c050c8f3185947d23fe21a7546067d9", "is_disabled": 0, "fusion_lon": 0.0, "rental_uris": {"android": "https://dc.lft.to/lastmile_qr_scan", "ios": "https://dc.lft.to/lastmile_qr_scan"}, "lat": 38.952872, "lon": -77.06854, "fusion_lat": 0.0}, {"is_reserved": 0, "bike_id": "317ebcf8313b46809f96a76bffa1001a", "type": "electric_scooter", "name": "317ebcf8313b46809f96a76bffa1001a", "is_disabled": 0, "fusion_lon": 0.0, "rental_uris": {"android": "https://dc.lft.to/lastmile_qr_scan", "ios": "https://dc.lft.to/lastmile_qr_scan"}, "lat": 38.907273, "lon": -77.00741816666667, "fusion_lat": 0.0}, {"is_reserved": 0, "bike_id": "a8b51d150e4502c8ce42ebe95c179d20", "type": "electric_scooter", "name": "a8b51d150e4502c8ce42ebe95c179d20", "is_disabled": 0, "fusion_lon": 0.0, "rental_uris": {"android": "https://dc.lft.to/lastmile_qr_scan", "ios": "https://dc.lft.to/lastmile_qr_scan"}, "lat": 38.898823166666666, "lon": -77.04554783333333, "fusion_lat": 0.0}, {"is_reserved": 0, "bike_id": "54f4e37e22250683a2e8ffd39623c0fc", "type": "electric_scooter", "name": "54f4e37e22250683a2e8ffd39623c0fc", "is_disabled": 0, "fusion_lon": 0.0, "rental_uris": {"android": "https://dc.lft.to/lastmile_qr_scan", "ios": "https://dc.lft.to/lastmile_qr_scan"}, "lat": 38.8999195, "lon": -76.99005533333333, "fusion_lat": 0.0}, {"is_reserved": 0, "bike_id": "ad3075d48cddce05e11c38416e5fb2e1", "type": "electric_scooter", "name": "ad3075d48cddce05e11c38416e5fb2e1", "is_disabled": 0, "fusion_lon": 0.0, "rental_uris": {"android": "https://dc.lft.to/lastmile_qr_scan", "ios": "https://dc.lft.to/lastmile_qr_scan"}, "lat": 38.89778616666667, "lon": -77.026864, "fusion_lat": 0.0}, {"is_reserved": 0, "bike_id": "8b8549183b5512a2ea2497287b6a0dc6", "type": "electric_scooter", "name": "8b8549183b5512a2ea2497287b6a0dc6", "is_disabled": 0, "fusion_lon": 0.0, "rental_uris": {"android": "https://dc.lft.to/lastmile_qr_scan", "ios": "https://dc.lft.to/lastmile_qr_scan"}, "lat": 38.892232, "lon": -77.0241555, "fusion_lat": 0.0}, {"is_reserved": 0, "bike_id": "41bf7d839c553adab002bff8f260a11f", "type": "electric_bike", "name": "41bf7d839c553adab002bff8f260a11f", "is_disabled": 0, "fusion_lon": 0.0, "rental_uris": {"android": "https://dc.lft.to/lastmile_qr_scan", "ios": "https://dc.lft.to/lastmile_qr_scan"}, "lat": 38.88866433333333, "lon": -77.08172033333334, "fusion_lat": 0.0}, {"is_reserved": 0, "bike_id": "9c4fcbd968563f23a73f9447190d68b2", "type": "electric_scooter", "name": "9c4fcbd968563f23a73f9447190d68b2", "is_disabled": 0, "fusion_lon": 0.0, "rental_uris": {"android": "https://dc.lft.to/lastmile_qr_scan", "ios": "https://dc.lft.to/lastmile_qr_scan"}, "lat": 38.92588083333333, "lon": -77.04409483333333, "fusion_lat": 0.0}, {"is_reserved": 0, "bike_id": "0f6e6382fc59e073647bdfb6c00b3cc8", "type": "electric_scooter", "name": "0f6e6382fc59e073647bdfb6c00b3cc8", "is_disabled": 0, "fusion_lon": 0.0, "rental_uris": {"android": "https://dc.lft.to/lastmile_qr_scan", "ios": "https://dc.lft.to/lastmile_qr_scan"}, "lat": 38.92498716666667, "lon": -77.052477, "fusion_lat": 0.0}, {"is_reserved": 0, "bike_id": "de4717473d8e6483bd39cd3a5026ed81", "type": "electric_scooter", "name": "de4717473d8e6483bd39cd3a5026ed81", "is_disabled": 0, "fusion_lon": 0.0, "rental_uris": {"android": "https://dc.lft.to/lastmile_qr_scan", "ios": "https://dc.lft.to/lastmile_qr_scan"}, "lat": 38.883190666666664, "lon": -77.02992933333333, "fusion_lat": 0.0}, {"is_reserved": 0, "bike_id": "6baf3104cbc1fb159e019f896e80588c", "type": "electric_scooter", "name": "6baf3104cbc1fb159e019f896e80588c", "is_disabled": 0, "fusion_lon": 0.0, "rental_uris": {"android": "https://dc.lft.to/lastmile_qr_scan", "ios": "https://dc.lft.to/lastmile_qr_scan"}, "lat": 38.90714883333333, "lon": -76.93011333333334, "fusion_lat": 0.0}, {"is_reserved": 0, "bike_id": "e878e0a808de5eca9a040c0d85291d6e", "type": "electric_scooter", "name": "e878e0a808de5eca9a040c0d85291d6e", "is_disabled": 0, "fusion_lon": 0.0, "rental_uris": {"android": "https://dc.lft.to/lastmile_qr_scan", "ios": "https://dc.lft.to/lastmile_qr_scan"}, "lat": 38.934743833333336, "lon": -77.0727275, "fusion_lat": 0.0}, {"is_reserved": 0, "bike_id": "9634a3e91aa392d3f6172b1581ee57ea", "type": "electric_scooter", "name": "9634a3e91aa392d3f6172b1581ee57ea", "is_disabled": 0, "fusion_lon": 0.0, "rental_uris": {"android": "https://dc.lft.to/lastmile_qr_scan", "ios": "https://dc.lft.to/lastmile_qr_scan"}, "lat": 38.891172833333336, "lon": -76.943791, "fusion_lat": 0.0}, {"is_reserved": 0, "bike_id": "1228095201fec47d5ce25160f1d5612d", "type": "electric_scooter", "name": "1228095201fec47d5ce25160f1d5612d", "is_disabled": 0, "fusion_lon": 0.0, "rental_uris": {"android": "https://dc.lft.to/lastmile_qr_scan", "ios": "https://dc.lft.to/lastmile_qr_scan"}, "lat": 38.920649833333336, "lon": -77.032017, "fusion_lat": 0.0}, {"is_reserved": 0, "bike_id": "2dd3e736264b17fd3d311819e41f51e3", "type": "electric_scooter", "name": "2dd3e736264b17fd3d311819e41f51e3", "is_disabled": 0, "fusion_lon": 0.0, "rental_uris": {"android": "https://dc.lft.to/lastmile_qr_scan", "ios": "https://dc.lft.to/lastmile_qr_scan"}, "lat": 38.89939533333333, "lon": -77.03899783333334, "fusion_lat": 0.0}, {"is_reserved": 0, "bike_id": "0646d841323e790c2a5a7759fff4951b", "type": "electric_scooter", "name": "0646d841323e790c2a5a7759fff4951b", "is_disabled": 0, "fusion_lon": 0.0, "rental_uris": {"android": "https://dc.lft.to/lastmile_qr_scan", "ios": "https://dc.lft.to/lastmile_qr_scan"}, "lat": 38.914145500000004, "lon": -77.01288216666667, "fusion_lat": 0.0}, {"is_reserved": 0, "bike_id": "593d27ea9aef0b8f5c27ad73d6fd4196", "type": "electric_bike", "name": "593d27ea9aef0b8f5c27ad73d6fd4196", "is_disabled": 0, "fusion_lon": 0.0, "rental_uris": {"android": "https://dc.lft.to/lastmile_qr_scan", "ios": "https://dc.lft.to/lastmile_qr_scan"}, "lat": 38.838142166666664, "lon": -77.0952055, "fusion_lat": 0.0}, {"is_reserved": 0, "bike_id": "3484482c7e716b35844c9692913390e1", "type": "electric_scooter", "name": "3484482c7e716b35844c9692913390e1", "is_disabled": 0, "fusion_lon": 0.0, "rental_uris": {"android": "https://dc.lft.to/lastmile_qr_scan", "ios": "https://dc.lft.to/lastmile_qr_scan"}, "lat": 38.91404983333334, "lon": -77.018078, "fusion_lat": 0.0}, {"is_reserved": 0, "bike_id": "b54e9dfcb9bc92d5d93ca71a544e8320", "type": "electric_scooter", "name": "b54e9dfcb9bc92d5d93ca71a544e8320", "is_disabled": 0, "fusion_lon": 0.0, "rental_uris": {"android": "https://dc.lft.to/lastmile_qr_scan", "ios": "https://dc.lft.to/lastmile_qr_scan"}, "lat": 38.8928075, "lon": -77.04872983333334, "fusion_lat": 0.0}, {"is_reserved": 0, "bike_id": "a73e9c208e82d9567600e564841efcc5", "type": "electric_scooter", "name": "a73e9c208e82d9567600e564841efcc5", "is_disabled": 0, "fusion_lon": 0.0, "rental_uris": {"android": "https://dc.lft.to/lastmile_qr_scan", "ios": "https://dc.lft.to/lastmile_qr_scan"}, "lat": 38.88503466666667, "lon": -77.00565466666667, "fusion_lat": 0.0}, {"is_reserved": 0, "bike_id": "f2e3360ae39b0f3d627daed8b78b70b4", "type": "electric_scooter", "name": "f2e3360ae39b0f3d627daed8b78b70b4", "is_disabled": 0, "fusion_lon": 0.0, "rental_uris": {"android": "https://dc.lft.to/lastmile_qr_scan", "ios": "https://dc.lft.to/lastmile_qr_scan"}, "lat": 38.887252833333335, "lon": -76.9835575, "fusion_lat": 0.0}, {"is_reserved": 0, "bike_id": "97e6ae10c943ecad11bde60be23d79d0", "type": "electric_scooter", "name": "97e6ae10c943ecad11bde60be23d79d0", "is_disabled": 0, "fusion_lon": 0.0, "rental_uris": {"android": "https://dc.lft.to/lastmile_qr_scan", "ios": "https://dc.lft.to/lastmile_qr_scan"}, "lat": 38.9096865, "lon": -77.08124083333334, "fusion_lat": 0.0}, {"is_reserved": 0, "bike_id": "8fccd22f14a79d025d048e20fcc378eb", "type": "electric_scooter", "name": "8fccd22f14a79d025d048e20fcc378eb", "is_disabled": 0, "fusion_lon": 0.0, "rental_uris": {"android": "https://dc.lft.to/lastmile_qr_scan", "ios": "https://dc.lft.to/lastmile_qr_scan"}, "lat": 38.908643833333336, "lon": -77.08593433333333, "fusion_lat": 0.0}, {"is_reserved": 0, "bike_id": "8229c6cc19cce405295ee7d4a296b6fe", "type": "electric_scooter", "name": "8229c6cc19cce405295ee7d4a296b6fe", "is_disabled": 0, "fusion_lon": 0.0, "rental_uris": {"android": "https://dc.lft.to/lastmile_qr_scan", "ios": "https://dc.lft.to/lastmile_qr_scan"}, "lat": 38.929528833333336, "lon": -77.04404566666666, "fusion_lat": 0.0}, {"is_reserved": 0, "bike_id": "aa0c44f404d6203ee4be6897965cb1b7", "type": "electric_scooter", "name": "aa0c44f404d6203ee4be6897965cb1b7", "is_disabled": 0, "fusion_lon": 0.0, "rental_uris": {"android": "https://dc.lft.to/lastmile_qr_scan", "ios": "https://dc.lft.to/lastmile_qr_scan"}, "lat": 38.912698666666664, "lon": -77.030531, "fusion_lat": 0.0}, {"is_reserved": 0, "bike_id": "6d07aeb4230f0c9c3883d78303e861d6", "type": "electric_scooter", "name": "6d07aeb4230f0c9c3883d78303e861d6", "is_disabled": 0, "fusion_lon": 0.0, "rental_uris": {"android": "https://dc.lft.to/lastmile_qr_scan", "ios": "https://dc.lft.to/lastmile_qr_scan"}, "lat": 38.875465, "lon": -77.00537766666666, "fusion_lat": 0.0}, {"is_reserved": 0, "bike_id": "0fee48f2190d12cbaf7309c7ab948f74", "type": "electric_scooter", "name": "0fee48f2190d12cbaf7309c7ab948f74", "is_disabled": 0, "fusion_lon": 0.0, "rental_uris": {"android": "https://dc.lft.to/lastmile_qr_scan", "ios": "https://dc.lft.to/lastmile_qr_scan"}, "lat": 38.9217795, "lon": -77.019101, "fusion_lat": 0.0}, {"is_reserved": 0, "bike_id": "33c2b1bc67786de665015121bd6eafdf", "type": "electric_scooter", "name": "33c2b1bc67786de665015121bd6eafdf", "is_disabled": 0, "fusion_lon": 0.0, "rental_uris": {"android": "https://dc.lft.to/lastmile_qr_scan", "ios": "https://dc.lft.to/lastmile_qr_scan"}, "lat": 38.90607133333334, "lon": -77.056812, "fusion_lat": 0.0}, {"is_reserved": 0, "bike_id": "f0d3482338b97c298a8a27be3ccbfdd5", "type": "electric_scooter", "name": "f0d3482338b97c298a8a27be3ccbfdd5", "is_disabled": 0, "fusion_lon": 0.0, "rental_uris": {"android": "https://dc.lft.to/lastmile_qr_scan", "ios": "https://dc.lft.to/lastmile_qr_scan"}, "lat": 38.87913316666667, "lon": -76.98539983333333, "fusion_lat": 0.0}, {"is_reserved": 0, "bike_id": "dfadf7ad0fde46aa7b0af2c700cb3e2c", "type": "electric_scooter", "name": "dfadf7ad0fde46aa7b0af2c700cb3e2c", "is_disabled": 0, "fusion_lon": 0.0, "rental_uris": {"android": "https://dc.lft.to/lastmile_qr_scan", "ios": "https://dc.lft.to/lastmile_qr_scan"}, "lat": 38.9023815, "lon": -77.00200266666667, "fusion_lat": 0.0}, {"is_reserved": 0, "bike_id": "8f67c63dafdad82af457ab08ddf180e6", "type": "electric_scooter", "name": "8f67c63dafdad82af457ab08ddf180e6", "is_disabled": 0, "fusion_lon": 0.0, "rental_uris": {"android": "https://dc.lft.to/lastmile_qr_scan", "ios": "https://dc.lft.to/lastmile_qr_scan"}, "lat": 38.8728805, "lon": -77.00987733333334, "fusion_lat": 0.0}, {"is_reserved": 0, "bike_id": "2a4a85946f316002727561ac98aae69c", "type": "electric_scooter", "name": "2a4a85946f316002727561ac98aae69c", "is_disabled": 0, "fusion_lon": 0.0, "rental_uris": {"android": "https://dc.lft.to/lastmile_qr_scan", "ios": "https://dc.lft.to/lastmile_qr_scan"}, "lat": 38.898245, "lon": -77.04999166666667, "fusion_lat": 0.0}, {"is_reserved": 0, "bike_id": "7129604b4c773bde2f601510768a7a41", "type": "electric_scooter", "name": "7129604b4c773bde2f601510768a7a41", "is_disabled": 0, "fusion_lon": 0.0, "rental_uris": {"android": "https://dc.lft.to/lastmile_qr_scan", "ios": "https://dc.lft.to/lastmile_qr_scan"}, "lat": 38.928641666666664, "lon": -77.014189, "fusion_lat": 0.0}, {"is_reserved": 0, "bike_id": "4856cde2b85846f48475aeb57e7adce0", "type": "electric_scooter", "name": "4856cde2b85846f48475aeb57e7adce0", "is_disabled": 0, "fusion_lon": 0.0, "rental_uris": {"android": "https://dc.lft.to/lastmile_qr_scan", "ios": "https://dc.lft.to/lastmile_qr_scan"}, "lat": 38.89902566666667, "lon": -77.04328983333333, "fusion_lat": 0.0}, {"is_reserved": 0, "bike_id": "cb93e050f93a3959d54b82305d19b474", "type": "electric_scooter", "name": "cb93e050f93a3959d54b82305d19b474", "is_disabled": 0, "fusion_lon": 0.0, "rental_uris": {"android": "https://dc.lft.to/lastmile_qr_scan", "ios": "https://dc.lft.to/lastmile_qr_scan"}, "lat": 38.881387333333336, "lon": -77.02348183333334, "fusion_lat": 0.0}, {"is_reserved": 0, "bike_id": "1086296f0650db507664247f1dfa8953", "type": "electric_scooter", "name": "1086296f0650db507664247f1dfa8953", "is_disabled": 0, "fusion_lon": 0.0, "rental_uris": {"android": "https://dc.lft.to/lastmile_qr_scan", "ios": "https://dc.lft.to/lastmile_qr_scan"}, "lat": 38.902699166666665, "lon": -77.01751183333333, "fusion_lat": 0.0}, {"is_reserved": 0, "bike_id": "cee0b00c4100bc8df3c34c99423bcbf1", "type": "electric_scooter", "name": "cee0b00c4100bc8df3c34c99423bcbf1", "is_disabled": 0, "fusion_lon": 0.0, "rental_uris": {"android": "https://dc.lft.to/lastmile_qr_scan", "ios": "https://dc.lft.to/lastmile_qr_scan"}, "lat": 38.942832333333335, "lon": -77.02941466666667, "fusion_lat": 0.0}, {"is_reserved": 0, "bike_id": "247c36245719f997045ca73efc400f70", "type": "electric_bike", "name": "247c36245719f997045ca73efc400f70", "is_disabled": 0, "fusion_lon": 0.0, "rental_uris": {"android": "https://dc.lft.to/lastmile_qr_scan", "ios": "https://dc.lft.to/lastmile_qr_scan"}, "lat": 38.935248333333334, "lon": -77.054234, "fusion_lat": 0.0}, {"is_reserved": 0, "bike_id": "73e68a7d5a2ef26458cab0e8a4a07810", "type": "electric_scooter", "name": "73e68a7d5a2ef26458cab0e8a4a07810", "is_disabled": 0, "fusion_lon": 0.0, "rental_uris": {"android": "https://dc.lft.to/lastmile_qr_scan", "ios": "https://dc.lft.to/lastmile_qr_scan"}, "lat": 38.927200666666664, "lon": -77.05993783333334, "fusion_lat": 0.0}, {"is_reserved": 0, "bike_id": "bb3d6ea39a8f4d90e80f59da1a19e615", "type": "electric_scooter", "name": "bb3d6ea39a8f4d90e80f59da1a19e615", "is_disabled": 0, "fusion_lon": 0.0, "rental_uris": {"android": "https://dc.lft.to/lastmile_qr_scan", "ios": "https://dc.lft.to/lastmile_qr_scan"}, "lat": 38.92607, "lon": -77.021566, "fusion_lat": 0.0}, {"is_reserved": 0, "bike_id": "a409dbcff9d5fd9dce8633ce282ce993", "type": "electric_scooter", "name": "a409dbcff9d5fd9dce8633ce282ce993", "is_disabled": 0, "fusion_lon": 0.0, "rental_uris": {"android": "https://dc.lft.to/lastmile_qr_scan", "ios": "https://dc.lft.to/lastmile_qr_scan"}, "lat": 38.901389333333334, "lon": -77.01775766666667, "fusion_lat": 0.0}, {"is_reserved": 0, "bike_id": "a69a3896b6ba4ddaba5eb85673bfab40", "type": "electric_bike", "name": "a69a3896b6ba4ddaba5eb85673bfab40", "is_disabled": 0, "fusion_lon": 0.0, "rental_uris": {"android": "https://dc.lft.to/lastmile_qr_scan", "ios": "https://dc.lft.to/lastmile_qr_scan"}, "lat": 39.003809, "lon": -77.0128755, "fusion_lat": 0.0}, {"is_reserved": 0, "bike_id": "4b2ade113475d5a72e3bb3aa36786cfb", "type": "electric_scooter", "name": "4b2ade113475d5a72e3bb3aa36786cfb", "is_disabled": 0, "fusion_lon": 0.0, "rental_uris": {"android": "https://dc.lft.to/lastmile_qr_scan", "ios": "https://dc.lft.to/lastmile_qr_scan"}, "lat": 38.944557333333336, "lon": -77.02337083333333, "fusion_lat": 0.0}, {"is_reserved": 0, "bike_id": "933c97476df8f6643fcc73a6b61feab4", "type": "electric_scooter", "name": "933c97476df8f6643fcc73a6b61feab4", "is_disabled": 0, "fusion_lon": 0.0, "rental_uris": {"android": "https://dc.lft.to/lastmile_qr_scan", "ios": "https://dc.lft.to/lastmile_qr_scan"}, "lat": 38.93541316666666, "lon": -77.03086566666667, "fusion_lat": 0.0}, {"is_reserved": 0, "bike_id": "71eb6d829a0596bba055faf2b3b69ec9", "type": "electric_scooter", "name": "71eb6d829a0596bba055faf2b3b69ec9", "is_disabled": 0, "fusion_lon": 0.0, "rental_uris": {"android": "https://dc.lft.to/lastmile_qr_scan", "ios": "https://dc.lft.to/lastmile_qr_scan"}, "lat": 38.89751666666667, "lon": -77.02705166666667, "fusion_lat": 0.0}, {"is_reserved": 0, "bike_id": "753cd9d4d3952bf56421246022bc61c2", "type": "electric_scooter", "name": "753cd9d4d3952bf56421246022bc61c2", "is_disabled": 0, "fusion_lon": 0.0, "rental_uris": {"android": "https://dc.lft.to/lastmile_qr_scan", "ios": "https://dc.lft.to/lastmile_qr_scan"}, "lat": 38.92325183333333, "lon": -77.0196305, "fusion_lat": 0.0}, {"is_reserved": 0, "bike_id": "31a033184b1b021e429a19014d759e65", "type": "electric_bike", "name": "31a033184b1b021e429a19014d759e65", "is_disabled": 0, "fusion_lon": 0.0, "rental_uris": {"android": "https://dc.lft.to/lastmile_qr_scan", "ios": "https://dc.lft.to/lastmile_qr_scan"}, "lat": 38.950181666666666, "lon": -77.01561916666667, "fusion_lat": 0.0}, {"is_reserved": 0, "bike_id": "36aec5d826a4ef95647f5a1b755e517f", "type": "electric_scooter", "name": "36aec5d826a4ef95647f5a1b755e517f", "is_disabled": 0, "fusion_lon": 0.0, "rental_uris": {"android": "https://dc.lft.to/lastmile_qr_scan", "ios": "https://dc.lft.to/lastmile_qr_scan"}, "lat": 38.920897333333336, "lon": -77.02502416666667, "fusion_lat": 0.0}, {"is_reserved": 0, "bike_id": "19148401d894d8d8b1094c09d1db8ab1", "type": "electric_scooter", "name": "19148401d894d8d8b1094c09d1db8ab1", "is_disabled": 0, "fusion_lon": 0.0, "rental_uris": {"android": "https://dc.lft.to/lastmile_qr_scan", "ios": "https://dc.lft.to/lastmile_qr_scan"}, "lat": 38.91416616666667, "lon": -77.02234516666667, "fusion_lat": 0.0}, {"is_reserved": 0, "bike_id": "73f6c343250f2ab964ea8a7fb06d6146", "type": "electric_scooter", "name": "73f6c343250f2ab964ea8a7fb06d6146", "is_disabled": 0, "fusion_lon": 0.0, "rental_uris": {"android": "https://dc.lft.to/lastmile_qr_scan", "ios": "https://dc.lft.to/lastmile_qr_scan"}, "lat": 38.914087333333335, "lon": -77.01804333333334, "fusion_lat": 0.0}, {"is_reserved": 0, "bike_id": "08f1b1ff4dead0cc7891d3592e30aa19", "type": "electric_scooter", "name": "08f1b1ff4dead0cc7891d3592e30aa19", "is_disabled": 0, "fusion_lon": 0.0, "rental_uris": {"android": "https://dc.lft.to/lastmile_qr_scan", "ios": "https://dc.lft.to/lastmile_qr_scan"}, "lat": 38.8873905, "lon": -77.01505533333334, "fusion_lat": 0.0}, {"is_reserved": 0, "bike_id": "991e324eaed498dff4630d941c640a71", "type": "electric_scooter", "name": "991e324eaed498dff4630d941c640a71", "is_disabled": 0, "fusion_lon": 0.0, "rental_uris": {"android": "https://dc.lft.to/lastmile_qr_scan", "ios": "https://dc.lft.to/lastmile_qr_scan"}, "lat": 38.91548516666667, "lon": -77.02207433333334, "fusion_lat": 0.0}, {"is_reserved": 0, "bike_id": "9a6ea26b5a812ce6bf976317dabd100a", "type": "electric_bike", "name": "9a6ea26b5a812ce6bf976317dabd100a", "is_disabled": 0, "fusion_lon": 0.0, "rental_uris": {"android": "https://dc.lft.to/lastmile_qr_scan", "ios": "https://dc.lft.to/lastmile_qr_scan"}, "lat": 38.8358805, "lon": -76.99023016666666, "fusion_lat": 0.0}, {"is_reserved": 0, "bike_id": "ff77f43cc8ef768dd34e92712984703b", "type": "electric_bike", "name": "ff77f43cc8ef768dd34e92712984703b", "is_disabled": 0, "fusion_lon": 0.0, "rental_uris": {"android": "https://dc.lft.to/lastmile_qr_scan", "ios": "https://dc.lft.to/lastmile_qr_scan"}, "lat": 38.920633, "lon": -77.03065583333333, "fusion_lat": 0.0}, {"is_reserved": 0, "bike_id": "0d2e984bf8401c04997a240df748cb60", "type": "electric_scooter", "name": "0d2e984bf8401c04997a240df748cb60", "is_disabled": 0, "fusion_lon": 0.0, "rental_uris": {"android": "https://dc.lft.to/lastmile_qr_scan", "ios": "https://dc.lft.to/lastmile_qr_scan"}, "lat": 38.919141333333336, "lon": -77.03182583333333, "fusion_lat": 0.0}, {"is_reserved": 0, "bike_id": "1635db6decd51122e0656a63dc3f7ba9", "type": "electric_scooter", "name": "1635db6decd51122e0656a63dc3f7ba9", "is_disabled": 0, "fusion_lon": 0.0, "rental_uris": {"android": "https://dc.lft.to/lastmile_qr_scan", "ios": "https://dc.lft.to/lastmile_qr_scan"}, "lat": 38.905823833333336, "lon": -77.00719483333333, "fusion_lat": 0.0}, {"is_reserved": 0, "bike_id": "c4e0255b55fc5c541fed8e89d74124c7", "type": "electric_scooter", "name": "c4e0255b55fc5c541fed8e89d74124c7", "is_disabled": 0, "fusion_lon": 0.0, "rental_uris": {"android": "https://dc.lft.to/lastmile_qr_scan", "ios": "https://dc.lft.to/lastmile_qr_scan"}, "lat": 38.926832166666664, "lon": -77.0258505, "fusion_lat": 0.0}, {"is_reserved": 0, "bike_id": "2b9f73d0adab2cd68aad867d8d60521a", "type": "electric_scooter", "name": "2b9f73d0adab2cd68aad867d8d60521a", "is_disabled": 0, "fusion_lon": 0.0, "rental_uris": {"android": "https://dc.lft.to/lastmile_qr_scan", "ios": "https://dc.lft.to/lastmile_qr_scan"}, "lat": 38.89871, "lon": -76.94663833333334, "fusion_lat": 0.0}, {"is_reserved": 0, "bike_id": "336e60fc19aa98f518096949668d9e06", "type": "electric_scooter", "name": "336e60fc19aa98f518096949668d9e06", "is_disabled": 0, "fusion_lon": 0.0, "rental_uris": {"android": "https://dc.lft.to/lastmile_qr_scan", "ios": "https://dc.lft.to/lastmile_qr_scan"}, "lat": 38.92606883333333, "lon": -77.0215645, "fusion_lat": 0.0}, {"is_reserved": 0, "bike_id": "dc7c7e5550fd9053f001edba3441092f", "type": "electric_scooter", "name": "dc7c7e5550fd9053f001edba3441092f", "is_disabled": 0, "fusion_lon": 0.0, "rental_uris": {"android": "https://dc.lft.to/lastmile_qr_scan", "ios": "https://dc.lft.to/lastmile_qr_scan"}, "lat": 38.8873705, "lon": -77.02578266666667, "fusion_lat": 0.0}, {"is_reserved": 0, "bike_id": "94d89a3fc0a262e510936c3daf334747", "type": "electric_scooter", "name": "94d89a3fc0a262e510936c3daf334747", "is_disabled": 0, "fusion_lon": 0.0, "rental_uris": {"android": "https://dc.lft.to/lastmile_qr_scan", "ios": "https://dc.lft.to/lastmile_qr_scan"}, "lat": 38.93104566666667, "lon": -77.09103316666666, "fusion_lat": 0.0}, {"is_reserved": 0, "bike_id": "79aff3fdf72dfea95b83cd8c4d6a5338", "type": "electric_scooter", "name": "79aff3fdf72dfea95b83cd8c4d6a5338", "is_disabled": 0, "fusion_lon": 0.0, "rental_uris": {"android": "https://dc.lft.to/lastmile_qr_scan", "ios": "https://dc.lft.to/lastmile_qr_scan"}, "lat": 38.921643, "lon": -77.03378016666667, "fusion_lat": 0.0}, {"is_reserved": 0, "bike_id": "35066495779c3ce8c115ae2b03402258", "type": "electric_scooter", "name": "35066495779c3ce8c115ae2b03402258", "is_disabled": 0, "fusion_lon": 0.0, "rental_uris": {"android": "https://dc.lft.to/lastmile_qr_scan", "ios": "https://dc.lft.to/lastmile_qr_scan"}, "lat": 38.908526333333334, "lon": -77.04736016666666, "fusion_lat": 0.0}, {"is_reserved": 0, "bike_id": "797326ce9d0ffca99629ee01ce9563fa", "type": "electric_scooter", "name": "797326ce9d0ffca99629ee01ce9563fa", "is_disabled": 0, "fusion_lon": 0.0, "rental_uris": {"android": "https://dc.lft.to/lastmile_qr_scan", "ios": "https://dc.lft.to/lastmile_qr_scan"}, "lat": 38.923404, "lon": -77.00921483333333, "fusion_lat": 0.0}, {"is_reserved": 0, "bike_id": "379c1488d89f181b7c9740ec81d09e2d", "type": "electric_scooter", "name": "379c1488d89f181b7c9740ec81d09e2d", "is_disabled": 0, "fusion_lon": 0.0, "rental_uris": {"android": "https://dc.lft.to/lastmile_qr_scan", "ios": "https://dc.lft.to/lastmile_qr_scan"}, "lat": 38.9086165, "lon": -77.02332083333333, "fusion_lat": 0.0}, {"is_reserved": 0, "bike_id": "e127cfb111088f16d34458b2736faf55", "type": "electric_scooter", "name": "e127cfb111088f16d34458b2736faf55", "is_disabled": 0, "fusion_lon": 0.0, "rental_uris": {"android": "https://dc.lft.to/lastmile_qr_scan", "ios": "https://dc.lft.to/lastmile_qr_scan"}, "lat": 38.919392, "lon": -77.045001, "fusion_lat": 0.0}, {"is_reserved": 0, "bike_id": "1175a769f630eae7c615765b73cd3da8", "type": "electric_scooter", "name": "1175a769f630eae7c615765b73cd3da8", "is_disabled": 0, "fusion_lon": 0.0, "rental_uris": {"android": "https://dc.lft.to/lastmile_qr_scan", "ios": "https://dc.lft.to/lastmile_qr_scan"}, "lat": 38.91416866666667, "lon": -77.01340866666666, "fusion_lat": 0.0}, {"is_reserved": 0, "bike_id": "6ded07e253b109dd33fd24c14ba639e4", "type": "electric_scooter", "name": "6ded07e253b109dd33fd24c14ba639e4", "is_disabled": 0, "fusion_lon": 0.0, "rental_uris": {"android": "https://dc.lft.to/lastmile_qr_scan", "ios": "https://dc.lft.to/lastmile_qr_scan"}, "lat": 38.91559866666667, "lon": -77.028256, "fusion_lat": 0.0}, {"is_reserved": 0, "bike_id": "d3d1354719b2a0d879a1dd16b31e9619", "type": "electric_scooter", "name": "d3d1354719b2a0d879a1dd16b31e9619", "is_disabled": 0, "fusion_lon": 0.0, "rental_uris": {"android": "https://dc.lft.to/lastmile_qr_scan", "ios": "https://dc.lft.to/lastmile_qr_scan"}, "lat": 38.90036116666667, "lon": -77.04886966666666, "fusion_lat": 0.0}, {"is_reserved": 0, "bike_id": "7bf6ff90613089846f456dc7d19f26a8", "type": "electric_scooter", "name": "7bf6ff90613089846f456dc7d19f26a8", "is_disabled": 0, "fusion_lon": 0.0, "rental_uris": {"android": "https://dc.lft.to/lastmile_qr_scan", "ios": "https://dc.lft.to/lastmile_qr_scan"}, "lat": 38.92069216666667, "lon": -77.0231595, "fusion_lat": 0.0}, {"is_reserved": 0, "bike_id": "29406dc93a2dc9c6d03b95903a1193e2", "type": "electric_bike", "name": "29406dc93a2dc9c6d03b95903a1193e2", "is_disabled": 0, "fusion_lon": 0.0, "rental_uris": {"android": "https://dc.lft.to/lastmile_qr_scan", "ios": "https://dc.lft.to/lastmile_qr_scan"}, "lat": 38.92183416666666, "lon": -77.0381765, "fusion_lat": 0.0}, {"is_reserved": 0, "bike_id": "260defdbc58b20a72136c8a2396b8ad4", "type": "electric_scooter", "name": "260defdbc58b20a72136c8a2396b8ad4", "is_disabled": 0, "fusion_lon": 0.0, "rental_uris": {"android": "https://dc.lft.to/lastmile_qr_scan", "ios": "https://dc.lft.to/lastmile_qr_scan"}, "lat": 38.9441905, "lon": -77.06334716666667, "fusion_lat": 0.0}, {"is_reserved": 0, "bike_id": "9c8e93182b0cbba9ef517ac1644f431e", "type": "electric_bike", "name": "9c8e93182b0cbba9ef517ac1644f431e", "is_disabled": 0, "fusion_lon": 0.0, "rental_uris": {"android": "https://dc.lft.to/lastmile_qr_scan", "ios": "https://dc.lft.to/lastmile_qr_scan"}, "lat": 38.8427175, "lon": -76.9881395, "fusion_lat": 0.0}, {"is_reserved": 0, "bike_id": "a00e433aafe8ab4876a60753c06dc5cd", "type": "electric_scooter", "name": "a00e433aafe8ab4876a60753c06dc5cd", "is_disabled": 0, "fusion_lon": 0.0, "rental_uris": {"android": "https://dc.lft.to/lastmile_qr_scan", "ios": "https://dc.lft.to/lastmile_qr_scan"}, "lat": 38.921356, "lon": -77.01807333333333, "fusion_lat": 0.0}, {"is_reserved": 0, "bike_id": "e33a2b3e91042b0ab3a47212e0ac16ee", "type": "electric_scooter", "name": "e33a2b3e91042b0ab3a47212e0ac16ee", "is_disabled": 0, "fusion_lon": 0.0, "rental_uris": {"android": "https://dc.lft.to/lastmile_qr_scan", "ios": "https://dc.lft.to/lastmile_qr_scan"}, "lat": 38.91430966666667, "lon": -77.02813266666666, "fusion_lat": 0.0}, {"is_reserved": 0, "bike_id": "3617ce9d350bb812b16f7eaa7579a19a", "type": "electric_scooter", "name": "3617ce9d350bb812b16f7eaa7579a19a", "is_disabled": 0, "fusion_lon": 0.0, "rental_uris": {"android": "https://dc.lft.to/lastmile_qr_scan", "ios": "https://dc.lft.to/lastmile_qr_scan"}, "lat": 38.914112333333335, "lon": -77.0258985, "fusion_lat": 0.0}, {"is_reserved": 0, "bike_id": "4eb3b5f743d837209772d4703b04c9d3", "type": "electric_scooter", "name": "4eb3b5f743d837209772d4703b04c9d3", "is_disabled": 0, "fusion_lon": 0.0, "rental_uris": {"android": "https://dc.lft.to/lastmile_qr_scan", "ios": "https://dc.lft.to/lastmile_qr_scan"}, "lat": 38.877187666666664, "lon": -77.006076, "fusion_lat": 0.0}, {"is_reserved": 0, "bike_id": "84c32b27cdde682e7af15cab606d43e9", "type": "electric_scooter", "name": "84c32b27cdde682e7af15cab606d43e9", "is_disabled": 0, "fusion_lon": 0.0, "rental_uris": {"android": "https://dc.lft.to/lastmile_qr_scan", "ios": "https://dc.lft.to/lastmile_qr_scan"}, "lat": 38.92328366666667, "lon": -77.01961583333333, "fusion_lat": 0.0}, {"is_reserved": 0, "bike_id": "486cdd929802781bfd529226099c9fe5", "type": "electric_scooter", "name": "486cdd929802781bfd529226099c9fe5", "is_disabled": 0, "fusion_lon": 0.0, "rental_uris": {"android": "https://dc.lft.to/lastmile_qr_scan", "ios": "https://dc.lft.to/lastmile_qr_scan"}, "lat": 38.929716, "lon": -77.0317795, "fusion_lat": 0.0}, {"is_reserved": 0, "bike_id": "f1940b760fb7d32a9f103249823fb36b", "type": "electric_scooter", "name": "f1940b760fb7d32a9f103249823fb36b", "is_disabled": 0, "fusion_lon": 0.0, "rental_uris": {"android": "https://dc.lft.to/lastmile_qr_scan", "ios": "https://dc.lft.to/lastmile_qr_scan"}, "lat": 38.92021883333334, "lon": -77.0636305, "fusion_lat": 0.0}, {"is_reserved": 0, "bike_id": "1eb29c66e526d8ddeef221d6f3cc47d3", "type": "electric_scooter", "name": "1eb29c66e526d8ddeef221d6f3cc47d3", "is_disabled": 0, "fusion_lon": 0.0, "rental_uris": {"android": "https://dc.lft.to/lastmile_qr_scan", "ios": "https://dc.lft.to/lastmile_qr_scan"}, "lat": 38.940929, "lon": -77.06140583333334, "fusion_lat": 0.0}, {"is_reserved": 0, "bike_id": "cfe44c0f1aa69663ef3912efa26da1e0", "type": "electric_scooter", "name": "cfe44c0f1aa69663ef3912efa26da1e0", "is_disabled": 0, "fusion_lon": 0.0, "rental_uris": {"android": "https://dc.lft.to/lastmile_qr_scan", "ios": "https://dc.lft.to/lastmile_qr_scan"}, "lat": 38.899903333333334, "lon": -77.02738866666667, "fusion_lat": 0.0}, {"is_reserved": 0, "bike_id": "627eb7d81b52f9e36f1bfa4bd6021798", "type": "electric_scooter", "name": "627eb7d81b52f9e36f1bfa4bd6021798", "is_disabled": 0, "fusion_lon": 0.0, "rental_uris": {"android": "https://dc.lft.to/lastmile_qr_scan", "ios": "https://dc.lft.to/lastmile_qr_scan"}, "lat": 38.91973266666667, "lon": -77.01780133333334, "fusion_lat": 0.0}, {"is_reserved": 0, "bike_id": "39ed417b9c65b34e020d42f5fbb474f4", "type": "electric_scooter", "name": "39ed417b9c65b34e020d42f5fbb474f4", "is_disabled": 0, "fusion_lon": 0.0, "rental_uris": {"android": "https://dc.lft.to/lastmile_qr_scan", "ios": "https://dc.lft.to/lastmile_qr_scan"}, "lat": 38.942001, "lon": -77.02347966666666, "fusion_lat": 0.0}, {"is_reserved": 0, "bike_id": "e415d44e1ff259d88c1560fc63da8a4b", "type": "electric_scooter", "name": "e415d44e1ff259d88c1560fc63da8a4b", "is_disabled": 0, "fusion_lon": 0.0, "rental_uris": {"android": "https://dc.lft.to/lastmile_qr_scan", "ios": "https://dc.lft.to/lastmile_qr_scan"}, "lat": 38.93108433333333, "lon": -77.03490833333333, "fusion_lat": 0.0}, {"is_reserved": 0, "bike_id": "73e1edad6df36aaa3f1416c4a5f5127b", "type": "electric_scooter", "name": "73e1edad6df36aaa3f1416c4a5f5127b", "is_disabled": 0, "fusion_lon": 0.0, "rental_uris": {"android": "https://dc.lft.to/lastmile_qr_scan", "ios": "https://dc.lft.to/lastmile_qr_scan"}, "lat": 38.908938166666665, "lon": -77.00278766666666, "fusion_lat": 0.0}, {"is_reserved": 0, "bike_id": "9b7b6a5fd7de738034ed840d4bac38aa", "type": "electric_scooter", "name": "9b7b6a5fd7de738034ed840d4bac38aa", "is_disabled": 0, "fusion_lon": 0.0, "rental_uris": {"android": "https://dc.lft.to/lastmile_qr_scan", "ios": "https://dc.lft.to/lastmile_qr_scan"}, "lat": 38.91564366666667, "lon": -77.067984, "fusion_lat": 0.0}, {"is_reserved": 0, "bike_id": "3aa2f35017c5ca1d07611e707b0183fa", "type": "electric_scooter", "name": "3aa2f35017c5ca1d07611e707b0183fa", "is_disabled": 0, "fusion_lon": 0.0, "rental_uris": {"android": "https://dc.lft.to/lastmile_qr_scan", "ios": "https://dc.lft.to/lastmile_qr_scan"}, "lat": 38.916702, "lon": -77.03852133333334, "fusion_lat": 0.0}, {"is_reserved": 0, "bike_id": "d20ef0b22084a13da144c0c907d19976", "type": "electric_scooter", "name": "d20ef0b22084a13da144c0c907d19976", "is_disabled": 0, "fusion_lon": 0.0, "rental_uris": {"android": "https://dc.lft.to/lastmile_qr_scan", "ios": "https://dc.lft.to/lastmile_qr_scan"}, "lat": 38.91186183333333, "lon": -77.06080683333333, "fusion_lat": 0.0}, {"is_reserved": 0, "bike_id": "a414e9571605bd556794580fe302eac7", "type": "electric_scooter", "name": "a414e9571605bd556794580fe302eac7", "is_disabled": 0, "fusion_lon": 0.0, "rental_uris": {"android": "https://dc.lft.to/lastmile_qr_scan", "ios": "https://dc.lft.to/lastmile_qr_scan"}, "lat": 38.941799, "lon": -77.03652316666667, "fusion_lat": 0.0}, {"is_reserved": 0, "bike_id": "7fb20ce18c2192a51c5bf25edb937fae", "type": "electric_scooter", "name": "7fb20ce18c2192a51c5bf25edb937fae", "is_disabled": 0, "fusion_lon": 0.0, "rental_uris": {"android": "https://dc.lft.to/lastmile_qr_scan", "ios": "https://dc.lft.to/lastmile_qr_scan"}, "lat": 38.927209500000004, "lon": -77.02082916666667, "fusion_lat": 0.0}, {"is_reserved": 0, "bike_id": "d55f4612ba3cad2c30b994979e478676", "type": "electric_scooter", "name": "d55f4612ba3cad2c30b994979e478676", "is_disabled": 0, "fusion_lon": 0.0, "rental_uris": {"android": "https://dc.lft.to/lastmile_qr_scan", "ios": "https://dc.lft.to/lastmile_qr_scan"}, "lat": 38.93432133333334, "lon": -77.03446416666667, "fusion_lat": 0.0}, {"is_reserved": 0, "bike_id": "0fc64df4d9f4a5f53b9a2816cbca910b", "type": "electric_scooter", "name": "0fc64df4d9f4a5f53b9a2816cbca910b", "is_disabled": 0, "fusion_lon": 0.0, "rental_uris": {"android": "https://dc.lft.to/lastmile_qr_scan", "ios": "https://dc.lft.to/lastmile_qr_scan"}, "lat": 38.935752, "lon": -77.0335425, "fusion_lat": 0.0}, {"is_reserved": 0, "bike_id": "35800153871d26eaad3cf7c3f6148497", "type": "electric_scooter", "name": "35800153871d26eaad3cf7c3f6148497", "is_disabled": 0, "fusion_lon": 0.0, "rental_uris": {"android": "https://dc.lft.to/lastmile_qr_scan", "ios": "https://dc.lft.to/lastmile_qr_scan"}, "lat": 38.913265333333335, "lon": -77.0453915, "fusion_lat": 0.0}, {"is_reserved": 0, "bike_id": "2e1999c90baa45f43d27e33c0ce84917", "type": "electric_scooter", "name": "2e1999c90baa45f43d27e33c0ce84917", "is_disabled": 0, "fusion_lon": 0.0, "rental_uris": {"android": "https://dc.lft.to/lastmile_qr_scan", "ios": "https://dc.lft.to/lastmile_qr_scan"}, "lat": 38.9157505, "lon": -77.04606666666666, "fusion_lat": 0.0}, {"is_reserved": 0, "bike_id": "27877e3ef9f3c7b79fd9cb6fd2b254fe", "type": "electric_scooter", "name": "27877e3ef9f3c7b79fd9cb6fd2b254fe", "is_disabled": 0, "fusion_lon": 0.0, "rental_uris": {"android": "https://dc.lft.to/lastmile_qr_scan", "ios": "https://dc.lft.to/lastmile_qr_scan"}, "lat": 38.9214915, "lon": -77.0386815, "fusion_lat": 0.0}, {"is_reserved": 0, "bike_id": "212ad75574bdbd9072f5f267d9c89788", "type": "electric_bike", "name": "212ad75574bdbd9072f5f267d9c89788", "is_disabled": 0, "fusion_lon": 0.0, "rental_uris": {"android": "https://dc.lft.to/lastmile_qr_scan", "ios": "https://dc.lft.to/lastmile_qr_scan"}, "lat": 38.974431, "lon": -77.09619566666667, "fusion_lat": 0.0}, {"is_reserved": 0, "bike_id": "d58ef644a04561f527adeb6fb031c8a9", "type": "electric_scooter", "name": "d58ef644a04561f527adeb6fb031c8a9", "is_disabled": 0, "fusion_lon": 0.0, "rental_uris": {"android": "https://dc.lft.to/lastmile_qr_scan", "ios": "https://dc.lft.to/lastmile_qr_scan"}, "lat": 38.92622883333333, "lon": -77.022688, "fusion_lat": 0.0}, {"is_reserved": 0, "bike_id": "d178aef846e24dcd6186fd4d342aed5c", "type": "electric_scooter", "name": "d178aef846e24dcd6186fd4d342aed5c", "is_disabled": 0, "fusion_lon": 0.0, "rental_uris": {"android": "https://dc.lft.to/lastmile_qr_scan", "ios": "https://dc.lft.to/lastmile_qr_scan"}, "lat": 38.9303855, "lon": -77.057425, "fusion_lat": 0.0}, {"is_reserved": 0, "bike_id": "6081b0b36ee504a3d240dd912cd6eb4d", "type": "electric_bike", "name": "6081b0b36ee504a3d240dd912cd6eb4d", "is_disabled": 0, "fusion_lon": 0.0, "rental_uris": {"android": "https://dc.lft.to/lastmile_qr_scan", "ios": "https://dc.lft.to/lastmile_qr_scan"}, "lat": 38.94174816666667, "lon": -76.95351083333334, "fusion_lat": 0.0}, {"is_reserved": 0, "bike_id": "50b7646da0d18c1382aaf1ef44c3b701", "type": "electric_scooter", "name": "50b7646da0d18c1382aaf1ef44c3b701", "is_disabled": 0, "fusion_lon": 0.0, "rental_uris": {"android": "https://dc.lft.to/lastmile_qr_scan", "ios": "https://dc.lft.to/lastmile_qr_scan"}, "lat": 38.9188375, "lon": -77.0091885, "fusion_lat": 0.0}, {"is_reserved": 0, "bike_id": "090e7e9adbf643ced6288881e7fa21b3", "type": "electric_scooter", "name": "090e7e9adbf643ced6288881e7fa21b3", "is_disabled": 0, "fusion_lon": 0.0, "rental_uris": {"android": "https://dc.lft.to/lastmile_qr_scan", "ios": "https://dc.lft.to/lastmile_qr_scan"}, "lat": 38.91761366666667, "lon": -77.02703766666667, "fusion_lat": 0.0}, {"is_reserved": 0, "bike_id": "bee73e4803384a8f0c8c412b06dde37d", "type": "electric_scooter", "name": "bee73e4803384a8f0c8c412b06dde37d", "is_disabled": 0, "fusion_lon": 0.0, "rental_uris": {"android": "https://dc.lft.to/lastmile_qr_scan", "ios": "https://dc.lft.to/lastmile_qr_scan"}, "lat": 38.923698, "lon": -77.02538966666667, "fusion_lat": 0.0}, {"is_reserved": 0, "bike_id": "0715f2f820f35498b086de02894e1d9f", "type": "electric_scooter", "name": "0715f2f820f35498b086de02894e1d9f", "is_disabled": 0, "fusion_lon": 0.0, "rental_uris": {"android": "https://dc.lft.to/lastmile_qr_scan", "ios": "https://dc.lft.to/lastmile_qr_scan"}, "lat": 38.91420566666667, "lon": -77.0217155, "fusion_lat": 0.0}, {"is_reserved": 0, "bike_id": "b953c78dd32f459c92adc94670f85f78", "type": "electric_scooter", "name": "b953c78dd32f459c92adc94670f85f78", "is_disabled": 0, "fusion_lon": 0.0, "rental_uris": {"android": "https://dc.lft.to/lastmile_qr_scan", "ios": "https://dc.lft.to/lastmile_qr_scan"}, "lat": 38.85513516666666, "lon": -76.98640966666666, "fusion_lat": 0.0}, {"is_reserved": 0, "bike_id": "951f68b1337bb386dabcca11acc67310", "type": "electric_scooter", "name": "951f68b1337bb386dabcca11acc67310", "is_disabled": 0, "fusion_lon": 0.0, "rental_uris": {"android": "https://dc.lft.to/lastmile_qr_scan", "ios": "https://dc.lft.to/lastmile_qr_scan"}, "lat": 38.90317366666667, "lon": -77.018902, "fusion_lat": 0.0}, {"is_reserved": 0, "bike_id": "9055288d1a74bee231f9ff7724e9c985", "type": "electric_scooter", "name": "9055288d1a74bee231f9ff7724e9c985", "is_disabled": 0, "fusion_lon": 0.0, "rental_uris": {"android": "https://dc.lft.to/lastmile_qr_scan", "ios": "https://dc.lft.to/lastmile_qr_scan"}, "lat": 38.92826783333334, "lon": -77.02258, "fusion_lat": 0.0}, {"is_reserved": 0, "bike_id": "2e4e503134f2868862b9e491b0f67220", "type": "electric_scooter", "name": "2e4e503134f2868862b9e491b0f67220", "is_disabled": 0, "fusion_lon": 0.0, "rental_uris": {"android": "https://dc.lft.to/lastmile_qr_scan", "ios": "https://dc.lft.to/lastmile_qr_scan"}, "lat": 38.878757666666665, "lon": -77.00058233333333, "fusion_lat": 0.0}, {"is_reserved": 0, "bike_id": "6c4fc84f5997e767ceb6be8b4fcbce7a", "type": "electric_scooter", "name": "6c4fc84f5997e767ceb6be8b4fcbce7a", "is_disabled": 0, "fusion_lon": 0.0, "rental_uris": {"android": "https://dc.lft.to/lastmile_qr_scan", "ios": "https://dc.lft.to/lastmile_qr_scan"}, "lat": 38.9214195, "lon": -77.01801383333333, "fusion_lat": 0.0}, {"is_reserved": 0, "bike_id": "c0218b0d57baaa468e73b5a8addbd718", "type": "electric_scooter", "name": "c0218b0d57baaa468e73b5a8addbd718", "is_disabled": 0, "fusion_lon": 0.0, "rental_uris": {"android": "https://dc.lft.to/lastmile_qr_scan", "ios": "https://dc.lft.to/lastmile_qr_scan"}, "lat": 38.92476166666667, "lon": -77.052351, "fusion_lat": 0.0}, {"is_reserved": 0, "bike_id": "9290f0f9edd346088f682f18ca66da42", "type": "electric_bike", "name": "9290f0f9edd346088f682f18ca66da42", "is_disabled": 0, "fusion_lon": 0.0, "rental_uris": {"android": "https://dc.lft.to/lastmile_qr_scan", "ios": "https://dc.lft.to/lastmile_qr_scan"}, "lat": 38.904732, "lon": -76.92949466666667, "fusion_lat": 0.0}, {"is_reserved": 0, "bike_id": "7b425b43902ad9f033b1013753e6fb4c", "type": "electric_scooter", "name": "7b425b43902ad9f033b1013753e6fb4c", "is_disabled": 0, "fusion_lon": 0.0, "rental_uris": {"android": "https://dc.lft.to/lastmile_qr_scan", "ios": "https://dc.lft.to/lastmile_qr_scan"}, "lat": 38.895444, "lon": -76.98240983333334, "fusion_lat": 0.0}, {"is_reserved": 0, "bike_id": "b6a9feed14610998d35958afef6392fd", "type": "electric_scooter", "name": "b6a9feed14610998d35958afef6392fd", "is_disabled": 0, "fusion_lon": 0.0, "rental_uris": {"android": "https://dc.lft.to/lastmile_qr_scan", "ios": "https://dc.lft.to/lastmile_qr_scan"}, "lat": 38.877933666666664, "lon": -77.0012715, "fusion_lat": 0.0}, {"is_reserved": 0, "bike_id": "4492707b2f6996cad2ed5d163d2e24cd", "type": "electric_scooter", "name": "4492707b2f6996cad2ed5d163d2e24cd", "is_disabled": 0, "fusion_lon": 0.0, "rental_uris": {"android": "https://dc.lft.to/lastmile_qr_scan", "ios": "https://dc.lft.to/lastmile_qr_scan"}, "lat": 38.91961933333333, "lon": -77.078704, "fusion_lat": 0.0}, {"is_reserved": 0, "bike_id": "66e676fd8d1a01dd41b8e5c2191718b2", "type": "electric_scooter", "name": "66e676fd8d1a01dd41b8e5c2191718b2", "is_disabled": 0, "fusion_lon": 0.0, "rental_uris": {"android": "https://dc.lft.to/lastmile_qr_scan", "ios": "https://dc.lft.to/lastmile_qr_scan"}, "lat": 38.91195616666667, "lon": -77.032206, "fusion_lat": 0.0}, {"is_reserved": 0, "bike_id": "cbfe30ec12299be52cbb11b78d0c5123", "type": "electric_scooter", "name": "cbfe30ec12299be52cbb11b78d0c5123", "is_disabled": 0, "fusion_lon": 0.0, "rental_uris": {"android": "https://dc.lft.to/lastmile_qr_scan", "ios": "https://dc.lft.to/lastmile_qr_scan"}, "lat": 38.91615066666667, "lon": -77.04861, "fusion_lat": 0.0}, {"is_reserved": 0, "bike_id": "7987367b8df89ab03c35e5a9e599457e", "type": "electric_scooter", "name": "7987367b8df89ab03c35e5a9e599457e", "is_disabled": 0, "fusion_lon": 0.0, "rental_uris": {"android": "https://dc.lft.to/lastmile_qr_scan", "ios": "https://dc.lft.to/lastmile_qr_scan"}, "lat": 38.8972965, "lon": -76.92585, "fusion_lat": 0.0}, {"is_reserved": 0, "bike_id": "a9c3ac0266ba2d2ecb10caf389b7dbd4", "type": "electric_scooter", "name": "a9c3ac0266ba2d2ecb10caf389b7dbd4", "is_disabled": 0, "fusion_lon": 0.0, "rental_uris": {"android": "https://dc.lft.to/lastmile_qr_scan", "ios": "https://dc.lft.to/lastmile_qr_scan"}, "lat": 38.91946516666667, "lon": -77.01799933333334, "fusion_lat": 0.0}, {"is_reserved": 0, "bike_id": "63126197440be6cf41b90d33e4b9cf25", "type": "electric_scooter", "name": "63126197440be6cf41b90d33e4b9cf25", "is_disabled": 0, "fusion_lon": 0.0, "rental_uris": {"android": "https://dc.lft.to/lastmile_qr_scan", "ios": "https://dc.lft.to/lastmile_qr_scan"}, "lat": 38.9072295, "lon": -77.03230183333334, "fusion_lat": 0.0}, {"is_reserved": 0, "bike_id": "a4d5c6ac92338438d2c3ffbda49efad6", "type": "electric_bike", "name": "a4d5c6ac92338438d2c3ffbda49efad6", "is_disabled": 0, "fusion_lon": 0.0, "rental_uris": {"android": "https://dc.lft.to/lastmile_qr_scan", "ios": "https://dc.lft.to/lastmile_qr_scan"}, "lat": 38.90577783333333, "lon": -77.01852233333334, "fusion_lat": 0.0}, {"is_reserved": 0, "bike_id": "901fbb543ff2e201ac8cf73ca2a32108", "type": "electric_scooter", "name": "901fbb543ff2e201ac8cf73ca2a32108", "is_disabled": 0, "fusion_lon": 0.0, "rental_uris": {"android": "https://dc.lft.to/lastmile_qr_scan", "ios": "https://dc.lft.to/lastmile_qr_scan"}, "lat": 38.9205195, "lon": -77.0234555, "fusion_lat": 0.0}, {"is_reserved": 0, "bike_id": "33951d49633d3a73dc4d3e01368a7026", "type": "electric_scooter", "name": "33951d49633d3a73dc4d3e01368a7026", "is_disabled": 0, "fusion_lon": 0.0, "rental_uris": {"android": "https://dc.lft.to/lastmile_qr_scan", "ios": "https://dc.lft.to/lastmile_qr_scan"}, "lat": 38.895478833333335, "lon": -77.00914916666666, "fusion_lat": 0.0}, {"is_reserved": 0, "bike_id": "40a13707c6872a3d767dca72fa44e308", "type": "electric_scooter", "name": "40a13707c6872a3d767dca72fa44e308", "is_disabled": 0, "fusion_lon": 0.0, "rental_uris": {"android": "https://dc.lft.to/lastmile_qr_scan", "ios": "https://dc.lft.to/lastmile_qr_scan"}, "lat": 38.9362485, "lon": -77.032815, "fusion_lat": 0.0}, {"is_reserved": 0, "bike_id": "97eed146fb8be48fa777486b8435a349", "type": "electric_scooter", "name": "97eed146fb8be48fa777486b8435a349", "is_disabled": 0, "fusion_lon": 0.0, "rental_uris": {"android": "https://dc.lft.to/lastmile_qr_scan", "ios": "https://dc.lft.to/lastmile_qr_scan"}, "lat": 38.92691383333333, "lon": -77.02572416666666, "fusion_lat": 0.0}, {"is_reserved": 0, "bike_id": "2dae3c140bb8fc7c230f5e959e158f16", "type": "electric_scooter", "name": "2dae3c140bb8fc7c230f5e959e158f16", "is_disabled": 0, "fusion_lon": 0.0, "rental_uris": {"android": "https://dc.lft.to/lastmile_qr_scan", "ios": "https://dc.lft.to/lastmile_qr_scan"}, "lat": 38.89556416666667, "lon": -76.9305505, "fusion_lat": 0.0}, {"is_reserved": 0, "bike_id": "a84e30ab3f5c7b54f62b9063c143fda8", "type": "electric_scooter", "name": "a84e30ab3f5c7b54f62b9063c143fda8", "is_disabled": 0, "fusion_lon": 0.0, "rental_uris": {"android": "https://dc.lft.to/lastmile_qr_scan", "ios": "https://dc.lft.to/lastmile_qr_scan"}, "lat": 38.9155355, "lon": -77.03170766666666, "fusion_lat": 0.0}, {"is_reserved": 0, "bike_id": "7205481e2370534821d18c435c8b8021", "type": "electric_scooter", "name": "7205481e2370534821d18c435c8b8021", "is_disabled": 0, "fusion_lon": 0.0, "rental_uris": {"android": "https://dc.lft.to/lastmile_qr_scan", "ios": "https://dc.lft.to/lastmile_qr_scan"}, "lat": 38.88514266666667, "lon": -77.011168, "fusion_lat": 0.0}, {"is_reserved": 0, "bike_id": "ac19e149140f7a853de2c4149373c3d3", "type": "electric_scooter", "name": "ac19e149140f7a853de2c4149373c3d3", "is_disabled": 0, "fusion_lon": 0.0, "rental_uris": {"android": "https://dc.lft.to/lastmile_qr_scan", "ios": "https://dc.lft.to/lastmile_qr_scan"}, "lat": 38.91638783333333, "lon": -77.03989283333334, "fusion_lat": 0.0}, {"is_reserved": 0, "bike_id": "11ce89bda747c91579c3cf13a7c1d29c", "type": "electric_scooter", "name": "11ce89bda747c91579c3cf13a7c1d29c", "is_disabled": 0, "fusion_lon": 0.0, "rental_uris": {"android": "https://dc.lft.to/lastmile_qr_scan", "ios": "https://dc.lft.to/lastmile_qr_scan"}, "lat": 38.90078583333333, "lon": -77.05411883333333, "fusion_lat": 0.0}, {"is_reserved": 0, "bike_id": "1943b5611a8ec28a2d0876a84c9cca6b", "type": "electric_scooter", "name": "1943b5611a8ec28a2d0876a84c9cca6b", "is_disabled": 0, "fusion_lon": 0.0, "rental_uris": {"android": "https://dc.lft.to/lastmile_qr_scan", "ios": "https://dc.lft.to/lastmile_qr_scan"}, "lat": 38.91995983333333, "lon": -77.04084883333333, "fusion_lat": 0.0}, {"is_reserved": 0, "bike_id": "d366bfd44b221cd93ec5dc8aa747e33c", "type": "electric_scooter", "name": "d366bfd44b221cd93ec5dc8aa747e33c", "is_disabled": 0, "fusion_lon": 0.0, "rental_uris": {"android": "https://dc.lft.to/lastmile_qr_scan", "ios": "https://dc.lft.to/lastmile_qr_scan"}, "lat": 38.90893583333333, "lon": -77.04401666666666, "fusion_lat": 0.0}, {"is_reserved": 0, "bike_id": "7a2617775e913994473c3d72d206595b", "type": "electric_scooter", "name": "7a2617775e913994473c3d72d206595b", "is_disabled": 0, "fusion_lon": 0.0, "rental_uris": {"android": "https://dc.lft.to/lastmile_qr_scan", "ios": "https://dc.lft.to/lastmile_qr_scan"}, "lat": 38.921750333333335, "lon": -77.02199266666666, "fusion_lat": 0.0}, {"is_reserved": 0, "bike_id": "6a0e98e5a2e8fcfa2cbe813733b4edb9", "type": "electric_scooter", "name": "6a0e98e5a2e8fcfa2cbe813733b4edb9", "is_disabled": 0, "fusion_lon": 0.0, "rental_uris": {"android": "https://dc.lft.to/lastmile_qr_scan", "ios": "https://dc.lft.to/lastmile_qr_scan"}, "lat": 38.920420666666665, "lon": -77.02361383333333, "fusion_lat": 0.0}, {"is_reserved": 0, "bike_id": "c47de037de8dde2d5bd5023c73a3e199", "type": "electric_scooter", "name": "c47de037de8dde2d5bd5023c73a3e199", "is_disabled": 0, "fusion_lon": 0.0, "rental_uris": {"android": "https://dc.lft.to/lastmile_qr_scan", "ios": "https://dc.lft.to/lastmile_qr_scan"}, "lat": 38.90762266666667, "lon": -77.03542983333334, "fusion_lat": 0.0}, {"is_reserved": 0, "bike_id": "2238f2d2f9e106b593f7bb1828b20e60", "type": "electric_scooter", "name": "2238f2d2f9e106b593f7bb1828b20e60", "is_disabled": 0, "fusion_lon": 0.0, "rental_uris": {"android": "https://dc.lft.to/lastmile_qr_scan", "ios": "https://dc.lft.to/lastmile_qr_scan"}, "lat": 38.9026415, "lon": -77.01754566666666, "fusion_lat": 0.0}, {"is_reserved": 0, "bike_id": "66d5fa658099bd8e0f0815bba71f3445", "type": "electric_scooter", "name": "66d5fa658099bd8e0f0815bba71f3445", "is_disabled": 0, "fusion_lon": 0.0, "rental_uris": {"android": "https://dc.lft.to/lastmile_qr_scan", "ios": "https://dc.lft.to/lastmile_qr_scan"}, "lat": 38.9096965, "lon": -77.00899983333333, "fusion_lat": 0.0}, {"is_reserved": 0, "bike_id": "bcc1f35e26c078ab01d425bc1e6cf37e", "type": "electric_scooter", "name": "bcc1f35e26c078ab01d425bc1e6cf37e", "is_disabled": 0, "fusion_lon": 0.0, "rental_uris": {"android": "https://dc.lft.to/lastmile_qr_scan", "ios": "https://dc.lft.to/lastmile_qr_scan"}, "lat": 38.88103183333333, "lon": -77.02578216666667, "fusion_lat": 0.0}, {"is_reserved": 0, "bike_id": "fc6dac52bcb996ae6103033923e9a55d", "type": "electric_scooter", "name": "fc6dac52bcb996ae6103033923e9a55d", "is_disabled": 0, "fusion_lon": 0.0, "rental_uris": {"android": "https://dc.lft.to/lastmile_qr_scan", "ios": "https://dc.lft.to/lastmile_qr_scan"}, "lat": 38.91861816666667, "lon": -76.96090433333333, "fusion_lat": 0.0}, {"is_reserved": 0, "bike_id": "daccf930cfd35e9ad34e8623a5ef792b", "type": "electric_scooter", "name": "daccf930cfd35e9ad34e8623a5ef792b", "is_disabled": 0, "fusion_lon": 0.0, "rental_uris": {"android": "https://dc.lft.to/lastmile_qr_scan", "ios": "https://dc.lft.to/lastmile_qr_scan"}, "lat": 38.902611, "lon": -77.01760666666667, "fusion_lat": 0.0}, {"is_reserved": 0, "bike_id": "4a8b2eca6df442b49448795f87d83b0c", "type": "electric_scooter", "name": "4a8b2eca6df442b49448795f87d83b0c", "is_disabled": 0, "fusion_lon": 0.0, "rental_uris": {"android": "https://dc.lft.to/lastmile_qr_scan", "ios": "https://dc.lft.to/lastmile_qr_scan"}, "lat": 38.899273666666666, "lon": -77.03217833333333, "fusion_lat": 0.0}, {"is_reserved": 0, "bike_id": "d227353c18ab463d6481b5ccbba9e6e8", "type": "electric_scooter", "name": "d227353c18ab463d6481b5ccbba9e6e8", "is_disabled": 0, "fusion_lon": 0.0, "rental_uris": {"android": "https://dc.lft.to/lastmile_qr_scan", "ios": "https://dc.lft.to/lastmile_qr_scan"}, "lat": 38.89701516666667, "lon": -77.04338533333333, "fusion_lat": 0.0}, {"is_reserved": 0, "bike_id": "bac5446d9451ae2667a4781f1b367f6e", "type": "electric_bike", "name": "bac5446d9451ae2667a4781f1b367f6e", "is_disabled": 0, "fusion_lon": 0.0, "rental_uris": {"android": "https://dc.lft.to/lastmile_qr_scan", "ios": "https://dc.lft.to/lastmile_qr_scan"}, "lat": 38.96563533333333, "lon": -77.02816266666666, "fusion_lat": 0.0}, {"is_reserved": 0, "bike_id": "18884d727ea5c61c2c6764639a07006d", "type": "electric_scooter", "name": "18884d727ea5c61c2c6764639a07006d", "is_disabled": 0, "fusion_lon": 0.0, "rental_uris": {"android": "https://dc.lft.to/lastmile_qr_scan", "ios": "https://dc.lft.to/lastmile_qr_scan"}, "lat": 38.92072616666667, "lon": -77.04381016666666, "fusion_lat": 0.0}, {"is_reserved": 0, "bike_id": "79e76b5a9d91b16428ab0bd82fdc37b1", "type": "electric_scooter", "name": "79e76b5a9d91b16428ab0bd82fdc37b1", "is_disabled": 0, "fusion_lon": 0.0, "rental_uris": {"android": "https://dc.lft.to/lastmile_qr_scan", "ios": "https://dc.lft.to/lastmile_qr_scan"}, "lat": 38.92099616666667, "lon": -77.02494016666667, "fusion_lat": 0.0}, {"is_reserved": 0, "bike_id": "7e406e206a795846b0e27cc2bad44319", "type": "electric_scooter", "name": "7e406e206a795846b0e27cc2bad44319", "is_disabled": 0, "fusion_lon": 0.0, "rental_uris": {"android": "https://dc.lft.to/lastmile_qr_scan", "ios": "https://dc.lft.to/lastmile_qr_scan"}, "lat": 38.89826766666667, "lon": -77.04610416666667, "fusion_lat": 0.0}, {"is_reserved": 0, "bike_id": "8db6d009ae5b8b4e4a04c7c4441cd336", "type": "electric_scooter", "name": "8db6d009ae5b8b4e4a04c7c4441cd336", "is_disabled": 0, "fusion_lon": 0.0, "rental_uris": {"android": "https://dc.lft.to/lastmile_qr_scan", "ios": "https://dc.lft.to/lastmile_qr_scan"}, "lat": 38.91273316666667, "lon": -77.03927033333333, "fusion_lat": 0.0}, {"is_reserved": 0, "bike_id": "b355db75b08b3369020b361557c6a938", "type": "electric_scooter", "name": "b355db75b08b3369020b361557c6a938", "is_disabled": 0, "fusion_lon": 0.0, "rental_uris": {"android": "https://dc.lft.to/lastmile_qr_scan", "ios": "https://dc.lft.to/lastmile_qr_scan"}, "lat": 38.884321166666666, "lon": -77.0304525, "fusion_lat": 0.0}, {"is_reserved": 0, "bike_id": "1fc42f05f8c067daf058c2e72e5a5bfa", "type": "electric_bike", "name": "1fc42f05f8c067daf058c2e72e5a5bfa", "is_disabled": 0, "fusion_lon": 0.0, "rental_uris": {"android": "https://dc.lft.to/lastmile_qr_scan", "ios": "https://dc.lft.to/lastmile_qr_scan"}, "lat": 38.9589245, "lon": -76.97054466666667, "fusion_lat": 0.0}, {"is_reserved": 0, "bike_id": "6243014d507759c6049bde4a32c9e578", "type": "electric_scooter", "name": "6243014d507759c6049bde4a32c9e578", "is_disabled": 0, "fusion_lon": 0.0, "rental_uris": {"android": "https://dc.lft.to/lastmile_qr_scan", "ios": "https://dc.lft.to/lastmile_qr_scan"}, "lat": 38.89618683333333, "lon": -76.9855905, "fusion_lat": 0.0}, {"is_reserved": 0, "bike_id": "ac26a68b1ea890dd19c0ddde1a0ccddc", "type": "electric_scooter", "name": "ac26a68b1ea890dd19c0ddde1a0ccddc", "is_disabled": 0, "fusion_lon": 0.0, "rental_uris": {"android": "https://dc.lft.to/lastmile_qr_scan", "ios": "https://dc.lft.to/lastmile_qr_scan"}, "lat": 38.91406883333333, "lon": -77.0101385, "fusion_lat": 0.0}, {"is_reserved": 0, "bike_id": "46aa01ef4f24fb6c4f9ce3e641e9fa59", "type": "electric_scooter", "name": "46aa01ef4f24fb6c4f9ce3e641e9fa59", "is_disabled": 0, "fusion_lon": 0.0, "rental_uris": {"android": "https://dc.lft.to/lastmile_qr_scan", "ios": "https://dc.lft.to/lastmile_qr_scan"}, "lat": 38.9065215, "lon": -77.053362, "fusion_lat": 0.0}, {"is_reserved": 0, "bike_id": "5d0106d2eba5fdd55ca59dfd369f4f1d", "type": "electric_scooter", "name": "5d0106d2eba5fdd55ca59dfd369f4f1d", "is_disabled": 0, "fusion_lon": 0.0, "rental_uris": {"android": "https://dc.lft.to/lastmile_qr_scan", "ios": "https://dc.lft.to/lastmile_qr_scan"}, "lat": 38.92266516666667, "lon": -77.02956816666666, "fusion_lat": 0.0}, {"is_reserved": 0, "bike_id": "1be9bd995d9de4dc28ad25b57d7a809d", "type": "electric_scooter", "name": "1be9bd995d9de4dc28ad25b57d7a809d", "is_disabled": 0, "fusion_lon": 0.0, "rental_uris": {"android": "https://dc.lft.to/lastmile_qr_scan", "ios": "https://dc.lft.to/lastmile_qr_scan"}, "lat": 38.923377333333335, "lon": -77.05679033333334, "fusion_lat": 0.0}, {"is_reserved": 0, "bike_id": "d4956880f33551d2256ac41c539263bc", "type": "electric_scooter", "name": "d4956880f33551d2256ac41c539263bc", "is_disabled": 0, "fusion_lon": 0.0, "rental_uris": {"android": "https://dc.lft.to/lastmile_qr_scan", "ios": "https://dc.lft.to/lastmile_qr_scan"}, "lat": 38.95423916666667, "lon": -77.0276415, "fusion_lat": 0.0}, {"is_reserved": 0, "bike_id": "137d593a7628c2603bc52ceff06d7e79", "type": "electric_scooter", "name": "137d593a7628c2603bc52ceff06d7e79", "is_disabled": 0, "fusion_lon": 0.0, "rental_uris": {"android": "https://dc.lft.to/lastmile_qr_scan", "ios": "https://dc.lft.to/lastmile_qr_scan"}, "lat": 38.931849, "lon": -77.03699366666666, "fusion_lat": 0.0}, {"is_reserved": 0, "bike_id": "ab4b0865a8aeca3f0c967c5be3d98297", "type": "electric_scooter", "name": "ab4b0865a8aeca3f0c967c5be3d98297", "is_disabled": 0, "fusion_lon": 0.0, "rental_uris": {"android": "https://dc.lft.to/lastmile_qr_scan", "ios": "https://dc.lft.to/lastmile_qr_scan"}, "lat": 38.91270883333333, "lon": -77.0220925, "fusion_lat": 0.0}, {"is_reserved": 0, "bike_id": "fc8f9d862cc5a4c2539238d753d9f5c5", "type": "electric_scooter", "name": "fc8f9d862cc5a4c2539238d753d9f5c5", "is_disabled": 0, "fusion_lon": 0.0, "rental_uris": {"android": "https://dc.lft.to/lastmile_qr_scan", "ios": "https://dc.lft.to/lastmile_qr_scan"}, "lat": 38.91103283333333, "lon": -77.00329933333333, "fusion_lat": 0.0}, {"is_reserved": 0, "bike_id": "03e5cb32879cc9280093d38b6ecb2578", "type": "electric_scooter", "name": "03e5cb32879cc9280093d38b6ecb2578", "is_disabled": 0, "fusion_lon": 0.0, "rental_uris": {"android": "https://dc.lft.to/lastmile_qr_scan", "ios": "https://dc.lft.to/lastmile_qr_scan"}, "lat": 38.91711433333333, "lon": -77.02390283333334, "fusion_lat": 0.0}, {"is_reserved": 0, "bike_id": "66ceab70298c85faa48bb9106c5651b7", "type": "electric_scooter", "name": "66ceab70298c85faa48bb9106c5651b7", "is_disabled": 0, "fusion_lon": 0.0, "rental_uris": {"android": "https://dc.lft.to/lastmile_qr_scan", "ios": "https://dc.lft.to/lastmile_qr_scan"}, "lat": 38.919293333333336, "lon": -77.0342565, "fusion_lat": 0.0}, {"is_reserved": 0, "bike_id": "07654ed81e90a475951294740e10f6be", "type": "electric_scooter", "name": "07654ed81e90a475951294740e10f6be", "is_disabled": 0, "fusion_lon": 0.0, "rental_uris": {"android": "https://dc.lft.to/lastmile_qr_scan", "ios": "https://dc.lft.to/lastmile_qr_scan"}, "lat": 38.89951083333333, "lon": -77.04510633333334, "fusion_lat": 0.0}, {"is_reserved": 0, "bike_id": "82d92d687e1ce2a77cd5d9dddee7ab77", "type": "electric_scooter", "name": "82d92d687e1ce2a77cd5d9dddee7ab77", "is_disabled": 0, "fusion_lon": 0.0, "rental_uris": {"android": "https://dc.lft.to/lastmile_qr_scan", "ios": "https://dc.lft.to/lastmile_qr_scan"}, "lat": 38.897093, "lon": -77.043276, "fusion_lat": 0.0}, {"is_reserved": 0, "bike_id": "aa91cc5cfe267633b8eff1b8ba7a0279", "type": "electric_scooter", "name": "aa91cc5cfe267633b8eff1b8ba7a0279", "is_disabled": 0, "fusion_lon": 0.0, "rental_uris": {"android": "https://dc.lft.to/lastmile_qr_scan", "ios": "https://dc.lft.to/lastmile_qr_scan"}, "lat": 38.919337, "lon": -77.044948, "fusion_lat": 0.0}, {"is_reserved": 0, "bike_id": "a35de63ad2eda99bb9d72b1b667f7a9b", "type": "electric_scooter", "name": "a35de63ad2eda99bb9d72b1b667f7a9b", "is_disabled": 0, "fusion_lon": 0.0, "rental_uris": {"android": "https://dc.lft.to/lastmile_qr_scan", "ios": "https://dc.lft.to/lastmile_qr_scan"}, "lat": 38.876554666666664, "lon": -77.00334683333334, "fusion_lat": 0.0}, {"is_reserved": 0, "bike_id": "9bc7e64f50a23fa9c7c3316565974338", "type": "electric_scooter", "name": "9bc7e64f50a23fa9c7c3316565974338", "is_disabled": 0, "fusion_lon": 0.0, "rental_uris": {"android": "https://dc.lft.to/lastmile_qr_scan", "ios": "https://dc.lft.to/lastmile_qr_scan"}, "lat": 38.9197965, "lon": -77.03344533333333, "fusion_lat": 0.0}, {"is_reserved": 0, "bike_id": "5f8e47b18a7b59c9aef0661cd867624c", "type": "electric_scooter", "name": "5f8e47b18a7b59c9aef0661cd867624c", "is_disabled": 0, "fusion_lon": 0.0, "rental_uris": {"android": "https://dc.lft.to/lastmile_qr_scan", "ios": "https://dc.lft.to/lastmile_qr_scan"}, "lat": 38.91923933333333, "lon": -77.0310525, "fusion_lat": 0.0}, {"is_reserved": 0, "bike_id": "04f7d3032c8759ba198d77ac1c38b338", "type": "electric_scooter", "name": "04f7d3032c8759ba198d77ac1c38b338", "is_disabled": 0, "fusion_lon": 0.0, "rental_uris": {"android": "https://dc.lft.to/lastmile_qr_scan", "ios": "https://dc.lft.to/lastmile_qr_scan"}, "lat": 38.9157495, "lon": -77.01991233333334, "fusion_lat": 0.0}, {"is_reserved": 0, "bike_id": "fe0ae75b85341404da268c0dc3062ec2", "type": "electric_scooter", "name": "fe0ae75b85341404da268c0dc3062ec2", "is_disabled": 0, "fusion_lon": 0.0, "rental_uris": {"android": "https://dc.lft.to/lastmile_qr_scan", "ios": "https://dc.lft.to/lastmile_qr_scan"}, "lat": 38.8848235, "lon": -77.01946116666667, "fusion_lat": 0.0}, {"is_reserved": 0, "bike_id": "d196885d029c63c6261fb60c41f2576f", "type": "electric_scooter", "name": "d196885d029c63c6261fb60c41f2576f", "is_disabled": 0, "fusion_lon": 0.0, "rental_uris": {"android": "https://dc.lft.to/lastmile_qr_scan", "ios": "https://dc.lft.to/lastmile_qr_scan"}, "lat": 38.90966816666667, "lon": -77.03419066666666, "fusion_lat": 0.0}, {"is_reserved": 0, "bike_id": "b7a0a43d103be0c8567561bc678aa2bd", "type": "electric_scooter", "name": "b7a0a43d103be0c8567561bc678aa2bd", "is_disabled": 0, "fusion_lon": 0.0, "rental_uris": {"android": "https://dc.lft.to/lastmile_qr_scan", "ios": "https://dc.lft.to/lastmile_qr_scan"}, "lat": 38.91673683333333, "lon": -77.0233285, "fusion_lat": 0.0}, {"is_reserved": 0, "bike_id": "aff1522439f961534b33954537ed6668", "type": "electric_scooter", "name": "aff1522439f961534b33954537ed6668", "is_disabled": 0, "fusion_lon": 0.0, "rental_uris": {"android": "https://dc.lft.to/lastmile_qr_scan", "ios": "https://dc.lft.to/lastmile_qr_scan"}, "lat": 38.90365966666667, "lon": -77.03117366666666, "fusion_lat": 0.0}, {"is_reserved": 0, "bike_id": "3a3ef531a2842f32cba2fa21ffeeb6ee", "type": "electric_scooter", "name": "3a3ef531a2842f32cba2fa21ffeeb6ee", "is_disabled": 0, "fusion_lon": 0.0, "rental_uris": {"android": "https://dc.lft.to/lastmile_qr_scan", "ios": "https://dc.lft.to/lastmile_qr_scan"}, "lat": 38.89025916666667, "lon": -76.9446475, "fusion_lat": 0.0}, {"is_reserved": 0, "bike_id": "494090371869a96eceb79030b5676056", "type": "electric_scooter", "name": "494090371869a96eceb79030b5676056", "is_disabled": 0, "fusion_lon": 0.0, "rental_uris": {"android": "https://dc.lft.to/lastmile_qr_scan", "ios": "https://dc.lft.to/lastmile_qr_scan"}, "lat": 38.87851883333333, "lon": -77.00782566666666, "fusion_lat": 0.0}, {"is_reserved": 0, "bike_id": "0b27fbdcd00e569138b1872adff62cf7", "type": "electric_scooter", "name": "0b27fbdcd00e569138b1872adff62cf7", "is_disabled": 0, "fusion_lon": 0.0, "rental_uris": {"android": "https://dc.lft.to/lastmile_qr_scan", "ios": "https://dc.lft.to/lastmile_qr_scan"}, "lat": 38.90551716666667, "lon": -77.03453533333334, "fusion_lat": 0.0}, {"is_reserved": 0, "bike_id": "46b7deb3aa5d323ee2c77197816e4bde", "type": "electric_scooter", "name": "46b7deb3aa5d323ee2c77197816e4bde", "is_disabled": 0, "fusion_lon": 0.0, "rental_uris": {"android": "https://dc.lft.to/lastmile_qr_scan", "ios": "https://dc.lft.to/lastmile_qr_scan"}, "lat": 38.9002345, "lon": -76.99878266666667, "fusion_lat": 0.0}, {"is_reserved": 0, "bike_id": "6c77d46da5d4d24cf40d864c5b4aeb05", "type": "electric_scooter", "name": "6c77d46da5d4d24cf40d864c5b4aeb05", "is_disabled": 0, "fusion_lon": 0.0, "rental_uris": {"android": "https://dc.lft.to/lastmile_qr_scan", "ios": "https://dc.lft.to/lastmile_qr_scan"}, "lat": 38.910972, "lon": -77.040903, "fusion_lat": 0.0}, {"is_reserved": 0, "bike_id": "75f777caf6cbd0c0082af5e6fb1ae26b", "type": "electric_scooter", "name": "75f777caf6cbd0c0082af5e6fb1ae26b", "is_disabled": 0, "fusion_lon": 0.0, "rental_uris": {"android": "https://dc.lft.to/lastmile_qr_scan", "ios": "https://dc.lft.to/lastmile_qr_scan"}, "lat": 38.885881833333336, "lon": -77.0196165, "fusion_lat": 0.0}, {"is_reserved": 0, "bike_id": "69a498908f08c43259865947ee2e575a", "type": "electric_scooter", "name": "69a498908f08c43259865947ee2e575a", "is_disabled": 0, "fusion_lon": 0.0, "rental_uris": {"android": "https://dc.lft.to/lastmile_qr_scan", "ios": "https://dc.lft.to/lastmile_qr_scan"}, "lat": 38.909468333333336, "lon": -77.03450633333334, "fusion_lat": 0.0}, {"is_reserved": 0, "bike_id": "24d4f3ae62f5efb3d0f0cb6dfb1e09b7", "type": "electric_scooter", "name": "24d4f3ae62f5efb3d0f0cb6dfb1e09b7", "is_disabled": 0, "fusion_lon": 0.0, "rental_uris": {"android": "https://dc.lft.to/lastmile_qr_scan", "ios": "https://dc.lft.to/lastmile_qr_scan"}, "lat": 38.901986, "lon": -77.048083, "fusion_lat": 0.0}, {"is_reserved": 0, "bike_id": "9e34664213a308a382166c9ce8b12bde", "type": "electric_scooter", "name": "9e34664213a308a382166c9ce8b12bde", "is_disabled": 0, "fusion_lon": 0.0, "rental_uris": {"android": "https://dc.lft.to/lastmile_qr_scan", "ios": "https://dc.lft.to/lastmile_qr_scan"}, "lat": 38.9144305, "lon": -77.02296566666666, "fusion_lat": 0.0}, {"is_reserved": 0, "bike_id": "fa87cb2600488d9e29bba0442e792878", "type": "electric_scooter", "name": "fa87cb2600488d9e29bba0442e792878", "is_disabled": 0, "fusion_lon": 0.0, "rental_uris": {"android": "https://dc.lft.to/lastmile_qr_scan", "ios": "https://dc.lft.to/lastmile_qr_scan"}, "lat": 38.90027466666667, "lon": -76.998769, "fusion_lat": 0.0}, {"is_reserved": 0, "bike_id": "21b594e98cbee4c2862df62779f34e76", "type": "electric_scooter", "name": "21b594e98cbee4c2862df62779f34e76", "is_disabled": 0, "fusion_lon": 0.0, "rental_uris": {"android": "https://dc.lft.to/lastmile_qr_scan", "ios": "https://dc.lft.to/lastmile_qr_scan"}, "lat": 38.889705, "lon": -76.980366, "fusion_lat": 0.0}, {"is_reserved": 0, "bike_id": "10cb43b6f9d9d2a7779cb045d56a1cec", "type": "electric_scooter", "name": "10cb43b6f9d9d2a7779cb045d56a1cec", "is_disabled": 0, "fusion_lon": 0.0, "rental_uris": {"android": "https://dc.lft.to/lastmile_qr_scan", "ios": "https://dc.lft.to/lastmile_qr_scan"}, "lat": 38.932727, "lon": -77.01922966666666, "fusion_lat": 0.0}, {"is_reserved": 0, "bike_id": "4453fb05d19107462244b53c5d3bc26e", "type": "electric_scooter", "name": "4453fb05d19107462244b53c5d3bc26e", "is_disabled": 0, "fusion_lon": 0.0, "rental_uris": {"android": "https://dc.lft.to/lastmile_qr_scan", "ios": "https://dc.lft.to/lastmile_qr_scan"}, "lat": 38.915658, "lon": -77.03947566666666, "fusion_lat": 0.0}, {"is_reserved": 0, "bike_id": "b4d0acd729ffb40804f08b20a88aebab", "type": "electric_scooter", "name": "b4d0acd729ffb40804f08b20a88aebab", "is_disabled": 0, "fusion_lon": 0.0, "rental_uris": {"android": "https://dc.lft.to/lastmile_qr_scan", "ios": "https://dc.lft.to/lastmile_qr_scan"}, "lat": 38.9020445, "lon": -77.021992, "fusion_lat": 0.0}, {"is_reserved": 0, "bike_id": "0da270abb4232fe1206a818937294efe", "type": "electric_scooter", "name": "0da270abb4232fe1206a818937294efe", "is_disabled": 0, "fusion_lon": 0.0, "rental_uris": {"android": "https://dc.lft.to/lastmile_qr_scan", "ios": "https://dc.lft.to/lastmile_qr_scan"}, "lat": 38.897263, "lon": -77.028027, "fusion_lat": 0.0}, {"is_reserved": 0, "bike_id": "a35bab6be85dc10e5d1c46f7e9f62741", "type": "electric_scooter", "name": "a35bab6be85dc10e5d1c46f7e9f62741", "is_disabled": 0, "fusion_lon": 0.0, "rental_uris": {"android": "https://dc.lft.to/lastmile_qr_scan", "ios": "https://dc.lft.to/lastmile_qr_scan"}, "lat": 38.901773666666664, "lon": -77.02039683333334, "fusion_lat": 0.0}, {"is_reserved": 0, "bike_id": "a1f66301108462da372d50f0c77edc8e", "type": "electric_scooter", "name": "a1f66301108462da372d50f0c77edc8e", "is_disabled": 0, "fusion_lon": 0.0, "rental_uris": {"android": "https://dc.lft.to/lastmile_qr_scan", "ios": "https://dc.lft.to/lastmile_qr_scan"}, "lat": 38.89727033333333, "lon": -77.02446633333334, "fusion_lat": 0.0}, {"is_reserved": 0, "bike_id": "87325b7de03beeb6b89f7f9cca546a92", "type": "electric_bike", "name": "87325b7de03beeb6b89f7f9cca546a92", "is_disabled": 0, "fusion_lon": 0.0, "rental_uris": {"android": "https://dc.lft.to/lastmile_qr_scan", "ios": "https://dc.lft.to/lastmile_qr_scan"}, "lat": 38.9206015, "lon": -77.03309266666666, "fusion_lat": 0.0}, {"is_reserved": 0, "bike_id": "4f68ce067c276f30d8e7b2ac7fab3c2b", "type": "electric_scooter", "name": "4f68ce067c276f30d8e7b2ac7fab3c2b", "is_disabled": 0, "fusion_lon": 0.0, "rental_uris": {"android": "https://dc.lft.to/lastmile_qr_scan", "ios": "https://dc.lft.to/lastmile_qr_scan"}, "lat": 38.91938833333333, "lon": -77.02481766666666, "fusion_lat": 0.0}, {"is_reserved": 0, "bike_id": "50ba0a7224bab7d3a50dbe402791f7c0", "type": "electric_scooter", "name": "50ba0a7224bab7d3a50dbe402791f7c0", "is_disabled": 0, "fusion_lon": 0.0, "rental_uris": {"android": "https://dc.lft.to/lastmile_qr_scan", "ios": "https://dc.lft.to/lastmile_qr_scan"}, "lat": 38.931048, "lon": -77.02662833333333, "fusion_lat": 0.0}, {"is_reserved": 0, "bike_id": "5a433f48f60f864ac52fe184002c5964", "type": "electric_scooter", "name": "5a433f48f60f864ac52fe184002c5964", "is_disabled": 0, "fusion_lon": 0.0, "rental_uris": {"android": "https://dc.lft.to/lastmile_qr_scan", "ios": "https://dc.lft.to/lastmile_qr_scan"}, "lat": 38.909441, "lon": -76.93606916666667, "fusion_lat": 0.0}, {"is_reserved": 0, "bike_id": "9fc66deb8c4d34e8b30bd98004000c8e", "type": "electric_scooter", "name": "9fc66deb8c4d34e8b30bd98004000c8e", "is_disabled": 0, "fusion_lon": 0.0, "rental_uris": {"android": "https://dc.lft.to/lastmile_qr_scan", "ios": "https://dc.lft.to/lastmile_qr_scan"}, "lat": 38.924989, "lon": -77.05251066666666, "fusion_lat": 0.0}, {"is_reserved": 0, "bike_id": "c5eb44b05913c5f54f2406f302dbfcc2", "type": "electric_scooter", "name": "c5eb44b05913c5f54f2406f302dbfcc2", "is_disabled": 0, "fusion_lon": 0.0, "rental_uris": {"android": "https://dc.lft.to/lastmile_qr_scan", "ios": "https://dc.lft.to/lastmile_qr_scan"}, "lat": 38.91866433333333, "lon": -77.04038033333333, "fusion_lat": 0.0}, {"is_reserved": 0, "bike_id": "82c942e654c380a798466e1d4e5bba43", "type": "electric_bike", "name": "82c942e654c380a798466e1d4e5bba43", "is_disabled": 0, "fusion_lon": 0.0, "rental_uris": {"android": "https://dc.lft.to/lastmile_qr_scan", "ios": "https://dc.lft.to/lastmile_qr_scan"}, "lat": 39.08443716666667, "lon": -76.9515975, "fusion_lat": 0.0}, {"is_reserved": 0, "bike_id": "e2e33041a091b7c2d00535daa1429980", "type": "electric_scooter", "name": "e2e33041a091b7c2d00535daa1429980", "is_disabled": 0, "fusion_lon": 0.0, "rental_uris": {"android": "https://dc.lft.to/lastmile_qr_scan", "ios": "https://dc.lft.to/lastmile_qr_scan"}, "lat": 38.935630833333335, "lon": -77.06429133333333, "fusion_lat": 0.0}, {"is_reserved": 0, "bike_id": "63cdd1bfb48b5090b1cec288d5f5d07e", "type": "electric_scooter", "name": "63cdd1bfb48b5090b1cec288d5f5d07e", "is_disabled": 0, "fusion_lon": 0.0, "rental_uris": {"android": "https://dc.lft.to/lastmile_qr_scan", "ios": "https://dc.lft.to/lastmile_qr_scan"}, "lat": 38.916353666666666, "lon": -77.03505716666666, "fusion_lat": 0.0}, {"is_reserved": 0, "bike_id": "66f3157b0229eafd32b9f2c5636ad176", "type": "electric_scooter", "name": "66f3157b0229eafd32b9f2c5636ad176", "is_disabled": 0, "fusion_lon": 0.0, "rental_uris": {"android": "https://dc.lft.to/lastmile_qr_scan", "ios": "https://dc.lft.to/lastmile_qr_scan"}, "lat": 38.935807, "lon": -77.021252, "fusion_lat": 0.0}, {"is_reserved": 0, "bike_id": "bcc28cef50f089cbf4b159dcbd6d20c2", "type": "electric_scooter", "name": "bcc28cef50f089cbf4b159dcbd6d20c2", "is_disabled": 0, "fusion_lon": 0.0, "rental_uris": {"android": "https://dc.lft.to/lastmile_qr_scan", "ios": "https://dc.lft.to/lastmile_qr_scan"}, "lat": 38.91871233333333, "lon": -77.03192066666666, "fusion_lat": 0.0}, {"is_reserved": 0, "bike_id": "b4a2c30d8404767c89eebb29c3d60e40", "type": "electric_scooter", "name": "b4a2c30d8404767c89eebb29c3d60e40", "is_disabled": 0, "fusion_lon": 0.0, "rental_uris": {"android": "https://dc.lft.to/lastmile_qr_scan", "ios": "https://dc.lft.to/lastmile_qr_scan"}, "lat": 38.9052615, "lon": -77.05021483333333, "fusion_lat": 0.0}, {"is_reserved": 0, "bike_id": "c1f02b97ad5637fd458b680776b6ea8b", "type": "electric_scooter", "name": "c1f02b97ad5637fd458b680776b6ea8b", "is_disabled": 0, "fusion_lon": 0.0, "rental_uris": {"android": "https://dc.lft.to/lastmile_qr_scan", "ios": "https://dc.lft.to/lastmile_qr_scan"}, "lat": 38.9266955, "lon": -77.04061716666666, "fusion_lat": 0.0}, {"is_reserved": 0, "bike_id": "8c99e28c127f09afc23cd318553ca5d4", "type": "electric_scooter", "name": "8c99e28c127f09afc23cd318553ca5d4", "is_disabled": 0, "fusion_lon": 0.0, "rental_uris": {"android": "https://dc.lft.to/lastmile_qr_scan", "ios": "https://dc.lft.to/lastmile_qr_scan"}, "lat": 38.888686166666666, "lon": -77.0400015, "fusion_lat": 0.0}, {"is_reserved": 0, "bike_id": "58e63d4f6a8b513d423340263071925a", "type": "electric_scooter", "name": "58e63d4f6a8b513d423340263071925a", "is_disabled": 0, "fusion_lon": 0.0, "rental_uris": {"android": "https://dc.lft.to/lastmile_qr_scan", "ios": "https://dc.lft.to/lastmile_qr_scan"}, "lat": 38.92161933333333, "lon": -77.033786, "fusion_lat": 0.0}, {"is_reserved": 0, "bike_id": "c37f1093cb16bb55a7aa91b76ab65a4d", "type": "electric_scooter", "name": "c37f1093cb16bb55a7aa91b76ab65a4d", "is_disabled": 0, "fusion_lon": 0.0, "rental_uris": {"android": "https://dc.lft.to/lastmile_qr_scan", "ios": "https://dc.lft.to/lastmile_qr_scan"}, "lat": 38.91595683333333, "lon": -76.98378716666667, "fusion_lat": 0.0}, {"is_reserved": 0, "bike_id": "2319e5f560b3bd4f6926cfdefa523068", "type": "electric_scooter", "name": "2319e5f560b3bd4f6926cfdefa523068", "is_disabled": 0, "fusion_lon": 0.0, "rental_uris": {"android": "https://dc.lft.to/lastmile_qr_scan", "ios": "https://dc.lft.to/lastmile_qr_scan"}, "lat": 38.89267733333333, "lon": -76.983685, "fusion_lat": 0.0}, {"is_reserved": 0, "bike_id": "48d4c8142bb3e1a381952ca0b1a1268a", "type": "electric_scooter", "name": "48d4c8142bb3e1a381952ca0b1a1268a", "is_disabled": 0, "fusion_lon": 0.0, "rental_uris": {"android": "https://dc.lft.to/lastmile_qr_scan", "ios": "https://dc.lft.to/lastmile_qr_scan"}, "lat": 38.89979533333333, "lon": -77.02198483333333, "fusion_lat": 0.0}, {"is_reserved": 0, "bike_id": "eb59fddca6faa31ec0e84d5d0720a2ae", "type": "electric_scooter", "name": "eb59fddca6faa31ec0e84d5d0720a2ae", "is_disabled": 0, "fusion_lon": 0.0, "rental_uris": {"android": "https://dc.lft.to/lastmile_qr_scan", "ios": "https://dc.lft.to/lastmile_qr_scan"}, "lat": 38.9394295, "lon": -77.03269716666667, "fusion_lat": 0.0}, {"is_reserved": 0, "bike_id": "1cea7a06465c18609dee9fb7551027bf", "type": "electric_scooter", "name": "1cea7a06465c18609dee9fb7551027bf", "is_disabled": 0, "fusion_lon": 0.0, "rental_uris": {"android": "https://dc.lft.to/lastmile_qr_scan", "ios": "https://dc.lft.to/lastmile_qr_scan"}, "lat": 38.921018833333335, "lon": -77.02514416666666, "fusion_lat": 0.0}, {"is_reserved": 0, "bike_id": "7554b40218e95feef9bd0d45f169bf4a", "type": "electric_scooter", "name": "7554b40218e95feef9bd0d45f169bf4a", "is_disabled": 0, "fusion_lon": 0.0, "rental_uris": {"android": "https://dc.lft.to/lastmile_qr_scan", "ios": "https://dc.lft.to/lastmile_qr_scan"}, "lat": 38.902083166666664, "lon": -77.03819033333333, "fusion_lat": 0.0}, {"is_reserved": 0, "bike_id": "a343582cd8b8d7116ce4471200a02c48", "type": "electric_scooter", "name": "a343582cd8b8d7116ce4471200a02c48", "is_disabled": 0, "fusion_lon": 0.0, "rental_uris": {"android": "https://dc.lft.to/lastmile_qr_scan", "ios": "https://dc.lft.to/lastmile_qr_scan"}, "lat": 38.92155433333333, "lon": -77.034664, "fusion_lat": 0.0}, {"is_reserved": 0, "bike_id": "43d20d9182dd18710fcf86a79f98161d", "type": "electric_scooter", "name": "43d20d9182dd18710fcf86a79f98161d", "is_disabled": 0, "fusion_lon": 0.0, "rental_uris": {"android": "https://dc.lft.to/lastmile_qr_scan", "ios": "https://dc.lft.to/lastmile_qr_scan"}, "lat": 38.8991275, "lon": -77.0499855, "fusion_lat": 0.0}, {"is_reserved": 0, "bike_id": "007eb16d9036b3785cca9b90961a58e5", "type": "electric_scooter", "name": "007eb16d9036b3785cca9b90961a58e5", "is_disabled": 0, "fusion_lon": 0.0, "rental_uris": {"android": "https://dc.lft.to/lastmile_qr_scan", "ios": "https://dc.lft.to/lastmile_qr_scan"}, "lat": 38.930598, "lon": -77.03945366666666, "fusion_lat": 0.0},