{"data": {"bikes": [{"type": "electric_bike", "is_reserved": 0, "is_disabled": 0, "fusion_lat": 0.0, "name": "78e5c1921924ad4984abe981a219a675", "rental_uris": {"android": "https://dc.lft.to/lastmile_qr_scan", "ios": "https://dc.lft.to/lastmile_qr_scan"}, "fusion_lon": 0.0, "lat": 38.87638233333333, "lon": -77.003758, "bike_id": "78e5c1921924ad4984abe981a219a675"}, {"type": "electric_scooter", "is_reserved": 0, "is_disabled": 0, "fusion_lat": 0.0, "name": "9f9953074d3cdf45f8ffaaf552d5930a", "rental_uris": {"android": "https://dc.lft.to/lastmile_qr_scan", "ios": "https://dc.lft.to/lastmile_qr_scan"}, "fusion_lon": 0.0, "lat": 38.8950305, "lon": -77.02285983333333, "bike_id": "9f9953074d3cdf45f8ffaaf552d5930a"}, {"type": "electric_scooter", "is_reserved": 0, "is_disabled": 0, "fusion_lat": 0.0, "name": "72bf05c8fba38c9a75ac43a225dd4cdc", "rental_uris": {"android": "https://dc.lft.to/lastmile_qr_scan", "ios": "https://dc.lft.to/lastmile_qr_scan"}, "fusion_lon": 0.0, "lat": 38.8845105, "lon": -76.95097866666667, "bike_id": "72bf05c8fba38c9a75ac43a225dd4cdc"}, {"type": "electric_scooter", "is_reserved": 0, "is_disabled": 0, "fusion_lat": 0.0, "name": "7d462d49eb065e2de490b493c845b92d", "rental_uris": {"android": "https://dc.lft.to/lastmile_qr_scan", "ios": "https://dc.lft.to/lastmile_qr_scan"}, "fusion_lon": 0.0, "lat": 38.91554266666667, "lon": -77.03033183333334, "bike_id": "7d462d49eb065e2de490b493c845b92d"}, {"type": "electric_scooter", "is_reserved": 0, "is_disabled": 0, "fusion_lat": 0.0, "name": "c759a1def01903197cc5669e3980abc8", "rental_uris": {"android": "https://dc.lft.to/lastmile_qr_scan", "ios": "https://dc.lft.to/lastmile_qr_scan"}, "fusion_lon": 0.0, "lat": 38.9283645, "lon": -77.01379533333333, "bike_id": "c759a1def01903197cc5669e3980abc8"}, {"type": "electric_scooter", "is_reserved": 0, "is_disabled": 0, "fusion_lat": 0.0, "name": "d2566834b03780520bc40d01dee3bee0", "rental_uris": {"android": "https://dc.lft.to/lastmile_qr_scan", "ios": "https://dc.lft.to/lastmile_qr_scan"}, "fusion_lon": 0.0, "lat": 38.9169485, "lon": -77.025927, "bike_id": "d2566834b03780520bc40d01dee3bee0"}, {"type": "electric_scooter", "is_reserved": 0, "is_disabled": 0, "fusion_lat": 0.0, "name": "217370a9d00df157e98e04a364671a42", "rental_uris": {"android": "https://dc.lft.to/lastmile_qr_scan", "ios": "https://dc.lft.to/lastmile_qr_scan"}, "fusion_lon": 0.0, "lat": 38.896893666666664, "lon": -76.99625233333333, "bike_id": "217370a9d00df157e98e04a364671a42"}, {"type": "electric_bike", "is_reserved": 0, "is_disabled": 0, "fusion_lat": 0.0, "name": "24f9e56d0e5a6e49ada28a2efc0b50ec", "rental_uris": {"android": "https://dc.lft.to/lastmile_qr_scan", "ios": "https://dc.lft.to/lastmile_qr_scan"}, "fusion_lon": 0.0, "lat": 38.8532345, "lon": -76.98007266666667, "bike_id": "24f9e56d0e5a6e49ada28a2efc0b50ec"}, {"type": "electric_scooter", "is_reserved": 0, "is_disabled": 0, "fusion_lat": 0.0, "name": "5ffd3f9c344ce06077510b96666dc001", "rental_uris": {"android": "https://dc.lft.to/lastmile_qr_scan", "ios": "https://dc.lft.to/lastmile_qr_scan"}, "fusion_lon": 0.0, "lat": 38.91602533333333, "lon": -77.0321595, "bike_id": "5ffd3f9c344ce06077510b96666dc001"}, {"type": "electric_scooter", "is_reserved": 0, "is_disabled": 0, "fusion_lat": 0.0, "name": "f963446738645953c27ee70c8699f66b", "rental_uris": {"android": "https://dc.lft.to/lastmile_qr_scan", "ios": "https://dc.lft.to/lastmile_qr_scan"}, "fusion_lon": 0.0, "lat": 38.899156166666664, "lon": -76.93378483333333, "bike_id": "f963446738645953c27ee70c8699f66b"}, {"type": "electric_scooter", "is_reserved": 0, "is_disabled": 0, "fusion_lat": 0.0, "name": "9b4493ef0c67b877a8258729517663fd", "rental_uris": {"android": "https://dc.lft.to/lastmile_qr_scan", "ios": "https://dc.lft.to/lastmile_qr_scan"}, "fusion_lon": 0.0, "lat": 38.900931166666666, "lon": -77.02981466666667, "bike_id": "9b4493ef0c67b877a8258729517663fd"}, {"type": "electric_scooter", "is_reserved": 0, "is_disabled": 0, "fusion_lat": 0.0, "name": "b2d30320fc443ce2ab4755792ee19df1", "rental_uris": {"android": "https://dc.lft.to/lastmile_qr_scan", "ios": "https://dc.lft.to/lastmile_qr_scan"}, "fusion_lon": 0.0, "lat": 38.897845333333336, "lon": -77.0320815, "bike_id": "b2d30320fc443ce2ab4755792ee19df1"}, {"type": "electric_bike", "is_reserved": 0, "is_disabled": 0, "fusion_lat": 0.0, "name": "59479b904744a9bf4d0c5cbf5b59f6ab", "rental_uris": {"android": "https://dc.lft.to/lastmile_qr_scan", "ios": "https://dc.lft.to/lastmile_qr_scan"}, "fusion_lon": 0.0, "lat": 38.94552566666667, "lon": -76.895368, "bike_id": "59479b904744a9bf4d0c5cbf5b59f6ab"}, {"type": "electric_scooter", "is_reserved": 0, "is_disabled": 0, "fusion_lat": 0.0, "name": "715a5b2826e64bfa59f52f2e9718dc3b", "rental_uris": {"android": "https://dc.lft.to/lastmile_qr_scan", "ios": "https://dc.lft.to/lastmile_qr_scan"}, "fusion_lon": 0.0, "lat": 38.917841333333335, "lon": -77.0230435, "bike_id": "715a5b2826e64bfa59f52f2e9718dc3b"}, {"type": "electric_scooter", "is_reserved": 0, "is_disabled": 0, "fusion_lat": 0.0, "name": "b62b787e3249d3947ee1a24d8d3c1760", "rental_uris": {"android": "https://dc.lft.to/lastmile_qr_scan", "ios": "https://dc.lft.to/lastmile_qr_scan"}, "fusion_lon": 0.0, "lat": 38.9469925, "lon": -77.09265066666667, "bike_id": "b62b787e3249d3947ee1a24d8d3c1760"}, {"type": "electric_scooter", "is_reserved": 0, "is_disabled": 0, "fusion_lat": 0.0, "name": "3757b062232ae2558c3cd44e0fe7d834", "rental_uris": {"android": "https://dc.lft.to/lastmile_qr_scan", "ios": "https://dc.lft.to/lastmile_qr_scan"}, "fusion_lon": 0.0, "lat": 38.90569433333334, "lon": -77.0627205, "bike_id": "3757b062232ae2558c3cd44e0fe7d834"}, {"type": "electric_scooter", "is_reserved": 0, "is_disabled": 0, "fusion_lat": 0.0, "name": "e2722724136c472b134735d3fcaa6cfb", "rental_uris": {"android": "https://dc.lft.to/lastmile_qr_scan", "ios": "https://dc.lft.to/lastmile_qr_scan"}, "fusion_lon": 0.0, "lat": 38.90718583333334, "lon": -77.04342816666667, "bike_id": "e2722724136c472b134735d3fcaa6cfb"}, {"type": "electric_scooter", "is_reserved": 0, "is_disabled": 0, "fusion_lat": 0.0, "name": "7295adaef0a722bae6b1e9d40c597b18", "rental_uris": {"android": "https://dc.lft.to/lastmile_qr_scan", "ios": "https://dc.lft.to/lastmile_qr_scan"}, "fusion_lon": 0.0, "lat": 38.920719, "lon": -77.04377533333333, "bike_id": "7295adaef0a722bae6b1e9d40c597b18"}, {"type": "electric_scooter", "is_reserved": 0, "is_disabled": 0, "fusion_lat": 0.0, "name": "e4a0144a73755ae422968ab48d26861a", "rental_uris": {"android": "https://dc.lft.to/lastmile_qr_scan", "ios": "https://dc.lft.to/lastmile_qr_scan"}, "fusion_lon": 0.0, "lat": 38.917085666666665, "lon": -77.02627566666666, "bike_id": "e4a0144a73755ae422968ab48d26861a"}, {"type": "electric_scooter", "is_reserved": 0, "is_disabled": 0, "fusion_lat": 0.0, "name": "15abb3a74f2397d0cc05091d0537f8c7", "rental_uris": {"android": "https://dc.lft.to/lastmile_qr_scan", "ios": "https://dc.lft.to/lastmile_qr_scan"}, "fusion_lon": 0.0, "lat": 38.844284333333334, "lon": -76.997759, "bike_id": "15abb3a74f2397d0cc05091d0537f8c7"}, {"type": "electric_bike", "is_reserved": 0, "is_disabled": 0, "fusion_lat": 0.0, "name": "df1e2132e70a92191dac9953476476a0", "rental_uris": {"android": "https://dc.lft.to/lastmile_qr_scan", "ios": "https://dc.lft.to/lastmile_qr_scan"}, "fusion_lon": 0.0, "lat": 38.97326316666667, "lon": -77.02149666666666, "bike_id": "df1e2132e70a92191dac9953476476a0"}, {"type": "electric_scooter", "is_reserved": 0, "is_disabled": 0, "fusion_lat": 0.0, "name": "cd5df6cc2e7352f414a57aa09064b659", "rental_uris": {"android": "https://dc.lft.to/lastmile_qr_scan", "ios": "https://dc.lft.to/lastmile_qr_scan"}, "fusion_lon": 0.0, "lat": 38.90286116666667, "lon": -77.03844866666667, "bike_id": "cd5df6cc2e7352f414a57aa09064b659"}, {"type": "electric_scooter", "is_reserved": 0, "is_disabled": 0, "fusion_lat": 0.0, "name": "b898eb61ad15ffdfa5cc85f8340307db", "rental_uris": {"android": "https://dc.lft.to/lastmile_qr_scan", "ios": "https://dc.lft.to/lastmile_qr_scan"}, "fusion_lon": 0.0, "lat": 38.918487, "lon": -77.04500183333333, "bike_id": "b898eb61ad15ffdfa5cc85f8340307db"}, {"type": "electric_scooter", "is_reserved": 0, "is_disabled": 0, "fusion_lat": 0.0, "name": "9f1464131d464c5ab53da1fe09868532", "rental_uris": {"android": "https://dc.lft.to/lastmile_qr_scan", "ios": "https://dc.lft.to/lastmile_qr_scan"}, "fusion_lon": 0.0, "lat": 38.925997333333335, "lon": -77.02365783333333, "bike_id": "9f1464131d464c5ab53da1fe09868532"}, {"type": "electric_scooter", "is_reserved": 0, "is_disabled": 0, "fusion_lat": 0.0, "name": "c92d762fd4ef34d3e32ed23469a31f33", "rental_uris": {"android": "https://dc.lft.to/lastmile_qr_scan", "ios": "https://dc.lft.to/lastmile_qr_scan"}, "fusion_lon": 0.0, "lat": 38.9024055, "lon": -77.00201066666666, "bike_id": "c92d762fd4ef34d3e32ed23469a31f33"}, {"type": "electric_scooter", "is_reserved": 0, "is_disabled": 0, "fusion_lat": 0.0, "name": "2cbba60868c769773b93166f66b2f72f", "rental_uris": {"android": "https://dc.lft.to/lastmile_qr_scan", "ios": "https://dc.lft.to/lastmile_qr_scan"}, "fusion_lon": 0.0, "lat": 38.907547666666666, "lon": -77.00114633333334, "bike_id": "2cbba60868c769773b93166f66b2f72f"}, {"type": "electric_scooter", "is_reserved": 0, "is_disabled": 0, "fusion_lat": 0.0, "name": "e0477d57ee61745b077ea78eb6453df4", "rental_uris": {"android": "https://dc.lft.to/lastmile_qr_scan", "ios": "https://dc.lft.to/lastmile_qr_scan"}, "fusion_lon": 0.0, "lat": 38.91165383333333, "lon": -77.06858216666667, "bike_id": "e0477d57ee61745b077ea78eb6453df4"}, {"type": "electric_scooter", "is_reserved": 0, "is_disabled": 0, "fusion_lat": 0.0, "name": "8970c1ce0f0fcc647b8659c7ead2ae37", "rental_uris": {"android": "https://dc.lft.to/lastmile_qr_scan", "ios": "https://dc.lft.to/lastmile_qr_scan"}, "fusion_lon": 0.0, "lat": 38.8670005, "lon": -76.98710733333333, "bike_id": "8970c1ce0f0fcc647b8659c7ead2ae37"}, {"type": "electric_scooter", "is_reserved": 0, "is_disabled": 0, "fusion_lat": 0.0, "name": "5e3094bc663bbdab3a4f8aee8c4b997f", "rental_uris": {"android": "https://dc.lft.to/lastmile_qr_scan", "ios": "https://dc.lft.to/lastmile_qr_scan"}, "fusion_lon": 0.0, "lat": 38.92769033333333, "lon": -77.03241766666666, "bike_id": "5e3094bc663bbdab3a4f8aee8c4b997f"}, {"type": "electric_scooter", "is_reserved": 0, "is_disabled": 0, "fusion_lat": 0.0, "name": "eeaa743723147d4fbcb653f256d37fe5", "rental_uris": {"android": "https://dc.lft.to/lastmile_qr_scan", "ios": "https://dc.lft.to/lastmile_qr_scan"}, "fusion_lon": 0.0, "lat": 38.925037833333334, "lon": -77.03882333333334, "bike_id": "eeaa743723147d4fbcb653f256d37fe5"}, {"type": "electric_scooter", "is_reserved": 0, "is_disabled": 0, "fusion_lat": 0.0, "name": "c13e0448729c9cc3bf6d7c1750d82d6d", "rental_uris": {"android": "https://dc.lft.to/lastmile_qr_scan", "ios": "https://dc.lft.to/lastmile_qr_scan"}, "fusion_lon": 0.0, "lat": 38.921672, "lon": -77.03233366666667, "bike_id": "c13e0448729c9cc3bf6d7c1750d82d6d"}, {"type": "electric_scooter", "is_reserved": 0, "is_disabled": 0, "fusion_lat": 0.0, "name": "8111748c008575bffe1bdf6fa4c4089c", "rental_uris": {"android": "https://dc.lft.to/lastmile_qr_scan", "ios": "https://dc.lft.to/lastmile_qr_scan"}, "fusion_lon": 0.0, "lat": 38.89834833333333, "lon": -76.9463495, "bike_id": "8111748c008575bffe1bdf6fa4c4089c"}, {"type": "electric_bike", "is_reserved": 0, "is_disabled": 0, "fusion_lat": 0.0, "name": "1c6ee7d2715d32c863d4840a792adb0f", "rental_uris": {"android": "https://dc.lft.to/lastmile_qr_scan", "ios": "https://dc.lft.to/lastmile_qr_scan"}, "fusion_lon": 0.0, "lat": 39.034134333333334, "lon": -77.04210283333333, "bike_id": "1c6ee7d2715d32c863d4840a792adb0f"}, {"type": "electric_scooter", "is_reserved": 0, "is_disabled": 0, "fusion_lat": 0.0, "name": "e1692be2c4c57e2147e9eb70f0455d68", "rental_uris": {"android": "https://dc.lft.to/lastmile_qr_scan", "ios": "https://dc.lft.to/lastmile_qr_scan"}, "fusion_lon": 0.0, "lat": 38.87392833333333, "lon": -77.00086416666667, "bike_id": "e1692be2c4c57e2147e9eb70f0455d68"}, {"type": "electric_scooter", "is_reserved": 0, "is_disabled": 0, "fusion_lat": 0.0, "name": "6f559297233fefd217aea174d160c48f", "rental_uris": {"android": "https://dc.lft.to/lastmile_qr_scan", "ios": "https://dc.lft.to/lastmile_qr_scan"}, "fusion_lon": 0.0, "lat": 38.893286833333335, "lon": -76.92991116666667, "bike_id": "6f559297233fefd217aea174d160c48f"}, {"type": "electric_scooter", "is_reserved": 0, "is_disabled": 0, "fusion_lat": 0.0, "name": "e7e9418593fbf0962ecf7f76bac839ac", "rental_uris": {"android": "https://dc.lft.to/lastmile_qr_scan", "ios": "https://dc.lft.to/lastmile_qr_scan"}, "fusion_lon": 0.0, "lat": 38.90099166666667, "lon": -77.0136645, "bike_id": "e7e9418593fbf0962ecf7f76bac839ac"}, {"type": "electric_scooter", "is_reserved": 0, "is_disabled": 0, "fusion_lat": 0.0, "name": "a3466f3b1b289ae19325fe6d12d6676f", "rental_uris": {"android": "https://dc.lft.to/lastmile_qr_scan", "ios": "https://dc.lft.to/lastmile_qr_scan"}, "fusion_lon": 0.0, "lat": 38.903452, "lon": -77.0206465, "bike_id": "a3466f3b1b289ae19325fe6d12d6676f"}, {"type": "electric_scooter", "is_reserved": 0, "is_disabled": 0, "fusion_lat": 0.0, "name": "48d1a7edf2013fed06061d13e99a8b0d", "rental_uris": {"android": "https://dc.lft.to/lastmile_qr_scan", "ios": "https://dc.lft.to/lastmile_qr_scan"}, "fusion_lon": 0.0, "lat": 38.896214666666665, "lon": -76.99851083333333, "bike_id": "48d1a7edf2013fed06061d13e99a8b0d"}, {"type": "electric_scooter", "is_reserved": 0, "is_disabled": 0, "fusion_lat": 0.0, "name": "9b99cf212ee17fad5cd3b3c2d6f69220", "rental_uris": {"android": "https://dc.lft.to/lastmile_qr_scan", "ios": "https://dc.lft.to/lastmile_qr_scan"}, "fusion_lon": 0.0, "lat": 38.898858833333335, "lon": -77.03991666666667, "bike_id": "9b99cf212ee17fad5cd3b3c2d6f69220"}, {"type": "electric_scooter", "is_reserved": 0, "is_disabled": 0, "fusion_lat": 0.0, "name": "8546c5aae8ccf978f37f4e5fd55a6d7e", "rental_uris": {"android": "https://dc.lft.to/lastmile_qr_scan", "ios": "https://dc.lft.to/lastmile_qr_scan"}, "fusion_lon": 0.0, "lat": 38.921908, "lon": -77.03203233333333, "bike_id": "8546c5aae8ccf978f37f4e5fd55a6d7e"}, {"type": "electric_scooter", "is_reserved": 0, "is_disabled": 0, "fusion_lat": 0.0, "name": "c2749f2aca0ba8a3d858e4cf042be847", "rental_uris": {"android": "https://dc.lft.to/lastmile_qr_scan", "ios": "https://dc.lft.to/lastmile_qr_scan"}, "fusion_lon": 0.0, "lat": 38.905155666666666, "lon": -77.047857, "bike_id": "c2749f2aca0ba8a3d858e4cf042be847"}, {"type": "electric_scooter", "is_reserved": 0, "is_disabled": 0, "fusion_lat": 0.0, "name": "b0d367b946b0e30ae2b96ca78f00fabe", "rental_uris": {"android": "https://dc.lft.to/lastmile_qr_scan", "ios": "https://dc.lft.to/lastmile_qr_scan"}, "fusion_lon": 0.0, "lat": 38.91921133333334, "lon": -77.0250855, "bike_id": "b0d367b946b0e30ae2b96ca78f00fabe"}, {"type": "electric_scooter", "is_reserved": 0, "is_disabled": 0, "fusion_lat": 0.0, "name": "195fcb402ccbeb9704aca44e14a3e182", "rental_uris": {"android": "https://dc.lft.to/lastmile_qr_scan", "ios": "https://dc.lft.to/lastmile_qr_scan"}, "fusion_lon": 0.0, "lat": 38.876277333333334, "lon": -76.96527716666667, "bike_id": "195fcb402ccbeb9704aca44e14a3e182"}, {"type": "electric_scooter", "is_reserved": 0, "is_disabled": 0, "fusion_lat": 0.0, "name": "450d6f653157e879afa27988298357ba", "rental_uris": {"android": "https://dc.lft.to/lastmile_qr_scan", "ios": "https://dc.lft.to/lastmile_qr_scan"}, "fusion_lon": 0.0, "lat": 38.9171145, "lon": -77.02892666666666, "bike_id": "450d6f653157e879afa27988298357ba"}, {"type": "electric_scooter", "is_reserved": 0, "is_disabled": 0, "fusion_lat": 0.0, "name": "dc539a7f659063f3b4ad2524d50d5485", "rental_uris": {"android": "https://dc.lft.to/lastmile_qr_scan", "ios": "https://dc.lft.to/lastmile_qr_scan"}, "fusion_lon": 0.0, "lat": 38.910258166666665, "lon": -77.0343115, "bike_id": "dc539a7f659063f3b4ad2524d50d5485"}, {"type": "electric_scooter", "is_reserved": 0, "is_disabled": 0, "fusion_lat": 0.0, "name": "57a57d1610e1d820e3aaac21733c6027", "rental_uris": {"android": "https://dc.lft.to/lastmile_qr_scan", "ios": "https://dc.lft.to/lastmile_qr_scan"}, "fusion_lon": 0.0, "lat": 38.92176416666667, "lon": -77.04014533333333, "bike_id": "57a57d1610e1d820e3aaac21733c6027"}, {"type": "electric_scooter", "is_reserved": 0, "is_disabled": 0, "fusion_lat": 0.0, "name": "b56af8f24c9ed302bcc5151ca33f1087", "rental_uris": {"android": "https://dc.lft.to/lastmile_qr_scan", "ios": "https://dc.lft.to/lastmile_qr_scan"}, "fusion_lon": 0.0, "lat": 38.88994433333333, "lon": -76.9557025, "bike_id": "b56af8f24c9ed302bcc5151ca33f1087"}, {"type": "electric_bike", "is_reserved": 0, "is_disabled": 0, "fusion_lat": 0.0, "name": "1c034a3103d43a734bc0bbc6f9ae318d", "rental_uris": {"android": "https://dc.lft.to/lastmile_qr_scan", "ios": "https://dc.lft.to/lastmile_qr_scan"}, "fusion_lon": 0.0, "lat": 38.952997333333336, "lon": -76.99882916666667, "bike_id": "1c034a3103d43a734bc0bbc6f9ae318d"}, {"type": "electric_scooter", "is_reserved": 0, "is_disabled": 0, "fusion_lat": 0.0, "name": "9750c69b6cfa31ab218a9a717d301c73", "rental_uris": {"android": "https://dc.lft.to/lastmile_qr_scan", "ios": "https://dc.lft.to/lastmile_qr_scan"}, "fusion_lon": 0.0, "lat": 38.88739866666667, "lon": -77.0032465, "bike_id": "9750c69b6cfa31ab218a9a717d301c73"}, {"type": "electric_scooter", "is_reserved": 0, "is_disabled": 0, "fusion_lat": 0.0, "name": "5f9726e87e753909ea67a14dc021a67b", "rental_uris": {"android": "https://dc.lft.to/lastmile_qr_scan", "ios": "https://dc.lft.to/lastmile_qr_scan"}, "fusion_lon": 0.0, "lat": 38.9026505, "lon": -77.04183716666667, "bike_id": "5f9726e87e753909ea67a14dc021a67b"}, {"type": "electric_scooter", "is_reserved": 0, "is_disabled": 0, "fusion_lat": 0.0, "name": "8f3122d25d1c8135b7ac37e2d2897eff", "rental_uris": {"android": "https://dc.lft.to/lastmile_qr_scan", "ios": "https://dc.lft.to/lastmile_qr_scan"}, "fusion_lon": 0.0, "lat": 38.89294066666667, "lon": -76.9985265, "bike_id": "8f3122d25d1c8135b7ac37e2d2897eff"}, {"type": "electric_bike", "is_reserved": 0, "is_disabled": 0, "fusion_lat": 0.0, "name": "0e4ee456d8719a22f404e55ba81b2a09", "rental_uris": {"android": "https://dc.lft.to/lastmile_qr_scan", "ios": "https://dc.lft.to/lastmile_qr_scan"}, "fusion_lon": 0.0, "lat": 38.837294, "lon": -76.99755866666666, "bike_id": "0e4ee456d8719a22f404e55ba81b2a09"}, {"type": "electric_scooter", "is_reserved": 0, "is_disabled": 0, "fusion_lat": 0.0, "name": "23398fda8dc4ab443ccad391bebe5c46", "rental_uris": {"android": "https://dc.lft.to/lastmile_qr_scan", "ios": "https://dc.lft.to/lastmile_qr_scan"}, "fusion_lon": 0.0, "lat": 38.92578066666667, "lon": -77.03362533333333, "bike_id": "23398fda8dc4ab443ccad391bebe5c46"}, {"type": "electric_scooter", "is_reserved": 0, "is_disabled": 0, "fusion_lat": 0.0, "name": "1b550d299ce5edccc603c9ee51e6da30", "rental_uris": {"android": "https://dc.lft.to/lastmile_qr_scan", "ios": "https://dc.lft.to/lastmile_qr_scan"}, "fusion_lon": 0.0, "lat": 38.934304166666664, "lon": -77.03996683333334, "bike_id": "1b550d299ce5edccc603c9ee51e6da30"}, {"type": "electric_scooter", "is_reserved": 0, "is_disabled": 0, "fusion_lat": 0.0, "name": "6033515b5819490e50257f8fa5e8ce59", "rental_uris": {"android": "https://dc.lft.to/lastmile_qr_scan", "ios": "https://dc.lft.to/lastmile_qr_scan"}, "fusion_lon": 0.0, "lat": 38.9178265, "lon": -77.02308, "bike_id": "6033515b5819490e50257f8fa5e8ce59"}, {"type": "electric_scooter", "is_reserved": 0, "is_disabled": 0, "fusion_lat": 0.0, "name": "ecb880a0a06fa47a177aaab51405be57", "rental_uris": {"android": "https://dc.lft.to/lastmile_qr_scan", "ios": "https://dc.lft.to/lastmile_qr_scan"}, "fusion_lon": 0.0, "lat": 38.897383, "lon": -77.04604166666667, "bike_id": "ecb880a0a06fa47a177aaab51405be57"}, {"type": "electric_scooter", "is_reserved": 0, "is_disabled": 0, "fusion_lat": 0.0, "name": "a1159f468df347d1d2067d74c56555fd", "rental_uris": {"android": "https://dc.lft.to/lastmile_qr_scan", "ios": "https://dc.lft.to/lastmile_qr_scan"}, "fusion_lon": 0.0, "lat": 38.92853, "lon": -77.01395583333333, "bike_id": "a1159f468df347d1d2067d74c56555fd"}, {"type": "electric_scooter", "is_reserved": 0, "is_disabled": 0, "fusion_lat": 0.0, "name": "5e093daccd2731e81eea2994fed43173", "rental_uris": {"android": "https://dc.lft.to/lastmile_qr_scan", "ios": "https://dc.lft.to/lastmile_qr_scan"}, "fusion_lon": 0.0, "lat": 38.8849305, "lon": -77.00344966666667, "bike_id": "5e093daccd2731e81eea2994fed43173"}, {"type": "electric_scooter", "is_reserved": 0, "is_disabled": 0, "fusion_lat": 0.0, "name": "72a098a435b405b76191adde7017583d", "rental_uris": {"android": "https://dc.lft.to/lastmile_qr_scan", "ios": "https://dc.lft.to/lastmile_qr_scan"}, "fusion_lon": 0.0, "lat": 38.904014333333336, "lon": -77.02144233333334, "bike_id": "72a098a435b405b76191adde7017583d"}, {"type": "electric_bike", "is_reserved": 0, "is_disabled": 0, "fusion_lat": 0.0, "name": "9edc044aa29d5ab94276bd050e32fef5", "rental_uris": {"android": "https://dc.lft.to/lastmile_qr_scan", "ios": "https://dc.lft.to/lastmile_qr_scan"}, "fusion_lon": 0.0, "lat": 38.85515866666667, "lon": -76.9844215, "bike_id": "9edc044aa29d5ab94276bd050e32fef5"}, {"type": "electric_scooter", "is_reserved": 0, "is_disabled": 0, "fusion_lat": 0.0, "name": "8f8750eaca5dcc277909a773ff821333", "rental_uris": {"android": "https://dc.lft.to/lastmile_qr_scan", "ios": "https://dc.lft.to/lastmile_qr_scan"}, "fusion_lon": 0.0, "lat": 38.9067965, "lon": -77.07189516666666, "bike_id": "8f8750eaca5dcc277909a773ff821333"}, {"type": "electric_scooter", "is_reserved": 0, "is_disabled": 0, "fusion_lat": 0.0, "name": "2bd186eeffca4bd7b81d879ad445a56b", "rental_uris": {"android": "https://dc.lft.to/lastmile_qr_scan", "ios": "https://dc.lft.to/lastmile_qr_scan"}, "fusion_lon": 0.0, "lat": 38.89833133333333, "lon": -76.94635216666667, "bike_id": "2bd186eeffca4bd7b81d879ad445a56b"}, {"type": "electric_scooter", "is_reserved": 0, "is_disabled": 0, "fusion_lat": 0.0, "name": "ad304f5b986b540cdbdfd8796b42b47f", "rental_uris": {"android": "https://dc.lft.to/lastmile_qr_scan", "ios": "https://dc.lft.to/lastmile_qr_scan"}, "fusion_lon": 0.0, "lat": 38.917334833333335, "lon": -77.04176983333333, "bike_id": "ad304f5b986b540cdbdfd8796b42b47f"}, {"type": "electric_scooter", "is_reserved": 0, "is_disabled": 0, "fusion_lat": 0.0, "name": "645fc5270a18eeff03ee220d688e4ecc", "rental_uris": {"android": "https://dc.lft.to/lastmile_qr_scan", "ios": "https://dc.lft.to/lastmile_qr_scan"}, "fusion_lon": 0.0, "lat": 38.918291833333335, "lon": -77.036406, "bike_id": "645fc5270a18eeff03ee220d688e4ecc"}, {"type": "electric_scooter", "is_reserved": 0, "is_disabled": 0, "fusion_lat": 0.0, "name": "87aec3c2367b24117c6641a12d2f6497", "rental_uris": {"android": "https://dc.lft.to/lastmile_qr_scan", "ios": "https://dc.lft.to/lastmile_qr_scan"}, "fusion_lon": 0.0, "lat": 38.9041965, "lon": -77.048694, "bike_id": "87aec3c2367b24117c6641a12d2f6497"}, {"type": "electric_scooter", "is_reserved": 0, "is_disabled": 0, "fusion_lat": 0.0, "name": "27b9ca95126c2a4f52f1e022cb5800ae", "rental_uris": {"android": "https://dc.lft.to/lastmile_qr_scan", "ios": "https://dc.lft.to/lastmile_qr_scan"}, "fusion_lon": 0.0, "lat": 38.9121445, "lon": -77.07595, "bike_id": "27b9ca95126c2a4f52f1e022cb5800ae"}, {"type": "electric_scooter", "is_reserved": 0, "is_disabled": 0, "fusion_lat": 0.0, "name": "ac008cce5e55fd939863d1a6691a5202", "rental_uris": {"android": "https://dc.lft.to/lastmile_qr_scan", "ios": "https://dc.lft.to/lastmile_qr_scan"}, "fusion_lon": 0.0, "lat": 38.905113166666666, "lon": -77.06381666666667, "bike_id": "ac008cce5e55fd939863d1a6691a5202"}, {"type": "electric_scooter", "is_reserved": 0, "is_disabled": 0, "fusion_lat": 0.0, "name": "eea53919d200bbbd0728a5ddac244d6f", "rental_uris": {"android": "https://dc.lft.to/lastmile_qr_scan", "ios": "https://dc.lft.to/lastmile_qr_scan"}, "fusion_lon": 0.0, "lat": 38.89629333333333, "lon": -77.04509183333333, "bike_id": "eea53919d200bbbd0728a5ddac244d6f"}, {"type": "electric_bike", "is_reserved": 0, "is_disabled": 0, "fusion_lat": 0.0, "name": "d981a35386565b3965c7e4a6651b38b2", "rental_uris": {"android": "https://dc.lft.to/lastmile_qr_scan", "ios": "https://dc.lft.to/lastmile_qr_scan"}, "fusion_lon": 0.0, "lat": 39.052031166666666, "lon": -77.10918616666666, "bike_id": "d981a35386565b3965c7e4a6651b38b2"}, {"type": "electric_scooter", "is_reserved": 0, "is_disabled": 0, "fusion_lat": 0.0, "name": "c9ea5ff751afbda192d3a66e2eac3656", "rental_uris": {"android": "https://dc.lft.to/lastmile_qr_scan", "ios": "https://dc.lft.to/lastmile_qr_scan"}, "fusion_lon": 0.0, "lat": 38.91774766666666, "lon": -77.03573033333333, "bike_id": "c9ea5ff751afbda192d3a66e2eac3656"}, {"type": "electric_scooter", "is_reserved": 0, "is_disabled": 0, "fusion_lat": 0.0, "name": "990e96b6b6a1d3561c7c1318fd805988", "rental_uris": {"android": "https://dc.lft.to/lastmile_qr_scan", "ios": "https://dc.lft.to/lastmile_qr_scan"}, "fusion_lon": 0.0, "lat": 38.9078315, "lon": -77.03853016666666, "bike_id": "990e96b6b6a1d3561c7c1318fd805988"}, {"type": "electric_scooter", "is_reserved": 0, "is_disabled": 0, "fusion_lat": 0.0, "name": "62660d92731ca7772f7b040257a33688", "rental_uris": {"android": "https://dc.lft.to/lastmile_qr_scan", "ios": "https://dc.lft.to/lastmile_qr_scan"}, "fusion_lon": 0.0, "lat": 38.91548933333333, "lon": -77.00953316666667, "bike_id": "62660d92731ca7772f7b040257a33688"}, {"type": "electric_scooter", "is_reserved": 0, "is_disabled": 0, "fusion_lat": 0.0, "name": "424a5cfa9e12c9c1e5e5efb1ca1b492b", "rental_uris": {"android": "https://dc.lft.to/lastmile_qr_scan", "ios": "https://dc.lft.to/lastmile_qr_scan"}, "fusion_lon": 0.0, "lat": 38.916948833333336, "lon": -77.03109033333334, "bike_id": "424a5cfa9e12c9c1e5e5efb1ca1b492b"}, {"type": "electric_scooter", "is_reserved": 0, "is_disabled": 0, "fusion_lat": 0.0, "name": "90c8543d7af625663e23c6b4c2390825", "rental_uris": {"android": "https://dc.lft.to/lastmile_qr_scan", "ios": "https://dc.lft.to/lastmile_qr_scan"}, "fusion_lon": 0.0, "lat": 38.905710666666664, "lon": -77.04574933333333, "bike_id": "90c8543d7af625663e23c6b4c2390825"}, {"type": "electric_scooter", "is_reserved": 0, "is_disabled": 0, "fusion_lat": 0.0, "name": "62945a5cad13cab56b75d8af914ba071", "rental_uris": {"android": "https://dc.lft.to/lastmile_qr_scan", "ios": "https://dc.lft.to/lastmile_qr_scan"}, "fusion_lon": 0.0, "lat": 38.921576, "lon": -77.034711, "bike_id": "62945a5cad13cab56b75d8af914ba071"}, {"type": "electric_scooter", "is_reserved": 0, "is_disabled": 0, "fusion_lat": 0.0, "name": "0a0362461570a13b0b6dd00fb9b3e230", "rental_uris": {"android": "https://dc.lft.to/lastmile_qr_scan", "ios": "https://dc.lft.to/lastmile_qr_scan"}, "fusion_lon": 0.0, "lat": 38.8973755, "lon": -77.03179, "bike_id": "0a0362461570a13b0b6dd00fb9b3e230"}, {"type": "electric_scooter", "is_reserved": 0, "is_disabled": 0, "fusion_lat": 0.0, "name": "04c6b7429ec8ab980ca298a8089cf4b0", "rental_uris": {"android": "https://dc.lft.to/lastmile_qr_scan", "ios": "https://dc.lft.to/lastmile_qr_scan"}, "fusion_lon": 0.0, "lat": 38.898546333333336, "lon": -77.028856, "bike_id": "04c6b7429ec8ab980ca298a8089cf4b0"}, {"type": "electric_scooter", "is_reserved": 0, "is_disabled": 0, "fusion_lat": 0.0, "name": "0ef7bffbd0c258f928eba1cfa705de76", "rental_uris": {"android": "https://dc.lft.to/lastmile_qr_scan", "ios": "https://dc.lft.to/lastmile_qr_scan"}, "fusion_lon": 0.0, "lat": 38.900221, "lon": -77.01170816666666, "bike_id": "0ef7bffbd0c258f928eba1cfa705de76"}, {"type": "electric_scooter", "is_reserved": 0, "is_disabled": 0, "fusion_lat": 0.0, "name": "648243499cecdc3a362f50c84ef6022e", "rental_uris": {"android": "https://dc.lft.to/lastmile_qr_scan", "ios": "https://dc.lft.to/lastmile_qr_scan"}, "fusion_lon": 0.0, "lat": 38.92319333333333, "lon": -77.03806916666667, "bike_id": "648243499cecdc3a362f50c84ef6022e"}, {"type": "electric_scooter", "is_reserved": 0, "is_disabled": 0, "fusion_lat": 0.0, "name": "04ef8913cda20148bf69baa5755a326b", "rental_uris": {"android": "https://dc.lft.to/lastmile_qr_scan", "ios": "https://dc.lft.to/lastmile_qr_scan"}, "fusion_lon": 0.0, "lat": 38.924701666666664, "lon": -77.02831183333333, "bike_id": "04ef8913cda20148bf69baa5755a326b"}, {"type": "electric_scooter", "is_reserved": 0, "is_disabled": 0, "fusion_lat": 0.0, "name": "05e1188e07475fb99b7879114de6c4cd", "rental_uris": {"android": "https://dc.lft.to/lastmile_qr_scan", "ios": "https://dc.lft.to/lastmile_qr_scan"}, "fusion_lon": 0.0, "lat": 38.90559233333333, "lon": -77.04478916666666, "bike_id": "05e1188e07475fb99b7879114de6c4cd"}, {"type": "electric_scooter", "is_reserved": 0, "is_disabled": 0, "fusion_lat": 0.0, "name": "ff9a6df1d274df2a0bab4e5dc54c810c", "rental_uris": {"android": "https://dc.lft.to/lastmile_qr_scan", "ios": "https://dc.lft.to/lastmile_qr_scan"}, "fusion_lon": 0.0, "lat": 38.92311566666667, "lon": -77.03962633333333, "bike_id": "ff9a6df1d274df2a0bab4e5dc54c810c"}, {"type": "electric_scooter", "is_reserved": 0, "is_disabled": 0, "fusion_lat": 0.0, "name": "f4431cb2abe7ad1f1e96f59c968475bd", "rental_uris": {"android": "https://dc.lft.to/lastmile_qr_scan", "ios": "https://dc.lft.to/lastmile_qr_scan"}, "fusion_lon": 0.0, "lat": 38.933907, "lon": -77.03579933333333, "bike_id": "f4431cb2abe7ad1f1e96f59c968475bd"}, {"type": "electric_scooter", "is_reserved": 0, "is_disabled": 0, "fusion_lat": 0.0, "name": "aee590565c6416b87c96be4fb351fcf0", "rental_uris": {"android": "https://dc.lft.to/lastmile_qr_scan", "ios": "https://dc.lft.to/lastmile_qr_scan"}, "fusion_lon": 0.0, "lat": 38.89918733333333, "lon": -76.93380333333333, "bike_id": "aee590565c6416b87c96be4fb351fcf0"}, {"type": "electric_scooter", "is_reserved": 0, "is_disabled": 0, "fusion_lat": 0.0, "name": "5c6a1fad2e678708512d4c82c20d4c88", "rental_uris": {"android": "https://dc.lft.to/lastmile_qr_scan", "ios": "https://dc.lft.to/lastmile_qr_scan"}, "fusion_lon": 0.0, "lat": 38.91050716666667, "lon": -77.01513316666667, "bike_id": "5c6a1fad2e678708512d4c82c20d4c88"}, {"type": "electric_scooter", "is_reserved": 0, "is_disabled": 0, "fusion_lat": 0.0, "name": "58074150f2900d31d0477e026bf3fea7", "rental_uris": {"android": "https://dc.lft.to/lastmile_qr_scan", "ios": "https://dc.lft.to/lastmile_qr_scan"}, "fusion_lon": 0.0, "lat": 38.9334955, "lon": -77.05868133333334, "bike_id": "58074150f2900d31d0477e026bf3fea7"}, {"type": "electric_scooter", "is_reserved": 0, "is_disabled": 0, "fusion_lat": 0.0, "name": "4972e9a5c9ba419c89848866b4d062e0", "rental_uris": {"android": "https://dc.lft.to/lastmile_qr_scan", "ios": "https://dc.lft.to/lastmile_qr_scan"}, "fusion_lon": 0.0, "lat": 38.93163883333333, "lon": -77.03627983333334, "bike_id": "4972e9a5c9ba419c89848866b4d062e0"}, {"type": "electric_scooter", "is_reserved": 0, "is_disabled": 0, "fusion_lat": 0.0, "name": "3d5a1a09e28bbfddf39b95be8e8cc661", "rental_uris": {"android": "https://dc.lft.to/lastmile_qr_scan", "ios": "https://dc.lft.to/lastmile_qr_scan"}, "fusion_lon": 0.0, "lat": 38.92642816666667, "lon": -77.01343583333333, "bike_id": "3d5a1a09e28bbfddf39b95be8e8cc661"}, {"type": "electric_scooter", "is_reserved": 0, "is_disabled": 0, "fusion_lat": 0.0, "name": "ea4b22f4f5f771eba568dd6b3bf9c500", "rental_uris": {"android": "https://dc.lft.to/lastmile_qr_scan", "ios": "https://dc.lft.to/lastmile_qr_scan"}, "fusion_lon": 0.0, "lat": 38.909765, "lon": -77.03377733333333, "bike_id": "ea4b22f4f5f771eba568dd6b3bf9c500"}, {"type": "electric_scooter", "is_reserved": 0, "is_disabled": 0, "fusion_lat": 0.0, "name": "798b81758cccd4d0a086228a80b70d41", "rental_uris": {"android": "https://dc.lft.to/lastmile_qr_scan", "ios": "https://dc.lft.to/lastmile_qr_scan"}, "fusion_lon": 0.0, "lat": 38.925927333333334, "lon": -77.03220483333334, "bike_id": "798b81758cccd4d0a086228a80b70d41"}, {"type": "electric_scooter", "is_reserved": 0, "is_disabled": 0, "fusion_lat": 0.0, "name": "b3c5674deb56eee13567e4985d6f0751", "rental_uris": {"android": "https://dc.lft.to/lastmile_qr_scan", "ios": "https://dc.lft.to/lastmile_qr_scan"}, "fusion_lon": 0.0, "lat": 38.906261666666666, "lon": -77.03717416666667, "bike_id": "b3c5674deb56eee13567e4985d6f0751"}, {"type": "electric_scooter", "is_reserved": 0, "is_disabled": 0, "fusion_lat": 0.0, "name": "7bb1411c7ec838eee5e5026c0eb68bd2", "rental_uris": {"android": "https://dc.lft.to/lastmile_qr_scan", "ios": "https://dc.lft.to/lastmile_qr_scan"}, "fusion_lon": 0.0, "lat": 38.89914533333334, "lon": -77.00732183333334, "bike_id": "7bb1411c7ec838eee5e5026c0eb68bd2"}, {"type": "electric_scooter", "is_reserved": 0, "is_disabled": 0, "fusion_lat": 0.0, "name": "096f25edd74cf89b583c0cf1c0d96e09", "rental_uris": {"android": "https://dc.lft.to/lastmile_qr_scan", "ios": "https://dc.lft.to/lastmile_qr_scan"}, "fusion_lon": 0.0, "lat": 38.91729683333333, "lon": -77.04174916666666, "bike_id": "096f25edd74cf89b583c0cf1c0d96e09"}, {"type": "electric_scooter", "is_reserved": 0, "is_disabled": 0, "fusion_lat": 0.0, "name": "dc410c0906a2680779f0b0c5ecf4e4eb", "rental_uris": {"android": "https://dc.lft.to/lastmile_qr_scan", "ios": "https://dc.lft.to/lastmile_qr_scan"}, "fusion_lon": 0.0, "lat": 38.908015166666665, "lon": -77.04489233333334, "bike_id": "dc410c0906a2680779f0b0c5ecf4e4eb"}, {"type": "electric_scooter", "is_reserved": 0, "is_disabled": 0, "fusion_lat": 0.0, "name": "cedf5e674e992dc0407f953ddd85069d", "rental_uris": {"android": "https://dc.lft.to/lastmile_qr_scan", "ios": "https://dc.lft.to/lastmile_qr_scan"}, "fusion_lon": 0.0, "lat": 38.91950666666666, "lon": -77.03199566666666, "bike_id": "cedf5e674e992dc0407f953ddd85069d"}, {"type": "electric_scooter", "is_reserved": 0, "is_disabled": 0, "fusion_lat": 0.0, "name": "6441f2dfc3d1c0e49262c75df29408c7", "rental_uris": {"android": "https://dc.lft.to/lastmile_qr_scan", "ios": "https://dc.lft.to/lastmile_qr_scan"}, "fusion_lon": 0.0, "lat": 38.9306155, "lon": -77.02262766666666, "bike_id": "6441f2dfc3d1c0e49262c75df29408c7"}, {"type": "electric_scooter", "is_reserved": 0, "is_disabled": 0, "fusion_lat": 0.0, "name": "ee543ffa88c53dc6305d2708ed6ac367", "rental_uris": {"android": "https://dc.lft.to/lastmile_qr_scan", "ios": "https://dc.lft.to/lastmile_qr_scan"}, "fusion_lon": 0.0, "lat": 38.917153666666664, "lon": -77.02904983333333, "bike_id": "ee543ffa88c53dc6305d2708ed6ac367"}, {"type": "electric_scooter", "is_reserved": 0, "is_disabled": 0, "fusion_lat": 0.0, "name": "c3d54e9afef2c64fe30f4ad83720d307", "rental_uris": {"android": "https://dc.lft.to/lastmile_qr_scan", "ios": "https://dc.lft.to/lastmile_qr_scan"}, "fusion_lon": 0.0, "lat": 38.926020333333334, "lon": -77.0569025, "bike_id": "c3d54e9afef2c64fe30f4ad83720d307"}, {"type": "electric_scooter", "is_reserved": 0, "is_disabled": 0, "fusion_lat": 0.0, "name": "c2becccfa44fcb2c3b748ef144fde18a", "rental_uris": {"android": "https://dc.lft.to/lastmile_qr_scan", "ios": "https://dc.lft.to/lastmile_qr_scan"}, "fusion_lon": 0.0, "lat": 38.923263, "lon": -77.03892166666667, "bike_id": "c2becccfa44fcb2c3b748ef144fde18a"}, {"type": "electric_bike", "is_reserved": 0, "is_disabled": 0, "fusion_lat": 0.0, "name": "4814983828fcacc8eba01e912f478d7e", "rental_uris": {"android": "https://dc.lft.to/lastmile_qr_scan", "ios": "https://dc.lft.to/lastmile_qr_scan"}, "fusion_lon": 0.0, "lat": 38.894722, "lon": -76.94839, "bike_id": "4814983828fcacc8eba01e912f478d7e"}, {"type": "electric_scooter", "is_reserved": 0, "is_disabled": 0, "fusion_lat": 0.0, "name": "bac50c2308914fff89ac6fb6b75f4dbb", "rental_uris": {"android": "https://dc.lft.to/lastmile_qr_scan", "ios": "https://dc.lft.to/lastmile_qr_scan"}, "fusion_lon": 0.0, "lat": 38.919661, "lon": -77.03207633333334, "bike_id": "bac50c2308914fff89ac6fb6b75f4dbb"}, {"type": "electric_scooter", "is_reserved": 0, "is_disabled": 0, "fusion_lat": 0.0, "name": "1d0e141ae30a22c2607690f7a6d1a935", "rental_uris": {"android": "https://dc.lft.to/lastmile_qr_scan", "ios": "https://dc.lft.to/lastmile_qr_scan"}, "fusion_lon": 0.0, "lat": 38.906701166666664, "lon": -76.987854, "bike_id": "1d0e141ae30a22c2607690f7a6d1a935"}, {"type": "electric_scooter", "is_reserved": 0, "is_disabled": 0, "fusion_lat": 0.0, "name": "b60a7c28e424538a51bdf3675344dae4", "rental_uris": {"android": "https://dc.lft.to/lastmile_qr_scan", "ios": "https://dc.lft.to/lastmile_qr_scan"}, "fusion_lon": 0.0, "lat": 38.9000205, "lon": -77.0523805, "bike_id": "b60a7c28e424538a51bdf3675344dae4"}, {"type": "electric_scooter", "is_reserved": 0, "is_disabled": 0, "fusion_lat": 0.0, "name": "eaed146cd6204b33ef880e7cb0f0f45b", "rental_uris": {"android": "https://dc.lft.to/lastmile_qr_scan", "ios": "https://dc.lft.to/lastmile_qr_scan"}, "fusion_lon": 0.0, "lat": 38.89964533333333, "lon": -77.04721716666667, "bike_id": "eaed146cd6204b33ef880e7cb0f0f45b"}, {"type": "electric_scooter", "is_reserved": 0, "is_disabled": 0, "fusion_lat": 0.0, "name": "d8a5dd93ed4e4a36b2242653f0b4ca55", "rental_uris": {"android": "https://dc.lft.to/lastmile_qr_scan", "ios": "https://dc.lft.to/lastmile_qr_scan"}, "fusion_lon": 0.0, "lat": 38.925562666666664, "lon": -77.03656816666667, "bike_id": "d8a5dd93ed4e4a36b2242653f0b4ca55"}, {"type": "electric_scooter", "is_reserved": 0, "is_disabled": 0, "fusion_lat": 0.0, "name": "10f6a8eb736d4f87b7969cacca9d0c7a", "rental_uris": {"android": "https://dc.lft.to/lastmile_qr_scan", "ios": "https://dc.lft.to/lastmile_qr_scan"}, "fusion_lon": 0.0, "lat": 38.906431166666664, "lon": -77.04246083333334, "bike_id": "10f6a8eb736d4f87b7969cacca9d0c7a"}, {"type": "electric_scooter", "is_reserved": 0, "is_disabled": 0, "fusion_lat": 0.0, "name": "4f0202b6e061a974a1d8b17c74a55cbb", "rental_uris": {"android": "https://dc.lft.to/lastmile_qr_scan", "ios": "https://dc.lft.to/lastmile_qr_scan"}, "fusion_lon": 0.0, "lat": 38.905661333333335, "lon": -76.98142733333333, "bike_id": "4f0202b6e061a974a1d8b17c74a55cbb"}, {"type": "electric_scooter", "is_reserved": 0, "is_disabled": 0, "fusion_lat": 0.0, "name": "7edb07c0bdfc3ed878d38ccb3a492d8c", "rental_uris": {"android": "https://dc.lft.to/lastmile_qr_scan", "ios": "https://dc.lft.to/lastmile_qr_scan"}, "fusion_lon": 0.0, "lat": 38.895260666666665, "lon": -77.04846983333333, "bike_id": "7edb07c0bdfc3ed878d38ccb3a492d8c"}, {"type": "electric_scooter", "is_reserved": 0, "is_disabled": 0, "fusion_lat": 0.0, "name": "acf2904aa545a934c176f478ad0eb30e", "rental_uris": {"android": "https://dc.lft.to/lastmile_qr_scan", "ios": "https://dc.lft.to/lastmile_qr_scan"}, "fusion_lon": 0.0, "lat": 38.91027966666667, "lon": -77.0433675, "bike_id": "acf2904aa545a934c176f478ad0eb30e"}, {"type": "electric_bike", "is_reserved": 0, "is_disabled": 0, "fusion_lat": 0.0, "name": "a726ac709435813e1b029ab0d6aab61a", "rental_uris": {"android": "https://dc.lft.to/lastmile_qr_scan", "ios": "https://dc.lft.to/lastmile_qr_scan"}, "fusion_lon": 0.0, "lat": 38.95882666666667, "lon": -76.92506, "bike_id": "a726ac709435813e1b029ab0d6aab61a"}, {"type": "electric_scooter", "is_reserved": 0, "is_disabled": 0, "fusion_lat": 0.0, "name": "24a3de018a57ffcf33896524ca91ba1b", "rental_uris": {"android": "https://dc.lft.to/lastmile_qr_scan", "ios": "https://dc.lft.to/lastmile_qr_scan"}, "fusion_lon": 0.0, "lat": 38.892750166666666, "lon": -77.05031733333334, "bike_id": "24a3de018a57ffcf33896524ca91ba1b"}, {"type": "electric_scooter", "is_reserved": 0, "is_disabled": 0, "fusion_lat": 0.0, "name": "f72ee4c75c1fa25ddfba33d91cc744b8", "rental_uris": {"android": "https://dc.lft.to/lastmile_qr_scan", "ios": "https://dc.lft.to/lastmile_qr_scan"}, "fusion_lon": 0.0, "lat": 38.89048283333333, "lon": -76.94076116666666, "bike_id": "f72ee4c75c1fa25ddfba33d91cc744b8"}, {"type": "electric_scooter", "is_reserved": 0, "is_disabled": 0, "fusion_lat": 0.0, "name": "5910d05b828a2c526307fba5392ff936", "rental_uris": {"android": "https://dc.lft.to/lastmile_qr_scan", "ios": "https://dc.lft.to/lastmile_qr_scan"}, "fusion_lon": 0.0, "lat": 38.930368666666666, "lon": -77.0321705, "bike_id": "5910d05b828a2c526307fba5392ff936"}, {"type": "electric_scooter", "is_reserved": 0, "is_disabled": 0, "fusion_lat": 0.0, "name": "128647264cbdbef32fc324e51244ccb2", "rental_uris": {"android": "https://dc.lft.to/lastmile_qr_scan", "ios": "https://dc.lft.to/lastmile_qr_scan"}, "fusion_lon": 0.0, "lat": 38.917607, "lon": -77.023861, "bike_id": "128647264cbdbef32fc324e51244ccb2"}, {"type": "electric_scooter", "is_reserved": 0, "is_disabled": 0, "fusion_lat": 0.0, "name": "bf57a8c01be75be6b74716491df5597b", "rental_uris": {"android": "https://dc.lft.to/lastmile_qr_scan", "ios": "https://dc.lft.to/lastmile_qr_scan"}, "fusion_lon": 0.0, "lat": 38.90559366666667, "lon": -77.04352166666666, "bike_id": "bf57a8c01be75be6b74716491df5597b"}, {"type": "electric_scooter", "is_reserved": 0, "is_disabled": 0, "fusion_lat": 0.0, "name": "5994ae07b9477bdd13d9d197ee1e0b43", "rental_uris": {"android": "https://dc.lft.to/lastmile_qr_scan", "ios": "https://dc.lft.to/lastmile_qr_scan"}, "fusion_lon": 0.0, "lat": 38.90819783333333, "lon": -77.0434025, "bike_id": "5994ae07b9477bdd13d9d197ee1e0b43"}, {"type": "electric_scooter", "is_reserved": 0, "is_disabled": 0, "fusion_lat": 0.0, "name": "b1b58605d230444edd8c95c6b27e3dd9", "rental_uris": {"android": "https://dc.lft.to/lastmile_qr_scan", "ios": "https://dc.lft.to/lastmile_qr_scan"}, "fusion_lon": 0.0, "lat": 38.88146233333333, "lon": -77.03748833333333, "bike_id": "b1b58605d230444edd8c95c6b27e3dd9"}, {"type": "electric_scooter", "is_reserved": 0, "is_disabled": 0, "fusion_lat": 0.0, "name": "6bac1576e8abf3790c84522e6a467e19", "rental_uris": {"android": "https://dc.lft.to/lastmile_qr_scan", "ios": "https://dc.lft.to/lastmile_qr_scan"}, "fusion_lon": 0.0, "lat": 38.871853, "lon": -76.97381066666667, "bike_id": "6bac1576e8abf3790c84522e6a467e19"}, {"type": "electric_bike", "is_reserved": 0, "is_disabled": 0, "fusion_lat": 0.0, "name": "8bfd56d9f17e92e7165a6af5dd77a62a", "rental_uris": {"android": "https://dc.lft.to/lastmile_qr_scan", "ios": "https://dc.lft.to/lastmile_qr_scan"}, "fusion_lon": 0.0, "lat": 38.96706266666666, "lon": -77.1022175, "bike_id": "8bfd56d9f17e92e7165a6af5dd77a62a"}, {"type": "electric_bike", "is_reserved": 0, "is_disabled": 0, "fusion_lat": 0.0, "name": "8965977d3b1e21587dc399bd8e2bc01d", "rental_uris": {"android": "https://dc.lft.to/lastmile_qr_scan", "ios": "https://dc.lft.to/lastmile_qr_scan"}, "fusion_lon": 0.0, "lat": 38.86163033333333, "lon": -77.13093483333333, "bike_id": "8965977d3b1e21587dc399bd8e2bc01d"}, {"type": "electric_scooter", "is_reserved": 0, "is_disabled": 0, "fusion_lat": 0.0, "name": "c3ea59b1fe232c70e2412a5b9297976e", "rental_uris": {"android": "https://dc.lft.to/lastmile_qr_scan", "ios": "https://dc.lft.to/lastmile_qr_scan"}, "fusion_lon": 0.0, "lat": 38.90374516666667, "lon": -77.0417845, "bike_id": "c3ea59b1fe232c70e2412a5b9297976e"}, {"type": "electric_scooter", "is_reserved": 0, "is_disabled": 0, "fusion_lat": 0.0, "name": "22d68d9059e84ad89c507132f19d739a", "rental_uris": {"android": "https://dc.lft.to/lastmile_qr_scan", "ios": "https://dc.lft.to/lastmile_qr_scan"}, "fusion_lon": 0.0, "lat": 38.921097833333334, "lon": -77.04221866666667, "bike_id": "22d68d9059e84ad89c507132f19d739a"}, {"type": "electric_scooter", "is_reserved": 0, "is_disabled": 0, "fusion_lat": 0.0, "name": "f3bec462b4dc20c0b3b83f5669867ab4", "rental_uris": {"android": "https://dc.lft.to/lastmile_qr_scan", "ios": "https://dc.lft.to/lastmile_qr_scan"}, "fusion_lon": 0.0, "lat": 38.9034595, "lon": -77.0212495, "bike_id": "f3bec462b4dc20c0b3b83f5669867ab4"}, {"type": "electric_scooter", "is_reserved": 0, "is_disabled": 0, "fusion_lat": 0.0, "name": "01849e37539473921f4925c75423ac78", "rental_uris": {"android": "https://dc.lft.to/lastmile_qr_scan", "ios": "https://dc.lft.to/lastmile_qr_scan"}, "fusion_lon": 0.0, "lat": 38.88722833333333, "lon": -77.0138045, "bike_id": "01849e37539473921f4925c75423ac78"}, {"type": "electric_bike", "is_reserved": 0, "is_disabled": 0, "fusion_lat": 0.0, "name": "f9f4066d95f2d7b0290f1818b52deea5", "rental_uris": {"android": "https://dc.lft.to/lastmile_qr_scan", "ios": "https://dc.lft.to/lastmile_qr_scan"}, "fusion_lon": 0.0, "lat": 38.932336666666664, "lon": -76.97424416666667, "bike_id": "f9f4066d95f2d7b0290f1818b52deea5"}, {"type": "electric_scooter", "is_reserved": 0, "is_disabled": 0, "fusion_lat": 0.0, "name": "9184d169eaba053a3a2ac3a118206a0d", "rental_uris": {"android": "https://dc.lft.to/lastmile_qr_scan", "ios": "https://dc.lft.to/lastmile_qr_scan"}, "fusion_lon": 0.0, "lat": 38.914046, "lon": -77.02954333333334, "bike_id": "9184d169eaba053a3a2ac3a118206a0d"}, {"type": "electric_scooter", "is_reserved": 0, "is_disabled": 0, "fusion_lat": 0.0, "name": "57024a2002fbbced29b619570b322ba7", "rental_uris": {"android": "https://dc.lft.to/lastmile_qr_scan", "ios": "https://dc.lft.to/lastmile_qr_scan"}, "fusion_lon": 0.0, "lat": 38.914079666666666, "lon": -77.0204735, "bike_id": "57024a2002fbbced29b619570b322ba7"}, {"type": "electric_scooter", "is_reserved": 0, "is_disabled": 0, "fusion_lat": 0.0, "name": "ac0293a4fff3c7e04ff21565787c1367", "rental_uris": {"android": "https://dc.lft.to/lastmile_qr_scan", "ios": "https://dc.lft.to/lastmile_qr_scan"}, "fusion_lon": 0.0, "lat": 38.919868, "lon": -77.04168916666667, "bike_id": "ac0293a4fff3c7e04ff21565787c1367"}, {"type": "electric_scooter", "is_reserved": 0, "is_disabled": 0, "fusion_lat": 0.0, "name": "2a03e03ac1f88f06b15253a4fdeed71b", "rental_uris": {"android": "https://dc.lft.to/lastmile_qr_scan", "ios": "https://dc.lft.to/lastmile_qr_scan"}, "fusion_lon": 0.0, "lat": 38.8892585, "lon": -76.97374983333333, "bike_id": "2a03e03ac1f88f06b15253a4fdeed71b"}, {"type": "electric_scooter", "is_reserved": 0, "is_disabled": 0, "fusion_lat": 0.0, "name": "a2877cd54650176b14372cc3fb858c0f", "rental_uris": {"android": "https://dc.lft.to/lastmile_qr_scan", "ios": "https://dc.lft.to/lastmile_qr_scan"}, "fusion_lon": 0.0, "lat": 38.897728, "lon": -77.0268905, "bike_id": "a2877cd54650176b14372cc3fb858c0f"}, {"type": "electric_scooter", "is_reserved": 0, "is_disabled": 0, "fusion_lat": 0.0, "name": "9c98b85bc5108a91e46412736bbff41f", "rental_uris": {"android": "https://dc.lft.to/lastmile_qr_scan", "ios": "https://dc.lft.to/lastmile_qr_scan"}, "fusion_lon": 0.0, "lat": 38.84296616666666, "lon": -76.99949483333333, "bike_id": "9c98b85bc5108a91e46412736bbff41f"}, {"type": "electric_scooter", "is_reserved": 0, "is_disabled": 0, "fusion_lat": 0.0, "name": "29dabaf98ec7e4378e4cc34428956b8b", "rental_uris": {"android": "https://dc.lft.to/lastmile_qr_scan", "ios": "https://dc.lft.to/lastmile_qr_scan"}, "fusion_lon": 0.0, "lat": 38.918748, "lon": -77.02177416666666, "bike_id": "29dabaf98ec7e4378e4cc34428956b8b"}, {"type": "electric_scooter", "is_reserved": 0, "is_disabled": 0, "fusion_lat": 0.0, "name": "a443814da361c01a708756b347a36634", "rental_uris": {"android": "https://dc.lft.to/lastmile_qr_scan", "ios": "https://dc.lft.to/lastmile_qr_scan"}, "fusion_lon": 0.0, "lat": 38.876292, "lon": -76.965247, "bike_id": "a443814da361c01a708756b347a36634"}, {"type": "electric_scooter", "is_reserved": 0, "is_disabled": 0, "fusion_lat": 0.0, "name": "e67fdd0f0ec7f6a7a39ad708cb6a70fc", "rental_uris": {"android": "https://dc.lft.to/lastmile_qr_scan", "ios": "https://dc.lft.to/lastmile_qr_scan"}, "fusion_lon": 0.0, "lat": 38.933198, "lon": -77.03284283333333, "bike_id": "e67fdd0f0ec7f6a7a39ad708cb6a70fc"}, {"type": "electric_scooter", "is_reserved": 0, "is_disabled": 0, "fusion_lat": 0.0, "name": "dd68ace69fb0e746f862ad48159f5281", "rental_uris": {"android": "https://dc.lft.to/lastmile_qr_scan", "ios": "https://dc.lft.to/lastmile_qr_scan"}, "fusion_lon": 0.0, "lat": 38.94174866666667, "lon": -77.0250065, "bike_id": "dd68ace69fb0e746f862ad48159f5281"}, {"type": "electric_scooter", "is_reserved": 0, "is_disabled": 0, "fusion_lat": 0.0, "name": "0d4c4ed286fd12bc440e04e913548075", "rental_uris": {"android": "https://dc.lft.to/lastmile_qr_scan", "ios": "https://dc.lft.to/lastmile_qr_scan"}, "fusion_lon": 0.0, "lat": 38.90553633333333, "lon": -77.05699366666667, "bike_id": "0d4c4ed286fd12bc440e04e913548075"}, {"type": "electric_scooter", "is_reserved": 0, "is_disabled": 0, "fusion_lat": 0.0, "name": "5cc56e943ae1addbe7c658f7df68402f", "rental_uris": {"android": "https://dc.lft.to/lastmile_qr_scan", "ios": "https://dc.lft.to/lastmile_qr_scan"}, "fusion_lon": 0.0, "lat": 38.9054315, "lon": -77.04916466666667, "bike_id": "5cc56e943ae1addbe7c658f7df68402f"}, {"type": "electric_scooter", "is_reserved": 0, "is_disabled": 0, "fusion_lat": 0.0, "name": "ee05b96dea61f637ed4b3376837b3891", "rental_uris": {"android": "https://dc.lft.to/lastmile_qr_scan", "ios": "https://dc.lft.to/lastmile_qr_scan"}, "fusion_lon": 0.0, "lat": 38.91212083333333, "lon": -77.03642616666667, "bike_id": "ee05b96dea61f637ed4b3376837b3891"}, {"type": "electric_scooter", "is_reserved": 0, "is_disabled": 0, "fusion_lat": 0.0, "name": "fdd8b24229ed7831a6b7ea8118731017", "rental_uris": {"android": "https://dc.lft.to/lastmile_qr_scan", "ios": "https://dc.lft.to/lastmile_qr_scan"}, "fusion_lon": 0.0, "lat": 38.928636166666664, "lon": -77.03433016666666, "bike_id": "fdd8b24229ed7831a6b7ea8118731017"}, {"type": "electric_scooter", "is_reserved": 0, "is_disabled": 0, "fusion_lat": 0.0, "name": "8c00db0f79d3f10e77a45154fa1f0489", "rental_uris": {"android": "https://dc.lft.to/lastmile_qr_scan", "ios": "https://dc.lft.to/lastmile_qr_scan"}, "fusion_lon": 0.0, "lat": 38.899139, "lon": -77.04034966666667, "bike_id": "8c00db0f79d3f10e77a45154fa1f0489"}, {"type": "electric_scooter", "is_reserved": 0, "is_disabled": 0, "fusion_lat": 0.0, "name": "286b830c204afa2e1917ad1b7bb7b1ea", "rental_uris": {"android": "https://dc.lft.to/lastmile_qr_scan", "ios": "https://dc.lft.to/lastmile_qr_scan"}, "fusion_lon": 0.0, "lat": 38.86236183333333, "lon": -76.994836, "bike_id": "286b830c204afa2e1917ad1b7bb7b1ea"}, {"type": "electric_scooter", "is_reserved": 0, "is_disabled": 0, "fusion_lat": 0.0, "name": "27cee7fea9a722156238f27bff138cf7", "rental_uris": {"android": "https://dc.lft.to/lastmile_qr_scan", "ios": "https://dc.lft.to/lastmile_qr_scan"}, "fusion_lon": 0.0, "lat": 38.894815333333334, "lon": -77.02187883333333, "bike_id": "27cee7fea9a722156238f27bff138cf7"}, {"type": "electric_scooter", "is_reserved": 0, "is_disabled": 0, "fusion_lat": 0.0, "name": "2e9a1737dd29c045a8ce3589c852fd4f", "rental_uris": {"android": "https://dc.lft.to/lastmile_qr_scan", "ios": "https://dc.lft.to/lastmile_qr_scan"}, "fusion_lon": 0.0, "lat": 38.929944666666664, "lon": -77.05509333333333, "bike_id": "2e9a1737dd29c045a8ce3589c852fd4f"}, {"type": "electric_scooter", "is_reserved": 0, "is_disabled": 0, "fusion_lat": 0.0, "name": "ebc8f4422f5618eda05591a01ac02699", "rental_uris": {"android": "https://dc.lft.to/lastmile_qr_scan", "ios": "https://dc.lft.to/lastmile_qr_scan"}, "fusion_lon": 0.0, "lat": 38.933158166666665, "lon": -77.03285266666667, "bike_id": "ebc8f4422f5618eda05591a01ac02699"}, {"type": "electric_scooter", "is_reserved": 0, "is_disabled": 0, "fusion_lat": 0.0, "name": "4849d850c7b22a6a5351747acc1f43b6", "rental_uris": {"android": "https://dc.lft.to/lastmile_qr_scan", "ios": "https://dc.lft.to/lastmile_qr_scan"}, "fusion_lon": 0.0, "lat": 38.90375133333333, "lon": -77.01100883333334, "bike_id": "4849d850c7b22a6a5351747acc1f43b6"}, {"type": "electric_bike", "is_reserved": 0, "is_disabled": 0, "fusion_lat": 0.0, "name": "1c70f45a8c973bd3c854ecaa6440ae59", "rental_uris": {"android": "https://dc.lft.to/lastmile_qr_scan", "ios": "https://dc.lft.to/lastmile_qr_scan"}, "fusion_lon": 0.0, "lat": 38.863885, "lon": -76.989903, "bike_id": "1c70f45a8c973bd3c854ecaa6440ae59"}, {"type": "electric_scooter", "is_reserved": 0, "is_disabled": 0, "fusion_lat": 0.0, "name": "c642e17154a14061ef5b6f67e71318e4", "rental_uris": {"android": "https://dc.lft.to/lastmile_qr_scan", "ios": "https://dc.lft.to/lastmile_qr_scan"}, "fusion_lon": 0.0, "lat": 38.9068535, "lon": -77.0635785, "bike_id": "c642e17154a14061ef5b6f67e71318e4"}, {"type": "electric_scooter", "is_reserved": 0, "is_disabled": 0, "fusion_lat": 0.0, "name": "2c9eda3ac1caef62fa74db4d1006de63", "rental_uris": {"android": "https://dc.lft.to/lastmile_qr_scan", "ios": "https://dc.lft.to/lastmile_qr_scan"}, "fusion_lon": 0.0, "lat": 38.895298333333336, "lon": -77.03210966666667, "bike_id": "2c9eda3ac1caef62fa74db4d1006de63"}, {"type": "electric_scooter", "is_reserved": 0, "is_disabled": 0, "fusion_lat": 0.0, "name": "9d6511e67b3a342527fb041f8a9ce84a", "rental_uris": {"android": "https://dc.lft.to/lastmile_qr_scan", "ios": "https://dc.lft.to/lastmile_qr_scan"}, "fusion_lon": 0.0, "lat": 38.918499833333335, "lon": -77.044994, "bike_id": "9d6511e67b3a342527fb041f8a9ce84a"}, {"type": "electric_bike", "is_reserved": 0, "is_disabled": 0, "fusion_lat": 0.0, "name": "356092b47f0886c7839e597a90cfc307", "rental_uris": {"android": "https://dc.lft.to/lastmile_qr_scan", "ios": "https://dc.lft.to/lastmile_qr_scan"}, "fusion_lon": 0.0, "lat": 38.951964833333335, "lon": -76.96722983333333, "bike_id": "356092b47f0886c7839e597a90cfc307"}, {"type": "electric_scooter", "is_reserved": 0, "is_disabled": 0, "fusion_lat": 0.0, "name": "5a816b95a7005d9c49142a609e5d2c86", "rental_uris": {"android": "https://dc.lft.to/lastmile_qr_scan", "ios": "https://dc.lft.to/lastmile_qr_scan"}, "fusion_lon": 0.0, "lat": 38.923153, "lon": -77.04618316666667, "bike_id": "5a816b95a7005d9c49142a609e5d2c86"}, {"type": "electric_bike", "is_reserved": 0, "is_disabled": 0, "fusion_lat": 0.0, "name": "48f584427fdb74caba0c38a64fbc49c0", "rental_uris": {"android": "https://dc.lft.to/lastmile_qr_scan", "ios": "https://dc.lft.to/lastmile_qr_scan"}, "fusion_lon": 0.0, "lat": 39.00011283333333, "lon": -76.91077133333333, "bike_id": "48f584427fdb74caba0c38a64fbc49c0"}, {"type": "electric_scooter", "is_reserved": 0, "is_disabled": 0, "fusion_lat": 0.0, "name": "ff3d3a816317e7bc04b8839cd5e1fa01", "rental_uris": {"android": "https://dc.lft.to/lastmile_qr_scan", "ios": "https://dc.lft.to/lastmile_qr_scan"}, "fusion_lon": 0.0, "lat": 38.9295375, "lon": -77.05487733333334, "bike_id": "ff3d3a816317e7bc04b8839cd5e1fa01"}, {"type": "electric_scooter", "is_reserved": 0, "is_disabled": 0, "fusion_lat": 0.0, "name": "0fdc849a726eb1ceab7ed623d419959a", "rental_uris": {"android": "https://dc.lft.to/lastmile_qr_scan", "ios": "https://dc.lft.to/lastmile_qr_scan"}, "fusion_lon": 0.0, "lat": 38.903492666666665, "lon": -76.9756385, "bike_id": "0fdc849a726eb1ceab7ed623d419959a"}, {"type": "electric_scooter", "is_reserved": 0, "is_disabled": 0, "fusion_lat": 0.0, "name": "3d667d68dc23686302c31263cb3c7af3", "rental_uris": {"android": "https://dc.lft.to/lastmile_qr_scan", "ios": "https://dc.lft.to/lastmile_qr_scan"}, "fusion_lon": 0.0, "lat": 38.85810016666667, "lon": -76.98653733333333, "bike_id": "3d667d68dc23686302c31263cb3c7af3"}, {"type": "electric_scooter", "is_reserved": 0, "is_disabled": 0, "fusion_lat": 0.0, "name": "e71a412fe5522434c7f83e559407d7ad", "rental_uris": {"android": "https://dc.lft.to/lastmile_qr_scan", "ios": "https://dc.lft.to/lastmile_qr_scan"}, "fusion_lon": 0.0, "lat": 38.949792, "lon": -77.02696533333334, "bike_id": "e71a412fe5522434c7f83e559407d7ad"}, {"type": "electric_scooter", "is_reserved": 0, "is_disabled": 0, "fusion_lat": 0.0, "name": "5db5cb7fbdcdda66e9ad3235c99924ab", "rental_uris": {"android": "https://dc.lft.to/lastmile_qr_scan", "ios": "https://dc.lft.to/lastmile_qr_scan"}, "fusion_lon": 0.0, "lat": 38.94389966666667, "lon": -77.02613133333334, "bike_id": "5db5cb7fbdcdda66e9ad3235c99924ab"}, {"type": "electric_scooter", "is_reserved": 0, "is_disabled": 0, "fusion_lat": 0.0, "name": "6d94f7ea3d1f2ae4ac040b05f3c9e0c5", "rental_uris": {"android": "https://dc.lft.to/lastmile_qr_scan", "ios": "https://dc.lft.to/lastmile_qr_scan"}, "fusion_lon": 0.0, "lat": 38.895382166666664, "lon": -77.03216783333333, "bike_id": "6d94f7ea3d1f2ae4ac040b05f3c9e0c5"}, {"type": "electric_scooter", "is_reserved": 0, "is_disabled": 0, "fusion_lat": 0.0, "name": "1f9a47b3cd41669e8601c2fce7237c95", "rental_uris": {"android": "https://dc.lft.to/lastmile_qr_scan", "ios": "https://dc.lft.to/lastmile_qr_scan"}, "fusion_lon": 0.0, "lat": 38.892204666666665, "lon": -77.02442933333333, "bike_id": "1f9a47b3cd41669e8601c2fce7237c95"}, {"type": "electric_scooter", "is_reserved": 0, "is_disabled": 0, "fusion_lat": 0.0, "name": "c1e191f8b58dff7a967eaa0a8a4842fa", "rental_uris": {"android": "https://dc.lft.to/lastmile_qr_scan", "ios": "https://dc.lft.to/lastmile_qr_scan"}, "fusion_lon": 0.0, "lat": 38.94310083333333, "lon": -77.061754, "bike_id": "c1e191f8b58dff7a967eaa0a8a4842fa"}, {"type": "electric_scooter", "is_reserved": 0, "is_disabled": 0, "fusion_lat": 0.0, "name": "2b0cae4f204a84dea2d1940846e9724a", "rental_uris": {"android": "https://dc.lft.to/lastmile_qr_scan", "ios": "https://dc.lft.to/lastmile_qr_scan"}, "fusion_lon": 0.0, "lat": 38.90491133333333, "lon": -77.06019833333333, "bike_id": "2b0cae4f204a84dea2d1940846e9724a"}, {"type": "electric_bike", "is_reserved": 0, "is_disabled": 0, "fusion_lat": 0.0, "name": "1401ede3c5ddbf592dcb23fcbe8924cc", "rental_uris": {"android": "https://dc.lft.to/lastmile_qr_scan", "ios": "https://dc.lft.to/lastmile_qr_scan"}, "fusion_lon": 0.0, "lat": 38.942044333333335, "lon": -77.0182465, "bike_id": "1401ede3c5ddbf592dcb23fcbe8924cc"}, {"type": "electric_scooter", "is_reserved": 0, "is_disabled": 0, "fusion_lat": 0.0, "name": "9df58728fd18d5c1eea9c1e21696b897", "rental_uris": {"android": "https://dc.lft.to/lastmile_qr_scan", "ios": "https://dc.lft.to/lastmile_qr_scan"}, "fusion_lon": 0.0, "lat": 38.90025816666667, "lon": -77.00236083333333, "bike_id": "9df58728fd18d5c1eea9c1e21696b897"}, {"type": "electric_scooter", "is_reserved": 0, "is_disabled": 0, "fusion_lat": 0.0, "name": "69b590ea95d29e75ac47f27d2a70210c", "rental_uris": {"android": "https://dc.lft.to/lastmile_qr_scan", "ios": "https://dc.lft.to/lastmile_qr_scan"}, "fusion_lon": 0.0, "lat": 38.91988666666666, "lon": -77.02388216666667, "bike_id": "69b590ea95d29e75ac47f27d2a70210c"}, {"type": "electric_scooter", "is_reserved": 0, "is_disabled": 0, "fusion_lat": 0.0, "name": "6539ac0907872e5daff674d58a84bed2", "rental_uris": {"android": "https://dc.lft.to/lastmile_qr_scan", "ios": "https://dc.lft.to/lastmile_qr_scan"}, "fusion_lon": 0.0, "lat": 38.894861666666664, "lon": -76.949535, "bike_id": "6539ac0907872e5daff674d58a84bed2"}, {"type": "electric_scooter", "is_reserved": 0, "is_disabled": 0, "fusion_lat": 0.0, "name": "f0a2d6436dd255f3ef7ab0dd96463628", "rental_uris": {"android": "https://dc.lft.to/lastmile_qr_scan", "ios": "https://dc.lft.to/lastmile_qr_scan"}, "fusion_lon": 0.0, "lat": 38.903448833333336, "lon": -76.972456, "bike_id": "f0a2d6436dd255f3ef7ab0dd96463628"}, {"type": "electric_scooter", "is_reserved": 0, "is_disabled": 0, "fusion_lat": 0.0, "name": "beb7d7816c5c22dc1865f1e80c5d740a", "rental_uris": {"android": "https://dc.lft.to/lastmile_qr_scan", "ios": "https://dc.lft.to/lastmile_qr_scan"}, "fusion_lon": 0.0, "lat": 38.904505666666665, "lon": -77.059231, "bike_id": "beb7d7816c5c22dc1865f1e80c5d740a"}, {"type": "electric_scooter", "is_reserved": 0, "is_disabled": 0, "fusion_lat": 0.0, "name": "324bf36d68a4b92d798ecf074654ed78", "rental_uris": {"android": "https://dc.lft.to/lastmile_qr_scan", "ios": "https://dc.lft.to/lastmile_qr_scan"}, "fusion_lon": 0.0, "lat": 38.922402166666664, "lon": -77.0291015, "bike_id": "324bf36d68a4b92d798ecf074654ed78"}, {"type": "electric_scooter", "is_reserved": 0, "is_disabled": 0, "fusion_lat": 0.0, "name": "b620cdad37b45f0027f0670a091dfa85", "rental_uris": {"android": "https://dc.lft.to/lastmile_qr_scan", "ios": "https://dc.lft.to/lastmile_qr_scan"}, "fusion_lon": 0.0, "lat": 38.900575833333335, "lon": -77.04823416666666, "bike_id": "b620cdad37b45f0027f0670a091dfa85"}, {"type": "electric_scooter", "is_reserved": 0, "is_disabled": 0, "fusion_lat": 0.0, "name": "78ea93dedba62b52ebe09daa0f5b2386", "rental_uris": {"android": "https://dc.lft.to/lastmile_qr_scan", "ios": "https://dc.lft.to/lastmile_qr_scan"}, "fusion_lon": 0.0, "lat": 38.9101435, "lon": -76.993877, "bike_id": "78ea93dedba62b52ebe09daa0f5b2386"}, {"type": "electric_scooter", "is_reserved": 0, "is_disabled": 0, "fusion_lat": 0.0, "name": "4a427428d58d49490e24afe8628c45b3", "rental_uris": {"android": "https://dc.lft.to/lastmile_qr_scan", "ios": "https://dc.lft.to/lastmile_qr_scan"}, "fusion_lon": 0.0, "lat": 38.91257316666667, "lon": -77.03497033333333, "bike_id": "4a427428d58d49490e24afe8628c45b3"}, {"type": "electric_scooter", "is_reserved": 0, "is_disabled": 0, "fusion_lat": 0.0, "name": "d44317fb9d1f54fe07b1cc745a12863d", "rental_uris": {"android": "https://dc.lft.to/lastmile_qr_scan", "ios": "https://dc.lft.to/lastmile_qr_scan"}, "fusion_lon": 0.0, "lat": 38.91676283333334, "lon": -77.0297615, "bike_id": "d44317fb9d1f54fe07b1cc745a12863d"}, {"type": "electric_scooter", "is_reserved": 0, "is_disabled": 0, "fusion_lat": 0.0, "name": "19c91830c152fb5058414eb5ade80464", "rental_uris": {"android": "https://dc.lft.to/lastmile_qr_scan", "ios": "https://dc.lft.to/lastmile_qr_scan"}, "fusion_lon": 0.0, "lat": 38.892220333333334, "lon": -77.04371216666667, "bike_id": "19c91830c152fb5058414eb5ade80464"}, {"type": "electric_scooter", "is_reserved": 0, "is_disabled": 0, "fusion_lat": 0.0, "name": "b25d8c829b1a695e6eb8034c1768b1dc", "rental_uris": {"android": "https://dc.lft.to/lastmile_qr_scan", "ios": "https://dc.lft.to/lastmile_qr_scan"}, "fusion_lon": 0.0, "lat": 38.8661845, "lon": -76.98664, "bike_id": "b25d8c829b1a695e6eb8034c1768b1dc"}, {"type": "electric_scooter", "is_reserved": 0, "is_disabled": 0, "fusion_lat": 0.0, "name": "b60cba07d77ee4b97adcd6b9f4955e5f", "rental_uris": {"android": "https://dc.lft.to/lastmile_qr_scan", "ios": "https://dc.lft.to/lastmile_qr_scan"}, "fusion_lon": 0.0, "lat": 38.9014165, "lon": -76.941519, "bike_id": "b60cba07d77ee4b97adcd6b9f4955e5f"}, {"type": "electric_scooter", "is_reserved": 0, "is_disabled": 0, "fusion_lat": 0.0, "name": "3b4b06f5434bc20a1712eceea2abca5e", "rental_uris": {"android": "https://dc.lft.to/lastmile_qr_scan", "ios": "https://dc.lft.to/lastmile_qr_scan"}, "fusion_lon": 0.0, "lat": 38.89561233333333, "lon": -77.029299, "bike_id": "3b4b06f5434bc20a1712eceea2abca5e"}, {"type": "electric_scooter", "is_reserved": 0, "is_disabled": 0, "fusion_lat": 0.0, "name": "1ad80138ebd683cf83610c6313bf7120", "rental_uris": {"android": "https://dc.lft.to/lastmile_qr_scan", "ios": "https://dc.lft.to/lastmile_qr_scan"}, "fusion_lon": 0.0, "lat": 38.92788433333333, "lon": -77.03691783333333, "bike_id": "1ad80138ebd683cf83610c6313bf7120"}, {"type": "electric_bike", "is_reserved": 0, "is_disabled": 0, "fusion_lat": 0.0, "name": "634aca0f7a6c5c249b7bee8141d90ca5", "rental_uris": {"android": "https://dc.lft.to/lastmile_qr_scan", "ios": "https://dc.lft.to/lastmile_qr_scan"}, "fusion_lon": 0.0, "lat": 38.96147216666667, "lon": -77.032385, "bike_id": "634aca0f7a6c5c249b7bee8141d90ca5"}, {"type": "electric_scooter", "is_reserved": 0, "is_disabled": 0, "fusion_lat": 0.0, "name": "4f1a7fe26e819254e325b63ad7a37e29", "rental_uris": {"android": "https://dc.lft.to/lastmile_qr_scan", "ios": "https://dc.lft.to/lastmile_qr_scan"}, "fusion_lon": 0.0, "lat": 38.90273783333333, "lon": -77.05308116666667, "bike_id": "4f1a7fe26e819254e325b63ad7a37e29"}, {"type": "electric_scooter", "is_reserved": 0, "is_disabled": 0, "fusion_lat": 0.0, "name": "a7e56297e3781010656ad5059dd4f858", "rental_uris": {"android": "https://dc.lft.to/lastmile_qr_scan", "ios": "https://dc.lft.to/lastmile_qr_scan"}, "fusion_lon": 0.0, "lat": 38.88587666666667, "lon": -77.00064833333333, "bike_id": "a7e56297e3781010656ad5059dd4f858"}, {"type": "electric_scooter", "is_reserved": 0, "is_disabled": 0, "fusion_lat": 0.0, "name": "f92b2f966651427169002b46cb3df449", "rental_uris": {"android": "https://dc.lft.to/lastmile_qr_scan", "ios": "https://dc.lft.to/lastmile_qr_scan"}, "fusion_lon": 0.0, "lat": 38.8922345, "lon": -77.04801283333333, "bike_id": "f92b2f966651427169002b46cb3df449"}, {"type": "electric_scooter", "is_reserved": 0, "is_disabled": 0, "fusion_lat": 0.0, "name": "d563f429f82eb13a05c74dd757799356", "rental_uris": {"android": "https://dc.lft.to/lastmile_qr_scan", "ios": "https://dc.lft.to/lastmile_qr_scan"}, "fusion_lon": 0.0, "lat": 38.913815, "lon": -77.004591, "bike_id": "d563f429f82eb13a05c74dd757799356"}, {"type": "electric_scooter", "is_reserved": 0, "is_disabled": 0, "fusion_lat": 0.0, "name": "397a7cd09f12cc9320365bfbb7641d64", "rental_uris": {"android": "https://dc.lft.to/lastmile_qr_scan", "ios": "https://dc.lft.to/lastmile_qr_scan"}, "fusion_lon": 0.0, "lat": 38.89718333333333, "lon": -77.00644933333334, "bike_id": "397a7cd09f12cc9320365bfbb7641d64"}, {"type": "electric_bike", "is_reserved": 0, "is_disabled": 0, "fusion_lat": 0.0, "name": "cc392f30bbaa8458a158fe77e5d7c7cf", "rental_uris": {"android": "https://dc.lft.to/lastmile_qr_scan", "ios": "https://dc.lft.to/lastmile_qr_scan"}, "fusion_lon": 0.0, "lat": 38.8723755, "lon": -77.01162816666667, "bike_id": "cc392f30bbaa8458a158fe77e5d7c7cf"}, {"type": "electric_scooter", "is_reserved": 0, "is_disabled": 0, "fusion_lat": 0.0, "name": "c709ac7fe4cf37eead55d4fcbb8b516e", "rental_uris": {"android": "https://dc.lft.to/lastmile_qr_scan", "ios": "https://dc.lft.to/lastmile_qr_scan"}, "fusion_lon": 0.0, "lat": 38.9509725, "lon": -77.02338233333333, "bike_id": "c709ac7fe4cf37eead55d4fcbb8b516e"}, {"type": "electric_bike", "is_reserved": 0, "is_disabled": 0, "fusion_lat": 0.0, "name": "efd5314307cc7e7cdb38b54b308edbc7", "rental_uris": {"android": "https://dc.lft.to/lastmile_qr_scan", "ios": "https://dc.lft.to/lastmile_qr_scan"}, "fusion_lon": 0.0, "lat": 38.86173433333333, "lon": -77.13141433333334, "bike_id": "efd5314307cc7e7cdb38b54b308edbc7"}, {"type": "electric_scooter", "is_reserved": 0, "is_disabled": 0, "fusion_lat": 0.0, "name": "6a3362c050e1a50411b9d6b20bfb3ae5", "rental_uris": {"android": "https://dc.lft.to/lastmile_qr_scan", "ios": "https://dc.lft.to/lastmile_qr_scan"}, "fusion_lon": 0.0, "lat": 38.8919535, "lon": -77.02454983333334, "bike_id": "6a3362c050e1a50411b9d6b20bfb3ae5"}, {"type": "electric_scooter", "is_reserved": 0, "is_disabled": 0, "fusion_lat": 0.0, "name": "cfe6aa865d39c195c3a80871ae96dba5", "rental_uris": {"android": "https://dc.lft.to/lastmile_qr_scan", "ios": "https://dc.lft.to/lastmile_qr_scan"}, "fusion_lon": 0.0, "lat": 38.865679, "lon": -76.9895145, "bike_id": "cfe6aa865d39c195c3a80871ae96dba5"}, {"type": "electric_scooter", "is_reserved": 0, "is_disabled": 0, "fusion_lat": 0.0, "name": "a51595fd603b4912809bac1474b079bf", "rental_uris": {"android": "https://dc.lft.to/lastmile_qr_scan", "ios": "https://dc.lft.to/lastmile_qr_scan"}, "fusion_lon": 0.0, "lat": 38.91012383333333, "lon": -77.08897983333334, "bike_id": "a51595fd603b4912809bac1474b079bf"}, {"type": "electric_scooter", "is_reserved": 0, "is_disabled": 0, "fusion_lat": 0.0, "name": "7643ac322364ed15c21f9191e1da0aed", "rental_uris": {"android": "https://dc.lft.to/lastmile_qr_scan", "ios": "https://dc.lft.to/lastmile_qr_scan"}, "fusion_lon": 0.0, "lat": 38.916846666666665, "lon": -77.0229075, "bike_id": "7643ac322364ed15c21f9191e1da0aed"}, {"type": "electric_scooter", "is_reserved": 0, "is_disabled": 0, "fusion_lat": 0.0, "name": "03c85a888e68ca9365e319c326577f77", "rental_uris": {"android": "https://dc.lft.to/lastmile_qr_scan", "ios": "https://dc.lft.to/lastmile_qr_scan"}, "fusion_lon": 0.0, "lat": 38.92153283333333, "lon": -77.03882283333333, "bike_id": "03c85a888e68ca9365e319c326577f77"}, {"type": "electric_scooter", "is_reserved": 0, "is_disabled": 0, "fusion_lat": 0.0, "name": "ffb16e88ecdb08f2dce776a893f4837f", "rental_uris": {"android": "https://dc.lft.to/lastmile_qr_scan", "ios": "https://dc.lft.to/lastmile_qr_scan"}, "fusion_lon": 0.0, "lat": 38.90007933333333, "lon": -76.99846583333333, "bike_id": "ffb16e88ecdb08f2dce776a893f4837f"}, {"type": "electric_scooter", "is_reserved": 0, "is_disabled": 0, "fusion_lat": 0.0, "name": "4a59437a270af1d1fd4b4467cbea25ae", "rental_uris": {"android": "https://dc.lft.to/lastmile_qr_scan", "ios": "https://dc.lft.to/lastmile_qr_scan"}, "fusion_lon": 0.0, "lat": 38.88711, "lon": -77.02829966666667, "bike_id": "4a59437a270af1d1fd4b4467cbea25ae"}, {"type": "electric_scooter", "is_reserved": 0, "is_disabled": 0, "fusion_lat": 0.0, "name": "9854e788f14c273198a55b3674a335e7", "rental_uris": {"android": "https://dc.lft.to/lastmile_qr_scan", "ios": "https://dc.lft.to/lastmile_qr_scan"}, "fusion_lon": 0.0, "lat": 38.884344166666665, "lon": -77.03022516666667, "bike_id": "9854e788f14c273198a55b3674a335e7"}, {"type": "electric_scooter", "is_reserved": 0, "is_disabled": 0, "fusion_lat": 0.0, "name": "6a5583441780be6592aaf5835d0c2c22", "rental_uris": {"android": "https://dc.lft.to/lastmile_qr_scan", "ios": "https://dc.lft.to/lastmile_qr_scan"}, "fusion_lon": 0.0, "lat": 38.9258755, "lon": -77.05759433333333, "bike_id": "6a5583441780be6592aaf5835d0c2c22"}, {"type": "electric_scooter", "is_reserved": 0, "is_disabled": 0, "fusion_lat": 0.0, "name": "588e329e6edfa62773b2357cc66c3b65", "rental_uris": {"android": "https://dc.lft.to/lastmile_qr_scan", "ios": "https://dc.lft.to/lastmile_qr_scan"}, "fusion_lon": 0.0, "lat": 38.90181316666666, "lon": -77.00002233333333, "bike_id": "588e329e6edfa62773b2357cc66c3b65"}, {"type": "electric_scooter", "is_reserved": 0, "is_disabled": 0, "fusion_lat": 0.0, "name": "cb980daf410375e2781f287203997fdd", "rental_uris": {"android": "https://dc.lft.to/lastmile_qr_scan", "ios": "https://dc.lft.to/lastmile_qr_scan"}, "fusion_lon": 0.0, "lat": 38.896351333333335, "lon": -77.02941816666667, "bike_id": "cb980daf410375e2781f287203997fdd"}, {"type": "electric_scooter", "is_reserved": 0, "is_disabled": 0, "fusion_lat": 0.0, "name": "5b87f0c51928d5f6862d6e507579d0fb", "rental_uris": {"android": "https://dc.lft.to/lastmile_qr_scan", "ios": "https://dc.lft.to/lastmile_qr_scan"}, "fusion_lon": 0.0, "lat": 38.923711, "lon": -77.05756383333333, "bike_id": "5b87f0c51928d5f6862d6e507579d0fb"}, {"type": "electric_scooter", "is_reserved": 0, "is_disabled": 0, "fusion_lat": 0.0, "name": "4cc444aa5fbd8a1cfe6a6914ce6dbe44", "rental_uris": {"android": "https://dc.lft.to/lastmile_qr_scan", "ios": "https://dc.lft.to/lastmile_qr_scan"}, "fusion_lon": 0.0, "lat": 38.92923583333334, "lon": -77.0325635, "bike_id": "4cc444aa5fbd8a1cfe6a6914ce6dbe44"}, {"type": "electric_scooter", "is_reserved": 0, "is_disabled": 0, "fusion_lat": 0.0, "name": "d7cc61839f6b2bc3e913e4bdb4a355f1", "rental_uris": {"android": "https://dc.lft.to/lastmile_qr_scan", "ios": "https://dc.lft.to/lastmile_qr_scan"}, "fusion_lon": 0.0, "lat": 38.8980945, "lon": -77.02191616666667, "bike_id": "d7cc61839f6b2bc3e913e4bdb4a355f1"}, {"type": "electric_bike", "is_reserved": 0, "is_disabled": 0, "fusion_lat": 0.0, "name": "bf99cb2d5121f57dd54f19224d99453e", "rental_uris": {"android": "https://dc.lft.to/lastmile_qr_scan", "ios": "https://dc.lft.to/lastmile_qr_scan"}, "fusion_lon": 0.0, "lat": 38.9320845, "lon": -76.9743095, "bike_id": "bf99cb2d5121f57dd54f19224d99453e"}, {"type": "electric_scooter", "is_reserved": 0, "is_disabled": 0, "fusion_lat": 0.0, "name": "be2f65d90ecff805fb94d59efa38a369", "rental_uris": {"android": "https://dc.lft.to/lastmile_qr_scan", "ios": "https://dc.lft.to/lastmile_qr_scan"}, "fusion_lon": 0.0, "lat": 38.90727833333333, "lon": -77.03175016666667, "bike_id": "be2f65d90ecff805fb94d59efa38a369"}, {"type": "electric_scooter", "is_reserved": 0, "is_disabled": 0, "fusion_lat": 0.0, "name": "f6da8a532c641d8c8805c3260d385f54", "rental_uris": {"android": "https://dc.lft.to/lastmile_qr_scan", "ios": "https://dc.lft.to/lastmile_qr_scan"}, "fusion_lon": 0.0, "lat": 38.903265, "lon": -77.03472933333333, "bike_id": "f6da8a532c641d8c8805c3260d385f54"}, {"type": "electric_scooter", "is_reserved": 0, "is_disabled": 0, "fusion_lat": 0.0, "name": "0f2e60472c2d9c01cbca73454edf89c4", "rental_uris": {"android": "https://dc.lft.to/lastmile_qr_scan", "ios": "https://dc.lft.to/lastmile_qr_scan"}, "fusion_lon": 0.0, "lat": 38.8723155, "lon": -77.0176835, "bike_id": "0f2e60472c2d9c01cbca73454edf89c4"}, {"type": "electric_scooter", "is_reserved": 0, "is_disabled": 0, "fusion_lat": 0.0, "name": "ea54f8191c5e52abb98728ec6b3d2463", "rental_uris": {"android": "https://dc.lft.to/lastmile_qr_scan", "ios": "https://dc.lft.to/lastmile_qr_scan"}, "fusion_lon": 0.0, "lat": 38.88737716666667, "lon": -77.02791383333333, "bike_id": "ea54f8191c5e52abb98728ec6b3d2463"}, {"type": "electric_scooter", "is_reserved": 0, "is_disabled": 0, "fusion_lat": 0.0, "name": "b10e9117a82b878fff2ca51ff7cecfb3", "rental_uris": {"android": "https://dc.lft.to/lastmile_qr_scan", "ios": "https://dc.lft.to/lastmile_qr_scan"}, "fusion_lon": 0.0, "lat": 38.922495166666664, "lon": -77.02215616666666, "bike_id": "b10e9117a82b878fff2ca51ff7cecfb3"}, {"type": "electric_scooter", "is_reserved": 0, "is_disabled": 0, "fusion_lat": 0.0, "name": "f3e8301337581904e2972ddbdcd2aca6", "rental_uris": {"android": "https://dc.lft.to/lastmile_qr_scan", "ios": "https://dc.lft.to/lastmile_qr_scan"}, "fusion_lon": 0.0, "lat": 38.93253883333333, "lon": -77.02969766666666, "bike_id": "f3e8301337581904e2972ddbdcd2aca6"}, {"type": "electric_scooter", "is_reserved": 0, "is_disabled": 0, "fusion_lat": 0.0, "name": "f9a10ba7fe68a52c3a47415c3f2ff077", "rental_uris": {"android": "https://dc.lft.to/lastmile_qr_scan", "ios": "https://dc.lft.to/lastmile_qr_scan"}, "fusion_lon": 0.0, "lat": 38.910258666666664, "lon": -77.00758, "bike_id": "f9a10ba7fe68a52c3a47415c3f2ff077"}, {"type": "electric_scooter", "is_reserved": 0, "is_disabled": 0, "fusion_lat": 0.0, "name": "84112c7d6183ac5dfcaa4ce81b2d171c", "rental_uris": {"android": "https://dc.lft.to/lastmile_qr_scan", "ios": "https://dc.lft.to/lastmile_qr_scan"}, "fusion_lon": 0.0, "lat": 38.86373416666667, "lon": -76.99061116666667, "bike_id": "84112c7d6183ac5dfcaa4ce81b2d171c"}, {"type": "electric_scooter", "is_reserved": 0, "is_disabled": 0, "fusion_lat": 0.0, "name": "d0388b75a2d45e48a17887911594b8b6", "rental_uris": {"android": "https://dc.lft.to/lastmile_qr_scan", "ios": "https://dc.lft.to/lastmile_qr_scan"}, "fusion_lon": 0.0, "lat": 38.865209, "lon": -76.99036633333333, "bike_id": "d0388b75a2d45e48a17887911594b8b6"}, {"type": "electric_bike", "is_reserved": 0, "is_disabled": 0, "fusion_lat": 0.0, "name": "5ebce5308bdd48441a43aebb8d776263", "rental_uris": {"android": "https://dc.lft.to/lastmile_qr_scan", "ios": "https://dc.lft.to/lastmile_qr_scan"}, "fusion_lon": 0.0, "lat": 38.979014666666664, "lon": -77.00435383333334, "bike_id": "5ebce5308bdd48441a43aebb8d776263"}, {"type": "electric_bike", "is_reserved": 0, "is_disabled": 0, "fusion_lat": 0.0, "name": "ae6bede2f822351f30d84e7e08609d15", "rental_uris": {"android": "https://dc.lft.to/lastmile_qr_scan", "ios": "https://dc.lft.to/lastmile_qr_scan"}, "fusion_lon": 0.0, "lat": 38.95289866666667, "lon": -77.06978066666667, "bike_id": "ae6bede2f822351f30d84e7e08609d15"}, {"type": "electric_bike", "is_reserved": 0, "is_disabled": 0, "fusion_lat": 0.0, "name": "7abf951db1739c7045e7e70592f6b12b", "rental_uris": {"android": "https://dc.lft.to/lastmile_qr_scan", "ios": "https://dc.lft.to/lastmile_qr_scan"}, "fusion_lon": 0.0, "lat": 38.857909166666666, "lon": -77.09964883333333, "bike_id": "7abf951db1739c7045e7e70592f6b12b"}, {"type": "electric_scooter", "is_reserved": 0, "is_disabled": 0, "fusion_lat": 0.0, "name": "0b4874e140a9161e6efd6738e7ddeb8d", "rental_uris": {"android": "https://dc.lft.to/lastmile_qr_scan", "ios": "https://dc.lft.to/lastmile_qr_scan"}, "fusion_lon": 0.0, "lat": 38.90193583333333, "lon": -77.02372616666666, "bike_id": "0b4874e140a9161e6efd6738e7ddeb8d"}, {"type": "electric_scooter", "is_reserved": 0, "is_disabled": 0, "fusion_lat": 0.0, "name": "e2209553e2b4464ec7c7448b3824dbf0", "rental_uris": {"android": "https://dc.lft.to/lastmile_qr_scan", "ios": "https://dc.lft.to/lastmile_qr_scan"}, "fusion_lon": 0.0, "lat": 38.919083, "lon": -77.04630583333334, "bike_id": "e2209553e2b4464ec7c7448b3824dbf0"}, {"type": "electric_scooter", "is_reserved": 0, "is_disabled": 0, "fusion_lat": 0.0, "name": "b4bc8136c9f291de8c352c0b4cd93380", "rental_uris": {"android": "https://dc.lft.to/lastmile_qr_scan", "ios": "https://dc.lft.to/lastmile_qr_scan"}, "fusion_lon": 0.0, "lat": 38.87670333333333, "lon": -77.00406383333333, "bike_id": "b4bc8136c9f291de8c352c0b4cd93380"}, {"type": "electric_scooter", "is_reserved": 0, "is_disabled": 0, "fusion_lat": 0.0, "name": "1c55549523be6dca19be49cb96107469", "rental_uris": {"android": "https://dc.lft.to/lastmile_qr_scan", "ios": "https://dc.lft.to/lastmile_qr_scan"}, "fusion_lon": 0.0, "lat": 38.912191, "lon": -77.03844566666666, "bike_id": "1c55549523be6dca19be49cb96107469"}, {"type": "electric_scooter", "is_reserved": 0, "is_disabled": 0, "fusion_lat": 0.0, "name": "ff729792285fab602cf5669ec47b847a", "rental_uris": {"android": "https://dc.lft.to/lastmile_qr_scan", "ios": "https://dc.lft.to/lastmile_qr_scan"}, "fusion_lon": 0.0, "lat": 38.939088166666664, "lon": -77.06041516666667, "bike_id": "ff729792285fab602cf5669ec47b847a"}, {"type": "electric_scooter", "is_reserved": 0, "is_disabled": 0, "fusion_lat": 0.0, "name": "e819913fd36a7bb79569aee1e432336e", "rental_uris": {"android": "https://dc.lft.to/lastmile_qr_scan", "ios": "https://dc.lft.to/lastmile_qr_scan"}, "fusion_lon": 0.0, "lat": 38.91993866666667, "lon": -77.032181, "bike_id": "e819913fd36a7bb79569aee1e432336e"}, {"type": "electric_scooter", "is_reserved": 0, "is_disabled": 0, "fusion_lat": 0.0, "name": "8cbd550111387a39811090ccc4d2d05a", "rental_uris": {"android": "https://dc.lft.to/lastmile_qr_scan", "ios": "https://dc.lft.to/lastmile_qr_scan"}, "fusion_lon": 0.0, "lat": 38.893505833333336, "lon": -77.01206633333334, "bike_id": "8cbd550111387a39811090ccc4d2d05a"}, {"type": "electric_scooter", "is_reserved": 0, "is_disabled": 0, "fusion_lat": 0.0, "name": "fe8304bde34f23bb522b694b4e6ca78d", "rental_uris": {"android": "https://dc.lft.to/lastmile_qr_scan", "ios": "https://dc.lft.to/lastmile_qr_scan"}, "fusion_lon": 0.0, "lat": 38.873506, "lon": -76.99166566666666, "bike_id": "fe8304bde34f23bb522b694b4e6ca78d"}, {"type": "electric_bike", "is_reserved": 0, "is_disabled": 0, "fusion_lat": 0.0, "name": "457a6c5a1072da5d74e9eb017a14644c", "rental_uris": {"android": "https://dc.lft.to/lastmile_qr_scan", "ios": "https://dc.lft.to/lastmile_qr_scan"}, "fusion_lon": 0.0, "lat": 38.83933966666667, "lon": -77.0790085, "bike_id": "457a6c5a1072da5d74e9eb017a14644c"}, {"type": "electric_scooter", "is_reserved": 0, "is_disabled": 0, "fusion_lat": 0.0, "name": "05e4f0ce306e5a49d9e5e7ed2b6d3107", "rental_uris": {"android": "https://dc.lft.to/lastmile_qr_scan", "ios": "https://dc.lft.to/lastmile_qr_scan"}, "fusion_lon": 0.0, "lat": 38.925026333333335, "lon": -77.00886683333333, "bike_id": "05e4f0ce306e5a49d9e5e7ed2b6d3107"}, {"type": "electric_bike", "is_reserved": 0, "is_disabled": 0, "fusion_lat": 0.0, "name": "ba46177390e7f6f49102d7d84627a8f5", "rental_uris": {"android": "https://dc.lft.to/lastmile_qr_scan", "ios": "https://dc.lft.to/lastmile_qr_scan"}, "fusion_lon": 0.0, "lat": 38.8888665, "lon": -77.079417, "bike_id": "ba46177390e7f6f49102d7d84627a8f5"}, {"type": "electric_scooter", "is_reserved": 0, "is_disabled": 0, "fusion_lat": 0.0, "name": "9532a320c1ecbe85544358c47564a78c", "rental_uris": {"android": "https://dc.lft.to/lastmile_qr_scan", "ios": "https://dc.lft.to/lastmile_qr_scan"}, "fusion_lon": 0.0, "lat": 38.89371083333333, "lon": -76.94992233333333, "bike_id": "9532a320c1ecbe85544358c47564a78c"}, {"type": "electric_scooter", "is_reserved": 0, "is_disabled": 0, "fusion_lat": 0.0, "name": "bdf5e75bfce7680d34f3309b42b5a509", "rental_uris": {"android": "https://dc.lft.to/lastmile_qr_scan", "ios": "https://dc.lft.to/lastmile_qr_scan"}, "fusion_lon": 0.0, "lat": 38.92065983333333, "lon": -77.02369316666666, "bike_id": "bdf5e75bfce7680d34f3309b42b5a509"}, {"type": "electric_scooter", "is_reserved": 0, "is_disabled": 0, "fusion_lat": 0.0, "name": "ebc29a9a6023ec4e62771a211ac99af4", "rental_uris": {"android": "https://dc.lft.to/lastmile_qr_scan", "ios": "https://dc.lft.to/lastmile_qr_scan"}, "fusion_lon": 0.0, "lat": 38.8808615, "lon": -76.92726166666667, "bike_id": "ebc29a9a6023ec4e62771a211ac99af4"}, {"type": "electric_scooter", "is_reserved": 0, "is_disabled": 0, "fusion_lat": 0.0, "name": "5180ead230f31555744eaaa020244c4c", "rental_uris": {"android": "https://dc.lft.to/lastmile_qr_scan", "ios": "https://dc.lft.to/lastmile_qr_scan"}, "fusion_lon": 0.0, "lat": 38.902408666666666, "lon": -77.02150216666666, "bike_id": "5180ead230f31555744eaaa020244c4c"}, {"type": "electric_scooter", "is_reserved": 0, "is_disabled": 0, "fusion_lat": 0.0, "name": "dd30429ef1deb35042c501faee4ecc73", "rental_uris": {"android": "https://dc.lft.to/lastmile_qr_scan", "ios": "https://dc.lft.to/lastmile_qr_scan"}, "fusion_lon": 0.0, "lat": 38.93516316666667, "lon": -77.0383095, "bike_id": "dd30429ef1deb35042c501faee4ecc73"}, {"type": "electric_bike", "is_reserved": 0, "is_disabled": 0, "fusion_lat": 0.0, "name": "89626cae64421a7d8de1315934a663cc", "rental_uris": {"android": "https://dc.lft.to/lastmile_qr_scan", "ios": "https://dc.lft.to/lastmile_qr_scan"}, "fusion_lon": 0.0, "lat": 38.8045665, "lon": -77.042314, "bike_id": "89626cae64421a7d8de1315934a663cc"}, {"type": "electric_scooter", "is_reserved": 0, "is_disabled": 0, "fusion_lat": 0.0, "name": "0377ea967cf7718d90a16c31a990a94a", "rental_uris": {"android": "https://dc.lft.to/lastmile_qr_scan", "ios": "https://dc.lft.to/lastmile_qr_scan"}, "fusion_lon": 0.0, "lat": 38.92111216666667, "lon": -77.04227216666666, "bike_id": "0377ea967cf7718d90a16c31a990a94a"}, {"type": "electric_scooter", "is_reserved": 0, "is_disabled": 0, "fusion_lat": 0.0, "name": "0a4fe9e7fe20fc55563093b6a2b9d8e6", "rental_uris": {"android": "https://dc.lft.to/lastmile_qr_scan", "ios": "https://dc.lft.to/lastmile_qr_scan"}, "fusion_lon": 0.0, "lat": 38.888003499999996, "lon": -76.93362783333333, "bike_id": "0a4fe9e7fe20fc55563093b6a2b9d8e6"}, {"type": "electric_bike", "is_reserved": 0, "is_disabled": 0, "fusion_lat": 0.0, "name": "5b705b7f29e3fd4463ab6cdff1f211c4", "rental_uris": {"android": "https://dc.lft.to/lastmile_qr_scan", "ios": "https://dc.lft.to/lastmile_qr_scan"}, "fusion_lon": 0.0, "lat": 38.8278495, "lon": -77.00918083333333, "bike_id": "5b705b7f29e3fd4463ab6cdff1f211c4"}, {"type": "electric_scooter", "is_reserved": 0, "is_disabled": 0, "fusion_lat": 0.0, "name": "70d994f5dc1987496ce3e0bf6805c661", "rental_uris": {"android": "https://dc.lft.to/lastmile_qr_scan", "ios": "https://dc.lft.to/lastmile_qr_scan"}, "fusion_lon": 0.0, "lat": 38.9660655, "lon": -77.023189, "bike_id": "70d994f5dc1987496ce3e0bf6805c661"}, {"type": "electric_scooter", "is_reserved": 0, "is_disabled": 0, "fusion_lat": 0.0, "name": "2dc2e93b63db91af6777724934d0f51a", "rental_uris": {"android": "https://dc.lft.to/lastmile_qr_scan", "ios": "https://dc.lft.to/lastmile_qr_scan"}, "fusion_lon": 0.0, "lat": 38.882668, "lon": -76.99580783333333, "bike_id": "2dc2e93b63db91af6777724934d0f51a"}, {"type": "electric_scooter", "is_reserved": 0, "is_disabled": 0, "fusion_lat": 0.0, "name": "c4c53e7bfa8b47024f76e77317de8dc2", "rental_uris": {"android": "https://dc.lft.to/lastmile_qr_scan", "ios": "https://dc.lft.to/lastmile_qr_scan"}, "fusion_lon": 0.0, "lat": 38.9843085, "lon": -77.02673116666666, "bike_id": "c4c53e7bfa8b47024f76e77317de8dc2"}, {"type": "electric_scooter", "is_reserved": 0, "is_disabled": 0, "fusion_lat": 0.0, "name": "4c655a0c09162e3879233fc1abfb11a7", "rental_uris": {"android": "https://dc.lft.to/lastmile_qr_scan", "ios": "https://dc.lft.to/lastmile_qr_scan"}, "fusion_lon": 0.0, "lat": 38.902416333333335, "lon": -77.00201166666666, "bike_id": "4c655a0c09162e3879233fc1abfb11a7"}, {"type": "electric_scooter", "is_reserved": 0, "is_disabled": 0, "fusion_lat": 0.0, "name": "3e46e27980f187c61a94dc677cba605e", "rental_uris": {"android": "https://dc.lft.to/lastmile_qr_scan", "ios": "https://dc.lft.to/lastmile_qr_scan"}, "fusion_lon": 0.0, "lat": 38.89221, "lon": -77.04639, "bike_id": "3e46e27980f187c61a94dc677cba605e"}, {"type": "electric_scooter", "is_reserved": 0, "is_disabled": 0, "fusion_lat": 0.0, "name": "d5e49835c21cfb3588a9bd83aef96ce2", "rental_uris": {"android": "https://dc.lft.to/lastmile_qr_scan", "ios": "https://dc.lft.to/lastmile_qr_scan"}, "fusion_lon": 0.0, "lat": 38.90077183333333, "lon": -77.007337, "bike_id": "d5e49835c21cfb3588a9bd83aef96ce2"}, {"type": "electric_scooter", "is_reserved": 0, "is_disabled": 0, "fusion_lat": 0.0, "name": "ccc874cba7e46dfcaf0b031d365e040d", "rental_uris": {"android": "https://dc.lft.to/lastmile_qr_scan", "ios": "https://dc.lft.to/lastmile_qr_scan"}, "fusion_lon": 0.0, "lat": 38.91327966666667, "lon": -77.03650233333333, "bike_id": "ccc874cba7e46dfcaf0b031d365e040d"}, {"type": "electric_scooter", "is_reserved": 0, "is_disabled": 0, "fusion_lat": 0.0, "name": "c08feb5d952b01ce5d1135917c04fc00", "rental_uris": {"android": "https://dc.lft.to/lastmile_qr_scan", "ios": "https://dc.lft.to/lastmile_qr_scan"}, "fusion_lon": 0.0, "lat": 38.9389735, "lon": -77.033473, "bike_id": "c08feb5d952b01ce5d1135917c04fc00"}, {"type": "electric_scooter", "is_reserved": 0, "is_disabled": 0, "fusion_lat": 0.0, "name": "9d8cd1b85cdf87fbee7efb209f1c6390", "rental_uris": {"android": "https://dc.lft.to/lastmile_qr_scan", "ios": "https://dc.lft.to/lastmile_qr_scan"}, "fusion_lon": 0.0, "lat": 38.91681616666666, "lon": -77.02203433333334, "bike_id": "9d8cd1b85cdf87fbee7efb209f1c6390"}, {"type": "electric_scooter", "is_reserved": 0, "is_disabled": 0, "fusion_lat": 0.0, "name": "87485ec7daf52fc69a336034891f18a7", "rental_uris": {"android": "https://dc.lft.to/lastmile_qr_scan", "ios": "https://dc.lft.to/lastmile_qr_scan"}, "fusion_lon": 0.0, "lat": 38.892473833333334, "lon": -77.02804783333333, "bike_id": "87485ec7daf52fc69a336034891f18a7"}, {"type": "electric_scooter", "is_reserved": 0, "is_disabled": 0, "fusion_lat": 0.0, "name": "0a335da44b4e75475029db70b8726bd4", "rental_uris": {"android": "https://dc.lft.to/lastmile_qr_scan", "ios": "https://dc.lft.to/lastmile_qr_scan"}, "fusion_lon": 0.0, "lat": 38.86629683333334, "lon": -76.9871665, "bike_id": "0a335da44b4e75475029db70b8726bd4"}, {"type": "electric_scooter", "is_reserved": 0, "is_disabled": 0, "fusion_lat": 0.0, "name": "5f41f53a48d339da2984f859f46d72f5", "rental_uris": {"android": "https://dc.lft.to/lastmile_qr_scan", "ios": "https://dc.lft.to/lastmile_qr_scan"}, "fusion_lon": 0.0, "lat": 38.921206, "lon": -77.0318375, "bike_id": "5f41f53a48d339da2984f859f46d72f5"}, {"type": "electric_scooter", "is_reserved": 0, "is_disabled": 0, "fusion_lat": 0.0, "name": "6419f23b1bd410e180358f79f22d3557", "rental_uris": {"android": "https://dc.lft.to/lastmile_qr_scan", "ios": "https://dc.lft.to/lastmile_qr_scan"}, "fusion_lon": 0.0, "lat": 38.89523783333333, "lon": -77.0293685, "bike_id": "6419f23b1bd410e180358f79f22d3557"}, {"type": "electric_scooter", "is_reserved": 0, "is_disabled": 0, "fusion_lat": 0.0, "name": "388cd18bdaac1567866cd47fa6515e72", "rental_uris": {"android": "https://dc.lft.to/lastmile_qr_scan", "ios": "https://dc.lft.to/lastmile_qr_scan"}, "fusion_lon": 0.0, "lat": 38.90528233333333, "lon": -77.0568055, "bike_id": "388cd18bdaac1567866cd47fa6515e72"}, {"type": "electric_scooter", "is_reserved": 0, "is_disabled": 0, "fusion_lat": 0.0, "name": "e68cb45b0db295c1315bff1e5dda5c65", "rental_uris": {"android": "https://dc.lft.to/lastmile_qr_scan", "ios": "https://dc.lft.to/lastmile_qr_scan"}, "fusion_lon": 0.0, "lat": 38.929097166666665, "lon": -77.064232, "bike_id": "e68cb45b0db295c1315bff1e5dda5c65"}, {"type": "electric_scooter", "is_reserved": 0, "is_disabled": 0, "fusion_lat": 0.0, "name": "c752c1ed0396922d08d3e233fa0e3006", "rental_uris": {"android": "https://dc.lft.to/lastmile_qr_scan", "ios": "https://dc.lft.to/lastmile_qr_scan"}, "fusion_lon": 0.0, "lat": 38.90082016666667, "lon": -77.0253545, "bike_id": "c752c1ed0396922d08d3e233fa0e3006"}, {"type": "electric_scooter", "is_reserved": 0, "is_disabled": 0, "fusion_lat": 0.0, "name": "a8b18f4c2f90bb27d069f341672ec369", "rental_uris": {"android": "https://dc.lft.to/lastmile_qr_scan", "ios": "https://dc.lft.to/lastmile_qr_scan"}, "fusion_lon": 0.0, "lat": 38.90365333333333, "lon": -77.00745866666666, "bike_id": "a8b18f4c2f90bb27d069f341672ec369"}, {"type": "electric_scooter", "is_reserved": 0, "is_disabled": 0, "fusion_lat": 0.0, "name": "6893c078e7d26404b1c498e180392819", "rental_uris": {"android": "https://dc.lft.to/lastmile_qr_scan", "ios": "https://dc.lft.to/lastmile_qr_scan"}, "fusion_lon": 0.0, "lat": 38.9026575, "lon": -77.01761716666667, "bike_id": "6893c078e7d26404b1c498e180392819"}, {"type": "electric_scooter", "is_reserved": 0, "is_disabled": 0, "fusion_lat": 0.0, "name": "1f034317b3cfc3999eb49c493abe4061", "rental_uris": {"android": "https://dc.lft.to/lastmile_qr_scan", "ios": "https://dc.lft.to/lastmile_qr_scan"}, "fusion_lon": 0.0, "lat": 38.900138, "lon": -77.00876366666667, "bike_id": "1f034317b3cfc3999eb49c493abe4061"}, {"type": "electric_bike", "is_reserved": 0, "is_disabled": 0, "fusion_lat": 0.0, "name": "d3bb14179a9abeda3ef42210729c03e0", "rental_uris": {"android": "https://dc.lft.to/lastmile_qr_scan", "ios": "https://dc.lft.to/lastmile_qr_scan"}, "fusion_lon": 0.0, "lat": 38.897747833333334, "lon": -76.90436033333333, "bike_id": "d3bb14179a9abeda3ef42210729c03e0"}, {"type": "electric_scooter", "is_reserved": 0, "is_disabled": 0, "fusion_lat": 0.0, "name": "d779ddc6c4ff5e8d264e60ff3ee0bcb0", "rental_uris": {"android": "https://dc.lft.to/lastmile_qr_scan", "ios": "https://dc.lft.to/lastmile_qr_scan"}, "fusion_lon": 0.0, "lat": 38.88501266666667, "lon": -77.00564716666666, "bike_id": "d779ddc6c4ff5e8d264e60ff3ee0bcb0"}, {"type": "electric_bike", "is_reserved": 0, "is_disabled": 0, "fusion_lat": 0.0, "name": "74af8fd6ad9f01938ed6b5e3ac278fe7", "rental_uris": {"android": "https://dc.lft.to/lastmile_qr_scan", "ios": "https://dc.lft.to/lastmile_qr_scan"}, "fusion_lon": 0.0, "lat": 38.84270583333333, "lon": -76.98842266666666, "bike_id": "74af8fd6ad9f01938ed6b5e3ac278fe7"}, {"type": "electric_scooter", "is_reserved": 0, "is_disabled": 0, "fusion_lat": 0.0, "name": "f859651e1b2cc62ca12ada3a59f8e9c7", "rental_uris": {"android": "https://dc.lft.to/lastmile_qr_scan", "ios": "https://dc.lft.to/lastmile_qr_scan"}, "fusion_lon": 0.0, "lat": 38.944320166666664, "lon": -77.06306083333334, "bike_id": "f859651e1b2cc62ca12ada3a59f8e9c7"}, {"type": "electric_scooter", "is_reserved": 0, "is_disabled": 0, "fusion_lat": 0.0, "name": "abb9dbcc523600970956dbb59e669d33", "rental_uris": {"android": "https://dc.lft.to/lastmile_qr_scan", "ios": "https://dc.lft.to/lastmile_qr_scan"}, "fusion_lon": 0.0, "lat": 38.899002, "lon": -77.03342733333334, "bike_id": "abb9dbcc523600970956dbb59e669d33"}, {"type": "electric_scooter", "is_reserved": 0, "is_disabled": 0, "fusion_lat": 0.0, "name": "1e86e4151c641cbd0c1b369086c15733", "rental_uris": {"android": "https://dc.lft.to/lastmile_qr_scan", "ios": "https://dc.lft.to/lastmile_qr_scan"}, "fusion_lon": 0.0, "lat": 38.9147385, "lon": -77.03187166666666, "bike_id": "1e86e4151c641cbd0c1b369086c15733"}, {"type": "electric_scooter", "is_reserved": 0, "is_disabled": 0, "fusion_lat": 0.0, "name": "c36048e6a84729f7c0ee7fa81ae201d9", "rental_uris": {"android": "https://dc.lft.to/lastmile_qr_scan", "ios": "https://dc.lft.to/lastmile_qr_scan"}, "fusion_lon": 0.0, "lat": 38.917526333333335, "lon": -77.03858466666667, "bike_id": "c36048e6a84729f7c0ee7fa81ae201d9"}, {"type": "electric_bike", "is_reserved": 0, "is_disabled": 0, "fusion_lat": 0.0, "name": "1d2562648f8b6d00fd09f5c917788c16", "rental_uris": {"android": "https://dc.lft.to/lastmile_qr_scan", "ios": "https://dc.lft.to/lastmile_qr_scan"}, "fusion_lon": 0.0, "lat": 38.938637, "lon": -77.02648866666667, "bike_id": "1d2562648f8b6d00fd09f5c917788c16"}, {"type": "electric_scooter", "is_reserved": 0, "is_disabled": 0, "fusion_lat": 0.0, "name": "0e37416ae20de3c247d3fe707f3f9a89", "rental_uris": {"android": "https://dc.lft.to/lastmile_qr_scan", "ios": "https://dc.lft.to/lastmile_qr_scan"}, "fusion_lon": 0.0, "lat": 38.9259105, "lon": -77.00478966666667, "bike_id": "0e37416ae20de3c247d3fe707f3f9a89"}, {"type": "electric_scooter", "is_reserved": 0, "is_disabled": 0, "fusion_lat": 0.0, "name": "b6e359411cbb62cb4d4e2364fb19d60e", "rental_uris": {"android": "https://dc.lft.to/lastmile_qr_scan", "ios": "https://dc.lft.to/lastmile_qr_scan"}, "fusion_lon": 0.0, "lat": 38.88506916666667, "lon": -77.01546966666666, "bike_id": "b6e359411cbb62cb4d4e2364fb19d60e"}, {"type": "electric_scooter", "is_reserved": 0, "is_disabled": 0, "fusion_lat": 0.0, "name": "51aa62077b93b5e55e95e989fdacc066", "rental_uris": {"android": "https://dc.lft.to/lastmile_qr_scan", "ios": "https://dc.lft.to/lastmile_qr_scan"}, "fusion_lon": 0.0, "lat": 38.898811, "lon": -77.03995, "bike_id": "51aa62077b93b5e55e95e989fdacc066"}, {"type": "electric_scooter", "is_reserved": 0, "is_disabled": 0, "fusion_lat": 0.0, "name": "2a4eecc872ccdd90a80f964230feeb96", "rental_uris": {"android": "https://dc.lft.to/lastmile_qr_scan", "ios": "https://dc.lft.to/lastmile_qr_scan"}, "fusion_lon": 0.0, "lat": 38.9170635, "lon": -77.023751, "bike_id": "2a4eecc872ccdd90a80f964230feeb96"}, {"type": "electric_scooter", "is_reserved": 0, "is_disabled": 0, "fusion_lat": 0.0, "name": "e9de06aefd47026cd5bd100c6ba33d41", "rental_uris": {"android": "https://dc.lft.to/lastmile_qr_scan", "ios": "https://dc.lft.to/lastmile_qr_scan"}, "fusion_lon": 0.0, "lat": 38.898472166666664, "lon": -77.02788666666666, "bike_id": "e9de06aefd47026cd5bd100c6ba33d41"}, {"type": "electric_scooter", "is_reserved": 0, "is_disabled": 0, "fusion_lat": 0.0, "name": "821ad2704f4b9061d1e4bcc67a4416c1", "rental_uris": {"android": "https://dc.lft.to/lastmile_qr_scan", "ios": "https://dc.lft.to/lastmile_qr_scan"}, "fusion_lon": 0.0, "lat": 38.89993183333333, "lon": -77.02676533333333, "bike_id": "821ad2704f4b9061d1e4bcc67a4416c1"}, {"type": "electric_scooter", "is_reserved": 0, "is_disabled": 0, "fusion_lat": 0.0, "name": "0f8c1bdbb037f7f58fba23fba699157d", "rental_uris": {"android": "https://dc.lft.to/lastmile_qr_scan", "ios": "https://dc.lft.to/lastmile_qr_scan"}, "fusion_lon": 0.0, "lat": 38.919207166666666, "lon": -77.025112, "bike_id": "0f8c1bdbb037f7f58fba23fba699157d"}, {"type": "electric_scooter", "is_reserved": 0, "is_disabled": 0, "fusion_lat": 0.0, "name": "78240dd685c2db0ce8f5cf71fa78b4ae", "rental_uris": {"android": "https://dc.lft.to/lastmile_qr_scan", "ios": "https://dc.lft.to/lastmile_qr_scan"}, "fusion_lon": 0.0, "lat": 38.9259445, "lon": -77.03222366666667, "bike_id": "78240dd685c2db0ce8f5cf71fa78b4ae"}, {"type": "electric_bike", "is_reserved": 0, "is_disabled": 0, "fusion_lat": 0.0, "name": "2ae153bd986c260fffbdfd09a6ad86dc", "rental_uris": {"android": "https://dc.lft.to/lastmile_qr_scan", "ios": "https://dc.lft.to/lastmile_qr_scan"}, "fusion_lon": 0.0, "lat": 38.86711566666666, "lon": -76.98952366666667, "bike_id": "2ae153bd986c260fffbdfd09a6ad86dc"}, {"type": "electric_scooter", "is_reserved": 0, "is_disabled": 0, "fusion_lat": 0.0, "name": "6828a428650e8a95e682117eacbf1b8d", "rental_uris": {"android": "https://dc.lft.to/lastmile_qr_scan", "ios": "https://dc.lft.to/lastmile_qr_scan"}, "fusion_lon": 0.0, "lat": 38.90572983333333, "lon": -77.00492116666666, "bike_id": "6828a428650e8a95e682117eacbf1b8d"}, {"type": "electric_scooter", "is_reserved": 0, "is_disabled": 0, "fusion_lat": 0.0, "name": "f9332052e847f7a34f5e3b78609ac1bb", "rental_uris": {"android": "https://dc.lft.to/lastmile_qr_scan", "ios": "https://dc.lft.to/lastmile_qr_scan"}, "fusion_lon": 0.0, "lat": 38.89879916666667, "lon": -76.93184433333333, "bike_id": "f9332052e847f7a34f5e3b78609ac1bb"}, {"type": "electric_scooter", "is_reserved": 0, "is_disabled": 0, "fusion_lat": 0.0, "name": "b58b59ff6604b5116cb7526f7bff1918", "rental_uris": {"android": "https://dc.lft.to/lastmile_qr_scan", "ios": "https://dc.lft.to/lastmile_qr_scan"}, "fusion_lon": 0.0, "lat": 38.85693416666667, "lon": -76.98975666666666, "bike_id": "b58b59ff6604b5116cb7526f7bff1918"}, {"type": "electric_scooter", "is_reserved": 0, "is_disabled": 0, "fusion_lat": 0.0, "name": "5549e3c7a2b84c403f654bada8ed5be0", "rental_uris": {"android": "https://dc.lft.to/lastmile_qr_scan", "ios": "https://dc.lft.to/lastmile_qr_scan"}, "fusion_lon": 0.0, "lat": 38.915724833333336, "lon": -77.0485965, "bike_id": "5549e3c7a2b84c403f654bada8ed5be0"}, {"type": "electric_scooter", "is_reserved": 0, "is_disabled": 0, "fusion_lat": 0.0, "name": "9718c6c335841406519ab518048c09b3", "rental_uris": {"android": "https://dc.lft.to/lastmile_qr_scan", "ios": "https://dc.lft.to/lastmile_qr_scan"}, "fusion_lon": 0.0, "lat": 38.922384666666666, "lon": -77.02985216666667, "bike_id": "9718c6c335841406519ab518048c09b3"}, {"type": "electric_scooter", "is_reserved": 0, "is_disabled": 0, "fusion_lat": 0.0, "name": "494160c06c411457414f5d3565bfc2ff", "rental_uris": {"android": "https://dc.lft.to/lastmile_qr_scan", "ios": "https://dc.lft.to/lastmile_qr_scan"}, "fusion_lon": 0.0, "lat": 38.92223116666667, "lon": -77.042443, "bike_id": "494160c06c411457414f5d3565bfc2ff"}, {"type": "electric_scooter", "is_reserved": 0, "is_disabled": 0, "fusion_lat": 0.0, "name": "c1635f6e6cc4541f1b1d5a8c36797bfc", "rental_uris": {"android": "https://dc.lft.to/lastmile_qr_scan", "ios": "https://dc.lft.to/lastmile_qr_scan"}, "fusion_lon": 0.0, "lat": 38.954901166666666, "lon": -77.06560866666666, "bike_id": "c1635f6e6cc4541f1b1d5a8c36797bfc"}, {"type": "electric_scooter", "is_reserved": 0, "is_disabled": 0, "fusion_lat": 0.0, "name": "1c08b2652f6f65807cb4443c53f95970", "rental_uris": {"android": "https://dc.lft.to/lastmile_qr_scan", "ios": "https://dc.lft.to/lastmile_qr_scan"}, "fusion_lon": 0.0, "lat": 38.900454333333336, "lon": -77.02901566666667, "bike_id": "1c08b2652f6f65807cb4443c53f95970"}, {"type": "electric_scooter", "is_reserved": 0, "is_disabled": 0, "fusion_lat": 0.0, "name": "ef17ad8bc2478d0453fcdfe0c85a9d68", "rental_uris": {"android": "https://dc.lft.to/lastmile_qr_scan", "ios": "https://dc.lft.to/lastmile_qr_scan"}, "fusion_lon": 0.0, "lat": 38.872416333333334, "lon": -77.0163235, "bike_id": "ef17ad8bc2478d0453fcdfe0c85a9d68"}, {"type": "electric_scooter", "is_reserved": 0, "is_disabled": 0, "fusion_lat": 0.0, "name": "cf093138c36325d11112d45d1cb52d18", "rental_uris": {"android": "https://dc.lft.to/lastmile_qr_scan", "ios": "https://dc.lft.to/lastmile_qr_scan"}, "fusion_lon": 0.0, "lat": 38.92224933333333, "lon": -77.04395866666667, "bike_id": "cf093138c36325d11112d45d1cb52d18"}, {"type": "electric_scooter", "is_reserved": 0, "is_disabled": 0, "fusion_lat": 0.0, "name": "55ab2b43319378419371924f9fced003", "rental_uris": {"android": "https://dc.lft.to/lastmile_qr_scan", "ios": "https://dc.lft.to/lastmile_qr_scan"}, "fusion_lon": 0.0, "lat": 38.907296, "lon": -77.032144, "bike_id": "55ab2b43319378419371924f9fced003"}, {"type": "electric_scooter", "is_reserved": 0, "is_disabled": 0, "fusion_lat": 0.0, "name": "0a6b50e3ce2e442442dc285bb635d5c7", "rental_uris": {"android": "https://dc.lft.to/lastmile_qr_scan", "ios": "https://dc.lft.to/lastmile_qr_scan"}, "fusion_lon": 0.0, "lat": 38.927259, "lon": -77.04196033333334, "bike_id": "0a6b50e3ce2e442442dc285bb635d5c7"}, {"type": "electric_scooter", "is_reserved": 0, "is_disabled": 0, "fusion_lat": 0.0, "name": "c1f9d30e2cc4a4032a4c6dc39675a2a4", "rental_uris": {"android": "https://dc.lft.to/lastmile_qr_scan", "ios": "https://dc.lft.to/lastmile_qr_scan"}, "fusion_lon": 0.0, "lat": 38.866576333333335, "lon": -76.98882516666667, "bike_id": "c1f9d30e2cc4a4032a4c6dc39675a2a4"},