{"data": {"bikes": [{"is_disabled": 0, "is_reserved": 0, "type": "electric_scooter", "lon": -77.04486716666666, "fusion_lon": 0.0, "lat": 38.913683, "rental_uris": {"android": "https://dc.lft.to/lastmile_qr_scan", "ios": "https://dc.lft.to/lastmile_qr_scan"}, "fusion_lat": 0.0, "name": "6e725f6ce206f2cede782bdc8a922daf", "bike_id": "6e725f6ce206f2cede782bdc8a922daf"}, {"is_disabled": 0, "is_reserved": 0, "type": "electric_bike", "lon": -77.12698333333333, "fusion_lon": 0.0, "lat": 38.89565416666667, "rental_uris": {"android": "https://dc.lft.to/lastmile_qr_scan", "ios": "https://dc.lft.to/lastmile_qr_scan"}, "fusion_lat": 0.0, "name": "bbd558d7f30da4d0a59692f26b4e4ac1", "bike_id": "bbd558d7f30da4d0a59692f26b4e4ac1"}, {"is_disabled": 0, "is_reserved": 0, "type": "electric_scooter", "lon": -77.03243583333334, "fusion_lon": 0.0, "lat": 38.928878833333336, "rental_uris": {"android": "https://dc.lft.to/lastmile_qr_scan", "ios": "https://dc.lft.to/lastmile_qr_scan"}, "fusion_lat": 0.0, "name": "ab5bb024ad65a59cb91b55c3f58df83d", "bike_id": "ab5bb024ad65a59cb91b55c3f58df83d"}, {"is_disabled": 0, "is_reserved": 0, "type": "electric_scooter", "lon": -77.04171833333334, "fusion_lon": 0.0, "lat": 38.903986333333336, "rental_uris": {"android": "https://dc.lft.to/lastmile_qr_scan", "ios": "https://dc.lft.to/lastmile_qr_scan"}, "fusion_lat": 0.0, "name": "3f417626973302f9ed23af3903ad0c4b", "bike_id": "3f417626973302f9ed23af3903ad0c4b"}, {"is_disabled": 0, "is_reserved": 0, "type": "electric_scooter", "lon": -77.02481283333333, "fusion_lon": 0.0, "lat": 38.91615266666667, "rental_uris": {"android": "https://dc.lft.to/lastmile_qr_scan", "ios": "https://dc.lft.to/lastmile_qr_scan"}, "fusion_lat": 0.0, "name": "cd73155eae569d6ec0c4981d0d51cd9e", "bike_id": "cd73155eae569d6ec0c4981d0d51cd9e"}, {"is_disabled": 0, "is_reserved": 0, "type": "electric_bike", "lon": -76.97330033333333, "fusion_lon": 0.0, "lat": 38.85067766666667, "rental_uris": {"android": "https://dc.lft.to/lastmile_qr_scan", "ios": "https://dc.lft.to/lastmile_qr_scan"}, "fusion_lat": 0.0, "name": "3985cce3093fbe04679428037431f687", "bike_id": "3985cce3093fbe04679428037431f687"}, {"is_disabled": 0, "is_reserved": 0, "type": "electric_scooter", "lon": -77.03455166666667, "fusion_lon": 0.0, "lat": 38.902703333333335, "rental_uris": {"android": "https://dc.lft.to/lastmile_qr_scan", "ios": "https://dc.lft.to/lastmile_qr_scan"}, "fusion_lat": 0.0, "name": "7bbca29397bb149cf93c1c5942c2bee1", "bike_id": "7bbca29397bb149cf93c1c5942c2bee1"}, {"is_disabled": 0, "is_reserved": 0, "type": "electric_scooter", "lon": -77.0085315, "fusion_lon": 0.0, "lat": 38.90698916666667, "rental_uris": {"android": "https://dc.lft.to/lastmile_qr_scan", "ios": "https://dc.lft.to/lastmile_qr_scan"}, "fusion_lat": 0.0, "name": "6db4f8553e364a9c5b6fd19b430e7cd1", "bike_id": "6db4f8553e364a9c5b6fd19b430e7cd1"}, {"is_disabled": 0, "is_reserved": 0, "type": "electric_scooter", "lon": -77.0413535, "fusion_lon": 0.0, "lat": 38.923495, "rental_uris": {"android": "https://dc.lft.to/lastmile_qr_scan", "ios": "https://dc.lft.to/lastmile_qr_scan"}, "fusion_lat": 0.0, "name": "1f41e895baa3e16ce0a57955d5f1091c", "bike_id": "1f41e895baa3e16ce0a57955d5f1091c"}, {"is_disabled": 0, "is_reserved": 0, "type": "electric_scooter", "lon": -77.05096033333334, "fusion_lon": 0.0, "lat": 38.9234255, "rental_uris": {"android": "https://dc.lft.to/lastmile_qr_scan", "ios": "https://dc.lft.to/lastmile_qr_scan"}, "fusion_lat": 0.0, "name": "d70e00db1ad44ea0e8f3c12a7ab1890c", "bike_id": "d70e00db1ad44ea0e8f3c12a7ab1890c"}, {"is_disabled": 0, "is_reserved": 0, "type": "electric_scooter", "lon": -77.04023083333334, "fusion_lon": 0.0, "lat": 38.92203116666666, "rental_uris": {"android": "https://dc.lft.to/lastmile_qr_scan", "ios": "https://dc.lft.to/lastmile_qr_scan"}, "fusion_lat": 0.0, "name": "5c5a398cdba9679a8204394d6e1ba5bd", "bike_id": "5c5a398cdba9679a8204394d6e1ba5bd"}, {"is_disabled": 0, "is_reserved": 0, "type": "electric_scooter", "lon": -77.02713216666666, "fusion_lon": 0.0, "lat": 38.904886, "rental_uris": {"android": "https://dc.lft.to/lastmile_qr_scan", "ios": "https://dc.lft.to/lastmile_qr_scan"}, "fusion_lat": 0.0, "name": "9f9931bd41bdd145e8cb0f1e85af601f", "bike_id": "9f9931bd41bdd145e8cb0f1e85af601f"}, {"is_disabled": 0, "is_reserved": 0, "type": "electric_scooter", "lon": -77.01389716666667, "fusion_lon": 0.0, "lat": 38.928657, "rental_uris": {"android": "https://dc.lft.to/lastmile_qr_scan", "ios": "https://dc.lft.to/lastmile_qr_scan"}, "fusion_lat": 0.0, "name": "76e5ba6582d5c1b3cd582f216f7695e3", "bike_id": "76e5ba6582d5c1b3cd582f216f7695e3"}, {"is_disabled": 0, "is_reserved": 0, "type": "electric_scooter", "lon": -77.0019615, "fusion_lon": 0.0, "lat": 38.90230833333333, "rental_uris": {"android": "https://dc.lft.to/lastmile_qr_scan", "ios": "https://dc.lft.to/lastmile_qr_scan"}, "fusion_lat": 0.0, "name": "c22b7ed24a18fd9396a26e433d8f169a", "bike_id": "c22b7ed24a18fd9396a26e433d8f169a"}, {"is_disabled": 0, "is_reserved": 0, "type": "electric_scooter", "lon": -77.0487505, "fusion_lon": 0.0, "lat": 38.90974216666667, "rental_uris": {"android": "https://dc.lft.to/lastmile_qr_scan", "ios": "https://dc.lft.to/lastmile_qr_scan"}, "fusion_lat": 0.0, "name": "26bfe288237a7b4c7b2428d23eed3c8e", "bike_id": "26bfe288237a7b4c7b2428d23eed3c8e"}, {"is_disabled": 0, "is_reserved": 0, "type": "electric_scooter", "lon": -77.02782983333333, "fusion_lon": 0.0, "lat": 38.8921615, "rental_uris": {"android": "https://dc.lft.to/lastmile_qr_scan", "ios": "https://dc.lft.to/lastmile_qr_scan"}, "fusion_lat": 0.0, "name": "17b5a00f2a39f011a8e1a7dccbccc395", "bike_id": "17b5a00f2a39f011a8e1a7dccbccc395"}, {"is_disabled": 0, "is_reserved": 0, "type": "electric_scooter", "lon": -77.02996333333333, "fusion_lon": 0.0, "lat": 38.90731133333333, "rental_uris": {"android": "https://dc.lft.to/lastmile_qr_scan", "ios": "https://dc.lft.to/lastmile_qr_scan"}, "fusion_lat": 0.0, "name": "cd62c11ba152a2a88f3f1299298dd143", "bike_id": "cd62c11ba152a2a88f3f1299298dd143"}, {"is_disabled": 0, "is_reserved": 0, "type": "electric_scooter", "lon": -77.0385675, "fusion_lon": 0.0, "lat": 38.915665, "rental_uris": {"android": "https://dc.lft.to/lastmile_qr_scan", "ios": "https://dc.lft.to/lastmile_qr_scan"}, "fusion_lat": 0.0, "name": "ae576bea1ca817556c5d176ff203b11c", "bike_id": "ae576bea1ca817556c5d176ff203b11c"}, {"is_disabled": 0, "is_reserved": 0, "type": "electric_scooter", "lon": -76.9795685, "fusion_lon": 0.0, "lat": 38.90502016666667, "rental_uris": {"android": "https://dc.lft.to/lastmile_qr_scan", "ios": "https://dc.lft.to/lastmile_qr_scan"}, "fusion_lat": 0.0, "name": "92c19e6396c69a9cb0fbdb5651e048ab", "bike_id": "92c19e6396c69a9cb0fbdb5651e048ab"}, {"is_disabled": 0, "is_reserved": 0, "type": "electric_scooter", "lon": -77.02213, "fusion_lon": 0.0, "lat": 38.9105285, "rental_uris": {"android": "https://dc.lft.to/lastmile_qr_scan", "ios": "https://dc.lft.to/lastmile_qr_scan"}, "fusion_lat": 0.0, "name": "0e8760a6a8ec97312ae7064eb5804aa5", "bike_id": "0e8760a6a8ec97312ae7064eb5804aa5"}, {"is_disabled": 0, "is_reserved": 0, "type": "electric_scooter", "lon": -77.0201355, "fusion_lon": 0.0, "lat": 38.92416333333333, "rental_uris": {"android": "https://dc.lft.to/lastmile_qr_scan", "ios": "https://dc.lft.to/lastmile_qr_scan"}, "fusion_lat": 0.0, "name": "5b9b17c41883911cc271f39cd299b9fa", "bike_id": "5b9b17c41883911cc271f39cd299b9fa"}, {"is_disabled": 0, "is_reserved": 0, "type": "electric_scooter", "lon": -77.02178816666667, "fusion_lon": 0.0, "lat": 38.90100616666667, "rental_uris": {"android": "https://dc.lft.to/lastmile_qr_scan", "ios": "https://dc.lft.to/lastmile_qr_scan"}, "fusion_lat": 0.0, "name": "2a192ccd77f14ba4b5a65452046843a0", "bike_id": "2a192ccd77f14ba4b5a65452046843a0"}, {"is_disabled": 0, "is_reserved": 0, "type": "electric_scooter", "lon": -77.00339083333333, "fusion_lon": 0.0, "lat": 38.87495966666667, "rental_uris": {"android": "https://dc.lft.to/lastmile_qr_scan", "ios": "https://dc.lft.to/lastmile_qr_scan"}, "fusion_lat": 0.0, "name": "4f4929998b64c5f466e107f4f2bc6876", "bike_id": "4f4929998b64c5f466e107f4f2bc6876"}, {"is_disabled": 0, "is_reserved": 0, "type": "electric_scooter", "lon": -77.02160833333333, "fusion_lon": 0.0, "lat": 38.89417133333333, "rental_uris": {"android": "https://dc.lft.to/lastmile_qr_scan", "ios": "https://dc.lft.to/lastmile_qr_scan"}, "fusion_lat": 0.0, "name": "799903848ff36c42d4ca1e6c82fdcf3d", "bike_id": "799903848ff36c42d4ca1e6c82fdcf3d"}, {"is_disabled": 0, "is_reserved": 0, "type": "electric_scooter", "lon": -77.04513133333333, "fusion_lon": 0.0, "lat": 38.918141, "rental_uris": {"android": "https://dc.lft.to/lastmile_qr_scan", "ios": "https://dc.lft.to/lastmile_qr_scan"}, "fusion_lat": 0.0, "name": "29ed0ca564e427e8f4dc6e76fbc462b3", "bike_id": "29ed0ca564e427e8f4dc6e76fbc462b3"}, {"is_disabled": 0, "is_reserved": 0, "type": "electric_scooter", "lon": -76.98713516666666, "fusion_lon": 0.0, "lat": 38.8670035, "rental_uris": {"android": "https://dc.lft.to/lastmile_qr_scan", "ios": "https://dc.lft.to/lastmile_qr_scan"}, "fusion_lat": 0.0, "name": "4d70d38b5aae79884b740d4fff43c811", "bike_id": "4d70d38b5aae79884b740d4fff43c811"}, {"is_disabled": 0, "is_reserved": 0, "type": "electric_bike", "lon": -77.09562866666667, "fusion_lon": 0.0, "lat": 38.91701483333333, "rental_uris": {"android": "https://dc.lft.to/lastmile_qr_scan", "ios": "https://dc.lft.to/lastmile_qr_scan"}, "fusion_lat": 0.0, "name": "d11c94948b9cfe5cfd0494dd5b3efb5f", "bike_id": "d11c94948b9cfe5cfd0494dd5b3efb5f"}, {"is_disabled": 0, "is_reserved": 0, "type": "electric_scooter", "lon": -77.04678233333334, "fusion_lon": 0.0, "lat": 38.90362983333333, "rental_uris": {"android": "https://dc.lft.to/lastmile_qr_scan", "ios": "https://dc.lft.to/lastmile_qr_scan"}, "fusion_lat": 0.0, "name": "5204255763e0c5b894ef9543ca2d04fc", "bike_id": "5204255763e0c5b894ef9543ca2d04fc"}, {"is_disabled": 0, "is_reserved": 0, "type": "electric_scooter", "lon": -77.02600766666667, "fusion_lon": 0.0, "lat": 38.901625333333335, "rental_uris": {"android": "https://dc.lft.to/lastmile_qr_scan", "ios": "https://dc.lft.to/lastmile_qr_scan"}, "fusion_lat": 0.0, "name": "8bcd6c2e07d050d0b7d5b99f1fe9e639", "bike_id": "8bcd6c2e07d050d0b7d5b99f1fe9e639"}, {"is_disabled": 0, "is_reserved": 0, "type": "electric_scooter", "lon": -77.02680066666667, "fusion_lon": 0.0, "lat": 38.89614616666667, "rental_uris": {"android": "https://dc.lft.to/lastmile_qr_scan", "ios": "https://dc.lft.to/lastmile_qr_scan"}, "fusion_lat": 0.0, "name": "8591ad3ffa4f61e237af448db3bd5ba8", "bike_id": "8591ad3ffa4f61e237af448db3bd5ba8"}, {"is_disabled": 0, "is_reserved": 0, "type": "electric_scooter", "lon": -77.04657216666666, "fusion_lon": 0.0, "lat": 38.91014633333333, "rental_uris": {"android": "https://dc.lft.to/lastmile_qr_scan", "ios": "https://dc.lft.to/lastmile_qr_scan"}, "fusion_lat": 0.0, "name": "ad2149e9b574dbf64408aacd2010f070", "bike_id": "ad2149e9b574dbf64408aacd2010f070"}, {"is_disabled": 0, "is_reserved": 0, "type": "electric_scooter", "lon": -76.98210383333333, "fusion_lon": 0.0, "lat": 38.88642766666667, "rental_uris": {"android": "https://dc.lft.to/lastmile_qr_scan", "ios": "https://dc.lft.to/lastmile_qr_scan"}, "fusion_lat": 0.0, "name": "2bd10557cfc46db30d77f7dba6cbd5b7", "bike_id": "2bd10557cfc46db30d77f7dba6cbd5b7"}, {"is_disabled": 0, "is_reserved": 0, "type": "electric_bike", "lon": -77.12507116666667, "fusion_lon": 0.0, "lat": 39.02423616666667, "rental_uris": {"android": "https://dc.lft.to/lastmile_qr_scan", "ios": "https://dc.lft.to/lastmile_qr_scan"}, "fusion_lat": 0.0, "name": "200cf00191915859372a8852fb8abf4d", "bike_id": "200cf00191915859372a8852fb8abf4d"}, {"is_disabled": 0, "is_reserved": 0, "type": "electric_bike", "lon": -76.99578866666667, "fusion_lon": 0.0, "lat": 39.007901833333335, "rental_uris": {"android": "https://dc.lft.to/lastmile_qr_scan", "ios": "https://dc.lft.to/lastmile_qr_scan"}, "fusion_lat": 0.0, "name": "91ea1a1e41f1a434a08421fa401c588e", "bike_id": "91ea1a1e41f1a434a08421fa401c588e"}, {"is_disabled": 0, "is_reserved": 0, "type": "electric_scooter", "lon": -77.00621883333334, "fusion_lon": 0.0, "lat": 38.871959333333336, "rental_uris": {"android": "https://dc.lft.to/lastmile_qr_scan", "ios": "https://dc.lft.to/lastmile_qr_scan"}, "fusion_lat": 0.0, "name": "ebae1cf16277f5468b63ed9887433e0a", "bike_id": "ebae1cf16277f5468b63ed9887433e0a"}, {"is_disabled": 0, "is_reserved": 0, "type": "electric_scooter", "lon": -77.03211733333333, "fusion_lon": 0.0, "lat": 38.925801, "rental_uris": {"android": "https://dc.lft.to/lastmile_qr_scan", "ios": "https://dc.lft.to/lastmile_qr_scan"}, "fusion_lat": 0.0, "name": "7a051bb905a17d1a6d7bb57ed5b1cd61", "bike_id": "7a051bb905a17d1a6d7bb57ed5b1cd61"}, {"is_disabled": 0, "is_reserved": 0, "type": "electric_scooter", "lon": -77.01705533333333, "fusion_lon": 0.0, "lat": 38.904992666666665, "rental_uris": {"android": "https://dc.lft.to/lastmile_qr_scan", "ios": "https://dc.lft.to/lastmile_qr_scan"}, "fusion_lat": 0.0, "name": "cdb77cac3406324b8f8c3ea784b12bfe", "bike_id": "cdb77cac3406324b8f8c3ea784b12bfe"}, {"is_disabled": 0, "is_reserved": 0, "type": "electric_scooter", "lon": -77.02155383333333, "fusion_lon": 0.0, "lat": 38.92604683333333, "rental_uris": {"android": "https://dc.lft.to/lastmile_qr_scan", "ios": "https://dc.lft.to/lastmile_qr_scan"}, "fusion_lat": 0.0, "name": "450ed26ef25361c5a5101dc87e8da145", "bike_id": "450ed26ef25361c5a5101dc87e8da145"}, {"is_disabled": 0, "is_reserved": 0, "type": "electric_scooter", "lon": -77.04580933333334, "fusion_lon": 0.0, "lat": 38.9242175, "rental_uris": {"android": "https://dc.lft.to/lastmile_qr_scan", "ios": "https://dc.lft.to/lastmile_qr_scan"}, "fusion_lat": 0.0, "name": "b9aa82d4e3f26d0aa0ea15cf2b1f167e", "bike_id": "b9aa82d4e3f26d0aa0ea15cf2b1f167e"}, {"is_disabled": 0, "is_reserved": 0, "type": "electric_scooter", "lon": -77.03710783333334, "fusion_lon": 0.0, "lat": 38.926247833333335, "rental_uris": {"android": "https://dc.lft.to/lastmile_qr_scan", "ios": "https://dc.lft.to/lastmile_qr_scan"}, "fusion_lat": 0.0, "name": "49bb5ebba849d1e85f979c28abb306e1", "bike_id": "49bb5ebba849d1e85f979c28abb306e1"}, {"is_disabled": 0, "is_reserved": 0, "type": "electric_bike", "lon": -76.94808683333333, "fusion_lon": 0.0, "lat": 38.861903166666664, "rental_uris": {"android": "https://dc.lft.to/lastmile_qr_scan", "ios": "https://dc.lft.to/lastmile_qr_scan"}, "fusion_lat": 0.0, "name": "3df871e1431925ebf72775367fd83901", "bike_id": "3df871e1431925ebf72775367fd83901"}, {"is_disabled": 0, "is_reserved": 0, "type": "electric_scooter", "lon": -77.01512216666667, "fusion_lon": 0.0, "lat": 38.910307, "rental_uris": {"android": "https://dc.lft.to/lastmile_qr_scan", "ios": "https://dc.lft.to/lastmile_qr_scan"}, "fusion_lat": 0.0, "name": "5bbfc4e03073d349c3fbd9503f801d21", "bike_id": "5bbfc4e03073d349c3fbd9503f801d21"}, {"is_disabled": 0, "is_reserved": 0, "type": "electric_scooter", "lon": -77.02280933333333, "fusion_lon": 0.0, "lat": 38.9095675, "rental_uris": {"android": "https://dc.lft.to/lastmile_qr_scan", "ios": "https://dc.lft.to/lastmile_qr_scan"}, "fusion_lat": 0.0, "name": "fecf74723a16e181a561bd5027fdc55a", "bike_id": "fecf74723a16e181a561bd5027fdc55a"}, {"is_disabled": 0, "is_reserved": 0, "type": "electric_scooter", "lon": -77.02719883333333, "fusion_lon": 0.0, "lat": 38.911002833333335, "rental_uris": {"android": "https://dc.lft.to/lastmile_qr_scan", "ios": "https://dc.lft.to/lastmile_qr_scan"}, "fusion_lat": 0.0, "name": "05b748caa73be2718538468fc980e288", "bike_id": "05b748caa73be2718538468fc980e288"}, {"is_disabled": 0, "is_reserved": 0, "type": "electric_bike", "lon": -77.0389755, "fusion_lon": 0.0, "lat": 38.943990666666664, "rental_uris": {"android": "https://dc.lft.to/lastmile_qr_scan", "ios": "https://dc.lft.to/lastmile_qr_scan"}, "fusion_lat": 0.0, "name": "f7de1615b38863ff8b1108beef058d68", "bike_id": "f7de1615b38863ff8b1108beef058d68"}, {"is_disabled": 0, "is_reserved": 0, "type": "electric_scooter", "lon": -77.00928433333333, "fusion_lon": 0.0, "lat": 38.896507166666666, "rental_uris": {"android": "https://dc.lft.to/lastmile_qr_scan", "ios": "https://dc.lft.to/lastmile_qr_scan"}, "fusion_lat": 0.0, "name": "7058ec622e3523c8b5962ecd187e0419", "bike_id": "7058ec622e3523c8b5962ecd187e0419"}, {"is_disabled": 0, "is_reserved": 0, "type": "electric_scooter", "lon": -77.04720816666666, "fusion_lon": 0.0, "lat": 38.90549083333333, "rental_uris": {"android": "https://dc.lft.to/lastmile_qr_scan", "ios": "https://dc.lft.to/lastmile_qr_scan"}, "fusion_lat": 0.0, "name": "99d1e44c4e1ed810070eda838c116ca5", "bike_id": "99d1e44c4e1ed810070eda838c116ca5"}, {"is_disabled": 0, "is_reserved": 0, "type": "electric_scooter", "lon": -77.00584116666667, "fusion_lon": 0.0, "lat": 38.904007666666665, "rental_uris": {"android": "https://dc.lft.to/lastmile_qr_scan", "ios": "https://dc.lft.to/lastmile_qr_scan"}, "fusion_lat": 0.0, "name": "00cfc269e712a0d5787a4ad458ba086d", "bike_id": "00cfc269e712a0d5787a4ad458ba086d"}, {"is_disabled": 0, "is_reserved": 0, "type": "electric_scooter", "lon": -77.03107933333334, "fusion_lon": 0.0, "lat": 38.920159166666664, "rental_uris": {"android": "https://dc.lft.to/lastmile_qr_scan", "ios": "https://dc.lft.to/lastmile_qr_scan"}, "fusion_lat": 0.0, "name": "7e2cd48dbe11a192332d0744102b4056", "bike_id": "7e2cd48dbe11a192332d0744102b4056"}, {"is_disabled": 0, "is_reserved": 0, "type": "electric_scooter", "lon": -77.05021733333334, "fusion_lon": 0.0, "lat": 38.905339166666664, "rental_uris": {"android": "https://dc.lft.to/lastmile_qr_scan", "ios": "https://dc.lft.to/lastmile_qr_scan"}, "fusion_lat": 0.0, "name": "5735a62861007574d7261ebe21cb8801", "bike_id": "5735a62861007574d7261ebe21cb8801"}, {"is_disabled": 0, "is_reserved": 0, "type": "electric_scooter", "lon": -77.04171316666667, "fusion_lon": 0.0, "lat": 38.92004816666667, "rental_uris": {"android": "https://dc.lft.to/lastmile_qr_scan", "ios": "https://dc.lft.to/lastmile_qr_scan"}, "fusion_lat": 0.0, "name": "c18f6cc5973a494286d91471da0b11ab", "bike_id": "c18f6cc5973a494286d91471da0b11ab"}, {"is_disabled": 0, "is_reserved": 0, "type": "electric_scooter", "lon": -77.0235645, "fusion_lon": 0.0, "lat": 38.93533683333333, "rental_uris": {"android": "https://dc.lft.to/lastmile_qr_scan", "ios": "https://dc.lft.to/lastmile_qr_scan"}, "fusion_lat": 0.0, "name": "6df5ae227c8f330a1d6f5b51187df42f", "bike_id": "6df5ae227c8f330a1d6f5b51187df42f"}, {"is_disabled": 0, "is_reserved": 0, "type": "electric_scooter", "lon": -77.00598033333333, "fusion_lon": 0.0, "lat": 38.905635, "rental_uris": {"android": "https://dc.lft.to/lastmile_qr_scan", "ios": "https://dc.lft.to/lastmile_qr_scan"}, "fusion_lat": 0.0, "name": "26b1c5cbbeb291cd2155ecda93a522db", "bike_id": "26b1c5cbbeb291cd2155ecda93a522db"}, {"is_disabled": 0, "is_reserved": 0, "type": "electric_scooter", "lon": -77.01995683333334, "fusion_lon": 0.0, "lat": 38.966254666666664, "rental_uris": {"android": "https://dc.lft.to/lastmile_qr_scan", "ios": "https://dc.lft.to/lastmile_qr_scan"}, "fusion_lat": 0.0, "name": "b2d6ce3b6dc040add8486e2165be9f1c", "bike_id": "b2d6ce3b6dc040add8486e2165be9f1c"}, {"is_disabled": 0, "is_reserved": 0, "type": "electric_scooter", "lon": -77.0485245, "fusion_lon": 0.0, "lat": 38.900764833333334, "rental_uris": {"android": "https://dc.lft.to/lastmile_qr_scan", "ios": "https://dc.lft.to/lastmile_qr_scan"}, "fusion_lat": 0.0, "name": "83ed17abdb2f71bc32cd71e6723571b9", "bike_id": "83ed17abdb2f71bc32cd71e6723571b9"}, {"is_disabled": 0, "is_reserved": 0, "type": "electric_scooter", "lon": -77.03853333333333, "fusion_lon": 0.0, "lat": 38.91837866666667, "rental_uris": {"android": "https://dc.lft.to/lastmile_qr_scan", "ios": "https://dc.lft.to/lastmile_qr_scan"}, "fusion_lat": 0.0, "name": "bbc79a2e4506d2023ddfb85a1134fc36", "bike_id": "bbc79a2e4506d2023ddfb85a1134fc36"}, {"is_disabled": 0, "is_reserved": 0, "type": "electric_scooter", "lon": -76.9951745, "fusion_lon": 0.0, "lat": 38.89479983333333, "rental_uris": {"android": "https://dc.lft.to/lastmile_qr_scan", "ios": "https://dc.lft.to/lastmile_qr_scan"}, "fusion_lat": 0.0, "name": "3c5274260611ec93e89f2759e2b12c67", "bike_id": "3c5274260611ec93e89f2759e2b12c67"}, {"is_disabled": 0, "is_reserved": 0, "type": "electric_scooter", "lon": -77.03389716666666, "fusion_lon": 0.0, "lat": 38.919143, "rental_uris": {"android": "https://dc.lft.to/lastmile_qr_scan", "ios": "https://dc.lft.to/lastmile_qr_scan"}, "fusion_lat": 0.0, "name": "d50eb30839b6134ee407636959e16d60", "bike_id": "d50eb30839b6134ee407636959e16d60"}, {"is_disabled": 0, "is_reserved": 0, "type": "electric_scooter", "lon": -77.00048316666667, "fusion_lon": 0.0, "lat": 38.918971666666664, "rental_uris": {"android": "https://dc.lft.to/lastmile_qr_scan", "ios": "https://dc.lft.to/lastmile_qr_scan"}, "fusion_lat": 0.0, "name": "0c9fcfd42ee1328cc70c45833cc7b7da", "bike_id": "0c9fcfd42ee1328cc70c45833cc7b7da"}, {"is_disabled": 0, "is_reserved": 0, "type": "electric_scooter", "lon": -77.033473, "fusion_lon": 0.0, "lat": 38.917108999999996, "rental_uris": {"android": "https://dc.lft.to/lastmile_qr_scan", "ios": "https://dc.lft.to/lastmile_qr_scan"}, "fusion_lat": 0.0, "name": "9296400d10cf38552de3a1212442a9bc", "bike_id": "9296400d10cf38552de3a1212442a9bc"}, {"is_disabled": 0, "is_reserved": 0, "type": "electric_scooter", "lon": -77.0007045, "fusion_lon": 0.0, "lat": 38.87659566666667, "rental_uris": {"android": "https://dc.lft.to/lastmile_qr_scan", "ios": "https://dc.lft.to/lastmile_qr_scan"}, "fusion_lat": 0.0, "name": "908e4e3d4a4b090b60b0b683193d9cf8", "bike_id": "908e4e3d4a4b090b60b0b683193d9cf8"}, {"is_disabled": 0, "is_reserved": 0, "type": "electric_scooter", "lon": -77.0316295, "fusion_lon": 0.0, "lat": 38.898937, "rental_uris": {"android": "https://dc.lft.to/lastmile_qr_scan", "ios": "https://dc.lft.to/lastmile_qr_scan"}, "fusion_lat": 0.0, "name": "21271e4b2a480e5df5a861db1f8d0069", "bike_id": "21271e4b2a480e5df5a861db1f8d0069"}, {"is_disabled": 0, "is_reserved": 0, "type": "electric_scooter", "lon": -77.0072525, "fusion_lon": 0.0, "lat": 38.88493583333333, "rental_uris": {"android": "https://dc.lft.to/lastmile_qr_scan", "ios": "https://dc.lft.to/lastmile_qr_scan"}, "fusion_lat": 0.0, "name": "5b63b85f58c747eab2cca5e35b4894d7", "bike_id": "5b63b85f58c747eab2cca5e35b4894d7"}, {"is_disabled": 0, "is_reserved": 0, "type": "electric_scooter", "lon": -77.057034, "fusion_lon": 0.0, "lat": 38.91057583333333, "rental_uris": {"android": "https://dc.lft.to/lastmile_qr_scan", "ios": "https://dc.lft.to/lastmile_qr_scan"}, "fusion_lat": 0.0, "name": "071418fb2855373a7fec9d09a11adaaa", "bike_id": "071418fb2855373a7fec9d09a11adaaa"}, {"is_disabled": 0, "is_reserved": 0, "type": "electric_scooter", "lon": -77.0420205, "fusion_lon": 0.0, "lat": 38.923126833333335, "rental_uris": {"android": "https://dc.lft.to/lastmile_qr_scan", "ios": "https://dc.lft.to/lastmile_qr_scan"}, "fusion_lat": 0.0, "name": "c09a3dd56d98248402a4deb8f04712ab", "bike_id": "c09a3dd56d98248402a4deb8f04712ab"}, {"is_disabled": 0, "is_reserved": 0, "type": "electric_scooter", "lon": -77.01208233333334, "fusion_lon": 0.0, "lat": 38.91823633333333, "rental_uris": {"android": "https://dc.lft.to/lastmile_qr_scan", "ios": "https://dc.lft.to/lastmile_qr_scan"}, "fusion_lat": 0.0, "name": "6fcd2d18ce45c7d4b39e0d1c02fb7492", "bike_id": "6fcd2d18ce45c7d4b39e0d1c02fb7492"}, {"is_disabled": 0, "is_reserved": 0, "type": "electric_scooter", "lon": -77.02118233333333, "fusion_lon": 0.0, "lat": 38.89623133333333, "rental_uris": {"android": "https://dc.lft.to/lastmile_qr_scan", "ios": "https://dc.lft.to/lastmile_qr_scan"}, "fusion_lat": 0.0, "name": "e8bbe9b0cdc00fca42a3d9d2e09fe60d", "bike_id": "e8bbe9b0cdc00fca42a3d9d2e09fe60d"}, {"is_disabled": 0, "is_reserved": 0, "type": "electric_scooter", "lon": -76.998641, "fusion_lon": 0.0, "lat": 38.908895666666666, "rental_uris": {"android": "https://dc.lft.to/lastmile_qr_scan", "ios": "https://dc.lft.to/lastmile_qr_scan"}, "fusion_lat": 0.0, "name": "76f2764ff746174a8ec5486adaebfd5f", "bike_id": "76f2764ff746174a8ec5486adaebfd5f"}, {"is_disabled": 0, "is_reserved": 0, "type": "electric_scooter", "lon": -77.02712266666667, "fusion_lon": 0.0, "lat": 38.91801516666666, "rental_uris": {"android": "https://dc.lft.to/lastmile_qr_scan", "ios": "https://dc.lft.to/lastmile_qr_scan"}, "fusion_lat": 0.0, "name": "34fa78d37352509b4c9d9c2abffee372", "bike_id": "34fa78d37352509b4c9d9c2abffee372"}, {"is_disabled": 0, "is_reserved": 0, "type": "electric_scooter", "lon": -77.05214583333333, "fusion_lon": 0.0, "lat": 38.92479, "rental_uris": {"android": "https://dc.lft.to/lastmile_qr_scan", "ios": "https://dc.lft.to/lastmile_qr_scan"}, "fusion_lat": 0.0, "name": "836fefb8b6543bcc8fed05ed395a6e13", "bike_id": "836fefb8b6543bcc8fed05ed395a6e13"}, {"is_disabled": 0, "is_reserved": 0, "type": "electric_scooter", "lon": -77.02844083333333, "fusion_lon": 0.0, "lat": 38.9327335, "rental_uris": {"android": "https://dc.lft.to/lastmile_qr_scan", "ios": "https://dc.lft.to/lastmile_qr_scan"}, "fusion_lat": 0.0, "name": "7b14a38cf2eae556fd4b14593b6a5a9c", "bike_id": "7b14a38cf2eae556fd4b14593b6a5a9c"}, {"is_disabled": 0, "is_reserved": 0, "type": "electric_scooter", "lon": -77.04248983333333, "fusion_lon": 0.0, "lat": 38.945473166666666, "rental_uris": {"android": "https://dc.lft.to/lastmile_qr_scan", "ios": "https://dc.lft.to/lastmile_qr_scan"}, "fusion_lat": 0.0, "name": "dc9dda3ab7ea76353a4c792d28109feb", "bike_id": "dc9dda3ab7ea76353a4c792d28109feb"}, {"is_disabled": 0, "is_reserved": 0, "type": "electric_scooter", "lon": -77.0594575, "fusion_lon": 0.0, "lat": 38.93678466666667, "rental_uris": {"android": "https://dc.lft.to/lastmile_qr_scan", "ios": "https://dc.lft.to/lastmile_qr_scan"}, "fusion_lat": 0.0, "name": "5be9ab45841dacbcca81d0dec4dd92b1", "bike_id": "5be9ab45841dacbcca81d0dec4dd92b1"}, {"is_disabled": 0, "is_reserved": 0, "type": "electric_scooter", "lon": -76.94633866666666, "fusion_lon": 0.0, "lat": 38.8983475, "rental_uris": {"android": "https://dc.lft.to/lastmile_qr_scan", "ios": "https://dc.lft.to/lastmile_qr_scan"}, "fusion_lat": 0.0, "name": "13d304382b277d989a931c01d623122e", "bike_id": "13d304382b277d989a931c01d623122e"}, {"is_disabled": 0, "is_reserved": 0, "type": "electric_scooter", "lon": -77.04124216666666, "fusion_lon": 0.0, "lat": 38.923675, "rental_uris": {"android": "https://dc.lft.to/lastmile_qr_scan", "ios": "https://dc.lft.to/lastmile_qr_scan"}, "fusion_lat": 0.0, "name": "f25bd5d7d4defb6de5f6ba95d807fe7f", "bike_id": "f25bd5d7d4defb6de5f6ba95d807fe7f"}, {"is_disabled": 0, "is_reserved": 0, "type": "electric_scooter", "lon": -77.038541, "fusion_lon": 0.0, "lat": 38.91842883333333, "rental_uris": {"android": "https://dc.lft.to/lastmile_qr_scan", "ios": "https://dc.lft.to/lastmile_qr_scan"}, "fusion_lat": 0.0, "name": "ca9abf51b135386dd300e160b842c8bd", "bike_id": "ca9abf51b135386dd300e160b842c8bd"}, {"is_disabled": 0, "is_reserved": 0, "type": "electric_scooter", "lon": -77.04367083333334, "fusion_lon": 0.0, "lat": 38.90707033333333, "rental_uris": {"android": "https://dc.lft.to/lastmile_qr_scan", "ios": "https://dc.lft.to/lastmile_qr_scan"}, "fusion_lat": 0.0, "name": "904b649bc84a4a92fa24856bd8485acb", "bike_id": "904b649bc84a4a92fa24856bd8485acb"}, {"is_disabled": 0, "is_reserved": 0, "type": "electric_scooter", "lon": -77.0243855, "fusion_lon": 0.0, "lat": 38.92647433333333, "rental_uris": {"android": "https://dc.lft.to/lastmile_qr_scan", "ios": "https://dc.lft.to/lastmile_qr_scan"}, "fusion_lat": 0.0, "name": "65bf64d38ccf5e1aae234d3f5d09a633", "bike_id": "65bf64d38ccf5e1aae234d3f5d09a633"}, {"is_disabled": 0, "is_reserved": 0, "type": "electric_scooter", "lon": -76.9799685, "fusion_lon": 0.0, "lat": 38.88877216666667, "rental_uris": {"android": "https://dc.lft.to/lastmile_qr_scan", "ios": "https://dc.lft.to/lastmile_qr_scan"}, "fusion_lat": 0.0, "name": "42e58bee6c515c7091af364dae37d0ec", "bike_id": "42e58bee6c515c7091af364dae37d0ec"}, {"is_disabled": 0, "is_reserved": 0, "type": "electric_scooter", "lon": -76.99696883333333, "fusion_lon": 0.0, "lat": 38.884257, "rental_uris": {"android": "https://dc.lft.to/lastmile_qr_scan", "ios": "https://dc.lft.to/lastmile_qr_scan"}, "fusion_lat": 0.0, "name": "b2e1e5f55c0c768ab9c53428def83fe2", "bike_id": "b2e1e5f55c0c768ab9c53428def83fe2"}, {"is_disabled": 0, "is_reserved": 0, "type": "electric_scooter", "lon": -77.03444733333333, "fusion_lon": 0.0, "lat": 38.91583383333333, "rental_uris": {"android": "https://dc.lft.to/lastmile_qr_scan", "ios": "https://dc.lft.to/lastmile_qr_scan"}, "fusion_lat": 0.0, "name": "78b1ccdb3c8bd26e447a7262043c7f90", "bike_id": "78b1ccdb3c8bd26e447a7262043c7f90"}, {"is_disabled": 0, "is_reserved": 0, "type": "electric_scooter", "lon": -77.03277916666667, "fusion_lon": 0.0, "lat": 38.916148, "rental_uris": {"android": "https://dc.lft.to/lastmile_qr_scan", "ios": "https://dc.lft.to/lastmile_qr_scan"}, "fusion_lat": 0.0, "name": "4e5c63e8982129853d3c1f9278196b6e", "bike_id": "4e5c63e8982129853d3c1f9278196b6e"}, {"is_disabled": 0, "is_reserved": 0, "type": "electric_scooter", "lon": -77.0318655, "fusion_lon": 0.0, "lat": 38.910109166666665, "rental_uris": {"android": "https://dc.lft.to/lastmile_qr_scan", "ios": "https://dc.lft.to/lastmile_qr_scan"}, "fusion_lat": 0.0, "name": "0a456aaaa58820e44fe493a18adb26d2", "bike_id": "0a456aaaa58820e44fe493a18adb26d2"}, {"is_disabled": 0, "is_reserved": 0, "type": "electric_scooter", "lon": -77.02423916666666, "fusion_lon": 0.0, "lat": 38.93475316666667, "rental_uris": {"android": "https://dc.lft.to/lastmile_qr_scan", "ios": "https://dc.lft.to/lastmile_qr_scan"}, "fusion_lat": 0.0, "name": "cb73fdf39d2b54eaeaf6df6c6c1f44b7", "bike_id": "cb73fdf39d2b54eaeaf6df6c6c1f44b7"}, {"is_disabled": 0, "is_reserved": 0, "type": "electric_scooter", "lon": -77.04274733333334, "fusion_lon": 0.0, "lat": 38.917012166666666, "rental_uris": {"android": "https://dc.lft.to/lastmile_qr_scan", "ios": "https://dc.lft.to/lastmile_qr_scan"}, "fusion_lat": 0.0, "name": "606cd1762cf697b7b08cd54200c995b4", "bike_id": "606cd1762cf697b7b08cd54200c995b4"}, {"is_disabled": 0, "is_reserved": 0, "type": "electric_scooter", "lon": -77.0257245, "fusion_lon": 0.0, "lat": 38.89574133333333, "rental_uris": {"android": "https://dc.lft.to/lastmile_qr_scan", "ios": "https://dc.lft.to/lastmile_qr_scan"}, "fusion_lat": 0.0, "name": "a6e3ed0fc20a6ad4c1a3f26d2bc3650e", "bike_id": "a6e3ed0fc20a6ad4c1a3f26d2bc3650e"}, {"is_disabled": 0, "is_reserved": 0, "type": "electric_scooter", "lon": -77.00059566666667, "fusion_lon": 0.0, "lat": 38.8761085, "rental_uris": {"android": "https://dc.lft.to/lastmile_qr_scan", "ios": "https://dc.lft.to/lastmile_qr_scan"}, "fusion_lat": 0.0, "name": "aba2242446f3b337f355cafcef2e7c6d", "bike_id": "aba2242446f3b337f355cafcef2e7c6d"}, {"is_disabled": 0, "is_reserved": 0, "type": "electric_scooter", "lon": -77.03194833333333, "fusion_lon": 0.0, "lat": 38.910168166666665, "rental_uris": {"android": "https://dc.lft.to/lastmile_qr_scan", "ios": "https://dc.lft.to/lastmile_qr_scan"}, "fusion_lat": 0.0, "name": "1e8ada8eaa139004851a50f57b370d5b", "bike_id": "1e8ada8eaa139004851a50f57b370d5b"}, {"is_disabled": 0, "is_reserved": 0, "type": "electric_scooter", "lon": -77.0162025, "fusion_lon": 0.0, "lat": 38.903268833333335, "rental_uris": {"android": "https://dc.lft.to/lastmile_qr_scan", "ios": "https://dc.lft.to/lastmile_qr_scan"}, "fusion_lat": 0.0, "name": "5c81c6c0ecac4b5bf6f33763dfd81ccb", "bike_id": "5c81c6c0ecac4b5bf6f33763dfd81ccb"}, {"is_disabled": 0, "is_reserved": 0, "type": "electric_scooter", "lon": -76.996115, "fusion_lon": 0.0, "lat": 38.901248833333334, "rental_uris": {"android": "https://dc.lft.to/lastmile_qr_scan", "ios": "https://dc.lft.to/lastmile_qr_scan"}, "fusion_lat": 0.0, "name": "ecc99877caec77ed6df647bf1a6316bc", "bike_id": "ecc99877caec77ed6df647bf1a6316bc"}, {"is_disabled": 0, "is_reserved": 0, "type": "electric_scooter", "lon": -77.02795733333333, "fusion_lon": 0.0, "lat": 38.92972833333334, "rental_uris": {"android": "https://dc.lft.to/lastmile_qr_scan", "ios": "https://dc.lft.to/lastmile_qr_scan"}, "fusion_lat": 0.0, "name": "210d349702c1a1c8f6c436c464400aac", "bike_id": "210d349702c1a1c8f6c436c464400aac"}, {"is_disabled": 0, "is_reserved": 0, "type": "electric_scooter", "lon": -77.01784183333334, "fusion_lon": 0.0, "lat": 38.90258983333333, "rental_uris": {"android": "https://dc.lft.to/lastmile_qr_scan", "ios": "https://dc.lft.to/lastmile_qr_scan"}, "fusion_lat": 0.0, "name": "c25dd93fc9eea92c9e0fdc9916a5a3b9", "bike_id": "c25dd93fc9eea92c9e0fdc9916a5a3b9"}, {"is_disabled": 0, "is_reserved": 0, "type": "electric_scooter", "lon": -77.04007133333333, "fusion_lon": 0.0, "lat": 38.91631833333334, "rental_uris": {"android": "https://dc.lft.to/lastmile_qr_scan", "ios": "https://dc.lft.to/lastmile_qr_scan"}, "fusion_lat": 0.0, "name": "22cf4e68ae451543e019ede167398849", "bike_id": "22cf4e68ae451543e019ede167398849"}, {"is_disabled": 0, "is_reserved": 0, "type": "electric_scooter", "lon": -76.98471033333334, "fusion_lon": 0.0, "lat": 38.893495, "rental_uris": {"android": "https://dc.lft.to/lastmile_qr_scan", "ios": "https://dc.lft.to/lastmile_qr_scan"}, "fusion_lat": 0.0, "name": "cd4855dee0f9f878261d3438904e01af", "bike_id": "cd4855dee0f9f878261d3438904e01af"}, {"is_disabled": 0, "is_reserved": 0, "type": "electric_scooter", "lon": -77.04171316666667, "fusion_lon": 0.0, "lat": 38.9193985, "rental_uris": {"android": "https://dc.lft.to/lastmile_qr_scan", "ios": "https://dc.lft.to/lastmile_qr_scan"}, "fusion_lat": 0.0, "name": "12f73c2459608cd84f6f393a68dbdcce", "bike_id": "12f73c2459608cd84f6f393a68dbdcce"}, {"is_disabled": 0, "is_reserved": 0, "type": "electric_bike", "lon": -77.049218, "fusion_lon": 0.0, "lat": 38.855023333333335, "rental_uris": {"android": "https://dc.lft.to/lastmile_qr_scan", "ios": "https://dc.lft.to/lastmile_qr_scan"}, "fusion_lat": 0.0, "name": "bb55ea6cfeaecfa5c34a6d3bfdd3df78", "bike_id": "bb55ea6cfeaecfa5c34a6d3bfdd3df78"}, {"is_disabled": 0, "is_reserved": 0, "type": "electric_scooter", "lon": -77.03886216666666, "fusion_lon": 0.0, "lat": 38.922341833333334, "rental_uris": {"android": "https://dc.lft.to/lastmile_qr_scan", "ios": "https://dc.lft.to/lastmile_qr_scan"}, "fusion_lat": 0.0, "name": "2b2c7e798850cfea6b42cd7763699f73", "bike_id": "2b2c7e798850cfea6b42cd7763699f73"}, {"is_disabled": 0, "is_reserved": 0, "type": "electric_scooter", "lon": -77.02484083333333, "fusion_lon": 0.0, "lat": 38.902517333333336, "rental_uris": {"android": "https://dc.lft.to/lastmile_qr_scan", "ios": "https://dc.lft.to/lastmile_qr_scan"}, "fusion_lat": 0.0, "name": "a67fd0801cea7fcac721bd027e85d0e1", "bike_id": "a67fd0801cea7fcac721bd027e85d0e1"}, {"is_disabled": 0, "is_reserved": 0, "type": "electric_scooter", "lon": -77.004344, "fusion_lon": 0.0, "lat": 38.876867, "rental_uris": {"android": "https://dc.lft.to/lastmile_qr_scan", "ios": "https://dc.lft.to/lastmile_qr_scan"}, "fusion_lat": 0.0, "name": "de639734876e18450c2828ad85467d05", "bike_id": "de639734876e18450c2828ad85467d05"}, {"is_disabled": 0, "is_reserved": 0, "type": "electric_scooter", "lon": -77.0357575, "fusion_lon": 0.0, "lat": 38.90757516666667, "rental_uris": {"android": "https://dc.lft.to/lastmile_qr_scan", "ios": "https://dc.lft.to/lastmile_qr_scan"}, "fusion_lat": 0.0, "name": "9976f49fa91df89d46e5b1c037713c3b", "bike_id": "9976f49fa91df89d46e5b1c037713c3b"}, {"is_disabled": 0, "is_reserved": 0, "type": "electric_scooter", "lon": -77.00219166666666, "fusion_lon": 0.0, "lat": 38.91105816666666, "rental_uris": {"android": "https://dc.lft.to/lastmile_qr_scan", "ios": "https://dc.lft.to/lastmile_qr_scan"}, "fusion_lat": 0.0, "name": "4108397cbba3e8a2e3058ee542966fbf", "bike_id": "4108397cbba3e8a2e3058ee542966fbf"}, {"is_disabled": 0, "is_reserved": 0, "type": "electric_scooter", "lon": -77.0256805, "fusion_lon": 0.0, "lat": 38.892246166666666, "rental_uris": {"android": "https://dc.lft.to/lastmile_qr_scan", "ios": "https://dc.lft.to/lastmile_qr_scan"}, "fusion_lat": 0.0, "name": "786e3e4bd6cf9632bc0696c3bfd3071a", "bike_id": "786e3e4bd6cf9632bc0696c3bfd3071a"}, {"is_disabled": 0, "is_reserved": 0, "type": "electric_scooter", "lon": -77.03258016666666, "fusion_lon": 0.0, "lat": 38.90136916666667, "rental_uris": {"android": "https://dc.lft.to/lastmile_qr_scan", "ios": "https://dc.lft.to/lastmile_qr_scan"}, "fusion_lat": 0.0, "name": "d0e8fe0ab67f8b6fce197b7c33a2c8d1", "bike_id": "d0e8fe0ab67f8b6fce197b7c33a2c8d1"}, {"is_disabled": 0, "is_reserved": 0, "type": "electric_bike", "lon": -77.03567316666667, "fusion_lon": 0.0, "lat": 38.911181666666664, "rental_uris": {"android": "https://dc.lft.to/lastmile_qr_scan", "ios": "https://dc.lft.to/lastmile_qr_scan"}, "fusion_lat": 0.0, "name": "d53e9248e55a4e630d068ab5a47a7389", "bike_id": "d53e9248e55a4e630d068ab5a47a7389"}, {"is_disabled": 0, "is_reserved": 0, "type": "electric_bike", "lon": -77.081789, "fusion_lon": 0.0, "lat": 38.88865216666667, "rental_uris": {"android": "https://dc.lft.to/lastmile_qr_scan", "ios": "https://dc.lft.to/lastmile_qr_scan"}, "fusion_lat": 0.0, "name": "d70cbe1b4db4640f8de7b9430c0ae575", "bike_id": "d70cbe1b4db4640f8de7b9430c0ae575"}, {"is_disabled": 0, "is_reserved": 0, "type": "electric_bike", "lon": -76.92932266666666, "fusion_lon": 0.0, "lat": 38.90288416666667, "rental_uris": {"android": "https://dc.lft.to/lastmile_qr_scan", "ios": "https://dc.lft.to/lastmile_qr_scan"}, "fusion_lat": 0.0, "name": "20a01fc7a12f492661f7884de720e0de", "bike_id": "20a01fc7a12f492661f7884de720e0de"}, {"is_disabled": 0, "is_reserved": 0, "type": "electric_scooter", "lon": -77.03352466666666, "fusion_lon": 0.0, "lat": 38.92442366666667, "rental_uris": {"android": "https://dc.lft.to/lastmile_qr_scan", "ios": "https://dc.lft.to/lastmile_qr_scan"}, "fusion_lat": 0.0, "name": "ffac87fdb22e8e45a6a1fdec440d5a6c", "bike_id": "ffac87fdb22e8e45a6a1fdec440d5a6c"}, {"is_disabled": 0, "is_reserved": 0, "type": "electric_scooter", "lon": -77.02594733333333, "fusion_lon": 0.0, "lat": 38.97583983333333, "rental_uris": {"android": "https://dc.lft.to/lastmile_qr_scan", "ios": "https://dc.lft.to/lastmile_qr_scan"}, "fusion_lat": 0.0, "name": "3f173bc59bb408e9db2ec461e8004906", "bike_id": "3f173bc59bb408e9db2ec461e8004906"}, {"is_disabled": 0, "is_reserved": 0, "type": "electric_scooter", "lon": -76.93384133333333, "fusion_lon": 0.0, "lat": 38.89910583333333, "rental_uris": {"android": "https://dc.lft.to/lastmile_qr_scan", "ios": "https://dc.lft.to/lastmile_qr_scan"}, "fusion_lat": 0.0, "name": "751b07a35ff29dbfcbae3341f8165970", "bike_id": "751b07a35ff29dbfcbae3341f8165970"}, {"is_disabled": 0, "is_reserved": 0, "type": "electric_scooter", "lon": -76.98075, "fusion_lon": 0.0, "lat": 38.90171616666667, "rental_uris": {"android": "https://dc.lft.to/lastmile_qr_scan", "ios": "https://dc.lft.to/lastmile_qr_scan"}, "fusion_lat": 0.0, "name": "44c5371515404828a1de29fa76e98dc0", "bike_id": "44c5371515404828a1de29fa76e98dc0"}, {"is_disabled": 0, "is_reserved": 0, "type": "electric_scooter", "lon": -77.03468983333333, "fusion_lon": 0.0, "lat": 38.91054233333333, "rental_uris": {"android": "https://dc.lft.to/lastmile_qr_scan", "ios": "https://dc.lft.to/lastmile_qr_scan"}, "fusion_lat": 0.0, "name": "1f849abcbd16337769ccaa2deed2700d", "bike_id": "1f849abcbd16337769ccaa2deed2700d"}, {"is_disabled": 0, "is_reserved": 0, "type": "electric_scooter", "lon": -77.07012466666667, "fusion_lon": 0.0, "lat": 38.905974, "rental_uris": {"android": "https://dc.lft.to/lastmile_qr_scan", "ios": "https://dc.lft.to/lastmile_qr_scan"}, "fusion_lat": 0.0, "name": "08b80ad2011910821d371bef76897851", "bike_id": "08b80ad2011910821d371bef76897851"}, {"is_disabled": 0, "is_reserved": 0, "type": "electric_scooter", "lon": -77.01194683333334, "fusion_lon": 0.0, "lat": 38.87073216666667, "rental_uris": {"android": "https://dc.lft.to/lastmile_qr_scan", "ios": "https://dc.lft.to/lastmile_qr_scan"}, "fusion_lat": 0.0, "name": "2701bfa1e6b7e7e2a5b1dcc03faf0dbd", "bike_id": "2701bfa1e6b7e7e2a5b1dcc03faf0dbd"}, {"is_disabled": 0, "is_reserved": 0, "type": "electric_bike", "lon": -76.9617475, "fusion_lon": 0.0, "lat": 38.9186305, "rental_uris": {"android": "https://dc.lft.to/lastmile_qr_scan", "ios": "https://dc.lft.to/lastmile_qr_scan"}, "fusion_lat": 0.0, "name": "fd5d71c78fcdfbcefcaf8b28dfe2d5a5", "bike_id": "fd5d71c78fcdfbcefcaf8b28dfe2d5a5"}, {"is_disabled": 0, "is_reserved": 0, "type": "electric_scooter", "lon": -77.026524, "fusion_lon": 0.0, "lat": 38.89218916666667, "rental_uris": {"android": "https://dc.lft.to/lastmile_qr_scan", "ios": "https://dc.lft.to/lastmile_qr_scan"}, "fusion_lat": 0.0, "name": "589e1d0929752e37dc5fd353fec0d4ab", "bike_id": "589e1d0929752e37dc5fd353fec0d4ab"}, {"is_disabled": 0, "is_reserved": 0, "type": "electric_scooter", "lon": -77.02178233333333, "fusion_lon": 0.0, "lat": 38.894794833333336, "rental_uris": {"android": "https://dc.lft.to/lastmile_qr_scan", "ios": "https://dc.lft.to/lastmile_qr_scan"}, "fusion_lat": 0.0, "name": "dfdc1834e1eaec99d139c7ce0119bbe3", "bike_id": "dfdc1834e1eaec99d139c7ce0119bbe3"}, {"is_disabled": 0, "is_reserved": 0, "type": "electric_scooter", "lon": -77.07114183333333, "fusion_lon": 0.0, "lat": 38.91968383333333, "rental_uris": {"android": "https://dc.lft.to/lastmile_qr_scan", "ios": "https://dc.lft.to/lastmile_qr_scan"}, "fusion_lat": 0.0, "name": "67674d1fd703314a39298d288b87d16a", "bike_id": "67674d1fd703314a39298d288b87d16a"}, {"is_disabled": 0, "is_reserved": 0, "type": "electric_scooter", "lon": -76.9916245, "fusion_lon": 0.0, "lat": 38.897773666666666, "rental_uris": {"android": "https://dc.lft.to/lastmile_qr_scan", "ios": "https://dc.lft.to/lastmile_qr_scan"}, "fusion_lat": 0.0, "name": "4a4bedbf35ce57903a6bc8e34ba84627", "bike_id": "4a4bedbf35ce57903a6bc8e34ba84627"}, {"is_disabled": 0, "is_reserved": 0, "type": "electric_scooter", "lon": -77.04606666666666, "fusion_lon": 0.0, "lat": 38.9147905, "rental_uris": {"android": "https://dc.lft.to/lastmile_qr_scan", "ios": "https://dc.lft.to/lastmile_qr_scan"}, "fusion_lat": 0.0, "name": "4fa4220b5d8d76ac2fec5321cfa0e66d", "bike_id": "4fa4220b5d8d76ac2fec5321cfa0e66d"}, {"is_disabled": 0, "is_reserved": 0, "type": "electric_scooter", "lon": -77.016048, "fusion_lon": 0.0, "lat": 38.917628, "rental_uris": {"android": "https://dc.lft.to/lastmile_qr_scan", "ios": "https://dc.lft.to/lastmile_qr_scan"}, "fusion_lat": 0.0, "name": "2a363b581ab2e87464b27cece87406c1", "bike_id": "2a363b581ab2e87464b27cece87406c1"}, {"is_disabled": 0, "is_reserved": 0, "type": "electric_scooter", "lon": -76.99030616666667, "fusion_lon": 0.0, "lat": 38.928704833333335, "rental_uris": {"android": "https://dc.lft.to/lastmile_qr_scan", "ios": "https://dc.lft.to/lastmile_qr_scan"}, "fusion_lat": 0.0, "name": "6bc6f9f20acde21ae61efff0d75b817c", "bike_id": "6bc6f9f20acde21ae61efff0d75b817c"}, {"is_disabled": 0, "is_reserved": 0, "type": "electric_scooter", "lon": -77.00376633333333, "fusion_lon": 0.0, "lat": 38.87653483333333, "rental_uris": {"android": "https://dc.lft.to/lastmile_qr_scan", "ios": "https://dc.lft.to/lastmile_qr_scan"}, "fusion_lat": 0.0, "name": "ffe9f554918699fda2de3f3123e23ca4", "bike_id": "ffe9f554918699fda2de3f3123e23ca4"}, {"is_disabled": 0, "is_reserved": 0, "type": "electric_scooter", "lon": -77.03217266666667, "fusion_lon": 0.0, "lat": 38.936141666666664, "rental_uris": {"android": "https://dc.lft.to/lastmile_qr_scan", "ios": "https://dc.lft.to/lastmile_qr_scan"}, "fusion_lat": 0.0, "name": "afbc71f4accbd3178f906e6464149bea", "bike_id": "afbc71f4accbd3178f906e6464149bea"}, {"is_disabled": 0, "is_reserved": 0, "type": "electric_scooter", "lon": -77.04482416666667, "fusion_lon": 0.0, "lat": 38.9242525, "rental_uris": {"android": "https://dc.lft.to/lastmile_qr_scan", "ios": "https://dc.lft.to/lastmile_qr_scan"}, "fusion_lat": 0.0, "name": "ef9d1a2a08f28387a92b0c5ffa199485", "bike_id": "ef9d1a2a08f28387a92b0c5ffa199485"}, {"is_disabled": 0, "is_reserved": 0, "type": "electric_scooter", "lon": -77.00613883333334, "fusion_lon": 0.0, "lat": 38.874183, "rental_uris": {"android": "https://dc.lft.to/lastmile_qr_scan", "ios": "https://dc.lft.to/lastmile_qr_scan"}, "fusion_lat": 0.0, "name": "ad75f7465f38edde5e924136c54816bc", "bike_id": "ad75f7465f38edde5e924136c54816bc"}, {"is_disabled": 0, "is_reserved": 0, "type": "electric_scooter", "lon": -77.01793116666667, "fusion_lon": 0.0, "lat": 38.94119833333333, "rental_uris": {"android": "https://dc.lft.to/lastmile_qr_scan", "ios": "https://dc.lft.to/lastmile_qr_scan"}, "fusion_lat": 0.0, "name": "3dd30ebe0fca1041607a8d21c96a3f2b", "bike_id": "3dd30ebe0fca1041607a8d21c96a3f2b"}, {"is_disabled": 0, "is_reserved": 0, "type": "electric_scooter", "lon": -77.02822016666667, "fusion_lon": 0.0, "lat": 38.885829333333334, "rental_uris": {"android": "https://dc.lft.to/lastmile_qr_scan", "ios": "https://dc.lft.to/lastmile_qr_scan"}, "fusion_lat": 0.0, "name": "0162d5132edd9613b12b890cbd5f1129", "bike_id": "0162d5132edd9613b12b890cbd5f1129"}, {"is_disabled": 0, "is_reserved": 0, "type": "electric_scooter", "lon": -77.02209983333333, "fusion_lon": 0.0, "lat": 38.905383, "rental_uris": {"android": "https://dc.lft.to/lastmile_qr_scan", "ios": "https://dc.lft.to/lastmile_qr_scan"}, "fusion_lat": 0.0, "name": "de31770eec80b464017ad572fb1633c4", "bike_id": "de31770eec80b464017ad572fb1633c4"}, {"is_disabled": 0, "is_reserved": 0, "type": "electric_bike", "lon": -77.048985, "fusion_lon": 0.0, "lat": 38.874928833333335, "rental_uris": {"android": "https://dc.lft.to/lastmile_qr_scan", "ios": "https://dc.lft.to/lastmile_qr_scan"}, "fusion_lat": 0.0, "name": "81cc912e974e35318db583bc92832bfc", "bike_id": "81cc912e974e35318db583bc92832bfc"}, {"is_disabled": 0, "is_reserved": 0, "type": "electric_bike", "lon": -77.10026716666667, "fusion_lon": 0.0, "lat": 38.990654, "rental_uris": {"android": "https://dc.lft.to/lastmile_qr_scan", "ios": "https://dc.lft.to/lastmile_qr_scan"}, "fusion_lat": 0.0, "name": "0e142a571f09aef0604cc92fb6485d70", "bike_id": "0e142a571f09aef0604cc92fb6485d70"}, {"is_disabled": 0, "is_reserved": 0, "type": "electric_scooter", "lon": -77.00327383333334, "fusion_lon": 0.0, "lat": 38.90725366666667, "rental_uris": {"android": "https://dc.lft.to/lastmile_qr_scan", "ios": "https://dc.lft.to/lastmile_qr_scan"}, "fusion_lat": 0.0, "name": "b36d5d4da69fb0e1be873cba16279c6d", "bike_id": "b36d5d4da69fb0e1be873cba16279c6d"}, {"is_disabled": 0, "is_reserved": 0, "type": "electric_bike", "lon": -76.87495116666666, "fusion_lon": 0.0, "lat": 38.990895, "rental_uris": {"android": "https://dc.lft.to/lastmile_qr_scan", "ios": "https://dc.lft.to/lastmile_qr_scan"}, "fusion_lat": 0.0, "name": "fd7e634c08f95e783cea013dfefc669f", "bike_id": "fd7e634c08f95e783cea013dfefc669f"}, {"is_disabled": 0, "is_reserved": 0, "type": "electric_scooter", "lon": -77.02800933333333, "fusion_lon": 0.0, "lat": 38.911068, "rental_uris": {"android": "https://dc.lft.to/lastmile_qr_scan", "ios": "https://dc.lft.to/lastmile_qr_scan"}, "fusion_lat": 0.0, "name": "61280b8b335aa54e184d090186fee3a9", "bike_id": "61280b8b335aa54e184d090186fee3a9"}, {"is_disabled": 0, "is_reserved": 0, "type": "electric_scooter", "lon": -77.038446, "fusion_lon": 0.0, "lat": 38.91546533333333, "rental_uris": {"android": "https://dc.lft.to/lastmile_qr_scan", "ios": "https://dc.lft.to/lastmile_qr_scan"}, "fusion_lat": 0.0, "name": "a1b8377bce1d348920d4de520d2c649d", "bike_id": "a1b8377bce1d348920d4de520d2c649d"}, {"is_disabled": 0, "is_reserved": 0, "type": "electric_scooter", "lon": -77.035393, "fusion_lon": 0.0, "lat": 38.921569, "rental_uris": {"android": "https://dc.lft.to/lastmile_qr_scan", "ios": "https://dc.lft.to/lastmile_qr_scan"}, "fusion_lat": 0.0, "name": "43fd8fa1076e66e1c3a3206fe5de39f3", "bike_id": "43fd8fa1076e66e1c3a3206fe5de39f3"}, {"is_disabled": 0, "is_reserved": 0, "type": "electric_scooter", "lon": -77.05920416666666, "fusion_lon": 0.0, "lat": 38.910020833333334, "rental_uris": {"android": "https://dc.lft.to/lastmile_qr_scan", "ios": "https://dc.lft.to/lastmile_qr_scan"}, "fusion_lat": 0.0, "name": "539f9c6a791b98fad7fcc059f4bfc167", "bike_id": "539f9c6a791b98fad7fcc059f4bfc167"}, {"is_disabled": 0, "is_reserved": 0, "type": "electric_scooter", "lon": -77.01402566666667, "fusion_lon": 0.0, "lat": 38.928322, "rental_uris": {"android": "https://dc.lft.to/lastmile_qr_scan", "ios": "https://dc.lft.to/lastmile_qr_scan"}, "fusion_lat": 0.0, "name": "144b1f6347feceb3ddd50cc4e9ba2723", "bike_id": "144b1f6347feceb3ddd50cc4e9ba2723"}, {"is_disabled": 0, "is_reserved": 0, "type": "electric_scooter", "lon": -77.029367, "fusion_lon": 0.0, "lat": 38.914147666666665, "rental_uris": {"android": "https://dc.lft.to/lastmile_qr_scan", "ios": "https://dc.lft.to/lastmile_qr_scan"}, "fusion_lat": 0.0, "name": "abbd9238db4d75356d032671be51769b", "bike_id": "abbd9238db4d75356d032671be51769b"}, {"is_disabled": 0, "is_reserved": 0, "type": "electric_scooter", "lon": -77.03375983333333, "fusion_lon": 0.0, "lat": 38.96832066666666, "rental_uris": {"android": "https://dc.lft.to/lastmile_qr_scan", "ios": "https://dc.lft.to/lastmile_qr_scan"}, "fusion_lat": 0.0, "name": "2226e51b0921473c1074f5c6a075babb", "bike_id": "2226e51b0921473c1074f5c6a075babb"}, {"is_disabled": 0, "is_reserved": 0, "type": "electric_scooter", "lon": -77.0215515, "fusion_lon": 0.0, "lat": 38.92604, "rental_uris": {"android": "https://dc.lft.to/lastmile_qr_scan", "ios": "https://dc.lft.to/lastmile_qr_scan"}, "fusion_lat": 0.0, "name": "267126279a7792933f784407e859fc3d", "bike_id": "267126279a7792933f784407e859fc3d"}, {"is_disabled": 0, "is_reserved": 0, "type": "electric_scooter", "lon": -77.001967, "fusion_lon": 0.0, "lat": 38.902324, "rental_uris": {"android": "https://dc.lft.to/lastmile_qr_scan", "ios": "https://dc.lft.to/lastmile_qr_scan"}, "fusion_lat": 0.0, "name": "d6f1a2d56078b7febc65f0c6b40c139a", "bike_id": "d6f1a2d56078b7febc65f0c6b40c139a"}, {"is_disabled": 0, "is_reserved": 0, "type": "electric_scooter", "lon": -77.00410933333333, "fusion_lon": 0.0, "lat": 38.87688216666667, "rental_uris": {"android": "https://dc.lft.to/lastmile_qr_scan", "ios": "https://dc.lft.to/lastmile_qr_scan"}, "fusion_lat": 0.0, "name": "c3ce33eb51512138b4593a5038b3816d", "bike_id": "c3ce33eb51512138b4593a5038b3816d"}, {"is_disabled": 0, "is_reserved": 0, "type": "electric_scooter", "lon": -76.9950205, "fusion_lon": 0.0, "lat": 38.885809333333334, "rental_uris": {"android": "https://dc.lft.to/lastmile_qr_scan", "ios": "https://dc.lft.to/lastmile_qr_scan"}, "fusion_lat": 0.0, "name": "5acc5e6a93d4c5ae0e74f93d3df8a4fa", "bike_id": "5acc5e6a93d4c5ae0e74f93d3df8a4fa"}, {"is_disabled": 0, "is_reserved": 0, "type": "electric_scooter", "lon": -77.04165133333333, "fusion_lon": 0.0, "lat": 38.90133083333333, "rental_uris": {"android": "https://dc.lft.to/lastmile_qr_scan", "ios": "https://dc.lft.to/lastmile_qr_scan"}, "fusion_lat": 0.0, "name": "e79aeb4593803436c1b1e02c8be9b02f", "bike_id": "e79aeb4593803436c1b1e02c8be9b02f"}, {"is_disabled": 0, "is_reserved": 0, "type": "electric_bike", "lon": -77.0271685, "fusion_lon": 0.0, "lat": 38.98188783333333, "rental_uris": {"android": "https://dc.lft.to/lastmile_qr_scan", "ios": "https://dc.lft.to/lastmile_qr_scan"}, "fusion_lat": 0.0, "name": "367b744c9e0c61e63b17e554a0f6ea35", "bike_id": "367b744c9e0c61e63b17e554a0f6ea35"}, {"is_disabled": 0, "is_reserved": 0, "type": "electric_scooter", "lon": -77.04460683333333, "fusion_lon": 0.0, "lat": 38.89884966666666, "rental_uris": {"android": "https://dc.lft.to/lastmile_qr_scan", "ios": "https://dc.lft.to/lastmile_qr_scan"}, "fusion_lat": 0.0, "name": "b02e88e5652086cfce9dee6cf7d04dcc", "bike_id": "b02e88e5652086cfce9dee6cf7d04dcc"}, {"is_disabled": 0, "is_reserved": 0, "type": "electric_scooter", "lon": -77.03268633333333, "fusion_lon": 0.0, "lat": 38.913294, "rental_uris": {"android": "https://dc.lft.to/lastmile_qr_scan", "ios": "https://dc.lft.to/lastmile_qr_scan"}, "fusion_lat": 0.0, "name": "217743798946009bb14926e51faa5cc4", "bike_id": "217743798946009bb14926e51faa5cc4"}, {"is_disabled": 0, "is_reserved": 0, "type": "electric_scooter", "lon": -77.03293266666667, "fusion_lon": 0.0, "lat": 38.920697, "rental_uris": {"android": "https://dc.lft.to/lastmile_qr_scan", "ios": "https://dc.lft.to/lastmile_qr_scan"}, "fusion_lat": 0.0, "name": "e8d5de182d5b73db0d8185f8f9b97cf5", "bike_id": "e8d5de182d5b73db0d8185f8f9b97cf5"}, {"is_disabled": 0, "is_reserved": 0, "type": "electric_scooter", "lon": -77.05597033333333, "fusion_lon": 0.0, "lat": 38.90017316666667, "rental_uris": {"android": "https://dc.lft.to/lastmile_qr_scan", "ios": "https://dc.lft.to/lastmile_qr_scan"}, "fusion_lat": 0.0, "name": "5c26bbb8ff4e053e4460794381802aa0", "bike_id": "5c26bbb8ff4e053e4460794381802aa0"}, {"is_disabled": 0, "is_reserved": 0, "type": "electric_bike", "lon": -77.178018, "fusion_lon": 0.0, "lat": 39.088448, "rental_uris": {"android": "https://dc.lft.to/lastmile_qr_scan", "ios": "https://dc.lft.to/lastmile_qr_scan"}, "fusion_lat": 0.0, "name": "4ee683687b3dc40af7a97d38bb260462", "bike_id": "4ee683687b3dc40af7a97d38bb260462"}, {"is_disabled": 0, "is_reserved": 0, "type": "electric_scooter", "lon": -77.05560316666667, "fusion_lon": 0.0, "lat": 38.8972645, "rental_uris": {"android": "https://dc.lft.to/lastmile_qr_scan", "ios": "https://dc.lft.to/lastmile_qr_scan"}, "fusion_lat": 0.0, "name": "ca5bad0b4144984269a9c2cb1a71d97d", "bike_id": "ca5bad0b4144984269a9c2cb1a71d97d"}, {"is_disabled": 0, "is_reserved": 0, "type": "electric_scooter", "lon": -77.01607766666666, "fusion_lon": 0.0, "lat": 38.9059005, "rental_uris": {"android": "https://dc.lft.to/lastmile_qr_scan", "ios": "https://dc.lft.to/lastmile_qr_scan"}, "fusion_lat": 0.0, "name": "991c4017588b39ea71b45cef80f2c599", "bike_id": "991c4017588b39ea71b45cef80f2c599"}, {"is_disabled": 0, "is_reserved": 0, "type": "electric_scooter", "lon": -76.98892116666667, "fusion_lon": 0.0, "lat": 38.866779333333334, "rental_uris": {"android": "https://dc.lft.to/lastmile_qr_scan", "ios": "https://dc.lft.to/lastmile_qr_scan"}, "fusion_lat": 0.0, "name": "cf53b75bfef42633f7556f20dbd87b24", "bike_id": "cf53b75bfef42633f7556f20dbd87b24"}, {"is_disabled": 0, "is_reserved": 0, "type": "electric_scooter", "lon": -76.996199, "fusion_lon": 0.0, "lat": 38.900359, "rental_uris": {"android": "https://dc.lft.to/lastmile_qr_scan", "ios": "https://dc.lft.to/lastmile_qr_scan"}, "fusion_lat": 0.0, "name": "4dc191ae27a47de57a2fb07f5bfd2f48", "bike_id": "4dc191ae27a47de57a2fb07f5bfd2f48"}, {"is_disabled": 0, "is_reserved": 0, "type": "electric_scooter", "lon": -77.03202216666666, "fusion_lon": 0.0, "lat": 38.89218, "rental_uris": {"android": "https://dc.lft.to/lastmile_qr_scan", "ios": "https://dc.lft.to/lastmile_qr_scan"}, "fusion_lat": 0.0, "name": "e6dcd019a416f1b5fdf79976cf5d6fc8", "bike_id": "e6dcd019a416f1b5fdf79976cf5d6fc8"}, {"is_disabled": 0, "is_reserved": 0, "type": "electric_scooter", "lon": -77.03852166666667, "fusion_lon": 0.0, "lat": 38.9175085, "rental_uris": {"android": "https://dc.lft.to/lastmile_qr_scan", "ios": "https://dc.lft.to/lastmile_qr_scan"}, "fusion_lat": 0.0, "name": "13621c472f1e57ea260bc188fd135e99", "bike_id": "13621c472f1e57ea260bc188fd135e99"}, {"is_disabled": 0, "is_reserved": 0, "type": "electric_scooter", "lon": -77.03221416666666, "fusion_lon": 0.0, "lat": 38.925491666666666, "rental_uris": {"android": "https://dc.lft.to/lastmile_qr_scan", "ios": "https://dc.lft.to/lastmile_qr_scan"}, "fusion_lat": 0.0, "name": "091d73c600472a7aab64f1b86a9951d1", "bike_id": "091d73c600472a7aab64f1b86a9951d1"}, {"is_disabled": 0, "is_reserved": 0, "type": "electric_scooter", "lon": -77.03209483333333, "fusion_lon": 0.0, "lat": 38.91604783333333, "rental_uris": {"android": "https://dc.lft.to/lastmile_qr_scan", "ios": "https://dc.lft.to/lastmile_qr_scan"}, "fusion_lat": 0.0, "name": "f7db3f9d260f7682955dd15b5441e2f6", "bike_id": "f7db3f9d260f7682955dd15b5441e2f6"}, {"is_disabled": 0, "is_reserved": 0, "type": "electric_bike", "lon": -77.12509466666667, "fusion_lon": 0.0, "lat": 39.0243055, "rental_uris": {"android": "https://dc.lft.to/lastmile_qr_scan", "ios": "https://dc.lft.to/lastmile_qr_scan"}, "fusion_lat": 0.0, "name": "88d633df0d46e8140a754bf1cb47768e", "bike_id": "88d633df0d46e8140a754bf1cb47768e"}, {"is_disabled": 0, "is_reserved": 0, "type": "electric_scooter", "lon": -77.0279635, "fusion_lon": 0.0, "lat": 38.912506, "rental_uris": {"android": "https://dc.lft.to/lastmile_qr_scan", "ios": "https://dc.lft.to/lastmile_qr_scan"}, "fusion_lat": 0.0, "name": "1a42b216d39f1f8a4f1a7f5c766ff293", "bike_id": "1a42b216d39f1f8a4f1a7f5c766ff293"}, {"is_disabled": 0, "is_reserved": 0, "type": "electric_scooter", "lon": -77.0319675, "fusion_lon": 0.0, "lat": 38.912387, "rental_uris": {"android": "https://dc.lft.to/lastmile_qr_scan", "ios": "https://dc.lft.to/lastmile_qr_scan"}, "fusion_lat": 0.0, "name": "99c2e524501cf0d4b2162144bdcd39d2", "bike_id": "99c2e524501cf0d4b2162144bdcd39d2"}, {"is_disabled": 0, "is_reserved": 0, "type": "electric_scooter", "lon": -77.0282575, "fusion_lon": 0.0, "lat": 38.948378166666664, "rental_uris": {"android": "https://dc.lft.to/lastmile_qr_scan", "ios": "https://dc.lft.to/lastmile_qr_scan"}, "fusion_lat": 0.0, "name": "18cf6e5c99f24f6db8b5e4f8c34fa559", "bike_id": "18cf6e5c99f24f6db8b5e4f8c34fa559"}, {"is_disabled": 0, "is_reserved": 0, "type": "electric_scooter", "lon": -77.0366085, "fusion_lon": 0.0, "lat": 38.917313166666666, "rental_uris": {"android": "https://dc.lft.to/lastmile_qr_scan", "ios": "https://dc.lft.to/lastmile_qr_scan"}, "fusion_lat": 0.0, "name": "3fcb3d7c6aa75cbd324f8669cd104383", "bike_id": "3fcb3d7c6aa75cbd324f8669cd104383"}, {"is_disabled": 0, "is_reserved": 0, "type": "electric_scooter", "lon": -77.03959416666666, "fusion_lon": 0.0, "lat": 38.901955666666666, "rental_uris": {"android": "https://dc.lft.to/lastmile_qr_scan", "ios": "https://dc.lft.to/lastmile_qr_scan"}, "fusion_lat": 0.0, "name": "32ecd4b689994ed93247a069f7eb3187", "bike_id": "32ecd4b689994ed93247a069f7eb3187"}, {"is_disabled": 0, "is_reserved": 0, "type": "electric_scooter", "lon": -77.03634, "fusion_lon": 0.0, "lat": 38.91820033333333, "rental_uris": {"android": "https://dc.lft.to/lastmile_qr_scan", "ios": "https://dc.lft.to/lastmile_qr_scan"}, "fusion_lat": 0.0, "name": "1ec027817aa9c5a6d91b7fd5928221ff", "bike_id": "1ec027817aa9c5a6d91b7fd5928221ff"}, {"is_disabled": 0, "is_reserved": 0, "type": "electric_scooter", "lon": -76.938354, "fusion_lon": 0.0, "lat": 38.89015116666667, "rental_uris": {"android": "https://dc.lft.to/lastmile_qr_scan", "ios": "https://dc.lft.to/lastmile_qr_scan"}, "fusion_lat": 0.0, "name": "482f44d48216ce7d7e8e9abf0220d006", "bike_id": "482f44d48216ce7d7e8e9abf0220d006"}, {"is_disabled": 0, "is_reserved": 0, "type": "electric_scooter", "lon": -77.05137566666667, "fusion_lon": 0.0, "lat": 38.906191, "rental_uris": {"android": "https://dc.lft.to/lastmile_qr_scan", "ios": "https://dc.lft.to/lastmile_qr_scan"}, "fusion_lat": 0.0, "name": "3115c0868a0bfa39522505c463071d72", "bike_id": "3115c0868a0bfa39522505c463071d72"}, {"is_disabled": 0, "is_reserved": 0, "type": "electric_scooter", "lon": -77.05918183333333, "fusion_lon": 0.0, "lat": 38.93650216666666, "rental_uris": {"android": "https://dc.lft.to/lastmile_qr_scan", "ios": "https://dc.lft.to/lastmile_qr_scan"}, "fusion_lat": 0.0, "name": "d231e6ec77d2c062c90dc4e16b5f7124", "bike_id": "d231e6ec77d2c062c90dc4e16b5f7124"}, {"is_disabled": 0, "is_reserved": 0, "type": "electric_scooter", "lon": -76.994935, "fusion_lon": 0.0, "lat": 38.925773, "rental_uris": {"android": "https://dc.lft.to/lastmile_qr_scan", "ios": "https://dc.lft.to/lastmile_qr_scan"}, "fusion_lat": 0.0, "name": "5981692dc656e6b74d70ba748f9b7f98", "bike_id": "5981692dc656e6b74d70ba748f9b7f98"}, {"is_disabled": 0, "is_reserved": 0, "type": "electric_scooter", "lon": -77.00065583333334, "fusion_lon": 0.0, "lat": 38.89294116666667, "rental_uris": {"android": "https://dc.lft.to/lastmile_qr_scan", "ios": "https://dc.lft.to/lastmile_qr_scan"}, "fusion_lat": 0.0, "name": "64e52ba3354fdc57e14b3f7ab4be786f", "bike_id": "64e52ba3354fdc57e14b3f7ab4be786f"}, {"is_disabled": 0, "is_reserved": 0, "type": "electric_scooter", "lon": -77.072899, "fusion_lon": 0.0, "lat": 38.93196, "rental_uris": {"android": "https://dc.lft.to/lastmile_qr_scan", "ios": "https://dc.lft.to/lastmile_qr_scan"}, "fusion_lat": 0.0, "name": "bfd8f09f5456c86f2bb64c19022e1734", "bike_id": "bfd8f09f5456c86f2bb64c19022e1734"}, {"is_disabled": 0, "is_reserved": 0, "type": "electric_scooter", "lon": -77.040635, "fusion_lon": 0.0, "lat": 38.90514433333333, "rental_uris": {"android": "https://dc.lft.to/lastmile_qr_scan", "ios": "https://dc.lft.to/lastmile_qr_scan"}, "fusion_lat": 0.0, "name": "2584b8c25ea0a541b49a7a1b6442bad0", "bike_id": "2584b8c25ea0a541b49a7a1b6442bad0"}, {"is_disabled": 0, "is_reserved": 0, "type": "electric_scooter", "lon": -77.03394016666667, "fusion_lon": 0.0, "lat": 38.9206045, "rental_uris": {"android": "https://dc.lft.to/lastmile_qr_scan", "ios": "https://dc.lft.to/lastmile_qr_scan"}, "fusion_lat": 0.0, "name": "26d1445fc9a9702bfb2c19686d0536af", "bike_id": "26d1445fc9a9702bfb2c19686d0536af"}, {"is_disabled": 0, "is_reserved": 0, "type": "electric_scooter", "lon": -77.04861183333334, "fusion_lon": 0.0, "lat": 38.90439216666667, "rental_uris": {"android": "https://dc.lft.to/lastmile_qr_scan", "ios": "https://dc.lft.to/lastmile_qr_scan"}, "fusion_lat": 0.0, "name": "e0ea047331ceaf908039c153cd809f16", "bike_id": "e0ea047331ceaf908039c153cd809f16"}, {"is_disabled": 0, "is_reserved": 0, "type": "electric_scooter", "lon": -77.04487483333334, "fusion_lon": 0.0, "lat": 38.89747633333333, "rental_uris": {"android": "https://dc.lft.to/lastmile_qr_scan", "ios": "https://dc.lft.to/lastmile_qr_scan"}, "fusion_lat": 0.0, "name": "73586c70e4a4fb76f3324a9bb67d1059", "bike_id": "73586c70e4a4fb76f3324a9bb67d1059"}, {"is_disabled": 0, "is_reserved": 0, "type": "electric_scooter", "lon": -77.0295945, "fusion_lon": 0.0, "lat": 38.921458666666666, "rental_uris": {"android": "https://dc.lft.to/lastmile_qr_scan", "ios": "https://dc.lft.to/lastmile_qr_scan"}, "fusion_lat": 0.0, "name": "5c52606e8bee85e0bad3b9ea60de2c9a", "bike_id": "5c52606e8bee85e0bad3b9ea60de2c9a"}, {"is_disabled": 0, "is_reserved": 0, "type": "electric_scooter", "lon": -77.02492666666667, "fusion_lon": 0.0, "lat": 38.9418395, "rental_uris": {"android": "https://dc.lft.to/lastmile_qr_scan", "ios": "https://dc.lft.to/lastmile_qr_scan"}, "fusion_lat": 0.0, "name": "02d679cbd61487b3cf6e4991ee203e55", "bike_id": "02d679cbd61487b3cf6e4991ee203e55"}, {"is_disabled": 0, "is_reserved": 0, "type": "electric_scooter", "lon": -77.05853133333333, "fusion_lon": 0.0, "lat": 38.937046, "rental_uris": {"android": "https://dc.lft.to/lastmile_qr_scan", "ios": "https://dc.lft.to/lastmile_qr_scan"}, "fusion_lat": 0.0, "name": "123ae51e59a8fff7ec02c6ad0a89d81b", "bike_id": "123ae51e59a8fff7ec02c6ad0a89d81b"}, {"is_disabled": 0, "is_reserved": 0, "type": "electric_scooter", "lon": -77.04629183333333, "fusion_lon": 0.0, "lat": 38.9046965, "rental_uris": {"android": "https://dc.lft.to/lastmile_qr_scan", "ios": "https://dc.lft.to/lastmile_qr_scan"}, "fusion_lat": 0.0, "name": "ecc8d90bfc80f1c5d6f7de26a2ea9976", "bike_id": "ecc8d90bfc80f1c5d6f7de26a2ea9976"}, {"is_disabled": 0, "is_reserved": 0, "type": "electric_scooter", "lon": -77.04837, "fusion_lon": 0.0, "lat": 38.91610816666667, "rental_uris": {"android": "https://dc.lft.to/lastmile_qr_scan", "ios": "https://dc.lft.to/lastmile_qr_scan"}, "fusion_lat": 0.0, "name": "4d28074e4ad92705b864e1b82c55457d", "bike_id": "4d28074e4ad92705b864e1b82c55457d"}, {"is_disabled": 0, "is_reserved": 0, "type": "electric_scooter", "lon": -77.051138, "fusion_lon": 0.0, "lat": 38.92358983333333, "rental_uris": {"android": "https://dc.lft.to/lastmile_qr_scan", "ios": "https://dc.lft.to/lastmile_qr_scan"}, "fusion_lat": 0.0, "name": "9eaf29c7c019c651f7fc4ce8ca6cb110", "bike_id": "9eaf29c7c019c651f7fc4ce8ca6cb110"}, {"is_disabled": 0, "is_reserved": 0, "type": "electric_scooter", "lon": -76.99595933333333, "fusion_lon": 0.0, "lat": 38.88731666666666, "rental_uris": {"android": "https://dc.lft.to/lastmile_qr_scan", "ios": "https://dc.lft.to/lastmile_qr_scan"}, "fusion_lat": 0.0, "name": "37b81feb54dede02f3ad0655b7cf7316", "bike_id": "37b81feb54dede02f3ad0655b7cf7316"}, {"is_disabled": 0, "is_reserved": 0, "type": "electric_bike", "lon": -77.077958, "fusion_lon": 0.0, "lat": 38.84516216666667, "rental_uris": {"android": "https://dc.lft.to/lastmile_qr_scan", "ios": "https://dc.lft.to/lastmile_qr_scan"}, "fusion_lat": 0.0, "name": "1e785087272275d15e8a12d156e3cbf4", "bike_id": "1e785087272275d15e8a12d156e3cbf4"}, {"is_disabled": 0, "is_reserved": 0, "type": "electric_scooter", "lon": -77.02413283333334, "fusion_lon": 0.0, "lat": 38.915690833333336, "rental_uris": {"android": "https://dc.lft.to/lastmile_qr_scan", "ios": "https://dc.lft.to/lastmile_qr_scan"}, "fusion_lat": 0.0, "name": "6da3fc381a693d128c50bdc123040faa", "bike_id": "6da3fc381a693d128c50bdc123040faa"}, {"is_disabled": 0, "is_reserved": 0, "type": "electric_scooter", "lon": -76.9984945, "fusion_lon": 0.0, "lat": 38.902445, "rental_uris": {"android": "https://dc.lft.to/lastmile_qr_scan", "ios": "https://dc.lft.to/lastmile_qr_scan"}, "fusion_lat": 0.0, "name": "f9e1aa8b94718ba0ee073c797b78a592", "bike_id": "f9e1aa8b94718ba0ee073c797b78a592"}, {"is_disabled": 0, "is_reserved": 0, "type": "electric_scooter", "lon": -77.043624, "fusion_lon": 0.0, "lat": 38.920896166666665, "rental_uris": {"android": "https://dc.lft.to/lastmile_qr_scan", "ios": "https://dc.lft.to/lastmile_qr_scan"}, "fusion_lat": 0.0, "name": "3cac00814018e055bc8aee7116ae497f", "bike_id": "3cac00814018e055bc8aee7116ae497f"}, {"is_disabled": 0, "is_reserved": 0, "type": "electric_scooter", "lon": -77.02723066666667, "fusion_lon": 0.0, "lat": 38.940887000000004, "rental_uris": {"android": "https://dc.lft.to/lastmile_qr_scan", "ios": "https://dc.lft.to/lastmile_qr_scan"}, "fusion_lat": 0.0, "name": "4b2ca2694e683cd1cdf0928debfca4cd", "bike_id": "4b2ca2694e683cd1cdf0928debfca4cd"}, {"is_disabled": 0, "is_reserved": 0, "type": "electric_scooter", "lon": -77.04404183333334, "fusion_lon": 0.0, "lat": 38.900375833333335, "rental_uris": {"android": "https://dc.lft.to/lastmile_qr_scan", "ios": "https://dc.lft.to/lastmile_qr_scan"}, "fusion_lat": 0.0, "name": "b3529fb44c40a10bbe092c6ca026a623", "bike_id": "b3529fb44c40a10bbe092c6ca026a623"}, {"is_disabled": 0, "is_reserved": 0, "type": "electric_scooter", "lon": -77.041593, "fusion_lon": 0.0, "lat": 38.90145366666667, "rental_uris": {"android": "https://dc.lft.to/lastmile_qr_scan", "ios": "https://dc.lft.to/lastmile_qr_scan"}, "fusion_lat": 0.0, "name": "7042bfe1667f3106bbfee1ec9c777df3", "bike_id": "7042bfe1667f3106bbfee1ec9c777df3"}, {"is_disabled": 0, "is_reserved": 0, "type": "electric_scooter", "lon": -77.0221335, "fusion_lon": 0.0, "lat": 38.89846416666666, "rental_uris": {"android": "https://dc.lft.to/lastmile_qr_scan", "ios": "https://dc.lft.to/lastmile_qr_scan"}, "fusion_lat": 0.0, "name": "f7c977e473a4687f50f70505c4cf7cf7", "bike_id": "f7c977e473a4687f50f70505c4cf7cf7"}, {"is_disabled": 0, "is_reserved": 0, "type": "electric_bike", "lon": -77.12898883333334, "fusion_lon": 0.0, "lat": 38.863772833333336, "rental_uris": {"android": "https://dc.lft.to/lastmile_qr_scan", "ios": "https://dc.lft.to/lastmile_qr_scan"}, "fusion_lat": 0.0, "name": "b8f4c3aef1d7f3e0e76ff745ca39da4a", "bike_id": "b8f4c3aef1d7f3e0e76ff745ca39da4a"}, {"is_disabled": 0, "is_reserved": 0, "type": "electric_scooter", "lon": -77.0743395, "fusion_lon": 0.0, "lat": 38.911019833333334, "rental_uris": {"android": "https://dc.lft.to/lastmile_qr_scan", "ios": "https://dc.lft.to/lastmile_qr_scan"}, "fusion_lat": 0.0, "name": "db6aff720dd3725889a5f13b3a104924", "bike_id": "db6aff720dd3725889a5f13b3a104924"}, {"is_disabled": 0, "is_reserved": 0, "type": "electric_scooter", "lon": -77.02681383333334, "fusion_lon": 0.0, "lat": 38.90960616666667, "rental_uris": {"android": "https://dc.lft.to/lastmile_qr_scan", "ios": "https://dc.lft.to/lastmile_qr_scan"}, "fusion_lat": 0.0, "name": "1efb8ac46edad7d057e797436cd33505", "bike_id": "1efb8ac46edad7d057e797436cd33505"}, {"is_disabled": 0, "is_reserved": 0, "type": "electric_bike", "lon": -77.02098616666666, "fusion_lon": 0.0, "lat": 39.022964, "rental_uris": {"android": "https://dc.lft.to/lastmile_qr_scan", "ios": "https://dc.lft.to/lastmile_qr_scan"}, "fusion_lat": 0.0, "name": "b746aa59f099974d79f64a04c3d55b43", "bike_id": "b746aa59f099974d79f64a04c3d55b43"}, {"is_disabled": 0, "is_reserved": 0, "type": "electric_scooter", "lon": -77.00917083333333, "fusion_lon": 0.0, "lat": 38.959534, "rental_uris": {"android": "https://dc.lft.to/lastmile_qr_scan", "ios": "https://dc.lft.to/lastmile_qr_scan"}, "fusion_lat": 0.0, "name": "3597e87ca239048e0968c58ea8cea04f", "bike_id": "3597e87ca239048e0968c58ea8cea04f"}, {"is_disabled": 0, "is_reserved": 0, "type": "electric_scooter", "lon": -77.02482583333334, "fusion_lon": 0.0, "lat": 38.91690533333333, "rental_uris": {"android": "https://dc.lft.to/lastmile_qr_scan", "ios": "https://dc.lft.to/lastmile_qr_scan"}, "fusion_lat": 0.0, "name": "bea48fc8c9b024f6483daa942f06ed4a", "bike_id": "bea48fc8c9b024f6483daa942f06ed4a"}, {"is_disabled": 0, "is_reserved": 0, "type": "electric_scooter", "lon": -77.05861816666666, "fusion_lon": 0.0, "lat": 38.936099666666664, "rental_uris": {"android": "https://dc.lft.to/lastmile_qr_scan", "ios": "https://dc.lft.to/lastmile_qr_scan"}, "fusion_lat": 0.0, "name": "33ae61beb2cdaf8c2097443aecf34d1c", "bike_id": "33ae61beb2cdaf8c2097443aecf34d1c"}, {"is_disabled": 0, "is_reserved": 0, "type": "electric_scooter", "lon": -77.0337335, "fusion_lon": 0.0, "lat": 38.9286755, "rental_uris": {"android": "https://dc.lft.to/lastmile_qr_scan", "ios": "https://dc.lft.to/lastmile_qr_scan"}, "fusion_lat": 0.0, "name": "aa07ef994b8701400757c1e410cb2fe9", "bike_id": "aa07ef994b8701400757c1e410cb2fe9"}, {"is_disabled": 0, "is_reserved": 0, "type": "electric_scooter", "lon": -77.0161755, "fusion_lon": 0.0, "lat": 38.88748233333333, "rental_uris": {"android": "https://dc.lft.to/lastmile_qr_scan", "ios": "https://dc.lft.to/lastmile_qr_scan"}, "fusion_lat": 0.0, "name": "85c5321794eec554ebd4411c9b3065ed", "bike_id": "85c5321794eec554ebd4411c9b3065ed"}, {"is_disabled": 0, "is_reserved": 0, "type": "electric_bike", "lon": -77.04361666666667, "fusion_lon": 0.0, "lat": 38.8317925, "rental_uris": {"android": "https://dc.lft.to/lastmile_qr_scan", "ios": "https://dc.lft.to/lastmile_qr_scan"}, "fusion_lat": 0.0, "name": "f1370fa59dff81d0cd4861313328ce23", "bike_id": "f1370fa59dff81d0cd4861313328ce23"}, {"is_disabled": 0, "is_reserved": 0, "type": "electric_scooter", "lon": -77.02845566666667, "fusion_lon": 0.0, "lat": 38.922402, "rental_uris": {"android": "https://dc.lft.to/lastmile_qr_scan", "ios": "https://dc.lft.to/lastmile_qr_scan"}, "fusion_lat": 0.0, "name": "5d15649925adc7e1e154f413328fbc4b", "bike_id": "5d15649925adc7e1e154f413328fbc4b"}, {"is_disabled": 0, "is_reserved": 0, "type": "electric_scooter", "lon": -77.05322266666667, "fusion_lon": 0.0, "lat": 38.92780416666667, "rental_uris": {"android": "https://dc.lft.to/lastmile_qr_scan", "ios": "https://dc.lft.to/lastmile_qr_scan"}, "fusion_lat": 0.0, "name": "b34d3a24bb8358bdd186956bb97cf525", "bike_id": "b34d3a24bb8358bdd186956bb97cf525"}, {"is_disabled": 0, "is_reserved": 0, "type": "electric_scooter", "lon": -77.0243745, "fusion_lon": 0.0, "lat": 38.9187845, "rental_uris": {"android": "https://dc.lft.to/lastmile_qr_scan", "ios": "https://dc.lft.to/lastmile_qr_scan"}, "fusion_lat": 0.0, "name": "498b5f24d2d80fe4567c57acb00e97ee", "bike_id": "498b5f24d2d80fe4567c57acb00e97ee"}, {"is_disabled": 0, "is_reserved": 0, "type": "electric_scooter", "lon": -77.02225766666666, "fusion_lon": 0.0, "lat": 38.896192666666664, "rental_uris": {"android": "https://dc.lft.to/lastmile_qr_scan", "ios": "https://dc.lft.to/lastmile_qr_scan"}, "fusion_lat": 0.0, "name": "9b1ee6c1c501fb3a8523f68091b1860b", "bike_id": "9b1ee6c1c501fb3a8523f68091b1860b"}, {"is_disabled": 0, "is_reserved": 0, "type": "electric_scooter", "lon": -77.0053895, "fusion_lon": 0.0, "lat": 38.876454333333335, "rental_uris": {"android": "https://dc.lft.to/lastmile_qr_scan", "ios": "https://dc.lft.to/lastmile_qr_scan"}, "fusion_lat": 0.0, "name": "89c15850b86543d0f85cfe05f9e2a11f", "bike_id": "89c15850b86543d0f85cfe05f9e2a11f"}, {"is_disabled": 0, "is_reserved": 0, "type": "electric_scooter", "lon": -77.02495, "fusion_lon": 0.0, "lat": 38.918065, "rental_uris": {"android": "https://dc.lft.to/lastmile_qr_scan", "ios": "https://dc.lft.to/lastmile_qr_scan"}, "fusion_lat": 0.0, "name": "618d9be06d4981bdf1bf05cadffdfc8b", "bike_id": "618d9be06d4981bdf1bf05cadffdfc8b"}, {"is_disabled": 0, "is_reserved": 0, "type": "electric_bike", "lon": -76.98332783333333, "fusion_lon": 0.0, "lat": 38.966031, "rental_uris": {"android": "https://dc.lft.to/lastmile_qr_scan", "ios": "https://dc.lft.to/lastmile_qr_scan"}, "fusion_lat": 0.0, "name": "f92069f01167197c60fb136c6eebb020", "bike_id": "f92069f01167197c60fb136c6eebb020"}, {"is_disabled": 0, "is_reserved": 0, "type": "electric_scooter", "lon": -76.93370166666666, "fusion_lon": 0.0, "lat": 38.899657, "rental_uris": {"android": "https://dc.lft.to/lastmile_qr_scan", "ios": "https://dc.lft.to/lastmile_qr_scan"}, "fusion_lat": 0.0, "name": "9ae566553ba4dbeb9e677f3e47c1cfd6", "bike_id": "9ae566553ba4dbeb9e677f3e47c1cfd6"}, {"is_disabled": 0, "is_reserved": 0, "type": "electric_scooter", "lon": -77.02848133333333, "fusion_lon": 0.0, "lat": 38.916994333333335, "rental_uris": {"android": "https://dc.lft.to/lastmile_qr_scan", "ios": "https://dc.lft.to/lastmile_qr_scan"}, "fusion_lat": 0.0, "name": "021061ecc20c8ca1ed8e11dcbe2dedb7", "bike_id": "021061ecc20c8ca1ed8e11dcbe2dedb7"}, {"is_disabled": 0, "is_reserved": 0, "type": "electric_scooter", "lon": -77.0044335, "fusion_lon": 0.0, "lat": 38.91191933333333, "rental_uris": {"android": "https://dc.lft.to/lastmile_qr_scan", "ios": "https://dc.lft.to/lastmile_qr_scan"}, "fusion_lat": 0.0, "name": "929f7e9abec8946ac3b216756451527c", "bike_id": "929f7e9abec8946ac3b216756451527c"}, {"is_disabled": 0, "is_reserved": 0, "type": "electric_scooter", "lon": -77.0071125, "fusion_lon": 0.0, "lat": 38.884877333333336, "rental_uris": {"android": "https://dc.lft.to/lastmile_qr_scan", "ios": "https://dc.lft.to/lastmile_qr_scan"}, "fusion_lat": 0.0, "name": "99294eb79fd23b8f580839582efd311b", "bike_id": "99294eb79fd23b8f580839582efd311b"}, {"is_disabled": 0, "is_reserved": 0, "type": "electric_scooter", "lon": -76.99540966666666, "fusion_lon": 0.0, "lat": 38.862526833333334, "rental_uris": {"android": "https://dc.lft.to/lastmile_qr_scan", "ios": "https://dc.lft.to/lastmile_qr_scan"}, "fusion_lat": 0.0, "name": "cd6528878797e60c93d94441998eb119", "bike_id": "cd6528878797e60c93d94441998eb119"}, {"is_disabled": 0, "is_reserved": 0, "type": "electric_scooter", "lon": -77.04372216666667, "fusion_lon": 0.0, "lat": 38.902607833333334, "rental_uris": {"android": "https://dc.lft.to/lastmile_qr_scan", "ios": "https://dc.lft.to/lastmile_qr_scan"}, "fusion_lat": 0.0, "name": "23fa243fd79e6a0e0072483cfe04ab58", "bike_id": "23fa243fd79e6a0e0072483cfe04ab58"}, {"is_disabled": 0, "is_reserved": 0, "type": "electric_scooter", "lon": -77.039226, "fusion_lon": 0.0, "lat": 38.8995915, "rental_uris": {"android": "https://dc.lft.to/lastmile_qr_scan", "ios": "https://dc.lft.to/lastmile_qr_scan"}, "fusion_lat": 0.0, "name": "6aa9f291b3a0d29fc57abca60dbdce1b", "bike_id": "6aa9f291b3a0d29fc57abca60dbdce1b"}, {"is_disabled": 0, "is_reserved": 0, "type": "electric_bike", "lon": -77.03988666666666, "fusion_lon": 0.0, "lat": 38.802977166666665, "rental_uris": {"android": "https://dc.lft.to/lastmile_qr_scan", "ios": "https://dc.lft.to/lastmile_qr_scan"}, "fusion_lat": 0.0, "name": "5dfa01837b78d4bcc9efc6fe9c5c2f2f", "bike_id": "5dfa01837b78d4bcc9efc6fe9c5c2f2f"}, {"is_disabled": 0, "is_reserved": 0, "type": "electric_scooter", "lon": -76.97546766666666, "fusion_lon": 0.0, "lat": 38.914139, "rental_uris": {"android": "https://dc.lft.to/lastmile_qr_scan", "ios": "https://dc.lft.to/lastmile_qr_scan"}, "fusion_lat": 0.0, "name": "ee6db0fe70408a2b930eb269be948548", "bike_id": "ee6db0fe70408a2b930eb269be948548"}, {"is_disabled": 0, "is_reserved": 0, "type": "electric_scooter", "lon": -77.022994, "fusion_lon": 0.0, "lat": 38.92724333333334, "rental_uris": {"android": "https://dc.lft.to/lastmile_qr_scan", "ios": "https://dc.lft.to/lastmile_qr_scan"}, "fusion_lat": 0.0, "name": "6be13e105a290c3dac43ee778a27d46c", "bike_id": "6be13e105a290c3dac43ee778a27d46c"}, {"is_disabled": 0, "is_reserved": 0, "type": "electric_scooter", "lon": -77.01771783333334, "fusion_lon": 0.0, "lat": 38.8833105, "rental_uris": {"android": "https://dc.lft.to/lastmile_qr_scan", "ios": "https://dc.lft.to/lastmile_qr_scan"}, "fusion_lat": 0.0, "name": "a8cf7d7865a0cdde62c1be149a1975d5", "bike_id": "a8cf7d7865a0cdde62c1be149a1975d5"}, {"is_disabled": 0, "is_reserved": 0, "type": "electric_scooter", "lon": -77.01559583333334, "fusion_lon": 0.0, "lat": 38.872606833333336, "rental_uris": {"android": "https://dc.lft.to/lastmile_qr_scan", "ios": "https://dc.lft.to/lastmile_qr_scan"}, "fusion_lat": 0.0, "name": "8ab0f701fc697b340898572454dda9db", "bike_id": "8ab0f701fc697b340898572454dda9db"}, {"is_disabled": 0, "is_reserved": 0, "type": "electric_scooter", "lon": -77.0364985, "fusion_lon": 0.0, "lat": 38.936018, "rental_uris": {"android": "https://dc.lft.to/lastmile_qr_scan", "ios": "https://dc.lft.to/lastmile_qr_scan"}, "fusion_lat": 0.0, "name": "c35ad1f45aa700176ee36b0da1537c78", "bike_id": "c35ad1f45aa700176ee36b0da1537c78"}, {"is_disabled": 0, "is_reserved": 0, "type": "electric_scooter", "lon": -77.01110766666666, "fusion_lon": 0.0, "lat": 38.909672666666665, "rental_uris": {"android": "https://dc.lft.to/lastmile_qr_scan", "ios": "https://dc.lft.to/lastmile_qr_scan"}, "fusion_lat": 0.0, "name": "98a4a39468f37808fd1addec8c459400", "bike_id": "98a4a39468f37808fd1addec8c459400"}, {"is_disabled": 0, "is_reserved": 0, "type": "electric_scooter", "lon": -77.03671066666666, "fusion_lon": 0.0, "lat": 38.9111045, "rental_uris": {"android": "https://dc.lft.to/lastmile_qr_scan", "ios": "https://dc.lft.to/lastmile_qr_scan"}, "fusion_lat": 0.0, "name": "f61558b1de073cff3dfd8cc21014545b", "bike_id": "f61558b1de073cff3dfd8cc21014545b"}, {"is_disabled": 0, "is_reserved": 0, "type": "electric_scooter", "lon": -77.033709, "fusion_lon": 0.0, "lat": 38.9181555, "rental_uris": {"android": "https://dc.lft.to/lastmile_qr_scan", "ios": "https://dc.lft.to/lastmile_qr_scan"}, "fusion_lat": 0.0, "name": "b4d2e854e619ffeaf36628a27a117893", "bike_id": "b4d2e854e619ffeaf36628a27a117893"}, {"is_disabled": 0, "is_reserved": 0, "type": "electric_scooter", "lon": -76.98549833333334, "fusion_lon": 0.0, "lat": 38.9041825, "rental_uris": {"android": "https://dc.lft.to/lastmile_qr_scan", "ios": "https://dc.lft.to/lastmile_qr_scan"}, "fusion_lat": 0.0, "name": "76a9d9fd4cfebb4e3b8071e9a5a2a5b1", "bike_id": "76a9d9fd4cfebb4e3b8071e9a5a2a5b1"}, {"is_disabled": 0, "is_reserved": 0, "type": "electric_scooter", "lon": -77.02536783333333, "fusion_lon": 0.0, "lat": 38.94840833333333, "rental_uris": {"android": "https://dc.lft.to/lastmile_qr_scan", "ios": "https://dc.lft.to/lastmile_qr_scan"}, "fusion_lat": 0.0, "name": "032cfc0ab262bdef18b4d8a1a49d1c44", "bike_id": "032cfc0ab262bdef18b4d8a1a49d1c44"}, {"is_disabled": 0, "is_reserved": 0, "type": "electric_scooter", "lon": -76.93556533333333, "fusion_lon": 0.0, "lat": 38.90153316666667, "rental_uris": {"android": "https://dc.lft.to/lastmile_qr_scan", "ios": "https://dc.lft.to/lastmile_qr_scan"}, "fusion_lat": 0.0, "name": "1b40c0389cedb618accdec45af922905", "bike_id": "1b40c0389cedb618accdec45af922905"}, {"is_disabled": 0, "is_reserved": 0, "type": "electric_scooter", "lon": -77.0155835, "fusion_lon": 0.0, "lat": 38.91402716666666, "rental_uris": {"android": "https://dc.lft.to/lastmile_qr_scan", "ios": "https://dc.lft.to/lastmile_qr_scan"}, "fusion_lat": 0.0, "name": "841f8f2278f023a2c2a3f8d36a771c83", "bike_id": "841f8f2278f023a2c2a3f8d36a771c83"}, {"is_disabled": 0, "is_reserved": 0, "type": "electric_scooter", "lon": -76.99335866666667, "fusion_lon": 0.0, "lat": 38.8387835, "rental_uris": {"android": "https://dc.lft.to/lastmile_qr_scan", "ios": "https://dc.lft.to/lastmile_qr_scan"}, "fusion_lat": 0.0, "name": "7f01a3e9b0e8a6d8d26651110989754e", "bike_id": "7f01a3e9b0e8a6d8d26651110989754e"}, {"is_disabled": 0, "is_reserved": 0, "type": "electric_scooter", "lon": -77.02583266666667, "fusion_lon": 0.0, "lat": 38.94214566666667, "rental_uris": {"android": "https://dc.lft.to/lastmile_qr_scan", "ios": "https://dc.lft.to/lastmile_qr_scan"}, "fusion_lat": 0.0, "name": "645b3be0befaaeb5ec7687977a1a0016", "bike_id": "645b3be0befaaeb5ec7687977a1a0016"}, {"is_disabled": 0, "is_reserved": 0, "type": "electric_bike", "lon": -76.94778233333334, "fusion_lon": 0.0, "lat": 38.89633666666667, "rental_uris": {"android": "https://dc.lft.to/lastmile_qr_scan", "ios": "https://dc.lft.to/lastmile_qr_scan"}, "fusion_lat": 0.0, "name": "14133b814fa6e4e2ec7adc283f4cb497", "bike_id": "14133b814fa6e4e2ec7adc283f4cb497"}, {"is_disabled": 0, "is_reserved": 0, "type": "electric_scooter", "lon": -77.02282316666667, "fusion_lon": 0.0, "lat": 38.90915416666667, "rental_uris": {"android": "https://dc.lft.to/lastmile_qr_scan", "ios": "https://dc.lft.to/lastmile_qr_scan"}, "fusion_lat": 0.0, "name": "ab13815b109c818d2655b1a1ad5410b0", "bike_id": "ab13815b109c818d2655b1a1ad5410b0"}, {"is_disabled": 0, "is_reserved": 0, "type": "electric_scooter", "lon": -77.02586583333333, "fusion_lon": 0.0, "lat": 38.920366333333334, "rental_uris": {"android": "https://dc.lft.to/lastmile_qr_scan", "ios": "https://dc.lft.to/lastmile_qr_scan"}, "fusion_lat": 0.0, "name": "6715bf731ee19f4497cb3a6915bf8808", "bike_id": "6715bf731ee19f4497cb3a6915bf8808"}, {"is_disabled": 0, "is_reserved": 0, "type": "electric_scooter", "lon": -77.05119966666666, "fusion_lon": 0.0, "lat": 38.90640066666667, "rental_uris": {"android": "https://dc.lft.to/lastmile_qr_scan", "ios": "https://dc.lft.to/lastmile_qr_scan"}, "fusion_lat": 0.0, "name": "14c65c81bddeffe6ae5c64571bfbc7f8", "bike_id": "14c65c81bddeffe6ae5c64571bfbc7f8"}, {"is_disabled": 0, "is_reserved": 0, "type": "electric_scooter", "lon": -76.9845785, "fusion_lon": 0.0, "lat": 38.893658333333335, "rental_uris": {"android": "https://dc.lft.to/lastmile_qr_scan", "ios": "https://dc.lft.to/lastmile_qr_scan"}, "fusion_lat": 0.0, "name": "025473dd03cd10f4c77cab017d4ce7ec", "bike_id": "025473dd03cd10f4c77cab017d4ce7ec"}, {"is_disabled": 0, "is_reserved": 0, "type": "electric_scooter", "lon": -77.01202633333334, "fusion_lon": 0.0, "lat": 38.9274105, "rental_uris": {"android": "https://dc.lft.to/lastmile_qr_scan", "ios": "https://dc.lft.to/lastmile_qr_scan"}, "fusion_lat": 0.0, "name": "132a0c05b90f211d7608a6a413208891", "bike_id": "132a0c05b90f211d7608a6a413208891"}, {"is_disabled": 0, "is_reserved": 0, "type": "electric_scooter", "lon": -77.03381266666666, "fusion_lon": 0.0, "lat": 38.902727666666664, "rental_uris": {"android": "https://dc.lft.to/lastmile_qr_scan", "ios": "https://dc.lft.to/lastmile_qr_scan"}, "fusion_lat": 0.0, "name": "23ea9778062de94a2bac9226b9ccfb3c", "bike_id": "23ea9778062de94a2bac9226b9ccfb3c"}, {"is_disabled": 0, "is_reserved": 0, "type": "electric_scooter", "lon": -77.03215183333333, "fusion_lon": 0.0, "lat": 38.924918, "rental_uris": {"android": "https://dc.lft.to/lastmile_qr_scan", "ios": "https://dc.lft.to/lastmile_qr_scan"}, "fusion_lat": 0.0, "name": "82f205dd6f2be9ed437ed1bb085755da", "bike_id": "82f205dd6f2be9ed437ed1bb085755da"}, {"is_disabled": 0, "is_reserved": 0, "type": "electric_scooter", "lon": -77.02314983333333, "fusion_lon": 0.0, "lat": 38.91789683333333, "rental_uris": {"android": "https://dc.lft.to/lastmile_qr_scan", "ios": "https://dc.lft.to/lastmile_qr_scan"}, "fusion_lat": 0.0, "name": "18998b5a36409bded71d0d641a7b96cc", "bike_id": "18998b5a36409bded71d0d641a7b96cc"}, {"is_disabled": 0, "is_reserved": 0, "type": "electric_scooter", "lon": -77.050017, "fusion_lon": 0.0, "lat": 38.9052705, "rental_uris": {"android": "https://dc.lft.to/lastmile_qr_scan", "ios": "https://dc.lft.to/lastmile_qr_scan"}, "fusion_lat": 0.0, "name": "002eb485f1e09a59eb359f40dd29c432", "bike_id": "002eb485f1e09a59eb359f40dd29c432"}, {"is_disabled": 0, "is_reserved": 0, "type": "electric_scooter", "lon": -77.00204066666667, "fusion_lon": 0.0, "lat": 38.9028235, "rental_uris": {"android": "https://dc.lft.to/lastmile_qr_scan", "ios": "https://dc.lft.to/lastmile_qr_scan"}, "fusion_lat": 0.0, "name": "6c29dfea0d85a99389b782094cd473b0", "bike_id": "6c29dfea0d85a99389b782094cd473b0"}, {"is_disabled": 0, "is_reserved": 0, "type": "electric_scooter", "lon": -77.10029183333333, "fusion_lon": 0.0, "lat": 38.949302333333335, "rental_uris": {"android": "https://dc.lft.to/lastmile_qr_scan", "ios": "https://dc.lft.to/lastmile_qr_scan"}, "fusion_lat": 0.0, "name": "44b0a900570850c425bfa2b5f93a86d0", "bike_id": "44b0a900570850c425bfa2b5f93a86d0"}, {"is_disabled": 0, "is_reserved": 0, "type": "electric_scooter", "lon": -77.03213116666667, "fusion_lon": 0.0, "lat": 38.92580316666667, "rental_uris": {"android": "https://dc.lft.to/lastmile_qr_scan", "ios": "https://dc.lft.to/lastmile_qr_scan"}, "fusion_lat": 0.0, "name": "9a6fc97bee1cbebbbcba8336854b962f", "bike_id": "9a6fc97bee1cbebbbcba8336854b962f"}, {"is_disabled": 0, "is_reserved": 0, "type": "electric_scooter", "lon": -77.04378316666667, "fusion_lon": 0.0, "lat": 38.925689166666665, "rental_uris": {"android": "https://dc.lft.to/lastmile_qr_scan", "ios": "https://dc.lft.to/lastmile_qr_scan"}, "fusion_lat": 0.0, "name": "167d1b0f84d36815907dba857a4dc3fb", "bike_id": "167d1b0f84d36815907dba857a4dc3fb"}, {"is_disabled": 0, "is_reserved": 0, "type": "electric_scooter", "lon": -77.0635, "fusion_lon": 0.0, "lat": 38.944396166666664, "rental_uris": {"android": "https://dc.lft.to/lastmile_qr_scan", "ios": "https://dc.lft.to/lastmile_qr_scan"}, "fusion_lat": 0.0, "name": "b1e214f52dc8f2bc3ff9fb9b74ff70ee", "bike_id": "b1e214f52dc8f2bc3ff9fb9b74ff70ee"}, {"is_disabled": 0, "is_reserved": 0, "type": "electric_bike", "lon": -77.1143075, "fusion_lon": 0.0, "lat": 38.85247616666667, "rental_uris": {"android": "https://dc.lft.to/lastmile_qr_scan", "ios": "https://dc.lft.to/lastmile_qr_scan"}, "fusion_lat": 0.0, "name": "ce0751b63a9fdae9da10c1a4c7468fd5", "bike_id": "ce0751b63a9fdae9da10c1a4c7468fd5"}, {"is_disabled": 0, "is_reserved": 0, "type": "electric_scooter", "lon": -77.01667633333334, "fusion_lon": 0.0, "lat": 38.88117583333333, "rental_uris": {"android": "https://dc.lft.to/lastmile_qr_scan", "ios": "https://dc.lft.to/lastmile_qr_scan"}, "fusion_lat": 0.0, "name": "09f9cf0f637f83f0094c260094b4c807", "bike_id": "09f9cf0f637f83f0094c260094b4c807"}, {"is_disabled": 0, "is_reserved": 0, "type": "electric_scooter", "lon": -77.02196966666666, "fusion_lon": 0.0, "lat": 38.922295166666665, "rental_uris": {"android": "https://dc.lft.to/lastmile_qr_scan", "ios": "https://dc.lft.to/lastmile_qr_scan"}, "fusion_lat": 0.0, "name": "3498debb66cb2cfbafec717209a44120", "bike_id": "3498debb66cb2cfbafec717209a44120"}, {"is_disabled": 0, "is_reserved": 0, "type": "electric_scooter", "lon": -77.01886166666667, "fusion_lon": 0.0, "lat": 38.946429, "rental_uris": {"android": "https://dc.lft.to/lastmile_qr_scan", "ios": "https://dc.lft.to/lastmile_qr_scan"}, "fusion_lat": 0.0, "name": "c0999dc1ed936ec2e937c6b582eba39b", "bike_id": "c0999dc1ed936ec2e937c6b582eba39b"}, {"is_disabled": 0, "is_reserved": 0, "type": "electric_scooter", "lon": -77.0072305, "fusion_lon": 0.0, "lat": 38.876859, "rental_uris": {"android": "https://dc.lft.to/lastmile_qr_scan", "ios": "https://dc.lft.to/lastmile_qr_scan"}, "fusion_lat": 0.0, "name": "defdc9a9b5ded626264064c968742f13", "bike_id": "defdc9a9b5ded626264064c968742f13"}, {"is_disabled": 0, "is_reserved": 0, "type": "electric_scooter", "lon": -76.9895065, "fusion_lon": 0.0, "lat": 38.8440755, "rental_uris": {"android": "https://dc.lft.to/lastmile_qr_scan", "ios": "https://dc.lft.to/lastmile_qr_scan"}, "fusion_lat": 0.0, "name": "3d2e6c608d621ec5d8114dbc31d07512", "bike_id": "3d2e6c608d621ec5d8114dbc31d07512"}, {"is_disabled": 0, "is_reserved": 0, "type": "electric_scooter", "lon": -77.00917166666666, "fusion_lon": 0.0, "lat": 38.8983595, "rental_uris": {"android": "https://dc.lft.to/lastmile_qr_scan", "ios": "https://dc.lft.to/lastmile_qr_scan"}, "fusion_lat": 0.0, "name": "829f3dda23d951b37b08814fcc51aa45", "bike_id": "829f3dda23d951b37b08814fcc51aa45"}, {"is_disabled": 0, "is_reserved": 0, "type": "electric_scooter", "lon": -77.02392166666667, "fusion_lon": 0.0, "lat": 38.920770833333336, "rental_uris": {"android": "https://dc.lft.to/lastmile_qr_scan", "ios": "https://dc.lft.to/lastmile_qr_scan"}, "fusion_lat": 0.0, "name": "118829448dcf3e43dadbf3d4d522bc0f", "bike_id": "118829448dcf3e43dadbf3d4d522bc0f"}, {"is_disabled": 0, "is_reserved": 0, "type": "electric_scooter", "lon": -77.046026, "fusion_lon": 0.0, "lat": 38.905825666666665, "rental_uris": {"android": "https://dc.lft.to/lastmile_qr_scan", "ios": "https://dc.lft.to/lastmile_qr_scan"}, "fusion_lat": 0.0, "name": "dbdbb07b4b19c0a6492a8eb7c3b81885", "bike_id": "dbdbb07b4b19c0a6492a8eb7c3b81885"}, {"is_disabled": 0, "is_reserved": 0, "type": "electric_scooter", "lon": -76.98254933333334, "fusion_lon": 0.0, "lat": 38.86357733333333, "rental_uris": {"android": "https://dc.lft.to/lastmile_qr_scan", "ios": "https://dc.lft.to/lastmile_qr_scan"}, "fusion_lat": 0.0, "name": "890c8c339597dc9ad12fba27a3f0420b", "bike_id": "890c8c339597dc9ad12fba27a3f0420b"}, {"is_disabled": 0, "is_reserved": 0, "type": "electric_scooter", "lon": -77.038532, "fusion_lon": 0.0, "lat": 38.9184005, "rental_uris": {"android": "https://dc.lft.to/lastmile_qr_scan", "ios": "https://dc.lft.to/lastmile_qr_scan"}, "fusion_lat": 0.0, "name": "5c5fd68c3c43944abea74185471fe1c3", "bike_id": "5c5fd68c3c43944abea74185471fe1c3"}, {"is_disabled": 0, "is_reserved": 0, "type": "electric_scooter", "lon": -77.02695766666666, "fusion_lon": 0.0, "lat": 38.9047535, "rental_uris": {"android": "https://dc.lft.to/lastmile_qr_scan", "ios": "https://dc.lft.to/lastmile_qr_scan"}, "fusion_lat": 0.0, "name": "c4d44a4274ddebdd6a8bad04407df2b9", "bike_id": "c4d44a4274ddebdd6a8bad04407df2b9"}, {"is_disabled": 0, "is_reserved": 0, "type": "electric_scooter", "lon": -77.0281665, "fusion_lon": 0.0, "lat": 38.9104975, "rental_uris": {"android": "https://dc.lft.to/lastmile_qr_scan", "ios": "https://dc.lft.to/lastmile_qr_scan"}, "fusion_lat": 0.0, "name": "e696c17cd50db7c5e9901eda56526c6f", "bike_id": "e696c17cd50db7c5e9901eda56526c6f"}, {"is_disabled": 0, "is_reserved": 0, "type": "electric_scooter", "lon": -77.01621316666666, "fusion_lon": 0.0, "lat": 38.895421, "rental_uris": {"android": "https://dc.lft.to/lastmile_qr_scan", "ios": "https://dc.lft.to/lastmile_qr_scan"}, "fusion_lat": 0.0, "name": "a0767cdd3961cf69ccaa6c41a08b5c26", "bike_id": "a0767cdd3961cf69ccaa6c41a08b5c26"}, {"is_disabled": 0, "is_reserved": 0, "type": "electric_bike", "lon": -77.131803, "fusion_lon": 0.0, "lat": 38.869102166666664, "rental_uris": {"android": "https://dc.lft.to/lastmile_qr_scan", "ios": "https://dc.lft.to/lastmile_qr_scan"}, "fusion_lat": 0.0, "name": "dc219a675a81a04d87889332b009ecf2", "bike_id": "dc219a675a81a04d87889332b009ecf2"}, {"is_disabled": 0, "is_reserved": 0, "type": "electric_scooter", "lon": -77.03168733333334, "fusion_lon": 0.0, "lat": 38.9110855, "rental_uris": {"android": "https://dc.lft.to/lastmile_qr_scan", "ios": "https://dc.lft.to/lastmile_qr_scan"}, "fusion_lat": 0.0, "name": "dfac88d3c3e5b020d191acf5c7c7d22c", "bike_id": "dfac88d3c3e5b020d191acf5c7c7d22c"}, {"is_disabled": 0, "is_reserved": 0, "type": "electric_scooter", "lon": -76.99576683333333, "fusion_lon": 0.0, "lat": 38.8775775, "rental_uris": {"android": "https://dc.lft.to/lastmile_qr_scan", "ios": "https://dc.lft.to/lastmile_qr_scan"}, "fusion_lat": 0.0, "name": "66ac7f1e3a9b561e5d3e2df50288657e", "bike_id": "66ac7f1e3a9b561e5d3e2df50288657e"}, {"is_disabled": 0, "is_reserved": 0, "type": "electric_scooter", "lon": -76.98478, "fusion_lon": 0.0, "lat": 38.928972333333334, "rental_uris": {"android": "https://dc.lft.to/lastmile_qr_scan", "ios": "https://dc.lft.to/lastmile_qr_scan"}, "fusion_lat": 0.0, "name": "141529c748626f50531e05d352ac35e9", "bike_id": "141529c748626f50531e05d352ac35e9"}, {"is_disabled": 0, "is_reserved": 0, "type": "electric_scooter", "lon": -77.04686216666667, "fusion_lon": 0.0, "lat": 38.902949, "rental_uris": {"android": "https://dc.lft.to/lastmile_qr_scan", "ios": "https://dc.lft.to/lastmile_qr_scan"}, "fusion_lat": 0.0, "name": "41f7650b74027a10ae48baf89a4be704", "bike_id": "41f7650b74027a10ae48baf89a4be704"}, {"is_disabled": 0, "is_reserved": 0, "type": "electric_scooter", "lon": -76.946326, "fusion_lon": 0.0, "lat": 38.8983165, "rental_uris": {"android": "https://dc.lft.to/lastmile_qr_scan", "ios": "https://dc.lft.to/lastmile_qr_scan"}, "fusion_lat": 0.0, "name": "1c92dc687df62d3f8662c5815dbad527", "bike_id": "1c92dc687df62d3f8662c5815dbad527"}, {"is_disabled": 0, "is_reserved": 0, "type": "electric_bike", "lon": -77.0267315, "fusion_lon": 0.0, "lat": 38.981975, "rental_uris": {"android": "https://dc.lft.to/lastmile_qr_scan", "ios": "https://dc.lft.to/lastmile_qr_scan"}, "fusion_lat": 0.0, "name": "37c384a0893feaa53151f63a58f190bd", "bike_id": "37c384a0893feaa53151f63a58f190bd"}, {"is_disabled": 0, "is_reserved": 0, "type": "electric_scooter", "lon": -77.02774283333333, "fusion_lon": 0.0, "lat": 38.88158983333334, "rental_uris": {"android": "https://dc.lft.to/lastmile_qr_scan", "ios": "https://dc.lft.to/lastmile_qr_scan"}, "fusion_lat": 0.0, "name": "a52a33f142b8b9bd10a38dad5b3b1416", "bike_id": "a52a33f142b8b9bd10a38dad5b3b1416"}, {"is_disabled": 0, "is_reserved": 0, "type": "electric_scooter", "lon": -77.012109, "fusion_lon": 0.0, "lat": 38.870912833333335, "rental_uris": {"android": "https://dc.lft.to/lastmile_qr_scan", "ios": "https://dc.lft.to/lastmile_qr_scan"}, "fusion_lat": 0.0, "name": "9b01cf8d8f08cca922fedb3ddbc1cf74", "bike_id": "9b01cf8d8f08cca922fedb3ddbc1cf74"}, {"is_disabled": 0, "is_reserved": 0, "type": "electric_scooter", "lon": -77.02794366666667, "fusion_lon": 0.0, "lat": 38.90613233333333, "rental_uris": {"android": "https://dc.lft.to/lastmile_qr_scan", "ios": "https://dc.lft.to/lastmile_qr_scan"}, "fusion_lat": 0.0, "name": "f5932769d535cd506130023f7a2d53e9", "bike_id": "f5932769d535cd506130023f7a2d53e9"}, {"is_disabled": 0, "is_reserved": 0, "type": "electric_scooter", "lon": -77.03382816666667, "fusion_lon": 0.0, "lat": 38.92536333333334, "rental_uris": {"android": "https://dc.lft.to/lastmile_qr_scan", "ios": "https://dc.lft.to/lastmile_qr_scan"}, "fusion_lat": 0.0, "name": "701bd3249bd530a5f5c81afacf8e0afb", "bike_id": "701bd3249bd530a5f5c81afacf8e0afb"}, {"is_disabled": 0, "is_reserved": 0, "type": "electric_scooter", "lon": -77.03287883333333, "fusion_lon": 0.0, "lat": 38.919241, "rental_uris": {"android": "https://dc.lft.to/lastmile_qr_scan", "ios": "https://dc.lft.to/lastmile_qr_scan"}, "fusion_lat": 0.0, "name": "2a50612e372320400fd3277a69001393", "bike_id": "2a50612e372320400fd3277a69001393"}, {"is_disabled": 0, "is_reserved": 0, "type": "electric_scooter", "lon": -77.02625366666666, "fusion_lon": 0.0, "lat": 38.887467666666666, "rental_uris": {"android": "https://dc.lft.to/lastmile_qr_scan", "ios": "https://dc.lft.to/lastmile_qr_scan"}, "fusion_lat": 0.0, "name": "f720fad14c07ce4e57e1280b04fe7206", "bike_id": "f720fad14c07ce4e57e1280b04fe7206"}, {"is_disabled": 0, "is_reserved": 0, "type": "electric_scooter", "lon": -77.03181783333333, "fusion_lon": 0.0, "lat": 38.91918583333333, "rental_uris": {"android": "https://dc.lft.to/lastmile_qr_scan", "ios": "https://dc.lft.to/lastmile_qr_scan"}, "fusion_lat": 0.0, "name": "e56fc3918a4d24b4e29220a818544c0d", "bike_id": "e56fc3918a4d24b4e29220a818544c0d"}, {"is_disabled": 0, "is_reserved": 0, "type": "electric_scooter", "lon": -77.0381395, "fusion_lon": 0.0, "lat": 38.919711, "rental_uris": {"android": "https://dc.lft.to/lastmile_qr_scan", "ios": "https://dc.lft.to/lastmile_qr_scan"}, "fusion_lat": 0.0, "name": "6f898df0fc76bf703236f657f8f1dfa3", "bike_id": "6f898df0fc76bf703236f657f8f1dfa3"}, {"is_disabled": 0, "is_reserved": 0, "type": "electric_scooter", "lon": -77.0178975, "fusion_lon": 0.0, "lat": 38.90276016666667, "rental_uris": {"android": "https://dc.lft.to/lastmile_qr_scan", "ios": "https://dc.lft.to/lastmile_qr_scan"}, "fusion_lat": 0.0, "name": "e6a0ab38b29d59ac50313b5360c64bd3", "bike_id": "e6a0ab38b29d59ac50313b5360c64bd3"}, {"is_disabled": 0, "is_reserved": 0, "type": "electric_scooter", "lon": -77.03413216666667, "fusion_lon": 0.0, "lat": 38.92945316666667, "rental_uris": {"android": "https://dc.lft.to/lastmile_qr_scan", "ios": "https://dc.lft.to/lastmile_qr_scan"}, "fusion_lat": 0.0, "name": "4da9145881be46c9a850386a796f41de", "bike_id": "4da9145881be46c9a850386a796f41de"}, {"is_disabled": 0, "is_reserved": 0, "type": "electric_scooter", "lon": -76.99680316666667, "fusion_lon": 0.0, "lat": 38.90830483333333, "rental_uris": {"android": "https://dc.lft.to/lastmile_qr_scan", "ios": "https://dc.lft.to/lastmile_qr_scan"}, "fusion_lat": 0.0, "name": "0ce5ed13da9d094158bdfaec843d29ac", "bike_id": "0ce5ed13da9d094158bdfaec843d29ac"}, {"is_disabled": 0, "is_reserved": 0, "type": "electric_scooter", "lon": -77.02413983333334, "fusion_lon": 0.0, "lat": 38.919200000000004, "rental_uris": {"android": "https://dc.lft.to/lastmile_qr_scan", "ios": "https://dc.lft.to/lastmile_qr_scan"}, "fusion_lat": 0.0, "name": "754d5539904ca62dcfaf9013f320c3b4", "bike_id": "754d5539904ca62dcfaf9013f320c3b4"}, {"is_disabled": 0, "is_reserved": 0, "type": "electric_scooter", "lon": -77.0723795, "fusion_lon": 0.0, "lat": 38.939578166666664, "rental_uris": {"android": "https://dc.lft.to/lastmile_qr_scan", "ios": "https://dc.lft.to/lastmile_qr_scan"}, "fusion_lat": 0.0, "name": "77d487fbb2e503312aae619eadbc9724", "bike_id": "77d487fbb2e503312aae619eadbc9724"}, {"is_disabled": 0, "is_reserved": 0, "type": "electric_bike", "lon": -77.07899683333333, "fusion_lon": 0.0, "lat": 38.839278166666666, "rental_uris": {"android": "https://dc.lft.to/lastmile_qr_scan", "ios": "https://dc.lft.to/lastmile_qr_scan"}, "fusion_lat": 0.0, "name": "ec2c5104161037188fec64f799669510", "bike_id": "ec2c5104161037188fec64f799669510"}, {"is_disabled": 0, "is_reserved": 0, "type": "electric_scooter", "lon": -77.02946866666667, "fusion_lon": 0.0, "lat": 38.898145, "rental_uris": {"android": "https://dc.lft.to/lastmile_qr_scan", "ios": "https://dc.lft.to/lastmile_qr_scan"}, "fusion_lat": 0.0, "name": "458199038022b69ffdf9eea82e72be02", "bike_id": "458199038022b69ffdf9eea82e72be02"}, {"is_disabled": 0, "is_reserved": 0, "type": "electric_bike", "lon": -77.06173716666666, "fusion_lon": 0.0, "lat": 38.812757166666664, "rental_uris": {"android": "https://dc.lft.to/lastmile_qr_scan", "ios": "https://dc.lft.to/lastmile_qr_scan"}, "fusion_lat": 0.0, "name": "d5f6e285c4d14827101922326632180d", "bike_id": "d5f6e285c4d14827101922326632180d"}, {"is_disabled": 0, "is_reserved": 0, "type": "electric_scooter", "lon": -77.02405583333334, "fusion_lon": 0.0, "lat": 38.916827833333336, "rental_uris": {"android": "https://dc.lft.to/lastmile_qr_scan", "ios": "https://dc.lft.to/lastmile_qr_scan"}, "fusion_lat": 0.0, "name": "07961b7114a878bcbe41b0507c42b295", "bike_id": "07961b7114a878bcbe41b0507c42b295"},