{"data": {"bikes": [{"rental_uris": {"ios": "https://dc.lft.to/lastmile_qr_scan", "android": "https://dc.lft.to/lastmile_qr_scan"}, "lon": -77.006773, "type": "electric_bike", "fusion_lat": 0.0, "lat": 38.945175666666664, "name": "81be06c8314f77d3857d6fd03e29754a", "fusion_lon": 0.0, "bike_id": "81be06c8314f77d3857d6fd03e29754a", "is_disabled": 0, "is_reserved": 0}, {"rental_uris": {"ios": "https://dc.lft.to/lastmile_qr_scan", "android": "https://dc.lft.to/lastmile_qr_scan"}, "lon": -77.03911766666667, "type": "electric_scooter", "fusion_lat": 0.0, "lat": 38.918402, "name": "2ab3489dcfcced9063bcc2e64f2e220a", "fusion_lon": 0.0, "bike_id": "2ab3489dcfcced9063bcc2e64f2e220a", "is_disabled": 0, "is_reserved": 0}, {"rental_uris": {"ios": "https://dc.lft.to/lastmile_qr_scan", "android": "https://dc.lft.to/lastmile_qr_scan"}, "lon": -77.06951733333334, "type": "electric_bike", "fusion_lat": 0.0, "lat": 38.9904095, "name": "935136d0fff8b50dd98c736135fd388a", "fusion_lon": 0.0, "bike_id": "935136d0fff8b50dd98c736135fd388a", "is_disabled": 0, "is_reserved": 0}, {"rental_uris": {"ios": "https://dc.lft.to/lastmile_qr_scan", "android": "https://dc.lft.to/lastmile_qr_scan"}, "lon": -77.03572116666666, "type": "electric_scooter", "fusion_lat": 0.0, "lat": 38.918159333333335, "name": "b1b0769afbf379fbb3e770e2ef968e45", "fusion_lon": 0.0, "bike_id": "b1b0769afbf379fbb3e770e2ef968e45", "is_disabled": 0, "is_reserved": 0}, {"rental_uris": {"ios": "https://dc.lft.to/lastmile_qr_scan", "android": "https://dc.lft.to/lastmile_qr_scan"}, "lon": -77.03286183333333, "type": "electric_scooter", "fusion_lat": 0.0, "lat": 38.937694666666665, "name": "5ee73efdde4d1c5beda82eaf78481c46", "fusion_lon": 0.0, "bike_id": "5ee73efdde4d1c5beda82eaf78481c46", "is_disabled": 0, "is_reserved": 0}, {"rental_uris": {"ios": "https://dc.lft.to/lastmile_qr_scan", "android": "https://dc.lft.to/lastmile_qr_scan"}, "lon": -77.00710416666666, "type": "electric_scooter", "fusion_lat": 0.0, "lat": 38.884888833333335, "name": "58b3640dccfe3e6f6baac4d2e1b98eb9", "fusion_lon": 0.0, "bike_id": "58b3640dccfe3e6f6baac4d2e1b98eb9", "is_disabled": 0, "is_reserved": 0}, {"rental_uris": {"ios": "https://dc.lft.to/lastmile_qr_scan", "android": "https://dc.lft.to/lastmile_qr_scan"}, "lon": -77.03349733333333, "type": "electric_scooter", "fusion_lat": 0.0, "lat": 38.892514, "name": "a384651e0a62cdbbc4e2bd730259cede", "fusion_lon": 0.0, "bike_id": "a384651e0a62cdbbc4e2bd730259cede", "is_disabled": 0, "is_reserved": 0}, {"rental_uris": {"ios": "https://dc.lft.to/lastmile_qr_scan", "android": "https://dc.lft.to/lastmile_qr_scan"}, "lon": -77.05885483333333, "type": "electric_scooter", "fusion_lat": 0.0, "lat": 38.936324666666664, "name": "361c5f11d00b178ee4fef2d38b89760a", "fusion_lon": 0.0, "bike_id": "361c5f11d00b178ee4fef2d38b89760a", "is_disabled": 0, "is_reserved": 0}, {"rental_uris": {"ios": "https://dc.lft.to/lastmile_qr_scan", "android": "https://dc.lft.to/lastmile_qr_scan"}, "lon": -77.0306975, "type": "electric_scooter", "fusion_lat": 0.0, "lat": 38.90263983333333, "name": "60346b012f0a634a7053489b599a139a", "fusion_lon": 0.0, "bike_id": "60346b012f0a634a7053489b599a139a", "is_disabled": 0, "is_reserved": 0}, {"rental_uris": {"ios": "https://dc.lft.to/lastmile_qr_scan", "android": "https://dc.lft.to/lastmile_qr_scan"}, "lon": -77.00202733333333, "type": "electric_scooter", "fusion_lat": 0.0, "lat": 38.9005475, "name": "2b29d5d626e3eb585e992022c8ae8eb5", "fusion_lon": 0.0, "bike_id": "2b29d5d626e3eb585e992022c8ae8eb5", "is_disabled": 0, "is_reserved": 0}, {"rental_uris": {"ios": "https://dc.lft.to/lastmile_qr_scan", "android": "https://dc.lft.to/lastmile_qr_scan"}, "lon": -77.025879, "type": "electric_scooter", "fusion_lat": 0.0, "lat": 38.920347166666666, "name": "8aad8644471cd1da08c3bb207708c0fa", "fusion_lon": 0.0, "bike_id": "8aad8644471cd1da08c3bb207708c0fa", "is_disabled": 0, "is_reserved": 0}, {"rental_uris": {"ios": "https://dc.lft.to/lastmile_qr_scan", "android": "https://dc.lft.to/lastmile_qr_scan"}, "lon": -76.94439866666667, "type": "electric_bike", "fusion_lat": 0.0, "lat": 38.902969166666665, "name": "102f80aebc64e5b11fad215dffca944f", "fusion_lon": 0.0, "bike_id": "102f80aebc64e5b11fad215dffca944f", "is_disabled": 0, "is_reserved": 0}, {"rental_uris": {"ios": "https://dc.lft.to/lastmile_qr_scan", "android": "https://dc.lft.to/lastmile_qr_scan"}, "lon": -77.00119116666667, "type": "electric_scooter", "fusion_lat": 0.0, "lat": 38.90779766666667, "name": "46d806c41f69c57f5965b1b8e323e754", "fusion_lon": 0.0, "bike_id": "46d806c41f69c57f5965b1b8e323e754", "is_disabled": 0, "is_reserved": 0}, {"rental_uris": {"ios": "https://dc.lft.to/lastmile_qr_scan", "android": "https://dc.lft.to/lastmile_qr_scan"}, "lon": -77.0222575, "type": "electric_scooter", "fusion_lat": 0.0, "lat": 38.912470666666664, "name": "81cf3d4ba866078642b91bfa591b3152", "fusion_lon": 0.0, "bike_id": "81cf3d4ba866078642b91bfa591b3152", "is_disabled": 0, "is_reserved": 0}, {"rental_uris": {"ios": "https://dc.lft.to/lastmile_qr_scan", "android": "https://dc.lft.to/lastmile_qr_scan"}, "lon": -76.97707683333333, "type": "electric_scooter", "fusion_lat": 0.0, "lat": 38.89886283333333, "name": "d84bb98ca6ab76fd5d82d5963abe7c2b", "fusion_lon": 0.0, "bike_id": "d84bb98ca6ab76fd5d82d5963abe7c2b", "is_disabled": 0, "is_reserved": 0}, {"rental_uris": {"ios": "https://dc.lft.to/lastmile_qr_scan", "android": "https://dc.lft.to/lastmile_qr_scan"}, "lon": -76.97217833333333, "type": "electric_bike", "fusion_lat": 0.0, "lat": 38.844758, "name": "9cbac2998a98f497213640b0b9823e76", "fusion_lon": 0.0, "bike_id": "9cbac2998a98f497213640b0b9823e76", "is_disabled": 0, "is_reserved": 0}, {"rental_uris": {"ios": "https://dc.lft.to/lastmile_qr_scan", "android": "https://dc.lft.to/lastmile_qr_scan"}, "lon": -77.02317983333333, "type": "electric_scooter", "fusion_lat": 0.0, "lat": 38.928881, "name": "a39e57588ebe3a615fdeb790105facf0", "fusion_lon": 0.0, "bike_id": "a39e57588ebe3a615fdeb790105facf0", "is_disabled": 0, "is_reserved": 0}, {"rental_uris": {"ios": "https://dc.lft.to/lastmile_qr_scan", "android": "https://dc.lft.to/lastmile_qr_scan"}, "lon": -77.03082683333334, "type": "electric_scooter", "fusion_lat": 0.0, "lat": 38.91110183333333, "name": "d0814fc336d90ce13313a3599fbdb0bf", "fusion_lon": 0.0, "bike_id": "d0814fc336d90ce13313a3599fbdb0bf", "is_disabled": 0, "is_reserved": 0}, {"rental_uris": {"ios": "https://dc.lft.to/lastmile_qr_scan", "android": "https://dc.lft.to/lastmile_qr_scan"}, "lon": -77.01150816666667, "type": "electric_scooter", "fusion_lat": 0.0, "lat": 38.95673166666667, "name": "cc918455f746a5342248ec7ef65eecca", "fusion_lon": 0.0, "bike_id": "cc918455f746a5342248ec7ef65eecca", "is_disabled": 0, "is_reserved": 0}, {"rental_uris": {"ios": "https://dc.lft.to/lastmile_qr_scan", "android": "https://dc.lft.to/lastmile_qr_scan"}, "lon": -77.0249895, "type": "electric_scooter", "fusion_lat": 0.0, "lat": 38.919123666666664, "name": "f6255bf9056d7956d85eba91b92f2db8", "fusion_lon": 0.0, "bike_id": "f6255bf9056d7956d85eba91b92f2db8", "is_disabled": 0, "is_reserved": 0}, {"rental_uris": {"ios": "https://dc.lft.to/lastmile_qr_scan", "android": "https://dc.lft.to/lastmile_qr_scan"}, "lon": -77.04985583333334, "type": "electric_scooter", "fusion_lat": 0.0, "lat": 38.90792583333333, "name": "198eebd76b0ebf874ca27b378a5a99dc", "fusion_lon": 0.0, "bike_id": "198eebd76b0ebf874ca27b378a5a99dc", "is_disabled": 0, "is_reserved": 0}, {"rental_uris": {"ios": "https://dc.lft.to/lastmile_qr_scan", "android": "https://dc.lft.to/lastmile_qr_scan"}, "lon": -77.00207966666666, "type": "electric_scooter", "fusion_lat": 0.0, "lat": 38.8224985, "name": "946bc0b8a3eacab458a78c661958f915", "fusion_lon": 0.0, "bike_id": "946bc0b8a3eacab458a78c661958f915", "is_disabled": 0, "is_reserved": 0}, {"rental_uris": {"ios": "https://dc.lft.to/lastmile_qr_scan", "android": "https://dc.lft.to/lastmile_qr_scan"}, "lon": -77.0567705, "type": "electric_scooter", "fusion_lat": 0.0, "lat": 38.92332966666667, "name": "9bccabb0f3893e878c2c4b6eeadf866d", "fusion_lon": 0.0, "bike_id": "9bccabb0f3893e878c2c4b6eeadf866d", "is_disabled": 0, "is_reserved": 0}, {"rental_uris": {"ios": "https://dc.lft.to/lastmile_qr_scan", "android": "https://dc.lft.to/lastmile_qr_scan"}, "lon": -77.043631, "type": "electric_scooter", "fusion_lat": 0.0, "lat": 38.921287166666666, "name": "a22efaed7f9012c08704cd5b58f59ff4", "fusion_lon": 0.0, "bike_id": "a22efaed7f9012c08704cd5b58f59ff4", "is_disabled": 0, "is_reserved": 0}, {"rental_uris": {"ios": "https://dc.lft.to/lastmile_qr_scan", "android": "https://dc.lft.to/lastmile_qr_scan"}, "lon": -77.03448416666667, "type": "electric_scooter", "fusion_lat": 0.0, "lat": 38.907833, "name": "b0817560005b6b70c23f5b2c961b8c59", "fusion_lon": 0.0, "bike_id": "b0817560005b6b70c23f5b2c961b8c59", "is_disabled": 0, "is_reserved": 0}, {"rental_uris": {"ios": "https://dc.lft.to/lastmile_qr_scan", "android": "https://dc.lft.to/lastmile_qr_scan"}, "lon": -77.04686833333334, "type": "electric_scooter", "fusion_lat": 0.0, "lat": 38.89222066666667, "name": "16b6331fa30300fd9053e0c69053af81", "fusion_lon": 0.0, "bike_id": "16b6331fa30300fd9053e0c69053af81", "is_disabled": 0, "is_reserved": 0}, {"rental_uris": {"ios": "https://dc.lft.to/lastmile_qr_scan", "android": "https://dc.lft.to/lastmile_qr_scan"}, "lon": -77.03168166666667, "type": "electric_scooter", "fusion_lat": 0.0, "lat": 38.896056333333334, "name": "5adaea58b1631083b6a5f8b73b0dab35", "fusion_lon": 0.0, "bike_id": "5adaea58b1631083b6a5f8b73b0dab35", "is_disabled": 0, "is_reserved": 0}, {"rental_uris": {"ios": "https://dc.lft.to/lastmile_qr_scan", "android": "https://dc.lft.to/lastmile_qr_scan"}, "lon": -77.0284, "type": "electric_scooter", "fusion_lat": 0.0, "lat": 38.88767033333333, "name": "867fbfebe33f3db009565ed1d80772b2", "fusion_lon": 0.0, "bike_id": "867fbfebe33f3db009565ed1d80772b2", "is_disabled": 0, "is_reserved": 0}, {"rental_uris": {"ios": "https://dc.lft.to/lastmile_qr_scan", "android": "https://dc.lft.to/lastmile_qr_scan"}, "lon": -77.0616425, "type": "electric_scooter", "fusion_lat": 0.0, "lat": 38.942268166666665, "name": "8da28643301042ff4648c7cbbc85c51f", "fusion_lon": 0.0, "bike_id": "8da28643301042ff4648c7cbbc85c51f", "is_disabled": 0, "is_reserved": 0}, {"rental_uris": {"ios": "https://dc.lft.to/lastmile_qr_scan", "android": "https://dc.lft.to/lastmile_qr_scan"}, "lon": -77.032386, "type": "electric_scooter", "fusion_lat": 0.0, "lat": 38.909770333333334, "name": "531012649b660d6cd0ba7ac5802096e1", "fusion_lon": 0.0, "bike_id": "531012649b660d6cd0ba7ac5802096e1", "is_disabled": 0, "is_reserved": 0}, {"rental_uris": {"ios": "https://dc.lft.to/lastmile_qr_scan", "android": "https://dc.lft.to/lastmile_qr_scan"}, "lon": -76.9877435, "type": "electric_scooter", "fusion_lat": 0.0, "lat": 38.911703, "name": "7d8aba9c9c497e2753a5ef342736a8c4", "fusion_lon": 0.0, "bike_id": "7d8aba9c9c497e2753a5ef342736a8c4", "is_disabled": 0, "is_reserved": 0}, {"rental_uris": {"ios": "https://dc.lft.to/lastmile_qr_scan", "android": "https://dc.lft.to/lastmile_qr_scan"}, "lon": -76.9789065, "type": "electric_scooter", "fusion_lat": 0.0, "lat": 38.916738333333335, "name": "b5a170744265c6e7e496a9f0196e49e7", "fusion_lon": 0.0, "bike_id": "b5a170744265c6e7e496a9f0196e49e7", "is_disabled": 0, "is_reserved": 0}, {"rental_uris": {"ios": "https://dc.lft.to/lastmile_qr_scan", "android": "https://dc.lft.to/lastmile_qr_scan"}, "lon": -77.04940533333334, "type": "electric_scooter", "fusion_lat": 0.0, "lat": 38.896545, "name": "9ef7aeeaa58c17ac936cded367ed1456", "fusion_lon": 0.0, "bike_id": "9ef7aeeaa58c17ac936cded367ed1456", "is_disabled": 0, "is_reserved": 0}, {"rental_uris": {"ios": "https://dc.lft.to/lastmile_qr_scan", "android": "https://dc.lft.to/lastmile_qr_scan"}, "lon": -77.127463, "type": "electric_bike", "fusion_lat": 0.0, "lat": 38.888265833333335, "name": "5232fcdac53049645dce6f84c0875055", "fusion_lon": 0.0, "bike_id": "5232fcdac53049645dce6f84c0875055", "is_disabled": 0, "is_reserved": 0}, {"rental_uris": {"ios": "https://dc.lft.to/lastmile_qr_scan", "android": "https://dc.lft.to/lastmile_qr_scan"}, "lon": -77.032061, "type": "electric_scooter", "fusion_lat": 0.0, "lat": 38.92001883333333, "name": "c2a1fd6747829883ac736291fa710c52", "fusion_lon": 0.0, "bike_id": "c2a1fd6747829883ac736291fa710c52", "is_disabled": 0, "is_reserved": 0}, {"rental_uris": {"ios": "https://dc.lft.to/lastmile_qr_scan", "android": "https://dc.lft.to/lastmile_qr_scan"}, "lon": -77.018674, "type": "electric_scooter", "fusion_lat": 0.0, "lat": 38.90267466666667, "name": "d1ef1eaab0a1d5661d444fe39a8a15fb", "fusion_lon": 0.0, "bike_id": "d1ef1eaab0a1d5661d444fe39a8a15fb", "is_disabled": 0, "is_reserved": 0}, {"rental_uris": {"ios": "https://dc.lft.to/lastmile_qr_scan", "android": "https://dc.lft.to/lastmile_qr_scan"}, "lon": -77.03176383333333, "type": "electric_scooter", "fusion_lat": 0.0, "lat": 38.91928, "name": "93abf6e1fab27d36703f46bed4ef59ab", "fusion_lon": 0.0, "bike_id": "93abf6e1fab27d36703f46bed4ef59ab", "is_disabled": 0, "is_reserved": 0}, {"rental_uris": {"ios": "https://dc.lft.to/lastmile_qr_scan", "android": "https://dc.lft.to/lastmile_qr_scan"}, "lon": -77.03264016666667, "type": "electric_scooter", "fusion_lat": 0.0, "lat": 38.91405, "name": "abbd4369eeb2076eb4885c9ce2960fe0", "fusion_lon": 0.0, "bike_id": "abbd4369eeb2076eb4885c9ce2960fe0", "is_disabled": 0, "is_reserved": 0}, {"rental_uris": {"ios": "https://dc.lft.to/lastmile_qr_scan", "android": "https://dc.lft.to/lastmile_qr_scan"}, "lon": -77.0297625, "type": "electric_scooter", "fusion_lat": 0.0, "lat": 38.907801, "name": "8831a4c9905ae4c888dde45cd1ef4aa6", "fusion_lon": 0.0, "bike_id": "8831a4c9905ae4c888dde45cd1ef4aa6", "is_disabled": 0, "is_reserved": 0}, {"rental_uris": {"ios": "https://dc.lft.to/lastmile_qr_scan", "android": "https://dc.lft.to/lastmile_qr_scan"}, "lon": -77.040457, "type": "electric_scooter", "fusion_lat": 0.0, "lat": 38.925676, "name": "fd0459d94e9a2e3bad81d7ba99767174", "fusion_lon": 0.0, "bike_id": "fd0459d94e9a2e3bad81d7ba99767174", "is_disabled": 0, "is_reserved": 0}, {"rental_uris": {"ios": "https://dc.lft.to/lastmile_qr_scan", "android": "https://dc.lft.to/lastmile_qr_scan"}, "lon": -77.02668933333334, "type": "electric_scooter", "fusion_lat": 0.0, "lat": 38.9324935, "name": "5cc8ed9d48f820e5012948009571f10a", "fusion_lon": 0.0, "bike_id": "5cc8ed9d48f820e5012948009571f10a", "is_disabled": 0, "is_reserved": 0}, {"rental_uris": {"ios": "https://dc.lft.to/lastmile_qr_scan", "android": "https://dc.lft.to/lastmile_qr_scan"}, "lon": -76.93810983333333, "type": "electric_scooter", "fusion_lat": 0.0, "lat": 38.91304616666667, "name": "dddc043656d6b624ed6e127c200158ff", "fusion_lon": 0.0, "bike_id": "dddc043656d6b624ed6e127c200158ff", "is_disabled": 0, "is_reserved": 0}, {"rental_uris": {"ios": "https://dc.lft.to/lastmile_qr_scan", "android": "https://dc.lft.to/lastmile_qr_scan"}, "lon": -77.00336633333333, "type": "electric_bike", "fusion_lat": 0.0, "lat": 38.876614000000004, "name": "b752322cf71bb4a17a1a6eeda2e15777", "fusion_lon": 0.0, "bike_id": "b752322cf71bb4a17a1a6eeda2e15777", "is_disabled": 0, "is_reserved": 0}, {"rental_uris": {"ios": "https://dc.lft.to/lastmile_qr_scan", "android": "https://dc.lft.to/lastmile_qr_scan"}, "lon": -76.928792, "type": "electric_scooter", "fusion_lat": 0.0, "lat": 38.8844045, "name": "5d892da3a17aa313db5ccf022fdcc2bb", "fusion_lon": 0.0, "bike_id": "5d892da3a17aa313db5ccf022fdcc2bb", "is_disabled": 0, "is_reserved": 0}, {"rental_uris": {"ios": "https://dc.lft.to/lastmile_qr_scan", "android": "https://dc.lft.to/lastmile_qr_scan"}, "lon": -76.99461833333334, "type": "electric_scooter", "fusion_lat": 0.0, "lat": 38.85161866666667, "name": "ba6002a93e39da4b1747310d898dccc5", "fusion_lon": 0.0, "bike_id": "ba6002a93e39da4b1747310d898dccc5", "is_disabled": 0, "is_reserved": 0}, {"rental_uris": {"ios": "https://dc.lft.to/lastmile_qr_scan", "android": "https://dc.lft.to/lastmile_qr_scan"}, "lon": -77.03576383333333, "type": "electric_scooter", "fusion_lat": 0.0, "lat": 38.93977533333333, "name": "e1d40b8a31897e7b160c4fee5c270985", "fusion_lon": 0.0, "bike_id": "e1d40b8a31897e7b160c4fee5c270985", "is_disabled": 0, "is_reserved": 0}, {"rental_uris": {"ios": "https://dc.lft.to/lastmile_qr_scan", "android": "https://dc.lft.to/lastmile_qr_scan"}, "lon": -76.93161166666667, "type": "electric_scooter", "fusion_lat": 0.0, "lat": 38.89877766666667, "name": "d65a1186ed28929710d76e31bc4788ee", "fusion_lon": 0.0, "bike_id": "d65a1186ed28929710d76e31bc4788ee", "is_disabled": 0, "is_reserved": 0}, {"rental_uris": {"ios": "https://dc.lft.to/lastmile_qr_scan", "android": "https://dc.lft.to/lastmile_qr_scan"}, "lon": -77.04825533333333, "type": "electric_scooter", "fusion_lat": 0.0, "lat": 38.909567, "name": "ece245c53930d9d87cf93a5d7dcde475", "fusion_lon": 0.0, "bike_id": "ece245c53930d9d87cf93a5d7dcde475", "is_disabled": 0, "is_reserved": 0}, {"rental_uris": {"ios": "https://dc.lft.to/lastmile_qr_scan", "android": "https://dc.lft.to/lastmile_qr_scan"}, "lon": -76.98750666666666, "type": "electric_scooter", "fusion_lat": 0.0, "lat": 38.9101895, "name": "d8de58f91efc9ee197eecfda0b1f9af8", "fusion_lon": 0.0, "bike_id": "d8de58f91efc9ee197eecfda0b1f9af8", "is_disabled": 0, "is_reserved": 0}, {"rental_uris": {"ios": "https://dc.lft.to/lastmile_qr_scan", "android": "https://dc.lft.to/lastmile_qr_scan"}, "lon": -76.94849233333333, "type": "electric_scooter", "fusion_lat": 0.0, "lat": 38.884095, "name": "70d766bf59da62a2e85bee1ef5c51459", "fusion_lon": 0.0, "bike_id": "70d766bf59da62a2e85bee1ef5c51459", "is_disabled": 0, "is_reserved": 0}, {"rental_uris": {"ios": "https://dc.lft.to/lastmile_qr_scan", "android": "https://dc.lft.to/lastmile_qr_scan"}, "lon": -76.95681116666667, "type": "electric_bike", "fusion_lat": 0.0, "lat": 38.947292166666664, "name": "397bc8dc7b9bf138b3dffec82991f8f7", "fusion_lon": 0.0, "bike_id": "397bc8dc7b9bf138b3dffec82991f8f7", "is_disabled": 0, "is_reserved": 0}, {"rental_uris": {"ios": "https://dc.lft.to/lastmile_qr_scan", "android": "https://dc.lft.to/lastmile_qr_scan"}, "lon": -77.03837983333334, "type": "electric_scooter", "fusion_lat": 0.0, "lat": 38.907475833333336, "name": "eac09dd20ee2ee2bad92b87e598aae8a", "fusion_lon": 0.0, "bike_id": "eac09dd20ee2ee2bad92b87e598aae8a", "is_disabled": 0, "is_reserved": 0}, {"rental_uris": {"ios": "https://dc.lft.to/lastmile_qr_scan", "android": "https://dc.lft.to/lastmile_qr_scan"}, "lon": -77.043637, "type": "electric_scooter", "fusion_lat": 0.0, "lat": 38.89218483333333, "name": "d2f9265992fbc69bb79c6efa7435e75e", "fusion_lon": 0.0, "bike_id": "d2f9265992fbc69bb79c6efa7435e75e", "is_disabled": 0, "is_reserved": 0}, {"rental_uris": {"ios": "https://dc.lft.to/lastmile_qr_scan", "android": "https://dc.lft.to/lastmile_qr_scan"}, "lon": -77.03867683333333, "type": "electric_scooter", "fusion_lat": 0.0, "lat": 38.91562916666667, "name": "0ea19923e0c5db02e2f8f9c9d24ce743", "fusion_lon": 0.0, "bike_id": "0ea19923e0c5db02e2f8f9c9d24ce743", "is_disabled": 0, "is_reserved": 0}, {"rental_uris": {"ios": "https://dc.lft.to/lastmile_qr_scan", "android": "https://dc.lft.to/lastmile_qr_scan"}, "lon": -77.02959616666666, "type": "electric_scooter", "fusion_lat": 0.0, "lat": 38.91719033333333, "name": "ee6f344afe714030531a6b7b272ecef1", "fusion_lon": 0.0, "bike_id": "ee6f344afe714030531a6b7b272ecef1", "is_disabled": 0, "is_reserved": 0}, {"rental_uris": {"ios": "https://dc.lft.to/lastmile_qr_scan", "android": "https://dc.lft.to/lastmile_qr_scan"}, "lon": -76.974125, "type": "electric_scooter", "fusion_lat": 0.0, "lat": 38.902341, "name": "d44f7aa451d0b367b4e366135d580be2", "fusion_lon": 0.0, "bike_id": "d44f7aa451d0b367b4e366135d580be2", "is_disabled": 0, "is_reserved": 0}, {"rental_uris": {"ios": "https://dc.lft.to/lastmile_qr_scan", "android": "https://dc.lft.to/lastmile_qr_scan"}, "lon": -77.02016333333333, "type": "electric_bike", "fusion_lat": 0.0, "lat": 38.937212, "name": "5563792ad170f1313c15599563604457", "fusion_lon": 0.0, "bike_id": "5563792ad170f1313c15599563604457", "is_disabled": 0, "is_reserved": 0}, {"rental_uris": {"ios": "https://dc.lft.to/lastmile_qr_scan", "android": "https://dc.lft.to/lastmile_qr_scan"}, "lon": -77.03660883333333, "type": "electric_scooter", "fusion_lat": 0.0, "lat": 38.9027275, "name": "e1559c34d6c4592d9d1f081585fd34a4", "fusion_lon": 0.0, "bike_id": "e1559c34d6c4592d9d1f081585fd34a4", "is_disabled": 0, "is_reserved": 0}, {"rental_uris": {"ios": "https://dc.lft.to/lastmile_qr_scan", "android": "https://dc.lft.to/lastmile_qr_scan"}, "lon": -77.080515, "type": "electric_bike", "fusion_lat": 0.0, "lat": 38.84844, "name": "8868c0732b20538a34f269b7fc8d0308", "fusion_lon": 0.0, "bike_id": "8868c0732b20538a34f269b7fc8d0308", "is_disabled": 0, "is_reserved": 0}, {"rental_uris": {"ios": "https://dc.lft.to/lastmile_qr_scan", "android": "https://dc.lft.to/lastmile_qr_scan"}, "lon": -77.03420633333333, "type": "electric_scooter", "fusion_lat": 0.0, "lat": 38.924262, "name": "d41eb08eed760556c4c75686c74fba0f", "fusion_lon": 0.0, "bike_id": "d41eb08eed760556c4c75686c74fba0f", "is_disabled": 0, "is_reserved": 0}, {"rental_uris": {"ios": "https://dc.lft.to/lastmile_qr_scan", "android": "https://dc.lft.to/lastmile_qr_scan"}, "lon": -77.04701183333333, "type": "electric_scooter", "fusion_lat": 0.0, "lat": 38.9021665, "name": "a4861c43c2c7d964a1ea5417f7aa1bf4", "fusion_lon": 0.0, "bike_id": "a4861c43c2c7d964a1ea5417f7aa1bf4", "is_disabled": 0, "is_reserved": 0}, {"rental_uris": {"ios": "https://dc.lft.to/lastmile_qr_scan", "android": "https://dc.lft.to/lastmile_qr_scan"}, "lon": -76.98608683333333, "type": "electric_scooter", "fusion_lat": 0.0, "lat": 38.87835533333333, "name": "eca57993595e17b5216603462878496f", "fusion_lon": 0.0, "bike_id": "eca57993595e17b5216603462878496f", "is_disabled": 0, "is_reserved": 0}, {"rental_uris": {"ios": "https://dc.lft.to/lastmile_qr_scan", "android": "https://dc.lft.to/lastmile_qr_scan"}, "lon": -77.01117783333333, "type": "electric_scooter", "fusion_lat": 0.0, "lat": 38.870847833333336, "name": "5f78bda2a1a2109bb0edfa694f95b252", "fusion_lon": 0.0, "bike_id": "5f78bda2a1a2109bb0edfa694f95b252", "is_disabled": 0, "is_reserved": 0}, {"rental_uris": {"ios": "https://dc.lft.to/lastmile_qr_scan", "android": "https://dc.lft.to/lastmile_qr_scan"}, "lon": -76.92848916666667, "type": "electric_scooter", "fusion_lat": 0.0, "lat": 38.883566333333334, "name": "59fa3590393c8e6b36ff785cf2658fc5", "fusion_lon": 0.0, "bike_id": "59fa3590393c8e6b36ff785cf2658fc5", "is_disabled": 0, "is_reserved": 0}, {"rental_uris": {"ios": "https://dc.lft.to/lastmile_qr_scan", "android": "https://dc.lft.to/lastmile_qr_scan"}, "lon": -77.03324716666667, "type": "electric_scooter", "fusion_lat": 0.0, "lat": 38.901636333333336, "name": "a64ac5d7032c272e94cc12f2899ad169", "fusion_lon": 0.0, "bike_id": "a64ac5d7032c272e94cc12f2899ad169", "is_disabled": 0, "is_reserved": 0}, {"rental_uris": {"ios": "https://dc.lft.to/lastmile_qr_scan", "android": "https://dc.lft.to/lastmile_qr_scan"}, "lon": -77.04752483333333, "type": "electric_scooter", "fusion_lat": 0.0, "lat": 38.91779916666667, "name": "c8a1bd91193823c9a8102ed4f03ddb4f", "fusion_lon": 0.0, "bike_id": "c8a1bd91193823c9a8102ed4f03ddb4f", "is_disabled": 0, "is_reserved": 0}, {"rental_uris": {"ios": "https://dc.lft.to/lastmile_qr_scan", "android": "https://dc.lft.to/lastmile_qr_scan"}, "lon": -76.93176666666666, "type": "electric_scooter", "fusion_lat": 0.0, "lat": 38.8988575, "name": "cddd574fbfec9902de1713f3dacc5158", "fusion_lon": 0.0, "bike_id": "cddd574fbfec9902de1713f3dacc5158", "is_disabled": 0, "is_reserved": 0}, {"rental_uris": {"ios": "https://dc.lft.to/lastmile_qr_scan", "android": "https://dc.lft.to/lastmile_qr_scan"}, "lon": -77.031809, "type": "electric_scooter", "fusion_lat": 0.0, "lat": 38.919241, "name": "566eb53637dd52a06e56a5f7df2c4ea0", "fusion_lon": 0.0, "bike_id": "566eb53637dd52a06e56a5f7df2c4ea0", "is_disabled": 0, "is_reserved": 0}, {"rental_uris": {"ios": "https://dc.lft.to/lastmile_qr_scan", "android": "https://dc.lft.to/lastmile_qr_scan"}, "lon": -76.99487516666667, "type": "electric_scooter", "fusion_lat": 0.0, "lat": 38.862345833333336, "name": "c4923e0751790f2db9b32b00ba8f3708", "fusion_lon": 0.0, "bike_id": "c4923e0751790f2db9b32b00ba8f3708", "is_disabled": 0, "is_reserved": 0}, {"rental_uris": {"ios": "https://dc.lft.to/lastmile_qr_scan", "android": "https://dc.lft.to/lastmile_qr_scan"}, "lon": -76.9980935, "type": "electric_scooter", "fusion_lat": 0.0, "lat": 38.90027166666667, "name": "87a37720313145b837d6f6a85c56e7aa", "fusion_lon": 0.0, "bike_id": "87a37720313145b837d6f6a85c56e7aa", "is_disabled": 0, "is_reserved": 0}, {"rental_uris": {"ios": "https://dc.lft.to/lastmile_qr_scan", "android": "https://dc.lft.to/lastmile_qr_scan"}, "lon": -77.02843016666667, "type": "electric_scooter", "fusion_lat": 0.0, "lat": 38.94260833333333, "name": "4b007035e3ff5676c5b03ed132cb7e8e", "fusion_lon": 0.0, "bike_id": "4b007035e3ff5676c5b03ed132cb7e8e", "is_disabled": 0, "is_reserved": 0}, {"rental_uris": {"ios": "https://dc.lft.to/lastmile_qr_scan", "android": "https://dc.lft.to/lastmile_qr_scan"}, "lon": -77.00724233333334, "type": "electric_scooter", "fusion_lat": 0.0, "lat": 38.884902833333335, "name": "1dc4bc1ed2824c61747430b7bb17e6aa", "fusion_lon": 0.0, "bike_id": "1dc4bc1ed2824c61747430b7bb17e6aa", "is_disabled": 0, "is_reserved": 0}, {"rental_uris": {"ios": "https://dc.lft.to/lastmile_qr_scan", "android": "https://dc.lft.to/lastmile_qr_scan"}, "lon": -77.3531265, "type": "electric_bike", "fusion_lat": 0.0, "lat": 38.94999216666667, "name": "8a2f39cddf9a34305c5ee8defb693603", "fusion_lon": 0.0, "bike_id": "8a2f39cddf9a34305c5ee8defb693603", "is_disabled": 0, "is_reserved": 0}, {"rental_uris": {"ios": "https://dc.lft.to/lastmile_qr_scan", "android": "https://dc.lft.to/lastmile_qr_scan"}, "lon": -76.97208483333333, "type": "electric_scooter", "fusion_lat": 0.0, "lat": 38.85497933333333, "name": "233b848be7164d5c218790a70acdf1ba", "fusion_lon": 0.0, "bike_id": "233b848be7164d5c218790a70acdf1ba", "is_disabled": 0, "is_reserved": 0}, {"rental_uris": {"ios": "https://dc.lft.to/lastmile_qr_scan", "android": "https://dc.lft.to/lastmile_qr_scan"}, "lon": -76.99881233333333, "type": "electric_scooter", "fusion_lat": 0.0, "lat": 38.90759, "name": "b4f927b4df05007be53f7f5f702ac315", "fusion_lon": 0.0, "bike_id": "b4f927b4df05007be53f7f5f702ac315", "is_disabled": 0, "is_reserved": 0}, {"rental_uris": {"ios": "https://dc.lft.to/lastmile_qr_scan", "android": "https://dc.lft.to/lastmile_qr_scan"}, "lon": -77.05154633333333, "type": "electric_scooter", "fusion_lat": 0.0, "lat": 38.905852833333334, "name": "591da4ba5007a0ea9f792c2e96e878f7", "fusion_lon": 0.0, "bike_id": "591da4ba5007a0ea9f792c2e96e878f7", "is_disabled": 0, "is_reserved": 0}, {"rental_uris": {"ios": "https://dc.lft.to/lastmile_qr_scan", "android": "https://dc.lft.to/lastmile_qr_scan"}, "lon": -77.03252666666667, "type": "electric_scooter", "fusion_lat": 0.0, "lat": 38.933789166666664, "name": "18cea108afa59d0e6c7c4ab05d5bafa3", "fusion_lon": 0.0, "bike_id": "18cea108afa59d0e6c7c4ab05d5bafa3", "is_disabled": 0, "is_reserved": 0}, {"rental_uris": {"ios": "https://dc.lft.to/lastmile_qr_scan", "android": "https://dc.lft.to/lastmile_qr_scan"}, "lon": -77.03847616666667, "type": "electric_scooter", "fusion_lat": 0.0, "lat": 38.915334, "name": "0b1a203a054dacee26898b928a4c87db", "fusion_lon": 0.0, "bike_id": "0b1a203a054dacee26898b928a4c87db", "is_disabled": 0, "is_reserved": 0}, {"rental_uris": {"ios": "https://dc.lft.to/lastmile_qr_scan", "android": "https://dc.lft.to/lastmile_qr_scan"}, "lon": -76.95535616666666, "type": "electric_scooter", "fusion_lat": 0.0, "lat": 38.8876125, "name": "781a138aaea681747fd2ab4d3bc1f2b8", "fusion_lon": 0.0, "bike_id": "781a138aaea681747fd2ab4d3bc1f2b8", "is_disabled": 0, "is_reserved": 0}, {"rental_uris": {"ios": "https://dc.lft.to/lastmile_qr_scan", "android": "https://dc.lft.to/lastmile_qr_scan"}, "lon": -77.034824, "type": "electric_scooter", "fusion_lat": 0.0, "lat": 38.907594, "name": "190c449ce9dcbfc310ff18c13e69dd64", "fusion_lon": 0.0, "bike_id": "190c449ce9dcbfc310ff18c13e69dd64", "is_disabled": 0, "is_reserved": 0}, {"rental_uris": {"ios": "https://dc.lft.to/lastmile_qr_scan", "android": "https://dc.lft.to/lastmile_qr_scan"}, "lon": -77.03635566666667, "type": "electric_scooter", "fusion_lat": 0.0, "lat": 38.937164, "name": "b85df0ea4e805e8fba1094b6d01ea2ff", "fusion_lon": 0.0, "bike_id": "b85df0ea4e805e8fba1094b6d01ea2ff", "is_disabled": 0, "is_reserved": 0}, {"rental_uris": {"ios": "https://dc.lft.to/lastmile_qr_scan", "android": "https://dc.lft.to/lastmile_qr_scan"}, "lon": -77.03284366666666, "type": "electric_scooter", "fusion_lat": 0.0, "lat": 38.93201416666667, "name": "14f4f2a78e42287bdb3580f3cbf4fcac", "fusion_lon": 0.0, "bike_id": "14f4f2a78e42287bdb3580f3cbf4fcac", "is_disabled": 0, "is_reserved": 0}, {"rental_uris": {"ios": "https://dc.lft.to/lastmile_qr_scan", "android": "https://dc.lft.to/lastmile_qr_scan"}, "lon": -77.0433495, "type": "electric_scooter", "fusion_lat": 0.0, "lat": 38.908280500000004, "name": "4bcaed274838cdb43bcc6a30b62d06c4", "fusion_lon": 0.0, "bike_id": "4bcaed274838cdb43bcc6a30b62d06c4", "is_disabled": 0, "is_reserved": 0}, {"rental_uris": {"ios": "https://dc.lft.to/lastmile_qr_scan", "android": "https://dc.lft.to/lastmile_qr_scan"}, "lon": -77.03177366666667, "type": "electric_scooter", "fusion_lat": 0.0, "lat": 38.89382366666667, "name": "934eb1ce64e746dfdaa8acee8690a287", "fusion_lon": 0.0, "bike_id": "934eb1ce64e746dfdaa8acee8690a287", "is_disabled": 0, "is_reserved": 0}, {"rental_uris": {"ios": "https://dc.lft.to/lastmile_qr_scan", "android": "https://dc.lft.to/lastmile_qr_scan"}, "lon": -77.04271316666667, "type": "electric_scooter", "fusion_lat": 0.0, "lat": 38.934125333333334, "name": "95fd09a4507437b40aafc12a3c66de71", "fusion_lon": 0.0, "bike_id": "95fd09a4507437b40aafc12a3c66de71", "is_disabled": 0, "is_reserved": 0}, {"rental_uris": {"ios": "https://dc.lft.to/lastmile_qr_scan", "android": "https://dc.lft.to/lastmile_qr_scan"}, "lon": -77.07171666666666, "type": "electric_scooter", "fusion_lat": 0.0, "lat": 38.90742516666667, "name": "a8e5750b1f3b42c050081ab203540ed9", "fusion_lon": 0.0, "bike_id": "a8e5750b1f3b42c050081ab203540ed9", "is_disabled": 0, "is_reserved": 0}, {"rental_uris": {"ios": "https://dc.lft.to/lastmile_qr_scan", "android": "https://dc.lft.to/lastmile_qr_scan"}, "lon": -77.00346066666667, "type": "electric_scooter", "fusion_lat": 0.0, "lat": 38.8953145, "name": "cf894b1a6b7dee6310b14c05eaee6fc3", "fusion_lon": 0.0, "bike_id": "cf894b1a6b7dee6310b14c05eaee6fc3", "is_disabled": 0, "is_reserved": 0}, {"rental_uris": {"ios": "https://dc.lft.to/lastmile_qr_scan", "android": "https://dc.lft.to/lastmile_qr_scan"}, "lon": -76.946285, "type": "electric_bike", "fusion_lat": 0.0, "lat": 38.946229333333335, "name": "c129077b9b0583f87131f22433c10494", "fusion_lon": 0.0, "bike_id": "c129077b9b0583f87131f22433c10494", "is_disabled": 0, "is_reserved": 0}, {"rental_uris": {"ios": "https://dc.lft.to/lastmile_qr_scan", "android": "https://dc.lft.to/lastmile_qr_scan"}, "lon": -77.050762, "type": "electric_scooter", "fusion_lat": 0.0, "lat": 38.8960825, "name": "9bc7752d48e63016c3c52807c742ece8", "fusion_lon": 0.0, "bike_id": "9bc7752d48e63016c3c52807c742ece8", "is_disabled": 0, "is_reserved": 0}, {"rental_uris": {"ios": "https://dc.lft.to/lastmile_qr_scan", "android": "https://dc.lft.to/lastmile_qr_scan"}, "lon": -77.00576666666667, "type": "electric_scooter", "fusion_lat": 0.0, "lat": 38.9056795, "name": "303e277b6201045c9d34b12782a5c61d", "fusion_lon": 0.0, "bike_id": "303e277b6201045c9d34b12782a5c61d", "is_disabled": 0, "is_reserved": 0}, {"rental_uris": {"ios": "https://dc.lft.to/lastmile_qr_scan", "android": "https://dc.lft.to/lastmile_qr_scan"}, "lon": -77.04646683333333, "type": "electric_scooter", "fusion_lat": 0.0, "lat": 38.915733, "name": "86deafc2ed33d6c61f3fda0b87a38095", "fusion_lon": 0.0, "bike_id": "86deafc2ed33d6c61f3fda0b87a38095", "is_disabled": 0, "is_reserved": 0}, {"rental_uris": {"ios": "https://dc.lft.to/lastmile_qr_scan", "android": "https://dc.lft.to/lastmile_qr_scan"}, "lon": -77.021948, "type": "electric_scooter", "fusion_lat": 0.0, "lat": 38.908296166666666, "name": "ca8a8a9fac8a18b0306b6bb6556fbf26", "fusion_lon": 0.0, "bike_id": "ca8a8a9fac8a18b0306b6bb6556fbf26", "is_disabled": 0, "is_reserved": 0}, {"rental_uris": {"ios": "https://dc.lft.to/lastmile_qr_scan", "android": "https://dc.lft.to/lastmile_qr_scan"}, "lon": -77.0366115, "type": "electric_scooter", "fusion_lat": 0.0, "lat": 38.91721116666667, "name": "e5457d5f9b40c2e0e2baec0d2f0e0f3a", "fusion_lon": 0.0, "bike_id": "e5457d5f9b40c2e0e2baec0d2f0e0f3a", "is_disabled": 0, "is_reserved": 0}, {"rental_uris": {"ios": "https://dc.lft.to/lastmile_qr_scan", "android": "https://dc.lft.to/lastmile_qr_scan"}, "lon": -77.04275866666667, "type": "electric_scooter", "fusion_lat": 0.0, "lat": 38.92239383333333, "name": "8248bb264f74fe344bd4e5ef3173c751", "fusion_lon": 0.0, "bike_id": "8248bb264f74fe344bd4e5ef3173c751", "is_disabled": 0, "is_reserved": 0}, {"rental_uris": {"ios": "https://dc.lft.to/lastmile_qr_scan", "android": "https://dc.lft.to/lastmile_qr_scan"}, "lon": -77.028357, "type": "electric_scooter", "fusion_lat": 0.0, "lat": 38.887672, "name": "9477f0ccd6850088fa303cb13ee7e472", "fusion_lon": 0.0, "bike_id": "9477f0ccd6850088fa303cb13ee7e472", "is_disabled": 0, "is_reserved": 0}, {"rental_uris": {"ios": "https://dc.lft.to/lastmile_qr_scan", "android": "https://dc.lft.to/lastmile_qr_scan"}, "lon": -77.02692133333333, "type": "electric_scooter", "fusion_lat": 0.0, "lat": 38.906815333333334, "name": "ee0cf2031bf0416ac371f7dda398f16c", "fusion_lon": 0.0, "bike_id": "ee0cf2031bf0416ac371f7dda398f16c", "is_disabled": 0, "is_reserved": 0}, {"rental_uris": {"ios": "https://dc.lft.to/lastmile_qr_scan", "android": "https://dc.lft.to/lastmile_qr_scan"}, "lon": -77.09214266666666, "type": "electric_scooter", "fusion_lat": 0.0, "lat": 38.91706383333333, "name": "bc416bf4d55fe0ae7b61f98e442dfd20", "fusion_lon": 0.0, "bike_id": "bc416bf4d55fe0ae7b61f98e442dfd20", "is_disabled": 0, "is_reserved": 0}, {"rental_uris": {"ios": "https://dc.lft.to/lastmile_qr_scan", "android": "https://dc.lft.to/lastmile_qr_scan"}, "lon": -77.01435033333334, "type": "electric_scooter", "fusion_lat": 0.0, "lat": 38.929909333333335, "name": "134835a8ae3ea650374a809b5398b37b", "fusion_lon": 0.0, "bike_id": "134835a8ae3ea650374a809b5398b37b", "is_disabled": 0, "is_reserved": 0}, {"rental_uris": {"ios": "https://dc.lft.to/lastmile_qr_scan", "android": "https://dc.lft.to/lastmile_qr_scan"}, "lon": -77.032706, "type": "electric_scooter", "fusion_lat": 0.0, "lat": 38.938218166666665, "name": "f6b437596eeb1917b3b421a59fae75a3", "fusion_lon": 0.0, "bike_id": "f6b437596eeb1917b3b421a59fae75a3", "is_disabled": 0, "is_reserved": 0}, {"rental_uris": {"ios": "https://dc.lft.to/lastmile_qr_scan", "android": "https://dc.lft.to/lastmile_qr_scan"}, "lon": -77.03828783333333, "type": "electric_scooter", "fusion_lat": 0.0, "lat": 38.90269383333333, "name": "90038dd73883a124c8aae6bf50567caf", "fusion_lon": 0.0, "bike_id": "90038dd73883a124c8aae6bf50567caf", "is_disabled": 0, "is_reserved": 0}, {"rental_uris": {"ios": "https://dc.lft.to/lastmile_qr_scan", "android": "https://dc.lft.to/lastmile_qr_scan"}, "lon": -77.034466, "type": "electric_scooter", "fusion_lat": 0.0, "lat": 38.9183465, "name": "4fa008fda0d5deeeabf3d079137db50d", "fusion_lon": 0.0, "bike_id": "4fa008fda0d5deeeabf3d079137db50d", "is_disabled": 0, "is_reserved": 0}, {"rental_uris": {"ios": "https://dc.lft.to/lastmile_qr_scan", "android": "https://dc.lft.to/lastmile_qr_scan"}, "lon": -77.01593666666666, "type": "electric_scooter", "fusion_lat": 0.0, "lat": 38.957089333333336, "name": "6a3da07016597eb9a9b2698be2e053f3", "fusion_lon": 0.0, "bike_id": "6a3da07016597eb9a9b2698be2e053f3", "is_disabled": 0, "is_reserved": 0}, {"rental_uris": {"ios": "https://dc.lft.to/lastmile_qr_scan", "android": "https://dc.lft.to/lastmile_qr_scan"}, "lon": -76.98361433333334, "type": "electric_scooter", "fusion_lat": 0.0, "lat": 38.86480366666667, "name": "5478fc8cdd36f0e70ec054237b6f07ae", "fusion_lon": 0.0, "bike_id": "5478fc8cdd36f0e70ec054237b6f07ae", "is_disabled": 0, "is_reserved": 0}, {"rental_uris": {"ios": "https://dc.lft.to/lastmile_qr_scan", "android": "https://dc.lft.to/lastmile_qr_scan"}, "lon": -77.02954266666667, "type": "electric_scooter", "fusion_lat": 0.0, "lat": 38.90723933333334, "name": "28ce216d7580199fee759748e7891f4c", "fusion_lon": 0.0, "bike_id": "28ce216d7580199fee759748e7891f4c", "is_disabled": 0, "is_reserved": 0}, {"rental_uris": {"ios": "https://dc.lft.to/lastmile_qr_scan", "android": "https://dc.lft.to/lastmile_qr_scan"}, "lon": -76.9834845, "type": "electric_scooter", "fusion_lat": 0.0, "lat": 38.9153925, "name": "a655b839d5f08749049850bb276ea679", "fusion_lon": 0.0, "bike_id": "a655b839d5f08749049850bb276ea679", "is_disabled": 0, "is_reserved": 0}, {"rental_uris": {"ios": "https://dc.lft.to/lastmile_qr_scan", "android": "https://dc.lft.to/lastmile_qr_scan"}, "lon": -77.0174715, "type": "electric_scooter", "fusion_lat": 0.0, "lat": 38.87735166666667, "name": "38a487a77325ff378a437cb71fdd7ad0", "fusion_lon": 0.0, "bike_id": "38a487a77325ff378a437cb71fdd7ad0", "is_disabled": 0, "is_reserved": 0}, {"rental_uris": {"ios": "https://dc.lft.to/lastmile_qr_scan", "android": "https://dc.lft.to/lastmile_qr_scan"}, "lon": -76.98421516666667, "type": "electric_scooter", "fusion_lat": 0.0, "lat": 38.913881, "name": "c08c7cb4dc9f237b93c45221f8d14f6d", "fusion_lon": 0.0, "bike_id": "c08c7cb4dc9f237b93c45221f8d14f6d", "is_disabled": 0, "is_reserved": 0}, {"rental_uris": {"ios": "https://dc.lft.to/lastmile_qr_scan", "android": "https://dc.lft.to/lastmile_qr_scan"}, "lon": -77.11430683333333, "type": "electric_bike", "fusion_lat": 0.0, "lat": 38.852463, "name": "2d5f31ecfeda7908c401cf8cd97e1ba1", "fusion_lon": 0.0, "bike_id": "2d5f31ecfeda7908c401cf8cd97e1ba1", "is_disabled": 0, "is_reserved": 0}, {"rental_uris": {"ios": "https://dc.lft.to/lastmile_qr_scan", "android": "https://dc.lft.to/lastmile_qr_scan"}, "lon": -77.051258, "type": "electric_scooter", "fusion_lat": 0.0, "lat": 38.92360333333333, "name": "1124561b2c47155adaa0349100dbc387", "fusion_lon": 0.0, "bike_id": "1124561b2c47155adaa0349100dbc387", "is_disabled": 0, "is_reserved": 0}, {"rental_uris": {"ios": "https://dc.lft.to/lastmile_qr_scan", "android": "https://dc.lft.to/lastmile_qr_scan"}, "lon": -77.07813283333333, "type": "electric_scooter", "fusion_lat": 0.0, "lat": 38.92623583333334, "name": "2521b4970c8c7d761b67b7a19a24ea77", "fusion_lon": 0.0, "bike_id": "2521b4970c8c7d761b67b7a19a24ea77", "is_disabled": 0, "is_reserved": 0}, {"rental_uris": {"ios": "https://dc.lft.to/lastmile_qr_scan", "android": "https://dc.lft.to/lastmile_qr_scan"}, "lon": -77.03206983333334, "type": "electric_scooter", "fusion_lat": 0.0, "lat": 38.915364333333336, "name": "63aaa35a22009c2a13d8dc1152ee6745", "fusion_lon": 0.0, "bike_id": "63aaa35a22009c2a13d8dc1152ee6745", "is_disabled": 0, "is_reserved": 0}, {"rental_uris": {"ios": "https://dc.lft.to/lastmile_qr_scan", "android": "https://dc.lft.to/lastmile_qr_scan"}, "lon": -77.02196116666667, "type": "electric_scooter", "fusion_lat": 0.0, "lat": 38.908379, "name": "32fa98dd052f4dbc10010460778a677f", "fusion_lon": 0.0, "bike_id": "32fa98dd052f4dbc10010460778a677f", "is_disabled": 0, "is_reserved": 0}, {"rental_uris": {"ios": "https://dc.lft.to/lastmile_qr_scan", "android": "https://dc.lft.to/lastmile_qr_scan"}, "lon": -77.0221475, "type": "electric_scooter", "fusion_lat": 0.0, "lat": 38.887670666666665, "name": "4bce893893813c992b246e034723d437", "fusion_lon": 0.0, "bike_id": "4bce893893813c992b246e034723d437", "is_disabled": 0, "is_reserved": 0}, {"rental_uris": {"ios": "https://dc.lft.to/lastmile_qr_scan", "android": "https://dc.lft.to/lastmile_qr_scan"}, "lon": -76.96786283333333, "type": "electric_scooter", "fusion_lat": 0.0, "lat": 38.8613845, "name": "c58104faf89098dfadf0f59bcce655c5", "fusion_lon": 0.0, "bike_id": "c58104faf89098dfadf0f59bcce655c5", "is_disabled": 0, "is_reserved": 0}, {"rental_uris": {"ios": "https://dc.lft.to/lastmile_qr_scan", "android": "https://dc.lft.to/lastmile_qr_scan"}, "lon": -77.0195995, "type": "electric_scooter", "fusion_lat": 0.0, "lat": 38.904192, "name": "8a025e1df4b7863a0fc05a8f83e9f007", "fusion_lon": 0.0, "bike_id": "8a025e1df4b7863a0fc05a8f83e9f007", "is_disabled": 0, "is_reserved": 0}, {"rental_uris": {"ios": "https://dc.lft.to/lastmile_qr_scan", "android": "https://dc.lft.to/lastmile_qr_scan"}, "lon": -77.03168633333334, "type": "electric_scooter", "fusion_lat": 0.0, "lat": 38.899696666666664, "name": "08efec42c7459d5d78ddfd4c463692e7", "fusion_lon": 0.0, "bike_id": "08efec42c7459d5d78ddfd4c463692e7", "is_disabled": 0, "is_reserved": 0}, {"rental_uris": {"ios": "https://dc.lft.to/lastmile_qr_scan", "android": "https://dc.lft.to/lastmile_qr_scan"}, "lon": -77.03223516666667, "type": "electric_scooter", "fusion_lat": 0.0, "lat": 38.892295, "name": "a670d0ec466e5beb5152e77148aa4e95", "fusion_lon": 0.0, "bike_id": "a670d0ec466e5beb5152e77148aa4e95", "is_disabled": 0, "is_reserved": 0}, {"rental_uris": {"ios": "https://dc.lft.to/lastmile_qr_scan", "android": "https://dc.lft.to/lastmile_qr_scan"}, "lon": -77.03833866666666, "type": "electric_scooter", "fusion_lat": 0.0, "lat": 38.911143, "name": "46a491323fab6ba3b366dab04b0b468a", "fusion_lon": 0.0, "bike_id": "46a491323fab6ba3b366dab04b0b468a", "is_disabled": 0, "is_reserved": 0}, {"rental_uris": {"ios": "https://dc.lft.to/lastmile_qr_scan", "android": "https://dc.lft.to/lastmile_qr_scan"}, "lon": -76.98567833333334, "type": "electric_scooter", "fusion_lat": 0.0, "lat": 38.86147183333333, "name": "e07b4efbfbace5feddf1a49169f0de7f", "fusion_lon": 0.0, "bike_id": "e07b4efbfbace5feddf1a49169f0de7f", "is_disabled": 0, "is_reserved": 0}, {"rental_uris": {"ios": "https://dc.lft.to/lastmile_qr_scan", "android": "https://dc.lft.to/lastmile_qr_scan"}, "lon": -76.9960865, "type": "electric_scooter", "fusion_lat": 0.0, "lat": 38.886231, "name": "5a363db18c6cdd89f989a432057eb18f", "fusion_lon": 0.0, "bike_id": "5a363db18c6cdd89f989a432057eb18f", "is_disabled": 0, "is_reserved": 0}, {"rental_uris": {"ios": "https://dc.lft.to/lastmile_qr_scan", "android": "https://dc.lft.to/lastmile_qr_scan"}, "lon": -76.97565083333333, "type": "electric_scooter", "fusion_lat": 0.0, "lat": 38.9044665, "name": "07540cca8b5b375cf70219fc98f1a19c", "fusion_lon": 0.0, "bike_id": "07540cca8b5b375cf70219fc98f1a19c", "is_disabled": 0, "is_reserved": 0}, {"rental_uris": {"ios": "https://dc.lft.to/lastmile_qr_scan", "android": "https://dc.lft.to/lastmile_qr_scan"}, "lon": -77.04655666666666, "type": "electric_scooter", "fusion_lat": 0.0, "lat": 38.89641816666666, "name": "f2d8eab14f94ac58d8f51a1e33b48c2e", "fusion_lon": 0.0, "bike_id": "f2d8eab14f94ac58d8f51a1e33b48c2e", "is_disabled": 0, "is_reserved": 0}, {"rental_uris": {"ios": "https://dc.lft.to/lastmile_qr_scan", "android": "https://dc.lft.to/lastmile_qr_scan"}, "lon": -77.04491983333334, "type": "electric_scooter", "fusion_lat": 0.0, "lat": 38.915187833333334, "name": "f6e99721e9a80d34bd9260083a2ff751", "fusion_lon": 0.0, "bike_id": "f6e99721e9a80d34bd9260083a2ff751", "is_disabled": 0, "is_reserved": 0}, {"rental_uris": {"ios": "https://dc.lft.to/lastmile_qr_scan", "android": "https://dc.lft.to/lastmile_qr_scan"}, "lon": -76.998694, "type": "electric_scooter", "fusion_lat": 0.0, "lat": 38.9002895, "name": "78d722b2bb763e41918069cfb1a2b7ed", "fusion_lon": 0.0, "bike_id": "78d722b2bb763e41918069cfb1a2b7ed", "is_disabled": 0, "is_reserved": 0}, {"rental_uris": {"ios": "https://dc.lft.to/lastmile_qr_scan", "android": "https://dc.lft.to/lastmile_qr_scan"}, "lon": -76.973245, "type": "electric_scooter", "fusion_lat": 0.0, "lat": 38.930323, "name": "8f0ca025cdbab288310028824dfe6394", "fusion_lon": 0.0, "bike_id": "8f0ca025cdbab288310028824dfe6394", "is_disabled": 0, "is_reserved": 0}, {"rental_uris": {"ios": "https://dc.lft.to/lastmile_qr_scan", "android": "https://dc.lft.to/lastmile_qr_scan"}, "lon": -77.01094433333333, "type": "electric_scooter", "fusion_lat": 0.0, "lat": 38.91561033333333, "name": "abc7dbaf80d1dfafcd945d871e184dc9", "fusion_lon": 0.0, "bike_id": "abc7dbaf80d1dfafcd945d871e184dc9", "is_disabled": 0, "is_reserved": 0}, {"rental_uris": {"ios": "https://dc.lft.to/lastmile_qr_scan", "android": "https://dc.lft.to/lastmile_qr_scan"}, "lon": -77.0455335, "type": "electric_scooter", "fusion_lat": 0.0, "lat": 38.8922165, "name": "e8ffcbabddbb6ef1d90c827364a8a7d6", "fusion_lon": 0.0, "bike_id": "e8ffcbabddbb6ef1d90c827364a8a7d6", "is_disabled": 0, "is_reserved": 0}, {"rental_uris": {"ios": "https://dc.lft.to/lastmile_qr_scan", "android": "https://dc.lft.to/lastmile_qr_scan"}, "lon": -77.046514, "type": "electric_scooter", "fusion_lat": 0.0, "lat": 38.91570566666667, "name": "a19c9de23874ce38874fd0d433073a2a", "fusion_lon": 0.0, "bike_id": "a19c9de23874ce38874fd0d433073a2a", "is_disabled": 0, "is_reserved": 0}, {"rental_uris": {"ios": "https://dc.lft.to/lastmile_qr_scan", "android": "https://dc.lft.to/lastmile_qr_scan"}, "lon": -76.97504716666667, "type": "electric_bike", "fusion_lat": 0.0, "lat": 38.91928816666667, "name": "c6c126af0d655317fe6687d07a32e14f", "fusion_lon": 0.0, "bike_id": "c6c126af0d655317fe6687d07a32e14f", "is_disabled": 0, "is_reserved": 0}, {"rental_uris": {"ios": "https://dc.lft.to/lastmile_qr_scan", "android": "https://dc.lft.to/lastmile_qr_scan"}, "lon": -77.03871733333334, "type": "electric_scooter", "fusion_lat": 0.0, "lat": 38.908204, "name": "25ae8b096f2ca65bc5f386360d9d5b6f", "fusion_lon": 0.0, "bike_id": "25ae8b096f2ca65bc5f386360d9d5b6f", "is_disabled": 0, "is_reserved": 0}, {"rental_uris": {"ios": "https://dc.lft.to/lastmile_qr_scan", "android": "https://dc.lft.to/lastmile_qr_scan"}, "lon": -77.06380083333333, "type": "electric_scooter", "fusion_lat": 0.0, "lat": 38.904995166666666, "name": "3877c173908c6aa2dec79fda873914d6", "fusion_lon": 0.0, "bike_id": "3877c173908c6aa2dec79fda873914d6", "is_disabled": 0, "is_reserved": 0}, {"rental_uris": {"ios": "https://dc.lft.to/lastmile_qr_scan", "android": "https://dc.lft.to/lastmile_qr_scan"}, "lon": -77.0399895, "type": "electric_scooter", "fusion_lat": 0.0, "lat": 38.90004833333333, "name": "863952301ae7a8eb4d48efd8118e7010", "fusion_lon": 0.0, "bike_id": "863952301ae7a8eb4d48efd8118e7010", "is_disabled": 0, "is_reserved": 0}, {"rental_uris": {"ios": "https://dc.lft.to/lastmile_qr_scan", "android": "https://dc.lft.to/lastmile_qr_scan"}, "lon": -77.017488, "type": "electric_scooter", "fusion_lat": 0.0, "lat": 38.90561366666667, "name": "bce4aa000f08d947d840b69c944c458f", "fusion_lon": 0.0, "bike_id": "bce4aa000f08d947d840b69c944c458f", "is_disabled": 0, "is_reserved": 0}, {"rental_uris": {"ios": "https://dc.lft.to/lastmile_qr_scan", "android": "https://dc.lft.to/lastmile_qr_scan"}, "lon": -76.97820516666667, "type": "electric_scooter", "fusion_lat": 0.0, "lat": 38.89525416666667, "name": "dbbf5a6b509b16440649098cc226a5e4", "fusion_lon": 0.0, "bike_id": "dbbf5a6b509b16440649098cc226a5e4", "is_disabled": 0, "is_reserved": 0}, {"rental_uris": {"ios": "https://dc.lft.to/lastmile_qr_scan", "android": "https://dc.lft.to/lastmile_qr_scan"}, "lon": -76.99019666666666, "type": "electric_scooter", "fusion_lat": 0.0, "lat": 38.858675166666664, "name": "53a0526bd2fade1eb83ae7b146b32129", "fusion_lon": 0.0, "bike_id": "53a0526bd2fade1eb83ae7b146b32129", "is_disabled": 0, "is_reserved": 0}, {"rental_uris": {"ios": "https://dc.lft.to/lastmile_qr_scan", "android": "https://dc.lft.to/lastmile_qr_scan"}, "lon": -77.025863, "type": "electric_scooter", "fusion_lat": 0.0, "lat": 38.92036483333333, "name": "19e04368253e7d6599998a42438495ab", "fusion_lon": 0.0, "bike_id": "19e04368253e7d6599998a42438495ab", "is_disabled": 0, "is_reserved": 0}, {"rental_uris": {"ios": "https://dc.lft.to/lastmile_qr_scan", "android": "https://dc.lft.to/lastmile_qr_scan"}, "lon": -77.01860616666667, "type": "electric_scooter", "fusion_lat": 0.0, "lat": 38.89263783333333, "name": "f657cba13808804d61c2462f8eb0fb5f", "fusion_lon": 0.0, "bike_id": "f657cba13808804d61c2462f8eb0fb5f", "is_disabled": 0, "is_reserved": 0}, {"rental_uris": {"ios": "https://dc.lft.to/lastmile_qr_scan", "android": "https://dc.lft.to/lastmile_qr_scan"}, "lon": -77.0254445, "type": "electric_scooter", "fusion_lat": 0.0, "lat": 38.892238, "name": "721093f6b822dfe0112f8f09d98cf156", "fusion_lon": 0.0, "bike_id": "721093f6b822dfe0112f8f09d98cf156", "is_disabled": 0, "is_reserved": 0}, {"rental_uris": {"ios": "https://dc.lft.to/lastmile_qr_scan", "android": "https://dc.lft.to/lastmile_qr_scan"}, "lon": -77.022805, "type": "electric_scooter", "fusion_lat": 0.0, "lat": 38.878366, "name": "6faf5973e8364ceace7019687054b6e9", "fusion_lon": 0.0, "bike_id": "6faf5973e8364ceace7019687054b6e9", "is_disabled": 0, "is_reserved": 0}, {"rental_uris": {"ios": "https://dc.lft.to/lastmile_qr_scan", "android": "https://dc.lft.to/lastmile_qr_scan"}, "lon": -77.03618666666667, "type": "electric_scooter", "fusion_lat": 0.0, "lat": 38.937383, "name": "3d39cae73657eceacf0d769c2360a1b6", "fusion_lon": 0.0, "bike_id": "3d39cae73657eceacf0d769c2360a1b6", "is_disabled": 0, "is_reserved": 0}, {"rental_uris": {"ios": "https://dc.lft.to/lastmile_qr_scan", "android": "https://dc.lft.to/lastmile_qr_scan"}, "lon": -77.00268483333333, "type": "electric_bike", "fusion_lat": 0.0, "lat": 38.911935, "name": "a8631684e08b79fa2b00fae71b8a43dc", "fusion_lon": 0.0, "bike_id": "a8631684e08b79fa2b00fae71b8a43dc", "is_disabled": 0, "is_reserved": 0}, {"rental_uris": {"ios": "https://dc.lft.to/lastmile_qr_scan", "android": "https://dc.lft.to/lastmile_qr_scan"}, "lon": -77.03204616666666, "type": "electric_scooter", "fusion_lat": 0.0, "lat": 38.917072833333336, "name": "fc2e45e29a7d2d9f2c3822556167029d", "fusion_lon": 0.0, "bike_id": "fc2e45e29a7d2d9f2c3822556167029d", "is_disabled": 0, "is_reserved": 0}, {"rental_uris": {"ios": "https://dc.lft.to/lastmile_qr_scan", "android": "https://dc.lft.to/lastmile_qr_scan"}, "lon": -77.04301166666667, "type": "electric_scooter", "fusion_lat": 0.0, "lat": 38.922951833333336, "name": "26e559146661294826602cccbac312e5", "fusion_lon": 0.0, "bike_id": "26e559146661294826602cccbac312e5", "is_disabled": 0, "is_reserved": 0}, {"rental_uris": {"ios": "https://dc.lft.to/lastmile_qr_scan", "android": "https://dc.lft.to/lastmile_qr_scan"}, "lon": -77.033177, "type": "electric_scooter", "fusion_lat": 0.0, "lat": 38.90155383333333, "name": "c215611a0c168af21d12f236cb37cc10", "fusion_lon": 0.0, "bike_id": "c215611a0c168af21d12f236cb37cc10", "is_disabled": 0, "is_reserved": 0}, {"rental_uris": {"ios": "https://dc.lft.to/lastmile_qr_scan", "android": "https://dc.lft.to/lastmile_qr_scan"}, "lon": -77.06354383333333, "type": "electric_scooter", "fusion_lat": 0.0, "lat": 38.944480666666664, "name": "cc167ec0af27c04f572aacc78893d129", "fusion_lon": 0.0, "bike_id": "cc167ec0af27c04f572aacc78893d129", "is_disabled": 0, "is_reserved": 0}, {"rental_uris": {"ios": "https://dc.lft.to/lastmile_qr_scan", "android": "https://dc.lft.to/lastmile_qr_scan"}, "lon": -77.18289933333334, "type": "electric_bike", "fusion_lat": 0.0, "lat": 38.88337666666666, "name": "adc9cfaf9c661330b6646761d72a1c61", "fusion_lon": 0.0, "bike_id": "adc9cfaf9c661330b6646761d72a1c61", "is_disabled": 0, "is_reserved": 0}, {"rental_uris": {"ios": "https://dc.lft.to/lastmile_qr_scan", "android": "https://dc.lft.to/lastmile_qr_scan"}, "lon": -77.03766083333333, "type": "electric_scooter", "fusion_lat": 0.0, "lat": 38.92202366666667, "name": "680b5483d5dbd0a6001d82d80326c7a3", "fusion_lon": 0.0, "bike_id": "680b5483d5dbd0a6001d82d80326c7a3", "is_disabled": 0, "is_reserved": 0}, {"rental_uris": {"ios": "https://dc.lft.to/lastmile_qr_scan", "android": "https://dc.lft.to/lastmile_qr_scan"}, "lon": -77.00376083333333, "type": "electric_bike", "fusion_lat": 0.0, "lat": 38.83607533333333, "name": "bf1fda7819c8689dd702abfa09076496", "fusion_lon": 0.0, "bike_id": "bf1fda7819c8689dd702abfa09076496", "is_disabled": 0, "is_reserved": 0}, {"rental_uris": {"ios": "https://dc.lft.to/lastmile_qr_scan", "android": "https://dc.lft.to/lastmile_qr_scan"}, "lon": -77.05069016666667, "type": "electric_scooter", "fusion_lat": 0.0, "lat": 38.905486, "name": "da8b7cd1862c2a06e1cdcfd1a3778840", "fusion_lon": 0.0, "bike_id": "da8b7cd1862c2a06e1cdcfd1a3778840", "is_disabled": 0, "is_reserved": 0}, {"rental_uris": {"ios": "https://dc.lft.to/lastmile_qr_scan", "android": "https://dc.lft.to/lastmile_qr_scan"}, "lon": -77.003684, "type": "electric_scooter", "fusion_lat": 0.0, "lat": 38.83800266666667, "name": "529df107fa512df12bfc88dcceaf6c84", "fusion_lon": 0.0, "bike_id": "529df107fa512df12bfc88dcceaf6c84", "is_disabled": 0, "is_reserved": 0}, {"rental_uris": {"ios": "https://dc.lft.to/lastmile_qr_scan", "android": "https://dc.lft.to/lastmile_qr_scan"}, "lon": -76.94634533333334, "type": "electric_scooter", "fusion_lat": 0.0, "lat": 38.898317166666665, "name": "48a028e960509fec1f1ab1ea81f9afeb", "fusion_lon": 0.0, "bike_id": "48a028e960509fec1f1ab1ea81f9afeb", "is_disabled": 0, "is_reserved": 0}, {"rental_uris": {"ios": "https://dc.lft.to/lastmile_qr_scan", "android": "https://dc.lft.to/lastmile_qr_scan"}, "lon": -77.03865066666667, "type": "electric_scooter", "fusion_lat": 0.0, "lat": 38.9155995, "name": "d2d2e8a34a56ba12e44b0bb1f5847f82", "fusion_lon": 0.0, "bike_id": "d2d2e8a34a56ba12e44b0bb1f5847f82", "is_disabled": 0, "is_reserved": 0}, {"rental_uris": {"ios": "https://dc.lft.to/lastmile_qr_scan", "android": "https://dc.lft.to/lastmile_qr_scan"}, "lon": -77.02806483333333, "type": "electric_scooter", "fusion_lat": 0.0, "lat": 38.961951, "name": "3745020468837fdcd6b075e838df0ce2", "fusion_lon": 0.0, "bike_id": "3745020468837fdcd6b075e838df0ce2", "is_disabled": 0, "is_reserved": 0}, {"rental_uris": {"ios": "https://dc.lft.to/lastmile_qr_scan", "android": "https://dc.lft.to/lastmile_qr_scan"}, "lon": -77.02164733333333, "type": "electric_scooter", "fusion_lat": 0.0, "lat": 38.89727466666667, "name": "a55ead7fc00cb3703fcfb2c8227c9788", "fusion_lon": 0.0, "bike_id": "a55ead7fc00cb3703fcfb2c8227c9788", "is_disabled": 0, "is_reserved": 0}, {"rental_uris": {"ios": "https://dc.lft.to/lastmile_qr_scan", "android": "https://dc.lft.to/lastmile_qr_scan"}, "lon": -77.09553116666666, "type": "electric_bike", "fusion_lat": 0.0, "lat": 38.837319666666666, "name": "b8ef6d088e36de4cd6bb7ee8b4ae48a2", "fusion_lon": 0.0, "bike_id": "b8ef6d088e36de4cd6bb7ee8b4ae48a2", "is_disabled": 0, "is_reserved": 0}, {"rental_uris": {"ios": "https://dc.lft.to/lastmile_qr_scan", "android": "https://dc.lft.to/lastmile_qr_scan"}, "lon": -76.996711, "type": "electric_scooter", "fusion_lat": 0.0, "lat": 38.93259583333333, "name": "bc755ae537815330aebe52b46b709a21", "fusion_lon": 0.0, "bike_id": "bc755ae537815330aebe52b46b709a21", "is_disabled": 0, "is_reserved": 0}, {"rental_uris": {"ios": "https://dc.lft.to/lastmile_qr_scan", "android": "https://dc.lft.to/lastmile_qr_scan"}, "lon": -76.98683983333333, "type": "electric_scooter", "fusion_lat": 0.0, "lat": 38.8822035, "name": "0cdbfc31a7820893ef03f30d04cfff8c", "fusion_lon": 0.0, "bike_id": "0cdbfc31a7820893ef03f30d04cfff8c", "is_disabled": 0, "is_reserved": 0}, {"rental_uris": {"ios": "https://dc.lft.to/lastmile_qr_scan", "android": "https://dc.lft.to/lastmile_qr_scan"}, "lon": -77.0221365, "type": "electric_scooter", "fusion_lat": 0.0, "lat": 38.912656, "name": "ed9758c2749a4f52dedbd1d096b55229", "fusion_lon": 0.0, "bike_id": "ed9758c2749a4f52dedbd1d096b55229", "is_disabled": 0, "is_reserved": 0}, {"rental_uris": {"ios": "https://dc.lft.to/lastmile_qr_scan", "android": "https://dc.lft.to/lastmile_qr_scan"}, "lon": -77.04988566666667, "type": "electric_scooter", "fusion_lat": 0.0, "lat": 38.901251, "name": "394c0726b2f59cb3c72f178be8fa0dc8", "fusion_lon": 0.0, "bike_id": "394c0726b2f59cb3c72f178be8fa0dc8", "is_disabled": 0, "is_reserved": 0}, {"rental_uris": {"ios": "https://dc.lft.to/lastmile_qr_scan", "android": "https://dc.lft.to/lastmile_qr_scan"}, "lon": -77.0298345, "type": "electric_scooter", "fusion_lat": 0.0, "lat": 38.90896983333333, "name": "25731a962868b900058151c29142c845", "fusion_lon": 0.0, "bike_id": "25731a962868b900058151c29142c845", "is_disabled": 0, "is_reserved": 0}, {"rental_uris": {"ios": "https://dc.lft.to/lastmile_qr_scan", "android": "https://dc.lft.to/lastmile_qr_scan"}, "lon": -77.02203616666667, "type": "electric_bike", "fusion_lat": 0.0, "lat": 38.8831735, "name": "f18073f6d072293b1072560dfea2ccd5", "fusion_lon": 0.0, "bike_id": "f18073f6d072293b1072560dfea2ccd5", "is_disabled": 0, "is_reserved": 0}, {"rental_uris": {"ios": "https://dc.lft.to/lastmile_qr_scan", "android": "https://dc.lft.to/lastmile_qr_scan"}, "lon": -77.05678666666667, "type": "electric_scooter", "fusion_lat": 0.0, "lat": 38.923332333333335, "name": "730d48d62acd64b73e15fd64f3fb89a8", "fusion_lon": 0.0, "bike_id": "730d48d62acd64b73e15fd64f3fb89a8", "is_disabled": 0, "is_reserved": 0}, {"rental_uris": {"ios": "https://dc.lft.to/lastmile_qr_scan", "android": "https://dc.lft.to/lastmile_qr_scan"}, "lon": -76.97960883333333, "type": "electric_scooter", "fusion_lat": 0.0, "lat": 38.90377266666667, "name": "fcf12078e6cb926bbe1ab0d6c1b5d1b9", "fusion_lon": 0.0, "bike_id": "fcf12078e6cb926bbe1ab0d6c1b5d1b9", "is_disabled": 0, "is_reserved": 0}, {"rental_uris": {"ios": "https://dc.lft.to/lastmile_qr_scan", "android": "https://dc.lft.to/lastmile_qr_scan"}, "lon": -77.03864583333333, "type": "electric_scooter", "fusion_lat": 0.0, "lat": 38.9155175, "name": "8c584635c97f25b7ea1e5f1634286562", "fusion_lon": 0.0, "bike_id": "8c584635c97f25b7ea1e5f1634286562", "is_disabled": 0, "is_reserved": 0}, {"rental_uris": {"ios": "https://dc.lft.to/lastmile_qr_scan", "android": "https://dc.lft.to/lastmile_qr_scan"}, "lon": -77.04820083333334, "type": "electric_scooter", "fusion_lat": 0.0, "lat": 38.907244666666664, "name": "2d4cb7927fea050f9bf2f3c228637e99", "fusion_lon": 0.0, "bike_id": "2d4cb7927fea050f9bf2f3c228637e99", "is_disabled": 0, "is_reserved": 0}, {"rental_uris": {"ios": "https://dc.lft.to/lastmile_qr_scan", "android": "https://dc.lft.to/lastmile_qr_scan"}, "lon": -77.02866666666667, "type": "electric_scooter", "fusion_lat": 0.0, "lat": 38.90709116666667, "name": "44acd5317caf3eac76cdb86eec0b7193", "fusion_lon": 0.0, "bike_id": "44acd5317caf3eac76cdb86eec0b7193", "is_disabled": 0, "is_reserved": 0}, {"rental_uris": {"ios": "https://dc.lft.to/lastmile_qr_scan", "android": "https://dc.lft.to/lastmile_qr_scan"}, "lon": -77.0326605, "type": "electric_scooter", "fusion_lat": 0.0, "lat": 38.947881833333334, "name": "69f1a7ae875c8eb0890493bfba9ad5ab", "fusion_lon": 0.0, "bike_id": "69f1a7ae875c8eb0890493bfba9ad5ab", "is_disabled": 0, "is_reserved": 0}, {"rental_uris": {"ios": "https://dc.lft.to/lastmile_qr_scan", "android": "https://dc.lft.to/lastmile_qr_scan"}, "lon": -77.05248683333333, "type": "electric_scooter", "fusion_lat": 0.0, "lat": 38.92377116666667, "name": "10e750df9dd73c9f38fe50df0572da7b", "fusion_lon": 0.0, "bike_id": "10e750df9dd73c9f38fe50df0572da7b", "is_disabled": 0, "is_reserved": 0}, {"rental_uris": {"ios": "https://dc.lft.to/lastmile_qr_scan", "android": "https://dc.lft.to/lastmile_qr_scan"}, "lon": -77.00896866666666, "type": "electric_scooter", "fusion_lat": 0.0, "lat": 38.8977195, "name": "81f21dbd8eca0d3dc8db8e6c5329c4a4", "fusion_lon": 0.0, "bike_id": "81f21dbd8eca0d3dc8db8e6c5329c4a4", "is_disabled": 0, "is_reserved": 0}, {"rental_uris": {"ios": "https://dc.lft.to/lastmile_qr_scan", "android": "https://dc.lft.to/lastmile_qr_scan"}, "lon": -76.98632716666667, "type": "electric_scooter", "fusion_lat": 0.0, "lat": 38.8681775, "name": "d9ba85307491d6d60c34f3b741a9057a", "fusion_lon": 0.0, "bike_id": "d9ba85307491d6d60c34f3b741a9057a", "is_disabled": 0, "is_reserved": 0}, {"rental_uris": {"ios": "https://dc.lft.to/lastmile_qr_scan", "android": "https://dc.lft.to/lastmile_qr_scan"}, "lon": -77.04479983333333, "type": "electric_scooter", "fusion_lat": 0.0, "lat": 38.90647533333333, "name": "54f7c68b530540e806f5c8b81b9583c7", "fusion_lon": 0.0, "bike_id": "54f7c68b530540e806f5c8b81b9583c7", "is_disabled": 0, "is_reserved": 0}, {"rental_uris": {"ios": "https://dc.lft.to/lastmile_qr_scan", "android": "https://dc.lft.to/lastmile_qr_scan"}, "lon": -77.01260366666666, "type": "electric_scooter", "fusion_lat": 0.0, "lat": 38.89964533333333, "name": "77462a6e89e3ac3e5d39c520b3c53e5d", "fusion_lon": 0.0, "bike_id": "77462a6e89e3ac3e5d39c520b3c53e5d", "is_disabled": 0, "is_reserved": 0}, {"rental_uris": {"ios": "https://dc.lft.to/lastmile_qr_scan", "android": "https://dc.lft.to/lastmile_qr_scan"}, "lon": -77.13597516666667, "type": "electric_bike", "fusion_lat": 0.0, "lat": 39.0534655, "name": "1e4715a2018fb41a002bd79a67fcc0c0", "fusion_lon": 0.0, "bike_id": "1e4715a2018fb41a002bd79a67fcc0c0", "is_disabled": 0, "is_reserved": 0}, {"rental_uris": {"ios": "https://dc.lft.to/lastmile_qr_scan", "android": "https://dc.lft.to/lastmile_qr_scan"}, "lon": -77.02945666666666, "type": "electric_scooter", "fusion_lat": 0.0, "lat": 38.920597666666666, "name": "59babdb30cb3619efc2fe40b9c003c62", "fusion_lon": 0.0, "bike_id": "59babdb30cb3619efc2fe40b9c003c62", "is_disabled": 0, "is_reserved": 0}, {"rental_uris": {"ios": "https://dc.lft.to/lastmile_qr_scan", "android": "https://dc.lft.to/lastmile_qr_scan"}, "lon": -77.04306833333334, "type": "electric_scooter", "fusion_lat": 0.0, "lat": 38.922555833333334, "name": "d3bebbc70ef7460a1547b235eec9a99d", "fusion_lon": 0.0, "bike_id": "d3bebbc70ef7460a1547b235eec9a99d", "is_disabled": 0, "is_reserved": 0}, {"rental_uris": {"ios": "https://dc.lft.to/lastmile_qr_scan", "android": "https://dc.lft.to/lastmile_qr_scan"}, "lon": -77.0447745, "type": "electric_scooter", "fusion_lat": 0.0, "lat": 38.911073333333334, "name": "bfa1f043a37e5a6b41cd45a33bad902c", "fusion_lon": 0.0, "bike_id": "bfa1f043a37e5a6b41cd45a33bad902c", "is_disabled": 0, "is_reserved": 0}, {"rental_uris": {"ios": "https://dc.lft.to/lastmile_qr_scan", "android": "https://dc.lft.to/lastmile_qr_scan"}, "lon": -77.04662066666667, "type": "electric_scooter", "fusion_lat": 0.0, "lat": 38.90051016666666, "name": "4c2cb805f8e26c1736ffff6f710b712d", "fusion_lon": 0.0, "bike_id": "4c2cb805f8e26c1736ffff6f710b712d", "is_disabled": 0, "is_reserved": 0}, {"rental_uris": {"ios": "https://dc.lft.to/lastmile_qr_scan", "android": "https://dc.lft.to/lastmile_qr_scan"}, "lon": -77.0463975, "type": "electric_scooter", "fusion_lat": 0.0, "lat": 38.8922285, "name": "3630cf269927f87070fd3ebf08f17af6", "fusion_lon": 0.0, "bike_id": "3630cf269927f87070fd3ebf08f17af6", "is_disabled": 0, "is_reserved": 0}, {"rental_uris": {"ios": "https://dc.lft.to/lastmile_qr_scan", "android": "https://dc.lft.to/lastmile_qr_scan"}, "lon": -77.05294016666667, "type": "electric_scooter", "fusion_lat": 0.0, "lat": 38.92790133333333, "name": "b5598142fafcebaa0c41defa044b3b37", "fusion_lon": 0.0, "bike_id": "b5598142fafcebaa0c41defa044b3b37", "is_disabled": 0, "is_reserved": 0}, {"rental_uris": {"ios": "https://dc.lft.to/lastmile_qr_scan", "android": "https://dc.lft.to/lastmile_qr_scan"}, "lon": -77.12900466666666, "type": "electric_bike", "fusion_lat": 0.0, "lat": 38.863754166666666, "name": "0881efd67b034955e06e237f01613547", "fusion_lon": 0.0, "bike_id": "0881efd67b034955e06e237f01613547", "is_disabled": 0, "is_reserved": 0}, {"rental_uris": {"ios": "https://dc.lft.to/lastmile_qr_scan", "android": "https://dc.lft.to/lastmile_qr_scan"}, "lon": -77.02828966666667, "type": "electric_scooter", "fusion_lat": 0.0, "lat": 38.895361333333334, "name": "9456d914a84cb6c8ad7fe62b3369952a", "fusion_lon": 0.0, "bike_id": "9456d914a84cb6c8ad7fe62b3369952a", "is_disabled": 0, "is_reserved": 0}, {"rental_uris": {"ios": "https://dc.lft.to/lastmile_qr_scan", "android": "https://dc.lft.to/lastmile_qr_scan"}, "lon": -77.0269605, "type": "electric_scooter", "fusion_lat": 0.0, "lat": 38.906366166666665, "name": "ee8963eaff9a6e4290c98fd019f72ab3", "fusion_lon": 0.0, "bike_id": "ee8963eaff9a6e4290c98fd019f72ab3", "is_disabled": 0, "is_reserved": 0}, {"rental_uris": {"ios": "https://dc.lft.to/lastmile_qr_scan", "android": "https://dc.lft.to/lastmile_qr_scan"}, "lon": -77.02400816666666, "type": "electric_scooter", "fusion_lat": 0.0, "lat": 38.91588733333333, "name": "3c589cc170926cb54d18c9df7b3eadc5", "fusion_lon": 0.0, "bike_id": "3c589cc170926cb54d18c9df7b3eadc5", "is_disabled": 0, "is_reserved": 0}, {"rental_uris": {"ios": "https://dc.lft.to/lastmile_qr_scan", "android": "https://dc.lft.to/lastmile_qr_scan"}, "lon": -77.050057, "type": "electric_scooter", "fusion_lat": 0.0, "lat": 38.89228083333333, "name": "92f2dc62cfc29cdad3ecc18ef389f74e", "fusion_lon": 0.0, "bike_id": "92f2dc62cfc29cdad3ecc18ef389f74e", "is_disabled": 0, "is_reserved": 0}, {"rental_uris": {"ios": "https://dc.lft.to/lastmile_qr_scan", "android": "https://dc.lft.to/lastmile_qr_scan"}, "lon": -77.0269455, "type": "electric_scooter", "fusion_lat": 0.0, "lat": 38.908729, "name": "e88eb84cd56e85777f936bdfd5c94ec4", "fusion_lon": 0.0, "bike_id": "e88eb84cd56e85777f936bdfd5c94ec4", "is_disabled": 0, "is_reserved": 0}, {"rental_uris": {"ios": "https://dc.lft.to/lastmile_qr_scan", "android": "https://dc.lft.to/lastmile_qr_scan"}, "lon": -77.0489165, "type": "electric_scooter", "fusion_lat": 0.0, "lat": 38.90607716666667, "name": "ed6e0398504860d5fe3a2a3733879608", "fusion_lon": 0.0, "bike_id": "ed6e0398504860d5fe3a2a3733879608", "is_disabled": 0, "is_reserved": 0}, {"rental_uris": {"ios": "https://dc.lft.to/lastmile_qr_scan", "android": "https://dc.lft.to/lastmile_qr_scan"}, "lon": -77.02384333333333, "type": "electric_scooter", "fusion_lat": 0.0, "lat": 38.8923015, "name": "5e740d6c56a2bf794f850a3ade203966", "fusion_lon": 0.0, "bike_id": "5e740d6c56a2bf794f850a3ade203966", "is_disabled": 0, "is_reserved": 0}, {"rental_uris": {"ios": "https://dc.lft.to/lastmile_qr_scan", "android": "https://dc.lft.to/lastmile_qr_scan"}, "lon": -77.05352366666666, "type": "electric_scooter", "fusion_lat": 0.0, "lat": 38.927972833333335, "name": "298da80b834362ba31eab7f5c40c9d0b", "fusion_lon": 0.0, "bike_id": "298da80b834362ba31eab7f5c40c9d0b", "is_disabled": 0, "is_reserved": 0}, {"rental_uris": {"ios": "https://dc.lft.to/lastmile_qr_scan", "android": "https://dc.lft.to/lastmile_qr_scan"}, "lon": -77.05220466666667, "type": "electric_scooter", "fusion_lat": 0.0, "lat": 38.92492816666667, "name": "87dea97b36e7f4bed6b3d78b01dc4051", "fusion_lon": 0.0, "bike_id": "87dea97b36e7f4bed6b3d78b01dc4051", "is_disabled": 0, "is_reserved": 0}, {"rental_uris": {"ios": "https://dc.lft.to/lastmile_qr_scan", "android": "https://dc.lft.to/lastmile_qr_scan"}, "lon": -76.946554, "type": "electric_scooter", "fusion_lat": 0.0, "lat": 38.89824983333333, "name": "32ed8ee2dfef280b6821c7102374950e", "fusion_lon": 0.0, "bike_id": "32ed8ee2dfef280b6821c7102374950e", "is_disabled": 0, "is_reserved": 0}, {"rental_uris": {"ios": "https://dc.lft.to/lastmile_qr_scan", "android": "https://dc.lft.to/lastmile_qr_scan"}, "lon": -77.02690966666667, "type": "electric_scooter", "fusion_lat": 0.0, "lat": 38.906791166666665, "name": "80e1c497701375c5c7b87f57c9d6bfc3", "fusion_lon": 0.0, "bike_id": "80e1c497701375c5c7b87f57c9d6bfc3", "is_disabled": 0, "is_reserved": 0}, {"rental_uris": {"ios": "https://dc.lft.to/lastmile_qr_scan", "android": "https://dc.lft.to/lastmile_qr_scan"}, "lon": -77.03162233333333, "type": "electric_scooter", "fusion_lat": 0.0, "lat": 38.92370416666667, "name": "8ef958b8abafb4dd9303b7f8d9a7d32f", "fusion_lon": 0.0, "bike_id": "8ef958b8abafb4dd9303b7f8d9a7d32f", "is_disabled": 0, "is_reserved": 0}, {"rental_uris": {"ios": "https://dc.lft.to/lastmile_qr_scan", "android": "https://dc.lft.to/lastmile_qr_scan"}, "lon": -76.97252399999999, "type": "electric_bike", "fusion_lat": 0.0, "lat": 38.957398833333336, "name": "42f614aa227efe6445f458be4652acea", "fusion_lon": 0.0, "bike_id": "42f614aa227efe6445f458be4652acea", "is_disabled": 0, "is_reserved": 0}, {"rental_uris": {"ios": "https://dc.lft.to/lastmile_qr_scan", "android": "https://dc.lft.to/lastmile_qr_scan"}, "lon": -77.02216416666667, "type": "electric_scooter", "fusion_lat": 0.0, "lat": 38.912671333333336, "name": "e8d8c4e20256f6787b1b4f0d6c5d6b4b", "fusion_lon": 0.0, "bike_id": "e8d8c4e20256f6787b1b4f0d6c5d6b4b", "is_disabled": 0, "is_reserved": 0}, {"rental_uris": {"ios": "https://dc.lft.to/lastmile_qr_scan", "android": "https://dc.lft.to/lastmile_qr_scan"}, "lon": -77.05884833333333, "type": "electric_scooter", "fusion_lat": 0.0, "lat": 38.936331, "name": "8cf475d259b8d90c34b62a2d6a3ae135", "fusion_lon": 0.0, "bike_id": "8cf475d259b8d90c34b62a2d6a3ae135", "is_disabled": 0, "is_reserved": 0}, {"rental_uris": {"ios": "https://dc.lft.to/lastmile_qr_scan", "android": "https://dc.lft.to/lastmile_qr_scan"}, "lon": -77.03052633333333, "type": "electric_scooter", "fusion_lat": 0.0, "lat": 38.92682216666667, "name": "2c71da86ff2e39c0e6f85ca60fe78092", "fusion_lon": 0.0, "bike_id": "2c71da86ff2e39c0e6f85ca60fe78092", "is_disabled": 0, "is_reserved": 0}, {"rental_uris": {"ios": "https://dc.lft.to/lastmile_qr_scan", "android": "https://dc.lft.to/lastmile_qr_scan"}, "lon": -77.034467, "type": "electric_scooter", "fusion_lat": 0.0, "lat": 38.9178455, "name": "bd35930594f71d97c696755c75000144", "fusion_lon": 0.0, "bike_id": "bd35930594f71d97c696755c75000144", "is_disabled": 0, "is_reserved": 0}, {"rental_uris": {"ios": "https://dc.lft.to/lastmile_qr_scan", "android": "https://dc.lft.to/lastmile_qr_scan"}, "lon": -76.96550016666667, "type": "electric_scooter", "fusion_lat": 0.0, "lat": 38.9186285, "name": "1e15556365549123c57a41aaeb529911", "fusion_lon": 0.0, "bike_id": "1e15556365549123c57a41aaeb529911", "is_disabled": 0, "is_reserved": 0}, {"rental_uris": {"ios": "https://dc.lft.to/lastmile_qr_scan", "android": "https://dc.lft.to/lastmile_qr_scan"}, "lon": -77.02949366666667, "type": "electric_scooter", "fusion_lat": 0.0, "lat": 38.90504333333333, "name": "b99de7ef3485b119d2f7bcfa807bed95", "fusion_lon": 0.0, "bike_id": "b99de7ef3485b119d2f7bcfa807bed95", "is_disabled": 0, "is_reserved": 0}, {"rental_uris": {"ios": "https://dc.lft.to/lastmile_qr_scan", "android": "https://dc.lft.to/lastmile_qr_scan"}, "lon": -77.03176716666667, "type": "electric_scooter", "fusion_lat": 0.0, "lat": 38.91927483333333, "name": "939fadc3635814acd9c81f890fd8bb07", "fusion_lon": 0.0, "bike_id": "939fadc3635814acd9c81f890fd8bb07", "is_disabled": 0, "is_reserved": 0}, {"rental_uris": {"ios": "https://dc.lft.to/lastmile_qr_scan", "android": "https://dc.lft.to/lastmile_qr_scan"}, "lon": -77.023849, "type": "electric_scooter", "fusion_lat": 0.0, "lat": 38.91593833333334, "name": "bde49c2e819ca52709ee3852ecf6dc14", "fusion_lon": 0.0, "bike_id": "bde49c2e819ca52709ee3852ecf6dc14", "is_disabled": 0, "is_reserved": 0}, {"rental_uris": {"ios": "https://dc.lft.to/lastmile_qr_scan", "android": "https://dc.lft.to/lastmile_qr_scan"}, "lon": -77.03209, "type": "electric_scooter", "fusion_lat": 0.0, "lat": 38.937562166666666, "name": "bfb7a37c36f5bc0083a37a320665bcd3", "fusion_lon": 0.0, "bike_id": "bfb7a37c36f5bc0083a37a320665bcd3", "is_disabled": 0, "is_reserved": 0}, {"rental_uris": {"ios": "https://dc.lft.to/lastmile_qr_scan", "android": "https://dc.lft.to/lastmile_qr_scan"}, "lon": -77.015451, "type": "electric_scooter", "fusion_lat": 0.0, "lat": 38.902759833333334, "name": "2bbefdd1363445d6ed891a780c33d72f", "fusion_lon": 0.0, "bike_id": "2bbefdd1363445d6ed891a780c33d72f", "is_disabled": 0, "is_reserved": 0}, {"rental_uris": {"ios": "https://dc.lft.to/lastmile_qr_scan", "android": "https://dc.lft.to/lastmile_qr_scan"}, "lon": -77.0219835, "type": "electric_scooter", "fusion_lat": 0.0, "lat": 38.908347666666664, "name": "f18d54f4f8a5a03937f4c98b98aca8c1", "fusion_lon": 0.0, "bike_id": "f18d54f4f8a5a03937f4c98b98aca8c1", "is_disabled": 0, "is_reserved": 0}, {"rental_uris": {"ios": "https://dc.lft.to/lastmile_qr_scan", "android": "https://dc.lft.to/lastmile_qr_scan"}, "lon": -76.97606166666667, "type": "electric_scooter", "fusion_lat": 0.0, "lat": 38.90203966666667, "name": "5e9988f2981fa4f2d09df50f4de391d8", "fusion_lon": 0.0, "bike_id": "5e9988f2981fa4f2d09df50f4de391d8", "is_disabled": 0, "is_reserved": 0}, {"rental_uris": {"ios": "https://dc.lft.to/lastmile_qr_scan", "android": "https://dc.lft.to/lastmile_qr_scan"}, "lon": -77.03654316666666, "type": "electric_scooter", "fusion_lat": 0.0, "lat": 38.9028755, "name": "b660ac450f57087566be2ff279e13a84", "fusion_lon": 0.0, "bike_id": "b660ac450f57087566be2ff279e13a84", "is_disabled": 0, "is_reserved": 0}, {"rental_uris": {"ios": "https://dc.lft.to/lastmile_qr_scan", "android": "https://dc.lft.to/lastmile_qr_scan"}, "lon": -77.00723316666667, "type": "electric_scooter", "fusion_lat": 0.0, "lat": 38.87705033333334, "name": "60bfac0f9f0128c5f0cb167937048ec8", "fusion_lon": 0.0, "bike_id": "60bfac0f9f0128c5f0cb167937048ec8", "is_disabled": 0, "is_reserved": 0}, {"rental_uris": {"ios": "https://dc.lft.to/lastmile_qr_scan", "android": "https://dc.lft.to/lastmile_qr_scan"}, "lon": -77.02819033333333, "type": "electric_scooter", "fusion_lat": 0.0, "lat": 38.90931283333333, "name": "0ea383fbeeb5f2a13406fc8ee470d430", "fusion_lon": 0.0, "bike_id": "0ea383fbeeb5f2a13406fc8ee470d430", "is_disabled": 0, "is_reserved": 0}, {"rental_uris": {"ios": "https://dc.lft.to/lastmile_qr_scan", "android": "https://dc.lft.to/lastmile_qr_scan"}, "lon": -76.99924566666667, "type": "electric_scooter", "fusion_lat": 0.0, "lat": 38.9095065, "name": "86e86154e8b257db54f05eeed702078e", "fusion_lon": 0.0, "bike_id": "86e86154e8b257db54f05eeed702078e", "is_disabled": 0, "is_reserved": 0}, {"rental_uris": {"ios": "https://dc.lft.to/lastmile_qr_scan", "android": "https://dc.lft.to/lastmile_qr_scan"}, "lon": -77.051762, "type": "electric_scooter", "fusion_lat": 0.0, "lat": 38.92417, "name": "e3d1fc5279feffd8db89a9dc29e5d26e", "fusion_lon": 0.0, "bike_id": "e3d1fc5279feffd8db89a9dc29e5d26e", "is_disabled": 0, "is_reserved": 0}, {"rental_uris": {"ios": "https://dc.lft.to/lastmile_qr_scan", "android": "https://dc.lft.to/lastmile_qr_scan"}, "lon": -77.027486, "type": "electric_scooter", "fusion_lat": 0.0, "lat": 38.96625616666667, "name": "62a555491189b1227e2262e48abf5470", "fusion_lon": 0.0, "bike_id": "62a555491189b1227e2262e48abf5470", "is_disabled": 0, "is_reserved": 0}, {"rental_uris": {"ios": "https://dc.lft.to/lastmile_qr_scan", "android": "https://dc.lft.to/lastmile_qr_scan"}, "lon": -76.985017, "type": "electric_scooter", "fusion_lat": 0.0, "lat": 38.86044, "name": "64838497988337e196cc673562ec93f9", "fusion_lon": 0.0, "bike_id": "64838497988337e196cc673562ec93f9", "is_disabled": 0, "is_reserved": 0}, {"rental_uris": {"ios": "https://dc.lft.to/lastmile_qr_scan", "android": "https://dc.lft.to/lastmile_qr_scan"}, "lon": -76.96882366666667, "type": "electric_bike", "fusion_lat": 0.0, "lat": 38.84597616666667, "name": "a795019bdcc4970b16474282e972d555", "fusion_lon": 0.0, "bike_id": "a795019bdcc4970b16474282e972d555", "is_disabled": 0, "is_reserved": 0}, {"rental_uris": {"ios": "https://dc.lft.to/lastmile_qr_scan", "android": "https://dc.lft.to/lastmile_qr_scan"}, "lon": -76.99531, "type": "electric_scooter", "fusion_lat": 0.0, "lat": 38.92670666666667, "name": "aefa169f8df279d0ba03cdad6d713b88", "fusion_lon": 0.0, "bike_id": "aefa169f8df279d0ba03cdad6d713b88", "is_disabled": 0, "is_reserved": 0}, {"rental_uris": {"ios": "https://dc.lft.to/lastmile_qr_scan", "android": "https://dc.lft.to/lastmile_qr_scan"}, "lon": -77.10090633333333, "type": "electric_bike", "fusion_lat": 0.0, "lat": 38.95955716666667, "name": "ddabadd852b1b682fc3487a9f148c0d4", "fusion_lon": 0.0, "bike_id": "ddabadd852b1b682fc3487a9f148c0d4", "is_disabled": 0, "is_reserved": 0}, {"rental_uris": {"ios": "https://dc.lft.to/lastmile_qr_scan", "android": "https://dc.lft.to/lastmile_qr_scan"}, "lon": -76.9951195, "type": "electric_scooter", "fusion_lat": 0.0, "lat": 38.844693166666666, "name": "25325deb98fe7648a81575ea6b9f3519", "fusion_lon": 0.0, "bike_id": "25325deb98fe7648a81575ea6b9f3519", "is_disabled": 0, "is_reserved": 0}, {"rental_uris": {"ios": "https://dc.lft.to/lastmile_qr_scan", "android": "https://dc.lft.to/lastmile_qr_scan"}, "lon": -77.0293515, "type": "electric_scooter", "fusion_lat": 0.0, "lat": 38.900151, "name": "6eff854a837bb82bcb1b19b94dd79c2a", "fusion_lon": 0.0, "bike_id": "6eff854a837bb82bcb1b19b94dd79c2a", "is_disabled": 0, "is_reserved": 0}, {"rental_uris": {"ios": "https://dc.lft.to/lastmile_qr_scan", "android": "https://dc.lft.to/lastmile_qr_scan"}, "lon": -77.03325716666667, "type": "electric_scooter", "fusion_lat": 0.0, "lat": 38.90152166666667, "name": "bd4520bd29e352d5d7cd71101e1a78e1", "fusion_lon": 0.0, "bike_id": "bd4520bd29e352d5d7cd71101e1a78e1", "is_disabled": 0, "is_reserved": 0}, {"rental_uris": {"ios": "https://dc.lft.to/lastmile_qr_scan", "android": "https://dc.lft.to/lastmile_qr_scan"}, "lon": -77.0301175, "type": "electric_scooter", "fusion_lat": 0.0, "lat": 38.91924733333333, "name": "6e336246c6fe37dfd434acb73184a477", "fusion_lon": 0.0, "bike_id": "6e336246c6fe37dfd434acb73184a477", "is_disabled": 0, "is_reserved": 0}, {"rental_uris": {"ios": "https://dc.lft.to/lastmile_qr_scan", "android": "https://dc.lft.to/lastmile_qr_scan"}, "lon": -77.03182916666667, "type": "electric_scooter", "fusion_lat": 0.0, "lat": 38.893432, "name": "22d1b3a965afda793ca9433891f47b1e", "fusion_lon": 0.0, "bike_id": "22d1b3a965afda793ca9433891f47b1e", "is_disabled": 0, "is_reserved": 0}, {"rental_uris": {"ios": "https://dc.lft.to/lastmile_qr_scan", "android": "https://dc.lft.to/lastmile_qr_scan"}, "lon": -77.02458983333334, "type": "electric_scooter", "fusion_lat": 0.0, "lat": 38.91840033333333, "name": "06985b7b2ccdf0d6ec3415e3d7adcc8f", "fusion_lon": 0.0, "bike_id": "06985b7b2ccdf0d6ec3415e3d7adcc8f", "is_disabled": 0, "is_reserved": 0}, {"rental_uris": {"ios": "https://dc.lft.to/lastmile_qr_scan", "android": "https://dc.lft.to/lastmile_qr_scan"}, "lon": -77.03216433333333, "type": "electric_scooter", "fusion_lat": 0.0, "lat": 38.91552516666667, "name": "3ab4acf3da8978749cfaa72584aa32e1", "fusion_lon": 0.0, "bike_id": "3ab4acf3da8978749cfaa72584aa32e1", "is_disabled": 0, "is_reserved": 0}, {"rental_uris": {"ios": "https://dc.lft.to/lastmile_qr_scan", "android": "https://dc.lft.to/lastmile_qr_scan"}, "lon": -76.98844966666667, "type": "electric_bike", "fusion_lat": 0.0, "lat": 38.84272516666667, "name": "660974379f4acfb5ec2a844fc1c3d5e4", "fusion_lon": 0.0, "bike_id": "660974379f4acfb5ec2a844fc1c3d5e4", "is_disabled": 0, "is_reserved": 0}, {"rental_uris": {"ios": "https://dc.lft.to/lastmile_qr_scan", "android": "https://dc.lft.to/lastmile_qr_scan"}, "lon": -77.0159585, "type": "electric_scooter", "fusion_lat": 0.0, "lat": 38.89618633333333, "name": "fc80ab323352c0f57c3c83521e333e78", "fusion_lon": 0.0, "bike_id": "fc80ab323352c0f57c3c83521e333e78", "is_disabled": 0, "is_reserved": 0}, {"rental_uris": {"ios": "https://dc.lft.to/lastmile_qr_scan", "android": "https://dc.lft.to/lastmile_qr_scan"}, "lon": -77.01904183333333, "type": "electric_scooter", "fusion_lat": 0.0, "lat": 38.9055475, "name": "39275eb212a8387a0aebd84032624807", "fusion_lon": 0.0, "bike_id": "39275eb212a8387a0aebd84032624807", "is_disabled": 0, "is_reserved": 0}, {"rental_uris": {"ios": "https://dc.lft.to/lastmile_qr_scan", "android": "https://dc.lft.to/lastmile_qr_scan"}, "lon": -77.02619516666667, "type": "electric_scooter", "fusion_lat": 0.0, "lat": 38.91911616666667, "name": "22971e33c56a22f29bade235a77c03a2", "fusion_lon": 0.0, "bike_id": "22971e33c56a22f29bade235a77c03a2", "is_disabled": 0, "is_reserved": 0}, {"rental_uris": {"ios": "https://dc.lft.to/lastmile_qr_scan", "android": "https://dc.lft.to/lastmile_qr_scan"}, "lon": -76.93738916666666, "type": "electric_scooter", "fusion_lat": 0.0, "lat": 38.8901445, "name": "292b47c5e73de71ccc0454d95d955a6e", "fusion_lon": 0.0, "bike_id": "292b47c5e73de71ccc0454d95d955a6e", "is_disabled": 0, "is_reserved": 0}, {"rental_uris": {"ios": "https://dc.lft.to/lastmile_qr_scan", "android": "https://dc.lft.to/lastmile_qr_scan"}, "lon": -77.03085666666666, "type": "electric_scooter", "fusion_lat": 0.0, "lat": 38.900037833333336, "name": "247a368f95d2e197249f1830b7598f60", "fusion_lon": 0.0, "bike_id": "247a368f95d2e197249f1830b7598f60", "is_disabled": 0, "is_reserved": 0}, {"rental_uris": {"ios": "https://dc.lft.to/lastmile_qr_scan", "android": "https://dc.lft.to/lastmile_qr_scan"}, "lon": -77.07935466666666, "type": "electric_scooter", "fusion_lat": 0.0, "lat": 38.94868966666667, "name": "316aa3adc2cad56d1d6084f90b0b7b65", "fusion_lon": 0.0, "bike_id": "316aa3adc2cad56d1d6084f90b0b7b65", "is_disabled": 0, "is_reserved": 0}, {"rental_uris": {"ios": "https://dc.lft.to/lastmile_qr_scan", "android": "https://dc.lft.to/lastmile_qr_scan"}, "lon": -77.02836766666667, "type": "electric_scooter", "fusion_lat": 0.0, "lat": 38.93232966666667, "name": "32ad842574844cfaf141a676b35036fd", "fusion_lon": 0.0, "bike_id": "32ad842574844cfaf141a676b35036fd", "is_disabled": 0, "is_reserved": 0}, {"rental_uris": {"ios": "https://dc.lft.to/lastmile_qr_scan", "android": "https://dc.lft.to/lastmile_qr_scan"}, "lon": -76.93000283333333, "type": "electric_bike", "fusion_lat": 0.0, "lat": 38.887963166666665, "name": "f01d15f7547e0ef2e29a44dfce6e6a23", "fusion_lon": 0.0, "bike_id": "f01d15f7547e0ef2e29a44dfce6e6a23", "is_disabled": 0, "is_reserved": 0}, {"rental_uris": {"ios": "https://dc.lft.to/lastmile_qr_scan", "android": "https://dc.lft.to/lastmile_qr_scan"}, "lon": -77.05269083333333, "type": "electric_scooter", "fusion_lat": 0.0, "lat": 38.91010216666667, "name": "28079e26431e19ac7d4f4de9d20c50ac", "fusion_lon": 0.0, "bike_id": "28079e26431e19ac7d4f4de9d20c50ac", "is_disabled": 0, "is_reserved": 0}, {"rental_uris": {"ios": "https://dc.lft.to/lastmile_qr_scan", "android": "https://dc.lft.to/lastmile_qr_scan"}, "lon": -77.04916333333334, "type": "electric_scooter", "fusion_lat": 0.0, "lat": 38.900786, "name": "7681ee58e0895c206266021e74af4f15", "fusion_lon": 0.0, "bike_id": "7681ee58e0895c206266021e74af4f15", "is_disabled": 0, "is_reserved": 0}, {"rental_uris": {"ios": "https://dc.lft.to/lastmile_qr_scan", "android": "https://dc.lft.to/lastmile_qr_scan"}, "lon": -77.0071765, "type": "electric_scooter", "fusion_lat": 0.0, "lat": 38.9134635, "name": "0a3c15377e176b6fb54b550306d656d5", "fusion_lon": 0.0, "bike_id": "0a3c15377e176b6fb54b550306d656d5", "is_disabled": 0, "is_reserved": 0}, {"rental_uris": {"ios": "https://dc.lft.to/lastmile_qr_scan", "android": "https://dc.lft.to/lastmile_qr_scan"}, "lon": -77.00206366666667, "type": "electric_scooter", "fusion_lat": 0.0, "lat": 38.90830833333333, "name": "67cc27024687128fe2be42e9e1b6c112", "fusion_lon": 0.0, "bike_id": "67cc27024687128fe2be42e9e1b6c112", "is_disabled": 0, "is_reserved": 0}, {"rental_uris": {"ios": "https://dc.lft.to/lastmile_qr_scan", "android": "https://dc.lft.to/lastmile_qr_scan"}, "lon": -77.02181916666666, "type": "electric_scooter", "fusion_lat": 0.0, "lat": 38.91991183333333, "name": "23ecb6381548c23c76fe99090058ea0d", "fusion_lon": 0.0, "bike_id": "23ecb6381548c23c76fe99090058ea0d", "is_disabled": 0, "is_reserved": 0}, {"rental_uris": {"ios": "https://dc.lft.to/lastmile_qr_scan", "android": "https://dc.lft.to/lastmile_qr_scan"}, "lon": -77.05443066666666, "type": "electric_scooter", "fusion_lat": 0.0, "lat": 38.896064333333335, "name": "bef13aa810717729a5cb50a31680d5ef", "fusion_lon": 0.0, "bike_id": "bef13aa810717729a5cb50a31680d5ef", "is_disabled": 0, "is_reserved": 0}, {"rental_uris": {"ios": "https://dc.lft.to/lastmile_qr_scan", "android": "https://dc.lft.to/lastmile_qr_scan"}, "lon": -77.0111725, "type": "electric_scooter", "fusion_lat": 0.0, "lat": 38.900283333333334, "name": "a056c5a33b729b24f4dbe4372a21fa4a", "fusion_lon": 0.0, "bike_id": "a056c5a33b729b24f4dbe4372a21fa4a", "is_disabled": 0, "is_reserved": 0}, {"rental_uris": {"ios": "https://dc.lft.to/lastmile_qr_scan", "android": "https://dc.lft.to/lastmile_qr_scan"}, "lon": -77.02720466666666, "type": "electric_scooter", "fusion_lat": 0.0, "lat": 38.90704516666667, "name": "672942be056c6f5644b3ebc08eb2a202", "fusion_lon": 0.0, "bike_id": "672942be056c6f5644b3ebc08eb2a202", "is_disabled": 0, "is_reserved": 0}, {"rental_uris": {"ios": "https://dc.lft.to/lastmile_qr_scan", "android": "https://dc.lft.to/lastmile_qr_scan"}, "lon": -77.0052745, "type": "electric_scooter", "fusion_lat": 0.0, "lat": 38.929011, "name": "dc9b0c5fe6cbcb0f43ac72bc1e7abac1", "fusion_lon": 0.0, "bike_id": "dc9b0c5fe6cbcb0f43ac72bc1e7abac1", "is_disabled": 0, "is_reserved": 0}, {"rental_uris": {"ios": "https://dc.lft.to/lastmile_qr_scan", "android": "https://dc.lft.to/lastmile_qr_scan"}, "lon": -77.0441235, "type": "electric_scooter", "fusion_lat": 0.0, "lat": 38.90585333333333, "name": "e54ed47278525b869c4881c9309a211e", "fusion_lon": 0.0, "bike_id": "e54ed47278525b869c4881c9309a211e", "is_disabled": 0, "is_reserved": 0}, {"rental_uris": {"ios": "https://dc.lft.to/lastmile_qr_scan", "android": "https://dc.lft.to/lastmile_qr_scan"}, "lon": -77.00264766666666, "type": "electric_scooter", "fusion_lat": 0.0, "lat": 38.877453333333335, "name": "eae5e767393326197c002c660dc03303", "fusion_lon": 0.0, "bike_id": "eae5e767393326197c002c660dc03303", "is_disabled": 0, "is_reserved": 0}, {"rental_uris": {"ios": "https://dc.lft.to/lastmile_qr_scan", "android": "https://dc.lft.to/lastmile_qr_scan"}, "lon": -77.01654983333333, "type": "electric_scooter", "fusion_lat": 0.0, "lat": 38.953275833333336, "name": "eb02d62a5eb0e5457dffdd14c2f43433", "fusion_lon": 0.0, "bike_id": "eb02d62a5eb0e5457dffdd14c2f43433", "is_disabled": 0, "is_reserved": 0}, {"rental_uris": {"ios": "https://dc.lft.to/lastmile_qr_scan", "android": "https://dc.lft.to/lastmile_qr_scan"}, "lon": -76.9826385, "type": "electric_scooter", "fusion_lat": 0.0, "lat": 38.863532166666666, "name": "0b909b4e81bbcd1c539eddf0734e8fb6", "fusion_lon": 0.0, "bike_id": "0b909b4e81bbcd1c539eddf0734e8fb6", "is_disabled": 0, "is_reserved": 0}, {"rental_uris": {"ios": "https://dc.lft.to/lastmile_qr_scan", "android": "https://dc.lft.to/lastmile_qr_scan"}, "lon": -77.04795333333334, "type": "electric_scooter", "fusion_lat": 0.0, "lat": 38.8936125, "name": "23dc16dd89d73c4c80398e08f072e9d8", "fusion_lon": 0.0, "bike_id": "23dc16dd89d73c4c80398e08f072e9d8", "is_disabled": 0, "is_reserved": 0}, {"rental_uris": {"ios": "https://dc.lft.to/lastmile_qr_scan", "android": "https://dc.lft.to/lastmile_qr_scan"}, "lon": -77.04036533333333, "type": "electric_scooter", "fusion_lat": 0.0, "lat": 38.92426416666667, "name": "80e052da91d1c4def1afe8b4cb30667c", "fusion_lon": 0.0, "bike_id": "80e052da91d1c4def1afe8b4cb30667c", "is_disabled": 0, "is_reserved": 0}, {"rental_uris": {"ios": "https://dc.lft.to/lastmile_qr_scan", "android": "https://dc.lft.to/lastmile_qr_scan"}, "lon": -77.01357283333333, "type": "electric_scooter", "fusion_lat": 0.0, "lat": 38.91979583333333, "name": "b202ba5abeae843a7b1048c982060525", "fusion_lon": 0.0, "bike_id": "b202ba5abeae843a7b1048c982060525", "is_disabled": 0, "is_reserved": 0}, {"rental_uris": {"ios": "https://dc.lft.to/lastmile_qr_scan", "android": "https://dc.lft.to/lastmile_qr_scan"}, "lon": -77.13184066666666, "type": "electric_bike", "fusion_lat": 0.0, "lat": 38.86906, "name": "b0377a6fc9c2827358255e351902440b", "fusion_lon": 0.0, "bike_id": "b0377a6fc9c2827358255e351902440b", "is_disabled": 0, "is_reserved": 0}, {"rental_uris": {"ios": "https://dc.lft.to/lastmile_qr_scan", "android": "https://dc.lft.to/lastmile_qr_scan"}, "lon": -77.0333475, "type": "electric_scooter", "fusion_lat": 0.0, "lat": 38.903285, "name": "44c067926d56d1a0e8066cf22c549c0c", "fusion_lon": 0.0, "bike_id": "44c067926d56d1a0e8066cf22c549c0c", "is_disabled": 0, "is_reserved": 0}, {"rental_uris": {"ios": "https://dc.lft.to/lastmile_qr_scan", "android": "https://dc.lft.to/lastmile_qr_scan"}, "lon": -77.03268, "type": "electric_scooter", "fusion_lat": 0.0, "lat": 38.91985016666667, "name": "88cd1e8fb88461009431d6027dec65f4", "fusion_lon": 0.0, "bike_id": "88cd1e8fb88461009431d6027dec65f4", "is_disabled": 0, "is_reserved": 0}, {"rental_uris": {"ios": "https://dc.lft.to/lastmile_qr_scan", "android": "https://dc.lft.to/lastmile_qr_scan"}, "lon": -77.0250465, "type": "electric_scooter", "fusion_lat": 0.0, "lat": 38.880305, "name": "12a52f44be4600af20a131864047a9e8", "fusion_lon": 0.0, "bike_id": "12a52f44be4600af20a131864047a9e8", "is_disabled": 0, "is_reserved": 0}, {"rental_uris": {"ios": "https://dc.lft.to/lastmile_qr_scan", "android": "https://dc.lft.to/lastmile_qr_scan"}, "lon": -77.03946866666666, "type": "electric_scooter", "fusion_lat": 0.0, "lat": 38.931474, "name": "6da830900bddee5406bd430ac0c730c4", "fusion_lon": 0.0, "bike_id": "6da830900bddee5406bd430ac0c730c4", "is_disabled": 0, "is_reserved": 0}, {"rental_uris": {"ios": "https://dc.lft.to/lastmile_qr_scan", "android": "https://dc.lft.to/lastmile_qr_scan"}, "lon": -76.97732833333333, "type": "electric_scooter", "fusion_lat": 0.0, "lat": 38.87290516666667, "name": "0a49f600a600ee85d058a77afd50b5da", "fusion_lon": 0.0, "bike_id": "0a49f600a600ee85d058a77afd50b5da", "is_disabled": 0, "is_reserved": 0}, {"rental_uris": {"ios": "https://dc.lft.to/lastmile_qr_scan", "android": "https://dc.lft.to/lastmile_qr_scan"}, "lon": -76.94948133333334, "type": "electric_scooter", "fusion_lat": 0.0, "lat": 38.883782833333335, "name": "580c37c779670ba9c14022a041f057c1", "fusion_lon": 0.0, "bike_id": "580c37c779670ba9c14022a041f057c1", "is_disabled": 0, "is_reserved": 0}, {"rental_uris": {"ios": "https://dc.lft.to/lastmile_qr_scan", "android": "https://dc.lft.to/lastmile_qr_scan"}, "lon": -77.024888, "type": "electric_scooter", "fusion_lat": 0.0, "lat": 38.90188466666667, "name": "a3ff15627bf992fd6c41c1dcc7017660", "fusion_lon": 0.0, "bike_id": "a3ff15627bf992fd6c41c1dcc7017660", "is_disabled": 0, "is_reserved": 0}, {"rental_uris": {"ios": "https://dc.lft.to/lastmile_qr_scan", "android": "https://dc.lft.to/lastmile_qr_scan"}, "lon": -77.048145, "type": "electric_scooter", "fusion_lat": 0.0, "lat": 38.916457, "name": "ce234a5bb9c324d28e51012384a51306", "fusion_lon": 0.0, "bike_id": "ce234a5bb9c324d28e51012384a51306", "is_disabled": 0, "is_reserved": 0}, {"rental_uris": {"ios": "https://dc.lft.to/lastmile_qr_scan", "android": "https://dc.lft.to/lastmile_qr_scan"}, "lon": -77.0216525, "type": "electric_scooter", "fusion_lat": 0.0, "lat": 38.8973475, "name": "fc508fc49f417f819468600a0765119f", "fusion_lon": 0.0, "bike_id": "fc508fc49f417f819468600a0765119f", "is_disabled": 0, "is_reserved": 0}, {"rental_uris": {"ios": "https://dc.lft.to/lastmile_qr_scan", "android": "https://dc.lft.to/lastmile_qr_scan"}, "lon": -77.05065933333333, "type": "electric_scooter", "fusion_lat": 0.0, "lat": 38.905567, "name": "a8bebc31b58c611dffb2373193a2916a", "fusion_lon": 0.0, "bike_id": "a8bebc31b58c611dffb2373193a2916a", "is_disabled": 0, "is_reserved": 0}, {"rental_uris": {"ios": "https://dc.lft.to/lastmile_qr_scan", "android": "https://dc.lft.to/lastmile_qr_scan"}, "lon": -77.02988716666667, "type": "electric_bike", "fusion_lat": 0.0, "lat": 38.90032016666667, "name": "16fcb1ecde35d041988d052026543159", "fusion_lon": 0.0, "bike_id": "16fcb1ecde35d041988d052026543159", "is_disabled": 0, "is_reserved": 0}, {"rental_uris": {"ios": "https://dc.lft.to/lastmile_qr_scan", "android": "https://dc.lft.to/lastmile_qr_scan"}, "lon": -77.03831233333334, "type": "electric_scooter", "fusion_lat": 0.0, "lat": 38.921705333333335, "name": "a3d45aad7a5a8d6a84f6febe6e721563", "fusion_lon": 0.0, "bike_id": "a3d45aad7a5a8d6a84f6febe6e721563", "is_disabled": 0, "is_reserved": 0}, {"rental_uris": {"ios": "https://dc.lft.to/lastmile_qr_scan", "android": "https://dc.lft.to/lastmile_qr_scan"}, "lon": -76.9573965, "type": "electric_scooter", "fusion_lat": 0.0, "lat": 38.892188833333336, "name": "041a500d163d261791283ffce47c2f64", "fusion_lon": 0.0, "bike_id": "041a500d163d261791283ffce47c2f64", "is_disabled": 0, "is_reserved": 0}, {"rental_uris": {"ios": "https://dc.lft.to/lastmile_qr_scan", "android": "https://dc.lft.to/lastmile_qr_scan"}, "lon": -77.03787566666666, "type": "electric_bike", "fusion_lat": 0.0, "lat": 38.996702, "name": "f80d25f2434cfea68e8680d3ee5fd527", "fusion_lon": 0.0, "bike_id": "f80d25f2434cfea68e8680d3ee5fd527", "is_disabled": 0, "is_reserved": 0}, {"rental_uris": {"ios": "https://dc.lft.to/lastmile_qr_scan", "android": "https://dc.lft.to/lastmile_qr_scan"}, "lon": -77.03035016666666, "type": "electric_scooter", "fusion_lat": 0.0, "lat": 38.8972875, "name": "62be22ef3953097ca79b3af219a1e475", "fusion_lon": 0.0, "bike_id": "62be22ef3953097ca79b3af219a1e475", "is_disabled": 0, "is_reserved": 0}, {"rental_uris": {"ios": "https://dc.lft.to/lastmile_qr_scan", "android": "https://dc.lft.to/lastmile_qr_scan"}, "lon": -77.0188575, "type": "electric_scooter", "fusion_lat": 0.0, "lat": 38.906189499999996, "name": "5141952d2dceae886bd856510c50ecc3", "fusion_lon": 0.0, "bike_id": "5141952d2dceae886bd856510c50ecc3", "is_disabled": 0, "is_reserved": 0}, {"rental_uris": {"ios": "https://dc.lft.to/lastmile_qr_scan", "android": "https://dc.lft.to/lastmile_qr_scan"}, "lon": -77.05006283333333, "type": "electric_scooter", "fusion_lat": 0.0, "lat": 38.892303, "name": "e60973109870336a5602c34053951b4d", "fusion_lon": 0.0, "bike_id": "e60973109870336a5602c34053951b4d", "is_disabled": 0, "is_reserved": 0}, {"rental_uris": {"ios": "https://dc.lft.to/lastmile_qr_scan", "android": "https://dc.lft.to/lastmile_qr_scan"}, "lon": -77.015352, "type": "electric_scooter", "fusion_lat": 0.0, "lat": 38.88741916666667, "name": "b3b1d0ba0292daeb781047c29b373d47", "fusion_lon": 0.0, "bike_id": "b3b1d0ba0292daeb781047c29b373d47", "is_disabled": 0, "is_reserved": 0}, {"rental_uris": {"ios": "https://dc.lft.to/lastmile_qr_scan", "android": "https://dc.lft.to/lastmile_qr_scan"}, "lon": -77.04296283333333, "type": "electric_scooter", "fusion_lat": 0.0, "lat": 38.907216, "name": "9c4deaa01881538f6e9609bc30db2f33", "fusion_lon": 0.0, "bike_id": "9c4deaa01881538f6e9609bc30db2f33", "is_disabled": 0, "is_reserved": 0}, {"rental_uris": {"ios": "https://dc.lft.to/lastmile_qr_scan", "android": "https://dc.lft.to/lastmile_qr_scan"}, "lon": -77.01521816666667, "type": "electric_scooter", "fusion_lat": 0.0, "lat": 38.918691333333335, "name": "92ca6a2c79e83888176f9663d6ab896b", "fusion_lon": 0.0, "bike_id": "92ca6a2c79e83888176f9663d6ab896b", "is_disabled": 0, "is_reserved": 0}, {"rental_uris": {"ios": "https://dc.lft.to/lastmile_qr_scan", "android": "https://dc.lft.to/lastmile_qr_scan"}, "lon": -76.971893, "type": "electric_scooter", "fusion_lat": 0.0, "lat": 38.912655, "name": "4d6a25e2a79d592e14322484957de42a", "fusion_lon": 0.0, "bike_id": "4d6a25e2a79d592e14322484957de42a", "is_disabled": 0, "is_reserved": 0}, {"rental_uris": {"ios": "https://dc.lft.to/lastmile_qr_scan", "android": "https://dc.lft.to/lastmile_qr_scan"}, "lon": -77.066976, "type": "electric_scooter", "fusion_lat": 0.0, "lat": 38.90974166666667, "name": "0540f788efe2504acd543c97fb6e4a5b", "fusion_lon": 0.0, "bike_id": "0540f788efe2504acd543c97fb6e4a5b", "is_disabled": 0, "is_reserved": 0}, {"rental_uris": {"ios": "https://dc.lft.to/lastmile_qr_scan", "android": "https://dc.lft.to/lastmile_qr_scan"}, "lon": -77.02003283333333, "type": "electric_scooter", "fusion_lat": 0.0, "lat": 38.892467833333335, "name": "f7e67e53661da9210b2423e2f649f292", "fusion_lon": 0.0, "bike_id": "f7e67e53661da9210b2423e2f649f292", "is_disabled": 0, "is_reserved": 0}, {"rental_uris": {"ios": "https://dc.lft.to/lastmile_qr_scan", "android": "https://dc.lft.to/lastmile_qr_scan"}, "lon": -77.03130816666666, "type": "electric_scooter", "fusion_lat": 0.0, "lat": 38.911196333333336, "name": "6cf7847128ab89c3184c2074c8884a69", "fusion_lon": 0.0, "bike_id": "6cf7847128ab89c3184c2074c8884a69", "is_disabled": 0, "is_reserved": 0}, {"rental_uris": {"ios": "https://dc.lft.to/lastmile_qr_scan", "android": "https://dc.lft.to/lastmile_qr_scan"}, "lon": -77.0182185, "type": "electric_scooter", "fusion_lat": 0.0, "lat": 38.90807083333333, "name": "a7d685cb4779a7d4553f2487ba12b5ed", "fusion_lon": 0.0, "bike_id": "a7d685cb4779a7d4553f2487ba12b5ed", "is_disabled": 0, "is_reserved": 0}, {"rental_uris": {"ios": "https://dc.lft.to/lastmile_qr_scan", "android": "https://dc.lft.to/lastmile_qr_scan"}, "lon": -77.02319366666667, "type": "electric_scooter", "fusion_lat": 0.0, "lat": 38.88729083333333, "name": "3d60c4cdc76f0ce6d5f7e11f8c2eef34", "fusion_lon": 0.0, "bike_id": "3d60c4cdc76f0ce6d5f7e11f8c2eef34", "is_disabled": 0, "is_reserved": 0}, {"rental_uris": {"ios": "https://dc.lft.to/lastmile_qr_scan", "android": "https://dc.lft.to/lastmile_qr_scan"}, "lon": -77.04002433333333, "type": "electric_scooter", "fusion_lat": 0.0, "lat": 38.89884983333334, "name": "07ed049cb7d5bb9df0ed45007281b6d0", "fusion_lon": 0.0, "bike_id": "07ed049cb7d5bb9df0ed45007281b6d0", "is_disabled": 0, "is_reserved": 0}, {"rental_uris": {"ios": "https://dc.lft.to/lastmile_qr_scan", "android": "https://dc.lft.to/lastmile_qr_scan"}, "lon": -76.9761325, "type": "electric_bike", "fusion_lat": 0.0, "lat": 38.91306933333333, "name": "9f92277ee5bec37f73beb7e8f70013dc", "fusion_lon": 0.0, "bike_id": "9f92277ee5bec37f73beb7e8f70013dc", "is_disabled": 0, "is_reserved": 0}, {"rental_uris": {"ios": "https://dc.lft.to/lastmile_qr_scan", "android": "https://dc.lft.to/lastmile_qr_scan"}, "lon": -77.05017983333333, "type": "electric_scooter", "fusion_lat": 0.0, "lat": 38.90091233333333, "name": "9d559bcf0ba37eefb5a4ce7c70ec1267", "fusion_lon": 0.0, "bike_id": "9d559bcf0ba37eefb5a4ce7c70ec1267", "is_disabled": 0, "is_reserved": 0}, {"rental_uris": {"ios": "https://dc.lft.to/lastmile_qr_scan", "android": "https://dc.lft.to/lastmile_qr_scan"}, "lon": -77.04391416666667, "type": "electric_scooter", "fusion_lat": 0.0, "lat": 38.922731, "name": "31c1bf5c37d0db03048e296233a430fc", "fusion_lon": 0.0, "bike_id": "31c1bf5c37d0db03048e296233a430fc", "is_disabled": 0, "is_reserved": 0}, {"rental_uris": {"ios": "https://dc.lft.to/lastmile_qr_scan", "android": "https://dc.lft.to/lastmile_qr_scan"}, "lon": -76.98175283333333, "type": "electric_scooter", "fusion_lat": 0.0, "lat": 38.8769415, "name": "1b5e892df5a65394d2c87109b2f56159", "fusion_lon": 0.0, "bike_id": "1b5e892df5a65394d2c87109b2f56159", "is_disabled": 0, "is_reserved": 0}, {"rental_uris": {"ios": "https://dc.lft.to/lastmile_qr_scan", "android": "https://dc.lft.to/lastmile_qr_scan"}, "lon": -77.03167083333334, "type": "electric_bike", "fusion_lat": 0.0, "lat": 38.94461666666667, "name": "96bcb45a2be74fdf121b0c6309dec706", "fusion_lon": 0.0, "bike_id": "96bcb45a2be74fdf121b0c6309dec706", "is_disabled": 0, "is_reserved": 0}, {"rental_uris": {"ios": "https://dc.lft.to/lastmile_qr_scan", "android": "https://dc.lft.to/lastmile_qr_scan"}, "lon": -76.99033433333334, "type": "electric_scooter", "fusion_lat": 0.0, "lat": 38.85869566666667, "name": "f53c2ea5d3fbf3d52e0221df10fb58b0", "fusion_lon": 0.0, "bike_id": "f53c2ea5d3fbf3d52e0221df10fb58b0", "is_disabled": 0, "is_reserved": 0}, {"rental_uris": {"ios": "https://dc.lft.to/lastmile_qr_scan", "android": "https://dc.lft.to/lastmile_qr_scan"}, "lon": -76.96529733333334, "type": "electric_scooter", "fusion_lat": 0.0, "lat": 38.876243833333334, "name": "f173fe16081c4d64f055bcfd7fe5422b", "fusion_lon": 0.0, "bike_id": "f173fe16081c4d64f055bcfd7fe5422b", "is_disabled": 0, "is_reserved": 0}, {"rental_uris": {"ios": "https://dc.lft.to/lastmile_qr_scan", "android": "https://dc.lft.to/lastmile_qr_scan"},