{"data": {"bikes": [{"is_reserved": 0, "type": "electric_scooter", "bike_id": "6b36020b2b6cb3f66ae0a0fb16beff5b", "lat": 38.925215333333334, "lon": -77.0555105, "rental_uris": {"android": "https://dc.lft.to/lastmile_qr_scan", "ios": "https://dc.lft.to/lastmile_qr_scan"}, "is_disabled": 0, "fusion_lat": 0.0, "name": "6b36020b2b6cb3f66ae0a0fb16beff5b", "fusion_lon": 0.0}, {"is_reserved": 0, "type": "electric_scooter", "bike_id": "2ab9c953ea5816aad70df145813a3b21", "lat": 38.901546, "lon": -77.046371, "rental_uris": {"android": "https://dc.lft.to/lastmile_qr_scan", "ios": "https://dc.lft.to/lastmile_qr_scan"}, "is_disabled": 0, "fusion_lat": 0.0, "name": "2ab9c953ea5816aad70df145813a3b21", "fusion_lon": 0.0}, {"is_reserved": 0, "type": "electric_scooter", "bike_id": "47a48e348fe90a9117c4784df4450e46", "lat": 38.892549833333334, "lon": -76.94143066666666, "rental_uris": {"android": "https://dc.lft.to/lastmile_qr_scan", "ios": "https://dc.lft.to/lastmile_qr_scan"}, "is_disabled": 0, "fusion_lat": 0.0, "name": "47a48e348fe90a9117c4784df4450e46", "fusion_lon": 0.0}, {"is_reserved": 0, "type": "electric_scooter", "bike_id": "885d2593d9e98d34b6abd68a2e8007cb", "lat": 38.94089833333334, "lon": -77.02974416666666, "rental_uris": {"android": "https://dc.lft.to/lastmile_qr_scan", "ios": "https://dc.lft.to/lastmile_qr_scan"}, "is_disabled": 0, "fusion_lat": 0.0, "name": "885d2593d9e98d34b6abd68a2e8007cb", "fusion_lon": 0.0}, {"is_reserved": 0, "type": "electric_scooter", "bike_id": "6f571c761166ef19921301af703e4012", "lat": 38.932468666666665, "lon": -77.03869966666667, "rental_uris": {"android": "https://dc.lft.to/lastmile_qr_scan", "ios": "https://dc.lft.to/lastmile_qr_scan"}, "is_disabled": 0, "fusion_lat": 0.0, "name": "6f571c761166ef19921301af703e4012", "fusion_lon": 0.0}, {"is_reserved": 0, "type": "electric_scooter", "bike_id": "bf25f2cf8f05f58e785a4db87792b41c", "lat": 38.9178935, "lon": -77.0231225, "rental_uris": {"android": "https://dc.lft.to/lastmile_qr_scan", "ios": "https://dc.lft.to/lastmile_qr_scan"}, "is_disabled": 0, "fusion_lat": 0.0, "name": "bf25f2cf8f05f58e785a4db87792b41c", "fusion_lon": 0.0}, {"is_reserved": 0, "type": "electric_scooter", "bike_id": "5c14afceb4878b5fcc349e3d1f95e516", "lat": 38.905719, "lon": -77.01849466666667, "rental_uris": {"android": "https://dc.lft.to/lastmile_qr_scan", "ios": "https://dc.lft.to/lastmile_qr_scan"}, "is_disabled": 0, "fusion_lat": 0.0, "name": "5c14afceb4878b5fcc349e3d1f95e516", "fusion_lon": 0.0}, {"is_reserved": 0, "type": "electric_scooter", "bike_id": "08dbc7fa440f0954874c8d0ecf6cd197", "lat": 38.91812016666667, "lon": -77.03249616666666, "rental_uris": {"android": "https://dc.lft.to/lastmile_qr_scan", "ios": "https://dc.lft.to/lastmile_qr_scan"}, "is_disabled": 0, "fusion_lat": 0.0, "name": "08dbc7fa440f0954874c8d0ecf6cd197", "fusion_lon": 0.0}, {"is_reserved": 0, "type": "electric_scooter", "bike_id": "da9a3a66bb6c294b65d928cae21fd0fb", "lat": 38.927919, "lon": -77.03153116666667, "rental_uris": {"android": "https://dc.lft.to/lastmile_qr_scan", "ios": "https://dc.lft.to/lastmile_qr_scan"}, "is_disabled": 0, "fusion_lat": 0.0, "name": "da9a3a66bb6c294b65d928cae21fd0fb", "fusion_lon": 0.0}, {"is_reserved": 0, "type": "electric_bike", "bike_id": "57f3a480366e85e3b25104a6bb43f6ca", "lat": 38.88495966666667, "lon": -76.95665116666666, "rental_uris": {"android": "https://dc.lft.to/lastmile_qr_scan", "ios": "https://dc.lft.to/lastmile_qr_scan"}, "is_disabled": 0, "fusion_lat": 0.0, "name": "57f3a480366e85e3b25104a6bb43f6ca", "fusion_lon": 0.0}, {"is_reserved": 0, "type": "electric_scooter", "bike_id": "bbaf1db47efab01aef67e75309a32603", "lat": 38.9207095, "lon": -77.045474, "rental_uris": {"android": "https://dc.lft.to/lastmile_qr_scan", "ios": "https://dc.lft.to/lastmile_qr_scan"}, "is_disabled": 0, "fusion_lat": 0.0, "name": "bbaf1db47efab01aef67e75309a32603", "fusion_lon": 0.0}, {"is_reserved": 0, "type": "electric_scooter", "bike_id": "427ae87ca9e6e182b4cc044cba9d86dc", "lat": 38.883279, "lon": -77.00957666666666, "rental_uris": {"android": "https://dc.lft.to/lastmile_qr_scan", "ios": "https://dc.lft.to/lastmile_qr_scan"}, "is_disabled": 0, "fusion_lat": 0.0, "name": "427ae87ca9e6e182b4cc044cba9d86dc", "fusion_lon": 0.0}, {"is_reserved": 0, "type": "electric_bike", "bike_id": "4aa5ddaee941a05acba3081978ceb964", "lat": 38.7840665, "lon": -77.12058683333333, "rental_uris": {"android": "https://dc.lft.to/lastmile_qr_scan", "ios": "https://dc.lft.to/lastmile_qr_scan"}, "is_disabled": 0, "fusion_lat": 0.0, "name": "4aa5ddaee941a05acba3081978ceb964", "fusion_lon": 0.0}, {"is_reserved": 0, "type": "electric_scooter", "bike_id": "57f13ffa8449fa70689965588a8dc873", "lat": 38.900159333333335, "lon": -77.0447665, "rental_uris": {"android": "https://dc.lft.to/lastmile_qr_scan", "ios": "https://dc.lft.to/lastmile_qr_scan"}, "is_disabled": 0, "fusion_lat": 0.0, "name": "57f13ffa8449fa70689965588a8dc873", "fusion_lon": 0.0}, {"is_reserved": 0, "type": "electric_scooter", "bike_id": "de04adfe6da134608f83e9207b057343", "lat": 38.90171466666666, "lon": -77.00342583333334, "rental_uris": {"android": "https://dc.lft.to/lastmile_qr_scan", "ios": "https://dc.lft.to/lastmile_qr_scan"}, "is_disabled": 0, "fusion_lat": 0.0, "name": "de04adfe6da134608f83e9207b057343", "fusion_lon": 0.0}, {"is_reserved": 0, "type": "electric_scooter", "bike_id": "4814bfbea195fcfb1e99311e7111d76f", "lat": 38.897988166666664, "lon": -77.01901016666666, "rental_uris": {"android": "https://dc.lft.to/lastmile_qr_scan", "ios": "https://dc.lft.to/lastmile_qr_scan"}, "is_disabled": 0, "fusion_lat": 0.0, "name": "4814bfbea195fcfb1e99311e7111d76f", "fusion_lon": 0.0}, {"is_reserved": 0, "type": "electric_scooter", "bike_id": "a0cb7545d896c3dfb3f49889089249c9", "lat": 38.91551166666667, "lon": -77.03173316666667, "rental_uris": {"android": "https://dc.lft.to/lastmile_qr_scan", "ios": "https://dc.lft.to/lastmile_qr_scan"}, "is_disabled": 0, "fusion_lat": 0.0, "name": "a0cb7545d896c3dfb3f49889089249c9", "fusion_lon": 0.0}, {"is_reserved": 0, "type": "electric_scooter", "bike_id": "40bbf36cc6c2c3395e2e24346e6199d0", "lat": 38.9001345, "lon": -77.006527, "rental_uris": {"android": "https://dc.lft.to/lastmile_qr_scan", "ios": "https://dc.lft.to/lastmile_qr_scan"}, "is_disabled": 0, "fusion_lat": 0.0, "name": "40bbf36cc6c2c3395e2e24346e6199d0", "fusion_lon": 0.0}, {"is_reserved": 0, "type": "electric_scooter", "bike_id": "f6749088af6f7f5f05f18145c3bf1b6e", "lat": 38.88782466666667, "lon": -76.9771165, "rental_uris": {"android": "https://dc.lft.to/lastmile_qr_scan", "ios": "https://dc.lft.to/lastmile_qr_scan"}, "is_disabled": 0, "fusion_lat": 0.0, "name": "f6749088af6f7f5f05f18145c3bf1b6e", "fusion_lon": 0.0}, {"is_reserved": 0, "type": "electric_scooter", "bike_id": "18ca118f1c13923d446827497240457f", "lat": 38.918608166666665, "lon": -77.04591966666666, "rental_uris": {"android": "https://dc.lft.to/lastmile_qr_scan", "ios": "https://dc.lft.to/lastmile_qr_scan"}, "is_disabled": 0, "fusion_lat": 0.0, "name": "18ca118f1c13923d446827497240457f", "fusion_lon": 0.0}, {"is_reserved": 0, "type": "electric_scooter", "bike_id": "f17c063f7b3337aa2d2722b43eb2c107", "lat": 38.887328333333336, "lon": -77.022087, "rental_uris": {"android": "https://dc.lft.to/lastmile_qr_scan", "ios": "https://dc.lft.to/lastmile_qr_scan"}, "is_disabled": 0, "fusion_lat": 0.0, "name": "f17c063f7b3337aa2d2722b43eb2c107", "fusion_lon": 0.0}, {"is_reserved": 0, "type": "electric_bike", "bike_id": "aee7c1d731384d15e903c860f564a97f", "lat": 38.8821355, "lon": -77.1116415, "rental_uris": {"android": "https://dc.lft.to/lastmile_qr_scan", "ios": "https://dc.lft.to/lastmile_qr_scan"}, "is_disabled": 0, "fusion_lat": 0.0, "name": "aee7c1d731384d15e903c860f564a97f", "fusion_lon": 0.0}, {"is_reserved": 0, "type": "electric_scooter", "bike_id": "443d14dfdc02ef4d67293257b22d7712", "lat": 38.9242305, "lon": -77.0575525, "rental_uris": {"android": "https://dc.lft.to/lastmile_qr_scan", "ios": "https://dc.lft.to/lastmile_qr_scan"}, "is_disabled": 0, "fusion_lat": 0.0, "name": "443d14dfdc02ef4d67293257b22d7712", "fusion_lon": 0.0}, {"is_reserved": 0, "type": "electric_scooter", "bike_id": "4e46c2b4010ad4a40c6d08da49efeed7", "lat": 38.901751833333336, "lon": -77.05103066666666, "rental_uris": {"android": "https://dc.lft.to/lastmile_qr_scan", "ios": "https://dc.lft.to/lastmile_qr_scan"}, "is_disabled": 0, "fusion_lat": 0.0, "name": "4e46c2b4010ad4a40c6d08da49efeed7", "fusion_lon": 0.0}, {"is_reserved": 0, "type": "electric_scooter", "bike_id": "349ea5ab0ac0c2f4f77e4c0b525ba386", "lat": 38.9058785, "lon": -77.016089, "rental_uris": {"android": "https://dc.lft.to/lastmile_qr_scan", "ios": "https://dc.lft.to/lastmile_qr_scan"}, "is_disabled": 0, "fusion_lat": 0.0, "name": "349ea5ab0ac0c2f4f77e4c0b525ba386", "fusion_lon": 0.0}, {"is_reserved": 0, "type": "electric_scooter", "bike_id": "7aa96137d02617ba4eba73c2e5584727", "lat": 38.87295533333333, "lon": -77.01558683333333, "rental_uris": {"android": "https://dc.lft.to/lastmile_qr_scan", "ios": "https://dc.lft.to/lastmile_qr_scan"}, "is_disabled": 0, "fusion_lat": 0.0, "name": "7aa96137d02617ba4eba73c2e5584727", "fusion_lon": 0.0}, {"is_reserved": 0, "type": "electric_scooter", "bike_id": "1ce180ef3ebdfbaa40b61e64789a09bc", "lat": 38.936618, "lon": -77.03692483333333, "rental_uris": {"android": "https://dc.lft.to/lastmile_qr_scan", "ios": "https://dc.lft.to/lastmile_qr_scan"}, "is_disabled": 0, "fusion_lat": 0.0, "name": "1ce180ef3ebdfbaa40b61e64789a09bc", "fusion_lon": 0.0}, {"is_reserved": 0, "type": "electric_scooter", "bike_id": "bde318913f30baa54e40fbf328228a5b", "lat": 38.9215045, "lon": -77.0386845, "rental_uris": {"android": "https://dc.lft.to/lastmile_qr_scan", "ios": "https://dc.lft.to/lastmile_qr_scan"}, "is_disabled": 0, "fusion_lat": 0.0, "name": "bde318913f30baa54e40fbf328228a5b", "fusion_lon": 0.0}, {"is_reserved": 0, "type": "electric_scooter", "bike_id": "db34ec42a49423e8effbdb9430aa4f68", "lat": 38.91313066666667, "lon": -77.014318, "rental_uris": {"android": "https://dc.lft.to/lastmile_qr_scan", "ios": "https://dc.lft.to/lastmile_qr_scan"}, "is_disabled": 0, "fusion_lat": 0.0, "name": "db34ec42a49423e8effbdb9430aa4f68", "fusion_lon": 0.0}, {"is_reserved": 0, "type": "electric_scooter", "bike_id": "914d37382f7e5c0ff99e9d987be9e0ea", "lat": 38.908459666666666, "lon": -77.02603866666666, "rental_uris": {"android": "https://dc.lft.to/lastmile_qr_scan", "ios": "https://dc.lft.to/lastmile_qr_scan"}, "is_disabled": 0, "fusion_lat": 0.0, "name": "914d37382f7e5c0ff99e9d987be9e0ea", "fusion_lon": 0.0}, {"is_reserved": 0, "type": "electric_scooter", "bike_id": "6649e40e2870bd5c2a6b970d7dbba5ed", "lat": 38.907865666666666, "lon": -77.0021145, "rental_uris": {"android": "https://dc.lft.to/lastmile_qr_scan", "ios": "https://dc.lft.to/lastmile_qr_scan"}, "is_disabled": 0, "fusion_lat": 0.0, "name": "6649e40e2870bd5c2a6b970d7dbba5ed", "fusion_lon": 0.0}, {"is_reserved": 0, "type": "electric_scooter", "bike_id": "7cfd16ec644c9ad2c282edff976fa672", "lat": 38.93532733333333, "lon": -77.0234925, "rental_uris": {"android": "https://dc.lft.to/lastmile_qr_scan", "ios": "https://dc.lft.to/lastmile_qr_scan"}, "is_disabled": 0, "fusion_lat": 0.0, "name": "7cfd16ec644c9ad2c282edff976fa672", "fusion_lon": 0.0}, {"is_reserved": 0, "type": "electric_scooter", "bike_id": "c54ad52f7d47251e84553b213e3df41c", "lat": 38.89619283333333, "lon": -76.97683566666667, "rental_uris": {"android": "https://dc.lft.to/lastmile_qr_scan", "ios": "https://dc.lft.to/lastmile_qr_scan"}, "is_disabled": 0, "fusion_lat": 0.0, "name": "c54ad52f7d47251e84553b213e3df41c", "fusion_lon": 0.0}, {"is_reserved": 0, "type": "electric_scooter", "bike_id": "fddff6bc2d808280c98f6170e0069b7a", "lat": 38.90013666666667, "lon": -76.93028316666667, "rental_uris": {"android": "https://dc.lft.to/lastmile_qr_scan", "ios": "https://dc.lft.to/lastmile_qr_scan"}, "is_disabled": 0, "fusion_lat": 0.0, "name": "fddff6bc2d808280c98f6170e0069b7a", "fusion_lon": 0.0}, {"is_reserved": 0, "type": "electric_scooter", "bike_id": "ec64d73ca9ab9226501eff6caefd5cd3", "lat": 38.884025666666666, "lon": -76.93040933333333, "rental_uris": {"android": "https://dc.lft.to/lastmile_qr_scan", "ios": "https://dc.lft.to/lastmile_qr_scan"}, "is_disabled": 0, "fusion_lat": 0.0, "name": "ec64d73ca9ab9226501eff6caefd5cd3", "fusion_lon": 0.0}, {"is_reserved": 0, "type": "electric_scooter", "bike_id": "7ef7010b43c65e35e7fc7bec9d0c12a2", "lat": 38.89645933333333, "lon": -76.99027666666667, "rental_uris": {"android": "https://dc.lft.to/lastmile_qr_scan", "ios": "https://dc.lft.to/lastmile_qr_scan"}, "is_disabled": 0, "fusion_lat": 0.0, "name": "7ef7010b43c65e35e7fc7bec9d0c12a2", "fusion_lon": 0.0}, {"is_reserved": 0, "type": "electric_scooter", "bike_id": "4875fd313ef75cf8d8324bd4eb4876fb", "lat": 38.92312166666667, "lon": -77.02978916666666, "rental_uris": {"android": "https://dc.lft.to/lastmile_qr_scan", "ios": "https://dc.lft.to/lastmile_qr_scan"}, "is_disabled": 0, "fusion_lat": 0.0, "name": "4875fd313ef75cf8d8324bd4eb4876fb", "fusion_lon": 0.0}, {"is_reserved": 0, "type": "electric_scooter", "bike_id": "b099d9af4d069030acb53c59e95c1989", "lat": 38.91487733333334, "lon": -77.02424233333333, "rental_uris": {"android": "https://dc.lft.to/lastmile_qr_scan", "ios": "https://dc.lft.to/lastmile_qr_scan"}, "is_disabled": 0, "fusion_lat": 0.0, "name": "b099d9af4d069030acb53c59e95c1989", "fusion_lon": 0.0}, {"is_reserved": 0, "type": "electric_scooter", "bike_id": "866d27b3a134cf9f7a0385363b183f74", "lat": 38.89940166666667, "lon": -77.02000883333334, "rental_uris": {"android": "https://dc.lft.to/lastmile_qr_scan", "ios": "https://dc.lft.to/lastmile_qr_scan"}, "is_disabled": 0, "fusion_lat": 0.0, "name": "866d27b3a134cf9f7a0385363b183f74", "fusion_lon": 0.0}, {"is_reserved": 0, "type": "electric_scooter", "bike_id": "1b6414b2f2b4be5d65af7daad6d30f57", "lat": 38.91736783333333, "lon": -77.00922483333333, "rental_uris": {"android": "https://dc.lft.to/lastmile_qr_scan", "ios": "https://dc.lft.to/lastmile_qr_scan"}, "is_disabled": 0, "fusion_lat": 0.0, "name": "1b6414b2f2b4be5d65af7daad6d30f57", "fusion_lon": 0.0}, {"is_reserved": 0, "type": "electric_scooter", "bike_id": "82708456f9cb4993f1a9bc09c530b961", "lat": 38.90628533333334, "lon": -77.0702115, "rental_uris": {"android": "https://dc.lft.to/lastmile_qr_scan", "ios": "https://dc.lft.to/lastmile_qr_scan"}, "is_disabled": 0, "fusion_lat": 0.0, "name": "82708456f9cb4993f1a9bc09c530b961", "fusion_lon": 0.0}, {"is_reserved": 0, "type": "electric_scooter", "bike_id": "926c0c4b69a49b01f7cd6ae837d6c74d", "lat": 38.8926615, "lon": -76.92995183333333, "rental_uris": {"android": "https://dc.lft.to/lastmile_qr_scan", "ios": "https://dc.lft.to/lastmile_qr_scan"}, "is_disabled": 0, "fusion_lat": 0.0, "name": "926c0c4b69a49b01f7cd6ae837d6c74d", "fusion_lon": 0.0}, {"is_reserved": 0, "type": "electric_scooter", "bike_id": "7cc0598c40861b08c1e41772c5d619a5", "lat": 38.930048, "lon": -77.01822583333333, "rental_uris": {"android": "https://dc.lft.to/lastmile_qr_scan", "ios": "https://dc.lft.to/lastmile_qr_scan"}, "is_disabled": 0, "fusion_lat": 0.0, "name": "7cc0598c40861b08c1e41772c5d619a5", "fusion_lon": 0.0}, {"is_reserved": 0, "type": "electric_scooter", "bike_id": "68e780cb912b571db3649a6c1966ff7e", "lat": 38.895185166666664, "lon": -77.0395745, "rental_uris": {"android": "https://dc.lft.to/lastmile_qr_scan", "ios": "https://dc.lft.to/lastmile_qr_scan"}, "is_disabled": 0, "fusion_lat": 0.0, "name": "68e780cb912b571db3649a6c1966ff7e", "fusion_lon": 0.0}, {"is_reserved": 0, "type": "electric_scooter", "bike_id": "55ac92d6a8a890c6b4d8420612aa3de9", "lat": 38.90959733333333, "lon": -77.02284766666666, "rental_uris": {"android": "https://dc.lft.to/lastmile_qr_scan", "ios": "https://dc.lft.to/lastmile_qr_scan"}, "is_disabled": 0, "fusion_lat": 0.0, "name": "55ac92d6a8a890c6b4d8420612aa3de9", "fusion_lon": 0.0}, {"is_reserved": 0, "type": "electric_scooter", "bike_id": "760e04520ccee3987ba7867af74dc214", "lat": 38.92392733333333, "lon": -77.04453133333334, "rental_uris": {"android": "https://dc.lft.to/lastmile_qr_scan", "ios": "https://dc.lft.to/lastmile_qr_scan"}, "is_disabled": 0, "fusion_lat": 0.0, "name": "760e04520ccee3987ba7867af74dc214", "fusion_lon": 0.0}, {"is_reserved": 0, "type": "electric_scooter", "bike_id": "8a017672db7b145374af9f9bff504ead", "lat": 38.957485166666665, "lon": -77.02103483333333, "rental_uris": {"android": "https://dc.lft.to/lastmile_qr_scan", "ios": "https://dc.lft.to/lastmile_qr_scan"}, "is_disabled": 0, "fusion_lat": 0.0, "name": "8a017672db7b145374af9f9bff504ead", "fusion_lon": 0.0}, {"is_reserved": 0, "type": "electric_scooter", "bike_id": "c2d1e67523908691dfb4ec57f57a6105", "lat": 38.898342666666665, "lon": -77.03062466666667, "rental_uris": {"android": "https://dc.lft.to/lastmile_qr_scan", "ios": "https://dc.lft.to/lastmile_qr_scan"}, "is_disabled": 0, "fusion_lat": 0.0, "name": "c2d1e67523908691dfb4ec57f57a6105", "fusion_lon": 0.0}, {"is_reserved": 0, "type": "electric_scooter", "bike_id": "feff0b0fc523688be34c5f6d40305819", "lat": 38.916735333333335, "lon": -77.034615, "rental_uris": {"android": "https://dc.lft.to/lastmile_qr_scan", "ios": "https://dc.lft.to/lastmile_qr_scan"}, "is_disabled": 0, "fusion_lat": 0.0, "name": "feff0b0fc523688be34c5f6d40305819", "fusion_lon": 0.0}, {"is_reserved": 0, "type": "electric_scooter", "bike_id": "92a23a673494b113664c854b16609525", "lat": 38.89596, "lon": -76.929889, "rental_uris": {"android": "https://dc.lft.to/lastmile_qr_scan", "ios": "https://dc.lft.to/lastmile_qr_scan"}, "is_disabled": 0, "fusion_lat": 0.0, "name": "92a23a673494b113664c854b16609525", "fusion_lon": 0.0}, {"is_reserved": 0, "type": "electric_scooter", "bike_id": "c21516ff1393a6dc77941b1cffd44239", "lat": 38.89838266666667, "lon": -77.02190316666666, "rental_uris": {"android": "https://dc.lft.to/lastmile_qr_scan", "ios": "https://dc.lft.to/lastmile_qr_scan"}, "is_disabled": 0, "fusion_lat": 0.0, "name": "c21516ff1393a6dc77941b1cffd44239", "fusion_lon": 0.0}, {"is_reserved": 0, "type": "electric_scooter", "bike_id": "94d6595a3352c21c829390fd4a071baf", "lat": 38.97001683333333, "lon": -77.00900983333334, "rental_uris": {"android": "https://dc.lft.to/lastmile_qr_scan", "ios": "https://dc.lft.to/lastmile_qr_scan"}, "is_disabled": 0, "fusion_lat": 0.0, "name": "94d6595a3352c21c829390fd4a071baf", "fusion_lon": 0.0}, {"is_reserved": 0, "type": "electric_scooter", "bike_id": "62fb9f79d50b38ccb73287fd1bb2483a", "lat": 38.905738166666666, "lon": -77.03222366666667, "rental_uris": {"android": "https://dc.lft.to/lastmile_qr_scan", "ios": "https://dc.lft.to/lastmile_qr_scan"}, "is_disabled": 0, "fusion_lat": 0.0, "name": "62fb9f79d50b38ccb73287fd1bb2483a", "fusion_lon": 0.0}, {"is_reserved": 0, "type": "electric_scooter", "bike_id": "0e22bc1d27177758d9651939efce0b10", "lat": 38.87644266666667, "lon": -77.00836366666667, "rental_uris": {"android": "https://dc.lft.to/lastmile_qr_scan", "ios": "https://dc.lft.to/lastmile_qr_scan"}, "is_disabled": 0, "fusion_lat": 0.0, "name": "0e22bc1d27177758d9651939efce0b10", "fusion_lon": 0.0}, {"is_reserved": 0, "type": "electric_scooter", "bike_id": "b360af8b614e724b9bd354da0220b5b5", "lat": 38.8921955, "lon": -77.02413616666666, "rental_uris": {"android": "https://dc.lft.to/lastmile_qr_scan", "ios": "https://dc.lft.to/lastmile_qr_scan"}, "is_disabled": 0, "fusion_lat": 0.0, "name": "b360af8b614e724b9bd354da0220b5b5", "fusion_lon": 0.0}, {"is_reserved": 0, "type": "electric_scooter", "bike_id": "5d3b0025afe70cd916fcc7d442556c6a", "lat": 38.94979266666667, "lon": -77.02447166666667, "rental_uris": {"android": "https://dc.lft.to/lastmile_qr_scan", "ios": "https://dc.lft.to/lastmile_qr_scan"}, "is_disabled": 0, "fusion_lat": 0.0, "name": "5d3b0025afe70cd916fcc7d442556c6a", "fusion_lon": 0.0}, {"is_reserved": 0, "type": "electric_scooter", "bike_id": "7a96e608e52b4ab0436abb49890179d3", "lat": 38.911209166666666, "lon": -77.03827583333333, "rental_uris": {"android": "https://dc.lft.to/lastmile_qr_scan", "ios": "https://dc.lft.to/lastmile_qr_scan"}, "is_disabled": 0, "fusion_lat": 0.0, "name": "7a96e608e52b4ab0436abb49890179d3", "fusion_lon": 0.0}, {"is_reserved": 0, "type": "electric_bike", "bike_id": "7934863a2c357cf4f3cf2568183fba51", "lat": 38.98830916666667, "lon": -77.02647716666667, "rental_uris": {"android": "https://dc.lft.to/lastmile_qr_scan", "ios": "https://dc.lft.to/lastmile_qr_scan"}, "is_disabled": 0, "fusion_lat": 0.0, "name": "7934863a2c357cf4f3cf2568183fba51", "fusion_lon": 0.0}, {"is_reserved": 0, "type": "electric_scooter", "bike_id": "825d402efabc4babb8c3f08e190127f5", "lat": 38.95465816666667, "lon": -77.07769183333333, "rental_uris": {"android": "https://dc.lft.to/lastmile_qr_scan", "ios": "https://dc.lft.to/lastmile_qr_scan"}, "is_disabled": 0, "fusion_lat": 0.0, "name": "825d402efabc4babb8c3f08e190127f5", "fusion_lon": 0.0}, {"is_reserved": 0, "type": "electric_scooter", "bike_id": "e72cf8c0205e2eb13998d9927d6e7e7c", "lat": 38.914623166666665, "lon": -77.02600833333334, "rental_uris": {"android": "https://dc.lft.to/lastmile_qr_scan", "ios": "https://dc.lft.to/lastmile_qr_scan"}, "is_disabled": 0, "fusion_lat": 0.0, "name": "e72cf8c0205e2eb13998d9927d6e7e7c", "fusion_lon": 0.0}, {"is_reserved": 0, "type": "electric_scooter", "bike_id": "cd9074e2b55311812c18eb8d2d4dc81e", "lat": 38.917209166666666, "lon": -77.02972233333334, "rental_uris": {"android": "https://dc.lft.to/lastmile_qr_scan", "ios": "https://dc.lft.to/lastmile_qr_scan"}, "is_disabled": 0, "fusion_lat": 0.0, "name": "cd9074e2b55311812c18eb8d2d4dc81e", "fusion_lon": 0.0}, {"is_reserved": 0, "type": "electric_scooter", "bike_id": "223dff00883e4c5406d4be24fbd3d918", "lat": 38.902145833333336, "lon": -77.05320283333333, "rental_uris": {"android": "https://dc.lft.to/lastmile_qr_scan", "ios": "https://dc.lft.to/lastmile_qr_scan"}, "is_disabled": 0, "fusion_lat": 0.0, "name": "223dff00883e4c5406d4be24fbd3d918", "fusion_lon": 0.0}, {"is_reserved": 0, "type": "electric_scooter", "bike_id": "ed8208fcdfa7ffd88dc6d5087101315e", "lat": 38.9191305, "lon": -77.03177233333334, "rental_uris": {"android": "https://dc.lft.to/lastmile_qr_scan", "ios": "https://dc.lft.to/lastmile_qr_scan"}, "is_disabled": 0, "fusion_lat": 0.0, "name": "ed8208fcdfa7ffd88dc6d5087101315e", "fusion_lon": 0.0}, {"is_reserved": 0, "type": "electric_scooter", "bike_id": "3d40168be19986a0dc4ff8af4c7699d8", "lat": 38.9078515, "lon": -77.00965066666667, "rental_uris": {"android": "https://dc.lft.to/lastmile_qr_scan", "ios": "https://dc.lft.to/lastmile_qr_scan"}, "is_disabled": 0, "fusion_lat": 0.0, "name": "3d40168be19986a0dc4ff8af4c7699d8", "fusion_lon": 0.0}, {"is_reserved": 0, "type": "electric_scooter", "bike_id": "0a5d2ae4068cc7f83ecf9388ff5f4139", "lat": 38.899828, "lon": -77.0221075, "rental_uris": {"android": "https://dc.lft.to/lastmile_qr_scan", "ios": "https://dc.lft.to/lastmile_qr_scan"}, "is_disabled": 0, "fusion_lat": 0.0, "name": "0a5d2ae4068cc7f83ecf9388ff5f4139", "fusion_lon": 0.0}, {"is_reserved": 0, "type": "electric_scooter", "bike_id": "459be348d47db0324555e7af4bec5fb4", "lat": 38.90071666666667, "lon": -77.04884433333334, "rental_uris": {"android": "https://dc.lft.to/lastmile_qr_scan", "ios": "https://dc.lft.to/lastmile_qr_scan"}, "is_disabled": 0, "fusion_lat": 0.0, "name": "459be348d47db0324555e7af4bec5fb4", "fusion_lon": 0.0}, {"is_reserved": 0, "type": "electric_scooter", "bike_id": "799ddf573f997d1c7a1a050fc60a1f70", "lat": 38.8998905, "lon": -77.03109083333334, "rental_uris": {"android": "https://dc.lft.to/lastmile_qr_scan", "ios": "https://dc.lft.to/lastmile_qr_scan"}, "is_disabled": 0, "fusion_lat": 0.0, "name": "799ddf573f997d1c7a1a050fc60a1f70", "fusion_lon": 0.0}, {"is_reserved": 0, "type": "electric_scooter", "bike_id": "76741366fd67947fc65f514c817e0036", "lat": 38.92380516666667, "lon": -77.01914533333333, "rental_uris": {"android": "https://dc.lft.to/lastmile_qr_scan", "ios": "https://dc.lft.to/lastmile_qr_scan"}, "is_disabled": 0, "fusion_lat": 0.0, "name": "76741366fd67947fc65f514c817e0036", "fusion_lon": 0.0}, {"is_reserved": 0, "type": "electric_scooter", "bike_id": "5551beb859f3d4b21baf71e7c16136c4", "lat": 38.922498, "lon": -77.03101466666666, "rental_uris": {"android": "https://dc.lft.to/lastmile_qr_scan", "ios": "https://dc.lft.to/lastmile_qr_scan"}, "is_disabled": 0, "fusion_lat": 0.0, "name": "5551beb859f3d4b21baf71e7c16136c4", "fusion_lon": 0.0}, {"is_reserved": 0, "type": "electric_scooter", "bike_id": "0f7812c3c9eda8397ce4263e1699cafd", "lat": 38.915589833333335, "lon": -77.03115266666667, "rental_uris": {"android": "https://dc.lft.to/lastmile_qr_scan", "ios": "https://dc.lft.to/lastmile_qr_scan"}, "is_disabled": 0, "fusion_lat": 0.0, "name": "0f7812c3c9eda8397ce4263e1699cafd", "fusion_lon": 0.0}, {"is_reserved": 0, "type": "electric_scooter", "bike_id": "34b4589763e49c09cdf113331b7c08ab", "lat": 38.959366333333335, "lon": -77.03120266666667, "rental_uris": {"android": "https://dc.lft.to/lastmile_qr_scan", "ios": "https://dc.lft.to/lastmile_qr_scan"}, "is_disabled": 0, "fusion_lat": 0.0, "name": "34b4589763e49c09cdf113331b7c08ab", "fusion_lon": 0.0}, {"is_reserved": 0, "type": "electric_scooter", "bike_id": "02ec95ed24dfb26b49b294d1ec8e1331", "lat": 38.86525116666667, "lon": -76.96903966666666, "rental_uris": {"android": "https://dc.lft.to/lastmile_qr_scan", "ios": "https://dc.lft.to/lastmile_qr_scan"}, "is_disabled": 0, "fusion_lat": 0.0, "name": "02ec95ed24dfb26b49b294d1ec8e1331", "fusion_lon": 0.0}, {"is_reserved": 0, "type": "electric_scooter", "bike_id": "60d40a026138e45175b76359ca4d2b4c", "lat": 38.896137833333334, "lon": -77.04416816666667, "rental_uris": {"android": "https://dc.lft.to/lastmile_qr_scan", "ios": "https://dc.lft.to/lastmile_qr_scan"}, "is_disabled": 0, "fusion_lat": 0.0, "name": "60d40a026138e45175b76359ca4d2b4c", "fusion_lon": 0.0}, {"is_reserved": 0, "type": "electric_scooter", "bike_id": "915c013f13fe946a85d83ab958717d44", "lat": 38.91860883333333, "lon": -77.03658116666666, "rental_uris": {"android": "https://dc.lft.to/lastmile_qr_scan", "ios": "https://dc.lft.to/lastmile_qr_scan"}, "is_disabled": 0, "fusion_lat": 0.0, "name": "915c013f13fe946a85d83ab958717d44", "fusion_lon": 0.0}, {"is_reserved": 0, "type": "electric_scooter", "bike_id": "3fe9d8b0c11c774a7ee804e1922fe7c2", "lat": 38.8942465, "lon": -77.05596633333333, "rental_uris": {"android": "https://dc.lft.to/lastmile_qr_scan", "ios": "https://dc.lft.to/lastmile_qr_scan"}, "is_disabled": 0, "fusion_lat": 0.0, "name": "3fe9d8b0c11c774a7ee804e1922fe7c2", "fusion_lon": 0.0}, {"is_reserved": 0, "type": "electric_bike", "bike_id": "209e23fdbb931768e0240d7a0d4394bb", "lat": 38.802531333333334, "lon": -77.11439, "rental_uris": {"android": "https://dc.lft.to/lastmile_qr_scan", "ios": "https://dc.lft.to/lastmile_qr_scan"}, "is_disabled": 0, "fusion_lat": 0.0, "name": "209e23fdbb931768e0240d7a0d4394bb", "fusion_lon": 0.0}, {"is_reserved": 0, "type": "electric_scooter", "bike_id": "d8a38f131eb315a6505d8ccf18b87341", "lat": 38.92507766666667, "lon": -77.03881133333333, "rental_uris": {"android": "https://dc.lft.to/lastmile_qr_scan", "ios": "https://dc.lft.to/lastmile_qr_scan"}, "is_disabled": 0, "fusion_lat": 0.0, "name": "d8a38f131eb315a6505d8ccf18b87341", "fusion_lon": 0.0}, {"is_reserved": 0, "type": "electric_scooter", "bike_id": "6b65f3647811b2b41177bfc322a45824", "lat": 38.9319065, "lon": -77.0283435, "rental_uris": {"android": "https://dc.lft.to/lastmile_qr_scan", "ios": "https://dc.lft.to/lastmile_qr_scan"}, "is_disabled": 0, "fusion_lat": 0.0, "name": "6b65f3647811b2b41177bfc322a45824", "fusion_lon": 0.0}, {"is_reserved": 0, "type": "electric_scooter", "bike_id": "5709245048b068341e9df6b08141e237", "lat": 38.92054683333333, "lon": -76.9988665, "rental_uris": {"android": "https://dc.lft.to/lastmile_qr_scan", "ios": "https://dc.lft.to/lastmile_qr_scan"}, "is_disabled": 0, "fusion_lat": 0.0, "name": "5709245048b068341e9df6b08141e237", "fusion_lon": 0.0}, {"is_reserved": 0, "type": "electric_scooter", "bike_id": "c5cb47c4405406a03bc732b8d445f3c2", "lat": 38.902637, "lon": -77.003332, "rental_uris": {"android": "https://dc.lft.to/lastmile_qr_scan", "ios": "https://dc.lft.to/lastmile_qr_scan"}, "is_disabled": 0, "fusion_lat": 0.0, "name": "c5cb47c4405406a03bc732b8d445f3c2", "fusion_lon": 0.0}, {"is_reserved": 0, "type": "electric_scooter", "bike_id": "b5b63a1ef67c4311b2dc4fd4284592ca", "lat": 38.899181, "lon": -76.94568133333334, "rental_uris": {"android": "https://dc.lft.to/lastmile_qr_scan", "ios": "https://dc.lft.to/lastmile_qr_scan"}, "is_disabled": 0, "fusion_lat": 0.0, "name": "b5b63a1ef67c4311b2dc4fd4284592ca", "fusion_lon": 0.0}, {"is_reserved": 0, "type": "electric_scooter", "bike_id": "d7ff8e00987b49df10013780540abe87", "lat": 38.92758666666667, "lon": -77.03272966666667, "rental_uris": {"android": "https://dc.lft.to/lastmile_qr_scan", "ios": "https://dc.lft.to/lastmile_qr_scan"}, "is_disabled": 0, "fusion_lat": 0.0, "name": "d7ff8e00987b49df10013780540abe87", "fusion_lon": 0.0}, {"is_reserved": 0, "type": "electric_scooter", "bike_id": "75b3fc5e10697454efc79ba77843e888", "lat": 38.91650716666667, "lon": -77.02182333333333, "rental_uris": {"android": "https://dc.lft.to/lastmile_qr_scan", "ios": "https://dc.lft.to/lastmile_qr_scan"}, "is_disabled": 0, "fusion_lat": 0.0, "name": "75b3fc5e10697454efc79ba77843e888", "fusion_lon": 0.0}, {"is_reserved": 0, "type": "electric_scooter", "bike_id": "09d401decccaf40cd6acc5a43afceb66", "lat": 38.91793066666666, "lon": -77.03171366666666, "rental_uris": {"android": "https://dc.lft.to/lastmile_qr_scan", "ios": "https://dc.lft.to/lastmile_qr_scan"}, "is_disabled": 0, "fusion_lat": 0.0, "name": "09d401decccaf40cd6acc5a43afceb66", "fusion_lon": 0.0}, {"is_reserved": 0, "type": "electric_scooter", "bike_id": "4bcc9449c5a64c39ed73c750ec3306ef", "lat": 38.923252833333336, "lon": -77.02904883333333, "rental_uris": {"android": "https://dc.lft.to/lastmile_qr_scan", "ios": "https://dc.lft.to/lastmile_qr_scan"}, "is_disabled": 0, "fusion_lat": 0.0, "name": "4bcc9449c5a64c39ed73c750ec3306ef", "fusion_lon": 0.0}, {"is_reserved": 0, "type": "electric_scooter", "bike_id": "0255ec8cbdf7e4a9eb40a161245952f0", "lat": 38.904550666666665, "lon": -77.05850016666666, "rental_uris": {"android": "https://dc.lft.to/lastmile_qr_scan", "ios": "https://dc.lft.to/lastmile_qr_scan"}, "is_disabled": 0, "fusion_lat": 0.0, "name": "0255ec8cbdf7e4a9eb40a161245952f0", "fusion_lon": 0.0}, {"is_reserved": 0, "type": "electric_scooter", "bike_id": "17d6b51a4d092389c6fdeaecd01cb538", "lat": 38.940086666666666, "lon": -77.0273435, "rental_uris": {"android": "https://dc.lft.to/lastmile_qr_scan", "ios": "https://dc.lft.to/lastmile_qr_scan"}, "is_disabled": 0, "fusion_lat": 0.0, "name": "17d6b51a4d092389c6fdeaecd01cb538", "fusion_lon": 0.0}, {"is_reserved": 0, "type": "electric_scooter", "bike_id": "08aeef498ee5e1543db190365e7f48f6", "lat": 38.8843115, "lon": -77.02597483333334, "rental_uris": {"android": "https://dc.lft.to/lastmile_qr_scan", "ios": "https://dc.lft.to/lastmile_qr_scan"}, "is_disabled": 0, "fusion_lat": 0.0, "name": "08aeef498ee5e1543db190365e7f48f6", "fusion_lon": 0.0}, {"is_reserved": 0, "type": "electric_scooter", "bike_id": "85753ff6ecf7fbe65b4fb7ef91497b57", "lat": 38.89250166666667, "lon": -76.99487466666666, "rental_uris": {"android": "https://dc.lft.to/lastmile_qr_scan", "ios": "https://dc.lft.to/lastmile_qr_scan"}, "is_disabled": 0, "fusion_lat": 0.0, "name": "85753ff6ecf7fbe65b4fb7ef91497b57", "fusion_lon": 0.0}, {"is_reserved": 0, "type": "electric_scooter", "bike_id": "21c90fb227e2228363311a1799239c5e", "lat": 38.88729816666667, "lon": -77.02823366666667, "rental_uris": {"android": "https://dc.lft.to/lastmile_qr_scan", "ios": "https://dc.lft.to/lastmile_qr_scan"}, "is_disabled": 0, "fusion_lat": 0.0, "name": "21c90fb227e2228363311a1799239c5e", "fusion_lon": 0.0}, {"is_reserved": 0, "type": "electric_scooter", "bike_id": "ed71b8b53447a7cd327639b6b45598ee", "lat": 38.896766, "lon": -77.00516633333334, "rental_uris": {"android": "https://dc.lft.to/lastmile_qr_scan", "ios": "https://dc.lft.to/lastmile_qr_scan"}, "is_disabled": 0, "fusion_lat": 0.0, "name": "ed71b8b53447a7cd327639b6b45598ee", "fusion_lon": 0.0}, {"is_reserved": 0, "type": "electric_bike", "bike_id": "a0db66551867af51cec282b9fa16f45d", "lat": 38.87088583333333, "lon": -77.11045783333333, "rental_uris": {"android": "https://dc.lft.to/lastmile_qr_scan", "ios": "https://dc.lft.to/lastmile_qr_scan"}, "is_disabled": 0, "fusion_lat": 0.0, "name": "a0db66551867af51cec282b9fa16f45d", "fusion_lon": 0.0}, {"is_reserved": 0, "type": "electric_scooter", "bike_id": "fa90bb68b44753c97d30af33fc289f06", "lat": 38.914730666666664, "lon": -77.031855, "rental_uris": {"android": "https://dc.lft.to/lastmile_qr_scan", "ios": "https://dc.lft.to/lastmile_qr_scan"}, "is_disabled": 0, "fusion_lat": 0.0, "name": "fa90bb68b44753c97d30af33fc289f06", "fusion_lon": 0.0}, {"is_reserved": 0, "type": "electric_scooter", "bike_id": "661287fa1032959f007915175287c869", "lat": 38.8833705, "lon": -76.94285666666667, "rental_uris": {"android": "https://dc.lft.to/lastmile_qr_scan", "ios": "https://dc.lft.to/lastmile_qr_scan"}, "is_disabled": 0, "fusion_lat": 0.0, "name": "661287fa1032959f007915175287c869", "fusion_lon": 0.0}, {"is_reserved": 0, "type": "electric_scooter", "bike_id": "2c9de6f614e754d071625edf20892e0c", "lat": 38.93208533333333, "lon": -77.02387783333333, "rental_uris": {"android": "https://dc.lft.to/lastmile_qr_scan", "ios": "https://dc.lft.to/lastmile_qr_scan"}, "is_disabled": 0, "fusion_lat": 0.0, "name": "2c9de6f614e754d071625edf20892e0c", "fusion_lon": 0.0}, {"is_reserved": 0, "type": "electric_scooter", "bike_id": "99855adc37216b79ab467011655a4b3e", "lat": 38.928232333333334, "lon": -77.022555, "rental_uris": {"android": "https://dc.lft.to/lastmile_qr_scan", "ios": "https://dc.lft.to/lastmile_qr_scan"}, "is_disabled": 0, "fusion_lat": 0.0, "name": "99855adc37216b79ab467011655a4b3e", "fusion_lon": 0.0}, {"is_reserved": 0, "type": "electric_scooter", "bike_id": "06374606992c0ca3d0a04ae4c7417890", "lat": 38.923794666666666, "lon": -77.03646616666667, "rental_uris": {"android": "https://dc.lft.to/lastmile_qr_scan", "ios": "https://dc.lft.to/lastmile_qr_scan"}, "is_disabled": 0, "fusion_lat": 0.0, "name": "06374606992c0ca3d0a04ae4c7417890", "fusion_lon": 0.0}, {"is_reserved": 0, "type": "electric_scooter", "bike_id": "7e14bf43375a27e5fd923ae47aa2eb89", "lat": 38.92058516666667, "lon": -77.03152316666667, "rental_uris": {"android": "https://dc.lft.to/lastmile_qr_scan", "ios": "https://dc.lft.to/lastmile_qr_scan"}, "is_disabled": 0, "fusion_lat": 0.0, "name": "7e14bf43375a27e5fd923ae47aa2eb89", "fusion_lon": 0.0}, {"is_reserved": 0, "type": "electric_scooter", "bike_id": "27aff1ef1601aa1e813d6f096ba765d3", "lat": 38.9008605, "lon": -77.0492475, "rental_uris": {"android": "https://dc.lft.to/lastmile_qr_scan", "ios": "https://dc.lft.to/lastmile_qr_scan"}, "is_disabled": 0, "fusion_lat": 0.0, "name": "27aff1ef1601aa1e813d6f096ba765d3", "fusion_lon": 0.0}, {"is_reserved": 0, "type": "electric_scooter", "bike_id": "24d766bb1bee7fc56b0cb9830213758c", "lat": 38.90031, "lon": -77.011799, "rental_uris": {"android": "https://dc.lft.to/lastmile_qr_scan", "ios": "https://dc.lft.to/lastmile_qr_scan"}, "is_disabled": 0, "fusion_lat": 0.0, "name": "24d766bb1bee7fc56b0cb9830213758c", "fusion_lon": 0.0}, {"is_reserved": 0, "type": "electric_scooter", "bike_id": "3de1b03c05d69683fcf1480bf20fed67", "lat": 38.91792, "lon": -77.03179283333333, "rental_uris": {"android": "https://dc.lft.to/lastmile_qr_scan", "ios": "https://dc.lft.to/lastmile_qr_scan"}, "is_disabled": 0, "fusion_lat": 0.0, "name": "3de1b03c05d69683fcf1480bf20fed67", "fusion_lon": 0.0}, {"is_reserved": 0, "type": "electric_scooter", "bike_id": "5a44241570fbf462caf46525194927b8", "lat": 38.87789816666667, "lon": -77.00115283333334, "rental_uris": {"android": "https://dc.lft.to/lastmile_qr_scan", "ios": "https://dc.lft.to/lastmile_qr_scan"}, "is_disabled": 0, "fusion_lat": 0.0, "name": "5a44241570fbf462caf46525194927b8", "fusion_lon": 0.0}, {"is_reserved": 0, "type": "electric_scooter", "bike_id": "f1a5f874c2e860899eddde4a5da5bf58", "lat": 38.90624533333333, "lon": -77.0344755, "rental_uris": {"android": "https://dc.lft.to/lastmile_qr_scan", "ios": "https://dc.lft.to/lastmile_qr_scan"}, "is_disabled": 0, "fusion_lat": 0.0, "name": "f1a5f874c2e860899eddde4a5da5bf58", "fusion_lon": 0.0}, {"is_reserved": 0, "type": "electric_scooter", "bike_id": "8982bbb6dd0db5bad555c37f4de59e07", "lat": 38.932606, "lon": -77.03258766666667, "rental_uris": {"android": "https://dc.lft.to/lastmile_qr_scan", "ios": "https://dc.lft.to/lastmile_qr_scan"}, "is_disabled": 0, "fusion_lat": 0.0, "name": "8982bbb6dd0db5bad555c37f4de59e07", "fusion_lon": 0.0}, {"is_reserved": 0, "type": "electric_scooter", "bike_id": "93f12ada9f74e93e1950f0103b3542e2", "lat": 38.92354016666667, "lon": -77.02011366666666, "rental_uris": {"android": "https://dc.lft.to/lastmile_qr_scan", "ios": "https://dc.lft.to/lastmile_qr_scan"}, "is_disabled": 0, "fusion_lat": 0.0, "name": "93f12ada9f74e93e1950f0103b3542e2", "fusion_lon": 0.0}, {"is_reserved": 0, "type": "electric_scooter", "bike_id": "75ee1d40a41c1778fd0a28afa473cb4a", "lat": 38.90514266666667, "lon": -77.067412, "rental_uris": {"android": "https://dc.lft.to/lastmile_qr_scan", "ios": "https://dc.lft.to/lastmile_qr_scan"}, "is_disabled": 0, "fusion_lat": 0.0, "name": "75ee1d40a41c1778fd0a28afa473cb4a", "fusion_lon": 0.0}, {"is_reserved": 0, "type": "electric_scooter", "bike_id": "9c093ac397636035dfdae6e089222dc2", "lat": 38.966762, "lon": -77.0360525, "rental_uris": {"android": "https://dc.lft.to/lastmile_qr_scan", "ios": "https://dc.lft.to/lastmile_qr_scan"}, "is_disabled": 0, "fusion_lat": 0.0, "name": "9c093ac397636035dfdae6e089222dc2", "fusion_lon": 0.0}, {"is_reserved": 0, "type": "electric_scooter", "bike_id": "8fff13e8fc784e7cc53f9951f0fd6deb", "lat": 38.95178583333333, "lon": -77.012607, "rental_uris": {"android": "https://dc.lft.to/lastmile_qr_scan", "ios": "https://dc.lft.to/lastmile_qr_scan"}, "is_disabled": 0, "fusion_lat": 0.0, "name": "8fff13e8fc784e7cc53f9951f0fd6deb", "fusion_lon": 0.0}, {"is_reserved": 0, "type": "electric_scooter", "bike_id": "d73a8874fe22229a09fb9f5983a238f2", "lat": 38.94823016666667, "lon": -77.025802, "rental_uris": {"android": "https://dc.lft.to/lastmile_qr_scan", "ios": "https://dc.lft.to/lastmile_qr_scan"}, "is_disabled": 0, "fusion_lat": 0.0, "name": "d73a8874fe22229a09fb9f5983a238f2", "fusion_lon": 0.0}, {"is_reserved": 0, "type": "electric_scooter", "bike_id": "24609566ee563cddb29b0b5a9be14249", "lat": 38.903095, "lon": -77.02410666666667, "rental_uris": {"android": "https://dc.lft.to/lastmile_qr_scan", "ios": "https://dc.lft.to/lastmile_qr_scan"}, "is_disabled": 0, "fusion_lat": 0.0, "name": "24609566ee563cddb29b0b5a9be14249", "fusion_lon": 0.0}, {"is_reserved": 0, "type": "electric_scooter", "bike_id": "6337cdf0259440e72eb7c277fbe7a28c", "lat": 38.92017116666667, "lon": -76.99558916666666, "rental_uris": {"android": "https://dc.lft.to/lastmile_qr_scan", "ios": "https://dc.lft.to/lastmile_qr_scan"}, "is_disabled": 0, "fusion_lat": 0.0, "name": "6337cdf0259440e72eb7c277fbe7a28c", "fusion_lon": 0.0}, {"is_reserved": 0, "type": "electric_scooter", "bike_id": "098a6481a36e1556c4ac0a41f856cb07", "lat": 38.90967283333333, "lon": -77.01100983333333, "rental_uris": {"android": "https://dc.lft.to/lastmile_qr_scan", "ios": "https://dc.lft.to/lastmile_qr_scan"}, "is_disabled": 0, "fusion_lat": 0.0, "name": "098a6481a36e1556c4ac0a41f856cb07", "fusion_lon": 0.0}, {"is_reserved": 0, "type": "electric_scooter", "bike_id": "0b10ed955cd85bcb5c7ea87d3f54521f", "lat": 38.89543066666667, "lon": -76.9833645, "rental_uris": {"android": "https://dc.lft.to/lastmile_qr_scan", "ios": "https://dc.lft.to/lastmile_qr_scan"}, "is_disabled": 0, "fusion_lat": 0.0, "name": "0b10ed955cd85bcb5c7ea87d3f54521f", "fusion_lon": 0.0}, {"is_reserved": 0, "type": "electric_scooter", "bike_id": "23a57c69c29ac3957744c82433bcd1bf", "lat": 38.86016433333333, "lon": -76.9699905, "rental_uris": {"android": "https://dc.lft.to/lastmile_qr_scan", "ios": "https://dc.lft.to/lastmile_qr_scan"}, "is_disabled": 0, "fusion_lat": 0.0, "name": "23a57c69c29ac3957744c82433bcd1bf", "fusion_lon": 0.0}, {"is_reserved": 0, "type": "electric_scooter", "bike_id": "b350812008765069939b1b37e46e0ad0", "lat": 38.895417, "lon": -76.92773466666667, "rental_uris": {"android": "https://dc.lft.to/lastmile_qr_scan", "ios": "https://dc.lft.to/lastmile_qr_scan"}, "is_disabled": 0, "fusion_lat": 0.0, "name": "b350812008765069939b1b37e46e0ad0", "fusion_lon": 0.0}, {"is_reserved": 0, "type": "electric_scooter", "bike_id": "91fe01d18d628c0c6d250f368762fc95", "lat": 38.930728333333334, "lon": -77.02812966666667, "rental_uris": {"android": "https://dc.lft.to/lastmile_qr_scan", "ios": "https://dc.lft.to/lastmile_qr_scan"}, "is_disabled": 0, "fusion_lat": 0.0, "name": "91fe01d18d628c0c6d250f368762fc95", "fusion_lon": 0.0}, {"is_reserved": 0, "type": "electric_scooter", "bike_id": "389733e9d1aad04d82c1bdf25b281a36", "lat": 38.922443666666666, "lon": -77.0424795, "rental_uris": {"android": "https://dc.lft.to/lastmile_qr_scan", "ios": "https://dc.lft.to/lastmile_qr_scan"}, "is_disabled": 0, "fusion_lat": 0.0, "name": "389733e9d1aad04d82c1bdf25b281a36", "fusion_lon": 0.0}, {"is_reserved": 0, "type": "electric_scooter", "bike_id": "08afa10e13df59b474c9a7d641363b5b", "lat": 38.906108833333334, "lon": -77.02588766666666, "rental_uris": {"android": "https://dc.lft.to/lastmile_qr_scan", "ios": "https://dc.lft.to/lastmile_qr_scan"}, "is_disabled": 0, "fusion_lat": 0.0, "name": "08afa10e13df59b474c9a7d641363b5b", "fusion_lon": 0.0}, {"is_reserved": 0, "type": "electric_scooter", "bike_id": "2373751e8d289719c2925bdb558cb5d4", "lat": 38.93115066666667, "lon": -77.02094633333333, "rental_uris": {"android": "https://dc.lft.to/lastmile_qr_scan", "ios": "https://dc.lft.to/lastmile_qr_scan"}, "is_disabled": 0, "fusion_lat": 0.0, "name": "2373751e8d289719c2925bdb558cb5d4", "fusion_lon": 0.0}, {"is_reserved": 0, "type": "electric_scooter", "bike_id": "7dee240c0d8015dddd4deebce2861bfd", "lat": 38.90140066666667, "lon": -77.02761833333334, "rental_uris": {"android": "https://dc.lft.to/lastmile_qr_scan", "ios": "https://dc.lft.to/lastmile_qr_scan"}, "is_disabled": 0, "fusion_lat": 0.0, "name": "7dee240c0d8015dddd4deebce2861bfd", "fusion_lon": 0.0}, {"is_reserved": 0, "type": "electric_bike", "bike_id": "b6ba61de3d7f162a48d6db1b9ced5c4e", "lat": 38.96438116666667, "lon": -77.03158483333333, "rental_uris": {"android": "https://dc.lft.to/lastmile_qr_scan", "ios": "https://dc.lft.to/lastmile_qr_scan"}, "is_disabled": 0, "fusion_lat": 0.0, "name": "b6ba61de3d7f162a48d6db1b9ced5c4e", "fusion_lon": 0.0}, {"is_reserved": 0, "type": "electric_scooter", "bike_id": "96466dc09de33c232e69c8cfb7a7dee9", "lat": 38.90770116666667, "lon": -77.04500266666666, "rental_uris": {"android": "https://dc.lft.to/lastmile_qr_scan", "ios": "https://dc.lft.to/lastmile_qr_scan"}, "is_disabled": 0, "fusion_lat": 0.0, "name": "96466dc09de33c232e69c8cfb7a7dee9", "fusion_lon": 0.0}, {"is_reserved": 0, "type": "electric_bike", "bike_id": "a96d765e4f3f774ea28b09b6236c8a10", "lat": 38.87035916666667, "lon": -77.2290985, "rental_uris": {"android": "https://dc.lft.to/lastmile_qr_scan", "ios": "https://dc.lft.to/lastmile_qr_scan"}, "is_disabled": 0, "fusion_lat": 0.0, "name": "a96d765e4f3f774ea28b09b6236c8a10", "fusion_lon": 0.0}, {"is_reserved": 0, "type": "electric_scooter", "bike_id": "ff8a42ae229063cac814ae618326b6c4", "lat": 38.90105533333333, "lon": -77.01227883333334, "rental_uris": {"android": "https://dc.lft.to/lastmile_qr_scan", "ios": "https://dc.lft.to/lastmile_qr_scan"}, "is_disabled": 0, "fusion_lat": 0.0, "name": "ff8a42ae229063cac814ae618326b6c4", "fusion_lon": 0.0}, {"is_reserved": 0, "type": "electric_bike", "bike_id": "354bb218323f1f0d1883fab079db742f", "lat": 38.998855, "lon": -76.90862583333333, "rental_uris": {"android": "https://dc.lft.to/lastmile_qr_scan", "ios": "https://dc.lft.to/lastmile_qr_scan"}, "is_disabled": 0, "fusion_lat": 0.0, "name": "354bb218323f1f0d1883fab079db742f", "fusion_lon": 0.0}, {"is_reserved": 0, "type": "electric_scooter", "bike_id": "cd1aca8662b3c03004fa7773da488148", "lat": 38.922283666666665, "lon": -77.04385566666667, "rental_uris": {"android": "https://dc.lft.to/lastmile_qr_scan", "ios": "https://dc.lft.to/lastmile_qr_scan"}, "is_disabled": 0, "fusion_lat": 0.0, "name": "cd1aca8662b3c03004fa7773da488148", "fusion_lon": 0.0}, {"is_reserved": 0, "type": "electric_scooter", "bike_id": "2b3da2c84770bc31d138c0f760f6dd6e", "lat": 38.91402, "lon": -77.03263166666666, "rental_uris": {"android": "https://dc.lft.to/lastmile_qr_scan", "ios": "https://dc.lft.to/lastmile_qr_scan"}, "is_disabled": 0, "fusion_lat": 0.0, "name": "2b3da2c84770bc31d138c0f760f6dd6e", "fusion_lon": 0.0}, {"is_reserved": 0, "type": "electric_scooter", "bike_id": "d8d01f4e82abbe85de20b30c0dbb3a13", "lat": 38.92414266666667, "lon": -77.0194555, "rental_uris": {"android": "https://dc.lft.to/lastmile_qr_scan", "ios": "https://dc.lft.to/lastmile_qr_scan"}, "is_disabled": 0, "fusion_lat": 0.0, "name": "d8d01f4e82abbe85de20b30c0dbb3a13", "fusion_lon": 0.0}, {"is_reserved": 0, "type": "electric_scooter", "bike_id": "2d0a73066e1033ec042af244f2454436", "lat": 38.913613, "lon": -77.01996933333334, "rental_uris": {"android": "https://dc.lft.to/lastmile_qr_scan", "ios": "https://dc.lft.to/lastmile_qr_scan"}, "is_disabled": 0, "fusion_lat": 0.0, "name": "2d0a73066e1033ec042af244f2454436", "fusion_lon": 0.0}, {"is_reserved": 0, "type": "electric_scooter", "bike_id": "d7698f0465ff585c3b3dff1ea317c1d8", "lat": 38.8942275, "lon": -76.99825216666666, "rental_uris": {"android": "https://dc.lft.to/lastmile_qr_scan", "ios": "https://dc.lft.to/lastmile_qr_scan"}, "is_disabled": 0, "fusion_lat": 0.0, "name": "d7698f0465ff585c3b3dff1ea317c1d8", "fusion_lon": 0.0}, {"is_reserved": 0, "type": "electric_bike", "bike_id": "25db70ca812a87ec48ab686fc7df59bc", "lat": 38.854347833333335, "lon": -77.0831815, "rental_uris": {"android": "https://dc.lft.to/lastmile_qr_scan", "ios": "https://dc.lft.to/lastmile_qr_scan"}, "is_disabled": 0, "fusion_lat": 0.0, "name": "25db70ca812a87ec48ab686fc7df59bc", "fusion_lon": 0.0}, {"is_reserved": 0, "type": "electric_scooter", "bike_id": "b7641ff647e606176a32e512a0b00c2d", "lat": 38.9422405, "lon": -77.02962433333333, "rental_uris": {"android": "https://dc.lft.to/lastmile_qr_scan", "ios": "https://dc.lft.to/lastmile_qr_scan"}, "is_disabled": 0, "fusion_lat": 0.0, "name": "b7641ff647e606176a32e512a0b00c2d", "fusion_lon": 0.0}, {"is_reserved": 0, "type": "electric_scooter", "bike_id": "39bf3f1afbe01239c38248fb746e9dbd", "lat": 38.924463833333334, "lon": -77.02033933333334, "rental_uris": {"android": "https://dc.lft.to/lastmile_qr_scan", "ios": "https://dc.lft.to/lastmile_qr_scan"}, "is_disabled": 0, "fusion_lat": 0.0, "name": "39bf3f1afbe01239c38248fb746e9dbd", "fusion_lon": 0.0}, {"is_reserved": 0, "type": "electric_scooter", "bike_id": "d0387d26fe041e732823f6d2a571fe48", "lat": 38.913842833333334, "lon": -77.02601016666667, "rental_uris": {"android": "https://dc.lft.to/lastmile_qr_scan", "ios": "https://dc.lft.to/lastmile_qr_scan"}, "is_disabled": 0, "fusion_lat": 0.0, "name": "d0387d26fe041e732823f6d2a571fe48", "fusion_lon": 0.0}, {"is_reserved": 0, "type": "electric_scooter", "bike_id": "209817117a79d096228c4fe01ae07f09", "lat": 38.940305, "lon": -77.0264165, "rental_uris": {"android": "https://dc.lft.to/lastmile_qr_scan", "ios": "https://dc.lft.to/lastmile_qr_scan"}, "is_disabled": 0, "fusion_lat": 0.0, "name": "209817117a79d096228c4fe01ae07f09", "fusion_lon": 0.0}, {"is_reserved": 0, "type": "electric_scooter", "bike_id": "28ffde8c6614454678d78ddb391446f8", "lat": 38.864306166666665, "lon": -76.9985845, "rental_uris": {"android": "https://dc.lft.to/lastmile_qr_scan", "ios": "https://dc.lft.to/lastmile_qr_scan"}, "is_disabled": 0, "fusion_lat": 0.0, "name": "28ffde8c6614454678d78ddb391446f8", "fusion_lon": 0.0}, {"is_reserved": 0, "type": "electric_scooter", "bike_id": "336335b00a9f97a50464e1702a6886ef", "lat": 38.9346015, "lon": -77.02242916666667, "rental_uris": {"android": "https://dc.lft.to/lastmile_qr_scan", "ios": "https://dc.lft.to/lastmile_qr_scan"}, "is_disabled": 0, "fusion_lat": 0.0, "name": "336335b00a9f97a50464e1702a6886ef", "fusion_lon": 0.0}, {"is_reserved": 0, "type": "electric_scooter", "bike_id": "288c5ebf78317e49e3009f2a79336601", "lat": 38.92896866666667, "lon": -77.02255016666666, "rental_uris": {"android": "https://dc.lft.to/lastmile_qr_scan", "ios": "https://dc.lft.to/lastmile_qr_scan"}, "is_disabled": 0, "fusion_lat": 0.0, "name": "288c5ebf78317e49e3009f2a79336601", "fusion_lon": 0.0}, {"is_reserved": 0, "type": "electric_scooter", "bike_id": "477bbe26e8fca97e6004f55fcfe71fa7", "lat": 38.917636, "lon": -77.03188516666667, "rental_uris": {"android": "https://dc.lft.to/lastmile_qr_scan", "ios": "https://dc.lft.to/lastmile_qr_scan"}, "is_disabled": 0, "fusion_lat": 0.0, "name": "477bbe26e8fca97e6004f55fcfe71fa7", "fusion_lon": 0.0}, {"is_reserved": 0, "type": "electric_scooter", "bike_id": "c1cab4b0d9f1c56fc5c3c637d382cf36", "lat": 38.95088, "lon": -77.02805633333334, "rental_uris": {"android": "https://dc.lft.to/lastmile_qr_scan", "ios": "https://dc.lft.to/lastmile_qr_scan"}, "is_disabled": 0, "fusion_lat": 0.0, "name": "c1cab4b0d9f1c56fc5c3c637d382cf36", "fusion_lon": 0.0}, {"is_reserved": 0, "type": "electric_scooter", "bike_id": "ff93e8d421c8b76446f99d326898c5f5", "lat": 38.90059333333333, "lon": -76.98680733333333, "rental_uris": {"android": "https://dc.lft.to/lastmile_qr_scan", "ios": "https://dc.lft.to/lastmile_qr_scan"}, "is_disabled": 0, "fusion_lat": 0.0, "name": "ff93e8d421c8b76446f99d326898c5f5", "fusion_lon": 0.0}, {"is_reserved": 0, "type": "electric_scooter", "bike_id": "59d96a064623ba7e32eeca855fc64bf1", "lat": 38.91067683333333, "lon": -77.038566, "rental_uris": {"android": "https://dc.lft.to/lastmile_qr_scan", "ios": "https://dc.lft.to/lastmile_qr_scan"}, "is_disabled": 0, "fusion_lat": 0.0, "name": "59d96a064623ba7e32eeca855fc64bf1", "fusion_lon": 0.0}, {"is_reserved": 0, "type": "electric_bike", "bike_id": "fa848ae2a7321c3b47da126456e2e87f", "lat": 38.895644833333336, "lon": -77.12736583333333, "rental_uris": {"android": "https://dc.lft.to/lastmile_qr_scan", "ios": "https://dc.lft.to/lastmile_qr_scan"}, "is_disabled": 0, "fusion_lat": 0.0, "name": "fa848ae2a7321c3b47da126456e2e87f", "fusion_lon": 0.0}, {"is_reserved": 0, "type": "electric_scooter", "bike_id": "d86154cee135c872ef3e3a9a2a564f00", "lat": 38.930027333333335, "lon": -77.0230265, "rental_uris": {"android": "https://dc.lft.to/lastmile_qr_scan", "ios": "https://dc.lft.to/lastmile_qr_scan"}, "is_disabled": 0, "fusion_lat": 0.0, "name": "d86154cee135c872ef3e3a9a2a564f00", "fusion_lon": 0.0}, {"is_reserved": 0, "type": "electric_scooter", "bike_id": "946d0e402e76ed235dcaef235c1f8be5", "lat": 38.898460666666665, "lon": -77.02937816666666, "rental_uris": {"android": "https://dc.lft.to/lastmile_qr_scan", "ios": "https://dc.lft.to/lastmile_qr_scan"}, "is_disabled": 0, "fusion_lat": 0.0, "name": "946d0e402e76ed235dcaef235c1f8be5", "fusion_lon": 0.0}, {"is_reserved": 0, "type": "electric_scooter", "bike_id": "94afaaae3afc5c074873a344348593f3", "lat": 38.9155145, "lon": -77.03990166666667, "rental_uris": {"android": "https://dc.lft.to/lastmile_qr_scan", "ios": "https://dc.lft.to/lastmile_qr_scan"}, "is_disabled": 0, "fusion_lat": 0.0, "name": "94afaaae3afc5c074873a344348593f3", "fusion_lon": 0.0}, {"is_reserved": 0, "type": "electric_scooter", "bike_id": "92659b59313c6d212172d3ad9ba0247d", "lat": 38.8989975, "lon": -77.03282466666667, "rental_uris": {"android": "https://dc.lft.to/lastmile_qr_scan", "ios": "https://dc.lft.to/lastmile_qr_scan"}, "is_disabled": 0, "fusion_lat": 0.0, "name": "92659b59313c6d212172d3ad9ba0247d", "fusion_lon": 0.0}, {"is_reserved": 0, "type": "electric_scooter", "bike_id": "ea2a60417a0bd812f944e756502f90a0", "lat": 38.91875683333333, "lon": -77.03638933333333, "rental_uris": {"android": "https://dc.lft.to/lastmile_qr_scan", "ios": "https://dc.lft.to/lastmile_qr_scan"}, "is_disabled": 0, "fusion_lat": 0.0, "name": "ea2a60417a0bd812f944e756502f90a0", "fusion_lon": 0.0}, {"is_reserved": 0, "type": "electric_bike", "bike_id": "cfdb855b6577d6082eb40b907ad36333", "lat": 38.8860555, "lon": -77.14231133333334, "rental_uris": {"android": "https://dc.lft.to/lastmile_qr_scan", "ios": "https://dc.lft.to/lastmile_qr_scan"}, "is_disabled": 0, "fusion_lat": 0.0, "name": "cfdb855b6577d6082eb40b907ad36333", "fusion_lon": 0.0}, {"is_reserved": 0, "type": "electric_scooter", "bike_id": "2665222b9fa7dc92860fcea60708d798", "lat": 38.90702616666667, "lon": -77.0239445, "rental_uris": {"android": "https://dc.lft.to/lastmile_qr_scan", "ios": "https://dc.lft.to/lastmile_qr_scan"}, "is_disabled": 0, "fusion_lat": 0.0, "name": "2665222b9fa7dc92860fcea60708d798", "fusion_lon": 0.0}, {"is_reserved": 0, "type": "electric_scooter", "bike_id": "21f0af83574b32e202d255669eeaff3b", "lat": 38.91250316666667, "lon": -77.007708, "rental_uris": {"android": "https://dc.lft.to/lastmile_qr_scan", "ios": "https://dc.lft.to/lastmile_qr_scan"}, "is_disabled": 0, "fusion_lat": 0.0, "name": "21f0af83574b32e202d255669eeaff3b", "fusion_lon": 0.0}, {"is_reserved": 0, "type": "electric_scooter", "bike_id": "6e49278b02d47bd99cd653ed396c1973", "lat": 38.91438766666667, "lon": -77.03181516666666, "rental_uris": {"android": "https://dc.lft.to/lastmile_qr_scan", "ios": "https://dc.lft.to/lastmile_qr_scan"}, "is_disabled": 0, "fusion_lat": 0.0, "name": "6e49278b02d47bd99cd653ed396c1973", "fusion_lon": 0.0}, {"is_reserved": 0, "type": "electric_scooter", "bike_id": "b69d4d558c1801f5d02158bee0d7d0b3", "lat": 38.89745666666666, "lon": -76.9976965, "rental_uris": {"android": "https://dc.lft.to/lastmile_qr_scan", "ios": "https://dc.lft.to/lastmile_qr_scan"}, "is_disabled": 0, "fusion_lat": 0.0, "name": "b69d4d558c1801f5d02158bee0d7d0b3", "fusion_lon": 0.0}, {"is_reserved": 0, "type": "electric_scooter", "bike_id": "7e4d276797e9aa3f934bd588db2fe61f", "lat": 38.916408, "lon": -77.02391833333333, "rental_uris": {"android": "https://dc.lft.to/lastmile_qr_scan", "ios": "https://dc.lft.to/lastmile_qr_scan"}, "is_disabled": 0, "fusion_lat": 0.0, "name": "7e4d276797e9aa3f934bd588db2fe61f", "fusion_lon": 0.0}, {"is_reserved": 0, "type": "electric_scooter", "bike_id": "e61429bbf5c1d048055116d928d9f64c", "lat": 38.88509583333333, "lon": -77.011152, "rental_uris": {"android": "https://dc.lft.to/lastmile_qr_scan", "ios": "https://dc.lft.to/lastmile_qr_scan"}, "is_disabled": 0, "fusion_lat": 0.0, "name": "e61429bbf5c1d048055116d928d9f64c", "fusion_lon": 0.0}, {"is_reserved": 0, "type": "electric_bike", "bike_id": "205b1413bb96e3dfed28b0552885db07", "lat": 38.946651833333334, "lon": -76.993349, "rental_uris": {"android": "https://dc.lft.to/lastmile_qr_scan", "ios": "https://dc.lft.to/lastmile_qr_scan"}, "is_disabled": 0, "fusion_lat": 0.0, "name": "205b1413bb96e3dfed28b0552885db07", "fusion_lon": 0.0}, {"is_reserved": 0, "type": "electric_scooter", "bike_id": "455eebc00572c41fa6f59a2a8b5c3002", "lat": 38.94589833333333, "lon": -77.0203025, "rental_uris": {"android": "https://dc.lft.to/lastmile_qr_scan", "ios": "https://dc.lft.to/lastmile_qr_scan"}, "is_disabled": 0, "fusion_lat": 0.0, "name": "455eebc00572c41fa6f59a2a8b5c3002", "fusion_lon": 0.0}, {"is_reserved": 0, "type": "electric_scooter", "bike_id": "dfc4d65c8ba76af2da0351c0ddc2f03e", "lat": 38.9345385, "lon": -77.0291295, "rental_uris": {"android": "https://dc.lft.to/lastmile_qr_scan", "ios": "https://dc.lft.to/lastmile_qr_scan"}, "is_disabled": 0, "fusion_lat": 0.0, "name": "dfc4d65c8ba76af2da0351c0ddc2f03e", "fusion_lon": 0.0}, {"is_reserved": 0, "type": "electric_scooter", "bike_id": "ef4c93acd11d750ddbd4179612acd28a", "lat": 38.887387333333336, "lon": -77.00342566666667, "rental_uris": {"android": "https://dc.lft.to/lastmile_qr_scan", "ios": "https://dc.lft.to/lastmile_qr_scan"}, "is_disabled": 0, "fusion_lat": 0.0, "name": "ef4c93acd11d750ddbd4179612acd28a", "fusion_lon": 0.0}, {"is_reserved": 0, "type": "electric_scooter", "bike_id": "0a023b474cae7624ec3db1c2c78c48b1", "lat": 38.923579, "lon": -77.035014, "rental_uris": {"android": "https://dc.lft.to/lastmile_qr_scan", "ios": "https://dc.lft.to/lastmile_qr_scan"}, "is_disabled": 0, "fusion_lat": 0.0, "name": "0a023b474cae7624ec3db1c2c78c48b1", "fusion_lon": 0.0}, {"is_reserved": 0, "type": "electric_scooter", "bike_id": "035c4123cd620d774a7aa14b6be63152", "lat": 38.8765495, "lon": -77.01580766666666, "rental_uris": {"android": "https://dc.lft.to/lastmile_qr_scan", "ios": "https://dc.lft.to/lastmile_qr_scan"}, "is_disabled": 0, "fusion_lat": 0.0, "name": "035c4123cd620d774a7aa14b6be63152", "fusion_lon": 0.0}, {"is_reserved": 0, "type": "electric_scooter", "bike_id": "343efdd712e68b88751c8c500ca56617", "lat": 38.896348333333336, "lon": -76.92798183333333, "rental_uris": {"android": "https://dc.lft.to/lastmile_qr_scan", "ios": "https://dc.lft.to/lastmile_qr_scan"}, "is_disabled": 0, "fusion_lat": 0.0, "name": "343efdd712e68b88751c8c500ca56617", "fusion_lon": 0.0}, {"is_reserved": 0, "type": "electric_scooter", "bike_id": "6b0c36cb13bb2a94b8c1de9f079a8cdb", "lat": 38.90029716666667, "lon": -76.99664016666667, "rental_uris": {"android": "https://dc.lft.to/lastmile_qr_scan", "ios": "https://dc.lft.to/lastmile_qr_scan"}, "is_disabled": 0, "fusion_lat": 0.0, "name": "6b0c36cb13bb2a94b8c1de9f079a8cdb", "fusion_lon": 0.0}, {"is_reserved": 0, "type": "electric_bike", "bike_id": "027551d1de573d8780b17d7f8b56d202", "lat": 38.9426365, "lon": -76.990686, "rental_uris": {"android": "https://dc.lft.to/lastmile_qr_scan", "ios": "https://dc.lft.to/lastmile_qr_scan"}, "is_disabled": 0, "fusion_lat": 0.0, "name": "027551d1de573d8780b17d7f8b56d202", "fusion_lon": 0.0}, {"is_reserved": 0, "type": "electric_scooter", "bike_id": "8528dfe90bf9fa1e3739ff77c6f5b28c", "lat": 38.8947195, "lon": -76.99710083333333, "rental_uris": {"android": "https://dc.lft.to/lastmile_qr_scan", "ios": "https://dc.lft.to/lastmile_qr_scan"}, "is_disabled": 0, "fusion_lat": 0.0, "name": "8528dfe90bf9fa1e3739ff77c6f5b28c", "fusion_lon": 0.0}, {"is_reserved": 0, "type": "electric_scooter", "bike_id": "7361c2f0d766586d5f56af35ba820058", "lat": 38.896795166666664, "lon": -77.043291, "rental_uris": {"android": "https://dc.lft.to/lastmile_qr_scan", "ios": "https://dc.lft.to/lastmile_qr_scan"}, "is_disabled": 0, "fusion_lat": 0.0, "name": "7361c2f0d766586d5f56af35ba820058", "fusion_lon": 0.0}, {"is_reserved": 0, "type": "electric_scooter", "bike_id": "afba789c6a0c5860d04c67f3b32a4369", "lat": 38.95912833333333, "lon": -77.00019016666667, "rental_uris": {"android": "https://dc.lft.to/lastmile_qr_scan", "ios": "https://dc.lft.to/lastmile_qr_scan"}, "is_disabled": 0, "fusion_lat": 0.0, "name": "afba789c6a0c5860d04c67f3b32a4369", "fusion_lon": 0.0}, {"is_reserved": 0, "type": "electric_scooter", "bike_id": "bb51fb2004cfbc64678c4b29c26f365c", "lat": 38.900946833333336, "lon": -77.04143016666667, "rental_uris": {"android": "https://dc.lft.to/lastmile_qr_scan", "ios": "https://dc.lft.to/lastmile_qr_scan"}, "is_disabled": 0, "fusion_lat": 0.0, "name": "bb51fb2004cfbc64678c4b29c26f365c", "fusion_lon": 0.0}, {"is_reserved": 0, "type": "electric_scooter", "bike_id": "f9bd588d7e0a3e97b8682c4f4db1cbe0", "lat": 38.92680283333333, "lon": -77.03203533333334, "rental_uris": {"android": "https://dc.lft.to/lastmile_qr_scan", "ios": "https://dc.lft.to/lastmile_qr_scan"}, "is_disabled": 0, "fusion_lat": 0.0, "name": "f9bd588d7e0a3e97b8682c4f4db1cbe0", "fusion_lon": 0.0}, {"is_reserved": 0, "type": "electric_scooter", "bike_id": "09bdb9463136a83fb522f9883d87cffd", "lat": 38.8959715, "lon": -77.0300785, "rental_uris": {"android": "https://dc.lft.to/lastmile_qr_scan", "ios": "https://dc.lft.to/lastmile_qr_scan"}, "is_disabled": 0, "fusion_lat": 0.0, "name": "09bdb9463136a83fb522f9883d87cffd", "fusion_lon": 0.0}, {"is_reserved": 0, "type": "electric_scooter", "bike_id": "e62736e79f7a6a7fd64c400dc39695fe", "lat": 38.915618333333335, "lon": -77.036696, "rental_uris": {"android": "https://dc.lft.to/lastmile_qr_scan", "ios": "https://dc.lft.to/lastmile_qr_scan"}, "is_disabled": 0, "fusion_lat": 0.0, "name": "e62736e79f7a6a7fd64c400dc39695fe", "fusion_lon": 0.0}, {"is_reserved": 0, "type": "electric_scooter", "bike_id": "b6e8892f8e254b564fa3cf927bb9251e", "lat": 38.926974333333334, "lon": -77.02413016666667, "rental_uris": {"android": "https://dc.lft.to/lastmile_qr_scan", "ios": "https://dc.lft.to/lastmile_qr_scan"}, "is_disabled": 0, "fusion_lat": 0.0, "name": "b6e8892f8e254b564fa3cf927bb9251e", "fusion_lon": 0.0}, {"is_reserved": 0, "type": "electric_scooter", "bike_id": "44fcb421aece28e3ad69e06fb76e1907", "lat": 38.9460325, "lon": -77.03053733333333, "rental_uris": {"android": "https://dc.lft.to/lastmile_qr_scan", "ios": "https://dc.lft.to/lastmile_qr_scan"}, "is_disabled": 0, "fusion_lat": 0.0, "name": "44fcb421aece28e3ad69e06fb76e1907", "fusion_lon": 0.0}, {"is_reserved": 0, "type": "electric_scooter", "bike_id": "54a756d6390a1ca3ca1992b98b4db28a", "lat": 38.91848566666667, "lon": -76.96554333333333, "rental_uris": {"android": "https://dc.lft.to/lastmile_qr_scan", "ios": "https://dc.lft.to/lastmile_qr_scan"}, "is_disabled": 0, "fusion_lat": 0.0, "name": "54a756d6390a1ca3ca1992b98b4db28a", "fusion_lon": 0.0}, {"is_reserved": 0, "type": "electric_scooter", "bike_id": "8b9bc31eb5d7b21edd01868e399fc6f8", "lat": 38.94975483333333, "lon": -77.024559, "rental_uris": {"android": "https://dc.lft.to/lastmile_qr_scan", "ios": "https://dc.lft.to/lastmile_qr_scan"}, "is_disabled": 0, "fusion_lat": 0.0, "name": "8b9bc31eb5d7b21edd01868e399fc6f8", "fusion_lon": 0.0}, {"is_reserved": 0, "type": "electric_scooter", "bike_id": "908542d7647ee856e7825712640c10c4", "lat": 38.919598, "lon": -77.01768083333333, "rental_uris": {"android": "https://dc.lft.to/lastmile_qr_scan", "ios": "https://dc.lft.to/lastmile_qr_scan"}, "is_disabled": 0, "fusion_lat": 0.0, "name": "908542d7647ee856e7825712640c10c4", "fusion_lon": 0.0}, {"is_reserved": 0, "type": "electric_scooter", "bike_id": "0f8836039bad7f9d14116fe8450d3ecd", "lat": 38.894057833333335, "lon": -77.02323283333334, "rental_uris": {"android": "https://dc.lft.to/lastmile_qr_scan", "ios": "https://dc.lft.to/lastmile_qr_scan"}, "is_disabled": 0, "fusion_lat": 0.0, "name": "0f8836039bad7f9d14116fe8450d3ecd", "fusion_lon": 0.0}, {"is_reserved": 0, "type": "electric_scooter", "bike_id": "e4b0f63c16295acbca237e30f060543d", "lat": 38.90229716666666, "lon": -77.05338083333334, "rental_uris": {"android": "https://dc.lft.to/lastmile_qr_scan", "ios": "https://dc.lft.to/lastmile_qr_scan"}, "is_disabled": 0, "fusion_lat": 0.0, "name": "e4b0f63c16295acbca237e30f060543d", "fusion_lon": 0.0}, {"is_reserved": 0, "type": "electric_scooter", "bike_id": "dc8c4036b5f32bb98a529f96b6419701", "lat": 38.914038, "lon": -77.02837283333334, "rental_uris": {"android": "https://dc.lft.to/lastmile_qr_scan", "ios": "https://dc.lft.to/lastmile_qr_scan"}, "is_disabled": 0, "fusion_lat": 0.0, "name": "dc8c4036b5f32bb98a529f96b6419701", "fusion_lon": 0.0}, {"is_reserved": 0, "type": "electric_scooter", "bike_id": "a0e1f3c9455d3a11bbb0276201722111", "lat": 38.90785, "lon": -77.0364235, "rental_uris": {"android": "https://dc.lft.to/lastmile_qr_scan", "ios": "https://dc.lft.to/lastmile_qr_scan"}, "is_disabled": 0, "fusion_lat": 0.0, "name": "a0e1f3c9455d3a11bbb0276201722111", "fusion_lon": 0.0}, {"is_reserved": 0, "type": "electric_bike", "bike_id": "442a88f89644b87f89cc581feadf9132", "lat": 39.01074766666667, "lon": -76.91064566666667, "rental_uris": {"android": "https://dc.lft.to/lastmile_qr_scan", "ios": "https://dc.lft.to/lastmile_qr_scan"}, "is_disabled": 0, "fusion_lat": 0.0, "name": "442a88f89644b87f89cc581feadf9132", "fusion_lon": 0.0}, {"is_reserved": 0, "type": "electric_scooter", "bike_id": "8d479d7c81c7313bc3271f4ef16a024b", "lat": 38.90832533333333, "lon": -76.98716583333334, "rental_uris": {"android": "https://dc.lft.to/lastmile_qr_scan", "ios": "https://dc.lft.to/lastmile_qr_scan"}, "is_disabled": 0, "fusion_lat": 0.0, "name": "8d479d7c81c7313bc3271f4ef16a024b", "fusion_lon": 0.0}, {"is_reserved": 0, "type": "electric_scooter", "bike_id": "74f3a5f8de4fd84c9266f4cfc131cbd4", "lat": 38.912985666666664, "lon": -76.98471383333333, "rental_uris": {"android": "https://dc.lft.to/lastmile_qr_scan", "ios": "https://dc.lft.to/lastmile_qr_scan"}, "is_disabled": 0, "fusion_lat": 0.0, "name": "74f3a5f8de4fd84c9266f4cfc131cbd4", "fusion_lon": 0.0}, {"is_reserved": 0, "type": "electric_scooter", "bike_id": "58d31b6a6a73e0f9deb645f2117d0989", "lat": 38.90114416666667, "lon": -77.02241416666666, "rental_uris": {"android": "https://dc.lft.to/lastmile_qr_scan", "ios": "https://dc.lft.to/lastmile_qr_scan"}, "is_disabled": 0, "fusion_lat": 0.0, "name": "58d31b6a6a73e0f9deb645f2117d0989", "fusion_lon": 0.0}, {"is_reserved": 0, "type": "electric_scooter", "bike_id": "15a01d4ecb1197f20c3a710fce1a9570", "lat": 38.914154, "lon": -77.02208433333334, "rental_uris": {"android": "https://dc.lft.to/lastmile_qr_scan", "ios": "https://dc.lft.to/lastmile_qr_scan"}, "is_disabled": 0, "fusion_lat": 0.0, "name": "15a01d4ecb1197f20c3a710fce1a9570", "fusion_lon": 0.0}, {"is_reserved": 0, "type": "electric_bike", "bike_id": "784f5d37045235a696a9cd4d8542ceeb", "lat": 38.936060833333336, "lon": -77.03146083333333, "rental_uris": {"android": "https://dc.lft.to/lastmile_qr_scan", "ios": "https://dc.lft.to/lastmile_qr_scan"}, "is_disabled": 0, "fusion_lat": 0.0, "name": "784f5d37045235a696a9cd4d8542ceeb", "fusion_lon": 0.0}, {"is_reserved": 0, "type": "electric_scooter", "bike_id": "c8772f4786c9e031b129374706ea0058", "lat": 38.8861405, "lon": -77.004031, "rental_uris": {"android": "https://dc.lft.to/lastmile_qr_scan", "ios": "https://dc.lft.to/lastmile_qr_scan"}, "is_disabled": 0, "fusion_lat": 0.0, "name": "c8772f4786c9e031b129374706ea0058", "fusion_lon": 0.0}, {"is_reserved": 0, "type": "electric_bike", "bike_id": "06922fe938864fe74d3595765fb65047", "lat": 38.88269416666667, "lon": -76.93236816666666, "rental_uris": {"android": "https://dc.lft.to/lastmile_qr_scan", "ios": "https://dc.lft.to/lastmile_qr_scan"}, "is_disabled": 0, "fusion_lat": 0.0, "name": "06922fe938864fe74d3595765fb65047", "fusion_lon": 0.0}, {"is_reserved": 0, "type": "electric_scooter", "bike_id": "934f335e47e34cd68216052be7f6746e", "lat": 38.92714566666667, "lon": -77.02091016666667, "rental_uris": {"android": "https://dc.lft.to/lastmile_qr_scan", "ios": "https://dc.lft.to/lastmile_qr_scan"}, "is_disabled": 0, "fusion_lat": 0.0, "name": "934f335e47e34cd68216052be7f6746e", "fusion_lon": 0.0}, {"is_reserved": 0, "type": "electric_bike", "bike_id": "135b62a13afed8d0c5970d07bac8ba4d", "lat": 38.94492833333334, "lon": -77.006792, "rental_uris": {"android": "https://dc.lft.to/lastmile_qr_scan", "ios": "https://dc.lft.to/lastmile_qr_scan"}, "is_disabled": 0, "fusion_lat": 0.0, "name": "135b62a13afed8d0c5970d07bac8ba4d", "fusion_lon": 0.0}, {"is_reserved": 0, "type": "electric_bike", "bike_id": "6cac82cc9ba719c37e429adf2723797f", "lat": 38.823394, "lon": -77.05825866666666, "rental_uris": {"android": "https://dc.lft.to/lastmile_qr_scan", "ios": "https://dc.lft.to/lastmile_qr_scan"}, "is_disabled": 0, "fusion_lat": 0.0, "name": "6cac82cc9ba719c37e429adf2723797f", "fusion_lon": 0.0}, {"is_reserved": 0, "type": "electric_scooter", "bike_id": "7e505cad7841ade339dc3ae4ef9e98ba", "lat": 38.933564833333335, "lon": -77.02424316666666, "rental_uris": {"android": "https://dc.lft.to/lastmile_qr_scan", "ios": "https://dc.lft.to/lastmile_qr_scan"}, "is_disabled": 0, "fusion_lat": 0.0, "name": "7e505cad7841ade339dc3ae4ef9e98ba", "fusion_lon": 0.0}, {"is_reserved": 0, "type": "electric_bike", "bike_id": "cf25bec5d23b98efdd999383fda15523", "lat": 38.883869, "lon": -76.9544745, "rental_uris": {"android": "https://dc.lft.to/lastmile_qr_scan", "ios": "https://dc.lft.to/lastmile_qr_scan"}, "is_disabled": 0, "fusion_lat": 0.0, "name": "cf25bec5d23b98efdd999383fda15523", "fusion_lon": 0.0}, {"is_reserved": 0, "type": "electric_scooter", "bike_id": "a33a6940897d81891a6aa3b92eab0b0e", "lat": 38.904775666666666, "lon": -77.04170466666666, "rental_uris": {"android": "https://dc.lft.to/lastmile_qr_scan", "ios": "https://dc.lft.to/lastmile_qr_scan"}, "is_disabled": 0, "fusion_lat": 0.0, "name": "a33a6940897d81891a6aa3b92eab0b0e", "fusion_lon": 0.0}, {"is_reserved": 0, "type": "electric_scooter", "bike_id": "35571df2fdaffef7df7bd25363f0554c", "lat": 38.90518733333333, "lon": -77.02601616666666, "rental_uris": {"android": "https://dc.lft.to/lastmile_qr_scan", "ios": "https://dc.lft.to/lastmile_qr_scan"}, "is_disabled": 0, "fusion_lat": 0.0, "name": "35571df2fdaffef7df7bd25363f0554c", "fusion_lon": 0.0}, {"is_reserved": 0, "type": "electric_scooter", "bike_id": "ae456c8f11b24d7b000d625df1fba577", "lat": 38.918398333333336, "lon": -77.02300133333334, "rental_uris": {"android": "https://dc.lft.to/lastmile_qr_scan", "ios": "https://dc.lft.to/lastmile_qr_scan"}, "is_disabled": 0, "fusion_lat": 0.0, "name": "ae456c8f11b24d7b000d625df1fba577", "fusion_lon": 0.0}, {"is_reserved": 0, "type": "electric_bike", "bike_id": "fde1cd936ea3849a38bba687874b17d3", "lat": 38.8323355, "lon": -76.94620966666666, "rental_uris": {"android": "https://dc.lft.to/lastmile_qr_scan", "ios": "https://dc.lft.to/lastmile_qr_scan"}, "is_disabled": 0, "fusion_lat": 0.0, "name": "fde1cd936ea3849a38bba687874b17d3", "fusion_lon": 0.0}, {"is_reserved": 0, "type": "electric_scooter", "bike_id": "598ac261b7fc09ea3d0000789f9993f3", "lat": 38.94495, "lon": -77.00737366666667, "rental_uris": {"android": "https://dc.lft.to/lastmile_qr_scan", "ios": "https://dc.lft.to/lastmile_qr_scan"}, "is_disabled": 0, "fusion_lat": 0.0, "name": "598ac261b7fc09ea3d0000789f9993f3", "fusion_lon": 0.0}, {"is_reserved": 0, "type": "electric_scooter", "bike_id": "43829c3656cce1ad3176af0b1f820dda", "lat": 38.887699833333336, "lon": -77.00039716666667, "rental_uris": {"android": "https://dc.lft.to/lastmile_qr_scan", "ios": "https://dc.lft.to/lastmile_qr_scan"}, "is_disabled": 0, "fusion_lat": 0.0, "name": "43829c3656cce1ad3176af0b1f820dda", "fusion_lon": 0.0}, {"is_reserved": 0, "type": "electric_scooter", "bike_id": "d99d836e76b7cb4f0ff0725342262531", "lat": 38.88527033333333, "lon": -76.98056166666667, "rental_uris": {"android": "https://dc.lft.to/lastmile_qr_scan", "ios": "https://dc.lft.to/lastmile_qr_scan"}, "is_disabled": 0, "fusion_lat": 0.0, "name": "d99d836e76b7cb4f0ff0725342262531", "fusion_lon": 0.0}, {"is_reserved": 0, "type": "electric_scooter", "bike_id": "a0ff1f65659b88b66538a580727e53a6", "lat": 38.924828, "lon": -77.030472, "rental_uris": {"android": "https://dc.lft.to/lastmile_qr_scan", "ios": "https://dc.lft.to/lastmile_qr_scan"}, "is_disabled": 0, "fusion_lat": 0.0, "name": "a0ff1f65659b88b66538a580727e53a6", "fusion_lon": 0.0}, {"is_reserved": 0, "type": "electric_scooter", "bike_id": "87273a5ade313736b5b1adc16225d773", "lat": 38.902004833333336, "lon": -76.98207616666667, "rental_uris": {"android": "https://dc.lft.to/lastmile_qr_scan", "ios": "https://dc.lft.to/lastmile_qr_scan"}, "is_disabled": 0, "fusion_lat": 0.0, "name": "87273a5ade313736b5b1adc16225d773", "fusion_lon": 0.0}, {"is_reserved": 0, "type": "electric_scooter", "bike_id": "2412dc179d74825455443de2ccc93127", "lat": 38.92456833333333, "lon": -77.052264, "rental_uris": {"android": "https://dc.lft.to/lastmile_qr_scan", "ios": "https://dc.lft.to/lastmile_qr_scan"}, "is_disabled": 0, "fusion_lat": 0.0, "name": "2412dc179d74825455443de2ccc93127", "fusion_lon": 0.0}, {"is_reserved": 0, "type": "electric_scooter", "bike_id": "fdd82fae18024b1a6f6b8836b7b69e42", "lat": 38.9180075, "lon": -77.03434933333334, "rental_uris": {"android": "https://dc.lft.to/lastmile_qr_scan", "ios": "https://dc.lft.to/lastmile_qr_scan"}, "is_disabled": 0, "fusion_lat": 0.0, "name": "fdd82fae18024b1a6f6b8836b7b69e42", "fusion_lon": 0.0}, {"is_reserved": 0, "type": "electric_scooter", "bike_id": "6607b2a969ade457c969cb97e3aa8525", "lat": 38.88672433333333, "lon": -77.0019585, "rental_uris": {"android": "https://dc.lft.to/lastmile_qr_scan", "ios": "https://dc.lft.to/lastmile_qr_scan"}, "is_disabled": 0, "fusion_lat": 0.0, "name": "6607b2a969ade457c969cb97e3aa8525", "fusion_lon": 0.0}, {"is_reserved": 0, "type": "electric_scooter", "bike_id": "744e08e53b47dfc8b3faa45f07cd8162", "lat": 38.91554083333333, "lon": -77.03253733333334, "rental_uris": {"android": "https://dc.lft.to/lastmile_qr_scan", "ios": "https://dc.lft.to/lastmile_qr_scan"}, "is_disabled": 0, "fusion_lat": 0.0, "name": "744e08e53b47dfc8b3faa45f07cd8162", "fusion_lon": 0.0}, {"is_reserved": 0, "type": "electric_scooter", "bike_id": "dc8a6938ac2f377aaaba92fc9505627a", "lat": 38.900336833333334, "lon": -77.00206166666666, "rental_uris": {"android": "https://dc.lft.to/lastmile_qr_scan", "ios": "https://dc.lft.to/lastmile_qr_scan"}, "is_disabled": 0, "fusion_lat": 0.0, "name": "dc8a6938ac2f377aaaba92fc9505627a", "fusion_lon": 0.0}, {"is_reserved": 0, "type": "electric_scooter", "bike_id": "bb695d2f77e3193b209df1c7df05b06b", "lat": 38.865965833333334, "lon": -76.97454116666667, "rental_uris": {"android": "https://dc.lft.to/lastmile_qr_scan", "ios": "https://dc.lft.to/lastmile_qr_scan"}, "is_disabled": 0, "fusion_lat": 0.0, "name": "bb695d2f77e3193b209df1c7df05b06b", "fusion_lon": 0.0}, {"is_reserved": 0, "type": "electric_scooter", "bike_id": "2f66cc55bbbc5e9747c967ce5a3e9a9d", "lat": 38.90546166666667, "lon": -77.00561566666667, "rental_uris": {"android": "https://dc.lft.to/lastmile_qr_scan", "ios": "https://dc.lft.to/lastmile_qr_scan"}, "is_disabled": 0, "fusion_lat": 0.0, "name": "2f66cc55bbbc5e9747c967ce5a3e9a9d", "fusion_lon": 0.0}, {"is_reserved": 0, "type": "electric_scooter", "bike_id": "85874f9d41defcaaece7698765358d9a", "lat": 38.91960316666667, "lon": -77.04366816666666, "rental_uris": {"android": "https://dc.lft.to/lastmile_qr_scan", "ios": "https://dc.lft.to/lastmile_qr_scan"}, "is_disabled": 0, "fusion_lat": 0.0, "name": "85874f9d41defcaaece7698765358d9a", "fusion_lon": 0.0}, {"is_reserved": 0, "type": "electric_scooter", "bike_id": "532c3b5f41ae3e8bbd7416f03ea6a80b", "lat": 38.936538166666665, "lon": -77.021389, "rental_uris": {"android": "https://dc.lft.to/lastmile_qr_scan", "ios": "https://dc.lft.to/lastmile_qr_scan"}, "is_disabled": 0, "fusion_lat": 0.0, "name": "532c3b5f41ae3e8bbd7416f03ea6a80b", "fusion_lon": 0.0}, {"is_reserved": 0, "type": "electric_scooter", "bike_id": "5b3d82f425032d14236b4710148a2886", "lat": 38.916602166666664, "lon": -77.0247115, "rental_uris": {"android": "https://dc.lft.to/lastmile_qr_scan", "ios": "https://dc.lft.to/lastmile_qr_scan"}, "is_disabled": 0, "fusion_lat": 0.0, "name": "5b3d82f425032d14236b4710148a2886", "fusion_lon": 0.0}, {"is_reserved": 0, "type": "electric_scooter", "bike_id": "ccedb2737d1986ce0037e2fe8650ce37", "lat": 38.89227616666667, "lon": -77.049985, "rental_uris": {"android": "https://dc.lft.to/lastmile_qr_scan", "ios": "https://dc.lft.to/lastmile_qr_scan"}, "is_disabled": 0, "fusion_lat": 0.0, "name": "ccedb2737d1986ce0037e2fe8650ce37", "fusion_lon": 0.0}, {"is_reserved": 0, "type": "electric_scooter", "bike_id": "7764cbf80982b693a2723a17a744034d", "lat": 38.90027466666667, "lon": -77.00206883333334, "rental_uris": {"android": "https://dc.lft.to/lastmile_qr_scan", "ios": "https://dc.lft.to/lastmile_qr_scan"}, "is_disabled": 0, "fusion_lat": 0.0, "name": "7764cbf80982b693a2723a17a744034d", "fusion_lon": 0.0}, {"is_reserved": 0, "type": "electric_scooter", "bike_id": "b0770ac7d26f4ee5b2f61f9557d4e1c7", "lat": 38.86716966666667, "lon": -76.98070116666666, "rental_uris": {"android": "https://dc.lft.to/lastmile_qr_scan", "ios": "https://dc.lft.to/lastmile_qr_scan"}, "is_disabled": 0, "fusion_lat": 0.0, "name": "b0770ac7d26f4ee5b2f61f9557d4e1c7", "fusion_lon": 0.0}, {"is_reserved": 0, "type": "electric_scooter", "bike_id": "639bd72a7a6b4745aac74ce36fc05e32", "lat": 38.9057005, "lon": -77.00782466666666, "rental_uris": {"android": "https://dc.lft.to/lastmile_qr_scan", "ios": "https://dc.lft.to/lastmile_qr_scan"}, "is_disabled": 0, "fusion_lat": 0.0, "name": "639bd72a7a6b4745aac74ce36fc05e32", "fusion_lon": 0.0}, {"is_reserved": 0, "type": "electric_scooter", "bike_id": "005676a7d5f0f055cd7afba6b5dd0b72", "lat": 38.919682333333334, "lon": -77.01786533333333, "rental_uris": {"android": "https://dc.lft.to/lastmile_qr_scan", "ios": "https://dc.lft.to/lastmile_qr_scan"}, "is_disabled": 0, "fusion_lat": 0.0, "name": "005676a7d5f0f055cd7afba6b5dd0b72", "fusion_lon": 0.0}, {"is_reserved": 0, "type": "electric_scooter", "bike_id": "6239b905bbfd69ee5aa159f4a95022dc", "lat": 38.876531666666665, "lon": -77.02075016666667, "rental_uris": {"android": "https://dc.lft.to/lastmile_qr_scan", "ios": "https://dc.lft.to/lastmile_qr_scan"}, "is_disabled": 0, "fusion_lat": 0.0, "name": "6239b905bbfd69ee5aa159f4a95022dc", "fusion_lon": 0.0}, {"is_reserved": 0, "type": "electric_scooter", "bike_id": "d244780d53c85a85e03800de42a75b6e", "lat": 38.90466133333334, "lon": -77.0063155, "rental_uris": {"android": "https://dc.lft.to/lastmile_qr_scan", "ios": "https://dc.lft.to/lastmile_qr_scan"}, "is_disabled": 0, "fusion_lat": 0.0, "name": "d244780d53c85a85e03800de42a75b6e", "fusion_lon": 0.0}, {"is_reserved": 0, "type": "electric_scooter", "bike_id": "345087dd98acf7089913464c01b326ac", "lat": 38.90505366666667, "lon": -77.0414915, "rental_uris": {"android": "https://dc.lft.to/lastmile_qr_scan", "ios": "https://dc.lft.to/lastmile_qr_scan"}, "is_disabled": 0, "fusion_lat": 0.0, "name": "345087dd98acf7089913464c01b326ac", "fusion_lon": 0.0}, {"is_reserved": 0, "type": "electric_scooter", "bike_id": "2df8df62fdd75beac8f69df64b771e34", "lat": 38.916334666666664, "lon": -77.04628383333333, "rental_uris": {"android": "https://dc.lft.to/lastmile_qr_scan", "ios": "https://dc.lft.to/lastmile_qr_scan"}, "is_disabled": 0, "fusion_lat": 0.0, "name": "2df8df62fdd75beac8f69df64b771e34", "fusion_lon": 0.0}, {"is_reserved": 0, "type": "electric_scooter", "bike_id": "197c70c88e8f121efa3fb59d7b0514ba", "lat": 38.90880583333333, "lon": -77.00277283333334, "rental_uris": {"android": "https://dc.lft.to/lastmile_qr_scan", "ios": "https://dc.lft.to/lastmile_qr_scan"}, "is_disabled": 0, "fusion_lat": 0.0, "name": "197c70c88e8f121efa3fb59d7b0514ba", "fusion_lon": 0.0}, {"is_reserved": 0, "type": "electric_scooter", "bike_id": "7e1be4a502281583cc9e9494f884c4c6", "lat": 38.90059633333333, "lon": -77.05430366666667, "rental_uris": {"android": "https://dc.lft.to/lastmile_qr_scan", "ios": "https://dc.lft.to/lastmile_qr_scan"}, "is_disabled": 0, "fusion_lat": 0.0, "name": "7e1be4a502281583cc9e9494f884c4c6", "fusion_lon": 0.0}, {"is_reserved": 0, "type": "electric_scooter", "bike_id": "b6b01672c97f5ad53289a410cca75edf", "lat": 38.8948955, "lon": -77.001969, "rental_uris": {"android": "https://dc.lft.to/lastmile_qr_scan", "ios": "https://dc.lft.to/lastmile_qr_scan"}, "is_disabled": 0, "fusion_lat": 0.0, "name": "b6b01672c97f5ad53289a410cca75edf", "fusion_lon": 0.0}, {"is_reserved": 0, "type": "electric_scooter", "bike_id": "8b98d5120ede5f66f89e8a9fbf9e10fd", "lat": 38.9240725, "lon": -77.0230905, "rental_uris": {"android": "https://dc.lft.to/lastmile_qr_scan", "ios": "https://dc.lft.to/lastmile_qr_scan"}, "is_disabled": 0, "fusion_lat": 0.0, "name": "8b98d5120ede5f66f89e8a9fbf9e10fd", "fusion_lon": 0.0}, {"is_reserved": 0, "type": "electric_scooter", "bike_id": "93310f0d1e0a1be5b8fa06f11325aa7f", "lat": 38.924516833333335, "lon": -77.0402255, "rental_uris": {"android": "https://dc.lft.to/lastmile_qr_scan", "ios": "https://dc.lft.to/lastmile_qr_scan"}, "is_disabled": 0, "fusion_lat": 0.0, "name": "93310f0d1e0a1be5b8fa06f11325aa7f", "fusion_lon": 0.0}, {"is_reserved": 0, "type": "electric_scooter", "bike_id": "09800c8fffd53553164f324c4991c8fc", "lat": 38.91264433333333, "lon": -77.026108, "rental_uris": {"android": "https://dc.lft.to/lastmile_qr_scan", "ios": "https://dc.lft.to/lastmile_qr_scan"}, "is_disabled": 0, "fusion_lat": 0.0, "name": "09800c8fffd53553164f324c4991c8fc", "fusion_lon": 0.0}, {"is_reserved": 0, "type": "electric_scooter", "bike_id": "b964dec8c6e260ba395a640398748eac", "lat": 38.89815333333333, "lon": -77.0071655, "rental_uris": {"android": "https://dc.lft.to/lastmile_qr_scan", "ios": "https://dc.lft.to/lastmile_qr_scan"}, "is_disabled": 0, "fusion_lat": 0.0, "name": "b964dec8c6e260ba395a640398748eac", "fusion_lon": 0.0}, {"is_reserved": 0, "type": "electric_scooter", "bike_id": "263885d53da327bcdfb0f157f441b23f", "lat": 38.91340966666667, "lon": -77.03209916666667, "rental_uris": {"android": "https://dc.lft.to/lastmile_qr_scan", "ios": "https://dc.lft.to/lastmile_qr_scan"}, "is_disabled": 0, "fusion_lat": 0.0, "name": "263885d53da327bcdfb0f157f441b23f", "fusion_lon": 0.0}, {"is_reserved": 0, "type": "electric_scooter", "bike_id": "c219261c7ff2087c9bca7478dde635c2", "lat": 38.914197333333334, "lon": -77.03169466666667, "rental_uris": {"android": "https://dc.lft.to/lastmile_qr_scan", "ios": "https://dc.lft.to/lastmile_qr_scan"}, "is_disabled": 0, "fusion_lat": 0.0, "name": "c219261c7ff2087c9bca7478dde635c2", "fusion_lon": 0.0}, {"is_reserved": 0, "type": "electric_scooter", "bike_id": "1f3f36b2c0e5a4034b3d5e56519319ce", "lat": 38.887725, "lon": -76.93259133333333, "rental_uris": {"android": "https://dc.lft.to/lastmile_qr_scan", "ios": "https://dc.lft.to/lastmile_qr_scan"}, "is_disabled": 0, "fusion_lat": 0.0, "name": "1f3f36b2c0e5a4034b3d5e56519319ce", "fusion_lon": 0.0}, {"is_reserved": 0, "type": "electric_scooter", "bike_id": "647f4647b83131534660f1a06f6ae69c", "lat": 38.916749833333334, "lon": -77.02386783333333, "rental_uris": {"android": "https://dc.lft.to/lastmile_qr_scan", "ios": "https://dc.lft.to/lastmile_qr_scan"}, "is_disabled": 0, "fusion_lat": 0.0, "name": "647f4647b83131534660f1a06f6ae69c", "fusion_lon": 0.0}, {"is_reserved": 0, "type": "electric_scooter", "bike_id": "baa402fca1d285d6264a2c9d5e1aed72", "lat": 38.92505966666667, "lon": -77.02455416666666, "rental_uris": {"android": "https://dc.lft.to/lastmile_qr_scan", "ios": "https://dc.lft.to/lastmile_qr_scan"}, "is_disabled": 0, "fusion_lat": 0.0, "name": "baa402fca1d285d6264a2c9d5e1aed72", "fusion_lon": 0.0}, {"is_reserved": 0, "type": "electric_scooter", "bike_id": "52024b7e4f1927b83ff1f0f6baabbbcc", "lat": 38.951808666666665, "lon": -77.02610716666666, "rental_uris": {"android": "https://dc.lft.to/lastmile_qr_scan", "ios": "https://dc.lft.to/lastmile_qr_scan"}, "is_disabled": 0, "fusion_lat": 0.0, "name": "52024b7e4f1927b83ff1f0f6baabbbcc", "fusion_lon": 0.0}, {"is_reserved": 0, "type": "electric_scooter", "bike_id": "548122dcf76b5831f15881be859a9cf9", "lat": 38.89228083333333, "lon": -77.01768266666667, "rental_uris": {"android": "https://dc.lft.to/lastmile_qr_scan", "ios": "https://dc.lft.to/lastmile_qr_scan"}, "is_disabled": 0, "fusion_lat": 0.0, "name": "548122dcf76b5831f15881be859a9cf9", "fusion_lon": 0.0}, {"is_reserved": 0, "type": "electric_scooter", "bike_id": "db6c55b51c472f35e63b3e62cc3bbb87", "lat": 38.899668166666665, "lon": -77.02328816666666, "rental_uris": {"android": "https://dc.lft.to/lastmile_qr_scan", "ios": "https://dc.lft.to/lastmile_qr_scan"}, "is_disabled": 0, "fusion_lat": 0.0, "name": "db6c55b51c472f35e63b3e62cc3bbb87", "fusion_lon": 0.0}, {"is_reserved": 0, "type": "electric_scooter", "bike_id": "97c3864eb96c9e35ad81586a0afa0d48", "lat": 38.93695783333333, "lon": -77.05599133333334, "rental_uris": {"android": "https://dc.lft.to/lastmile_qr_scan", "ios": "https://dc.lft.to/lastmile_qr_scan"}, "is_disabled": 0, "fusion_lat": 0.0, "name": "97c3864eb96c9e35ad81586a0afa0d48", "fusion_lon": 0.0}, {"is_reserved": 0, "type": "electric_scooter", "bike_id": "626dd215aa25115b9e05a9b33cd2de42", "lat": 38.90579916666667, "lon": -76.9843175, "rental_uris": {"android": "https://dc.lft.to/lastmile_qr_scan", "ios": "https://dc.lft.to/lastmile_qr_scan"}, "is_disabled": 0, "fusion_lat": 0.0, "name": "626dd215aa25115b9e05a9b33cd2de42", "fusion_lon": 0.0}, {"is_reserved": 0, "type": "electric_scooter", "bike_id": "66038e51719624848703194df035b3ff", "lat": 38.8952525, "lon": -76.9920655, "rental_uris": {"android": "https://dc.lft.to/lastmile_qr_scan", "ios": "https://dc.lft.to/lastmile_qr_scan"}, "is_disabled": 0, "fusion_lat": 0.0, "name": "66038e51719624848703194df035b3ff", "fusion_lon": 0.0}, {"is_reserved": 0, "type": "electric_scooter", "bike_id": "b8770aa73e596cdd99c69b42fded0bd4", "lat": 38.90004483333333, "lon": -77.0258435, "rental_uris": {"android": "https://dc.lft.to/lastmile_qr_scan", "ios": "https://dc.lft.to/lastmile_qr_scan"}, "is_disabled": 0, "fusion_lat": 0.0, "name": "b8770aa73e596cdd99c69b42fded0bd4", "fusion_lon": 0.0}, {"is_reserved": 0, "type": "electric_scooter", "bike_id": "d2e469e224f6ac10ecbf261e7d5d0856", "lat": 38.923797, "lon": -77.04323683333334, "rental_uris": {"android": "https://dc.lft.to/lastmile_qr_scan", "ios": "https://dc.lft.to/lastmile_qr_scan"}, "is_disabled": 0, "fusion_lat": 0.0, "name": "d2e469e224f6ac10ecbf261e7d5d0856", "fusion_lon": 0.0}, {"is_reserved": 0, "type": "electric_scooter", "bike_id": "006a0081863c37ac4bca4ea5ad5d8494", "lat": 38.88742033333333, "lon": -76.98355366666667, "rental_uris": {"android": "https://dc.lft.to/lastmile_qr_scan", "ios": "https://dc.lft.to/lastmile_qr_scan"}, "is_disabled": 0, "fusion_lat": 0.0, "name": "006a0081863c37ac4bca4ea5ad5d8494", "fusion_lon": 0.0}, {"is_reserved": 0, "type": "electric_scooter", "bike_id": "4483c98338e97f65c9d6e9806670e303", "lat": 38.927482166666664, "lon": -77.02427583333333, "rental_uris": {"android": "https://dc.lft.to/lastmile_qr_scan", "ios": "https://dc.lft.to/lastmile_qr_scan"}, "is_disabled": 0, "fusion_lat": 0.0, "name": "4483c98338e97f65c9d6e9806670e303", "fusion_lon": 0.0}, {"is_reserved": 0, "type": "electric_scooter", "bike_id": "319aaa45b6e095ee4b81d347189a3bfb", "lat": 38.92212966666666, "lon": -77.037792, "rental_uris": {"android": "https://dc.lft.to/lastmile_qr_scan", "ios": "https://dc.lft.to/lastmile_qr_scan"}, "is_disabled": 0, "fusion_lat": 0.0, "name": "319aaa45b6e095ee4b81d347189a3bfb", "fusion_lon": 0.0}, {"is_reserved": 0, "type": "electric_scooter", "bike_id": "33e22bfa4fba4ade1896d30ef08e7419", "lat": 38.90653316666667, "lon": -77.07559966666666, "rental_uris": {"android": "https://dc.lft.to/lastmile_qr_scan", "ios": "https://dc.lft.to/lastmile_qr_scan"}, "is_disabled": 0, "fusion_lat": 0.0, "name": "33e22bfa4fba4ade1896d30ef08e7419", "fusion_lon": 0.0}, {"is_reserved": 0, "type": "electric_scooter", "bike_id": "c64f9b7b02195ca1581a67b115281870", "lat": 38.92770933333333, "lon": -77.027843, "rental_uris": {"android": "https://dc.lft.to/lastmile_qr_scan", "ios": "https://dc.lft.to/lastmile_qr_scan"}, "is_disabled": 0, "fusion_lat": 0.0, "name": "c64f9b7b02195ca1581a67b115281870", "fusion_lon": 0.0}, {"is_reserved": 0, "type": "electric_scooter", "bike_id": "50dcd1c5d261267d8c1ab5bfa3518a71", "lat": 38.94440383333333, "lon": -77.063503, "rental_uris": {"android": "https://dc.lft.to/lastmile_qr_scan", "ios": "https://dc.lft.to/lastmile_qr_scan"}, "is_disabled": 0, "fusion_lat": 0.0, "name": "50dcd1c5d261267d8c1ab5bfa3518a71", "fusion_lon": 0.0}, {"is_reserved": 0, "type": "electric_scooter", "bike_id": "6a14a3f2eec423ba0547ceef6e7a40b1", "lat": 38.9065135, "lon": -77.07553033333333, "rental_uris": {"android": "https://dc.lft.to/lastmile_qr_scan", "ios": "https://dc.lft.to/lastmile_qr_scan"}, "is_disabled": 0, "fusion_lat": 0.0, "name": "6a14a3f2eec423ba0547ceef6e7a40b1", "fusion_lon": 0.0}, {"is_reserved": 0, "type": "electric_scooter", "bike_id": "1d8a7ec913abf6473b90b8ff144767f5", "lat": 38.860209833333336, "lon": -76.970054, "rental_uris": {"android": "https://dc.lft.to/lastmile_qr_scan", "ios": "https://dc.lft.to/lastmile_qr_scan"}, "is_disabled": 0, "fusion_lat": 0.0, "name": "1d8a7ec913abf6473b90b8ff144767f5", "fusion_lon": 0.0}, {"is_reserved": 0, "type": "electric_scooter", "bike_id": "f157091ff9074d94c602091645857303", "lat": 38.92456116666666, "lon": -77.03290083333333, "rental_uris": {"android": "https://dc.lft.to/lastmile_qr_scan", "ios": "https://dc.lft.to/lastmile_qr_scan"}, "is_disabled": 0, "fusion_lat": 0.0, "name": "f157091ff9074d94c602091645857303", "fusion_lon": 0.0}, {"is_reserved": 0, "type": "electric_bike", "bike_id": "f54cd6c150c616d08f081a79c5d36cd5", "lat": 38.927771166666666, "lon": -76.9990695, "rental_uris": {"android": "https://dc.lft.to/lastmile_qr_scan", "ios": "https://dc.lft.to/lastmile_qr_scan"}, "is_disabled": 0, "fusion_lat": 0.0, "name": "f54cd6c150c616d08f081a79c5d36cd5", "fusion_lon": 0.0}, {"is_reserved": 0, "type": "electric_scooter", "bike_id": "f77aa49f9d5e1c56340afc1831b32669", "lat": 38.91101183333333, "lon": -77.02719833333333, "rental_uris": {"android": "https://dc.lft.to/lastmile_qr_scan", "ios": "https://dc.lft.to/lastmile_qr_scan"}, "is_disabled": 0, "fusion_lat": 0.0, "name": "f77aa49f9d5e1c56340afc1831b32669", "fusion_lon": 0.0}, {"is_reserved": 0, "type": "electric_scooter", "bike_id": "5ec07bccc3a30438dab07c74dd03d9fc", "lat": 38.907519, "lon": -77.03308466666667, "rental_uris": {"android": "https://dc.lft.to/lastmile_qr_scan", "ios": "https://dc.lft.to/lastmile_qr_scan"}, "is_disabled": 0, "fusion_lat": 0.0, "name": "5ec07bccc3a30438dab07c74dd03d9fc", "fusion_lon": 0.0}, {"is_reserved": 0, "type": "electric_scooter", "bike_id": "b8d898ee699ae539ab97dc6c152b43f2", "lat": 38.902670666666666, "lon": -77.031414, "rental_uris": {"android": "https://dc.lft.to/lastmile_qr_scan", "ios": "https://dc.lft.to/lastmile_qr_scan"}, "is_disabled": 0, "fusion_lat": 0.0, "name": "b8d898ee699ae539ab97dc6c152b43f2", "fusion_lon": 0.0}, {"is_reserved": 0, "type": "electric_scooter", "bike_id": "c0c3e860c1e77de3b19633abe7de1502", "lat": 38.89345683333333, "lon": -76.99379816666666, "rental_uris": {"android": "https://dc.lft.to/lastmile_qr_scan", "ios": "https://dc.lft.to/lastmile_qr_scan"}, "is_disabled": 0, "fusion_lat": 0.0, "name": "c0c3e860c1e77de3b19633abe7de1502", "fusion_lon": 0.0}, {"is_reserved": 0, "type": "electric_scooter", "bike_id": "1d7204112f623725cad97eb48eb598ed", "lat": 38.918828166666664, "lon": -77.02710033333334, "rental_uris": {"android": "https://dc.lft.to/lastmile_qr_scan", "ios": "https://dc.lft.to/lastmile_qr_scan"}, "is_disabled": 0, "fusion_lat": 0.0, "name": "1d7204112f623725cad97eb48eb598ed", "fusion_lon": 0.0}, {"is_reserved": 0, "type": "electric_scooter", "bike_id": "7d5013e044141836440b57b489eba700", "lat": 38.89988983333333, "lon": -77.0291595, "rental_uris": {"android": "https://dc.lft.to/lastmile_qr_scan", "ios": "https://dc.lft.to/lastmile_qr_scan"}, "is_disabled": 0, "fusion_lat": 0.0, "name": "7d5013e044141836440b57b489eba700", "fusion_lon": 0.0}, {"is_reserved": 0, "type": "electric_scooter", "bike_id": "ac3e36671d5fcc3510b7963e21222ba1", "lat": 38.92168616666667, "lon": -77.04124083333333, "rental_uris": {"android": "https://dc.lft.to/lastmile_qr_scan", "ios": "https://dc.lft.to/lastmile_qr_scan"}, "is_disabled": 0, "fusion_lat": 0.0, "name": "ac3e36671d5fcc3510b7963e21222ba1", "fusion_lon": 0.0}, {"is_reserved": 0, "type": "electric_scooter", "bike_id": "5e1e01f0c244f0347ef6f0bf20268c54", "lat": 38.88736183333333, "lon": -77.02616383333333, "rental_uris": {"android": "https://dc.lft.to/lastmile_qr_scan", "ios": "https://dc.lft.to/lastmile_qr_scan"}, "is_disabled": 0, "fusion_lat": 0.0, "name": "5e1e01f0c244f0347ef6f0bf20268c54", "fusion_lon": 0.0}, {"is_reserved": 0, "type": "electric_scooter", "bike_id": "2114e54575ae3c6de7c9e7be424447d7", "lat": 38.9109435, "lon": -76.984771, "rental_uris": {"android": "https://dc.lft.to/lastmile_qr_scan", "ios": "https://dc.lft.to/lastmile_qr_scan"}, "is_disabled": 0, "fusion_lat": 0.0, "name": "2114e54575ae3c6de7c9e7be424447d7", "fusion_lon": 0.0}, {"is_reserved": 0, "type": "electric_scooter", "bike_id": "4a7053707e3d6dfdbbc1bbd0fc525849", "lat": 38.923268666666665, "lon": -77.02966833333333, "rental_uris": {"android": "https://dc.lft.to/lastmile_qr_scan", "ios": "https://dc.lft.to/lastmile_qr_scan"}, "is_disabled": 0, "fusion_lat": 0.0, "name": "4a7053707e3d6dfdbbc1bbd0fc525849", "fusion_lon": 0.0}, {"is_reserved": 0, "type": "electric_scooter", "bike_id": "7c5487d0b11af2804b2436b0a7d37198", "lat": 38.916786, "lon": -77.02801333333333, "rental_uris": {"android": "https://dc.lft.to/lastmile_qr_scan", "ios": "https://dc.lft.to/lastmile_qr_scan"}, "is_disabled": 0, "fusion_lat": 0.0, "name": "7c5487d0b11af2804b2436b0a7d37198", "fusion_lon": 0.0}, {"is_reserved": 0, "type": "electric_scooter", "bike_id": "52c7d99d36e7486a9519e9d80343c1b1", "lat": 38.915755, "lon": -76.98378216666667, "rental_uris": {"android": "https://dc.lft.to/lastmile_qr_scan", "ios": "https://dc.lft.to/lastmile_qr_scan"}, "is_disabled": 0, "fusion_lat": 0.0, "name": "52c7d99d36e7486a9519e9d80343c1b1", "fusion_lon": 0.0}, {"is_reserved": 0, "type": "electric_scooter", "bike_id": "55ac78880ea3cd5f97b0f5983206060f", "lat": 38.94926, "lon": -77.02697416666666, "rental_uris": {"android": "https://dc.lft.to/lastmile_qr_scan", "ios": "https://dc.lft.to/lastmile_qr_scan"}, "is_disabled": 0, "fusion_lat": 0.0, "name": "55ac78880ea3cd5f97b0f5983206060f", "fusion_lon": 0.0}, {"is_reserved": 0, "type": "electric_scooter", "bike_id": "f54dcdb988d367f41ab6af771131fd1c", "lat": 38.907702, "lon": -77.04500966666667, "rental_uris": {"android": "https://dc.lft.to/lastmile_qr_scan", "ios": "https://dc.lft.to/lastmile_qr_scan"}, "is_disabled": 0, "fusion_lat": 0.0, "name": "f54dcdb988d367f41ab6af771131fd1c", "fusion_lon": 0.0}, {"is_reserved": 0, "type": "electric_scooter", "bike_id": "6da45cdf522a8a10dc28e51a0cd8ece6", "lat": 38.9254035, "lon": -77.04122583333333, "rental_uris": {"android": "https://dc.lft.to/lastmile_qr_scan", "ios": "https://dc.lft.to/lastmile_qr_scan"}, "is_disabled": 0, "fusion_lat": 0.0, "name": "6da45cdf522a8a10dc28e51a0cd8ece6", "fusion_lon": 0.0}, {"is_reserved": 0, "type": "electric_bike", "bike_id": "0b923d69bb230b37bc0e3088c023093c", "lat": 39.085927833333336, "lon": -77.12283566666666, "rental_uris": {"android": "https://dc.lft.to/lastmile_qr_scan", "ios": "https://dc.lft.to/lastmile_qr_scan"}, "is_disabled": 0, "fusion_lat": 0.0, "name": "0b923d69bb230b37bc0e3088c023093c", "fusion_lon": 0.0}, {"is_reserved": 0, "type": "electric_scooter", "bike_id": "e2fdf7b1f44ae9fe8d1b08cca25f5d73", "lat": 38.9155005, "lon": -77.01413616666666, "rental_uris": {"android": "https://dc.lft.to/lastmile_qr_scan", "ios": "https://dc.lft.to/lastmile_qr_scan"}, "is_disabled": 0, "fusion_lat": 0.0, "name": "e2fdf7b1f44ae9fe8d1b08cca25f5d73", "fusion_lon": 0.0}, {"is_reserved": 0, "type": "electric_scooter", "bike_id": "cc12321732ff6a3dec7edbb7eeb735a5", "lat": 38.92644, "lon": -77.02513683333333, "rental_uris": {"android": "https://dc.lft.to/lastmile_qr_scan", "ios": "https://dc.lft.to/lastmile_qr_scan"}, "is_disabled": 0, "fusion_lat": 0.0, "name": "cc12321732ff6a3dec7edbb7eeb735a5", "fusion_lon": 0.0}, {"is_reserved": 0, "type": "electric_scooter", "bike_id": "42352ae4f3e74dd1ae96336e03287c3e", "lat": 38.933053, "lon": -77.02136, "rental_uris": {"android": "https://dc.lft.to/lastmile_qr_scan", "ios": "https://dc.lft.to/lastmile_qr_scan"}, "is_disabled": 0, "fusion_lat": 0.0, "name": "42352ae4f3e74dd1ae96336e03287c3e", "fusion_lon": 0.0}, {"is_reserved": 0, "type": "electric_scooter", "bike_id": "0d4dab13b9964399e6737ff2c0db14cf", "lat": 38.943308333333334, "lon": -77.06523983333334, "rental_uris": {"android": "https://dc.lft.to/lastmile_qr_scan", "ios": "https://dc.lft.to/lastmile_qr_scan"}, "is_disabled": 0, "fusion_lat": 0.0, "name": "0d4dab13b9964399e6737ff2c0db14cf", "fusion_lon": 0.0}, {"is_reserved": 0, "type": "electric_scooter", "bike_id": "75dee9721013ba26b82e522df4c3a305", "lat": 38.93379916666667, "lon": -77.02029166666667, "rental_uris": {"android": "https://dc.lft.to/lastmile_qr_scan", "ios": "https://dc.lft.to/lastmile_qr_scan"}, "is_disabled": 0, "fusion_lat": 0.0, "name": "75dee9721013ba26b82e522df4c3a305", "fusion_lon": 0.0}, {"is_reserved": 0, "type": "electric_scooter", "bike_id": "3398e851483362adff1a03fce80a6aa4", "lat": 38.872944333333336, "lon": -77.0098735, "rental_uris": {"android": "https://dc.lft.to/lastmile_qr_scan", "ios": "https://dc.lft.to/lastmile_qr_scan"}, "is_disabled": 0, "fusion_lat": 0.0, "name": "3398e851483362adff1a03fce80a6aa4", "fusion_lon": 0.0}, {"is_reserved": 0, "type": "electric_scooter", "bike_id": "960c7482454136daf352706319b82da3", "lat": 38.9044545, "lon": -77.062679, "rental_uris": {"android": "https://dc.lft.to/lastmile_qr_scan", "ios": "https://dc.lft.to/lastmile_qr_scan"}, "is_disabled": 0, "fusion_lat": 0.0, "name": "960c7482454136daf352706319b82da3", "fusion_lon": 0.0}, {"is_reserved": 0, "type": "electric_scooter", "bike_id": "b988753698f67519558ca05d8c543e9d", "lat": 38.911882166666665, "lon": -77.00277783333334, "rental_uris": {"android": "https://dc.lft.to/lastmile_qr_scan", "ios": "https://dc.lft.to/lastmile_qr_scan"}, "is_disabled": 0, "fusion_lat": 0.0, "name": "b988753698f67519558ca05d8c543e9d", "fusion_lon": 0.0}, {"is_reserved": 0, "type": "electric_scooter", "bike_id": "ef311ab39e6f1ebc5f4fdd5c73478a23", "lat": 38.9255435, "lon": -76.9814995, "rental_uris": {"android": "https://dc.lft.to/lastmile_qr_scan", "ios": "https://dc.lft.to/lastmile_qr_scan"}, "is_disabled": 0, "fusion_lat": 0.0, "name": "ef311ab39e6f1ebc5f4fdd5c73478a23", "fusion_lon": 0.0}, {"is_reserved": 0, "type": "electric_scooter", "bike_id": "e355a35ca1ad6e023714d9904c46f35a", "lat": 38.903996166666666, "lon": -77.01865716666667, "rental_uris": {"android": "https://dc.lft.to/lastmile_qr_scan", "ios": "https://dc.lft.to/lastmile_qr_scan"}, "is_disabled": 0, "fusion_lat": 0.0, "name": "e355a35ca1ad6e023714d9904c46f35a", "fusion_lon": 0.0}, {"is_reserved": 0, "type": "electric_scooter", "bike_id": "44cea78bf44ef6dc0a9aee5f09873517", "lat": 38.927886666666666, "lon": -77.03085066666667, "rental_uris": {"android": "https://dc.lft.to/lastmile_qr_scan", "ios": "https://dc.lft.to/lastmile_qr_scan"}, "is_disabled": 0, "fusion_lat": 0.0, "name": "44cea78bf44ef6dc0a9aee5f09873517", "fusion_lon": 0.0}, {"is_reserved": 0, "type": "electric_scooter", "bike_id": "c2b893429ece6e54cc19ac33eae3cf7d", "lat": 38.89227433333333, "lon": -77.04998383333333, "rental_uris": {"android": "https://dc.lft.to/lastmile_qr_scan", "ios": "https://dc.lft.to/lastmile_qr_scan"}, "is_disabled": 0, "fusion_lat": 0.0, "name": "c2b893429ece6e54cc19ac33eae3cf7d", "fusion_lon": 0.0}, {"is_reserved": 0, "type": "electric_scooter", "bike_id": "cb56d03d37c7218745bf806d1e23243a", "lat": 38.91541516666667, "lon": -77.02072, "rental_uris": {"android": "https://dc.lft.to/lastmile_qr_scan", "ios": "https://dc.lft.to/lastmile_qr_scan"}, "is_disabled": 0, "fusion_lat": 0.0, "name": "cb56d03d37c7218745bf806d1e23243a", "fusion_lon": 0.0}, {"is_reserved": 0, "type": "electric_scooter", "bike_id": "59356c92f955aa17bbd5c354434697f5", "lat": 38.92314733333333, "lon": -77.028081, "rental_uris": {"android": "https://dc.lft.to/lastmile_qr_scan", "ios": "https://dc.lft.to/lastmile_qr_scan"}, "is_disabled": 0, "fusion_lat": 0.0, "name": "59356c92f955aa17bbd5c354434697f5", "fusion_lon": 0.0}, {"is_reserved": 0, "type": "electric_scooter", "bike_id": "6e926feddf464db158e96f0112d041bd", "lat": 38.92252716666667, "lon": -77.01916966666667, "rental_uris": {"android": "https://dc.lft.to/lastmile_qr_scan", "ios": "https://dc.lft.to/lastmile_qr_scan"}, "is_disabled": 0, "fusion_lat": 0.0, "name": "6e926feddf464db158e96f0112d041bd", "fusion_lon": 0.0},