{"data": {"bikes": [{"bike_id": "7ca69808e76e0fbbc7e2311009e2741d", "type": "electric_scooter", "is_disabled": 0, "lat": 38.90421683333334, "rental_uris": {"ios": "https://dc.lft.to/lastmile_qr_scan", "android": "https://dc.lft.to/lastmile_qr_scan"}, "is_reserved": 0, "fusion_lon": 0.0, "fusion_lat": 0.0, "lon": -76.97375233333334, "name": "7ca69808e76e0fbbc7e2311009e2741d"}, {"bike_id": "2a9cdff84d9b0b30f67a2ed95b192df1", "type": "electric_bike", "is_disabled": 0, "lat": 38.85401916666667, "rental_uris": {"ios": "https://dc.lft.to/lastmile_qr_scan", "android": "https://dc.lft.to/lastmile_qr_scan"}, "is_reserved": 0, "fusion_lon": 0.0, "fusion_lat": 0.0, "lon": -77.12073616666666, "name": "2a9cdff84d9b0b30f67a2ed95b192df1"}, {"bike_id": "8677585dca5cf495d85d1dcc4fa40137", "type": "electric_scooter", "is_disabled": 0, "lat": 38.9078645, "rental_uris": {"ios": "https://dc.lft.to/lastmile_qr_scan", "android": "https://dc.lft.to/lastmile_qr_scan"}, "is_reserved": 0, "fusion_lon": 0.0, "fusion_lat": 0.0, "lon": -77.00202183333333, "name": "8677585dca5cf495d85d1dcc4fa40137"}, {"bike_id": "d11c4dbd9ac9687edaef8c6dd27dd630", "type": "electric_scooter", "is_disabled": 0, "lat": 38.8972905, "rental_uris": {"ios": "https://dc.lft.to/lastmile_qr_scan", "android": "https://dc.lft.to/lastmile_qr_scan"}, "is_reserved": 0, "fusion_lon": 0.0, "fusion_lat": 0.0, "lon": -77.02698883333333, "name": "d11c4dbd9ac9687edaef8c6dd27dd630"}, {"bike_id": "935c1f990a9105863e40285af9186c13", "type": "electric_scooter", "is_disabled": 0, "lat": 38.915511, "rental_uris": {"ios": "https://dc.lft.to/lastmile_qr_scan", "android": "https://dc.lft.to/lastmile_qr_scan"}, "is_reserved": 0, "fusion_lon": 0.0, "fusion_lat": 0.0, "lon": -77.0204815, "name": "935c1f990a9105863e40285af9186c13"}, {"bike_id": "b42327bdb6006a68accfe8bb77ff4bf6", "type": "electric_scooter", "is_disabled": 0, "lat": 38.92450266666667, "rental_uris": {"ios": "https://dc.lft.to/lastmile_qr_scan", "android": "https://dc.lft.to/lastmile_qr_scan"}, "is_reserved": 0, "fusion_lon": 0.0, "fusion_lat": 0.0, "lon": -77.0241345, "name": "b42327bdb6006a68accfe8bb77ff4bf6"}, {"bike_id": "2b77917299a0266e1d2f8f9c604394c0", "type": "electric_scooter", "is_disabled": 0, "lat": 38.866515166666666, "rental_uris": {"ios": "https://dc.lft.to/lastmile_qr_scan", "android": "https://dc.lft.to/lastmile_qr_scan"}, "is_reserved": 0, "fusion_lon": 0.0, "fusion_lat": 0.0, "lon": -76.98895016666667, "name": "2b77917299a0266e1d2f8f9c604394c0"}, {"bike_id": "75b1730b735bef38ed782d1db4c0b5a7", "type": "electric_scooter", "is_disabled": 0, "lat": 38.8656165, "rental_uris": {"ios": "https://dc.lft.to/lastmile_qr_scan", "android": "https://dc.lft.to/lastmile_qr_scan"}, "is_reserved": 0, "fusion_lon": 0.0, "fusion_lat": 0.0, "lon": -76.98209016666667, "name": "75b1730b735bef38ed782d1db4c0b5a7"}, {"bike_id": "d0e36cdf49367aa27bd72a4439c0dea5", "type": "electric_scooter", "is_disabled": 0, "lat": 38.90045683333334, "rental_uris": {"ios": "https://dc.lft.to/lastmile_qr_scan", "android": "https://dc.lft.to/lastmile_qr_scan"}, "is_reserved": 0, "fusion_lon": 0.0, "fusion_lat": 0.0, "lon": -76.9882745, "name": "d0e36cdf49367aa27bd72a4439c0dea5"}, {"bike_id": "8d65684269a17660a73804ba929c59e9", "type": "electric_scooter", "is_disabled": 0, "lat": 38.931802833333336, "rental_uris": {"ios": "https://dc.lft.to/lastmile_qr_scan", "android": "https://dc.lft.to/lastmile_qr_scan"}, "is_reserved": 0, "fusion_lon": 0.0, "fusion_lat": 0.0, "lon": -76.99609616666666, "name": "8d65684269a17660a73804ba929c59e9"}, {"bike_id": "ecb026c1d2bdd49146ba7722aebba06f", "type": "electric_scooter", "is_disabled": 0, "lat": 38.909624666666666, "rental_uris": {"ios": "https://dc.lft.to/lastmile_qr_scan", "android": "https://dc.lft.to/lastmile_qr_scan"}, "is_reserved": 0, "fusion_lon": 0.0, "fusion_lat": 0.0, "lon": -77.02390066666666, "name": "ecb026c1d2bdd49146ba7722aebba06f"}, {"bike_id": "43c1d787bdc517e2a759a9e218335cf6", "type": "electric_scooter", "is_disabled": 0, "lat": 38.94289883333333, "rental_uris": {"ios": "https://dc.lft.to/lastmile_qr_scan", "android": "https://dc.lft.to/lastmile_qr_scan"}, "is_reserved": 0, "fusion_lon": 0.0, "fusion_lat": 0.0, "lon": -77.02171166666666, "name": "43c1d787bdc517e2a759a9e218335cf6"}, {"bike_id": "6e4aa7e72b2b892b1bb1270d9ba68a70", "type": "electric_scooter", "is_disabled": 0, "lat": 38.90175033333333, "rental_uris": {"ios": "https://dc.lft.to/lastmile_qr_scan", "android": "https://dc.lft.to/lastmile_qr_scan"}, "is_reserved": 0, "fusion_lon": 0.0, "fusion_lat": 0.0, "lon": -76.98453083333334, "name": "6e4aa7e72b2b892b1bb1270d9ba68a70"}, {"bike_id": "8dee49b762268103faab0e3fa0c67960", "type": "electric_scooter", "is_disabled": 0, "lat": 38.922324, "rental_uris": {"ios": "https://dc.lft.to/lastmile_qr_scan", "android": "https://dc.lft.to/lastmile_qr_scan"}, "is_reserved": 0, "fusion_lon": 0.0, "fusion_lat": 0.0, "lon": -77.02718916666667, "name": "8dee49b762268103faab0e3fa0c67960"}, {"bike_id": "cab83dba6d1ace647b44b103978d543d", "type": "electric_scooter", "is_disabled": 0, "lat": 38.933384, "rental_uris": {"ios": "https://dc.lft.to/lastmile_qr_scan", "android": "https://dc.lft.to/lastmile_qr_scan"}, "is_reserved": 0, "fusion_lon": 0.0, "fusion_lat": 0.0, "lon": -77.039832, "name": "cab83dba6d1ace647b44b103978d543d"}, {"bike_id": "3ab46684179513f0c7793ecb6bff0279", "type": "electric_scooter", "is_disabled": 0, "lat": 38.918134, "rental_uris": {"ios": "https://dc.lft.to/lastmile_qr_scan", "android": "https://dc.lft.to/lastmile_qr_scan"}, "is_reserved": 0, "fusion_lon": 0.0, "fusion_lat": 0.0, "lon": -77.02707633333333, "name": "3ab46684179513f0c7793ecb6bff0279"}, {"bike_id": "5cc5b007dc82a40832451ba3e76cd1e6", "type": "electric_scooter", "is_disabled": 0, "lat": 38.89352216666666, "rental_uris": {"ios": "https://dc.lft.to/lastmile_qr_scan", "android": "https://dc.lft.to/lastmile_qr_scan"}, "is_reserved": 0, "fusion_lon": 0.0, "fusion_lat": 0.0, "lon": -77.02211016666666, "name": "5cc5b007dc82a40832451ba3e76cd1e6"}, {"bike_id": "f6b6cebe0d0a6bdc22bd1b5e2f31b47c", "type": "electric_bike", "is_disabled": 0, "lat": 38.95528983333333, "rental_uris": {"ios": "https://dc.lft.to/lastmile_qr_scan", "android": "https://dc.lft.to/lastmile_qr_scan"}, "is_reserved": 0, "fusion_lon": 0.0, "fusion_lat": 0.0, "lon": -76.96825616666666, "name": "f6b6cebe0d0a6bdc22bd1b5e2f31b47c"}, {"bike_id": "3ae681bbdb249ff8c2a4998bd27db2cc", "type": "electric_scooter", "is_disabled": 0, "lat": 38.90522416666667, "rental_uris": {"ios": "https://dc.lft.to/lastmile_qr_scan", "android": "https://dc.lft.to/lastmile_qr_scan"}, "is_reserved": 0, "fusion_lon": 0.0, "fusion_lat": 0.0, "lon": -77.05007733333333, "name": "3ae681bbdb249ff8c2a4998bd27db2cc"}, {"bike_id": "900e491d3bc31d5450b1335be10077e1", "type": "electric_scooter", "is_disabled": 0, "lat": 38.9055275, "rental_uris": {"ios": "https://dc.lft.to/lastmile_qr_scan", "android": "https://dc.lft.to/lastmile_qr_scan"}, "is_reserved": 0, "fusion_lon": 0.0, "fusion_lat": 0.0, "lon": -76.99619583333333, "name": "900e491d3bc31d5450b1335be10077e1"}, {"bike_id": "2554bbe490a553a249a16df9b12107bb", "type": "electric_bike", "is_disabled": 0, "lat": 38.81160916666666, "rental_uris": {"ios": "https://dc.lft.to/lastmile_qr_scan", "android": "https://dc.lft.to/lastmile_qr_scan"}, "is_reserved": 0, "fusion_lon": 0.0, "fusion_lat": 0.0, "lon": -77.0696065, "name": "2554bbe490a553a249a16df9b12107bb"}, {"bike_id": "050a3ebb498e1ea1f903abf2c7531540", "type": "electric_scooter", "is_disabled": 0, "lat": 38.88427333333333, "rental_uris": {"ios": "https://dc.lft.to/lastmile_qr_scan", "android": "https://dc.lft.to/lastmile_qr_scan"}, "is_reserved": 0, "fusion_lon": 0.0, "fusion_lat": 0.0, "lon": -76.95755483333333, "name": "050a3ebb498e1ea1f903abf2c7531540"}, {"bike_id": "e6d329e43d997fdcfd2b3c568fdf5417", "type": "electric_scooter", "is_disabled": 0, "lat": 38.88734516666667, "rental_uris": {"ios": "https://dc.lft.to/lastmile_qr_scan", "android": "https://dc.lft.to/lastmile_qr_scan"}, "is_reserved": 0, "fusion_lon": 0.0, "fusion_lat": 0.0, "lon": -77.03177133333334, "name": "e6d329e43d997fdcfd2b3c568fdf5417"}, {"bike_id": "42041b12fce770fe1d7118613f83576d", "type": "electric_bike", "is_disabled": 0, "lat": 38.936946, "rental_uris": {"ios": "https://dc.lft.to/lastmile_qr_scan", "android": "https://dc.lft.to/lastmile_qr_scan"}, "is_reserved": 0, "fusion_lon": 0.0, "fusion_lat": 0.0, "lon": -77.02117216666667, "name": "42041b12fce770fe1d7118613f83576d"}, {"bike_id": "ad54bf16f0a9e2c4039b4d6dec66823f", "type": "electric_scooter", "is_disabled": 0, "lat": 38.92263283333333, "rental_uris": {"ios": "https://dc.lft.to/lastmile_qr_scan", "android": "https://dc.lft.to/lastmile_qr_scan"}, "is_reserved": 0, "fusion_lon": 0.0, "fusion_lat": 0.0, "lon": -76.994596, "name": "ad54bf16f0a9e2c4039b4d6dec66823f"}, {"bike_id": "35aee3fe1ae17f417f3eaf5bd521d4b4", "type": "electric_scooter", "is_disabled": 0, "lat": 38.929139, "rental_uris": {"ios": "https://dc.lft.to/lastmile_qr_scan", "android": "https://dc.lft.to/lastmile_qr_scan"}, "is_reserved": 0, "fusion_lon": 0.0, "fusion_lat": 0.0, "lon": -77.03302533333333, "name": "35aee3fe1ae17f417f3eaf5bd521d4b4"}, {"bike_id": "9cbeaada8d9feffc2b6f7ee9a795888c", "type": "electric_scooter", "is_disabled": 0, "lat": 38.894647166666665, "rental_uris": {"ios": "https://dc.lft.to/lastmile_qr_scan", "android": "https://dc.lft.to/lastmile_qr_scan"}, "is_reserved": 0, "fusion_lon": 0.0, "fusion_lat": 0.0, "lon": -77.02799916666666, "name": "9cbeaada8d9feffc2b6f7ee9a795888c"}, {"bike_id": "63561b4696de0c004ed11bf2885d74d4", "type": "electric_scooter", "is_disabled": 0, "lat": 38.905787, "rental_uris": {"ios": "https://dc.lft.to/lastmile_qr_scan", "android": "https://dc.lft.to/lastmile_qr_scan"}, "is_reserved": 0, "fusion_lon": 0.0, "fusion_lat": 0.0, "lon": -77.00573483333334, "name": "63561b4696de0c004ed11bf2885d74d4"}, {"bike_id": "fc03dab6412083d76fb17c881e637e95", "type": "electric_bike", "is_disabled": 0, "lat": 38.90002283333333, "rental_uris": {"ios": "https://dc.lft.to/lastmile_qr_scan", "android": "https://dc.lft.to/lastmile_qr_scan"}, "is_reserved": 0, "fusion_lon": 0.0, "fusion_lat": 0.0, "lon": -77.0752985, "name": "fc03dab6412083d76fb17c881e637e95"}, {"bike_id": "32ac5f09ec7a77941e78ca6b45d12bd7", "type": "electric_bike", "is_disabled": 0, "lat": 38.804113666666666, "rental_uris": {"ios": "https://dc.lft.to/lastmile_qr_scan", "android": "https://dc.lft.to/lastmile_qr_scan"}, "is_reserved": 0, "fusion_lon": 0.0, "fusion_lat": 0.0, "lon": -77.0555375, "name": "32ac5f09ec7a77941e78ca6b45d12bd7"}, {"bike_id": "ee45be9c56306fa530af4aaab0a84b9d", "type": "electric_scooter", "is_disabled": 0, "lat": 38.91705966666667, "rental_uris": {"ios": "https://dc.lft.to/lastmile_qr_scan", "android": "https://dc.lft.to/lastmile_qr_scan"}, "is_reserved": 0, "fusion_lon": 0.0, "fusion_lat": 0.0, "lon": -77.03486266666667, "name": "ee45be9c56306fa530af4aaab0a84b9d"}, {"bike_id": "5a5a0661b66e5162a28b72814b8296ae", "type": "electric_scooter", "is_disabled": 0, "lat": 38.933894, "rental_uris": {"ios": "https://dc.lft.to/lastmile_qr_scan", "android": "https://dc.lft.to/lastmile_qr_scan"}, "is_reserved": 0, "fusion_lon": 0.0, "fusion_lat": 0.0, "lon": -77.03222083333333, "name": "5a5a0661b66e5162a28b72814b8296ae"}, {"bike_id": "9d593f2797ab813ee73f574dea22cedc", "type": "electric_scooter", "is_disabled": 0, "lat": 38.9198265, "rental_uris": {"ios": "https://dc.lft.to/lastmile_qr_scan", "android": "https://dc.lft.to/lastmile_qr_scan"}, "is_reserved": 0, "fusion_lon": 0.0, "fusion_lat": 0.0, "lon": -77.012172, "name": "9d593f2797ab813ee73f574dea22cedc"}, {"bike_id": "afa2c26e2676fad4c11337dd04058da1", "type": "electric_scooter", "is_disabled": 0, "lat": 38.91969133333333, "rental_uris": {"ios": "https://dc.lft.to/lastmile_qr_scan", "android": "https://dc.lft.to/lastmile_qr_scan"}, "is_reserved": 0, "fusion_lon": 0.0, "fusion_lat": 0.0, "lon": -77.0422145, "name": "afa2c26e2676fad4c11337dd04058da1"}, {"bike_id": "0339c5424511dd8bee6f23605ee88882", "type": "electric_scooter", "is_disabled": 0, "lat": 38.916901833333334, "rental_uris": {"ios": "https://dc.lft.to/lastmile_qr_scan", "android": "https://dc.lft.to/lastmile_qr_scan"}, "is_reserved": 0, "fusion_lon": 0.0, "fusion_lat": 0.0, "lon": -77.0316605, "name": "0339c5424511dd8bee6f23605ee88882"}, {"bike_id": "67c2796dde47cd61f64db4928a417dab", "type": "electric_scooter", "is_disabled": 0, "lat": 38.911418166666664, "rental_uris": {"ios": "https://dc.lft.to/lastmile_qr_scan", "android": "https://dc.lft.to/lastmile_qr_scan"}, "is_reserved": 0, "fusion_lon": 0.0, "fusion_lat": 0.0, "lon": -76.9901285, "name": "67c2796dde47cd61f64db4928a417dab"}, {"bike_id": "3dbdf2569f71bbd6d3bd0c6d1bdaf2e2", "type": "electric_scooter", "is_disabled": 0, "lat": 38.91568816666667, "rental_uris": {"ios": "https://dc.lft.to/lastmile_qr_scan", "android": "https://dc.lft.to/lastmile_qr_scan"}, "is_reserved": 0, "fusion_lon": 0.0, "fusion_lat": 0.0, "lon": -77.027141, "name": "3dbdf2569f71bbd6d3bd0c6d1bdaf2e2"}, {"bike_id": "dcc686cc679e5370acd4c1d4acb5ce47", "type": "electric_scooter", "is_disabled": 0, "lat": 38.933587, "rental_uris": {"ios": "https://dc.lft.to/lastmile_qr_scan", "android": "https://dc.lft.to/lastmile_qr_scan"}, "is_reserved": 0, "fusion_lon": 0.0, "fusion_lat": 0.0, "lon": -77.06200583333333, "name": "dcc686cc679e5370acd4c1d4acb5ce47"}, {"bike_id": "f66be823284a9c42d9eff240b58b0012", "type": "electric_scooter", "is_disabled": 0, "lat": 38.92434133333333, "rental_uris": {"ios": "https://dc.lft.to/lastmile_qr_scan", "android": "https://dc.lft.to/lastmile_qr_scan"}, "is_reserved": 0, "fusion_lon": 0.0, "fusion_lat": 0.0, "lon": -77.04247483333333, "name": "f66be823284a9c42d9eff240b58b0012"}, {"bike_id": "66f14b90006c043ffce41804b463d64a", "type": "electric_scooter", "is_disabled": 0, "lat": 38.896021166666664, "rental_uris": {"ios": "https://dc.lft.to/lastmile_qr_scan", "android": "https://dc.lft.to/lastmile_qr_scan"}, "is_reserved": 0, "fusion_lon": 0.0, "fusion_lat": 0.0, "lon": -77.0448635, "name": "66f14b90006c043ffce41804b463d64a"}, {"bike_id": "df9a11915554c7d42147b4980aab176b", "type": "electric_scooter", "is_disabled": 0, "lat": 38.91842666666667, "rental_uris": {"ios": "https://dc.lft.to/lastmile_qr_scan", "android": "https://dc.lft.to/lastmile_qr_scan"}, "is_reserved": 0, "fusion_lon": 0.0, "fusion_lat": 0.0, "lon": -76.96558, "name": "df9a11915554c7d42147b4980aab176b"}, {"bike_id": "51f0228b2b08f728d0efb1d6de472b06", "type": "electric_scooter", "is_disabled": 0, "lat": 38.91821616666667, "rental_uris": {"ios": "https://dc.lft.to/lastmile_qr_scan", "android": "https://dc.lft.to/lastmile_qr_scan"}, "is_reserved": 0, "fusion_lon": 0.0, "fusion_lat": 0.0, "lon": -77.02536616666667, "name": "51f0228b2b08f728d0efb1d6de472b06"}, {"bike_id": "f02153acd097f7570d26421b4dad9c48", "type": "electric_scooter", "is_disabled": 0, "lat": 38.91848516666667, "rental_uris": {"ios": "https://dc.lft.to/lastmile_qr_scan", "android": "https://dc.lft.to/lastmile_qr_scan"}, "is_reserved": 0, "fusion_lon": 0.0, "fusion_lat": 0.0, "lon": -76.96559383333333, "name": "f02153acd097f7570d26421b4dad9c48"}, {"bike_id": "0a63533846865c8828aa5cdb0409766b", "type": "electric_bike", "is_disabled": 0, "lat": 38.87295366666667, "rental_uris": {"ios": "https://dc.lft.to/lastmile_qr_scan", "android": "https://dc.lft.to/lastmile_qr_scan"}, "is_reserved": 0, "fusion_lon": 0.0, "fusion_lat": 0.0, "lon": -77.1393545, "name": "0a63533846865c8828aa5cdb0409766b"}, {"bike_id": "708d3febb5feb332f270ce8026fe5c54", "type": "electric_scooter", "is_disabled": 0, "lat": 38.916887333333335, "rental_uris": {"ios": "https://dc.lft.to/lastmile_qr_scan", "android": "https://dc.lft.to/lastmile_qr_scan"}, "is_reserved": 0, "fusion_lon": 0.0, "fusion_lat": 0.0, "lon": -77.03179, "name": "708d3febb5feb332f270ce8026fe5c54"}, {"bike_id": "3a1f609119b29135ef84d045e51e59fb", "type": "electric_scooter", "is_disabled": 0, "lat": 38.858123, "rental_uris": {"ios": "https://dc.lft.to/lastmile_qr_scan", "android": "https://dc.lft.to/lastmile_qr_scan"}, "is_reserved": 0, "fusion_lon": 0.0, "fusion_lat": 0.0, "lon": -76.98928683333334, "name": "3a1f609119b29135ef84d045e51e59fb"}, {"bike_id": "0651a9a1c0727d958883d3b812f49251", "type": "electric_scooter", "is_disabled": 0, "lat": 38.870715833333335, "rental_uris": {"ios": "https://dc.lft.to/lastmile_qr_scan", "android": "https://dc.lft.to/lastmile_qr_scan"}, "is_reserved": 0, "fusion_lon": 0.0, "fusion_lat": 0.0, "lon": -76.9812965, "name": "0651a9a1c0727d958883d3b812f49251"}, {"bike_id": "f26ee662e0abe8029bd4682d0fa02848", "type": "electric_scooter", "is_disabled": 0, "lat": 38.897251833333335, "rental_uris": {"ios": "https://dc.lft.to/lastmile_qr_scan", "android": "https://dc.lft.to/lastmile_qr_scan"}, "is_reserved": 0, "fusion_lon": 0.0, "fusion_lat": 0.0, "lon": -77.02687733333333, "name": "f26ee662e0abe8029bd4682d0fa02848"}, {"bike_id": "aa3b64610a7db890dad241cae74f8af7", "type": "electric_scooter", "is_disabled": 0, "lat": 38.88640633333333, "rental_uris": {"ios": "https://dc.lft.to/lastmile_qr_scan", "android": "https://dc.lft.to/lastmile_qr_scan"}, "is_reserved": 0, "fusion_lon": 0.0, "fusion_lat": 0.0, "lon": -77.0135725, "name": "aa3b64610a7db890dad241cae74f8af7"}, {"bike_id": "06b024f9d788b118500bafd0bd2d5ea0", "type": "electric_scooter", "is_disabled": 0, "lat": 38.891952, "rental_uris": {"ios": "https://dc.lft.to/lastmile_qr_scan", "android": "https://dc.lft.to/lastmile_qr_scan"}, "is_reserved": 0, "fusion_lon": 0.0, "fusion_lat": 0.0, "lon": -77.02502683333333, "name": "06b024f9d788b118500bafd0bd2d5ea0"}, {"bike_id": "7867646828d87f97322a72b8fdf13e7c", "type": "electric_scooter", "is_disabled": 0, "lat": 38.93507683333333, "rental_uris": {"ios": "https://dc.lft.to/lastmile_qr_scan", "android": "https://dc.lft.to/lastmile_qr_scan"}, "is_reserved": 0, "fusion_lon": 0.0, "fusion_lat": 0.0, "lon": -77.02544783333333, "name": "7867646828d87f97322a72b8fdf13e7c"}, {"bike_id": "483a6c0787c626d438d63fc0c15c34a8", "type": "electric_scooter", "is_disabled": 0, "lat": 38.91702383333333, "rental_uris": {"ios": "https://dc.lft.to/lastmile_qr_scan", "android": "https://dc.lft.to/lastmile_qr_scan"}, "is_reserved": 0, "fusion_lon": 0.0, "fusion_lat": 0.0, "lon": -77.028943, "name": "483a6c0787c626d438d63fc0c15c34a8"}, {"bike_id": "b59d82887bba1c562ff323206076bd06", "type": "electric_scooter", "is_disabled": 0, "lat": 38.93324233333333, "rental_uris": {"ios": "https://dc.lft.to/lastmile_qr_scan", "android": "https://dc.lft.to/lastmile_qr_scan"}, "is_reserved": 0, "fusion_lon": 0.0, "fusion_lat": 0.0, "lon": -77.0239785, "name": "b59d82887bba1c562ff323206076bd06"}, {"bike_id": "231efab9fc72851ddb4778fd4dc64773", "type": "electric_bike", "is_disabled": 0, "lat": 38.8075205, "rental_uris": {"ios": "https://dc.lft.to/lastmile_qr_scan", "android": "https://dc.lft.to/lastmile_qr_scan"}, "is_reserved": 0, "fusion_lon": 0.0, "fusion_lat": 0.0, "lon": -77.09456516666667, "name": "231efab9fc72851ddb4778fd4dc64773"}, {"bike_id": "5469778df7d7e4256ea10d450b8d03c1", "type": "electric_scooter", "is_disabled": 0, "lat": 38.89966033333333, "rental_uris": {"ios": "https://dc.lft.to/lastmile_qr_scan", "android": "https://dc.lft.to/lastmile_qr_scan"}, "is_reserved": 0, "fusion_lon": 0.0, "fusion_lat": 0.0, "lon": -76.98297683333334, "name": "5469778df7d7e4256ea10d450b8d03c1"}, {"bike_id": "549d18e07f27ea4db4185cb9da79a31c", "type": "electric_bike", "is_disabled": 0, "lat": 38.94362483333333, "rental_uris": {"ios": "https://dc.lft.to/lastmile_qr_scan", "android": "https://dc.lft.to/lastmile_qr_scan"}, "is_reserved": 0, "fusion_lon": 0.0, "fusion_lat": 0.0, "lon": -77.00353766666667, "name": "549d18e07f27ea4db4185cb9da79a31c"}, {"bike_id": "fe4dbeb5aa13b8e248ce3a546a76c694", "type": "electric_scooter", "is_disabled": 0, "lat": 38.915999166666666, "rental_uris": {"ios": "https://dc.lft.to/lastmile_qr_scan", "android": "https://dc.lft.to/lastmile_qr_scan"}, "is_reserved": 0, "fusion_lon": 0.0, "fusion_lat": 0.0, "lon": -77.03990483333334, "name": "fe4dbeb5aa13b8e248ce3a546a76c694"}, {"bike_id": "22b020742081520a3b382acaedb8ae84", "type": "electric_scooter", "is_disabled": 0, "lat": 38.9078725, "rental_uris": {"ios": "https://dc.lft.to/lastmile_qr_scan", "android": "https://dc.lft.to/lastmile_qr_scan"}, "is_reserved": 0, "fusion_lon": 0.0, "fusion_lat": 0.0, "lon": -76.994385, "name": "22b020742081520a3b382acaedb8ae84"}, {"bike_id": "f7017840e8415bb6a8d01f9d9d773826", "type": "electric_scooter", "is_disabled": 0, "lat": 38.939866, "rental_uris": {"ios": "https://dc.lft.to/lastmile_qr_scan", "android": "https://dc.lft.to/lastmile_qr_scan"}, "is_reserved": 0, "fusion_lon": 0.0, "fusion_lat": 0.0, "lon": -77.0287555, "name": "f7017840e8415bb6a8d01f9d9d773826"}, {"bike_id": "9e90b1709f14a478166cd82965f228ba", "type": "electric_scooter", "is_disabled": 0, "lat": 38.946089, "rental_uris": {"ios": "https://dc.lft.to/lastmile_qr_scan", "android": "https://dc.lft.to/lastmile_qr_scan"}, "is_reserved": 0, "fusion_lon": 0.0, "fusion_lat": 0.0, "lon": -77.02269233333334, "name": "9e90b1709f14a478166cd82965f228ba"}, {"bike_id": "3469238212927cebdb1874d10389a0f2", "type": "electric_scooter", "is_disabled": 0, "lat": 38.92698733333334, "rental_uris": {"ios": "https://dc.lft.to/lastmile_qr_scan", "android": "https://dc.lft.to/lastmile_qr_scan"}, "is_reserved": 0, "fusion_lon": 0.0, "fusion_lat": 0.0, "lon": -77.02067633333333, "name": "3469238212927cebdb1874d10389a0f2"}, {"bike_id": "c629ce67ce2375205a9bf9ae50234b26", "type": "electric_scooter", "is_disabled": 0, "lat": 38.8662575, "rental_uris": {"ios": "https://dc.lft.to/lastmile_qr_scan", "android": "https://dc.lft.to/lastmile_qr_scan"}, "is_reserved": 0, "fusion_lon": 0.0, "fusion_lat": 0.0, "lon": -76.98721283333333, "name": "c629ce67ce2375205a9bf9ae50234b26"}, {"bike_id": "b8ba2252420ebdb767d953efbaff9e98", "type": "electric_scooter", "is_disabled": 0, "lat": 38.894764333333335, "rental_uris": {"ios": "https://dc.lft.to/lastmile_qr_scan", "android": "https://dc.lft.to/lastmile_qr_scan"}, "is_reserved": 0, "fusion_lon": 0.0, "fusion_lat": 0.0, "lon": -77.01097783333333, "name": "b8ba2252420ebdb767d953efbaff9e98"}, {"bike_id": "4eb64e7208dacd3c3476bcbb927284c1", "type": "electric_scooter", "is_disabled": 0, "lat": 38.90548483333333, "rental_uris": {"ios": "https://dc.lft.to/lastmile_qr_scan", "android": "https://dc.lft.to/lastmile_qr_scan"}, "is_reserved": 0, "fusion_lon": 0.0, "fusion_lat": 0.0, "lon": -77.021829, "name": "4eb64e7208dacd3c3476bcbb927284c1"}, {"bike_id": "4a5a953735efad6959467b45b96ffc31", "type": "electric_scooter", "is_disabled": 0, "lat": 38.8948315, "rental_uris": {"ios": "https://dc.lft.to/lastmile_qr_scan", "android": "https://dc.lft.to/lastmile_qr_scan"}, "is_reserved": 0, "fusion_lon": 0.0, "fusion_lat": 0.0, "lon": -76.98784983333333, "name": "4a5a953735efad6959467b45b96ffc31"}, {"bike_id": "eaec9e407c63f8456a769d450051fb3e", "type": "electric_scooter", "is_disabled": 0, "lat": 38.892644, "rental_uris": {"ios": "https://dc.lft.to/lastmile_qr_scan", "android": "https://dc.lft.to/lastmile_qr_scan"}, "is_reserved": 0, "fusion_lon": 0.0, "fusion_lat": 0.0, "lon": -77.02037433333334, "name": "eaec9e407c63f8456a769d450051fb3e"}, {"bike_id": "ee199197d797709df16900239261cad6", "type": "electric_scooter", "is_disabled": 0, "lat": 38.90020783333333, "rental_uris": {"ios": "https://dc.lft.to/lastmile_qr_scan", "android": "https://dc.lft.to/lastmile_qr_scan"}, "is_reserved": 0, "fusion_lon": 0.0, "fusion_lat": 0.0, "lon": -76.9981035, "name": "ee199197d797709df16900239261cad6"}, {"bike_id": "994370ce09784737b20857f7309d9027", "type": "electric_scooter", "is_disabled": 0, "lat": 38.923319666666664, "rental_uris": {"ios": "https://dc.lft.to/lastmile_qr_scan", "android": "https://dc.lft.to/lastmile_qr_scan"}, "is_reserved": 0, "fusion_lon": 0.0, "fusion_lat": 0.0, "lon": -77.02696633333333, "name": "994370ce09784737b20857f7309d9027"}, {"bike_id": "d9ab95b4313ba2ab8bf179272c37ed09", "type": "electric_scooter", "is_disabled": 0, "lat": 38.92473533333333, "rental_uris": {"ios": "https://dc.lft.to/lastmile_qr_scan", "android": "https://dc.lft.to/lastmile_qr_scan"}, "is_reserved": 0, "fusion_lon": 0.0, "fusion_lat": 0.0, "lon": -77.02832183333334, "name": "d9ab95b4313ba2ab8bf179272c37ed09"}, {"bike_id": "61fe3c84d390c0bbd2b85ec16c46245c", "type": "electric_scooter", "is_disabled": 0, "lat": 38.8837115, "rental_uris": {"ios": "https://dc.lft.to/lastmile_qr_scan", "android": "https://dc.lft.to/lastmile_qr_scan"}, "is_reserved": 0, "fusion_lon": 0.0, "fusion_lat": 0.0, "lon": -77.01993616666667, "name": "61fe3c84d390c0bbd2b85ec16c46245c"}, {"bike_id": "a6deb16cb0cfec94d2ce740ee2f74d1e", "type": "electric_scooter", "is_disabled": 0, "lat": 38.8877465, "rental_uris": {"ios": "https://dc.lft.to/lastmile_qr_scan", "android": "https://dc.lft.to/lastmile_qr_scan"}, "is_reserved": 0, "fusion_lon": 0.0, "fusion_lat": 0.0, "lon": -77.017273, "name": "a6deb16cb0cfec94d2ce740ee2f74d1e"}, {"bike_id": "95bcdf4b1761470bb4cc4d1fb82c46e3", "type": "electric_scooter", "is_disabled": 0, "lat": 38.892318833333334, "rental_uris": {"ios": "https://dc.lft.to/lastmile_qr_scan", "android": "https://dc.lft.to/lastmile_qr_scan"}, "is_reserved": 0, "fusion_lon": 0.0, "fusion_lat": 0.0, "lon": -77.04675983333334, "name": "95bcdf4b1761470bb4cc4d1fb82c46e3"}, {"bike_id": "362f17d9a4029f1878bc24e54a7b58e9", "type": "electric_scooter", "is_disabled": 0, "lat": 38.907144833333334, "rental_uris": {"ios": "https://dc.lft.to/lastmile_qr_scan", "android": "https://dc.lft.to/lastmile_qr_scan"}, "is_reserved": 0, "fusion_lon": 0.0, "fusion_lat": 0.0, "lon": -77.0431735, "name": "362f17d9a4029f1878bc24e54a7b58e9"}, {"bike_id": "ec62033a402c4c9eb33f4a62924102f1", "type": "electric_scooter", "is_disabled": 0, "lat": 38.89874116666667, "rental_uris": {"ios": "https://dc.lft.to/lastmile_qr_scan", "android": "https://dc.lft.to/lastmile_qr_scan"}, "is_reserved": 0, "fusion_lon": 0.0, "fusion_lat": 0.0, "lon": -76.93185966666667, "name": "ec62033a402c4c9eb33f4a62924102f1"}, {"bike_id": "db497370353bc454ba3a3eff22c0e48d", "type": "electric_scooter", "is_disabled": 0, "lat": 38.930697333333335, "rental_uris": {"ios": "https://dc.lft.to/lastmile_qr_scan", "android": "https://dc.lft.to/lastmile_qr_scan"}, "is_reserved": 0, "fusion_lon": 0.0, "fusion_lat": 0.0, "lon": -77.04130383333333, "name": "db497370353bc454ba3a3eff22c0e48d"}, {"bike_id": "930c0ece23473c4dd48b637f6bdef5ac", "type": "electric_bike", "is_disabled": 0, "lat": 38.93967283333333, "rental_uris": {"ios": "https://dc.lft.to/lastmile_qr_scan", "android": "https://dc.lft.to/lastmile_qr_scan"}, "is_reserved": 0, "fusion_lon": 0.0, "fusion_lat": 0.0, "lon": -77.05256583333333, "name": "930c0ece23473c4dd48b637f6bdef5ac"}, {"bike_id": "1c8c1d17903a51206c6ab00ed181d1e5", "type": "electric_scooter", "is_disabled": 0, "lat": 38.902942333333336, "rental_uris": {"ios": "https://dc.lft.to/lastmile_qr_scan", "android": "https://dc.lft.to/lastmile_qr_scan"}, "is_reserved": 0, "fusion_lon": 0.0, "fusion_lat": 0.0, "lon": -77.03647083333334, "name": "1c8c1d17903a51206c6ab00ed181d1e5"}, {"bike_id": "5356dfca27ea24071498c4d8f26d1b2c", "type": "electric_scooter", "is_disabled": 0, "lat": 38.91120983333333, "rental_uris": {"ios": "https://dc.lft.to/lastmile_qr_scan", "android": "https://dc.lft.to/lastmile_qr_scan"}, "is_reserved": 0, "fusion_lon": 0.0, "fusion_lat": 0.0, "lon": -77.03733416666667, "name": "5356dfca27ea24071498c4d8f26d1b2c"}, {"bike_id": "673ba9a3ec1d8632ad7f0e8ac224354d", "type": "electric_scooter", "is_disabled": 0, "lat": 38.89978466666667, "rental_uris": {"ios": "https://dc.lft.to/lastmile_qr_scan", "android": "https://dc.lft.to/lastmile_qr_scan"}, "is_reserved": 0, "fusion_lon": 0.0, "fusion_lat": 0.0, "lon": -77.0191935, "name": "673ba9a3ec1d8632ad7f0e8ac224354d"}, {"bike_id": "c5b351e449fcf5d32d79385eea6c7f4d", "type": "electric_scooter", "is_disabled": 0, "lat": 38.8982905, "rental_uris": {"ios": "https://dc.lft.to/lastmile_qr_scan", "android": "https://dc.lft.to/lastmile_qr_scan"}, "is_reserved": 0, "fusion_lon": 0.0, "fusion_lat": 0.0, "lon": -77.03187966666667, "name": "c5b351e449fcf5d32d79385eea6c7f4d"}, {"bike_id": "70722a30119fc114e29811780fdb081b", "type": "electric_scooter", "is_disabled": 0, "lat": 38.92126833333333, "rental_uris": {"ios": "https://dc.lft.to/lastmile_qr_scan", "android": "https://dc.lft.to/lastmile_qr_scan"}, "is_reserved": 0, "fusion_lon": 0.0, "fusion_lat": 0.0, "lon": -77.02714533333334, "name": "70722a30119fc114e29811780fdb081b"}, {"bike_id": "2b62f8339cf392cb7618cd3c3f227247", "type": "electric_scooter", "is_disabled": 0, "lat": 38.922464, "rental_uris": {"ios": "https://dc.lft.to/lastmile_qr_scan", "android": "https://dc.lft.to/lastmile_qr_scan"}, "is_reserved": 0, "fusion_lon": 0.0, "fusion_lat": 0.0, "lon": -77.0427455, "name": "2b62f8339cf392cb7618cd3c3f227247"}, {"bike_id": "1d072efc485b300c96636ec34b8dc0b9", "type": "electric_scooter", "is_disabled": 0, "lat": 38.93102483333333, "rental_uris": {"ios": "https://dc.lft.to/lastmile_qr_scan", "android": "https://dc.lft.to/lastmile_qr_scan"}, "is_reserved": 0, "fusion_lon": 0.0, "fusion_lat": 0.0, "lon": -77.04123766666666, "name": "1d072efc485b300c96636ec34b8dc0b9"}, {"bike_id": "56ed4424c4927c3444007308d1041ffb", "type": "electric_scooter", "is_disabled": 0, "lat": 38.91906933333333, "rental_uris": {"ios": "https://dc.lft.to/lastmile_qr_scan", "android": "https://dc.lft.to/lastmile_qr_scan"}, "is_reserved": 0, "fusion_lon": 0.0, "fusion_lat": 0.0, "lon": -77.04462833333334, "name": "56ed4424c4927c3444007308d1041ffb"}, {"bike_id": "22dcd2f0ea627d85a47e042fa31154f2", "type": "electric_scooter", "is_disabled": 0, "lat": 38.90287133333333, "rental_uris": {"ios": "https://dc.lft.to/lastmile_qr_scan", "android": "https://dc.lft.to/lastmile_qr_scan"}, "is_reserved": 0, "fusion_lon": 0.0, "fusion_lat": 0.0, "lon": -77.03663033333333, "name": "22dcd2f0ea627d85a47e042fa31154f2"}, {"bike_id": "6d9ce44f386f7fa26b7b151aff2a7204", "type": "electric_scooter", "is_disabled": 0, "lat": 38.91424633333333, "rental_uris": {"ios": "https://dc.lft.to/lastmile_qr_scan", "android": "https://dc.lft.to/lastmile_qr_scan"}, "is_reserved": 0, "fusion_lon": 0.0, "fusion_lat": 0.0, "lon": -77.03277816666667, "name": "6d9ce44f386f7fa26b7b151aff2a7204"}, {"bike_id": "717c0c4289a69192f4ef9c61d20d8cea", "type": "electric_scooter", "is_disabled": 0, "lat": 38.900169, "rental_uris": {"ios": "https://dc.lft.to/lastmile_qr_scan", "android": "https://dc.lft.to/lastmile_qr_scan"}, "is_reserved": 0, "fusion_lon": 0.0, "fusion_lat": 0.0, "lon": -77.045864, "name": "717c0c4289a69192f4ef9c61d20d8cea"}, {"bike_id": "83637de474838f76ff74dd6560e2b899", "type": "electric_scooter", "is_disabled": 0, "lat": 38.91137666666667, "rental_uris": {"ios": "https://dc.lft.to/lastmile_qr_scan", "android": "https://dc.lft.to/lastmile_qr_scan"}, "is_reserved": 0, "fusion_lon": 0.0, "fusion_lat": 0.0, "lon": -77.021948, "name": "83637de474838f76ff74dd6560e2b899"}, {"bike_id": "41e0a307440b23643e830436d93e3c41", "type": "electric_scooter", "is_disabled": 0, "lat": 38.90007133333334, "rental_uris": {"ios": "https://dc.lft.to/lastmile_qr_scan", "android": "https://dc.lft.to/lastmile_qr_scan"}, "is_reserved": 0, "fusion_lon": 0.0, "fusion_lat": 0.0, "lon": -77.01119583333333, "name": "41e0a307440b23643e830436d93e3c41"}, {"bike_id": "dce5aad61750b91cd774704621012059", "type": "electric_scooter", "is_disabled": 0, "lat": 38.92190166666666, "rental_uris": {"ios": "https://dc.lft.to/lastmile_qr_scan", "android": "https://dc.lft.to/lastmile_qr_scan"}, "is_reserved": 0, "fusion_lon": 0.0, "fusion_lat": 0.0, "lon": -77.02117916666667, "name": "dce5aad61750b91cd774704621012059"}, {"bike_id": "ac97cb0b0cb08112936d569fdfc5519d", "type": "electric_bike", "is_disabled": 0, "lat": 38.96500283333334, "rental_uris": {"ios": "https://dc.lft.to/lastmile_qr_scan", "android": "https://dc.lft.to/lastmile_qr_scan"}, "is_reserved": 0, "fusion_lon": 0.0, "fusion_lat": 0.0, "lon": -77.02097483333333, "name": "ac97cb0b0cb08112936d569fdfc5519d"}, {"bike_id": "bc8cc22fec7c8bb874d8202b4c0876b7", "type": "electric_scooter", "is_disabled": 0, "lat": 38.92463033333333, "rental_uris": {"ios": "https://dc.lft.to/lastmile_qr_scan", "android": "https://dc.lft.to/lastmile_qr_scan"}, "is_reserved": 0, "fusion_lon": 0.0, "fusion_lat": 0.0, "lon": -77.05202666666666, "name": "bc8cc22fec7c8bb874d8202b4c0876b7"}, {"bike_id": "ad88e6cdf04dad46b49bc305cd4f935e", "type": "electric_scooter", "is_disabled": 0, "lat": 38.91426633333333, "rental_uris": {"ios": "https://dc.lft.to/lastmile_qr_scan", "android": "https://dc.lft.to/lastmile_qr_scan"}, "is_reserved": 0, "fusion_lon": 0.0, "fusion_lat": 0.0, "lon": -77.04591083333334, "name": "ad88e6cdf04dad46b49bc305cd4f935e"}, {"bike_id": "183bc43d14aa5fa78df9dc737e5cb868", "type": "electric_scooter", "is_disabled": 0, "lat": 38.8847125, "rental_uris": {"ios": "https://dc.lft.to/lastmile_qr_scan", "android": "https://dc.lft.to/lastmile_qr_scan"}, "is_reserved": 0, "fusion_lon": 0.0, "fusion_lat": 0.0, "lon": -77.025364, "name": "183bc43d14aa5fa78df9dc737e5cb868"}, {"bike_id": "bdd66a89af85e1282b83944406eb1704", "type": "electric_scooter", "is_disabled": 0, "lat": 38.927470166666666, "rental_uris": {"ios": "https://dc.lft.to/lastmile_qr_scan", "android": "https://dc.lft.to/lastmile_qr_scan"}, "is_reserved": 0, "fusion_lon": 0.0, "fusion_lat": 0.0, "lon": -77.02381683333333, "name": "bdd66a89af85e1282b83944406eb1704"}, {"bike_id": "603abcd7755e90192be4fe7a752e286f", "type": "electric_scooter", "is_disabled": 0, "lat": 38.903869666666665, "rental_uris": {"ios": "https://dc.lft.to/lastmile_qr_scan", "android": "https://dc.lft.to/lastmile_qr_scan"}, "is_reserved": 0, "fusion_lon": 0.0, "fusion_lat": 0.0, "lon": -77.008844, "name": "603abcd7755e90192be4fe7a752e286f"}, {"bike_id": "5c1a5f6091cc1b3a065ce1ef1f9ec381", "type": "electric_scooter", "is_disabled": 0, "lat": 38.919194166666664, "rental_uris": {"ios": "https://dc.lft.to/lastmile_qr_scan", "android": "https://dc.lft.to/lastmile_qr_scan"}, "is_reserved": 0, "fusion_lon": 0.0, "fusion_lat": 0.0, "lon": -77.00250366666667, "name": "5c1a5f6091cc1b3a065ce1ef1f9ec381"}, {"bike_id": "1b4b864e577731cbb4e16121c0e5af8b", "type": "electric_scooter", "is_disabled": 0, "lat": 38.90929116666667, "rental_uris": {"ios": "https://dc.lft.to/lastmile_qr_scan", "android": "https://dc.lft.to/lastmile_qr_scan"}, "is_reserved": 0, "fusion_lon": 0.0, "fusion_lat": 0.0, "lon": -77.04940916666666, "name": "1b4b864e577731cbb4e16121c0e5af8b"}, {"bike_id": "45886fe65a42df1d7df6379a73d08148", "type": "electric_bike", "is_disabled": 0, "lat": 38.87983283333333, "rental_uris": {"ios": "https://dc.lft.to/lastmile_qr_scan", "android": "https://dc.lft.to/lastmile_qr_scan"}, "is_reserved": 0, "fusion_lon": 0.0, "fusion_lat": 0.0, "lon": -76.91599383333333, "name": "45886fe65a42df1d7df6379a73d08148"}, {"bike_id": "8093f6753088e40ff05f25007f59d4e0", "type": "electric_scooter", "is_disabled": 0, "lat": 38.89220233333333, "rental_uris": {"ios": "https://dc.lft.to/lastmile_qr_scan", "android": "https://dc.lft.to/lastmile_qr_scan"}, "is_reserved": 0, "fusion_lon": 0.0, "fusion_lat": 0.0, "lon": -77.04310166666667, "name": "8093f6753088e40ff05f25007f59d4e0"}, {"bike_id": "b29990fdc5115c479984d750b0b9de83", "type": "electric_scooter", "is_disabled": 0, "lat": 38.888538833333335, "rental_uris": {"ios": "https://dc.lft.to/lastmile_qr_scan", "android": "https://dc.lft.to/lastmile_qr_scan"}, "is_reserved": 0, "fusion_lon": 0.0, "fusion_lat": 0.0, "lon": -77.00055416666666, "name": "b29990fdc5115c479984d750b0b9de83"}, {"bike_id": "e3722bd3cfed7b13b25e1c1f98a18e1e", "type": "electric_scooter", "is_disabled": 0, "lat": 38.92156116666666, "rental_uris": {"ios": "https://dc.lft.to/lastmile_qr_scan", "android": "https://dc.lft.to/lastmile_qr_scan"}, "is_reserved": 0, "fusion_lon": 0.0, "fusion_lat": 0.0, "lon": -77.038623, "name": "e3722bd3cfed7b13b25e1c1f98a18e1e"}, {"bike_id": "53d5bad7607c386809ac1258c5be39e2", "type": "electric_scooter", "is_disabled": 0, "lat": 38.892056833333335, "rental_uris": {"ios": "https://dc.lft.to/lastmile_qr_scan", "android": "https://dc.lft.to/lastmile_qr_scan"}, "is_reserved": 0, "fusion_lon": 0.0, "fusion_lat": 0.0, "lon": -76.99935216666667, "name": "53d5bad7607c386809ac1258c5be39e2"}, {"bike_id": "eccf0c12881c59682e10bb706cc234db", "type": "electric_scooter", "is_disabled": 0, "lat": 38.88067366666667, "rental_uris": {"ios": "https://dc.lft.to/lastmile_qr_scan", "android": "https://dc.lft.to/lastmile_qr_scan"}, "is_reserved": 0, "fusion_lon": 0.0, "fusion_lat": 0.0, "lon": -76.93217716666666, "name": "eccf0c12881c59682e10bb706cc234db"}, {"bike_id": "d32eb2086c03abb47792b12d8242ee5f", "type": "electric_scooter", "is_disabled": 0, "lat": 38.892190166666666, "rental_uris": {"ios": "https://dc.lft.to/lastmile_qr_scan", "android": "https://dc.lft.to/lastmile_qr_scan"}, "is_reserved": 0, "fusion_lon": 0.0, "fusion_lat": 0.0, "lon": -77.0398, "name": "d32eb2086c03abb47792b12d8242ee5f"}, {"bike_id": "f4b3bb9dbd079a9e6d8c9b9e5f1865f6", "type": "electric_scooter", "is_disabled": 0, "lat": 38.860178166666664, "rental_uris": {"ios": "https://dc.lft.to/lastmile_qr_scan", "android": "https://dc.lft.to/lastmile_qr_scan"}, "is_reserved": 0, "fusion_lon": 0.0, "fusion_lat": 0.0, "lon": -76.99685666666667, "name": "f4b3bb9dbd079a9e6d8c9b9e5f1865f6"}, {"bike_id": "d2a6582cbb9e836a9e5a7542c010396e", "type": "electric_scooter", "is_disabled": 0, "lat": 38.920549, "rental_uris": {"ios": "https://dc.lft.to/lastmile_qr_scan", "android": "https://dc.lft.to/lastmile_qr_scan"}, "is_reserved": 0, "fusion_lon": 0.0, "fusion_lat": 0.0, "lon": -77.0425995, "name": "d2a6582cbb9e836a9e5a7542c010396e"}, {"bike_id": "00e78022305cd75e784761fe9cb65f0a", "type": "electric_scooter", "is_disabled": 0, "lat": 38.920781166666664, "rental_uris": {"ios": "https://dc.lft.to/lastmile_qr_scan", "android": "https://dc.lft.to/lastmile_qr_scan"}, "is_reserved": 0, "fusion_lon": 0.0, "fusion_lat": 0.0, "lon": -77.03164383333333, "name": "00e78022305cd75e784761fe9cb65f0a"}, {"bike_id": "43d48d26f2927bc4eccd58e314b8b0ef", "type": "electric_scooter", "is_disabled": 0, "lat": 38.91863883333333, "rental_uris": {"ios": "https://dc.lft.to/lastmile_qr_scan", "android": "https://dc.lft.to/lastmile_qr_scan"}, "is_reserved": 0, "fusion_lon": 0.0, "fusion_lat": 0.0, "lon": -77.04767233333334, "name": "43d48d26f2927bc4eccd58e314b8b0ef"}, {"bike_id": "4dddfd1df6b2b5b3c83d9d749bb11981", "type": "electric_scooter", "is_disabled": 0, "lat": 38.922507333333336, "rental_uris": {"ios": "https://dc.lft.to/lastmile_qr_scan", "android": "https://dc.lft.to/lastmile_qr_scan"}, "is_reserved": 0, "fusion_lon": 0.0, "fusion_lat": 0.0, "lon": -77.04205916666666, "name": "4dddfd1df6b2b5b3c83d9d749bb11981"}, {"bike_id": "d6de0765dac86eaee0e203f4e78dbf47", "type": "electric_bike", "is_disabled": 0, "lat": 38.92234666666667, "rental_uris": {"ios": "https://dc.lft.to/lastmile_qr_scan", "android": "https://dc.lft.to/lastmile_qr_scan"}, "is_reserved": 0, "fusion_lon": 0.0, "fusion_lat": 0.0, "lon": -77.044773, "name": "d6de0765dac86eaee0e203f4e78dbf47"}, {"bike_id": "96b147e215216dd5265db4ddab418e03", "type": "electric_bike", "is_disabled": 0, "lat": 38.8572495, "rental_uris": {"ios": "https://dc.lft.to/lastmile_qr_scan", "android": "https://dc.lft.to/lastmile_qr_scan"}, "is_reserved": 0, "fusion_lon": 0.0, "fusion_lat": 0.0, "lon": -77.07972916666667, "name": "96b147e215216dd5265db4ddab418e03"}, {"bike_id": "437c7e372b5935d7966e0c53c9e5544e", "type": "electric_scooter", "is_disabled": 0, "lat": 38.89915516666667, "rental_uris": {"ios": "https://dc.lft.to/lastmile_qr_scan", "android": "https://dc.lft.to/lastmile_qr_scan"}, "is_reserved": 0, "fusion_lon": 0.0, "fusion_lat": 0.0, "lon": -76.93384133333333, "name": "437c7e372b5935d7966e0c53c9e5544e"}, {"bike_id": "1cbf5d534cec7be2d388d4cfbdd7eebb", "type": "electric_scooter", "is_disabled": 0, "lat": 38.916910666666666, "rental_uris": {"ios": "https://dc.lft.to/lastmile_qr_scan", "android": "https://dc.lft.to/lastmile_qr_scan"}, "is_reserved": 0, "fusion_lon": 0.0, "fusion_lat": 0.0, "lon": -77.03129866666667, "name": "1cbf5d534cec7be2d388d4cfbdd7eebb"}, {"bike_id": "7d5446eac6d977c15f7ae2f44ad8914b", "type": "electric_scooter", "is_disabled": 0, "lat": 38.8806755, "rental_uris": {"ios": "https://dc.lft.to/lastmile_qr_scan", "android": "https://dc.lft.to/lastmile_qr_scan"}, "is_reserved": 0, "fusion_lon": 0.0, "fusion_lat": 0.0, "lon": -77.02548233333333, "name": "7d5446eac6d977c15f7ae2f44ad8914b"}, {"bike_id": "eaa709397422c7dac22d661c65f9e36b", "type": "electric_scooter", "is_disabled": 0, "lat": 38.93459216666667, "rental_uris": {"ios": "https://dc.lft.to/lastmile_qr_scan", "android": "https://dc.lft.to/lastmile_qr_scan"}, "is_reserved": 0, "fusion_lon": 0.0, "fusion_lat": 0.0, "lon": -77.0453665, "name": "eaa709397422c7dac22d661c65f9e36b"}, {"bike_id": "de892c0964bdb470002a9c94061cc12c", "type": "electric_scooter", "is_disabled": 0, "lat": 38.913259, "rental_uris": {"ios": "https://dc.lft.to/lastmile_qr_scan", "android": "https://dc.lft.to/lastmile_qr_scan"}, "is_reserved": 0, "fusion_lon": 0.0, "fusion_lat": 0.0, "lon": -77.03182883333334, "name": "de892c0964bdb470002a9c94061cc12c"}, {"bike_id": "6166efdda17b3fcba4cfc9beab03d91e", "type": "electric_scooter", "is_disabled": 0, "lat": 38.90583516666667, "rental_uris": {"ios": "https://dc.lft.to/lastmile_qr_scan", "android": "https://dc.lft.to/lastmile_qr_scan"}, "is_reserved": 0, "fusion_lon": 0.0, "fusion_lat": 0.0, "lon": -77.06293166666667, "name": "6166efdda17b3fcba4cfc9beab03d91e"}, {"bike_id": "45f00a4e09d1862aa3aac35968ac9917", "type": "electric_scooter", "is_disabled": 0, "lat": 38.89219216666667, "rental_uris": {"ios": "https://dc.lft.to/lastmile_qr_scan", "android": "https://dc.lft.to/lastmile_qr_scan"}, "is_reserved": 0, "fusion_lon": 0.0, "fusion_lat": 0.0, "lon": -77.0465395, "name": "45f00a4e09d1862aa3aac35968ac9917"}, {"bike_id": "a25e3cf457954eb9cb0fedcdf42b6015", "type": "electric_scooter", "is_disabled": 0, "lat": 38.921626, "rental_uris": {"ios": "https://dc.lft.to/lastmile_qr_scan", "android": "https://dc.lft.to/lastmile_qr_scan"}, "is_reserved": 0, "fusion_lon": 0.0, "fusion_lat": 0.0, "lon": -77.03852933333333, "name": "a25e3cf457954eb9cb0fedcdf42b6015"}, {"bike_id": "684e391b79de2ef9e64234eac71056fe", "type": "electric_scooter", "is_disabled": 0, "lat": 38.8865415, "rental_uris": {"ios": "https://dc.lft.to/lastmile_qr_scan", "android": "https://dc.lft.to/lastmile_qr_scan"}, "is_reserved": 0, "fusion_lon": 0.0, "fusion_lat": 0.0, "lon": -77.03394133333333, "name": "684e391b79de2ef9e64234eac71056fe"}, {"bike_id": "3c2669f865d9f668ede48f7d6adf9d6c", "type": "electric_scooter", "is_disabled": 0, "lat": 38.8969, "rental_uris": {"ios": "https://dc.lft.to/lastmile_qr_scan", "android": "https://dc.lft.to/lastmile_qr_scan"}, "is_reserved": 0, "fusion_lon": 0.0, "fusion_lat": 0.0, "lon": -76.99962583333334, "name": "3c2669f865d9f668ede48f7d6adf9d6c"}, {"bike_id": "330a4419d2ddb4a8a7fc75cc672ba01a", "type": "electric_scooter", "is_disabled": 0, "lat": 38.918223833333336, "rental_uris": {"ios": "https://dc.lft.to/lastmile_qr_scan", "android": "https://dc.lft.to/lastmile_qr_scan"}, "is_reserved": 0, "fusion_lon": 0.0, "fusion_lat": 0.0, "lon": -77.0271205, "name": "330a4419d2ddb4a8a7fc75cc672ba01a"}, {"bike_id": "43743620170bb62b851874c6a812e0ff", "type": "electric_scooter", "is_disabled": 0, "lat": 38.88713166666667, "rental_uris": {"ios": "https://dc.lft.to/lastmile_qr_scan", "android": "https://dc.lft.to/lastmile_qr_scan"}, "is_reserved": 0, "fusion_lon": 0.0, "fusion_lat": 0.0, "lon": -77.02203166666666, "name": "43743620170bb62b851874c6a812e0ff"}, {"bike_id": "293631976d181497721101bc244bfac1", "type": "electric_scooter", "is_disabled": 0, "lat": 38.8872295, "rental_uris": {"ios": "https://dc.lft.to/lastmile_qr_scan", "android": "https://dc.lft.to/lastmile_qr_scan"}, "is_reserved": 0, "fusion_lon": 0.0, "fusion_lat": 0.0, "lon": -76.9835785, "name": "293631976d181497721101bc244bfac1"}, {"bike_id": "1f41b3b34021dd156815f3c4163dff81", "type": "electric_bike", "is_disabled": 0, "lat": 38.95706416666667, "rental_uris": {"ios": "https://dc.lft.to/lastmile_qr_scan", "android": "https://dc.lft.to/lastmile_qr_scan"}, "is_reserved": 0, "fusion_lon": 0.0, "fusion_lat": 0.0, "lon": -77.024044, "name": "1f41b3b34021dd156815f3c4163dff81"}, {"bike_id": "cd3e7a5d1789abd975072b7adec2eaf7", "type": "electric_scooter", "is_disabled": 0, "lat": 38.916783833333334, "rental_uris": {"ios": "https://dc.lft.to/lastmile_qr_scan", "android": "https://dc.lft.to/lastmile_qr_scan"}, "is_reserved": 0, "fusion_lon": 0.0, "fusion_lat": 0.0, "lon": -77.02891133333334, "name": "cd3e7a5d1789abd975072b7adec2eaf7"}, {"bike_id": "f1d5f8ded7da39847464b2b105ef380f", "type": "electric_scooter", "is_disabled": 0, "lat": 38.9204285, "rental_uris": {"ios": "https://dc.lft.to/lastmile_qr_scan", "android": "https://dc.lft.to/lastmile_qr_scan"}, "is_reserved": 0, "fusion_lon": 0.0, "fusion_lat": 0.0, "lon": -76.99571916666666, "name": "f1d5f8ded7da39847464b2b105ef380f"}, {"bike_id": "54f5a9bf86f1bd84d8daa5b05f9ef039", "type": "electric_scooter", "is_disabled": 0, "lat": 38.86696166666667, "rental_uris": {"ios": "https://dc.lft.to/lastmile_qr_scan", "android": "https://dc.lft.to/lastmile_qr_scan"}, "is_reserved": 0, "fusion_lon": 0.0, "fusion_lat": 0.0, "lon": -76.987131, "name": "54f5a9bf86f1bd84d8daa5b05f9ef039"}, {"bike_id": "a4cbe06ae58467e77a26c87f88603422", "type": "electric_scooter", "is_disabled": 0, "lat": 38.90957866666667, "rental_uris": {"ios": "https://dc.lft.to/lastmile_qr_scan", "android": "https://dc.lft.to/lastmile_qr_scan"}, "is_reserved": 0, "fusion_lon": 0.0, "fusion_lat": 0.0, "lon": -77.0211915, "name": "a4cbe06ae58467e77a26c87f88603422"}, {"bike_id": "d0d5ce8472ba4c09fc7697b2a01c7ece", "type": "electric_scooter", "is_disabled": 0, "lat": 38.922583833333334, "rental_uris": {"ios": "https://dc.lft.to/lastmile_qr_scan", "android": "https://dc.lft.to/lastmile_qr_scan"}, "is_reserved": 0, "fusion_lon": 0.0, "fusion_lat": 0.0, "lon": -77.0366395, "name": "d0d5ce8472ba4c09fc7697b2a01c7ece"}, {"bike_id": "d3f274d0141c535008e82ef43475183f", "type": "electric_bike", "is_disabled": 0, "lat": 39.024304, "rental_uris": {"ios": "https://dc.lft.to/lastmile_qr_scan", "android": "https://dc.lft.to/lastmile_qr_scan"}, "is_reserved": 0, "fusion_lon": 0.0, "fusion_lat": 0.0, "lon": -77.13102133333334, "name": "d3f274d0141c535008e82ef43475183f"}, {"bike_id": "50b4d54a3d531013c624d765dc452600", "type": "electric_scooter", "is_disabled": 0, "lat": 38.9086905, "rental_uris": {"ios": "https://dc.lft.to/lastmile_qr_scan", "android": "https://dc.lft.to/lastmile_qr_scan"}, "is_reserved": 0, "fusion_lon": 0.0, "fusion_lat": 0.0, "lon": -77.03461816666666, "name": "50b4d54a3d531013c624d765dc452600"}, {"bike_id": "4effdb228ea98234c324ebf6a6167605", "type": "electric_scooter", "is_disabled": 0, "lat": 38.90002883333333, "rental_uris": {"ios": "https://dc.lft.to/lastmile_qr_scan", "android": "https://dc.lft.to/lastmile_qr_scan"}, "is_reserved": 0, "fusion_lon": 0.0, "fusion_lat": 0.0, "lon": -77.03195383333333, "name": "4effdb228ea98234c324ebf6a6167605"}, {"bike_id": "b6ed3b5e6c2cd0f237a939d88bbba26a", "type": "electric_bike", "is_disabled": 0, "lat": 38.89846433333334, "rental_uris": {"ios": "https://dc.lft.to/lastmile_qr_scan", "android": "https://dc.lft.to/lastmile_qr_scan"}, "is_reserved": 0, "fusion_lon": 0.0, "fusion_lat": 0.0, "lon": -77.05302866666666, "name": "b6ed3b5e6c2cd0f237a939d88bbba26a"}, {"bike_id": "0f40efee730b3c4b124f2a2b83e0e0b7", "type": "electric_scooter", "is_disabled": 0, "lat": 38.900851333333335, "rental_uris": {"ios": "https://dc.lft.to/lastmile_qr_scan", "android": "https://dc.lft.to/lastmile_qr_scan"}, "is_reserved": 0, "fusion_lon": 0.0, "fusion_lat": 0.0, "lon": -77.01938233333334, "name": "0f40efee730b3c4b124f2a2b83e0e0b7"}, {"bike_id": "c92ed9ada1cc9fdd89cd253deb4398b3", "type": "electric_scooter", "is_disabled": 0, "lat": 38.920431, "rental_uris": {"ios": "https://dc.lft.to/lastmile_qr_scan", "android": "https://dc.lft.to/lastmile_qr_scan"}, "is_reserved": 0, "fusion_lon": 0.0, "fusion_lat": 0.0, "lon": -77.04197116666667, "name": "c92ed9ada1cc9fdd89cd253deb4398b3"}, {"bike_id": "c58110c02c55a84f046c49a0d7a169d8", "type": "electric_scooter", "is_disabled": 0, "lat": 38.931380833333336, "rental_uris": {"ios": "https://dc.lft.to/lastmile_qr_scan", "android": "https://dc.lft.to/lastmile_qr_scan"}, "is_reserved": 0, "fusion_lon": 0.0, "fusion_lat": 0.0, "lon": -77.0424265, "name": "c58110c02c55a84f046c49a0d7a169d8"}, {"bike_id": "5195c5ee96a484fac40a5bbdb05fcf27", "type": "electric_scooter", "is_disabled": 0, "lat": 38.8996815, "rental_uris": {"ios": "https://dc.lft.to/lastmile_qr_scan", "android": "https://dc.lft.to/lastmile_qr_scan"}, "is_reserved": 0, "fusion_lon": 0.0, "fusion_lat": 0.0, "lon": -77.019125, "name": "5195c5ee96a484fac40a5bbdb05fcf27"}, {"bike_id": "0d402cbaaf6195c0401b1023eae4f6d7", "type": "electric_scooter", "is_disabled": 0, "lat": 38.92114, "rental_uris": {"ios": "https://dc.lft.to/lastmile_qr_scan", "android": "https://dc.lft.to/lastmile_qr_scan"}, "is_reserved": 0, "fusion_lon": 0.0, "fusion_lat": 0.0, "lon": -76.99446383333333, "name": "0d402cbaaf6195c0401b1023eae4f6d7"}, {"bike_id": "d47dfe7e6f9fc180fd0f7f36a83321b6", "type": "electric_scooter", "is_disabled": 0, "lat": 38.92844383333333, "rental_uris": {"ios": "https://dc.lft.to/lastmile_qr_scan", "android": "https://dc.lft.to/lastmile_qr_scan"}, "is_reserved": 0, "fusion_lon": 0.0, "fusion_lat": 0.0, "lon": -77.03267566666666, "name": "d47dfe7e6f9fc180fd0f7f36a83321b6"}, {"bike_id": "e68af9fcbdec03ed6a782bea029b5564", "type": "electric_scooter", "is_disabled": 0, "lat": 38.918542333333335, "rental_uris": {"ios": "https://dc.lft.to/lastmile_qr_scan", "android": "https://dc.lft.to/lastmile_qr_scan"}, "is_reserved": 0, "fusion_lon": 0.0, "fusion_lat": 0.0, "lon": -77.02452433333333, "name": "e68af9fcbdec03ed6a782bea029b5564"}, {"bike_id": "481841b273c62ea3be9010aa58eb5b65", "type": "electric_scooter", "is_disabled": 0, "lat": 38.915634, "rental_uris": {"ios": "https://dc.lft.to/lastmile_qr_scan", "android": "https://dc.lft.to/lastmile_qr_scan"}, "is_reserved": 0, "fusion_lon": 0.0, "fusion_lat": 0.0, "lon": -77.06762416666666, "name": "481841b273c62ea3be9010aa58eb5b65"}, {"bike_id": "b436e32e69dc82808f19320f0d4e18a3", "type": "electric_scooter", "is_disabled": 0, "lat": 38.89599883333333, "rental_uris": {"ios": "https://dc.lft.to/lastmile_qr_scan", "android": "https://dc.lft.to/lastmile_qr_scan"}, "is_reserved": 0, "fusion_lon": 0.0, "fusion_lat": 0.0, "lon": -77.02804866666666, "name": "b436e32e69dc82808f19320f0d4e18a3"}, {"bike_id": "aea4339ebb417308465922715ff9598b", "type": "electric_scooter", "is_disabled": 0, "lat": 38.862080166666665, "rental_uris": {"ios": "https://dc.lft.to/lastmile_qr_scan", "android": "https://dc.lft.to/lastmile_qr_scan"}, "is_reserved": 0, "fusion_lon": 0.0, "fusion_lat": 0.0, "lon": -76.99468066666667, "name": "aea4339ebb417308465922715ff9598b"}, {"bike_id": "3f538359fad37dc1378c8f38f090a609", "type": "electric_bike", "is_disabled": 0, "lat": 38.86617416666667, "rental_uris": {"ios": "https://dc.lft.to/lastmile_qr_scan", "android": "https://dc.lft.to/lastmile_qr_scan"}, "is_reserved": 0, "fusion_lon": 0.0, "fusion_lat": 0.0, "lon": -76.94566083333333, "name": "3f538359fad37dc1378c8f38f090a609"}, {"bike_id": "a2fdfa0f7f3440fa2f3ec15d67487be2", "type": "electric_scooter", "is_disabled": 0, "lat": 38.898843666666664, "rental_uris": {"ios": "https://dc.lft.to/lastmile_qr_scan", "android": "https://dc.lft.to/lastmile_qr_scan"}, "is_reserved": 0, "fusion_lon": 0.0, "fusion_lat": 0.0, "lon": -76.93179733333334, "name": "a2fdfa0f7f3440fa2f3ec15d67487be2"}, {"bike_id": "cb3a3fa5174cce3f615fb59960e8b728", "type": "electric_scooter", "is_disabled": 0, "lat": 38.9199135, "rental_uris": {"ios": "https://dc.lft.to/lastmile_qr_scan", "android": "https://dc.lft.to/lastmile_qr_scan"}, "is_reserved": 0, "fusion_lon": 0.0, "fusion_lat": 0.0, "lon": -77.0222865, "name": "cb3a3fa5174cce3f615fb59960e8b728"}, {"bike_id": "6844c7339f9ba3bab153035155ab1b51", "type": "electric_scooter", "is_disabled": 0, "lat": 38.9279535, "rental_uris": {"ios": "https://dc.lft.to/lastmile_qr_scan", "android": "https://dc.lft.to/lastmile_qr_scan"}, "is_reserved": 0, "fusion_lon": 0.0, "fusion_lat": 0.0, "lon": -77.02601066666666, "name": "6844c7339f9ba3bab153035155ab1b51"}, {"bike_id": "3cf9d5789834238d5baae86ebbb86571", "type": "electric_scooter", "is_disabled": 0, "lat": 38.9092525, "rental_uris": {"ios": "https://dc.lft.to/lastmile_qr_scan", "android": "https://dc.lft.to/lastmile_qr_scan"}, "is_reserved": 0, "fusion_lon": 0.0, "fusion_lat": 0.0, "lon": -77.060806, "name": "3cf9d5789834238d5baae86ebbb86571"}, {"bike_id": "d9c54bcfa4cbe1e9468b3ae3094a9a6b", "type": "electric_scooter", "is_disabled": 0, "lat": 38.903370833333334, "rental_uris": {"ios": "https://dc.lft.to/lastmile_qr_scan", "android": "https://dc.lft.to/lastmile_qr_scan"}, "is_reserved": 0, "fusion_lon": 0.0, "fusion_lat": 0.0, "lon": -77.061909, "name": "d9c54bcfa4cbe1e9468b3ae3094a9a6b"}, {"bike_id": "7b6ff00881db9a3a46e98ca84ac85493", "type": "electric_scooter", "is_disabled": 0, "lat": 38.9291695, "rental_uris": {"ios": "https://dc.lft.to/lastmile_qr_scan", "android": "https://dc.lft.to/lastmile_qr_scan"}, "is_reserved": 0, "fusion_lon": 0.0, "fusion_lat": 0.0, "lon": -77.020893, "name": "7b6ff00881db9a3a46e98ca84ac85493"}, {"bike_id": "8465d6c11ba21439e0d0deb6bb3c4d11", "type": "electric_scooter", "is_disabled": 0, "lat": 38.923708500000004, "rental_uris": {"ios": "https://dc.lft.to/lastmile_qr_scan", "android": "https://dc.lft.to/lastmile_qr_scan"}, "is_reserved": 0, "fusion_lon": 0.0, "fusion_lat": 0.0, "lon": -77.051469, "name": "8465d6c11ba21439e0d0deb6bb3c4d11"}, {"bike_id": "ac8e513a6eb57095be811bddfc43c0b7", "type": "electric_scooter", "is_disabled": 0, "lat": 38.911081, "rental_uris": {"ios": "https://dc.lft.to/lastmile_qr_scan", "android": "https://dc.lft.to/lastmile_qr_scan"}, "is_reserved": 0, "fusion_lon": 0.0, "fusion_lat": 0.0, "lon": -77.03829583333334, "name": "ac8e513a6eb57095be811bddfc43c0b7"}, {"bike_id": "67c6f46176352f9c7b14a4436d96e52e", "type": "electric_scooter", "is_disabled": 0, "lat": 38.92602516666667, "rental_uris": {"ios": "https://dc.lft.to/lastmile_qr_scan", "android": "https://dc.lft.to/lastmile_qr_scan"}, "is_reserved": 0, "fusion_lon": 0.0, "fusion_lat": 0.0, "lon": -77.07312783333333, "name": "67c6f46176352f9c7b14a4436d96e52e"}, {"bike_id": "065911ac5175fb0fdbb3deb067f8b6ed", "type": "electric_scooter", "is_disabled": 0, "lat": 38.92661016666667, "rental_uris": {"ios": "https://dc.lft.to/lastmile_qr_scan", "android": "https://dc.lft.to/lastmile_qr_scan"}, "is_reserved": 0, "fusion_lon": 0.0, "fusion_lat": 0.0, "lon": -77.02409466666667, "name": "065911ac5175fb0fdbb3deb067f8b6ed"}, {"bike_id": "f32e69c9fe8be7fd4d87441c8951d242", "type": "electric_scooter", "is_disabled": 0, "lat": 38.887723666666666, "rental_uris": {"ios": "https://dc.lft.to/lastmile_qr_scan", "android": "https://dc.lft.to/lastmile_qr_scan"}, "is_reserved": 0, "fusion_lon": 0.0, "fusion_lat": 0.0, "lon": -77.01722416666667, "name": "f32e69c9fe8be7fd4d87441c8951d242"}, {"bike_id": "a8d183fb0d2f775219919b1096260b3b", "type": "electric_scooter", "is_disabled": 0, "lat": 38.92153533333333, "rental_uris": {"ios": "https://dc.lft.to/lastmile_qr_scan", "android": "https://dc.lft.to/lastmile_qr_scan"}, "is_reserved": 0, "fusion_lon": 0.0, "fusion_lat": 0.0, "lon": -77.03518383333333, "name": "a8d183fb0d2f775219919b1096260b3b"}, {"bike_id": "63b5de93d1ff7891191736a530feb26a", "type": "electric_scooter", "is_disabled": 0, "lat": 38.88739483333333, "rental_uris": {"ios": "https://dc.lft.to/lastmile_qr_scan", "android": "https://dc.lft.to/lastmile_qr_scan"}, "is_reserved": 0, "fusion_lon": 0.0, "fusion_lat": 0.0, "lon": -77.02318666666666, "name": "63b5de93d1ff7891191736a530feb26a"}, {"bike_id": "8ba6c1afd5d39c362a741c8d33da7a5b", "type": "electric_scooter", "is_disabled": 0, "lat": 38.92334916666667, "rental_uris": {"ios": "https://dc.lft.to/lastmile_qr_scan", "android": "https://dc.lft.to/lastmile_qr_scan"}, "is_reserved": 0, "fusion_lon": 0.0, "fusion_lat": 0.0, "lon": -77.02694633333333, "name": "8ba6c1afd5d39c362a741c8d33da7a5b"}, {"bike_id": "46df86e6131936300c015d15278f959a", "type": "electric_scooter", "is_disabled": 0, "lat": 38.916949333333335, "rental_uris": {"ios": "https://dc.lft.to/lastmile_qr_scan", "android": "https://dc.lft.to/lastmile_qr_scan"}, "is_reserved": 0, "fusion_lon": 0.0, "fusion_lat": 0.0, "lon": -77.04109, "name": "46df86e6131936300c015d15278f959a"}, {"bike_id": "0deec3010f98dbbbb1d2623ae109f620", "type": "electric_scooter", "is_disabled": 0, "lat": 38.898429166666666, "rental_uris": {"ios": "https://dc.lft.to/lastmile_qr_scan", "android": "https://dc.lft.to/lastmile_qr_scan"}, "is_reserved": 0, "fusion_lon": 0.0, "fusion_lat": 0.0, "lon": -77.0225045, "name": "0deec3010f98dbbbb1d2623ae109f620"}, {"bike_id": "3dfec21780ed5bb47b251169ec5428a5", "type": "electric_scooter", "is_disabled": 0, "lat": 38.86471316666667, "rental_uris": {"ios": "https://dc.lft.to/lastmile_qr_scan", "android": "https://dc.lft.to/lastmile_qr_scan"}, "is_reserved": 0, "fusion_lon": 0.0, "fusion_lat": 0.0, "lon": -77.00009716666666, "name": "3dfec21780ed5bb47b251169ec5428a5"}, {"bike_id": "a4e35e25fcbdf601f607430b67a4ac3b", "type": "electric_scooter", "is_disabled": 0, "lat": 38.90106766666667, "rental_uris": {"ios": "https://dc.lft.to/lastmile_qr_scan", "android": "https://dc.lft.to/lastmile_qr_scan"}, "is_reserved": 0, "fusion_lon": 0.0, "fusion_lat": 0.0, "lon": -77.03863166666666, "name": "a4e35e25fcbdf601f607430b67a4ac3b"}, {"bike_id": "49c4251ab6a5fb6b1e177cebaa569624", "type": "electric_scooter", "is_disabled": 0, "lat": 38.923618, "rental_uris": {"ios": "https://dc.lft.to/lastmile_qr_scan", "android": "https://dc.lft.to/lastmile_qr_scan"}, "is_reserved": 0, "fusion_lon": 0.0, "fusion_lat": 0.0, "lon": -77.05127383333334, "name": "49c4251ab6a5fb6b1e177cebaa569624"}, {"bike_id": "ab2d1d92870db58b7f92aea1d882c9f7", "type": "electric_scooter", "is_disabled": 0, "lat": 38.93948833333334, "rental_uris": {"ios": "https://dc.lft.to/lastmile_qr_scan", "android": "https://dc.lft.to/lastmile_qr_scan"}, "is_reserved": 0, "fusion_lon": 0.0, "fusion_lat": 0.0, "lon": -77.07245283333333, "name": "ab2d1d92870db58b7f92aea1d882c9f7"}, {"bike_id": "1b9fbef4401879b7e3c2734d332b32c1", "type": "electric_bike", "is_disabled": 0, "lat": 38.88668933333334, "rental_uris": {"ios": "https://dc.lft.to/lastmile_qr_scan", "android": "https://dc.lft.to/lastmile_qr_scan"}, "is_reserved": 0, "fusion_lon": 0.0, "fusion_lat": 0.0, "lon": -77.162604, "name": "1b9fbef4401879b7e3c2734d332b32c1"}, {"bike_id": "49b2e9dee993830752cd28a0faa60323", "type": "electric_scooter", "is_disabled": 0, "lat": 38.90551383333333, "rental_uris": {"ios": "https://dc.lft.to/lastmile_qr_scan", "android": "https://dc.lft.to/lastmile_qr_scan"}, "is_reserved": 0, "fusion_lon": 0.0, "fusion_lat": 0.0, "lon": -77.0569805, "name": "49b2e9dee993830752cd28a0faa60323"}, {"bike_id": "bcb25af2cc577c208b138a58a08ce324", "type": "electric_scooter", "is_disabled": 0, "lat": 38.91607066666667, "rental_uris": {"ios": "https://dc.lft.to/lastmile_qr_scan", "android": "https://dc.lft.to/lastmile_qr_scan"}, "is_reserved": 0, "fusion_lon": 0.0, "fusion_lat": 0.0, "lon": -77.03196233333334, "name": "bcb25af2cc577c208b138a58a08ce324"}, {"bike_id": "ec0d0e7165764ae13e2651780e80fd46", "type": "electric_scooter", "is_disabled": 0, "lat": 38.9181355, "rental_uris": {"ios": "https://dc.lft.to/lastmile_qr_scan", "android": "https://dc.lft.to/lastmile_qr_scan"}, "is_reserved": 0, "fusion_lon": 0.0, "fusion_lat": 0.0, "lon": -77.0247675, "name": "ec0d0e7165764ae13e2651780e80fd46"}, {"bike_id": "53c29cc6ed7c8521ce9042d4bec2af44", "type": "electric_scooter", "is_disabled": 0, "lat": 38.91403316666667, "rental_uris": {"ios": "https://dc.lft.to/lastmile_qr_scan", "android": "https://dc.lft.to/lastmile_qr_scan"}, "is_reserved": 0, "fusion_lon": 0.0, "fusion_lat": 0.0, "lon": -77.03223416666667, "name": "53c29cc6ed7c8521ce9042d4bec2af44"}, {"bike_id": "9dfa251771f0e083387edc2f6b178552", "type": "electric_scooter", "is_disabled": 0, "lat": 38.8738445, "rental_uris": {"ios": "https://dc.lft.to/lastmile_qr_scan", "android": "https://dc.lft.to/lastmile_qr_scan"}, "is_reserved": 0, "fusion_lon": 0.0, "fusion_lat": 0.0, "lon": -77.0433135, "name": "9dfa251771f0e083387edc2f6b178552"}, {"bike_id": "e3e693cef8ee35b588c4ad61928e2d5b", "type": "electric_bike", "is_disabled": 0, "lat": 38.83425, "rental_uris": {"ios": "https://dc.lft.to/lastmile_qr_scan", "android": "https://dc.lft.to/lastmile_qr_scan"}, "is_reserved": 0, "fusion_lon": 0.0, "fusion_lat": 0.0, "lon": -77.05883483333334, "name": "e3e693cef8ee35b588c4ad61928e2d5b"}, {"bike_id": "7c90d3998c0c46fff4a8b34500627c8f", "type": "electric_scooter", "is_disabled": 0, "lat": 38.900818666666666, "rental_uris": {"ios": "https://dc.lft.to/lastmile_qr_scan", "android": "https://dc.lft.to/lastmile_qr_scan"}, "is_reserved": 0, "fusion_lon": 0.0, "fusion_lat": 0.0, "lon": -76.9833725, "name": "7c90d3998c0c46fff4a8b34500627c8f"}, {"bike_id": "c4876773a5a67f9e76dcbc784e806c99", "type": "electric_scooter", "is_disabled": 0, "lat": 38.9366935, "rental_uris": {"ios": "https://dc.lft.to/lastmile_qr_scan", "android": "https://dc.lft.to/lastmile_qr_scan"}, "is_reserved": 0, "fusion_lon": 0.0, "fusion_lat": 0.0, "lon": -77.02450783333333, "name": "c4876773a5a67f9e76dcbc784e806c99"}, {"bike_id": "12db21568e3c6ad417017e4673df04e9", "type": "electric_scooter", "is_disabled": 0, "lat": 38.878198166666664, "rental_uris": {"ios": "https://dc.lft.to/lastmile_qr_scan", "android": "https://dc.lft.to/lastmile_qr_scan"}, "is_reserved": 0, "fusion_lon": 0.0, "fusion_lat": 0.0, "lon": -77.02228866666667, "name": "12db21568e3c6ad417017e4673df04e9"}, {"bike_id": "e3fadfb360fb2bd66ac138ab413911cd", "type": "electric_scooter", "is_disabled": 0, "lat": 38.892241, "rental_uris": {"ios": "https://dc.lft.to/lastmile_qr_scan", "android": "https://dc.lft.to/lastmile_qr_scan"}, "is_reserved": 0, "fusion_lon": 0.0, "fusion_lat": 0.0, "lon": -77.04516366666667, "name": "e3fadfb360fb2bd66ac138ab413911cd"}, {"bike_id": "64c9472685e7b1d01f8787a303555016", "type": "electric_scooter", "is_disabled": 0, "lat": 38.92242933333333, "rental_uris": {"ios": "https://dc.lft.to/lastmile_qr_scan", "android": "https://dc.lft.to/lastmile_qr_scan"}, "is_reserved": 0, "fusion_lon": 0.0, "fusion_lat": 0.0, "lon": -77.04270516666666, "name": "64c9472685e7b1d01f8787a303555016"}, {"bike_id": "1904b0abe240c32b01bbefd8e2fa6936", "type": "electric_scooter", "is_disabled": 0, "lat": 38.9013765, "rental_uris": {"ios": "https://dc.lft.to/lastmile_qr_scan", "android": "https://dc.lft.to/lastmile_qr_scan"}, "is_reserved": 0, "fusion_lon": 0.0, "fusion_lat": 0.0, "lon": -77.06075766666666, "name": "1904b0abe240c32b01bbefd8e2fa6936"}, {"bike_id": "e8bc216a2332549a22abc1f3316cbce4", "type": "electric_scooter", "is_disabled": 0, "lat": 38.8933875, "rental_uris": {"ios": "https://dc.lft.to/lastmile_qr_scan", "android": "https://dc.lft.to/lastmile_qr_scan"}, "is_reserved": 0, "fusion_lon": 0.0, "fusion_lat": 0.0, "lon": -76.950594, "name": "e8bc216a2332549a22abc1f3316cbce4"}, {"bike_id": "7727d7681f91feea36577f6bd2b6a41a", "type": "electric_scooter", "is_disabled": 0, "lat": 38.900534666666665, "rental_uris": {"ios": "https://dc.lft.to/lastmile_qr_scan", "android": "https://dc.lft.to/lastmile_qr_scan"}, "is_reserved": 0, "fusion_lon": 0.0, "fusion_lat": 0.0, "lon": -77.0130355, "name": "7727d7681f91feea36577f6bd2b6a41a"}, {"bike_id": "a9bc50a9940ff9cfac76d1bf54e7d8db", "type": "electric_bike", "is_disabled": 0, "lat": 38.886352333333335, "rental_uris": {"ios": "https://dc.lft.to/lastmile_qr_scan", "android": "https://dc.lft.to/lastmile_qr_scan"}, "is_reserved": 0, "fusion_lon": 0.0, "fusion_lat": 0.0, "lon": -77.12985683333333, "name": "a9bc50a9940ff9cfac76d1bf54e7d8db"}, {"bike_id": "db481d25934b7c15af54c219d79b9593", "type": "electric_scooter", "is_disabled": 0, "lat": 38.8762975, "rental_uris": {"ios": "https://dc.lft.to/lastmile_qr_scan", "android": "https://dc.lft.to/lastmile_qr_scan"}, "is_reserved": 0, "fusion_lon": 0.0, "fusion_lat": 0.0, "lon": -76.96523666666667, "name": "db481d25934b7c15af54c219d79b9593"}, {"bike_id": "6d0f6be5c3d81fb3dd6b8d9a3e6dd04e", "type": "electric_scooter", "is_disabled": 0, "lat": 38.900658666666665, "rental_uris": {"ios": "https://dc.lft.to/lastmile_qr_scan", "android": "https://dc.lft.to/lastmile_qr_scan"}, "is_reserved": 0, "fusion_lon": 0.0, "fusion_lat": 0.0, "lon": -76.92743266666666, "name": "6d0f6be5c3d81fb3dd6b8d9a3e6dd04e"}, {"bike_id": "b63f62c5960ad1ba5c52726beeb3f371", "type": "electric_scooter", "is_disabled": 0, "lat": 38.939276, "rental_uris": {"ios": "https://dc.lft.to/lastmile_qr_scan", "android": "https://dc.lft.to/lastmile_qr_scan"}, "is_reserved": 0, "fusion_lon": 0.0, "fusion_lat": 0.0, "lon": -77.03679033333333, "name": "b63f62c5960ad1ba5c52726beeb3f371"}, {"bike_id": "89966c8e64b1147dcd8b636d89d32ba7", "type": "electric_scooter", "is_disabled": 0, "lat": 38.94993516666667, "rental_uris": {"ios": "https://dc.lft.to/lastmile_qr_scan", "android": "https://dc.lft.to/lastmile_qr_scan"}, "is_reserved": 0, "fusion_lon": 0.0, "fusion_lat": 0.0, "lon": -77.01830316666667, "name": "89966c8e64b1147dcd8b636d89d32ba7"}, {"bike_id": "cb31b9c4a8e88d606676f84b4050e833", "type": "electric_scooter", "is_disabled": 0, "lat": 38.905865666666664, "rental_uris": {"ios": "https://dc.lft.to/lastmile_qr_scan", "android": "https://dc.lft.to/lastmile_qr_scan"}, "is_reserved": 0, "fusion_lon": 0.0, "fusion_lat": 0.0, "lon": -77.05144933333334, "name": "cb31b9c4a8e88d606676f84b4050e833"}, {"bike_id": "b9b957527c2439133d431551b0d52c5a", "type": "electric_scooter", "is_disabled": 0, "lat": 38.9170405, "rental_uris": {"ios": "https://dc.lft.to/lastmile_qr_scan", "android": "https://dc.lft.to/lastmile_qr_scan"}, "is_reserved": 0, "fusion_lon": 0.0, "fusion_lat": 0.0, "lon": -77.02402016666667, "name": "b9b957527c2439133d431551b0d52c5a"}, {"bike_id": "8b36f2166eab2b768abebf75a8c2eebb", "type": "electric_scooter", "is_disabled": 0, "lat": 38.91706466666667, "rental_uris": {"ios": "https://dc.lft.to/lastmile_qr_scan", "android": "https://dc.lft.to/lastmile_qr_scan"}, "is_reserved": 0, "fusion_lon": 0.0, "fusion_lat": 0.0, "lon": -77.03487383333334, "name": "8b36f2166eab2b768abebf75a8c2eebb"}, {"bike_id": "a703b68dad882d1c3bc82d7faef8c2c7", "type": "electric_bike", "is_disabled": 0, "lat": 38.909844666666665, "rental_uris": {"ios": "https://dc.lft.to/lastmile_qr_scan", "android": "https://dc.lft.to/lastmile_qr_scan"}, "is_reserved": 0, "fusion_lon": 0.0, "fusion_lat": 0.0, "lon": -77.04633183333333, "name": "a703b68dad882d1c3bc82d7faef8c2c7"}, {"bike_id": "c7be97eb265f8dbf6405a2c4f3b47b82", "type": "electric_scooter", "is_disabled": 0, "lat": 38.9050105, "rental_uris": {"ios": "https://dc.lft.to/lastmile_qr_scan", "android": "https://dc.lft.to/lastmile_qr_scan"}, "is_reserved": 0, "fusion_lon": 0.0, "fusion_lat": 0.0, "lon": -77.06887166666667, "name": "c7be97eb265f8dbf6405a2c4f3b47b82"}, {"bike_id": "9508623c6c4f50d9ebf4dc280611a251", "type": "electric_scooter", "is_disabled": 0, "lat": 38.91629416666667, "rental_uris": {"ios": "https://dc.lft.to/lastmile_qr_scan", "android": "https://dc.lft.to/lastmile_qr_scan"}, "is_reserved": 0, "fusion_lon": 0.0, "fusion_lat": 0.0, "lon": -77.03965533333333, "name": "9508623c6c4f50d9ebf4dc280611a251"}, {"bike_id": "159ea9aecd0c3b4c3a1c0d077dda0c73", "type": "electric_scooter", "is_disabled": 0, "lat": 38.90996066666666, "rental_uris": {"ios": "https://dc.lft.to/lastmile_qr_scan", "android": "https://dc.lft.to/lastmile_qr_scan"}, "is_reserved": 0, "fusion_lon": 0.0, "fusion_lat": 0.0, "lon": -77.04012, "name": "159ea9aecd0c3b4c3a1c0d077dda0c73"}, {"bike_id": "c3c14837aaefec44c49c7d2e7e65f728", "type": "electric_scooter", "is_disabled": 0, "lat": 38.923431666666666, "rental_uris": {"ios": "https://dc.lft.to/lastmile_qr_scan", "android": "https://dc.lft.to/lastmile_qr_scan"}, "is_reserved": 0, "fusion_lon": 0.0, "fusion_lat": 0.0, "lon": -77.05248766666666, "name": "c3c14837aaefec44c49c7d2e7e65f728"}, {"bike_id": "8cd474bf0c5a530203a481e5edd129b2", "type": "electric_bike", "is_disabled": 0, "lat": 38.92403, "rental_uris": {"ios": "https://dc.lft.to/lastmile_qr_scan", "android": "https://dc.lft.to/lastmile_qr_scan"}, "is_reserved": 0, "fusion_lon": 0.0, "fusion_lat": 0.0, "lon": -77.040314, "name": "8cd474bf0c5a530203a481e5edd129b2"}, {"bike_id": "ee0f83aae00365ce20584e06f6b97c2d", "type": "electric_scooter", "is_disabled": 0, "lat": 38.90147116666667, "rental_uris": {"ios": "https://dc.lft.to/lastmile_qr_scan", "android": "https://dc.lft.to/lastmile_qr_scan"}, "is_reserved": 0, "fusion_lon": 0.0, "fusion_lat": 0.0, "lon": -77.01598433333334, "name": "ee0f83aae00365ce20584e06f6b97c2d"}, {"bike_id": "5e69459181844dad6c5120676d690f41", "type": "electric_scooter", "is_disabled": 0, "lat": 38.92863466666667, "rental_uris": {"ios": "https://dc.lft.to/lastmile_qr_scan", "android": "https://dc.lft.to/lastmile_qr_scan"}, "is_reserved": 0, "fusion_lon": 0.0, "fusion_lat": 0.0, "lon": -77.0344185, "name": "5e69459181844dad6c5120676d690f41"}, {"bike_id": "cdbf3f3257b4707ef1a22e1c2aa79fc2", "type": "electric_scooter", "is_disabled": 0, "lat": 38.9318005, "rental_uris": {"ios": "https://dc.lft.to/lastmile_qr_scan", "android": "https://dc.lft.to/lastmile_qr_scan"}, "is_reserved": 0, "fusion_lon": 0.0, "fusion_lat": 0.0, "lon": -77.02032766666666, "name": "cdbf3f3257b4707ef1a22e1c2aa79fc2"}, {"bike_id": "0c42bc8ff1c354137fee0209c7e9bea6", "type": "electric_scooter", "is_disabled": 0, "lat": 38.86701883333333, "rental_uris": {"ios": "https://dc.lft.to/lastmile_qr_scan", "android": "https://dc.lft.to/lastmile_qr_scan"}, "is_reserved": 0, "fusion_lon": 0.0, "fusion_lat": 0.0, "lon": -77.01009783333333, "name": "0c42bc8ff1c354137fee0209c7e9bea6"}, {"bike_id": "4868646273a863f848f4162af691c01b", "type": "electric_scooter", "is_disabled": 0, "lat": 38.92442966666667, "rental_uris": {"ios": "https://dc.lft.to/lastmile_qr_scan", "android": "https://dc.lft.to/lastmile_qr_scan"}, "is_reserved": 0, "fusion_lon": 0.0, "fusion_lat": 0.0, "lon": -77.0401585, "name": "4868646273a863f848f4162af691c01b"}, {"bike_id": "84b8ed78f0a0a7667277b273251101f9", "type": "electric_scooter", "is_disabled": 0, "lat": 38.905532666666666, "rental_uris": {"ios": "https://dc.lft.to/lastmile_qr_scan", "android": "https://dc.lft.to/lastmile_qr_scan"}, "is_reserved": 0, "fusion_lon": 0.0, "fusion_lat": 0.0, "lon": -77.04421266666667, "name": "84b8ed78f0a0a7667277b273251101f9"}, {"bike_id": "963e3890f01ca00b27b6359eafc8779f", "type": "electric_scooter", "is_disabled": 0, "lat": 38.886387166666665, "rental_uris": {"ios": "https://dc.lft.to/lastmile_qr_scan", "android": "https://dc.lft.to/lastmile_qr_scan"}, "is_reserved": 0, "fusion_lon": 0.0, "fusion_lat": 0.0, "lon": -77.02139233333334, "name": "963e3890f01ca00b27b6359eafc8779f"}, {"bike_id": "e75fd8d8ca9e4b2a07a793fb374c1ac1", "type": "electric_scooter", "is_disabled": 0, "lat": 38.891957, "rental_uris": {"ios": "https://dc.lft.to/lastmile_qr_scan", "android": "https://dc.lft.to/lastmile_qr_scan"}, "is_reserved": 0, "fusion_lon": 0.0, "fusion_lat": 0.0, "lon": -77.02499683333333, "name": "e75fd8d8ca9e4b2a07a793fb374c1ac1"}, {"bike_id": "7e9307afd6baa37c8e084ce269f3199a", "type": "electric_scooter", "is_disabled": 0, "lat": 38.871775166666666, "rental_uris": {"ios": "https://dc.lft.to/lastmile_qr_scan", "android": "https://dc.lft.to/lastmile_qr_scan"}, "is_reserved": 0, "fusion_lon": 0.0, "fusion_lat": 0.0, "lon": -77.0061725, "name": "7e9307afd6baa37c8e084ce269f3199a"}, {"bike_id": "ad5f84526d931009a877630aded3891d", "type": "electric_scooter", "is_disabled": 0, "lat": 38.875127, "rental_uris": {"ios": "https://dc.lft.to/lastmile_qr_scan", "android": "https://dc.lft.to/lastmile_qr_scan"}, "is_reserved": 0, "fusion_lon": 0.0, "fusion_lat": 0.0, "lon": -77.00046533333334, "name": "ad5f84526d931009a877630aded3891d"}, {"bike_id": "1f5eaae5625aa40198d5fe4218419145", "type": "electric_scooter", "is_disabled": 0, "lat": 38.933592833333336, "rental_uris": {"ios": "https://dc.lft.to/lastmile_qr_scan", "android": "https://dc.lft.to/lastmile_qr_scan"}, "is_reserved": 0, "fusion_lon": 0.0, "fusion_lat": 0.0, "lon": -77.08853083333334, "name": "1f5eaae5625aa40198d5fe4218419145"}, {"bike_id": "177c5a93009e4f6f78e25aebda9f0e26", "type": "electric_scooter", "is_disabled": 0, "lat": 38.907285, "rental_uris": {"ios": "https://dc.lft.to/lastmile_qr_scan", "android": "https://dc.lft.to/lastmile_qr_scan"}, "is_reserved": 0, "fusion_lon": 0.0, "fusion_lat": 0.0, "lon": -77.025145, "name": "177c5a93009e4f6f78e25aebda9f0e26"}, {"bike_id": "dd2d0c3a27a0619619d0c2fa725aaccf", "type": "electric_scooter", "is_disabled": 0, "lat": 38.9719255, "rental_uris": {"ios": "https://dc.lft.to/lastmile_qr_scan", "android": "https://dc.lft.to/lastmile_qr_scan"}, "is_reserved": 0, "fusion_lon": 0.0, "fusion_lat": 0.0, "lon": -77.02665116666667, "name": "dd2d0c3a27a0619619d0c2fa725aaccf"}, {"bike_id": "6ac00cf76c94d9adfa6cf71bdde7b0ee", "type": "electric_scooter", "is_disabled": 0, "lat": 38.91476333333333, "rental_uris": {"ios": "https://dc.lft.to/lastmile_qr_scan", "android": "https://dc.lft.to/lastmile_qr_scan"}, "is_reserved": 0, "fusion_lon": 0.0, "fusion_lat": 0.0, "lon": -77.01986616666667, "name": "6ac00cf76c94d9adfa6cf71bdde7b0ee"}, {"bike_id": "b49085a7b80acfebb7ddd9c7eadf22e4", "type": "electric_scooter", "is_disabled": 0, "lat": 38.913296, "rental_uris": {"ios": "https://dc.lft.to/lastmile_qr_scan", "android": "https://dc.lft.to/lastmile_qr_scan"}, "is_reserved": 0, "fusion_lon": 0.0, "fusion_lat": 0.0, "lon": -77.03186983333333, "name": "b49085a7b80acfebb7ddd9c7eadf22e4"}, {"bike_id": "71959590f13e27a747574209295daf6e", "type": "electric_scooter", "is_disabled": 0, "lat": 38.86630533333334, "rental_uris": {"ios": "https://dc.lft.to/lastmile_qr_scan", "android": "https://dc.lft.to/lastmile_qr_scan"}, "is_reserved": 0, "fusion_lon": 0.0, "fusion_lat": 0.0, "lon": -76.98720783333333, "name": "71959590f13e27a747574209295daf6e"}, {"bike_id": "67acc3975dd447796ed812f4b322d63b", "type": "electric_scooter", "is_disabled": 0, "lat": 38.8670105, "rental_uris": {"ios": "https://dc.lft.to/lastmile_qr_scan", "android": "https://dc.lft.to/lastmile_qr_scan"}, "is_reserved": 0, "fusion_lon": 0.0, "fusion_lat": 0.0, "lon": -76.987102, "name": "67acc3975dd447796ed812f4b322d63b"}, {"bike_id": "45edd992b74024a89acabb7455ab771b", "type": "electric_scooter", "is_disabled": 0, "lat": 38.93842983333333, "rental_uris": {"ios": "https://dc.lft.to/lastmile_qr_scan", "android": "https://dc.lft.to/lastmile_qr_scan"}, "is_reserved": 0, "fusion_lon": 0.0, "fusion_lat": 0.0, "lon": -77.03385283333333, "name": "45edd992b74024a89acabb7455ab771b"}, {"bike_id": "560aa15b406dff8b7c2777ee5f169297", "type": "electric_scooter", "is_disabled": 0, "lat": 38.91330383333333, "rental_uris": {"ios": "https://dc.lft.to/lastmile_qr_scan", "android": "https://dc.lft.to/lastmile_qr_scan"}, "is_reserved": 0, "fusion_lon": 0.0, "fusion_lat": 0.0, "lon": -77.03647966666666, "name": "560aa15b406dff8b7c2777ee5f169297"}, {"bike_id": "9fe22e5096a1de58a75aa20d9ff42acd", "type": "electric_scooter", "is_disabled": 0, "lat": 38.898830833333335, "rental_uris": {"ios": "https://dc.lft.to/lastmile_qr_scan", "android": "https://dc.lft.to/lastmile_qr_scan"}, "is_reserved": 0, "fusion_lon": 0.0, "fusion_lat": 0.0, "lon": -76.93175, "name": "9fe22e5096a1de58a75aa20d9ff42acd"}, {"bike_id": "7ee3b76cdb41744e74dd02d266b23951", "type": "electric_scooter", "is_disabled": 0, "lat": 38.867023, "rental_uris": {"ios": "https://dc.lft.to/lastmile_qr_scan", "android": "https://dc.lft.to/lastmile_qr_scan"}, "is_reserved": 0, "fusion_lon": 0.0, "fusion_lat": 0.0, "lon": -76.98711866666666, "name": "7ee3b76cdb41744e74dd02d266b23951"}, {"bike_id": "c146658805fa94256b27acdb91a5d751", "type": "electric_bike", "is_disabled": 0, "lat": 38.96919416666667, "rental_uris": {"ios": "https://dc.lft.to/lastmile_qr_scan", "android": "https://dc.lft.to/lastmile_qr_scan"}, "is_reserved": 0, "fusion_lon": 0.0, "fusion_lat": 0.0, "lon": -76.95809783333333, "name": "c146658805fa94256b27acdb91a5d751"}, {"bike_id": "df26b4c6482959e782933915026042a5", "type": "electric_scooter", "is_disabled": 0, "lat": 38.862115833333334, "rental_uris": {"ios": "https://dc.lft.to/lastmile_qr_scan", "android": "https://dc.lft.to/lastmile_qr_scan"}, "is_reserved": 0, "fusion_lon": 0.0, "fusion_lat": 0.0, "lon": -76.99471766666667, "name": "df26b4c6482959e782933915026042a5"}, {"bike_id": "92f36145d7492dfb4c38307a43855fd5", "type": "electric_scooter", "is_disabled": 0, "lat": 38.917642, "rental_uris": {"ios": "https://dc.lft.to/lastmile_qr_scan", "android": "https://dc.lft.to/lastmile_qr_scan"}, "is_reserved": 0, "fusion_lon": 0.0, "fusion_lat": 0.0, "lon": -77.04769116666667, "name": "92f36145d7492dfb4c38307a43855fd5"}, {"bike_id": "008f636f6cb59803f544756a233b77d6", "type": "electric_scooter", "is_disabled": 0, "lat": 38.89554183333333, "rental_uris": {"ios": "https://dc.lft.to/lastmile_qr_scan", "android": "https://dc.lft.to/lastmile_qr_scan"}, "is_reserved": 0, "fusion_lon": 0.0, "fusion_lat": 0.0, "lon": -76.94928083333333, "name": "008f636f6cb59803f544756a233b77d6"}, {"bike_id": "70f43d669c6b34053b067e38a7e69852", "type": "electric_scooter", "is_disabled": 0, "lat": 38.918589, "rental_uris": {"ios": "https://dc.lft.to/lastmile_qr_scan", "android": "https://dc.lft.to/lastmile_qr_scan"}, "is_reserved": 0, "fusion_lon": 0.0, "fusion_lat": 0.0, "lon": -76.96114483333334, "name": "70f43d669c6b34053b067e38a7e69852"}, {"bike_id": "3cc9f5fd9b014fd2e97338872b3dfd66", "type": "electric_scooter", "is_disabled": 0, "lat": 38.89980033333333, "rental_uris": {"ios": "https://dc.lft.to/lastmile_qr_scan", "android": "https://dc.lft.to/lastmile_qr_scan"}, "is_reserved": 0, "fusion_lon": 0.0, "fusion_lat": 0.0, "lon": -77.02388016666667, "name": "3cc9f5fd9b014fd2e97338872b3dfd66"}, {"bike_id": "c2aeb062bd7ebe15855774f3616fff6d", "type": "electric_scooter", "is_disabled": 0, "lat": 38.902718666666665, "rental_uris": {"ios": "https://dc.lft.to/lastmile_qr_scan", "android": "https://dc.lft.to/lastmile_qr_scan"}, "is_reserved": 0, "fusion_lon": 0.0, "fusion_lat": 0.0, "lon": -77.06135983333333, "name": "c2aeb062bd7ebe15855774f3616fff6d"}, {"bike_id": "4e94521e441487fea293520e71dc44af", "type": "electric_scooter", "is_disabled": 0, "lat": 38.92038933333333, "rental_uris": {"ios": "https://dc.lft.to/lastmile_qr_scan", "android": "https://dc.lft.to/lastmile_qr_scan"}, "is_reserved": 0, "fusion_lon": 0.0, "fusion_lat": 0.0, "lon": -77.03397766666667, "name": "4e94521e441487fea293520e71dc44af"}, {"bike_id": "961f51233368896249b39279685905bd", "type": "electric_scooter", "is_disabled": 0, "lat": 38.92230516666667, "rental_uris": {"ios": "https://dc.lft.to/lastmile_qr_scan", "android": "https://dc.lft.to/lastmile_qr_scan"}, "is_reserved": 0, "fusion_lon": 0.0, "fusion_lat": 0.0, "lon": -77.04376366666666, "name": "961f51233368896249b39279685905bd"}, {"bike_id": "05f290a46e6d0f6561666311d2607d01", "type": "electric_scooter", "is_disabled": 0, "lat": 38.91549783333333, "rental_uris": {"ios": "https://dc.lft.to/lastmile_qr_scan", "android": "https://dc.lft.to/lastmile_qr_scan"}, "is_reserved": 0, "fusion_lon": 0.0, "fusion_lat": 0.0, "lon": -77.03855483333334, "name": "05f290a46e6d0f6561666311d2607d01"}, {"bike_id": "9dd8a0a9bb68b3483cb3d1cc606ac573", "type": "electric_scooter", "is_disabled": 0, "lat": 38.9400085, "rental_uris": {"ios": "https://dc.lft.to/lastmile_qr_scan", "android": "https://dc.lft.to/lastmile_qr_scan"}, "is_reserved": 0, "fusion_lon": 0.0, "fusion_lat": 0.0, "lon": -77.03806116666667, "name": "9dd8a0a9bb68b3483cb3d1cc606ac573"}, {"bike_id": "cf9584f728ae3758fbbe97305e0a5e4b", "type": "electric_scooter", "is_disabled": 0, "lat": 38.895473333333335, "rental_uris": {"ios": "https://dc.lft.to/lastmile_qr_scan", "android": "https://dc.lft.to/lastmile_qr_scan"}, "is_reserved": 0, "fusion_lon": 0.0, "fusion_lat": 0.0, "lon": -76.9295595, "name": "cf9584f728ae3758fbbe97305e0a5e4b"}, {"bike_id": "e57ae7125f01a43a6c0adbfcf28ed2a2", "type": "electric_scooter", "is_disabled": 0, "lat": 38.89492083333333, "rental_uris": {"ios": "https://dc.lft.to/lastmile_qr_scan", "android": "https://dc.lft.to/lastmile_qr_scan"}, "is_reserved": 0, "fusion_lon": 0.0, "fusion_lat": 0.0, "lon": -77.0005995, "name": "e57ae7125f01a43a6c0adbfcf28ed2a2"}, {"bike_id": "998d4d29d9623efdd26ebcdb976c33e4", "type": "electric_bike", "is_disabled": 0, "lat": 38.89743633333333, "rental_uris": {"ios": "https://dc.lft.to/lastmile_qr_scan", "android": "https://dc.lft.to/lastmile_qr_scan"}, "is_reserved": 0, "fusion_lon": 0.0, "fusion_lat": 0.0, "lon": -76.92047033333333, "name": "998d4d29d9623efdd26ebcdb976c33e4"}, {"bike_id": "5a0682fc341c1767277419268a3c1ce9", "type": "electric_scooter", "is_disabled": 0, "lat": 38.927860333333335, "rental_uris": {"ios": "https://dc.lft.to/lastmile_qr_scan", "android": "https://dc.lft.to/lastmile_qr_scan"}, "is_reserved": 0, "fusion_lon": 0.0, "fusion_lat": 0.0, "lon": -77.043277, "name": "5a0682fc341c1767277419268a3c1ce9"}, {"bike_id": "b7d9ec951a6535c16cffad7da394f308", "type": "electric_scooter", "is_disabled": 0, "lat": 38.892207, "rental_uris": {"ios": "https://dc.lft.to/lastmile_qr_scan", "android": "https://dc.lft.to/lastmile_qr_scan"}, "is_reserved": 0, "fusion_lon": 0.0, "fusion_lat": 0.0, "lon": -77.0436925, "name": "b7d9ec951a6535c16cffad7da394f308"}, {"bike_id": "e7bcd8a65b78d9a2aac0a4ba881814b4", "type": "electric_scooter", "is_disabled": 0, "lat": 38.927063, "rental_uris": {"ios": "https://dc.lft.to/lastmile_qr_scan", "android": "https://dc.lft.to/lastmile_qr_scan"}, "is_reserved": 0, "fusion_lon": 0.0, "fusion_lat": 0.0, "lon": -77.02324383333334, "name": "e7bcd8a65b78d9a2aac0a4ba881814b4"}, {"bike_id": "fc38d94edf55ea7e7faacbe294186d36", "type": "electric_scooter", "is_disabled": 0, "lat": 38.918171666666666, "rental_uris": {"ios": "https://dc.lft.to/lastmile_qr_scan", "android": "https://dc.lft.to/lastmile_qr_scan"}, "is_reserved": 0, "fusion_lon": 0.0, "fusion_lat": 0.0, "lon": -77.04947566666667, "name": "fc38d94edf55ea7e7faacbe294186d36"}, {"bike_id": "87771a0e417c275507927a8f5b711951", "type": "electric_scooter", "is_disabled": 0, "lat": 38.908717, "rental_uris": {"ios": "https://dc.lft.to/lastmile_qr_scan", "android": "https://dc.lft.to/lastmile_qr_scan"}, "is_reserved": 0, "fusion_lon": 0.0, "fusion_lat": 0.0, "lon": -76.99823733333334, "name": "87771a0e417c275507927a8f5b711951"}, {"bike_id": "a7b5de3a34eb61ca315b6f58f188f92a", "type": "electric_scooter", "is_disabled": 0, "lat": 38.90959216666667, "rental_uris": {"ios": "https://dc.lft.to/lastmile_qr_scan", "android": "https://dc.lft.to/lastmile_qr_scan"}, "is_reserved": 0, "fusion_lon": 0.0, "fusion_lat": 0.0, "lon": -77.0347395, "name": "a7b5de3a34eb61ca315b6f58f188f92a"}, {"bike_id": "155f719332c482319c3037ba6a1ce635", "type": "electric_scooter", "is_disabled": 0, "lat": 38.94311833333333, "rental_uris": {"ios": "https://dc.lft.to/lastmile_qr_scan", "android": "https://dc.lft.to/lastmile_qr_scan"}, "is_reserved": 0, "fusion_lon": 0.0, "fusion_lat": 0.0, "lon": -77.06207533333334, "name": "155f719332c482319c3037ba6a1ce635"}, {"bike_id": "96e0ff7c6c52ed0a0bed4d0091818f76", "type": "electric_scooter", "is_disabled": 0, "lat": 38.9219225, "rental_uris": {"ios": "https://dc.lft.to/lastmile_qr_scan", "android": "https://dc.lft.to/lastmile_qr_scan"}, "is_reserved": 0, "fusion_lon": 0.0, "fusion_lat": 0.0, "lon": -77.01974866666667, "name": "96e0ff7c6c52ed0a0bed4d0091818f76"}, {"bike_id": "ba0ccf307ef2e7b67cc56653af751c31", "type": "electric_scooter", "is_disabled": 0, "lat": 38.918389166666664, "rental_uris": {"ios": "https://dc.lft.to/lastmile_qr_scan", "android": "https://dc.lft.to/lastmile_qr_scan"}, "is_reserved": 0, "fusion_lon": 0.0, "fusion_lat": 0.0, "lon": -76.96560416666667, "name": "ba0ccf307ef2e7b67cc56653af751c31"}, {"bike_id": "91a48ed8b341bdb833903ea1bd8dfd5c", "type": "electric_scooter", "is_disabled": 0, "lat": 38.922132, "rental_uris": {"ios": "https://dc.lft.to/lastmile_qr_scan", "android": "https://dc.lft.to/lastmile_qr_scan"}, "is_reserved": 0, "fusion_lon": 0.0, "fusion_lat": 0.0, "lon": -77.03287233333333, "name": "91a48ed8b341bdb833903ea1bd8dfd5c"}, {"bike_id": "2a881f75b293b7e9c405667b05254910", "type": "electric_scooter", "is_disabled": 0, "lat": 38.928267166666664, "rental_uris": {"ios": "https://dc.lft.to/lastmile_qr_scan", "android": "https://dc.lft.to/lastmile_qr_scan"}, "is_reserved": 0, "fusion_lon": 0.0, "fusion_lat": 0.0, "lon": -77.0551295, "name": "2a881f75b293b7e9c405667b05254910"}, {"bike_id": "dbbe24b72b6e7ad8adc4039d9445966d", "type": "electric_scooter", "is_disabled": 0, "lat": 38.897077, "rental_uris": {"ios": "https://dc.lft.to/lastmile_qr_scan", "android": "https://dc.lft.to/lastmile_qr_scan"}, "is_reserved": 0, "fusion_lon": 0.0, "fusion_lat": 0.0, "lon": -77.02449483333334, "name": "dbbe24b72b6e7ad8adc4039d9445966d"}, {"bike_id": "8b9f1e30d97c267de6978b8933bf2b19", "type": "electric_scooter", "is_disabled": 0, "lat": 38.902936833333335, "rental_uris": {"ios": "https://dc.lft.to/lastmile_qr_scan", "android": "https://dc.lft.to/lastmile_qr_scan"}, "is_reserved": 0, "fusion_lon": 0.0, "fusion_lat": 0.0, "lon": -77.05190783333333, "name": "8b9f1e30d97c267de6978b8933bf2b19"}, {"bike_id": "4c38bec4a63fd364cd138be83b1920df", "type": "electric_scooter", "is_disabled": 0, "lat": 38.911045, "rental_uris": {"ios": "https://dc.lft.to/lastmile_qr_scan", "android": "https://dc.lft.to/lastmile_qr_scan"}, "is_reserved": 0, "fusion_lon": 0.0, "fusion_lat": 0.0, "lon": -77.03791233333334, "name": "4c38bec4a63fd364cd138be83b1920df"}, {"bike_id": "fc89ac266e0565bb25c8d84f1dde18cf", "type": "electric_scooter", "is_disabled": 0, "lat": 38.91747516666667, "rental_uris": {"ios": "https://dc.lft.to/lastmile_qr_scan", "android": "https://dc.lft.to/lastmile_qr_scan"}, "is_reserved": 0, "fusion_lon": 0.0, "fusion_lat": 0.0, "lon": -77.03864283333333, "name": "fc89ac266e0565bb25c8d84f1dde18cf"}, {"bike_id": "c7803bede79280545ece3d4ce7d736ed", "type": "electric_scooter", "is_disabled": 0, "lat": 38.91413716666667, "rental_uris": {"ios": "https://dc.lft.to/lastmile_qr_scan", "android": "https://dc.lft.to/lastmile_qr_scan"}, "is_reserved": 0, "fusion_lon": 0.0, "fusion_lat": 0.0, "lon": -77.02215516666666, "name": "c7803bede79280545ece3d4ce7d736ed"}, {"bike_id": "40fd79880f3f942491f9ee18704fa84f", "type": "electric_scooter", "is_disabled": 0, "lat": 38.92769533333333, "rental_uris": {"ios": "https://dc.lft.to/lastmile_qr_scan", "android": "https://dc.lft.to/lastmile_qr_scan"}, "is_reserved": 0, "fusion_lon": 0.0, "fusion_lat": 0.0, "lon": -76.96097383333333, "name": "40fd79880f3f942491f9ee18704fa84f"}, {"bike_id": "d09cbbb9dddf49784cec022fcaf0b2af", "type": "electric_scooter", "is_disabled": 0, "lat": 38.939946, "rental_uris": {"ios": "https://dc.lft.to/lastmile_qr_scan", "android": "https://dc.lft.to/lastmile_qr_scan"}, "is_reserved": 0, "fusion_lon": 0.0, "fusion_lat": 0.0, "lon": -77.01752133333333, "name": "d09cbbb9dddf49784cec022fcaf0b2af"}, {"bike_id": "6dacead802582c7ab32e4cf684aa9596", "type": "electric_scooter", "is_disabled": 0, "lat": 38.867339333333334, "rental_uris": {"ios": "https://dc.lft.to/lastmile_qr_scan", "android": "https://dc.lft.to/lastmile_qr_scan"}, "is_reserved": 0, "fusion_lon": 0.0, "fusion_lat": 0.0, "lon": -76.97863, "name": "6dacead802582c7ab32e4cf684aa9596"}, {"bike_id": "9444f0cd91406043bc6227ed46dc10c2", "type": "electric_scooter", "is_disabled": 0, "lat": 38.9231515, "rental_uris": {"ios": "https://dc.lft.to/lastmile_qr_scan", "android": "https://dc.lft.to/lastmile_qr_scan"}, "is_reserved": 0, "fusion_lon": 0.0, "fusion_lat": 0.0, "lon": -77.03815766666666, "name": "9444f0cd91406043bc6227ed46dc10c2"}, {"bike_id": "6984752ab4293f38ac5e54801c400f93", "type": "electric_scooter", "is_disabled": 0, "lat": 38.921520666666666, "rental_uris": {"ios": "https://dc.lft.to/lastmile_qr_scan", "android": "https://dc.lft.to/lastmile_qr_scan"}, "is_reserved": 0, "fusion_lon": 0.0, "fusion_lat": 0.0, "lon": -77.03518116666666, "name": "6984752ab4293f38ac5e54801c400f93"}, {"bike_id": "7cb16d1e521037856e4caf6e0aed376f", "type": "electric_scooter", "is_disabled": 0, "lat": 38.92599933333333, "rental_uris": {"ios": "https://dc.lft.to/lastmile_qr_scan", "android": "https://dc.lft.to/lastmile_qr_scan"}, "is_reserved": 0, "fusion_lon": 0.0, "fusion_lat": 0.0, "lon": -77.0238675, "name": "7cb16d1e521037856e4caf6e0aed376f"}, {"bike_id": "8c95572c30fd4202ff99bbedf8997ace", "type": "electric_scooter", "is_disabled": 0, "lat": 38.90930766666666, "rental_uris": {"ios": "https://dc.lft.to/lastmile_qr_scan", "android": "https://dc.lft.to/lastmile_qr_scan"}, "is_reserved": 0, "fusion_lon": 0.0, "fusion_lat": 0.0, "lon": -77.05560333333334, "name": "8c95572c30fd4202ff99bbedf8997ace"}, {"bike_id": "62cd01524d512179c2477005400ed88a", "type": "electric_scooter", "is_disabled": 0, "lat": 38.90046666666667, "rental_uris": {"ios": "https://dc.lft.to/lastmile_qr_scan", "android": "https://dc.lft.to/lastmile_qr_scan"}, "is_reserved": 0, "fusion_lon": 0.0, "fusion_lat": 0.0, "lon": -77.02429483333333, "name": "62cd01524d512179c2477005400ed88a"}, {"bike_id": "9685c1e8f5bd085a1cea41919d8e58d1", "type": "electric_scooter", "is_disabled": 0, "lat": 38.91388383333334, "rental_uris": {"ios": "https://dc.lft.to/lastmile_qr_scan", "android": "https://dc.lft.to/lastmile_qr_scan"}, "is_reserved": 0, "fusion_lon": 0.0, "fusion_lat": 0.0, "lon": -77.0393195, "name": "9685c1e8f5bd085a1cea41919d8e58d1"}, {"bike_id": "c415ac5ab7314a71fcae06fa925b9419", "type": "electric_scooter", "is_disabled": 0, "lat": 38.899832333333336, "rental_uris": {"ios": "https://dc.lft.to/lastmile_qr_scan", "android": "https://dc.lft.to/lastmile_qr_scan"}, "is_reserved": 0, "fusion_lon": 0.0, "fusion_lat": 0.0, "lon": -76.95003516666667, "name": "c415ac5ab7314a71fcae06fa925b9419"}, {"bike_id": "dc7851783ec1d4669e92739107a50eb4", "type": "electric_scooter", "is_disabled": 0, "lat": 38.887208333333334, "rental_uris": {"ios": "https://dc.lft.to/lastmile_qr_scan", "android": "https://dc.lft.to/lastmile_qr_scan"}, "is_reserved": 0, "fusion_lon": 0.0, "fusion_lat": 0.0, "lon": -77.03178483333333, "name": "dc7851783ec1d4669e92739107a50eb4"}, {"bike_id": "10fc452cb0c0154ba04c3b339d2f3c07", "type": "electric_scooter", "is_disabled": 0, "lat": 38.8589155, "rental_uris": {"ios": "https://dc.lft.to/lastmile_qr_scan", "android": "https://dc.lft.to/lastmile_qr_scan"}, "is_reserved": 0, "fusion_lon": 0.0, "fusion_lat": 0.0, "lon": -76.99737433333334, "name": "10fc452cb0c0154ba04c3b339d2f3c07"}, {"bike_id": "ecd41e776392fc1081750a69226eff90", "type": "electric_scooter", "is_disabled": 0, "lat": 38.920101, "rental_uris": {"ios": "https://dc.lft.to/lastmile_qr_scan", "android": "https://dc.lft.to/lastmile_qr_scan"}, "is_reserved": 0, "fusion_lon": 0.0, "fusion_lat": 0.0, "lon": -77.03210783333333, "name": "ecd41e776392fc1081750a69226eff90"}, {"bike_id": "708e69a82ab0abd1b9009f64e1c54878", "type": "electric_scooter", "is_disabled": 0, "lat": 38.92004383333333, "rental_uris": {"ios": "https://dc.lft.to/lastmile_qr_scan", "android": "https://dc.lft.to/lastmile_qr_scan"}, "is_reserved": 0, "fusion_lon": 0.0, "fusion_lat": 0.0, "lon": -77.02063183333334, "name": "708e69a82ab0abd1b9009f64e1c54878"}, {"bike_id": "30bd83e0108772620be6f41813e3faa2", "type": "electric_scooter", "is_disabled": 0, "lat": 38.87811033333333, "rental_uris": {"ios": "https://dc.lft.to/lastmile_qr_scan", "android": "https://dc.lft.to/lastmile_qr_scan"}, "is_reserved": 0, "fusion_lon": 0.0, "fusion_lat": 0.0, "lon": -76.971713, "name": "30bd83e0108772620be6f41813e3faa2"}, {"bike_id": "bf58f5da0cd5f59a1344b16869e34d4d", "type": "electric_scooter", "is_disabled": 0, "lat": 38.9150155, "rental_uris": {"ios": "https://dc.lft.to/lastmile_qr_scan", "android": "https://dc.lft.to/lastmile_qr_scan"}, "is_reserved": 0, "fusion_lon": 0.0, "fusion_lat": 0.0, "lon": -77.03180983333333, "name": "bf58f5da0cd5f59a1344b16869e34d4d"}, {"bike_id": "feba17297b56aa6e1b3bd4934aec7af5", "type": "electric_scooter", "is_disabled": 0, "lat": 38.937697166666666, "rental_uris": {"ios": "https://dc.lft.to/lastmile_qr_scan", "android": "https://dc.lft.to/lastmile_qr_scan"}, "is_reserved": 0, "fusion_lon": 0.0, "fusion_lat": 0.0, "lon": -77.01968533333333, "name": "feba17297b56aa6e1b3bd4934aec7af5"}, {"bike_id": "4ab8b0493cc879a382a324e3b6067234", "type": "electric_scooter", "is_disabled": 0, "lat": 38.9110525, "rental_uris": {"ios": "https://dc.lft.to/lastmile_qr_scan", "android": "https://dc.lft.to/lastmile_qr_scan"}, "is_reserved": 0, "fusion_lon": 0.0, "fusion_lat": 0.0, "lon": -77.0021455, "name": "4ab8b0493cc879a382a324e3b6067234"}, {"bike_id": "438b6af2ca419e72164913c14f3e210b", "type": "electric_scooter", "is_disabled": 0, "lat": 38.90200633333333, "rental_uris": {"ios": "https://dc.lft.to/lastmile_qr_scan", "android": "https://dc.lft.to/lastmile_qr_scan"}, "is_reserved": 0, "fusion_lon": 0.0, "fusion_lat": 0.0, "lon": -77.02182083333334, "name": "438b6af2ca419e72164913c14f3e210b"}, {"bike_id": "c8318e20c6b5cb75dfe21ce0aab81a73", "type": "electric_scooter", "is_disabled": 0, "lat": 38.91713033333333, "rental_uris": {"ios": "https://dc.lft.to/lastmile_qr_scan", "android": "https://dc.lft.to/lastmile_qr_scan"}, "is_reserved": 0, "fusion_lon": 0.0, "fusion_lat": 0.0, "lon": -77.02799033333334, "name": "c8318e20c6b5cb75dfe21ce0aab81a73"}, {"bike_id": "dd0974f64019156ad1d50c169d7eab1c", "type": "electric_scooter", "is_disabled": 0, "lat": 38.9111305, "rental_uris": {"ios": "https://dc.lft.to/lastmile_qr_scan", "android": "https://dc.lft.to/lastmile_qr_scan"}, "is_reserved": 0, "fusion_lon": 0.0, "fusion_lat": 0.0, "lon": -77.03868966666667, "name": "dd0974f64019156ad1d50c169d7eab1c"}, {"bike_id": "c8a3c574b5ae1592d0ea16ddfb550ecd", "type": "electric_bike", "is_disabled": 0, "lat": 39.056375, "rental_uris": {"ios": "https://dc.lft.to/lastmile_qr_scan", "android": "https://dc.lft.to/lastmile_qr_scan"}, "is_reserved": 0, "fusion_lon": 0.0, "fusion_lat": 0.0, "lon": -77.125276, "name": "c8a3c574b5ae1592d0ea16ddfb550ecd"}, {"bike_id": "e9a0b87bcc619c0bbe6f0cd2c179408a", "type": "electric_scooter", "is_disabled": 0, "lat": 38.92338566666667, "rental_uris": {"ios": "https://dc.lft.to/lastmile_qr_scan", "android": "https://dc.lft.to/lastmile_qr_scan"}, "is_reserved": 0, "fusion_lon": 0.0, "fusion_lat": 0.0, "lon": -77.052988, "name": "e9a0b87bcc619c0bbe6f0cd2c179408a"}, {"bike_id": "fb7ebffb70cf5e0ebf8ef33c7a24f4db", "type": "electric_scooter", "is_disabled": 0, "lat": 38.90976666666667, "rental_uris": {"ios": "https://dc.lft.to/lastmile_qr_scan", "android": "https://dc.lft.to/lastmile_qr_scan"}, "is_reserved": 0, "fusion_lon": 0.0, "fusion_lat": 0.0, "lon": -77.032014, "name": "fb7ebffb70cf5e0ebf8ef33c7a24f4db"}, {"bike_id": "52ffcf1d7c1fc23ad40bdc31ce6bc06c", "type": "electric_scooter", "is_disabled": 0, "lat": 38.93819466666667, "rental_uris": {"ios": "https://dc.lft.to/lastmile_qr_scan", "android": "https://dc.lft.to/lastmile_qr_scan"}, "is_reserved": 0, "fusion_lon": 0.0, "fusion_lat": 0.0, "lon": -77.0716185, "name": "52ffcf1d7c1fc23ad40bdc31ce6bc06c"}, {"bike_id": "9296097b71e7dfbc04f368817cf62133", "type": "electric_scooter", "is_disabled": 0, "lat": 38.9421165, "rental_uris": {"ios": "https://dc.lft.to/lastmile_qr_scan", "android": "https://dc.lft.to/lastmile_qr_scan"}, "is_reserved": 0, "fusion_lon": 0.0, "fusion_lat": 0.0, "lon": -77.025877, "name": "9296097b71e7dfbc04f368817cf62133"}, {"bike_id": "7e7edc2dda3f80f3d9e9d5897e136669", "type": "electric_scooter", "is_disabled": 0, "lat": 38.923440666666664, "rental_uris": {"ios": "https://dc.lft.to/lastmile_qr_scan", "android": "https://dc.lft.to/lastmile_qr_scan"}, "is_reserved": 0, "fusion_lon": 0.0, "fusion_lat": 0.0, "lon": -77.05118483333334, "name": "7e7edc2dda3f80f3d9e9d5897e136669"}, {"bike_id": "4ae7d9a1fe8cf76b8bf13f7606a61862", "type": "electric_scooter", "is_disabled": 0, "lat": 38.94780816666667, "rental_uris": {"ios": "https://dc.lft.to/lastmile_qr_scan", "android": "https://dc.lft.to/lastmile_qr_scan"}, "is_reserved": 0, "fusion_lon": 0.0, "fusion_lat": 0.0, "lon": -77.07936316666667, "name": "4ae7d9a1fe8cf76b8bf13f7606a61862"}, {"bike_id": "c978789dcf033a1f5fc4454c1aa2bf0b", "type": "electric_scooter", "is_disabled": 0, "lat": 38.91110366666667, "rental_uris": {"ios": "https://dc.lft.to/lastmile_qr_scan", "android": "https://dc.lft.to/lastmile_qr_scan"}, "is_reserved": 0, "fusion_lon": 0.0, "fusion_lat": 0.0, "lon": -77.03249466666666, "name": "c978789dcf033a1f5fc4454c1aa2bf0b"}, {"bike_id": "8ff2aa32a70828432108662e892861a0", "type": "electric_scooter", "is_disabled": 0, "lat": 38.89603983333333, "rental_uris": {"ios": "https://dc.lft.to/lastmile_qr_scan", "android": "https://dc.lft.to/lastmile_qr_scan"}, "is_reserved": 0, "fusion_lon": 0.0, "fusion_lat": 0.0, "lon": -77.00931616666666, "name": "8ff2aa32a70828432108662e892861a0"}, {"bike_id": "6579d8a1be8769c1c337e3b120a7602d", "type": "electric_scooter", "is_disabled": 0, "lat": 38.9168285, "rental_uris": {"ios": "https://dc.lft.to/lastmile_qr_scan", "android": "https://dc.lft.to/lastmile_qr_scan"}, "is_reserved": 0, "fusion_lon": 0.0, "fusion_lat": 0.0, "lon": -77.0377645, "name": "6579d8a1be8769c1c337e3b120a7602d"}, {"bike_id": "7fe746780e4d33afcc3771337666cb7a", "type": "electric_scooter", "is_disabled": 0, "lat": 38.9182335, "rental_uris": {"ios": "https://dc.lft.to/lastmile_qr_scan", "android": "https://dc.lft.to/lastmile_qr_scan"}, "is_reserved": 0, "fusion_lon": 0.0, "fusion_lat": 0.0, "lon": -77.031863, "name": "7fe746780e4d33afcc3771337666cb7a"}, {"bike_id": "d5dddae4cab630cd7f71e1bcb2468ffb", "type": "electric_scooter", "is_disabled": 0, "lat": 38.9097335, "rental_uris": {"ios": "https://dc.lft.to/lastmile_qr_scan", "android": "https://dc.lft.to/lastmile_qr_scan"}, "is_reserved": 0, "fusion_lon": 0.0, "fusion_lat": 0.0, "lon": -77.03254116666666, "name": "d5dddae4cab630cd7f71e1bcb2468ffb"}, {"bike_id": "c3c29c9159ea33fbe0e49d321bbf8db0", "type": "electric_scooter", "is_disabled": 0, "lat": 38.924673, "rental_uris": {"ios": "https://dc.lft.to/lastmile_qr_scan", "android": "https://dc.lft.to/lastmile_qr_scan"}, "is_reserved": 0, "fusion_lon": 0.0, "fusion_lat": 0.0, "lon": -77.031017, "name": "c3c29c9159ea33fbe0e49d321bbf8db0"}, {"bike_id": "8b68dd5c410c8f85b6fa6c83532a02dc", "type": "electric_scooter", "is_disabled": 0, "lat": 38.928515833333336, "rental_uris": {"ios": "https://dc.lft.to/lastmile_qr_scan", "android": "https://dc.lft.to/lastmile_qr_scan"}, "is_reserved": 0, "fusion_lon": 0.0, "fusion_lat": 0.0, "lon": -77.03291316666666, "name": "8b68dd5c410c8f85b6fa6c83532a02dc"}, {"bike_id": "0ed7b600f1080410aed7261595e47427", "type": "electric_scooter", "is_disabled": 0, "lat": 38.898594, "rental_uris": {"ios": "https://dc.lft.to/lastmile_qr_scan", "android": "https://dc.lft.to/lastmile_qr_scan"}, "is_reserved": 0, "fusion_lon": 0.0, "fusion_lat": 0.0, "lon": -77.02624633333333, "name": "0ed7b600f1080410aed7261595e47427"},