{"data": {"bikes": [{"lon": -77.0058115, "fusion_lat": 0.0, "type": "electric_scooter", "lat": 38.88598916666667, "is_disabled": 0, "name": "7e1f62ca742c0970d489d1a5ccf3b16a", "is_reserved": 0, "bike_id": "7e1f62ca742c0970d489d1a5ccf3b16a", "fusion_lon": 0.0, "rental_uris": {"ios": "https://dc.lft.to/lastmile_qr_scan", "android": "https://dc.lft.to/lastmile_qr_scan"}}, {"lon": -77.01745233333334, "fusion_lat": 0.0, "type": "electric_scooter", "lat": 38.88735366666667, "is_disabled": 0, "name": "a234211a5cbfc02d2cd9944f3673d185", "is_reserved": 0, "bike_id": "a234211a5cbfc02d2cd9944f3673d185", "fusion_lon": 0.0, "rental_uris": {"ios": "https://dc.lft.to/lastmile_qr_scan", "android": "https://dc.lft.to/lastmile_qr_scan"}}, {"lon": -77.04526866666667, "fusion_lat": 0.0, "type": "electric_scooter", "lat": 38.905889, "is_disabled": 0, "name": "2400fd9cf0e9a77f593c290ce13dbabe", "is_reserved": 0, "bike_id": "2400fd9cf0e9a77f593c290ce13dbabe", "fusion_lon": 0.0, "rental_uris": {"ios": "https://dc.lft.to/lastmile_qr_scan", "android": "https://dc.lft.to/lastmile_qr_scan"}}, {"lon": -77.02416183333334, "fusion_lat": 0.0, "type": "electric_scooter", "lat": 38.879575333333335, "is_disabled": 0, "name": "cc776c25e167ba385e07193ffd01f9d9", "is_reserved": 0, "bike_id": "cc776c25e167ba385e07193ffd01f9d9", "fusion_lon": 0.0, "rental_uris": {"ios": "https://dc.lft.to/lastmile_qr_scan", "android": "https://dc.lft.to/lastmile_qr_scan"}}, {"lon": -77.02312483333333, "fusion_lat": 0.0, "type": "electric_scooter", "lat": 38.927872, "is_disabled": 0, "name": "997aad269256dda61a4e03e9d87d198b", "is_reserved": 0, "bike_id": "997aad269256dda61a4e03e9d87d198b", "fusion_lon": 0.0, "rental_uris": {"ios": "https://dc.lft.to/lastmile_qr_scan", "android": "https://dc.lft.to/lastmile_qr_scan"}}, {"lon": -76.9865695, "fusion_lat": 0.0, "type": "electric_scooter", "lat": 38.8687095, "is_disabled": 0, "name": "c85b034e818d42f4ab45a7ece1d54d8e", "is_reserved": 0, "bike_id": "c85b034e818d42f4ab45a7ece1d54d8e", "fusion_lon": 0.0, "rental_uris": {"ios": "https://dc.lft.to/lastmile_qr_scan", "android": "https://dc.lft.to/lastmile_qr_scan"}}, {"lon": -76.999505, "fusion_lat": 0.0, "type": "electric_scooter", "lat": 38.923496666666665, "is_disabled": 0, "name": "d12008a8a68fbf9ef9861afa340194a6", "is_reserved": 0, "bike_id": "d12008a8a68fbf9ef9861afa340194a6", "fusion_lon": 0.0, "rental_uris": {"ios": "https://dc.lft.to/lastmile_qr_scan", "android": "https://dc.lft.to/lastmile_qr_scan"}}, {"lon": -77.03444166666667, "fusion_lat": 0.0, "type": "electric_scooter", "lat": 38.90565216666667, "is_disabled": 0, "name": "b04e150ab7aa33ec7f57342dccdd8e77", "is_reserved": 0, "bike_id": "b04e150ab7aa33ec7f57342dccdd8e77", "fusion_lon": 0.0, "rental_uris": {"ios": "https://dc.lft.to/lastmile_qr_scan", "android": "https://dc.lft.to/lastmile_qr_scan"}}, {"lon": -76.9985165, "fusion_lat": 0.0, "type": "electric_scooter", "lat": 38.896226166666665, "is_disabled": 0, "name": "9e29c28865a1bea4bc25acc72632e207", "is_reserved": 0, "bike_id": "9e29c28865a1bea4bc25acc72632e207", "fusion_lon": 0.0, "rental_uris": {"ios": "https://dc.lft.to/lastmile_qr_scan", "android": "https://dc.lft.to/lastmile_qr_scan"}}, {"lon": -77.02693, "fusion_lat": 0.0, "type": "electric_scooter", "lat": 38.9246575, "is_disabled": 0, "name": "99edc90ce1361332f1a5e27bf11e5be0", "is_reserved": 0, "bike_id": "99edc90ce1361332f1a5e27bf11e5be0", "fusion_lon": 0.0, "rental_uris": {"ios": "https://dc.lft.to/lastmile_qr_scan", "android": "https://dc.lft.to/lastmile_qr_scan"}}, {"lon": -77.00209483333333, "fusion_lat": 0.0, "type": "electric_scooter", "lat": 38.89261883333333, "is_disabled": 0, "name": "79938d76c4b5384d5ff08f345059bcea", "is_reserved": 0, "bike_id": "79938d76c4b5384d5ff08f345059bcea", "fusion_lon": 0.0, "rental_uris": {"ios": "https://dc.lft.to/lastmile_qr_scan", "android": "https://dc.lft.to/lastmile_qr_scan"}}, {"lon": -77.0221415, "fusion_lat": 0.0, "type": "electric_scooter", "lat": 38.9247075, "is_disabled": 0, "name": "cc9e4badd694ed0af6d97790e14001cc", "is_reserved": 0, "bike_id": "cc9e4badd694ed0af6d97790e14001cc", "fusion_lon": 0.0, "rental_uris": {"ios": "https://dc.lft.to/lastmile_qr_scan", "android": "https://dc.lft.to/lastmile_qr_scan"}}, {"lon": -77.07010866666667, "fusion_lat": 0.0, "type": "electric_scooter", "lat": 38.95575433333333, "is_disabled": 0, "name": "a30429aede150f8ad2055375cf41f665", "is_reserved": 0, "bike_id": "a30429aede150f8ad2055375cf41f665", "fusion_lon": 0.0, "rental_uris": {"ios": "https://dc.lft.to/lastmile_qr_scan", "android": "https://dc.lft.to/lastmile_qr_scan"}}, {"lon": -77.03755133333334, "fusion_lat": 0.0, "type": "electric_scooter", "lat": 38.907841166666664, "is_disabled": 0, "name": "9ba1c795c92580649104b16ed81fd5e2", "is_reserved": 0, "bike_id": "9ba1c795c92580649104b16ed81fd5e2", "fusion_lon": 0.0, "rental_uris": {"ios": "https://dc.lft.to/lastmile_qr_scan", "android": "https://dc.lft.to/lastmile_qr_scan"}}, {"lon": -77.00327916666667, "fusion_lat": 0.0, "type": "electric_scooter", "lat": 38.89365266666667, "is_disabled": 0, "name": "4f8a42140ea8cf458c5cbe829604455c", "is_reserved": 0, "bike_id": "4f8a42140ea8cf458c5cbe829604455c", "fusion_lon": 0.0, "rental_uris": {"ios": "https://dc.lft.to/lastmile_qr_scan", "android": "https://dc.lft.to/lastmile_qr_scan"}}, {"lon": -77.022602, "fusion_lat": 0.0, "type": "electric_scooter", "lat": 38.87816883333333, "is_disabled": 0, "name": "c3efe06354d02289885602a210fae9cb", "is_reserved": 0, "bike_id": "c3efe06354d02289885602a210fae9cb", "fusion_lon": 0.0, "rental_uris": {"ios": "https://dc.lft.to/lastmile_qr_scan", "android": "https://dc.lft.to/lastmile_qr_scan"}}, {"lon": -76.9853965, "fusion_lat": 0.0, "type": "electric_scooter", "lat": 38.91293183333333, "is_disabled": 0, "name": "5113f1a243cd6032e6b58e6b4cbe6fd5", "is_reserved": 0, "bike_id": "5113f1a243cd6032e6b58e6b4cbe6fd5", "fusion_lon": 0.0, "rental_uris": {"ios": "https://dc.lft.to/lastmile_qr_scan", "android": "https://dc.lft.to/lastmile_qr_scan"}}, {"lon": -77.02213183333333, "fusion_lat": 0.0, "type": "electric_scooter", "lat": 38.89604, "is_disabled": 0, "name": "d6dd0b7c3a22b6097ea9fd0e6e3f750f", "is_reserved": 0, "bike_id": "d6dd0b7c3a22b6097ea9fd0e6e3f750f", "fusion_lon": 0.0, "rental_uris": {"ios": "https://dc.lft.to/lastmile_qr_scan", "android": "https://dc.lft.to/lastmile_qr_scan"}}, {"lon": -77.08368833333333, "fusion_lat": 0.0, "type": "electric_scooter", "lat": 38.95659283333333, "is_disabled": 0, "name": "c9beefcca13f08a5b7ce781a776fac3d", "is_reserved": 0, "bike_id": "c9beefcca13f08a5b7ce781a776fac3d", "fusion_lon": 0.0, "rental_uris": {"ios": "https://dc.lft.to/lastmile_qr_scan", "android": "https://dc.lft.to/lastmile_qr_scan"}}, {"lon": -77.0380725, "fusion_lat": 0.0, "type": "electric_scooter", "lat": 38.93113566666667, "is_disabled": 0, "name": "46e33f0ad8a5c75f9e8f204605ceade2", "is_reserved": 0, "bike_id": "46e33f0ad8a5c75f9e8f204605ceade2", "fusion_lon": 0.0, "rental_uris": {"ios": "https://dc.lft.to/lastmile_qr_scan", "android": "https://dc.lft.to/lastmile_qr_scan"}}, {"lon": -77.015113, "fusion_lat": 0.0, "type": "electric_scooter", "lat": 38.92671766666667, "is_disabled": 0, "name": "a81324561a3fba84ba1fbf197a3bd049", "is_reserved": 0, "bike_id": "a81324561a3fba84ba1fbf197a3bd049", "fusion_lon": 0.0, "rental_uris": {"ios": "https://dc.lft.to/lastmile_qr_scan", "android": "https://dc.lft.to/lastmile_qr_scan"}}, {"lon": -77.0271575, "fusion_lat": 0.0, "type": "electric_scooter", "lat": 38.90053866666667, "is_disabled": 0, "name": "b6d8bcc701df4493d86554d9eece0eaa", "is_reserved": 0, "bike_id": "b6d8bcc701df4493d86554d9eece0eaa", "fusion_lon": 0.0, "rental_uris": {"ios": "https://dc.lft.to/lastmile_qr_scan", "android": "https://dc.lft.to/lastmile_qr_scan"}}, {"lon": -77.06758316666667, "fusion_lat": 0.0, "type": "electric_scooter", "lat": 38.906840833333334, "is_disabled": 0, "name": "29e14b3240e6c79cfb14b9077736144a", "is_reserved": 0, "bike_id": "29e14b3240e6c79cfb14b9077736144a", "fusion_lon": 0.0, "rental_uris": {"ios": "https://dc.lft.to/lastmile_qr_scan", "android": "https://dc.lft.to/lastmile_qr_scan"}}, {"lon": -77.01511383333333, "fusion_lat": 0.0, "type": "electric_scooter", "lat": 38.926700833333335, "is_disabled": 0, "name": "1a361bd42542c60494a5e80168670793", "is_reserved": 0, "bike_id": "1a361bd42542c60494a5e80168670793", "fusion_lon": 0.0, "rental_uris": {"ios": "https://dc.lft.to/lastmile_qr_scan", "android": "https://dc.lft.to/lastmile_qr_scan"}}, {"lon": -77.02396183333333, "fusion_lat": 0.0, "type": "electric_scooter", "lat": 38.907073, "is_disabled": 0, "name": "70df852bc9f0089cb41824c1d13e3610", "is_reserved": 0, "bike_id": "70df852bc9f0089cb41824c1d13e3610", "fusion_lon": 0.0, "rental_uris": {"ios": "https://dc.lft.to/lastmile_qr_scan", "android": "https://dc.lft.to/lastmile_qr_scan"}}, {"lon": -77.00618766666666, "fusion_lat": 0.0, "type": "electric_scooter", "lat": 38.87174366666667, "is_disabled": 0, "name": "dc64423d06eec2d31590cafd07252d08", "is_reserved": 0, "bike_id": "dc64423d06eec2d31590cafd07252d08", "fusion_lon": 0.0, "rental_uris": {"ios": "https://dc.lft.to/lastmile_qr_scan", "android": "https://dc.lft.to/lastmile_qr_scan"}}, {"lon": -77.02710883333333, "fusion_lat": 0.0, "type": "electric_scooter", "lat": 38.9693335, "is_disabled": 0, "name": "8e533f0fb9005ee9e25cfbd273303d31", "is_reserved": 0, "bike_id": "8e533f0fb9005ee9e25cfbd273303d31", "fusion_lon": 0.0, "rental_uris": {"ios": "https://dc.lft.to/lastmile_qr_scan", "android": "https://dc.lft.to/lastmile_qr_scan"}}, {"lon": -77.02592866666667, "fusion_lat": 0.0, "type": "electric_scooter", "lat": 38.906012, "is_disabled": 0, "name": "141438e4d0e719b29329e203fa8582c6", "is_reserved": 0, "bike_id": "141438e4d0e719b29329e203fa8582c6", "fusion_lon": 0.0, "rental_uris": {"ios": "https://dc.lft.to/lastmile_qr_scan", "android": "https://dc.lft.to/lastmile_qr_scan"}}, {"lon": -77.033734, "fusion_lat": 0.0, "type": "electric_scooter", "lat": 38.8922375, "is_disabled": 0, "name": "882d478e85255ded214d1c7fbf3ccd65", "is_reserved": 0, "bike_id": "882d478e85255ded214d1c7fbf3ccd65", "fusion_lon": 0.0, "rental_uris": {"ios": "https://dc.lft.to/lastmile_qr_scan", "android": "https://dc.lft.to/lastmile_qr_scan"}}, {"lon": -76.93186466666667, "fusion_lat": 0.0, "type": "electric_bike", "lat": 38.8985315, "is_disabled": 0, "name": "173bab6b2a93c21f41a38ef8d1f6a7da", "is_reserved": 0, "bike_id": "173bab6b2a93c21f41a38ef8d1f6a7da", "fusion_lon": 0.0, "rental_uris": {"ios": "https://dc.lft.to/lastmile_qr_scan", "android": "https://dc.lft.to/lastmile_qr_scan"}}, {"lon": -77.03041483333334, "fusion_lat": 0.0, "type": "electric_scooter", "lat": 38.901225833333335, "is_disabled": 0, "name": "cee50a898ea3c5f22e0fdc32a6c83d79", "is_reserved": 0, "bike_id": "cee50a898ea3c5f22e0fdc32a6c83d79", "fusion_lon": 0.0, "rental_uris": {"ios": "https://dc.lft.to/lastmile_qr_scan", "android": "https://dc.lft.to/lastmile_qr_scan"}}, {"lon": -77.02689166666667, "fusion_lat": 0.0, "type": "electric_scooter", "lat": 38.906817, "is_disabled": 0, "name": "cb2d0643c17cfe7ce205f4784f7ad7fd", "is_reserved": 0, "bike_id": "cb2d0643c17cfe7ce205f4784f7ad7fd", "fusion_lon": 0.0, "rental_uris": {"ios": "https://dc.lft.to/lastmile_qr_scan", "android": "https://dc.lft.to/lastmile_qr_scan"}}, {"lon": -77.04354016666667, "fusion_lat": 0.0, "type": "electric_bike", "lat": 38.921703, "is_disabled": 0, "name": "f52711562f5380d989e31e096a32fdb1", "is_reserved": 0, "bike_id": "f52711562f5380d989e31e096a32fdb1", "fusion_lon": 0.0, "rental_uris": {"ios": "https://dc.lft.to/lastmile_qr_scan", "android": "https://dc.lft.to/lastmile_qr_scan"}}, {"lon": -77.03931966666667, "fusion_lat": 0.0, "type": "electric_scooter", "lat": 38.912597166666664, "is_disabled": 0, "name": "a6fc0fca5f6a04d370d71377f31b2f3b", "is_reserved": 0, "bike_id": "a6fc0fca5f6a04d370d71377f31b2f3b", "fusion_lon": 0.0, "rental_uris": {"ios": "https://dc.lft.to/lastmile_qr_scan", "android": "https://dc.lft.to/lastmile_qr_scan"}}, {"lon": -77.02700133333333, "fusion_lat": 0.0, "type": "electric_scooter", "lat": 38.909813166666666, "is_disabled": 0, "name": "97c266d0f6a784554e848583a6726e2a", "is_reserved": 0, "bike_id": "97c266d0f6a784554e848583a6726e2a", "fusion_lon": 0.0, "rental_uris": {"ios": "https://dc.lft.to/lastmile_qr_scan", "android": "https://dc.lft.to/lastmile_qr_scan"}}, {"lon": -77.02481083333333, "fusion_lat": 0.0, "type": "electric_scooter", "lat": 38.901517, "is_disabled": 0, "name": "fb86f1f9cfed6c00e05310a1547bb718", "is_reserved": 0, "bike_id": "fb86f1f9cfed6c00e05310a1547bb718", "fusion_lon": 0.0, "rental_uris": {"ios": "https://dc.lft.to/lastmile_qr_scan", "android": "https://dc.lft.to/lastmile_qr_scan"}}, {"lon": -77.06783116666666, "fusion_lat": 0.0, "type": "electric_scooter", "lat": 38.9052135, "is_disabled": 0, "name": "859cd1fbdc1a4190d8ce0fc579a03fd3", "is_reserved": 0, "bike_id": "859cd1fbdc1a4190d8ce0fc579a03fd3", "fusion_lon": 0.0, "rental_uris": {"ios": "https://dc.lft.to/lastmile_qr_scan", "android": "https://dc.lft.to/lastmile_qr_scan"}}, {"lon": -77.03105283333333, "fusion_lat": 0.0, "type": "electric_scooter", "lat": 38.89539833333333, "is_disabled": 0, "name": "70c6c39bf9300625f34b2fda7d9c3bd5", "is_reserved": 0, "bike_id": "70c6c39bf9300625f34b2fda7d9c3bd5", "fusion_lon": 0.0, "rental_uris": {"ios": "https://dc.lft.to/lastmile_qr_scan", "android": "https://dc.lft.to/lastmile_qr_scan"}}, {"lon": -77.018452, "fusion_lat": 0.0, "type": "electric_scooter", "lat": 38.90419033333333, "is_disabled": 0, "name": "a04eadf6e55fb9b3d4c06b1cedf0f008", "is_reserved": 0, "bike_id": "a04eadf6e55fb9b3d4c06b1cedf0f008", "fusion_lon": 0.0, "rental_uris": {"ios": "https://dc.lft.to/lastmile_qr_scan", "android": "https://dc.lft.to/lastmile_qr_scan"}}, {"lon": -77.04451866666666, "fusion_lat": 0.0, "type": "electric_scooter", "lat": 38.9118405, "is_disabled": 0, "name": "1e5cd7fec808091bb0e3bf8be6867dfc", "is_reserved": 0, "bike_id": "1e5cd7fec808091bb0e3bf8be6867dfc", "fusion_lon": 0.0, "rental_uris": {"ios": "https://dc.lft.to/lastmile_qr_scan", "android": "https://dc.lft.to/lastmile_qr_scan"}}, {"lon": -77.02870616666667, "fusion_lat": 0.0, "type": "electric_scooter", "lat": 38.897313, "is_disabled": 0, "name": "6df1a8db08fea45275b5d0900f7c721c", "is_reserved": 0, "bike_id": "6df1a8db08fea45275b5d0900f7c721c", "fusion_lon": 0.0, "rental_uris": {"ios": "https://dc.lft.to/lastmile_qr_scan", "android": "https://dc.lft.to/lastmile_qr_scan"}}, {"lon": -77.03369883333333, "fusion_lat": 0.0, "type": "electric_scooter", "lat": 38.92798766666667, "is_disabled": 0, "name": "503e8539aab7d7e490f3dec7fb6443b0", "is_reserved": 0, "bike_id": "503e8539aab7d7e490f3dec7fb6443b0", "fusion_lon": 0.0, "rental_uris": {"ios": "https://dc.lft.to/lastmile_qr_scan", "android": "https://dc.lft.to/lastmile_qr_scan"}}, {"lon": -77.043469, "fusion_lat": 0.0, "type": "electric_scooter", "lat": 38.896874833333335, "is_disabled": 0, "name": "90eae5a64877461d8dfe8d32d973afc0", "is_reserved": 0, "bike_id": "90eae5a64877461d8dfe8d32d973afc0", "fusion_lon": 0.0, "rental_uris": {"ios": "https://dc.lft.to/lastmile_qr_scan", "android": "https://dc.lft.to/lastmile_qr_scan"}}, {"lon": -77.02695283333334, "fusion_lat": 0.0, "type": "electric_scooter", "lat": 38.9069605, "is_disabled": 0, "name": "1c6dae9156394f3a6263833625382eb1", "is_reserved": 0, "bike_id": "1c6dae9156394f3a6263833625382eb1", "fusion_lon": 0.0, "rental_uris": {"ios": "https://dc.lft.to/lastmile_qr_scan", "android": "https://dc.lft.to/lastmile_qr_scan"}}, {"lon": -77.021575, "fusion_lat": 0.0, "type": "electric_scooter", "lat": 38.926042333333335, "is_disabled": 0, "name": "79ceb72daf6650b3e86dce1110119fd7", "is_reserved": 0, "bike_id": "79ceb72daf6650b3e86dce1110119fd7", "fusion_lon": 0.0, "rental_uris": {"ios": "https://dc.lft.to/lastmile_qr_scan", "android": "https://dc.lft.to/lastmile_qr_scan"}}, {"lon": -77.01917866666666, "fusion_lat": 0.0, "type": "electric_scooter", "lat": 38.92167933333333, "is_disabled": 0, "name": "c62eb09108305ac7823ea4487e961b7a", "is_reserved": 0, "bike_id": "c62eb09108305ac7823ea4487e961b7a", "fusion_lon": 0.0, "rental_uris": {"ios": "https://dc.lft.to/lastmile_qr_scan", "android": "https://dc.lft.to/lastmile_qr_scan"}}, {"lon": -77.04378816666667, "fusion_lat": 0.0, "type": "electric_scooter", "lat": 38.9105, "is_disabled": 0, "name": "062e1441eb1984cf034bca3a995d09b5", "is_reserved": 0, "bike_id": "062e1441eb1984cf034bca3a995d09b5", "fusion_lon": 0.0, "rental_uris": {"ios": "https://dc.lft.to/lastmile_qr_scan", "android": "https://dc.lft.to/lastmile_qr_scan"}}, {"lon": -76.9981105, "fusion_lat": 0.0, "type": "electric_scooter", "lat": 38.92922016666667, "is_disabled": 0, "name": "e5b1031f3fb9eb4f7cc771e6a5d09aa4", "is_reserved": 0, "bike_id": "e5b1031f3fb9eb4f7cc771e6a5d09aa4", "fusion_lon": 0.0, "rental_uris": {"ios": "https://dc.lft.to/lastmile_qr_scan", "android": "https://dc.lft.to/lastmile_qr_scan"}}, {"lon": -77.04488833333333, "fusion_lat": 0.0, "type": "electric_scooter", "lat": 38.90525133333333, "is_disabled": 0, "name": "afb90c2104df0a0e3b5847fe15746910", "is_reserved": 0, "bike_id": "afb90c2104df0a0e3b5847fe15746910", "fusion_lon": 0.0, "rental_uris": {"ios": "https://dc.lft.to/lastmile_qr_scan", "android": "https://dc.lft.to/lastmile_qr_scan"}}, {"lon": -76.98745433333333, "fusion_lat": 0.0, "type": "electric_bike", "lat": 38.89608, "is_disabled": 0, "name": "3130d244d1e6c573fead25a0286d4a79", "is_reserved": 0, "bike_id": "3130d244d1e6c573fead25a0286d4a79", "fusion_lon": 0.0, "rental_uris": {"ios": "https://dc.lft.to/lastmile_qr_scan", "android": "https://dc.lft.to/lastmile_qr_scan"}}, {"lon": -76.98686566666666, "fusion_lat": 0.0, "type": "electric_scooter", "lat": 38.888359666666666, "is_disabled": 0, "name": "1008e75612dcca99542ac48e6af8d0d8", "is_reserved": 0, "bike_id": "1008e75612dcca99542ac48e6af8d0d8", "fusion_lon": 0.0, "rental_uris": {"ios": "https://dc.lft.to/lastmile_qr_scan", "android": "https://dc.lft.to/lastmile_qr_scan"}}, {"lon": -76.98841316666666, "fusion_lat": 0.0, "type": "electric_scooter", "lat": 38.88397066666667, "is_disabled": 0, "name": "3dbb29eaac22c45e1e1d6d27badac0ae", "is_reserved": 0, "bike_id": "3dbb29eaac22c45e1e1d6d27badac0ae", "fusion_lon": 0.0, "rental_uris": {"ios": "https://dc.lft.to/lastmile_qr_scan", "android": "https://dc.lft.to/lastmile_qr_scan"}}, {"lon": -76.99397516666667, "fusion_lat": 0.0, "type": "electric_scooter", "lat": 38.91006983333333, "is_disabled": 0, "name": "4f32f48c8e54354ac2ea07aa4786a846", "is_reserved": 0, "bike_id": "4f32f48c8e54354ac2ea07aa4786a846", "fusion_lon": 0.0, "rental_uris": {"ios": "https://dc.lft.to/lastmile_qr_scan", "android": "https://dc.lft.to/lastmile_qr_scan"}}, {"lon": -77.02796, "fusion_lat": 0.0, "type": "electric_scooter", "lat": 38.920279666666666, "is_disabled": 0, "name": "8d91194fbdd44194d893a6a0693ecfc0", "is_reserved": 0, "bike_id": "8d91194fbdd44194d893a6a0693ecfc0", "fusion_lon": 0.0, "rental_uris": {"ios": "https://dc.lft.to/lastmile_qr_scan", "android": "https://dc.lft.to/lastmile_qr_scan"}}, {"lon": -77.02193183333333, "fusion_lat": 0.0, "type": "electric_scooter", "lat": 38.914814666666665, "is_disabled": 0, "name": "e2a35ac9ab4c7c745520ff0dd2579e09", "is_reserved": 0, "bike_id": "e2a35ac9ab4c7c745520ff0dd2579e09", "fusion_lon": 0.0, "rental_uris": {"ios": "https://dc.lft.to/lastmile_qr_scan", "android": "https://dc.lft.to/lastmile_qr_scan"}}, {"lon": -77.02710266666666, "fusion_lat": 0.0, "type": "electric_scooter", "lat": 38.900854833333334, "is_disabled": 0, "name": "92f6952a93547d7d7958f7acaa9393fb", "is_reserved": 0, "bike_id": "92f6952a93547d7d7958f7acaa9393fb", "fusion_lon": 0.0, "rental_uris": {"ios": "https://dc.lft.to/lastmile_qr_scan", "android": "https://dc.lft.to/lastmile_qr_scan"}}, {"lon": -77.0372945, "fusion_lat": 0.0, "type": "electric_scooter", "lat": 38.92658333333333, "is_disabled": 0, "name": "929d2e86f29ff64e8b9b672d39679e91", "is_reserved": 0, "bike_id": "929d2e86f29ff64e8b9b672d39679e91", "fusion_lon": 0.0, "rental_uris": {"ios": "https://dc.lft.to/lastmile_qr_scan", "android": "https://dc.lft.to/lastmile_qr_scan"}}, {"lon": -77.01198233333334, "fusion_lat": 0.0, "type": "electric_scooter", "lat": 38.897717, "is_disabled": 0, "name": "22db4c750d3d0f468a3ef278994e6e02", "is_reserved": 0, "bike_id": "22db4c750d3d0f468a3ef278994e6e02", "fusion_lon": 0.0, "rental_uris": {"ios": "https://dc.lft.to/lastmile_qr_scan", "android": "https://dc.lft.to/lastmile_qr_scan"}}, {"lon": -77.04617783333333, "fusion_lat": 0.0, "type": "electric_scooter", "lat": 38.915752833333336, "is_disabled": 0, "name": "267a60f9ddcbaedafc812bc7a6be4f00", "is_reserved": 0, "bike_id": "267a60f9ddcbaedafc812bc7a6be4f00", "fusion_lon": 0.0, "rental_uris": {"ios": "https://dc.lft.to/lastmile_qr_scan", "android": "https://dc.lft.to/lastmile_qr_scan"}}, {"lon": -77.05127966666667, "fusion_lat": 0.0, "type": "electric_scooter", "lat": 38.902221833333336, "is_disabled": 0, "name": "14d8472d830973707a82b3273cdde178", "is_reserved": 0, "bike_id": "14d8472d830973707a82b3273cdde178", "fusion_lon": 0.0, "rental_uris": {"ios": "https://dc.lft.to/lastmile_qr_scan", "android": "https://dc.lft.to/lastmile_qr_scan"}}, {"lon": -76.9976725, "fusion_lat": 0.0, "type": "electric_scooter", "lat": 38.89418283333333, "is_disabled": 0, "name": "29d422aacbe5aeaeb467d0442c1c6bf2", "is_reserved": 0, "bike_id": "29d422aacbe5aeaeb467d0442c1c6bf2", "fusion_lon": 0.0, "rental_uris": {"ios": "https://dc.lft.to/lastmile_qr_scan", "android": "https://dc.lft.to/lastmile_qr_scan"}}, {"lon": -77.0333885, "fusion_lat": 0.0, "type": "electric_scooter", "lat": 38.8922425, "is_disabled": 0, "name": "f47b5db311a8198ff3926d6cac9f3370", "is_reserved": 0, "bike_id": "f47b5db311a8198ff3926d6cac9f3370", "fusion_lon": 0.0, "rental_uris": {"ios": "https://dc.lft.to/lastmile_qr_scan", "android": "https://dc.lft.to/lastmile_qr_scan"}}, {"lon": -77.12833933333333, "fusion_lat": 0.0, "type": "electric_bike", "lat": 38.80053733333333, "is_disabled": 0, "name": "bcabc750cde5147950a0dac00cab23ce", "is_reserved": 0, "bike_id": "bcabc750cde5147950a0dac00cab23ce", "fusion_lon": 0.0, "rental_uris": {"ios": "https://dc.lft.to/lastmile_qr_scan", "android": "https://dc.lft.to/lastmile_qr_scan"}}, {"lon": -77.01615516666666, "fusion_lat": 0.0, "type": "electric_scooter", "lat": 38.899779, "is_disabled": 0, "name": "4b0306077e7b968d062d30ed878056a9", "is_reserved": 0, "bike_id": "4b0306077e7b968d062d30ed878056a9", "fusion_lon": 0.0, "rental_uris": {"ios": "https://dc.lft.to/lastmile_qr_scan", "android": "https://dc.lft.to/lastmile_qr_scan"}}, {"lon": -77.04247983333333, "fusion_lat": 0.0, "type": "electric_scooter", "lat": 38.926334833333335, "is_disabled": 0, "name": "e48e6d178f9d1c6143b6b6353245e211", "is_reserved": 0, "bike_id": "e48e6d178f9d1c6143b6b6353245e211", "fusion_lon": 0.0, "rental_uris": {"ios": "https://dc.lft.to/lastmile_qr_scan", "android": "https://dc.lft.to/lastmile_qr_scan"}}, {"lon": -77.0024715, "fusion_lat": 0.0, "type": "electric_scooter", "lat": 38.88703983333333, "is_disabled": 0, "name": "f6b4fbd8d51a5251201cf65ed6cd0f17", "is_reserved": 0, "bike_id": "f6b4fbd8d51a5251201cf65ed6cd0f17", "fusion_lon": 0.0, "rental_uris": {"ios": "https://dc.lft.to/lastmile_qr_scan", "android": "https://dc.lft.to/lastmile_qr_scan"}}, {"lon": -77.03136233333333, "fusion_lat": 0.0, "type": "electric_scooter", "lat": 38.917223, "is_disabled": 0, "name": "41f2b56429f47cb907596b35ff832fcf", "is_reserved": 0, "bike_id": "41f2b56429f47cb907596b35ff832fcf", "fusion_lon": 0.0, "rental_uris": {"ios": "https://dc.lft.to/lastmile_qr_scan", "android": "https://dc.lft.to/lastmile_qr_scan"}}, {"lon": -77.021973, "fusion_lat": 0.0, "type": "electric_scooter", "lat": 38.90364833333334, "is_disabled": 0, "name": "7235ed8216deb62cc946e4c4d6d95e62", "is_reserved": 0, "bike_id": "7235ed8216deb62cc946e4c4d6d95e62", "fusion_lon": 0.0, "rental_uris": {"ios": "https://dc.lft.to/lastmile_qr_scan", "android": "https://dc.lft.to/lastmile_qr_scan"}}, {"lon": -77.01952016666667, "fusion_lat": 0.0, "type": "electric_scooter", "lat": 38.91902316666667, "is_disabled": 0, "name": "0f175750b5329b3d12755ba9cb0223e3", "is_reserved": 0, "bike_id": "0f175750b5329b3d12755ba9cb0223e3", "fusion_lon": 0.0, "rental_uris": {"ios": "https://dc.lft.to/lastmile_qr_scan", "android": "https://dc.lft.to/lastmile_qr_scan"}}, {"lon": -77.02773133333334, "fusion_lat": 0.0, "type": "electric_scooter", "lat": 38.90426033333333, "is_disabled": 0, "name": "c380af39e94d9e056d5b1934585f2d4a", "is_reserved": 0, "bike_id": "c380af39e94d9e056d5b1934585f2d4a", "fusion_lon": 0.0, "rental_uris": {"ios": "https://dc.lft.to/lastmile_qr_scan", "android": "https://dc.lft.to/lastmile_qr_scan"}}, {"lon": -77.01760316666666, "fusion_lat": 0.0, "type": "electric_scooter", "lat": 38.87857016666667, "is_disabled": 0, "name": "156882cc8ef9a62cb47674157a8590a0", "is_reserved": 0, "bike_id": "156882cc8ef9a62cb47674157a8590a0", "fusion_lon": 0.0, "rental_uris": {"ios": "https://dc.lft.to/lastmile_qr_scan", "android": "https://dc.lft.to/lastmile_qr_scan"}}, {"lon": -77.04152166666667, "fusion_lat": 0.0, "type": "electric_scooter", "lat": 38.92355116666667, "is_disabled": 0, "name": "2db53feb4110687343348ba7ebf4d4d6", "is_reserved": 0, "bike_id": "2db53feb4110687343348ba7ebf4d4d6", "fusion_lon": 0.0, "rental_uris": {"ios": "https://dc.lft.to/lastmile_qr_scan", "android": "https://dc.lft.to/lastmile_qr_scan"}}, {"lon": -76.99959083333333, "fusion_lat": 0.0, "type": "electric_scooter", "lat": 38.92567, "is_disabled": 0, "name": "e803b9c85948b2821b7b11336767cfbb", "is_reserved": 0, "bike_id": "e803b9c85948b2821b7b11336767cfbb", "fusion_lon": 0.0, "rental_uris": {"ios": "https://dc.lft.to/lastmile_qr_scan", "android": "https://dc.lft.to/lastmile_qr_scan"}}, {"lon": -77.02634833333333, "fusion_lat": 0.0, "type": "electric_scooter", "lat": 38.89439516666667, "is_disabled": 0, "name": "8a51738658f1d5773d6d682773785eb6", "is_reserved": 0, "bike_id": "8a51738658f1d5773d6d682773785eb6", "fusion_lon": 0.0, "rental_uris": {"ios": "https://dc.lft.to/lastmile_qr_scan", "android": "https://dc.lft.to/lastmile_qr_scan"}}, {"lon": -76.99285683333333, "fusion_lat": 0.0, "type": "electric_scooter", "lat": 38.88121833333334, "is_disabled": 0, "name": "ea05e05a2a0a4012034ae26468801d4c", "is_reserved": 0, "bike_id": "ea05e05a2a0a4012034ae26468801d4c", "fusion_lon": 0.0, "rental_uris": {"ios": "https://dc.lft.to/lastmile_qr_scan", "android": "https://dc.lft.to/lastmile_qr_scan"}}, {"lon": -77.04894116666667, "fusion_lat": 0.0, "type": "electric_scooter", "lat": 38.90520166666667, "is_disabled": 0, "name": "2cd58dda6027e58f037d3b2e40f24d28", "is_reserved": 0, "bike_id": "2cd58dda6027e58f037d3b2e40f24d28", "fusion_lon": 0.0, "rental_uris": {"ios": "https://dc.lft.to/lastmile_qr_scan", "android": "https://dc.lft.to/lastmile_qr_scan"}}, {"lon": -77.0486005, "fusion_lat": 0.0, "type": "electric_scooter", "lat": 38.90666616666667, "is_disabled": 0, "name": "bc95ad7e67c2dd9ed273345b6b99f2a7", "is_reserved": 0, "bike_id": "bc95ad7e67c2dd9ed273345b6b99f2a7", "fusion_lon": 0.0, "rental_uris": {"ios": "https://dc.lft.to/lastmile_qr_scan", "android": "https://dc.lft.to/lastmile_qr_scan"}}, {"lon": -77.02787566666667, "fusion_lat": 0.0, "type": "electric_scooter", "lat": 38.961893333333336, "is_disabled": 0, "name": "72bf006d7d120560bbc7ccf5cc20ee86", "is_reserved": 0, "bike_id": "72bf006d7d120560bbc7ccf5cc20ee86", "fusion_lon": 0.0, "rental_uris": {"ios": "https://dc.lft.to/lastmile_qr_scan", "android": "https://dc.lft.to/lastmile_qr_scan"}}, {"lon": -76.978321, "fusion_lat": 0.0, "type": "electric_scooter", "lat": 38.8991085, "is_disabled": 0, "name": "7dc50cecbd29badac195953b9b8955c9", "is_reserved": 0, "bike_id": "7dc50cecbd29badac195953b9b8955c9", "fusion_lon": 0.0, "rental_uris": {"ios": "https://dc.lft.to/lastmile_qr_scan", "android": "https://dc.lft.to/lastmile_qr_scan"}}, {"lon": -76.99156133333334, "fusion_lat": 0.0, "type": "electric_scooter", "lat": 38.90143316666666, "is_disabled": 0, "name": "172eef3aea712e094a0368d05f5f1ab6", "is_reserved": 0, "bike_id": "172eef3aea712e094a0368d05f5f1ab6", "fusion_lon": 0.0, "rental_uris": {"ios": "https://dc.lft.to/lastmile_qr_scan", "android": "https://dc.lft.to/lastmile_qr_scan"}}, {"lon": -77.0393515, "fusion_lat": 0.0, "type": "electric_scooter", "lat": 38.90158133333333, "is_disabled": 0, "name": "7ef2fc1bee2f19ad7456be7fa69bbe3f", "is_reserved": 0, "bike_id": "7ef2fc1bee2f19ad7456be7fa69bbe3f", "fusion_lon": 0.0, "rental_uris": {"ios": "https://dc.lft.to/lastmile_qr_scan", "android": "https://dc.lft.to/lastmile_qr_scan"}}, {"lon": -76.97048116666667, "fusion_lat": 0.0, "type": "electric_bike", "lat": 38.95885333333333, "is_disabled": 0, "name": "b4e22c1bacdebcb2978f6e61d95674c7", "is_reserved": 0, "bike_id": "b4e22c1bacdebcb2978f6e61d95674c7", "fusion_lon": 0.0, "rental_uris": {"ios": "https://dc.lft.to/lastmile_qr_scan", "android": "https://dc.lft.to/lastmile_qr_scan"}}, {"lon": -76.996351, "fusion_lat": 0.0, "type": "electric_scooter", "lat": 38.88133583333333, "is_disabled": 0, "name": "aba879e7c3dc2ca028fe028aabce0929", "is_reserved": 0, "bike_id": "aba879e7c3dc2ca028fe028aabce0929", "fusion_lon": 0.0, "rental_uris": {"ios": "https://dc.lft.to/lastmile_qr_scan", "android": "https://dc.lft.to/lastmile_qr_scan"}}, {"lon": -77.06188016666667, "fusion_lat": 0.0, "type": "electric_scooter", "lat": 38.930135, "is_disabled": 0, "name": "4f592b2fe01fd45a521ebf71c1846241", "is_reserved": 0, "bike_id": "4f592b2fe01fd45a521ebf71c1846241", "fusion_lon": 0.0, "rental_uris": {"ios": "https://dc.lft.to/lastmile_qr_scan", "android": "https://dc.lft.to/lastmile_qr_scan"}}, {"lon": -77.03823283333334, "fusion_lat": 0.0, "type": "electric_scooter", "lat": 38.9340445, "is_disabled": 0, "name": "5e7ea288364fa7bfaa25d5ad8d2feb33", "is_reserved": 0, "bike_id": "5e7ea288364fa7bfaa25d5ad8d2feb33", "fusion_lon": 0.0, "rental_uris": {"ios": "https://dc.lft.to/lastmile_qr_scan", "android": "https://dc.lft.to/lastmile_qr_scan"}}, {"lon": -76.99573133333334, "fusion_lat": 0.0, "type": "electric_scooter", "lat": 38.894831833333335, "is_disabled": 0, "name": "94f82491a58892c64a8d053f19562789", "is_reserved": 0, "bike_id": "94f82491a58892c64a8d053f19562789", "fusion_lon": 0.0, "rental_uris": {"ios": "https://dc.lft.to/lastmile_qr_scan", "android": "https://dc.lft.to/lastmile_qr_scan"}}, {"lon": -77.02301533333333, "fusion_lat": 0.0, "type": "electric_scooter", "lat": 38.90875916666667, "is_disabled": 0, "name": "dcdade41111198268a6880145af8c596", "is_reserved": 0, "bike_id": "dcdade41111198268a6880145af8c596", "fusion_lon": 0.0, "rental_uris": {"ios": "https://dc.lft.to/lastmile_qr_scan", "android": "https://dc.lft.to/lastmile_qr_scan"}}, {"lon": -76.998344, "fusion_lat": 0.0, "type": "electric_scooter", "lat": 38.9005795, "is_disabled": 0, "name": "0d21b09da03a4ff3a31e8f6329ff11a3", "is_reserved": 0, "bike_id": "0d21b09da03a4ff3a31e8f6329ff11a3", "fusion_lon": 0.0, "rental_uris": {"ios": "https://dc.lft.to/lastmile_qr_scan", "android": "https://dc.lft.to/lastmile_qr_scan"}}, {"lon": -77.044757, "fusion_lat": 0.0, "type": "electric_bike", "lat": 38.9242615, "is_disabled": 0, "name": "d2bdf816e0f83016a58ede38440a5b66", "is_reserved": 0, "bike_id": "d2bdf816e0f83016a58ede38440a5b66", "fusion_lon": 0.0, "rental_uris": {"ios": "https://dc.lft.to/lastmile_qr_scan", "android": "https://dc.lft.to/lastmile_qr_scan"}}, {"lon": -77.0168805, "fusion_lat": 0.0, "type": "electric_scooter", "lat": 38.904979833333336, "is_disabled": 0, "name": "23154d6b5a0c821ffac087abdaced7ef", "is_reserved": 0, "bike_id": "23154d6b5a0c821ffac087abdaced7ef", "fusion_lon": 0.0, "rental_uris": {"ios": "https://dc.lft.to/lastmile_qr_scan", "android": "https://dc.lft.to/lastmile_qr_scan"}}, {"lon": -76.99368866666667, "fusion_lat": 0.0, "type": "electric_scooter", "lat": 38.87664016666667, "is_disabled": 0, "name": "4c175efab600c40faa6ea1f7962fc532", "is_reserved": 0, "bike_id": "4c175efab600c40faa6ea1f7962fc532", "fusion_lon": 0.0, "rental_uris": {"ios": "https://dc.lft.to/lastmile_qr_scan", "android": "https://dc.lft.to/lastmile_qr_scan"}}, {"lon": -77.085316, "fusion_lat": 0.0, "type": "electric_scooter", "lat": 38.932927166666666, "is_disabled": 0, "name": "eb3bfa23c4ad33669f7eb830395c281d", "is_reserved": 0, "bike_id": "eb3bfa23c4ad33669f7eb830395c281d", "fusion_lon": 0.0, "rental_uris": {"ios": "https://dc.lft.to/lastmile_qr_scan", "android": "https://dc.lft.to/lastmile_qr_scan"}}, {"lon": -77.05427283333333, "fusion_lat": 0.0, "type": "electric_scooter", "lat": 38.928517, "is_disabled": 0, "name": "a29260c5e4c812c15b5b702098acaf78", "is_reserved": 0, "bike_id": "a29260c5e4c812c15b5b702098acaf78", "fusion_lon": 0.0, "rental_uris": {"ios": "https://dc.lft.to/lastmile_qr_scan", "android": "https://dc.lft.to/lastmile_qr_scan"}}, {"lon": -77.04509566666667, "fusion_lat": 0.0, "type": "electric_scooter", "lat": 38.886010166666665, "is_disabled": 0, "name": "9e62f6b4d2d713374a1a95444343e7ef", "is_reserved": 0, "bike_id": "9e62f6b4d2d713374a1a95444343e7ef", "fusion_lon": 0.0, "rental_uris": {"ios": "https://dc.lft.to/lastmile_qr_scan", "android": "https://dc.lft.to/lastmile_qr_scan"}}, {"lon": -76.97301466666667, "fusion_lat": 0.0, "type": "electric_scooter", "lat": 38.9199085, "is_disabled": 0, "name": "ac53a4577db732f343c7f1f8cf6b231f", "is_reserved": 0, "bike_id": "ac53a4577db732f343c7f1f8cf6b231f", "fusion_lon": 0.0, "rental_uris": {"ios": "https://dc.lft.to/lastmile_qr_scan", "android": "https://dc.lft.to/lastmile_qr_scan"}}, {"lon": -77.020203, "fusion_lat": 0.0, "type": "electric_scooter", "lat": 38.9244135, "is_disabled": 0, "name": "e2e8e885a1e44503d4e43a15a754e28c", "is_reserved": 0, "bike_id": "e2e8e885a1e44503d4e43a15a754e28c", "fusion_lon": 0.0, "rental_uris": {"ios": "https://dc.lft.to/lastmile_qr_scan", "android": "https://dc.lft.to/lastmile_qr_scan"}}, {"lon": -77.052371, "fusion_lat": 0.0, "type": "electric_scooter", "lat": 38.92465416666667, "is_disabled": 0, "name": "241d1a0e8da0a082fa7db34ea68c89bf", "is_reserved": 0, "bike_id": "241d1a0e8da0a082fa7db34ea68c89bf", "fusion_lon": 0.0, "rental_uris": {"ios": "https://dc.lft.to/lastmile_qr_scan", "android": "https://dc.lft.to/lastmile_qr_scan"}}, {"lon": -77.0216, "fusion_lat": 0.0, "type": "electric_scooter", "lat": 38.926095, "is_disabled": 0, "name": "4f0e520398ff70a2ef20157cfd3f7ebe", "is_reserved": 0, "bike_id": "4f0e520398ff70a2ef20157cfd3f7ebe", "fusion_lon": 0.0, "rental_uris": {"ios": "https://dc.lft.to/lastmile_qr_scan", "android": "https://dc.lft.to/lastmile_qr_scan"}}, {"lon": -77.0317185, "fusion_lat": 0.0, "type": "electric_scooter", "lat": 38.902647, "is_disabled": 0, "name": "2850b78bf1f648dac234d9cda80b16f5", "is_reserved": 0, "bike_id": "2850b78bf1f648dac234d9cda80b16f5", "fusion_lon": 0.0, "rental_uris": {"ios": "https://dc.lft.to/lastmile_qr_scan", "android": "https://dc.lft.to/lastmile_qr_scan"}}, {"lon": -77.04626816666666, "fusion_lat": 0.0, "type": "electric_scooter", "lat": 38.915647166666666, "is_disabled": 0, "name": "73086fa24afe671512a194a4682982cb", "is_reserved": 0, "bike_id": "73086fa24afe671512a194a4682982cb", "fusion_lon": 0.0, "rental_uris": {"ios": "https://dc.lft.to/lastmile_qr_scan", "android": "https://dc.lft.to/lastmile_qr_scan"}}, {"lon": -77.0246295, "fusion_lat": 0.0, "type": "electric_scooter", "lat": 38.9577955, "is_disabled": 0, "name": "6884d36fa4be53bce88df90d93cfb75c", "is_reserved": 0, "bike_id": "6884d36fa4be53bce88df90d93cfb75c", "fusion_lon": 0.0, "rental_uris": {"ios": "https://dc.lft.to/lastmile_qr_scan", "android": "https://dc.lft.to/lastmile_qr_scan"}}, {"lon": -77.03654433333334, "fusion_lat": 0.0, "type": "electric_scooter", "lat": 38.923377333333335, "is_disabled": 0, "name": "6c902a991c2a20c4556777751617ad36", "is_reserved": 0, "bike_id": "6c902a991c2a20c4556777751617ad36", "fusion_lon": 0.0, "rental_uris": {"ios": "https://dc.lft.to/lastmile_qr_scan", "android": "https://dc.lft.to/lastmile_qr_scan"}}, {"lon": -77.02663416666667, "fusion_lat": 0.0, "type": "electric_scooter", "lat": 38.896269, "is_disabled": 0, "name": "c08b58966ea6d51318640d326c5c285a", "is_reserved": 0, "bike_id": "c08b58966ea6d51318640d326c5c285a", "fusion_lon": 0.0, "rental_uris": {"ios": "https://dc.lft.to/lastmile_qr_scan", "android": "https://dc.lft.to/lastmile_qr_scan"}}, {"lon": -77.029374, "fusion_lat": 0.0, "type": "electric_scooter", "lat": 38.90263366666667, "is_disabled": 0, "name": "e29624a38e17199f1b22cc6d909079d8", "is_reserved": 0, "bike_id": "e29624a38e17199f1b22cc6d909079d8", "fusion_lon": 0.0, "rental_uris": {"ios": "https://dc.lft.to/lastmile_qr_scan", "android": "https://dc.lft.to/lastmile_qr_scan"}}, {"lon": -77.01970066666667, "fusion_lat": 0.0, "type": "electric_scooter", "lat": 38.89905266666667, "is_disabled": 0, "name": "26a2c64dfe5bed27d99c6c9b2d34d3f2", "is_reserved": 0, "bike_id": "26a2c64dfe5bed27d99c6c9b2d34d3f2", "fusion_lon": 0.0, "rental_uris": {"ios": "https://dc.lft.to/lastmile_qr_scan", "android": "https://dc.lft.to/lastmile_qr_scan"}}, {"lon": -77.01779, "fusion_lat": 0.0, "type": "electric_scooter", "lat": 38.90057266666667, "is_disabled": 0, "name": "1ade4c6f99a219a088aa1e156466a0cd", "is_reserved": 0, "bike_id": "1ade4c6f99a219a088aa1e156466a0cd", "fusion_lon": 0.0, "rental_uris": {"ios": "https://dc.lft.to/lastmile_qr_scan", "android": "https://dc.lft.to/lastmile_qr_scan"}}, {"lon": -76.98147816666666, "fusion_lat": 0.0, "type": "electric_bike", "lat": 39.00719216666667, "is_disabled": 0, "name": "12578b1becdb24d3f036e4b93b8e0028", "is_reserved": 0, "bike_id": "12578b1becdb24d3f036e4b93b8e0028", "fusion_lon": 0.0, "rental_uris": {"ios": "https://dc.lft.to/lastmile_qr_scan", "android": "https://dc.lft.to/lastmile_qr_scan"}}, {"lon": -77.00891533333333, "fusion_lat": 0.0, "type": "electric_scooter", "lat": 38.924753833333334, "is_disabled": 0, "name": "493a3ff3892f85319840b1506580e214", "is_reserved": 0, "bike_id": "493a3ff3892f85319840b1506580e214", "fusion_lon": 0.0, "rental_uris": {"ios": "https://dc.lft.to/lastmile_qr_scan", "android": "https://dc.lft.to/lastmile_qr_scan"}}, {"lon": -77.07811916666667, "fusion_lat": 0.0, "type": "electric_bike", "lat": 38.84916583333333, "is_disabled": 0, "name": "f9a6c5b0668c5d2a6557c580f0ea9f74", "is_reserved": 0, "bike_id": "f9a6c5b0668c5d2a6557c580f0ea9f74", "fusion_lon": 0.0, "rental_uris": {"ios": "https://dc.lft.to/lastmile_qr_scan", "android": "https://dc.lft.to/lastmile_qr_scan"}}, {"lon": -76.99424383333333, "fusion_lat": 0.0, "type": "electric_scooter", "lat": 38.90787733333333, "is_disabled": 0, "name": "a94ebc80c169c253952013a28a6f033c", "is_reserved": 0, "bike_id": "a94ebc80c169c253952013a28a6f033c", "fusion_lon": 0.0, "rental_uris": {"ios": "https://dc.lft.to/lastmile_qr_scan", "android": "https://dc.lft.to/lastmile_qr_scan"}}, {"lon": -77.03279266666667, "fusion_lat": 0.0, "type": "electric_scooter", "lat": 38.9284795, "is_disabled": 0, "name": "9361e1a62a68f7efc35590ebf4b07766", "is_reserved": 0, "bike_id": "9361e1a62a68f7efc35590ebf4b07766", "fusion_lon": 0.0, "rental_uris": {"ios": "https://dc.lft.to/lastmile_qr_scan", "android": "https://dc.lft.to/lastmile_qr_scan"}}, {"lon": -77.02476733333333, "fusion_lat": 0.0, "type": "electric_scooter", "lat": 38.918156833333335, "is_disabled": 0, "name": "a244634b0bd99af7b0667e6aa0e906cf", "is_reserved": 0, "bike_id": "a244634b0bd99af7b0667e6aa0e906cf", "fusion_lon": 0.0, "rental_uris": {"ios": "https://dc.lft.to/lastmile_qr_scan", "android": "https://dc.lft.to/lastmile_qr_scan"}}, {"lon": -77.041462, "fusion_lat": 0.0, "type": "electric_scooter", "lat": 38.91709733333333, "is_disabled": 0, "name": "1cae30df0bd01a5525cfc4910e235faa", "is_reserved": 0, "bike_id": "1cae30df0bd01a5525cfc4910e235faa", "fusion_lon": 0.0, "rental_uris": {"ios": "https://dc.lft.to/lastmile_qr_scan", "android": "https://dc.lft.to/lastmile_qr_scan"}}, {"lon": -77.04621466666667, "fusion_lat": 0.0, "type": "electric_scooter", "lat": 38.919264166666665, "is_disabled": 0, "name": "cc041dcd1ef95cdecdc62c8880208501", "is_reserved": 0, "bike_id": "cc041dcd1ef95cdecdc62c8880208501", "fusion_lon": 0.0, "rental_uris": {"ios": "https://dc.lft.to/lastmile_qr_scan", "android": "https://dc.lft.to/lastmile_qr_scan"}}, {"lon": -77.01365866666667, "fusion_lat": 0.0, "type": "electric_scooter", "lat": 38.887055333333336, "is_disabled": 0, "name": "8af6c16c3c75d7360ad8266e2853a77c", "is_reserved": 0, "bike_id": "8af6c16c3c75d7360ad8266e2853a77c", "fusion_lon": 0.0, "rental_uris": {"ios": "https://dc.lft.to/lastmile_qr_scan", "android": "https://dc.lft.to/lastmile_qr_scan"}}, {"lon": -77.030862, "fusion_lat": 0.0, "type": "electric_scooter", "lat": 38.926705, "is_disabled": 0, "name": "a8350931a0f3c9b6ec8947ff5b8e3e8a", "is_reserved": 0, "bike_id": "a8350931a0f3c9b6ec8947ff5b8e3e8a", "fusion_lon": 0.0, "rental_uris": {"ios": "https://dc.lft.to/lastmile_qr_scan", "android": "https://dc.lft.to/lastmile_qr_scan"}}, {"lon": -77.00725616666666, "fusion_lat": 0.0, "type": "electric_scooter", "lat": 38.884965666666666, "is_disabled": 0, "name": "50c8ce9f7b294dfc91d0932c4a4f9741", "is_reserved": 0, "bike_id": "50c8ce9f7b294dfc91d0932c4a4f9741", "fusion_lon": 0.0, "rental_uris": {"ios": "https://dc.lft.to/lastmile_qr_scan", "android": "https://dc.lft.to/lastmile_qr_scan"}}, {"lon": -77.02405716666667, "fusion_lat": 0.0, "type": "electric_scooter", "lat": 38.901806, "is_disabled": 0, "name": "cd1ea86553de10e5e0dd4124e96fb923", "is_reserved": 0, "bike_id": "cd1ea86553de10e5e0dd4124e96fb923", "fusion_lon": 0.0, "rental_uris": {"ios": "https://dc.lft.to/lastmile_qr_scan", "android": "https://dc.lft.to/lastmile_qr_scan"}}, {"lon": -77.040044, "fusion_lat": 0.0, "type": "electric_scooter", "lat": 38.907278, "is_disabled": 0, "name": "a903d9b16448562d42ebf91577842936", "is_reserved": 0, "bike_id": "a903d9b16448562d42ebf91577842936", "fusion_lon": 0.0, "rental_uris": {"ios": "https://dc.lft.to/lastmile_qr_scan", "android": "https://dc.lft.to/lastmile_qr_scan"}}, {"lon": -77.00352383333333, "fusion_lat": 0.0, "type": "electric_scooter", "lat": 38.911068666666665, "is_disabled": 0, "name": "cad2f8aac2422170a06d1800dff68716", "is_reserved": 0, "bike_id": "cad2f8aac2422170a06d1800dff68716", "fusion_lon": 0.0, "rental_uris": {"ios": "https://dc.lft.to/lastmile_qr_scan", "android": "https://dc.lft.to/lastmile_qr_scan"}}, {"lon": -77.02964766666666, "fusion_lat": 0.0, "type": "electric_scooter", "lat": 38.92549833333333, "is_disabled": 0, "name": "aa810f5083cca87cc02bcde668182165", "is_reserved": 0, "bike_id": "aa810f5083cca87cc02bcde668182165", "fusion_lon": 0.0, "rental_uris": {"ios": "https://dc.lft.to/lastmile_qr_scan", "android": "https://dc.lft.to/lastmile_qr_scan"}}, {"lon": -77.01527033333333, "fusion_lat": 0.0, "type": "electric_scooter", "lat": 38.884863333333335, "is_disabled": 0, "name": "2aa0500a09ba77cd6cb7afcc72e73515", "is_reserved": 0, "bike_id": "2aa0500a09ba77cd6cb7afcc72e73515", "fusion_lon": 0.0, "rental_uris": {"ios": "https://dc.lft.to/lastmile_qr_scan", "android": "https://dc.lft.to/lastmile_qr_scan"}}, {"lon": -76.97408283333333, "fusion_lat": 0.0, "type": "electric_scooter", "lat": 38.898382166666664, "is_disabled": 0, "name": "3eb06854e4ccec8f5dd468d902f209ae", "is_reserved": 0, "bike_id": "3eb06854e4ccec8f5dd468d902f209ae", "fusion_lon": 0.0, "rental_uris": {"ios": "https://dc.lft.to/lastmile_qr_scan", "android": "https://dc.lft.to/lastmile_qr_scan"}}, {"lon": -77.019065, "fusion_lat": 0.0, "type": "electric_scooter", "lat": 38.914136, "is_disabled": 0, "name": "dd28dfad4106b7c2618787120fee1fb7", "is_reserved": 0, "bike_id": "dd28dfad4106b7c2618787120fee1fb7", "fusion_lon": 0.0, "rental_uris": {"ios": "https://dc.lft.to/lastmile_qr_scan", "android": "https://dc.lft.to/lastmile_qr_scan"}}, {"lon": -76.982005, "fusion_lat": 0.0, "type": "electric_scooter", "lat": 38.905667, "is_disabled": 0, "name": "0ca4a46bf5aedf52554226eed9980ba3", "is_reserved": 0, "bike_id": "0ca4a46bf5aedf52554226eed9980ba3", "fusion_lon": 0.0, "rental_uris": {"ios": "https://dc.lft.to/lastmile_qr_scan", "android": "https://dc.lft.to/lastmile_qr_scan"}}, {"lon": -77.044833, "fusion_lat": 0.0, "type": "electric_scooter", "lat": 38.89714683333333, "is_disabled": 0, "name": "79387d58b7f58ad9c82a095005de9a4a", "is_reserved": 0, "bike_id": "79387d58b7f58ad9c82a095005de9a4a", "fusion_lon": 0.0, "rental_uris": {"ios": "https://dc.lft.to/lastmile_qr_scan", "android": "https://dc.lft.to/lastmile_qr_scan"}}, {"lon": -77.05806383333334, "fusion_lat": 0.0, "type": "electric_scooter", "lat": 38.934598, "is_disabled": 0, "name": "bc8163f3355c38769bae0b6d4b46047e", "is_reserved": 0, "bike_id": "bc8163f3355c38769bae0b6d4b46047e", "fusion_lon": 0.0, "rental_uris": {"ios": "https://dc.lft.to/lastmile_qr_scan", "android": "https://dc.lft.to/lastmile_qr_scan"}}, {"lon": -77.025916, "fusion_lat": 0.0, "type": "electric_scooter", "lat": 38.897412, "is_disabled": 0, "name": "affb42c4cfd882b164e2012f1bb4d7f0", "is_reserved": 0, "bike_id": "affb42c4cfd882b164e2012f1bb4d7f0", "fusion_lon": 0.0, "rental_uris": {"ios": "https://dc.lft.to/lastmile_qr_scan", "android": "https://dc.lft.to/lastmile_qr_scan"}}, {"lon": -77.02682116666666, "fusion_lat": 0.0, "type": "electric_scooter", "lat": 38.89776366666667, "is_disabled": 0, "name": "1faa218e1d7d6b9b775447963aba1738", "is_reserved": 0, "bike_id": "1faa218e1d7d6b9b775447963aba1738", "fusion_lon": 0.0, "rental_uris": {"ios": "https://dc.lft.to/lastmile_qr_scan", "android": "https://dc.lft.to/lastmile_qr_scan"}}, {"lon": -77.0319165, "fusion_lat": 0.0, "type": "electric_scooter", "lat": 38.903727333333336, "is_disabled": 0, "name": "2e090e99e96b0776758e7a3197a46ade", "is_reserved": 0, "bike_id": "2e090e99e96b0776758e7a3197a46ade", "fusion_lon": 0.0, "rental_uris": {"ios": "https://dc.lft.to/lastmile_qr_scan", "android": "https://dc.lft.to/lastmile_qr_scan"}}, {"lon": -77.07522616666667, "fusion_lat": 0.0, "type": "electric_scooter", "lat": 38.90877033333334, "is_disabled": 0, "name": "6305bade0843b5d40c1904519195ccec", "is_reserved": 0, "bike_id": "6305bade0843b5d40c1904519195ccec", "fusion_lon": 0.0, "rental_uris": {"ios": "https://dc.lft.to/lastmile_qr_scan", "android": "https://dc.lft.to/lastmile_qr_scan"}}, {"lon": -77.03466216666666, "fusion_lat": 0.0, "type": "electric_scooter", "lat": 38.90288866666667, "is_disabled": 0, "name": "70c18963df87ac7416d9794f220ade8f", "is_reserved": 0, "bike_id": "70c18963df87ac7416d9794f220ade8f", "fusion_lon": 0.0, "rental_uris": {"ios": "https://dc.lft.to/lastmile_qr_scan", "android": "https://dc.lft.to/lastmile_qr_scan"}}, {"lon": -76.99656783333333, "fusion_lat": 0.0, "type": "electric_bike", "lat": 38.8826825, "is_disabled": 0, "name": "c7b2f861b51e21483a1ca8319332f465", "is_reserved": 0, "bike_id": "c7b2f861b51e21483a1ca8319332f465", "fusion_lon": 0.0, "rental_uris": {"ios": "https://dc.lft.to/lastmile_qr_scan", "android": "https://dc.lft.to/lastmile_qr_scan"}}, {"lon": -76.94285783333333, "fusion_lat": 0.0, "type": "electric_scooter", "lat": 38.88343066666667, "is_disabled": 0, "name": "c02e95e46f61ce2ae12fb12c68f66495", "is_reserved": 0, "bike_id": "c02e95e46f61ce2ae12fb12c68f66495", "fusion_lon": 0.0, "rental_uris": {"ios": "https://dc.lft.to/lastmile_qr_scan", "android": "https://dc.lft.to/lastmile_qr_scan"}}, {"lon": -77.00259366666667, "fusion_lat": 0.0, "type": "electric_scooter", "lat": 38.9650415, "is_disabled": 0, "name": "61ccdc00bccd1a51bafd2196f47edcf9", "is_reserved": 0, "bike_id": "61ccdc00bccd1a51bafd2196f47edcf9", "fusion_lon": 0.0, "rental_uris": {"ios": "https://dc.lft.to/lastmile_qr_scan", "android": "https://dc.lft.to/lastmile_qr_scan"}}, {"lon": -77.046897, "fusion_lat": 0.0, "type": "electric_scooter", "lat": 38.900591, "is_disabled": 0, "name": "52c6365b56a5bdb55d820e2b42c4da55", "is_reserved": 0, "bike_id": "52c6365b56a5bdb55d820e2b42c4da55", "fusion_lon": 0.0, "rental_uris": {"ios": "https://dc.lft.to/lastmile_qr_scan", "android": "https://dc.lft.to/lastmile_qr_scan"}}, {"lon": -76.93180933333333, "fusion_lat": 0.0, "type": "electric_bike", "lat": 38.898809666666665, "is_disabled": 0, "name": "d5c8049246391d337a04d1d0e7478da7", "is_reserved": 0, "bike_id": "d5c8049246391d337a04d1d0e7478da7", "fusion_lon": 0.0, "rental_uris": {"ios": "https://dc.lft.to/lastmile_qr_scan", "android": "https://dc.lft.to/lastmile_qr_scan"}}, {"lon": -77.025666, "fusion_lat": 0.0, "type": "electric_scooter", "lat": 38.88425183333333, "is_disabled": 0, "name": "b6ac46dd906761561c3ddc43088cc749", "is_reserved": 0, "bike_id": "b6ac46dd906761561c3ddc43088cc749", "fusion_lon": 0.0, "rental_uris": {"ios": "https://dc.lft.to/lastmile_qr_scan", "android": "https://dc.lft.to/lastmile_qr_scan"}}, {"lon": -77.00377, "fusion_lat": 0.0, "type": "electric_scooter", "lat": 38.879357, "is_disabled": 0, "name": "2d004ee4b9019ee53f0330a8a47cc8cb", "is_reserved": 0, "bike_id": "2d004ee4b9019ee53f0330a8a47cc8cb", "fusion_lon": 0.0, "rental_uris": {"ios": "https://dc.lft.to/lastmile_qr_scan", "android": "https://dc.lft.to/lastmile_qr_scan"}}, {"lon": -77.02007733333333, "fusion_lat": 0.0, "type": "electric_scooter", "lat": 38.89484183333333, "is_disabled": 0, "name": "3d4c9945220edfd4700b06a0065a8c51", "is_reserved": 0, "bike_id": "3d4c9945220edfd4700b06a0065a8c51", "fusion_lon": 0.0, "rental_uris": {"ios": "https://dc.lft.to/lastmile_qr_scan", "android": "https://dc.lft.to/lastmile_qr_scan"}}, {"lon": -77.020242, "fusion_lat": 0.0, "type": "electric_scooter", "lat": 38.9216415, "is_disabled": 0, "name": "8df9c2eec0143a561e3588d1f7aac967", "is_reserved": 0, "bike_id": "8df9c2eec0143a561e3588d1f7aac967", "fusion_lon": 0.0, "rental_uris": {"ios": "https://dc.lft.to/lastmile_qr_scan", "android": "https://dc.lft.to/lastmile_qr_scan"}}, {"lon": -77.04451216666666, "fusion_lat": 0.0, "type": "electric_scooter", "lat": 38.91017133333333, "is_disabled": 0, "name": "7d16af723882d6dbe7b8bdae6b587305", "is_reserved": 0, "bike_id": "7d16af723882d6dbe7b8bdae6b587305", "fusion_lon": 0.0, "rental_uris": {"ios": "https://dc.lft.to/lastmile_qr_scan", "android": "https://dc.lft.to/lastmile_qr_scan"}}, {"lon": -77.02787616666667, "fusion_lat": 0.0, "type": "electric_scooter", "lat": 38.9305965, "is_disabled": 0, "name": "1da081f68f5ae5cf4df86673ab547de0", "is_reserved": 0, "bike_id": "1da081f68f5ae5cf4df86673ab547de0", "fusion_lon": 0.0, "rental_uris": {"ios": "https://dc.lft.to/lastmile_qr_scan", "android": "https://dc.lft.to/lastmile_qr_scan"}}, {"lon": -77.0318345, "fusion_lat": 0.0, "type": "electric_scooter", "lat": 38.89240916666667, "is_disabled": 0, "name": "786d39a8e8babf8c4b682e2a28c0d013", "is_reserved": 0, "bike_id": "786d39a8e8babf8c4b682e2a28c0d013", "fusion_lon": 0.0, "rental_uris": {"ios": "https://dc.lft.to/lastmile_qr_scan", "android": "https://dc.lft.to/lastmile_qr_scan"}}, {"lon": -77.011412, "fusion_lat": 0.0, "type": "electric_scooter", "lat": 38.895316, "is_disabled": 0, "name": "f9047cd3c4f881e8eb6d53a1800a376b", "is_reserved": 0, "bike_id": "f9047cd3c4f881e8eb6d53a1800a376b", "fusion_lon": 0.0, "rental_uris": {"ios": "https://dc.lft.to/lastmile_qr_scan", "android": "https://dc.lft.to/lastmile_qr_scan"}}, {"lon": -77.03958866666666, "fusion_lat": 0.0, "type": "electric_scooter", "lat": 38.90135766666667, "is_disabled": 0, "name": "ecbe71155c9a318257323d219aaa68c4", "is_reserved": 0, "bike_id": "ecbe71155c9a318257323d219aaa68c4", "fusion_lon": 0.0, "rental_uris": {"ios": "https://dc.lft.to/lastmile_qr_scan", "android": "https://dc.lft.to/lastmile_qr_scan"}}, {"lon": -77.01962383333333, "fusion_lat": 0.0, "type": "electric_scooter", "lat": 38.923254166666666, "is_disabled": 0, "name": "2608ce0ae6f1e697f6a7a3cdeb504940", "is_reserved": 0, "bike_id": "2608ce0ae6f1e697f6a7a3cdeb504940", "fusion_lon": 0.0, "rental_uris": {"ios": "https://dc.lft.to/lastmile_qr_scan", "android": "https://dc.lft.to/lastmile_qr_scan"}}, {"lon": -77.03251983333334, "fusion_lat": 0.0, "type": "electric_scooter", "lat": 38.92904683333333, "is_disabled": 0, "name": "d9aea145c0c5898918c48f80e32024c0", "is_reserved": 0, "bike_id": "d9aea145c0c5898918c48f80e32024c0", "fusion_lon": 0.0, "rental_uris": {"ios": "https://dc.lft.to/lastmile_qr_scan", "android": "https://dc.lft.to/lastmile_qr_scan"}}, {"lon": -77.07336883333333, "fusion_lat": 0.0, "type": "electric_scooter", "lat": 38.909797833333336, "is_disabled": 0, "name": "12c2cf3df6abe27516df178a2694003a", "is_reserved": 0, "bike_id": "12c2cf3df6abe27516df178a2694003a", "fusion_lon": 0.0, "rental_uris": {"ios": "https://dc.lft.to/lastmile_qr_scan", "android": "https://dc.lft.to/lastmile_qr_scan"}}, {"lon": -76.99903233333333, "fusion_lat": 0.0, "type": "electric_scooter", "lat": 38.92840483333333, "is_disabled": 0, "name": "f60f0db7bea9650f341c9122fb38a239", "is_reserved": 0, "bike_id": "f60f0db7bea9650f341c9122fb38a239", "fusion_lon": 0.0, "rental_uris": {"ios": "https://dc.lft.to/lastmile_qr_scan", "android": "https://dc.lft.to/lastmile_qr_scan"}}, {"lon": -77.04662316666666, "fusion_lat": 0.0, "type": "electric_scooter", "lat": 38.90948183333333, "is_disabled": 0, "name": "93461bfe48165fb1a5171cff68b9e77a", "is_reserved": 0, "bike_id": "93461bfe48165fb1a5171cff68b9e77a", "fusion_lon": 0.0, "rental_uris": {"ios": "https://dc.lft.to/lastmile_qr_scan", "android": "https://dc.lft.to/lastmile_qr_scan"}}, {"lon": -77.02180033333333, "fusion_lat": 0.0, "type": "electric_scooter", "lat": 38.884971666666665, "is_disabled": 0, "name": "acf14c0a83cd7027661655634c3f00db", "is_reserved": 0, "bike_id": "acf14c0a83cd7027661655634c3f00db", "fusion_lon": 0.0, "rental_uris": {"ios": "https://dc.lft.to/lastmile_qr_scan", "android": "https://dc.lft.to/lastmile_qr_scan"}}, {"lon": -77.0004785, "fusion_lat": 0.0, "type": "electric_bike", "lat": 38.79334633333333, "is_disabled": 0, "name": "c8729d6805b144a88df4ba5594fa3c91", "is_reserved": 0, "bike_id": "c8729d6805b144a88df4ba5594fa3c91", "fusion_lon": 0.0, "rental_uris": {"ios": "https://dc.lft.to/lastmile_qr_scan", "android": "https://dc.lft.to/lastmile_qr_scan"}}, {"lon": -76.93712866666667, "fusion_lat": 0.0, "type": "electric_scooter", "lat": 38.890183666666665, "is_disabled": 0, "name": "181b1f2f3e8571917ea4318510a22193", "is_reserved": 0, "bike_id": "181b1f2f3e8571917ea4318510a22193", "fusion_lon": 0.0, "rental_uris": {"ios": "https://dc.lft.to/lastmile_qr_scan", "android": "https://dc.lft.to/lastmile_qr_scan"}}, {"lon": -77.02289733333333, "fusion_lat": 0.0, "type": "electric_scooter", "lat": 38.89512083333334, "is_disabled": 0, "name": "8b1789ffa6c6a488f3e939186a4d335c", "is_reserved": 0, "bike_id": "8b1789ffa6c6a488f3e939186a4d335c", "fusion_lon": 0.0, "rental_uris": {"ios": "https://dc.lft.to/lastmile_qr_scan", "android": "https://dc.lft.to/lastmile_qr_scan"}}, {"lon": -77.04330816666666, "fusion_lat": 0.0, "type": "electric_scooter", "lat": 38.903840833333334, "is_disabled": 0, "name": "020fe287511986e69301dc42df107988", "is_reserved": 0, "bike_id": "020fe287511986e69301dc42df107988", "fusion_lon": 0.0, "rental_uris": {"ios": "https://dc.lft.to/lastmile_qr_scan", "android": "https://dc.lft.to/lastmile_qr_scan"}}, {"lon": -76.93367666666667, "fusion_lat": 0.0, "type": "electric_bike", "lat": 38.903301166666665, "is_disabled": 0, "name": "bf41e858c9a1ccde82cc8ea0a7164a38", "is_reserved": 0, "bike_id": "bf41e858c9a1ccde82cc8ea0a7164a38", "fusion_lon": 0.0, "rental_uris": {"ios": "https://dc.lft.to/lastmile_qr_scan", "android": "https://dc.lft.to/lastmile_qr_scan"}}, {"lon": -77.04825333333334, "fusion_lat": 0.0, "type": "electric_scooter", "lat": 38.918683333333334, "is_disabled": 0, "name": "9be7d06c91565678991a4731fe04c96d", "is_reserved": 0, "bike_id": "9be7d06c91565678991a4731fe04c96d", "fusion_lon": 0.0, "rental_uris": {"ios": "https://dc.lft.to/lastmile_qr_scan", "android": "https://dc.lft.to/lastmile_qr_scan"}}, {"lon": -77.00058, "fusion_lat": 0.0, "type": "electric_scooter", "lat": 38.90735016666667, "is_disabled": 0, "name": "fed255497659d17a95dbf3f2f98999b8", "is_reserved": 0, "bike_id": "fed255497659d17a95dbf3f2f98999b8", "fusion_lon": 0.0, "rental_uris": {"ios": "https://dc.lft.to/lastmile_qr_scan", "android": "https://dc.lft.to/lastmile_qr_scan"}}, {"lon": -77.04719966666667, "fusion_lat": 0.0, "type": "electric_scooter", "lat": 38.91880166666667, "is_disabled": 0, "name": "f85b9fd2151f721ce50a79faed016b91", "is_reserved": 0, "bike_id": "f85b9fd2151f721ce50a79faed016b91", "fusion_lon": 0.0, "rental_uris": {"ios": "https://dc.lft.to/lastmile_qr_scan", "android": "https://dc.lft.to/lastmile_qr_scan"}}, {"lon": -77.0351145, "fusion_lat": 0.0, "type": "electric_scooter", "lat": 38.915514, "is_disabled": 0, "name": "fe5cd3398930524ce67d2ac8802044e2", "is_reserved": 0, "bike_id": "fe5cd3398930524ce67d2ac8802044e2", "fusion_lon": 0.0, "rental_uris": {"ios": "https://dc.lft.to/lastmile_qr_scan", "android": "https://dc.lft.to/lastmile_qr_scan"}}, {"lon": -76.9783995, "fusion_lat": 0.0, "type": "electric_scooter", "lat": 38.8656795, "is_disabled": 0, "name": "9c84c915463c4c83e7a9b36d3bc1b71d", "is_reserved": 0, "bike_id": "9c84c915463c4c83e7a9b36d3bc1b71d", "fusion_lon": 0.0, "rental_uris": {"ios": "https://dc.lft.to/lastmile_qr_scan", "android": "https://dc.lft.to/lastmile_qr_scan"}}, {"lon": -77.04823383333333, "fusion_lat": 0.0, "type": "electric_scooter", "lat": 38.9203945, "is_disabled": 0, "name": "ebc2ebfce1dc9ec034e1a740d366fe72", "is_reserved": 0, "bike_id": "ebc2ebfce1dc9ec034e1a740d366fe72", "fusion_lon": 0.0, "rental_uris": {"ios": "https://dc.lft.to/lastmile_qr_scan", "android": "https://dc.lft.to/lastmile_qr_scan"}}, {"lon": -77.02476016666667, "fusion_lat": 0.0, "type": "electric_scooter", "lat": 38.897546166666665, "is_disabled": 0, "name": "d6669a7c80d2f521e56153c1d41aa194", "is_reserved": 0, "bike_id": "d6669a7c80d2f521e56153c1d41aa194", "fusion_lon": 0.0, "rental_uris": {"ios": "https://dc.lft.to/lastmile_qr_scan", "android": "https://dc.lft.to/lastmile_qr_scan"}}, {"lon": -77.05802266666667, "fusion_lat": 0.0, "type": "electric_scooter", "lat": 38.9029425, "is_disabled": 0, "name": "83693e92b946413e2258669836c21513", "is_reserved": 0, "bike_id": "83693e92b946413e2258669836c21513", "fusion_lon": 0.0, "rental_uris": {"ios": "https://dc.lft.to/lastmile_qr_scan", "android": "https://dc.lft.to/lastmile_qr_scan"}}, {"lon": -77.0414205, "fusion_lat": 0.0, "type": "electric_scooter", "lat": 38.910406333333334, "is_disabled": 0, "name": "a5eadc821cac0fddcb4013f234f30abc", "is_reserved": 0, "bike_id": "a5eadc821cac0fddcb4013f234f30abc", "fusion_lon": 0.0, "rental_uris": {"ios": "https://dc.lft.to/lastmile_qr_scan", "android": "https://dc.lft.to/lastmile_qr_scan"}}, {"lon": -76.94677333333334, "fusion_lat": 0.0, "type": "electric_scooter", "lat": 38.8987335, "is_disabled": 0, "name": "2d14c3decdaa9d9a228fe9159dd3fe25", "is_reserved": 0, "bike_id": "2d14c3decdaa9d9a228fe9159dd3fe25", "fusion_lon": 0.0, "rental_uris": {"ios": "https://dc.lft.to/lastmile_qr_scan", "android": "https://dc.lft.to/lastmile_qr_scan"}}, {"lon": -77.00712233333333, "fusion_lat": 0.0, "type": "electric_scooter", "lat": 38.88494, "is_disabled": 0, "name": "086f598cc06226982afd01b13366ca05", "is_reserved": 0, "bike_id": "086f598cc06226982afd01b13366ca05", "fusion_lon": 0.0, "rental_uris": {"ios": "https://dc.lft.to/lastmile_qr_scan", "android": "https://dc.lft.to/lastmile_qr_scan"}}, {"lon": -77.03206566666667, "fusion_lat": 0.0, "type": "electric_scooter", "lat": 38.88622516666667, "is_disabled": 0, "name": "4fc89335ef832e2cb067a4bfe6d0391c", "is_reserved": 0, "bike_id": "4fc89335ef832e2cb067a4bfe6d0391c", "fusion_lon": 0.0, "rental_uris": {"ios": "https://dc.lft.to/lastmile_qr_scan", "android": "https://dc.lft.to/lastmile_qr_scan"}}, {"lon": -76.99270066666666, "fusion_lat": 0.0, "type": "electric_scooter", "lat": 38.883536, "is_disabled": 0, "name": "22d2ef26d66aa10cd6ce5cd35c8363b0", "is_reserved": 0, "bike_id": "22d2ef26d66aa10cd6ce5cd35c8363b0", "fusion_lon": 0.0, "rental_uris": {"ios": "https://dc.lft.to/lastmile_qr_scan", "android": "https://dc.lft.to/lastmile_qr_scan"}}, {"lon": -77.02395283333334, "fusion_lat": 0.0, "type": "electric_scooter", "lat": 38.91604, "is_disabled": 0, "name": "44ab0b7e61b8cac0446212b2f69d01ab", "is_reserved": 0, "bike_id": "44ab0b7e61b8cac0446212b2f69d01ab", "fusion_lon": 0.0, "rental_uris": {"ios": "https://dc.lft.to/lastmile_qr_scan", "android": "https://dc.lft.to/lastmile_qr_scan"}}, {"lon": -77.059984, "fusion_lat": 0.0, "type": "electric_scooter", "lat": 38.9364195, "is_disabled": 0, "name": "a22f98b0162e6a4a3e2782e6ca5c50c5", "is_reserved": 0, "bike_id": "a22f98b0162e6a4a3e2782e6ca5c50c5", "fusion_lon": 0.0, "rental_uris": {"ios": "https://dc.lft.to/lastmile_qr_scan", "android": "https://dc.lft.to/lastmile_qr_scan"}}, {"lon": -77.03196866666667, "fusion_lat": 0.0, "type": "electric_scooter", "lat": 38.91574816666667, "is_disabled": 0, "name": "1f0ff37610d4a9d9145f05018a513d90", "is_reserved": 0, "bike_id": "1f0ff37610d4a9d9145f05018a513d90", "fusion_lon": 0.0, "rental_uris": {"ios": "https://dc.lft.to/lastmile_qr_scan", "android": "https://dc.lft.to/lastmile_qr_scan"}}, {"lon": -77.01636033333334, "fusion_lat": 0.0, "type": "electric_scooter", "lat": 38.92900866666667, "is_disabled": 0, "name": "8a5f7cf1ed6c84a680f852642a4e5429", "is_reserved": 0, "bike_id": "8a5f7cf1ed6c84a680f852642a4e5429", "fusion_lon": 0.0, "rental_uris": {"ios": "https://dc.lft.to/lastmile_qr_scan", "android": "https://dc.lft.to/lastmile_qr_scan"}}, {"lon": -76.989054, "fusion_lat": 0.0, "type": "electric_scooter", "lat": 38.90031716666667, "is_disabled": 0, "name": "d25264cafc13f5443b2ea02ea5476e86", "is_reserved": 0, "bike_id": "d25264cafc13f5443b2ea02ea5476e86", "fusion_lon": 0.0, "rental_uris": {"ios": "https://dc.lft.to/lastmile_qr_scan", "android": "https://dc.lft.to/lastmile_qr_scan"}}, {"lon": -77.04212316666667, "fusion_lat": 0.0, "type": "electric_scooter", "lat": 38.901449166666666, "is_disabled": 0, "name": "3b47c35d6080c196ea4ba60782988423", "is_reserved": 0, "bike_id": "3b47c35d6080c196ea4ba60782988423", "fusion_lon": 0.0, "rental_uris": {"ios": "https://dc.lft.to/lastmile_qr_scan", "android": "https://dc.lft.to/lastmile_qr_scan"}}, {"lon": -77.049973, "fusion_lat": 0.0, "type": "electric_scooter", "lat": 38.90117016666667, "is_disabled": 0, "name": "90d54e6f5a77061f0860b3f7208564a3", "is_reserved": 0, "bike_id": "90d54e6f5a77061f0860b3f7208564a3", "fusion_lon": 0.0, "rental_uris": {"ios": "https://dc.lft.to/lastmile_qr_scan", "android": "https://dc.lft.to/lastmile_qr_scan"}}, {"lon": -76.99116583333333, "fusion_lat": 0.0, "type": "electric_scooter", "lat": 38.8971, "is_disabled": 0, "name": "f1ca21b8c25c53faba3afbcbfc39d2de", "is_reserved": 0, "bike_id": "f1ca21b8c25c53faba3afbcbfc39d2de", "fusion_lon": 0.0, "rental_uris": {"ios": "https://dc.lft.to/lastmile_qr_scan", "android": "https://dc.lft.to/lastmile_qr_scan"}}, {"lon": -77.0212515, "fusion_lat": 0.0, "type": "electric_scooter", "lat": 38.92379, "is_disabled": 0, "name": "bc762a996ea83f25e89d9365f2902fc9", "is_reserved": 0, "bike_id": "bc762a996ea83f25e89d9365f2902fc9", "fusion_lon": 0.0, "rental_uris": {"ios": "https://dc.lft.to/lastmile_qr_scan", "android": "https://dc.lft.to/lastmile_qr_scan"}}, {"lon": -77.02805816666667, "fusion_lat": 0.0, "type": "electric_scooter", "lat": 38.89821883333333, "is_disabled": 0, "name": "8d835f03494cc9614d8a3852a651d14d", "is_reserved": 0, "bike_id": "8d835f03494cc9614d8a3852a651d14d", "fusion_lon": 0.0, "rental_uris": {"ios": "https://dc.lft.to/lastmile_qr_scan", "android": "https://dc.lft.to/lastmile_qr_scan"}}, {"lon": -77.13458466666667, "fusion_lat": 0.0, "type": "electric_bike", "lat": 39.094351833333334, "is_disabled": 0, "name": "6a313d5aa02d1373af52caece5a43dc2", "is_reserved": 0, "bike_id": "6a313d5aa02d1373af52caece5a43dc2", "fusion_lon": 0.0, "rental_uris": {"ios": "https://dc.lft.to/lastmile_qr_scan", "android": "https://dc.lft.to/lastmile_qr_scan"}}, {"lon": -77.034868, "fusion_lat": 0.0, "type": "electric_scooter", "lat": 38.90568916666667, "is_disabled": 0, "name": "44c89d0d7ddfe21cd95e3224e7fd7331", "is_reserved": 0, "bike_id": "44c89d0d7ddfe21cd95e3224e7fd7331", "fusion_lon": 0.0, "rental_uris": {"ios": "https://dc.lft.to/lastmile_qr_scan", "android": "https://dc.lft.to/lastmile_qr_scan"}}, {"lon": -77.02849933333333, "fusion_lat": 0.0, "type": "electric_scooter", "lat": 38.935341333333334, "is_disabled": 0, "name": "c6156a090c11192cf236ca0cc73cb292", "is_reserved": 0, "bike_id": "c6156a090c11192cf236ca0cc73cb292", "fusion_lon": 0.0, "rental_uris": {"ios": "https://dc.lft.to/lastmile_qr_scan", "android": "https://dc.lft.to/lastmile_qr_scan"}}, {"lon": -77.01104483333333, "fusion_lat": 0.0, "type": "electric_scooter", "lat": 38.89588466666667, "is_disabled": 0, "name": "d17f30b7207876b9fe6d57d67caae00c", "is_reserved": 0, "bike_id": "d17f30b7207876b9fe6d57d67caae00c", "fusion_lon": 0.0, "rental_uris": {"ios": "https://dc.lft.to/lastmile_qr_scan", "android": "https://dc.lft.to/lastmile_qr_scan"}}, {"lon": -77.03048116666666, "fusion_lat": 0.0, "type": "electric_scooter", "lat": 38.923756, "is_disabled": 0, "name": "a5e50e0f9d8db22b54ba5da1c562977e", "is_reserved": 0, "bike_id": "a5e50e0f9d8db22b54ba5da1c562977e", "fusion_lon": 0.0, "rental_uris": {"ios": "https://dc.lft.to/lastmile_qr_scan", "android": "https://dc.lft.to/lastmile_qr_scan"}}, {"lon": -77.0421135, "fusion_lat": 0.0, "type": "electric_scooter", "lat": 38.90265766666667, "is_disabled": 0, "name": "66fd53db61e07d731474bf585fa27a4d", "is_reserved": 0, "bike_id": "66fd53db61e07d731474bf585fa27a4d", "fusion_lon": 0.0, "rental_uris": {"ios": "https://dc.lft.to/lastmile_qr_scan", "android": "https://dc.lft.to/lastmile_qr_scan"}}, {"lon": -76.93713066666666, "fusion_lat": 0.0, "type": "electric_scooter", "lat": 38.890243, "is_disabled": 0, "name": "204ad20132039429b9f671e7270f096f", "is_reserved": 0, "bike_id": "204ad20132039429b9f671e7270f096f", "fusion_lon": 0.0, "rental_uris": {"ios": "https://dc.lft.to/lastmile_qr_scan", "android": "https://dc.lft.to/lastmile_qr_scan"}}, {"lon": -77.0256175, "fusion_lat": 0.0, "type": "electric_scooter", "lat": 38.9206985, "is_disabled": 0, "name": "07b1b771a6db43e91aa86869ab80953f", "is_reserved": 0, "bike_id": "07b1b771a6db43e91aa86869ab80953f", "fusion_lon": 0.0, "rental_uris": {"ios": "https://dc.lft.to/lastmile_qr_scan", "android": "https://dc.lft.to/lastmile_qr_scan"}}, {"lon": -76.979151, "fusion_lat": 0.0, "type": "electric_scooter", "lat": 38.86659916666667, "is_disabled": 0, "name": "bc1ab6eb9cbc49ccee664c7e9fc34daf", "is_reserved": 0, "bike_id": "bc1ab6eb9cbc49ccee664c7e9fc34daf", "fusion_lon": 0.0, "rental_uris": {"ios": "https://dc.lft.to/lastmile_qr_scan", "android": "https://dc.lft.to/lastmile_qr_scan"}}, {"lon": -77.02738666666667, "fusion_lat": 0.0, "type": "electric_scooter", "lat": 38.91887366666667, "is_disabled": 0, "name": "f29531b3e44651019f500bf61ba8e76d", "is_reserved": 0, "bike_id": "f29531b3e44651019f500bf61ba8e76d", "fusion_lon": 0.0, "rental_uris": {"ios": "https://dc.lft.to/lastmile_qr_scan", "android": "https://dc.lft.to/lastmile_qr_scan"}}, {"lon": -76.93667783333333, "fusion_lat": 0.0, "type": "electric_scooter", "lat": 38.89685083333333, "is_disabled": 0, "name": "3bdfb512afd0ead79027a63b41b610f1", "is_reserved": 0, "bike_id": "3bdfb512afd0ead79027a63b41b610f1", "fusion_lon": 0.0, "rental_uris": {"ios": "https://dc.lft.to/lastmile_qr_scan", "android": "https://dc.lft.to/lastmile_qr_scan"}}, {"lon": -76.93717466666666, "fusion_lat": 0.0, "type": "electric_scooter", "lat": 38.890173833333336, "is_disabled": 0, "name": "ed0cf333d5c9c4f4a7049442ea925de4", "is_reserved": 0, "bike_id": "ed0cf333d5c9c4f4a7049442ea925de4", "fusion_lon": 0.0, "rental_uris": {"ios": "https://dc.lft.to/lastmile_qr_scan", "android": "https://dc.lft.to/lastmile_qr_scan"}}, {"lon": -77.03299783333334, "fusion_lat": 0.0, "type": "electric_scooter", "lat": 38.90961433333333, "is_disabled": 0, "name": "be16c7e10d35e3ce5636d42fac5b5244", "is_reserved": 0, "bike_id": "be16c7e10d35e3ce5636d42fac5b5244", "fusion_lon": 0.0, "rental_uris": {"ios": "https://dc.lft.to/lastmile_qr_scan", "android": "https://dc.lft.to/lastmile_qr_scan"}}, {"lon": -76.988162, "fusion_lat": 0.0, "type": "electric_bike", "lat": 38.803846666666665, "is_disabled": 0, "name": "913021c711c9a823f92e18f4b71e4321", "is_reserved": 0, "bike_id": "913021c711c9a823f92e18f4b71e4321", "fusion_lon": 0.0, "rental_uris": {"ios": "https://dc.lft.to/lastmile_qr_scan", "android": "https://dc.lft.to/lastmile_qr_scan"}}, {"lon": -77.02964933333334, "fusion_lat": 0.0, "type": "electric_scooter", "lat": 38.9168185, "is_disabled": 0, "name": "32b8f0f73482b14bbbe174e389967cbb", "is_reserved": 0, "bike_id": "32b8f0f73482b14bbbe174e389967cbb", "fusion_lon": 0.0, "rental_uris": {"ios": "https://dc.lft.to/lastmile_qr_scan", "android": "https://dc.lft.to/lastmile_qr_scan"}}, {"lon": -77.06042133333334, "fusion_lat": 0.0, "type": "electric_scooter", "lat": 38.93905616666667, "is_disabled": 0, "name": "6d12ee091926caa1d57453a218db3ccb", "is_reserved": 0, "bike_id": "6d12ee091926caa1d57453a218db3ccb", "fusion_lon": 0.0, "rental_uris": {"ios": "https://dc.lft.to/lastmile_qr_scan", "android": "https://dc.lft.to/lastmile_qr_scan"}}, {"lon": -77.02712133333333, "fusion_lat": 0.0, "type": "electric_scooter", "lat": 38.89718766666667, "is_disabled": 0, "name": "f437791d87541e29536b30b7799f6855", "is_reserved": 0, "bike_id": "f437791d87541e29536b30b7799f6855", "fusion_lon": 0.0, "rental_uris": {"ios": "https://dc.lft.to/lastmile_qr_scan", "android": "https://dc.lft.to/lastmile_qr_scan"}}, {"lon": -77.01415266666666, "fusion_lat": 0.0, "type": "electric_bike", "lat": 38.8904955, "is_disabled": 0, "name": "9079cf614a355a757f11853c502554ea", "is_reserved": 0, "bike_id": "9079cf614a355a757f11853c502554ea", "fusion_lon": 0.0, "rental_uris": {"ios": "https://dc.lft.to/lastmile_qr_scan", "android": "https://dc.lft.to/lastmile_qr_scan"}}, {"lon": -76.97954016666667, "fusion_lat": 0.0, "type": "electric_bike", "lat": 38.92037716666667, "is_disabled": 0, "name": "84f394b159e26d05933808b5d1afeb51", "is_reserved": 0, "bike_id": "84f394b159e26d05933808b5d1afeb51", "fusion_lon": 0.0, "rental_uris": {"ios": "https://dc.lft.to/lastmile_qr_scan", "android": "https://dc.lft.to/lastmile_qr_scan"}}, {"lon": -77.05821266666666, "fusion_lat": 0.0, "type": "electric_scooter", "lat": 38.9053135, "is_disabled": 0, "name": "34efc0f7e88a978c5c9a5b72a65e2993", "is_reserved": 0, "bike_id": "34efc0f7e88a978c5c9a5b72a65e2993", "fusion_lon": 0.0, "rental_uris": {"ios": "https://dc.lft.to/lastmile_qr_scan", "android": "https://dc.lft.to/lastmile_qr_scan"}}, {"lon": -77.0327175, "fusion_lat": 0.0, "type": "electric_scooter", "lat": 38.929073, "is_disabled": 0, "name": "974da59dcd6dc83603a8419d7aff8e6c", "is_reserved": 0, "bike_id": "974da59dcd6dc83603a8419d7aff8e6c", "fusion_lon": 0.0, "rental_uris": {"ios": "https://dc.lft.to/lastmile_qr_scan", "android": "https://dc.lft.to/lastmile_qr_scan"}}, {"lon": -77.07272433333333, "fusion_lat": 0.0, "type": "electric_scooter", "lat": 38.90902, "is_disabled": 0, "name": "618888fce451c03f759fca7f8383a9a6", "is_reserved": 0, "bike_id": "618888fce451c03f759fca7f8383a9a6", "fusion_lon": 0.0, "rental_uris": {"ios": "https://dc.lft.to/lastmile_qr_scan", "android": "https://dc.lft.to/lastmile_qr_scan"}}, {"lon": -77.00065216666667, "fusion_lat": 0.0, "type": "electric_scooter", "lat": 38.924364, "is_disabled": 0, "name": "2fc1ab1bafca8275ac4de419f35c96e7", "is_reserved": 0, "bike_id": "2fc1ab1bafca8275ac4de419f35c96e7", "fusion_lon": 0.0, "rental_uris": {"ios": "https://dc.lft.to/lastmile_qr_scan", "android": "https://dc.lft.to/lastmile_qr_scan"}}, {"lon": -77.002891, "fusion_lat": 0.0, "type": "electric_scooter", "lat": 38.900111333333335, "is_disabled": 0, "name": "6d852245b14d57ac7836c9fbc0aeb7e2", "is_reserved": 0, "bike_id": "6d852245b14d57ac7836c9fbc0aeb7e2", "fusion_lon": 0.0, "rental_uris": {"ios": "https://dc.lft.to/lastmile_qr_scan", "android": "https://dc.lft.to/lastmile_qr_scan"}}, {"lon": -77.03082566666667, "fusion_lat": 0.0, "type": "electric_scooter", "lat": 38.927881, "is_disabled": 0, "name": "e5366185c8639aea4a789173df7a5763", "is_reserved": 0, "bike_id": "e5366185c8639aea4a789173df7a5763", "fusion_lon": 0.0, "rental_uris": {"ios": "https://dc.lft.to/lastmile_qr_scan", "android": "https://dc.lft.to/lastmile_qr_scan"}}, {"lon": -77.00716433333334, "fusion_lat": 0.0, "type": "electric_scooter", "lat": 38.915567, "is_disabled": 0, "name": "67049c6d4c9de317d76b6a5368a36cb5", "is_reserved": 0, "bike_id": "67049c6d4c9de317d76b6a5368a36cb5", "fusion_lon": 0.0, "rental_uris": {"ios": "https://dc.lft.to/lastmile_qr_scan", "android": "https://dc.lft.to/lastmile_qr_scan"}}, {"lon": -77.04070783333333, "fusion_lat": 0.0, "type": "electric_scooter", "lat": 38.9002445, "is_disabled": 0, "name": "81c5307ee0a9c677e22a580219cba318", "is_reserved": 0, "bike_id": "81c5307ee0a9c677e22a580219cba318", "fusion_lon": 0.0, "rental_uris": {"ios": "https://dc.lft.to/lastmile_qr_scan", "android": "https://dc.lft.to/lastmile_qr_scan"}}, {"lon": -77.04634483333334, "fusion_lat": 0.0, "type": "electric_scooter", "lat": 38.90230316666667, "is_disabled": 0, "name": "303d9d228328bb62f843189f5a200d3e", "is_reserved": 0, "bike_id": "303d9d228328bb62f843189f5a200d3e", "fusion_lon": 0.0, "rental_uris": {"ios": "https://dc.lft.to/lastmile_qr_scan", "android": "https://dc.lft.to/lastmile_qr_scan"}}, {"lon": -76.9838035, "fusion_lat": 0.0, "type": "electric_scooter", "lat": 38.914914833333334, "is_disabled": 0, "name": "1dbda366cb2e5713ea27fbf19a70676c", "is_reserved": 0, "bike_id": "1dbda366cb2e5713ea27fbf19a70676c", "fusion_lon": 0.0, "rental_uris": {"ios": "https://dc.lft.to/lastmile_qr_scan", "android": "https://dc.lft.to/lastmile_qr_scan"}}, {"lon": -77.04481583333333, "fusion_lat": 0.0, "type": "electric_scooter", "lat": 38.89679116666667, "is_disabled": 0, "name": "d94b38bc314cb7868ae8d25601dc0ccf", "is_reserved": 0, "bike_id": "d94b38bc314cb7868ae8d25601dc0ccf", "fusion_lon": 0.0, "rental_uris": {"ios": "https://dc.lft.to/lastmile_qr_scan", "android": "https://dc.lft.to/lastmile_qr_scan"}}, {"lon": -76.9812095, "fusion_lat": 0.0, "type": "electric_scooter", "lat": 38.84629366666667, "is_disabled": 0, "name": "364c9449e413b746c989645b0a660597", "is_reserved": 0, "bike_id": "364c9449e413b746c989645b0a660597", "fusion_lon": 0.0, "rental_uris": {"ios": "https://dc.lft.to/lastmile_qr_scan", "android": "https://dc.lft.to/lastmile_qr_scan"}}, {"lon": -77.04250366666666, "fusion_lat": 0.0, "type": "electric_scooter", "lat": 38.90820166666666, "is_disabled": 0, "name": "92cfe2b2b11ef4be3a4e11ccd662b9cc", "is_reserved": 0, "bike_id": "92cfe2b2b11ef4be3a4e11ccd662b9cc", "fusion_lon": 0.0, "rental_uris": {"ios": "https://dc.lft.to/lastmile_qr_scan", "android": "https://dc.lft.to/lastmile_qr_scan"}}, {"lon": -77.01457066666667, "fusion_lat": 0.0, "type": "electric_scooter", "lat": 38.87964633333333, "is_disabled": 0, "name": "a567332f2ea2e48274f7991111c77055", "is_reserved": 0, "bike_id": "a567332f2ea2e48274f7991111c77055", "fusion_lon": 0.0, "rental_uris": {"ios": "https://dc.lft.to/lastmile_qr_scan", "android": "https://dc.lft.to/lastmile_qr_scan"}}, {"lon": -77.01507366666667, "fusion_lat": 0.0, "type": "electric_scooter", "lat": 38.89959, "is_disabled": 0, "name": "15182aed6020704eb10a531c6eb9e7f4", "is_reserved": 0, "bike_id": "15182aed6020704eb10a531c6eb9e7f4", "fusion_lon": 0.0, "rental_uris": {"ios": "https://dc.lft.to/lastmile_qr_scan", "android": "https://dc.lft.to/lastmile_qr_scan"}}, {"lon": -77.02123966666667, "fusion_lat": 0.0, "type": "electric_scooter", "lat": 38.94061266666667, "is_disabled": 0, "name": "b9a1cf9f1b3a91c814a2e45e336eb65e", "is_reserved": 0, "bike_id": "b9a1cf9f1b3a91c814a2e45e336eb65e", "fusion_lon": 0.0, "rental_uris": {"ios": "https://dc.lft.to/lastmile_qr_scan", "android": "https://dc.lft.to/lastmile_qr_scan"}}, {"lon": -76.97688216666667, "fusion_lat": 0.0, "type": "electric_bike", "lat": 38.9016745, "is_disabled": 0, "name": "b550f9b9d36158292fc0b2e65686f34e", "is_reserved": 0, "bike_id": "b550f9b9d36158292fc0b2e65686f34e", "fusion_lon": 0.0, "rental_uris": {"ios": "https://dc.lft.to/lastmile_qr_scan", "android": "https://dc.lft.to/lastmile_qr_scan"}}, {"lon": -77.001452, "fusion_lat": 0.0, "type": "electric_scooter", "lat": 38.83120733333333, "is_disabled": 0, "name": "60481573d45e311a9a8d7d49609fb8f8", "is_reserved": 0, "bike_id": "60481573d45e311a9a8d7d49609fb8f8", "fusion_lon": 0.0, "rental_uris": {"ios": "https://dc.lft.to/lastmile_qr_scan", "android": "https://dc.lft.to/lastmile_qr_scan"}}, {"lon": -76.9969745, "fusion_lat": 0.0, "type": "electric_scooter", "lat": 38.90833583333333, "is_disabled": 0, "name": "1a4902843beff095e99d7b82e923303d", "is_reserved": 0, "bike_id": "1a4902843beff095e99d7b82e923303d", "fusion_lon": 0.0, "rental_uris": {"ios": "https://dc.lft.to/lastmile_qr_scan", "android": "https://dc.lft.to/lastmile_qr_scan"}}, {"lon": -77.07277, "fusion_lat": 0.0, "type": "electric_scooter", "lat": 38.90903333333333, "is_disabled": 0, "name": "88df71c3664f77bb82b5f426e4d64acd", "is_reserved": 0, "bike_id": "88df71c3664f77bb82b5f426e4d64acd", "fusion_lon": 0.0, "rental_uris": {"ios": "https://dc.lft.to/lastmile_qr_scan", "android": "https://dc.lft.to/lastmile_qr_scan"}}, {"lon": -76.983896, "fusion_lat": 0.0, "type": "electric_scooter", "lat": 38.9199915, "is_disabled": 0, "name": "c57c84c8f3d9520be59a8f4d38290731", "is_reserved": 0, "bike_id": "c57c84c8f3d9520be59a8f4d38290731", "fusion_lon": 0.0, "rental_uris": {"ios": "https://dc.lft.to/lastmile_qr_scan", "android": "https://dc.lft.to/lastmile_qr_scan"}}, {"lon": -77.026564, "fusion_lat": 0.0, "type": "electric_scooter", "lat": 38.922110833333335, "is_disabled": 0, "name": "aa491c69cb5d02fc8354bff8696cb5d6", "is_reserved": 0, "bike_id": "aa491c69cb5d02fc8354bff8696cb5d6", "fusion_lon": 0.0, "rental_uris": {"ios": "https://dc.lft.to/lastmile_qr_scan", "android": "https://dc.lft.to/lastmile_qr_scan"}}, {"lon": -77.03072483333334, "fusion_lat": 0.0, "type": "electric_scooter", "lat": 38.922463, "is_disabled": 0, "name": "e45a146365db3be93ee4ec4bab1b6046", "is_reserved": 0, "bike_id": "e45a146365db3be93ee4ec4bab1b6046", "fusion_lon": 0.0, "rental_uris": {"ios": "https://dc.lft.to/lastmile_qr_scan", "android": "https://dc.lft.to/lastmile_qr_scan"}}, {"lon": -77.048205, "fusion_lat": 0.0, "type": "electric_scooter", "lat": 38.90963883333333, "is_disabled": 0, "name": "07ef2d0b9850af82dd4cd105a90b6105", "is_reserved": 0, "bike_id": "07ef2d0b9850af82dd4cd105a90b6105", "fusion_lon": 0.0, "rental_uris": {"ios": "https://dc.lft.to/lastmile_qr_scan", "android": "https://dc.lft.to/lastmile_qr_scan"}}, {"lon": -77.00407833333334, "fusion_lat": 0.0, "type": "electric_scooter", "lat": 38.92949316666667, "is_disabled": 0, "name": "85be08669fa2c23ed73a4dff97b2fc5a", "is_reserved": 0, "bike_id": "85be08669fa2c23ed73a4dff97b2fc5a", "fusion_lon": 0.0, "rental_uris": {"ios": "https://dc.lft.to/lastmile_qr_scan", "android": "https://dc.lft.to/lastmile_qr_scan"}}, {"lon": -76.93750883333334, "fusion_lat": 0.0, "type": "electric_scooter", "lat": 38.890406, "is_disabled": 0, "name": "5b2cb2721e3be2e936904a806e61835d", "is_reserved": 0, "bike_id": "5b2cb2721e3be2e936904a806e61835d", "fusion_lon": 0.0, "rental_uris": {"ios": "https://dc.lft.to/lastmile_qr_scan", "android": "https://dc.lft.to/lastmile_qr_scan"}}, {"lon": -77.021848, "fusion_lat": 0.0, "type": "electric_scooter", "lat": 38.887182833333334, "is_disabled": 0, "name": "3084fdd067545f1d7cda9389ac5d634d", "is_reserved": 0, "bike_id": "3084fdd067545f1d7cda9389ac5d634d", "fusion_lon": 0.0, "rental_uris": {"ios": "https://dc.lft.to/lastmile_qr_scan", "android": "https://dc.lft.to/lastmile_qr_scan"}}, {"lon": -77.023123, "fusion_lat": 0.0, "type": "electric_scooter", "lat": 38.920712, "is_disabled": 0, "name": "69a0619e329e82b03f127d6bb57ab0c5", "is_reserved": 0, "bike_id": "69a0619e329e82b03f127d6bb57ab0c5", "fusion_lon": 0.0, "rental_uris": {"ios": "https://dc.lft.to/lastmile_qr_scan", "android": "https://dc.lft.to/lastmile_qr_scan"}}, {"lon": -77.02164866666666, "fusion_lat": 0.0, "type": "electric_scooter", "lat": 38.892191, "is_disabled": 0, "name": "0517d8a72ea9a8f640e4d7d0ddfe2849", "is_reserved": 0, "bike_id": "0517d8a72ea9a8f640e4d7d0ddfe2849", "fusion_lon": 0.0, "rental_uris": {"ios": "https://dc.lft.to/lastmile_qr_scan", "android": "https://dc.lft.to/lastmile_qr_scan"}}, {"lon": -77.00989466666667, "fusion_lat": 0.0, "type": "electric_scooter", "lat": 38.89472883333333, "is_disabled": 0, "name": "23f021f575430c66c9c837e05388d8f4", "is_reserved": 0, "bike_id": "23f021f575430c66c9c837e05388d8f4", "fusion_lon": 0.0, "rental_uris": {"ios": "https://dc.lft.to/lastmile_qr_scan", "android": "https://dc.lft.to/lastmile_qr_scan"}}, {"lon": -77.021183, "fusion_lat": 0.0, "type": "electric_scooter", "lat": 38.923633, "is_disabled": 0, "name": "73fc831cdae357301426debf8252ae9e", "is_reserved": 0, "bike_id": "73fc831cdae357301426debf8252ae9e", "fusion_lon": 0.0, "rental_uris": {"ios": "https://dc.lft.to/lastmile_qr_scan", "android": "https://dc.lft.to/lastmile_qr_scan"}}, {"lon": -76.983551, "fusion_lat": 0.0, "type": "electric_scooter", "lat": 38.887241333333336, "is_disabled": 0, "name": "6a255d3cec2c4b2de9b7f33ce847ebf8", "is_reserved": 0, "bike_id": "6a255d3cec2c4b2de9b7f33ce847ebf8", "fusion_lon": 0.0, "rental_uris": {"ios": "https://dc.lft.to/lastmile_qr_scan", "android": "https://dc.lft.to/lastmile_qr_scan"}}, {"lon": -77.04947133333333, "fusion_lat": 0.0, "type": "electric_scooter", "lat": 38.92350416666667, "is_disabled": 0, "name": "ad56a76d4f9c5a200c6d430563dfb9df", "is_reserved": 0, "bike_id": "ad56a76d4f9c5a200c6d430563dfb9df", "fusion_lon": 0.0, "rental_uris": {"ios": "https://dc.lft.to/lastmile_qr_scan", "android": "https://dc.lft.to/lastmile_qr_scan"}}, {"lon": -76.973299, "fusion_lat": 0.0, "type": "electric_scooter", "lat": 38.904121833333335, "is_disabled": 0, "name": "a889a6d18ce6a671508d41009eba5e1a", "is_reserved": 0, "bike_id": "a889a6d18ce6a671508d41009eba5e1a", "fusion_lon": 0.0, "rental_uris": {"ios": "https://dc.lft.to/lastmile_qr_scan", "android": "https://dc.lft.to/lastmile_qr_scan"}}, {"lon": -76.95833733333333, "fusion_lat": 0.0, "type": "electric_scooter", "lat": 38.9304625, "is_disabled": 0, "name": "853ca65789afc0f74403eb70d4f50101", "is_reserved": 0, "bike_id": "853ca65789afc0f74403eb70d4f50101", "fusion_lon": 0.0, "rental_uris": {"ios": "https://dc.lft.to/lastmile_qr_scan", "android": "https://dc.lft.to/lastmile_qr_scan"}}, {"lon": -77.03739416666667, "fusion_lat": 0.0, "type": "electric_scooter", "lat": 38.90375383333333, "is_disabled": 0, "name": "b26eaedff1a1e2db29a481720498567f", "is_reserved": 0, "bike_id": "b26eaedff1a1e2db29a481720498567f", "fusion_lon": 0.0, "rental_uris": {"ios": "https://dc.lft.to/lastmile_qr_scan", "android": "https://dc.lft.to/lastmile_qr_scan"}}, {"lon": -77.06937583333334, "fusion_lat": 0.0, "type": "electric_bike", "lat": 38.955484, "is_disabled": 0, "name": "24c83a756af6866edc267b4d25fd873e", "is_reserved": 0, "bike_id": "24c83a756af6866edc267b4d25fd873e", "fusion_lon": 0.0, "rental_uris": {"ios": "https://dc.lft.to/lastmile_qr_scan", "android": "https://dc.lft.to/lastmile_qr_scan"}}, {"lon": -76.9931735, "fusion_lat": 0.0, "type": "electric_scooter", "lat": 38.876589, "is_disabled": 0, "name": "43e92262c72bc4f85e50d647e246ca89", "is_reserved": 0, "bike_id": "43e92262c72bc4f85e50d647e246ca89", "fusion_lon": 0.0, "rental_uris": {"ios": "https://dc.lft.to/lastmile_qr_scan", "android": "https://dc.lft.to/lastmile_qr_scan"}}, {"lon": -77.13917883333333, "fusion_lat": 0.0, "type": "electric_bike", "lat": 38.846735833333334, "is_disabled": 0, "name": "eb3286cff4e86eec247d9330ad92ea07", "is_reserved": 0, "bike_id": "eb3286cff4e86eec247d9330ad92ea07", "fusion_lon": 0.0, "rental_uris": {"ios": "https://dc.lft.to/lastmile_qr_scan", "android": "https://dc.lft.to/lastmile_qr_scan"}}, {"lon": -77.04902833333334, "fusion_lat": 0.0, "type": "electric_scooter", "lat": 38.89833683333333, "is_disabled": 0, "name": "df14c1aa4ca9b9d3000a769968ec131e", "is_reserved": 0, "bike_id": "df14c1aa4ca9b9d3000a769968ec131e", "fusion_lon": 0.0, "rental_uris": {"ios": "https://dc.lft.to/lastmile_qr_scan", "android": "https://dc.lft.to/lastmile_qr_scan"}}, {"lon": -77.03559783333333, "fusion_lat": 0.0, "type": "electric_scooter", "lat": 38.920789, "is_disabled": 0, "name": "63ee5727af7d22f750df22ef8708523b", "is_reserved": 0, "bike_id": "63ee5727af7d22f750df22ef8708523b", "fusion_lon": 0.0, "rental_uris": {"ios": "https://dc.lft.to/lastmile_qr_scan", "android": "https://dc.lft.to/lastmile_qr_scan"}}, {"lon": -77.04814283333333, "fusion_lat": 0.0, "type": "electric_scooter", "lat": 38.916297, "is_disabled": 0, "name": "45cd9ae661c9566bfd91368ddec11553", "is_reserved": 0, "bike_id": "45cd9ae661c9566bfd91368ddec11553", "fusion_lon": 0.0, "rental_uris": {"ios": "https://dc.lft.to/lastmile_qr_scan", "android": "https://dc.lft.to/lastmile_qr_scan"}}, {"lon": -77.01752966666666, "fusion_lat": 0.0, "type": "electric_scooter", "lat": 38.902631, "is_disabled": 0, "name": "c0b31ac6a6f01ebd27ae228132056259", "is_reserved": 0, "bike_id": "c0b31ac6a6f01ebd27ae228132056259", "fusion_lon": 0.0, "rental_uris": {"ios": "https://dc.lft.to/lastmile_qr_scan", "android": "https://dc.lft.to/lastmile_qr_scan"}}, {"lon": -77.0269285, "fusion_lat": 0.0, "type": "electric_scooter", "lat": 38.906799166666666, "is_disabled": 0, "name": "a9eb7733386229ccef21bc0ffb2d260c", "is_reserved": 0, "bike_id": "a9eb7733386229ccef21bc0ffb2d260c", "fusion_lon": 0.0, "rental_uris": {"ios": "https://dc.lft.to/lastmile_qr_scan", "android": "https://dc.lft.to/lastmile_qr_scan"}}, {"lon": -76.99518983333333, "fusion_lat": 0.0, "type": "electric_scooter", "lat": 38.883700833333336, "is_disabled": 0, "name": "0dd4c7c929e4d8e060bdd82a08c4c4b8", "is_reserved": 0, "bike_id": "0dd4c7c929e4d8e060bdd82a08c4c4b8", "fusion_lon": 0.0, "rental_uris": {"ios": "https://dc.lft.to/lastmile_qr_scan", "android": "https://dc.lft.to/lastmile_qr_scan"}}, {"lon": -76.99767466666667, "fusion_lat": 0.0, "type": "electric_scooter", "lat": 38.906959, "is_disabled": 0, "name": "c5ae6010113ecd76086e04a466c0ac7d", "is_reserved": 0, "bike_id": "c5ae6010113ecd76086e04a466c0ac7d", "fusion_lon": 0.0, "rental_uris": {"ios": "https://dc.lft.to/lastmile_qr_scan", "android": "https://dc.lft.to/lastmile_qr_scan"}}, {"lon": -77.04778016666667, "fusion_lat": 0.0, "type": "electric_scooter", "lat": 38.91648966666666, "is_disabled": 0, "name": "84461b4a59654e7cb3401ab1cee63632", "is_reserved": 0, "bike_id": "84461b4a59654e7cb3401ab1cee63632", "fusion_lon": 0.0, "rental_uris": {"ios": "https://dc.lft.to/lastmile_qr_scan", "android": "https://dc.lft.to/lastmile_qr_scan"}}, {"lon": -77.03099016666667, "fusion_lat": 0.0, "type": "electric_scooter", "lat": 38.896294, "is_disabled": 0, "name": "1f19a72c98aee7ca288cb9e6ea141133", "is_reserved": 0, "bike_id": "1f19a72c98aee7ca288cb9e6ea141133", "fusion_lon": 0.0, "rental_uris": {"ios": "https://dc.lft.to/lastmile_qr_scan", "android": "https://dc.lft.to/lastmile_qr_scan"}}, {"lon": -77.032132, "fusion_lat": 0.0, "type": "electric_scooter", "lat": 38.908885, "is_disabled": 0, "name": "cc96c474b798d0e0dba2c21dabdf04e4", "is_reserved": 0, "bike_id": "cc96c474b798d0e0dba2c21dabdf04e4", "fusion_lon": 0.0, "rental_uris": {"ios": "https://dc.lft.to/lastmile_qr_scan", "android": "https://dc.lft.to/lastmile_qr_scan"}}, {"lon": -77.03656883333333, "fusion_lat": 0.0, "type": "electric_scooter", "lat": 38.91646883333333, "is_disabled": 0, "name": "819528217ebb8213c8f9b5bff4c5f66a", "is_reserved": 0, "bike_id": "819528217ebb8213c8f9b5bff4c5f66a", "fusion_lon": 0.0, "rental_uris": {"ios": "https://dc.lft.to/lastmile_qr_scan", "android": "https://dc.lft.to/lastmile_qr_scan"}}, {"lon": -76.98997233333333, "fusion_lat": 0.0, "type": "electric_scooter", "lat": 38.902773, "is_disabled": 0, "name": "c872a9b3c4d7d95b2d64b48730b25c20", "is_reserved": 0, "bike_id": "c872a9b3c4d7d95b2d64b48730b25c20", "fusion_lon": 0.0, "rental_uris": {"ios": "https://dc.lft.to/lastmile_qr_scan", "android": "https://dc.lft.to/lastmile_qr_scan"}}, {"lon": -77.02288516666667, "fusion_lat": 0.0, "type": "electric_scooter", "lat": 38.920647, "is_disabled": 0, "name": "3aebedef28020cd49dde9bc246868c57", "is_reserved": 0, "bike_id": "3aebedef28020cd49dde9bc246868c57", "fusion_lon": 0.0, "rental_uris": {"ios": "https://dc.lft.to/lastmile_qr_scan", "android": "https://dc.lft.to/lastmile_qr_scan"}}, {"lon": -77.03358483333334, "fusion_lat": 0.0, "type": "electric_scooter", "lat": 38.919216166666665, "is_disabled": 0, "name": "ea6cc52a7d9084ebb060f745ea0138d3", "is_reserved": 0, "bike_id": "ea6cc52a7d9084ebb060f745ea0138d3", "fusion_lon": 0.0, "rental_uris": {"ios": "https://dc.lft.to/lastmile_qr_scan", "android": "https://dc.lft.to/lastmile_qr_scan"}}, {"lon": -77.012279, "fusion_lat": 0.0, "type": "electric_scooter", "lat": 38.8752615, "is_disabled": 0, "name": "6e3c5b84ac0b081e0d390a060d8394c3", "is_reserved": 0, "bike_id": "6e3c5b84ac0b081e0d390a060d8394c3", "fusion_lon": 0.0, "rental_uris": {"ios": "https://dc.lft.to/lastmile_qr_scan", "android": "https://dc.lft.to/lastmile_qr_scan"}}, {"lon": -76.99374216666666, "fusion_lat": 0.0, "type": "electric_scooter", "lat": 38.91020983333333, "is_disabled": 0, "name": "43ddab6a98b8ec793ef638e3f31cfb74", "is_reserved": 0, "bike_id": "43ddab6a98b8ec793ef638e3f31cfb74", "fusion_lon": 0.0, "rental_uris": {"ios": "https://dc.lft.to/lastmile_qr_scan", "android": "https://dc.lft.to/lastmile_qr_scan"}}, {"lon": -77.05806833333334, "fusion_lat": 0.0, "type": "electric_scooter", "lat": 38.90271466666667, "is_disabled": 0, "name": "7bfbaf745bdce8bf79fdfe436d1bf225", "is_reserved": 0, "bike_id": "7bfbaf745bdce8bf79fdfe436d1bf225", "fusion_lon": 0.0, "rental_uris": {"ios": "https://dc.lft.to/lastmile_qr_scan", "android": "https://dc.lft.to/lastmile_qr_scan"}}, {"lon": -76.99327283333334, "fusion_lat": 0.0, "type": "electric_scooter", "lat": 38.90622883333333, "is_disabled": 0, "name": "c50a3a730a47de0982c7dc71e978f00b", "is_reserved": 0, "bike_id": "c50a3a730a47de0982c7dc71e978f00b", "fusion_lon": 0.0, "rental_uris": {"ios": "https://dc.lft.to/lastmile_qr_scan", "android": "https://dc.lft.to/lastmile_qr_scan"}}, {"lon": -77.0213185, "fusion_lat": 0.0, "type": "electric_scooter", "lat": 38.924127, "is_disabled": 0, "name": "925a3d5ea5e08144e347ad01f1787608", "is_reserved": 0, "bike_id": "925a3d5ea5e08144e347ad01f1787608", "fusion_lon": 0.0, "rental_uris": {"ios": "https://dc.lft.to/lastmile_qr_scan", "android": "https://dc.lft.to/lastmile_qr_scan"}}, {"lon": -77.04153033333333, "fusion_lat": 0.0, "type": "electric_scooter", "lat": 38.91744683333334, "is_disabled": 0, "name": "d25f110ed1cda05adf4825ed265b5308", "is_reserved": 0, "bike_id": "d25f110ed1cda05adf4825ed265b5308", "fusion_lon": 0.0, "rental_uris": {"ios": "https://dc.lft.to/lastmile_qr_scan", "android": "https://dc.lft.to/lastmile_qr_scan"}}, {"lon": -76.9925725, "fusion_lat": 0.0, "type": "electric_bike", "lat": 38.807318333333335, "is_disabled": 0, "name": "67795e9c4ff8f34a6e598a499a72bafb", "is_reserved": 0, "bike_id": "67795e9c4ff8f34a6e598a499a72bafb", "fusion_lon": 0.0, "rental_uris": {"ios": "https://dc.lft.to/lastmile_qr_scan", "android": "https://dc.lft.to/lastmile_qr_scan"}}, {"lon": -77.03127483333333, "fusion_lat": 0.0, "type": "electric_scooter", "lat": 38.902559, "is_disabled": 0, "name": "77fc027642849c7c103c8392fc1eaa64", "is_reserved": 0, "bike_id": "77fc027642849c7c103c8392fc1eaa64", "fusion_lon": 0.0, "rental_uris": {"ios": "https://dc.lft.to/lastmile_qr_scan", "android": "https://dc.lft.to/lastmile_qr_scan"}}, {"lon": -76.93022066666667, "fusion_lat": 0.0, "type": "electric_scooter", "lat": 38.901639, "is_disabled": 0, "name": "39b26a2f834cb83d1a876949f8fb5626", "is_reserved": 0, "bike_id": "39b26a2f834cb83d1a876949f8fb5626", "fusion_lon": 0.0, "rental_uris": {"ios": "https://dc.lft.to/lastmile_qr_scan", "android": "https://dc.lft.to/lastmile_qr_scan"}}, {"lon": -77.03738, "fusion_lat": 0.0, "type": "electric_scooter", "lat": 38.87994233333333, "is_disabled": 0, "name": "e690c8cfac76cf882e511cb855327ca2", "is_reserved": 0, "bike_id": "e690c8cfac76cf882e511cb855327ca2", "fusion_lon": 0.0, "rental_uris": {"ios": "https://dc.lft.to/lastmile_qr_scan", "android": "https://dc.lft.to/lastmile_qr_scan"}}, {"lon": -77.02311416666667, "fusion_lat": 0.0, "type": "electric_scooter", "lat": 38.918228, "is_disabled": 0, "name": "28b5c8385b85cb7efacb8f88b76fb5da", "is_reserved": 0, "bike_id": "28b5c8385b85cb7efacb8f88b76fb5da", "fusion_lon": 0.0, "rental_uris": {"ios": "https://dc.lft.to/lastmile_qr_scan", "android": "https://dc.lft.to/lastmile_qr_scan"}}, {"lon": -77.01371416666667, "fusion_lat": 0.0, "type": "electric_scooter", "lat": 38.88689, "is_disabled": 0, "name": "b55282899761d37e29c85123bb4f0489", "is_reserved": 0, "bike_id": "b55282899761d37e29c85123bb4f0489", "fusion_lon": 0.0, "rental_uris": {"ios": "https://dc.lft.to/lastmile_qr_scan", "android": "https://dc.lft.to/lastmile_qr_scan"}}, {"lon": -77.029618, "fusion_lat": 0.0, "type": "electric_scooter", "lat": 38.926860833333336, "is_disabled": 0, "name": "fdd8f1e538fa97b4c2b3f53b2e83a01c", "is_reserved": 0, "bike_id": "fdd8f1e538fa97b4c2b3f53b2e83a01c", "fusion_lon": 0.0, "rental_uris": {"ios": "https://dc.lft.to/lastmile_qr_scan", "android": "https://dc.lft.to/lastmile_qr_scan"}}, {"lon": -77.03553166666667, "fusion_lat": 0.0, "type": "electric_scooter", "lat": 38.90570233333333, "is_disabled": 0, "name": "8971b897b86320e08a062db3451c1f39", "is_reserved": 0, "bike_id": "8971b897b86320e08a062db3451c1f39", "fusion_lon": 0.0, "rental_uris": {"ios": "https://dc.lft.to/lastmile_qr_scan", "android": "https://dc.lft.to/lastmile_qr_scan"}}, {"lon": -77.02690633333333, "fusion_lat": 0.0, "type": "electric_scooter", "lat": 38.919953666666665, "is_disabled": 0, "name": "a2a4449d980bfd41cadf06adfdc4ad34", "is_reserved": 0, "bike_id": "a2a4449d980bfd41cadf06adfdc4ad34", "fusion_lon": 0.0, "rental_uris": {"ios": "https://dc.lft.to/lastmile_qr_scan", "android": "https://dc.lft.to/lastmile_qr_scan"}}, {"lon": -76.97073716666667, "fusion_lat": 0.0, "type": "electric_bike", "lat": 38.920570833333336, "is_disabled": 0, "name": "5972ff50e647bb41f223c32c66e9b64d", "is_reserved": 0, "bike_id": "5972ff50e647bb41f223c32c66e9b64d", "fusion_lon": 0.0, "rental_uris": {"ios": "https://dc.lft.to/lastmile_qr_scan", "android": "https://dc.lft.to/lastmile_qr_scan"}}, {"lon": -77.01209633333333, "fusion_lat": 0.0, "type": "electric_scooter", "lat": 38.898001666666666, "is_disabled": 0, "name": "4afaa4bb64a46daa0d5f0b3ed6373cbc", "is_reserved": 0, "bike_id": "4afaa4bb64a46daa0d5f0b3ed6373cbc", "fusion_lon": 0.0, "rental_uris": {"ios": "https://dc.lft.to/lastmile_qr_scan", "android": "https://dc.lft.to/lastmile_qr_scan"}}, {"lon": -77.03202433333334, "fusion_lat": 0.0, "type": "electric_scooter", "lat": 38.92973533333333, "is_disabled": 0, "name": "f79062559ef9fec7f4ed3edb0b927ed6", "is_reserved": 0, "bike_id": "f79062559ef9fec7f4ed3edb0b927ed6", "fusion_lon": 0.0, "rental_uris": {"ios": "https://dc.lft.to/lastmile_qr_scan", "android": "https://dc.lft.to/lastmile_qr_scan"}}, {"lon": -77.05271616666667, "fusion_lat": 0.0, "type": "electric_scooter", "lat": 38.927604333333335, "is_disabled": 0, "name": "0cedd8478cd0515a86c4c2badfce50c5", "is_reserved": 0, "bike_id": "0cedd8478cd0515a86c4c2badfce50c5", "fusion_lon": 0.0, "rental_uris": {"ios": "https://dc.lft.to/lastmile_qr_scan", "android": "https://dc.lft.to/lastmile_qr_scan"}}, {"lon": -77.03171833333333, "fusion_lat": 0.0, "type": "electric_scooter", "lat": 38.915899, "is_disabled": 0, "name": "5fe51f45b9626dc13296254e431ccf83", "is_reserved": 0, "bike_id": "5fe51f45b9626dc13296254e431ccf83", "fusion_lon": 0.0, "rental_uris": {"ios": "https://dc.lft.to/lastmile_qr_scan", "android": "https://dc.lft.to/lastmile_qr_scan"}}, {"lon": -77.02466566666666, "fusion_lat": 0.0, "type": "electric_scooter", "lat": 38.916683, "is_disabled": 0, "name": "fb6d08aaa53bee63dd9fc3950ee95830", "is_reserved": 0, "bike_id": "fb6d08aaa53bee63dd9fc3950ee95830", "fusion_lon": 0.0, "rental_uris": {"ios": "https://dc.lft.to/lastmile_qr_scan", "android": "https://dc.lft.to/lastmile_qr_scan"}}, {"lon": -77.00255616666666, "fusion_lat": 0.0, "type": "electric_scooter", "lat": 38.876566333333336, "is_disabled": 0, "name": "81337d1bc7eb6d93e97a0fda880c00e8", "is_reserved": 0, "bike_id": "81337d1bc7eb6d93e97a0fda880c00e8", "fusion_lon": 0.0, "rental_uris": {"ios": "https://dc.lft.to/lastmile_qr_scan", "android": "https://dc.lft.to/lastmile_qr_scan"}}, {"lon": -77.02225766666666, "fusion_lat": 0.0, "type": "electric_scooter", "lat": 38.9206915, "is_disabled": 0, "name": "d41b600630182fe34654933fcbbbb25d", "is_reserved": 0, "bike_id": "d41b600630182fe34654933fcbbbb25d", "fusion_lon": 0.0, "rental_uris": {"ios": "https://dc.lft.to/lastmile_qr_scan", "android": "https://dc.lft.to/lastmile_qr_scan"}}, {"lon": -77.050684, "fusion_lat": 0.0, "type": "electric_scooter", "lat": 38.9002335, "is_disabled": 0, "name": "4e8742f5698c766fce0dd01af3ef1065", "is_reserved": 0, "bike_id": "4e8742f5698c766fce0dd01af3ef1065", "fusion_lon": 0.0, "rental_uris": {"ios": "https://dc.lft.to/lastmile_qr_scan", "android": "https://dc.lft.to/lastmile_qr_scan"}}, {"lon": -77.0430275, "fusion_lat": 0.0, "type": "electric_scooter", "lat": 38.90130933333333, "is_disabled": 0, "name": "cab0e87b1e0ffa53d6f0981c408c981a", "is_reserved": 0, "bike_id": "cab0e87b1e0ffa53d6f0981c408c981a", "fusion_lon": 0.0, "rental_uris": {"ios": "https://dc.lft.to/lastmile_qr_scan", "android": "https://dc.lft.to/lastmile_qr_scan"}}, {"lon": -77.064321, "fusion_lat": 0.0, "type": "electric_scooter", "lat": 38.90534, "is_disabled": 0, "name": "a465d02340d4abdecc9d938b03b42f9b", "is_reserved": 0, "bike_id": "a465d02340d4abdecc9d938b03b42f9b", "fusion_lon": 0.0, "rental_uris": {"ios": "https://dc.lft.to/lastmile_qr_scan", "android": "https://dc.lft.to/lastmile_qr_scan"}}, {"lon": -77.00588783333333, "fusion_lat": 0.0, "type": "electric_bike", "lat": 38.926188333333336, "is_disabled": 0, "name": "334f54d45223739ffc427dd3232d9dd7", "is_reserved": 0, "bike_id": "334f54d45223739ffc427dd3232d9dd7", "fusion_lon": 0.0, "rental_uris": {"ios": "https://dc.lft.to/lastmile_qr_scan", "android": "https://dc.lft.to/lastmile_qr_scan"}}, {"lon": -77.00586816666667, "fusion_lat": 0.0, "type": "electric_scooter", "lat": 38.87564966666667, "is_disabled": 0, "name": "4687353b4796bbcf56b375aa67f5551b", "is_reserved": 0, "bike_id": "4687353b4796bbcf56b375aa67f5551b", "fusion_lon": 0.0, "rental_uris": {"ios": "https://dc.lft.to/lastmile_qr_scan", "android": "https://dc.lft.to/lastmile_qr_scan"}}, {"lon": -77.02114783333333, "fusion_lat": 0.0, "type": "electric_scooter", "lat": 38.91754383333333, "is_disabled": 0, "name": "e23cfbbb8cd8784e97f8c6028d7e2a4a", "is_reserved": 0, "bike_id": "e23cfbbb8cd8784e97f8c6028d7e2a4a", "fusion_lon": 0.0, "rental_uris": {"ios": "https://dc.lft.to/lastmile_qr_scan", "android": "https://dc.lft.to/lastmile_qr_scan"}}, {"lon": -77.04105066666666, "fusion_lat": 0.0, "type": "electric_scooter", "lat": 38.91063283333333, "is_disabled": 0, "name": "9c2af59c0a5b76f8e8c1b8af4b7d7a69", "is_reserved": 0, "bike_id": "9c2af59c0a5b76f8e8c1b8af4b7d7a69", "fusion_lon": 0.0, "rental_uris": {"ios": "https://dc.lft.to/lastmile_qr_scan", "android": "https://dc.lft.to/lastmile_qr_scan"}},