{"data": {"bikes": [{"rental_uris": {"ios": "https://dc.lft.to/lastmile_qr_scan", "android": "https://dc.lft.to/lastmile_qr_scan"}, "lat": 38.9007675, "bike_id": "27b2f404dc613458a742d0d19b46025f", "lon": -77.0461205, "type": "electric_scooter", "fusion_lon": 0.0, "fusion_lat": 0.0, "is_reserved": 0, "name": "27b2f404dc613458a742d0d19b46025f", "is_disabled": 0}, {"rental_uris": {"ios": "https://dc.lft.to/lastmile_qr_scan", "android": "https://dc.lft.to/lastmile_qr_scan"}, "lat": 38.90032033333333, "bike_id": "fdd508b6ce17d063c7123a0cd6ab301e", "lon": -77.041475, "type": "electric_scooter", "fusion_lon": 0.0, "fusion_lat": 0.0, "is_reserved": 0, "name": "fdd508b6ce17d063c7123a0cd6ab301e", "is_disabled": 0}, {"rental_uris": {"ios": "https://dc.lft.to/lastmile_qr_scan", "android": "https://dc.lft.to/lastmile_qr_scan"}, "lat": 38.903609, "bike_id": "8bdb6a5f6eb945d01d8320d6ca4aa407", "lon": -77.0386445, "type": "electric_scooter", "fusion_lon": 0.0, "fusion_lat": 0.0, "is_reserved": 0, "name": "8bdb6a5f6eb945d01d8320d6ca4aa407", "is_disabled": 0}, {"rental_uris": {"ios": "https://dc.lft.to/lastmile_qr_scan", "android": "https://dc.lft.to/lastmile_qr_scan"}, "lat": 38.921592, "bike_id": "88e92162184e8d62ad2831fbfd0da16a", "lon": -77.03316283333334, "type": "electric_scooter", "fusion_lon": 0.0, "fusion_lat": 0.0, "is_reserved": 0, "name": "88e92162184e8d62ad2831fbfd0da16a", "is_disabled": 0}, {"rental_uris": {"ios": "https://dc.lft.to/lastmile_qr_scan", "android": "https://dc.lft.to/lastmile_qr_scan"}, "lat": 38.894645, "bike_id": "e5d56aff804d5ade217a9b18228d6378", "lon": -77.00340333333334, "type": "electric_scooter", "fusion_lon": 0.0, "fusion_lat": 0.0, "is_reserved": 0, "name": "e5d56aff804d5ade217a9b18228d6378", "is_disabled": 0}, {"rental_uris": {"ios": "https://dc.lft.to/lastmile_qr_scan", "android": "https://dc.lft.to/lastmile_qr_scan"}, "lat": 38.897374666666664, "bike_id": "da22c10858416ad602675b921f6953c1", "lon": -77.026806, "type": "electric_scooter", "fusion_lon": 0.0, "fusion_lat": 0.0, "is_reserved": 0, "name": "da22c10858416ad602675b921f6953c1", "is_disabled": 0}, {"rental_uris": {"ios": "https://dc.lft.to/lastmile_qr_scan", "android": "https://dc.lft.to/lastmile_qr_scan"}, "lat": 38.9234895, "bike_id": "2707e91b150c77d2deea3a7466460c07", "lon": -77.03391983333333, "type": "electric_scooter", "fusion_lon": 0.0, "fusion_lat": 0.0, "is_reserved": 0, "name": "2707e91b150c77d2deea3a7466460c07", "is_disabled": 0}, {"rental_uris": {"ios": "https://dc.lft.to/lastmile_qr_scan", "android": "https://dc.lft.to/lastmile_qr_scan"}, "lat": 38.90967833333333, "bike_id": "06312f1161fca514f30991440c3cacd3", "lon": -77.0328595, "type": "electric_scooter", "fusion_lon": 0.0, "fusion_lat": 0.0, "is_reserved": 0, "name": "06312f1161fca514f30991440c3cacd3", "is_disabled": 0}, {"rental_uris": {"ios": "https://dc.lft.to/lastmile_qr_scan", "android": "https://dc.lft.to/lastmile_qr_scan"}, "lat": 38.89630583333334, "bike_id": "f694488ba8f255ec90c8e025a9517162", "lon": -76.98312983333334, "type": "electric_scooter", "fusion_lon": 0.0, "fusion_lat": 0.0, "is_reserved": 0, "name": "f694488ba8f255ec90c8e025a9517162", "is_disabled": 0}, {"rental_uris": {"ios": "https://dc.lft.to/lastmile_qr_scan", "android": "https://dc.lft.to/lastmile_qr_scan"}, "lat": 38.90867, "bike_id": "825f39b67169e2ecb2a97ee3d2d5fdb8", "lon": -76.99783683333334, "type": "electric_scooter", "fusion_lon": 0.0, "fusion_lat": 0.0, "is_reserved": 0, "name": "825f39b67169e2ecb2a97ee3d2d5fdb8", "is_disabled": 0}, {"rental_uris": {"ios": "https://dc.lft.to/lastmile_qr_scan", "android": "https://dc.lft.to/lastmile_qr_scan"}, "lat": 38.909750833333334, "bike_id": "4f744dc67cebdad24b4134e2e56c330f", "lon": -77.0423625, "type": "electric_scooter", "fusion_lon": 0.0, "fusion_lat": 0.0, "is_reserved": 0, "name": "4f744dc67cebdad24b4134e2e56c330f", "is_disabled": 0}, {"rental_uris": {"ios": "https://dc.lft.to/lastmile_qr_scan", "android": "https://dc.lft.to/lastmile_qr_scan"}, "lat": 38.920370166666665, "bike_id": "5e571cd9e68d9095d86d939da084a59b", "lon": -77.04182933333334, "type": "electric_scooter", "fusion_lon": 0.0, "fusion_lat": 0.0, "is_reserved": 0, "name": "5e571cd9e68d9095d86d939da084a59b", "is_disabled": 0}, {"rental_uris": {"ios": "https://dc.lft.to/lastmile_qr_scan", "android": "https://dc.lft.to/lastmile_qr_scan"}, "lat": 38.914137, "bike_id": "de4f0d79fdf33056eeb3ae2b29b61d91", "lon": -77.02275, "type": "electric_scooter", "fusion_lon": 0.0, "fusion_lat": 0.0, "is_reserved": 0, "name": "de4f0d79fdf33056eeb3ae2b29b61d91", "is_disabled": 0}, {"rental_uris": {"ios": "https://dc.lft.to/lastmile_qr_scan", "android": "https://dc.lft.to/lastmile_qr_scan"}, "lat": 38.936315, "bike_id": "2cdffbf2c83322ea36387e528fd569dc", "lon": -77.05887166666666, "type": "electric_scooter", "fusion_lon": 0.0, "fusion_lat": 0.0, "is_reserved": 0, "name": "2cdffbf2c83322ea36387e528fd569dc", "is_disabled": 0}, {"rental_uris": {"ios": "https://dc.lft.to/lastmile_qr_scan", "android": "https://dc.lft.to/lastmile_qr_scan"}, "lat": 38.92040266666667, "bike_id": "145eddf625cedb3b82bb703151b460fe", "lon": -77.01674083333333, "type": "electric_scooter", "fusion_lon": 0.0, "fusion_lat": 0.0, "is_reserved": 0, "name": "145eddf625cedb3b82bb703151b460fe", "is_disabled": 0}, {"rental_uris": {"ios": "https://dc.lft.to/lastmile_qr_scan", "android": "https://dc.lft.to/lastmile_qr_scan"}, "lat": 38.905372666666665, "bike_id": "77b1fcee54072b02ec95895242b0dc3c", "lon": -77.050665, "type": "electric_scooter", "fusion_lon": 0.0, "fusion_lat": 0.0, "is_reserved": 0, "name": "77b1fcee54072b02ec95895242b0dc3c", "is_disabled": 0}, {"rental_uris": {"ios": "https://dc.lft.to/lastmile_qr_scan", "android": "https://dc.lft.to/lastmile_qr_scan"}, "lat": 38.8984965, "bike_id": "d68bb7fbc295689ce3283d1057f6b23f", "lon": -76.99034716666667, "type": "electric_scooter", "fusion_lon": 0.0, "fusion_lat": 0.0, "is_reserved": 0, "name": "d68bb7fbc295689ce3283d1057f6b23f", "is_disabled": 0}, {"rental_uris": {"ios": "https://dc.lft.to/lastmile_qr_scan", "android": "https://dc.lft.to/lastmile_qr_scan"}, "lat": 38.900006, "bike_id": "789e19a8da9875e19bc82004c4d7db58", "lon": -77.02451616666667, "type": "electric_scooter", "fusion_lon": 0.0, "fusion_lat": 0.0, "is_reserved": 0, "name": "789e19a8da9875e19bc82004c4d7db58", "is_disabled": 0}, {"rental_uris": {"ios": "https://dc.lft.to/lastmile_qr_scan", "android": "https://dc.lft.to/lastmile_qr_scan"}, "lat": 38.92508433333333, "bike_id": "507b507f57b092df24849f8882ec12dd", "lon": -77.05228783333334, "type": "electric_scooter", "fusion_lon": 0.0, "fusion_lat": 0.0, "is_reserved": 0, "name": "507b507f57b092df24849f8882ec12dd", "is_disabled": 0}, {"rental_uris": {"ios": "https://dc.lft.to/lastmile_qr_scan", "android": "https://dc.lft.to/lastmile_qr_scan"}, "lat": 38.90162016666667, "bike_id": "cf34a8a9ad14243e1ec1c49261c64ed6", "lon": -77.0337415, "type": "electric_scooter", "fusion_lon": 0.0, "fusion_lat": 0.0, "is_reserved": 0, "name": "cf34a8a9ad14243e1ec1c49261c64ed6", "is_disabled": 0}, {"rental_uris": {"ios": "https://dc.lft.to/lastmile_qr_scan", "android": "https://dc.lft.to/lastmile_qr_scan"}, "lat": 38.885302, "bike_id": "42f9846b20fbdf9e857c8ae2d34e6479", "lon": -76.98268533333334, "type": "electric_scooter", "fusion_lon": 0.0, "fusion_lat": 0.0, "is_reserved": 0, "name": "42f9846b20fbdf9e857c8ae2d34e6479", "is_disabled": 0}, {"rental_uris": {"ios": "https://dc.lft.to/lastmile_qr_scan", "android": "https://dc.lft.to/lastmile_qr_scan"}, "lat": 38.905343333333334, "bike_id": "9465fced2477b6fe790a3c957c8046fa", "lon": -77.049758, "type": "electric_scooter", "fusion_lon": 0.0, "fusion_lat": 0.0, "is_reserved": 0, "name": "9465fced2477b6fe790a3c957c8046fa", "is_disabled": 0}, {"rental_uris": {"ios": "https://dc.lft.to/lastmile_qr_scan", "android": "https://dc.lft.to/lastmile_qr_scan"}, "lat": 38.916091, "bike_id": "3930e97b148b03378048fd22ddda5b58", "lon": -77.03136966666666, "type": "electric_scooter", "fusion_lon": 0.0, "fusion_lat": 0.0, "is_reserved": 0, "name": "3930e97b148b03378048fd22ddda5b58", "is_disabled": 0}, {"rental_uris": {"ios": "https://dc.lft.to/lastmile_qr_scan", "android": "https://dc.lft.to/lastmile_qr_scan"}, "lat": 38.90276766666667, "bike_id": "e9919f1314126a6be755ee437a098a43", "lon": -77.03035216666666, "type": "electric_scooter", "fusion_lon": 0.0, "fusion_lat": 0.0, "is_reserved": 0, "name": "e9919f1314126a6be755ee437a098a43", "is_disabled": 0}, {"rental_uris": {"ios": "https://dc.lft.to/lastmile_qr_scan", "android": "https://dc.lft.to/lastmile_qr_scan"}, "lat": 38.94406983333333, "bike_id": "fe8a5f8a88ae631721079c3fd1de4692", "lon": -77.02617566666666, "type": "electric_scooter", "fusion_lon": 0.0, "fusion_lat": 0.0, "is_reserved": 0, "name": "fe8a5f8a88ae631721079c3fd1de4692", "is_disabled": 0}, {"rental_uris": {"ios": "https://dc.lft.to/lastmile_qr_scan", "android": "https://dc.lft.to/lastmile_qr_scan"}, "lat": 38.9226055, "bike_id": "be27067a3ed73cf6e92faf1c0b658bfa", "lon": -77.03659716666667, "type": "electric_scooter", "fusion_lon": 0.0, "fusion_lat": 0.0, "is_reserved": 0, "name": "be27067a3ed73cf6e92faf1c0b658bfa", "is_disabled": 0}, {"rental_uris": {"ios": "https://dc.lft.to/lastmile_qr_scan", "android": "https://dc.lft.to/lastmile_qr_scan"}, "lat": 38.893663, "bike_id": "1ac95625f67663b3cf378f96f4e013e7", "lon": -76.94703666666666, "type": "electric_scooter", "fusion_lon": 0.0, "fusion_lat": 0.0, "is_reserved": 0, "name": "1ac95625f67663b3cf378f96f4e013e7", "is_disabled": 0}, {"rental_uris": {"ios": "https://dc.lft.to/lastmile_qr_scan", "android": "https://dc.lft.to/lastmile_qr_scan"}, "lat": 38.90546283333333, "bike_id": "dc1b3b06b1b58c18b3f0d7d930a4d3b8", "lon": -77.04816766666667, "type": "electric_scooter", "fusion_lon": 0.0, "fusion_lat": 0.0, "is_reserved": 0, "name": "dc1b3b06b1b58c18b3f0d7d930a4d3b8", "is_disabled": 0}, {"rental_uris": {"ios": "https://dc.lft.to/lastmile_qr_scan", "android": "https://dc.lft.to/lastmile_qr_scan"}, "lat": 38.934883, "bike_id": "91e4b8d2d555def6e8abd186166013ce", "lon": -77.0260505, "type": "electric_scooter", "fusion_lon": 0.0, "fusion_lat": 0.0, "is_reserved": 0, "name": "91e4b8d2d555def6e8abd186166013ce", "is_disabled": 0}, {"rental_uris": {"ios": "https://dc.lft.to/lastmile_qr_scan", "android": "https://dc.lft.to/lastmile_qr_scan"}, "lat": 38.87576116666666, "bike_id": "5ee81fd03e36d4f7d0e8f90c4421e1c6", "lon": -77.23409983333333, "type": "electric_bike", "fusion_lon": 0.0, "fusion_lat": 0.0, "is_reserved": 0, "name": "5ee81fd03e36d4f7d0e8f90c4421e1c6", "is_disabled": 0}, {"rental_uris": {"ios": "https://dc.lft.to/lastmile_qr_scan", "android": "https://dc.lft.to/lastmile_qr_scan"}, "lat": 38.904634333333334, "bike_id": "26e08d09911f1d9762739e2426f7c8f8", "lon": -77.03555716666666, "type": "electric_scooter", "fusion_lon": 0.0, "fusion_lat": 0.0, "is_reserved": 0, "name": "26e08d09911f1d9762739e2426f7c8f8", "is_disabled": 0}, {"rental_uris": {"ios": "https://dc.lft.to/lastmile_qr_scan", "android": "https://dc.lft.to/lastmile_qr_scan"}, "lat": 38.92565183333333, "bike_id": "884864dd9861575336822bcd029388dd", "lon": -77.05266416666667, "type": "electric_scooter", "fusion_lon": 0.0, "fusion_lat": 0.0, "is_reserved": 0, "name": "884864dd9861575336822bcd029388dd", "is_disabled": 0}, {"rental_uris": {"ios": "https://dc.lft.to/lastmile_qr_scan", "android": "https://dc.lft.to/lastmile_qr_scan"}, "lat": 38.86536316666667, "bike_id": "3fb9dbf505453c27a5ca5c2917c9bf32", "lon": -76.98967883333333, "type": "electric_scooter", "fusion_lon": 0.0, "fusion_lat": 0.0, "is_reserved": 0, "name": "3fb9dbf505453c27a5ca5c2917c9bf32", "is_disabled": 0}, {"rental_uris": {"ios": "https://dc.lft.to/lastmile_qr_scan", "android": "https://dc.lft.to/lastmile_qr_scan"}, "lat": 38.92365, "bike_id": "e7c304089f23ce535d2028be3638c71d", "lon": -77.04116916666666, "type": "electric_scooter", "fusion_lon": 0.0, "fusion_lat": 0.0, "is_reserved": 0, "name": "e7c304089f23ce535d2028be3638c71d", "is_disabled": 0}, {"rental_uris": {"ios": "https://dc.lft.to/lastmile_qr_scan", "android": "https://dc.lft.to/lastmile_qr_scan"}, "lat": 38.91005, "bike_id": "e82be979ae7f8a2f36d1a9b3361fe500", "lon": -76.99397483333334, "type": "electric_scooter", "fusion_lon": 0.0, "fusion_lat": 0.0, "is_reserved": 0, "name": "e82be979ae7f8a2f36d1a9b3361fe500", "is_disabled": 0}, {"rental_uris": {"ios": "https://dc.lft.to/lastmile_qr_scan", "android": "https://dc.lft.to/lastmile_qr_scan"}, "lat": 38.89840683333333, "bike_id": "7a259aa495d6b523f2106b999692293b", "lon": -77.02184666666666, "type": "electric_scooter", "fusion_lon": 0.0, "fusion_lat": 0.0, "is_reserved": 0, "name": "7a259aa495d6b523f2106b999692293b", "is_disabled": 0}, {"rental_uris": {"ios": "https://dc.lft.to/lastmile_qr_scan", "android": "https://dc.lft.to/lastmile_qr_scan"}, "lat": 38.91470183333333, "bike_id": "32facc751c197074683dcad71063a15b", "lon": -77.03202216666666, "type": "electric_scooter", "fusion_lon": 0.0, "fusion_lat": 0.0, "is_reserved": 0, "name": "32facc751c197074683dcad71063a15b", "is_disabled": 0}, {"rental_uris": {"ios": "https://dc.lft.to/lastmile_qr_scan", "android": "https://dc.lft.to/lastmile_qr_scan"}, "lat": 38.89799766666667, "bike_id": "6cea009ac1b9bbc347e00b258a0a2748", "lon": -77.04187166666667, "type": "electric_scooter", "fusion_lon": 0.0, "fusion_lat": 0.0, "is_reserved": 0, "name": "6cea009ac1b9bbc347e00b258a0a2748", "is_disabled": 0}, {"rental_uris": {"ios": "https://dc.lft.to/lastmile_qr_scan", "android": "https://dc.lft.to/lastmile_qr_scan"}, "lat": 38.89194966666667, "bike_id": "1773567aed0583b5007051742d700ddd", "lon": -77.02239266666666, "type": "electric_scooter", "fusion_lon": 0.0, "fusion_lat": 0.0, "is_reserved": 0, "name": "1773567aed0583b5007051742d700ddd", "is_disabled": 0}, {"rental_uris": {"ios": "https://dc.lft.to/lastmile_qr_scan", "android": "https://dc.lft.to/lastmile_qr_scan"}, "lat": 38.8964545, "bike_id": "fa57033d5c598b67264fd80d213dd74c", "lon": -77.0260805, "type": "electric_scooter", "fusion_lon": 0.0, "fusion_lat": 0.0, "is_reserved": 0, "name": "fa57033d5c598b67264fd80d213dd74c", "is_disabled": 0}, {"rental_uris": {"ios": "https://dc.lft.to/lastmile_qr_scan", "android": "https://dc.lft.to/lastmile_qr_scan"}, "lat": 38.903822166666664, "bike_id": "a622162f682b9f7d6b6129bf5fc33845", "lon": -77.04505833333333, "type": "electric_scooter", "fusion_lon": 0.0, "fusion_lat": 0.0, "is_reserved": 0, "name": "a622162f682b9f7d6b6129bf5fc33845", "is_disabled": 0}, {"rental_uris": {"ios": "https://dc.lft.to/lastmile_qr_scan", "android": "https://dc.lft.to/lastmile_qr_scan"}, "lat": 38.900177, "bike_id": "9f35d217f338a91bc03e3af92c76a797", "lon": -77.044082, "type": "electric_scooter", "fusion_lon": 0.0, "fusion_lat": 0.0, "is_reserved": 0, "name": "9f35d217f338a91bc03e3af92c76a797", "is_disabled": 0}, {"rental_uris": {"ios": "https://dc.lft.to/lastmile_qr_scan", "android": "https://dc.lft.to/lastmile_qr_scan"}, "lat": 38.91835966666667, "bike_id": "7f40d2c333bb1bc22426843953c8c6e9", "lon": -77.04174783333333, "type": "electric_scooter", "fusion_lon": 0.0, "fusion_lat": 0.0, "is_reserved": 0, "name": "7f40d2c333bb1bc22426843953c8c6e9", "is_disabled": 0}, {"rental_uris": {"ios": "https://dc.lft.to/lastmile_qr_scan", "android": "https://dc.lft.to/lastmile_qr_scan"}, "lat": 38.914708833333336, "bike_id": "b381eb5ee78bdcc6238dfc67a2f59f8c", "lon": -76.98110216666667, "type": "electric_scooter", "fusion_lon": 0.0, "fusion_lat": 0.0, "is_reserved": 0, "name": "b381eb5ee78bdcc6238dfc67a2f59f8c", "is_disabled": 0}, {"rental_uris": {"ios": "https://dc.lft.to/lastmile_qr_scan", "android": "https://dc.lft.to/lastmile_qr_scan"}, "lat": 38.919127333333336, "bike_id": "84e579301a3ba1abdca0c7cc12af5ab9", "lon": -77.01346783333334, "type": "electric_scooter", "fusion_lon": 0.0, "fusion_lat": 0.0, "is_reserved": 0, "name": "84e579301a3ba1abdca0c7cc12af5ab9", "is_disabled": 0}, {"rental_uris": {"ios": "https://dc.lft.to/lastmile_qr_scan", "android": "https://dc.lft.to/lastmile_qr_scan"}, "lat": 38.916295, "bike_id": "73c1b59f34e339d7409362f309c6fa01", "lon": -77.03210066666666, "type": "electric_scooter", "fusion_lon": 0.0, "fusion_lat": 0.0, "is_reserved": 0, "name": "73c1b59f34e339d7409362f309c6fa01", "is_disabled": 0}, {"rental_uris": {"ios": "https://dc.lft.to/lastmile_qr_scan", "android": "https://dc.lft.to/lastmile_qr_scan"}, "lat": 38.917205833333334, "bike_id": "49c1c5431754d9ba9819545004d1daf7", "lon": -77.02604266666667, "type": "electric_scooter", "fusion_lon": 0.0, "fusion_lat": 0.0, "is_reserved": 0, "name": "49c1c5431754d9ba9819545004d1daf7", "is_disabled": 0}, {"rental_uris": {"ios": "https://dc.lft.to/lastmile_qr_scan", "android": "https://dc.lft.to/lastmile_qr_scan"}, "lat": 38.919165, "bike_id": "fb7963623ba3a617afe3effc4738c483", "lon": -77.0342855, "type": "electric_scooter", "fusion_lon": 0.0, "fusion_lat": 0.0, "is_reserved": 0, "name": "fb7963623ba3a617afe3effc4738c483", "is_disabled": 0}, {"rental_uris": {"ios": "https://dc.lft.to/lastmile_qr_scan", "android": "https://dc.lft.to/lastmile_qr_scan"}, "lat": 38.9082515, "bike_id": "c98bd6075ad6a344f9e68820b43a3cb4", "lon": -77.03534583333334, "type": "electric_scooter", "fusion_lon": 0.0, "fusion_lat": 0.0, "is_reserved": 0, "name": "c98bd6075ad6a344f9e68820b43a3cb4", "is_disabled": 0}, {"rental_uris": {"ios": "https://dc.lft.to/lastmile_qr_scan", "android": "https://dc.lft.to/lastmile_qr_scan"}, "lat": 38.91587833333333, "bike_id": "cba0a9cbc2ed8ff456fe416385f94c0b", "lon": -77.02300133333334, "type": "electric_scooter", "fusion_lon": 0.0, "fusion_lat": 0.0, "is_reserved": 0, "name": "cba0a9cbc2ed8ff456fe416385f94c0b", "is_disabled": 0}, {"rental_uris": {"ios": "https://dc.lft.to/lastmile_qr_scan", "android": "https://dc.lft.to/lastmile_qr_scan"}, "lat": 38.95709, "bike_id": "cc6cc794a897d9880fc8e1bb88199ce4", "lon": -77.00279366666666, "type": "electric_bike", "fusion_lon": 0.0, "fusion_lat": 0.0, "is_reserved": 0, "name": "cc6cc794a897d9880fc8e1bb88199ce4", "is_disabled": 0}, {"rental_uris": {"ios": "https://dc.lft.to/lastmile_qr_scan", "android": "https://dc.lft.to/lastmile_qr_scan"}, "lat": 38.905659166666666, "bike_id": "efdc187a2c01571e40caaf54396999f2", "lon": -77.02223316666667, "type": "electric_scooter", "fusion_lon": 0.0, "fusion_lat": 0.0, "is_reserved": 0, "name": "efdc187a2c01571e40caaf54396999f2", "is_disabled": 0}, {"rental_uris": {"ios": "https://dc.lft.to/lastmile_qr_scan", "android": "https://dc.lft.to/lastmile_qr_scan"}, "lat": 38.906824666666665, "bike_id": "aacab9611d296df984881ec768203551", "lon": -77.06338366666667, "type": "electric_scooter", "fusion_lon": 0.0, "fusion_lat": 0.0, "is_reserved": 0, "name": "aacab9611d296df984881ec768203551", "is_disabled": 0}, {"rental_uris": {"ios": "https://dc.lft.to/lastmile_qr_scan", "android": "https://dc.lft.to/lastmile_qr_scan"}, "lat": 38.92973383333333, "bike_id": "6058015eea5fe50bf32ef278199c3c6b", "lon": -77.013202, "type": "electric_scooter", "fusion_lon": 0.0, "fusion_lat": 0.0, "is_reserved": 0, "name": "6058015eea5fe50bf32ef278199c3c6b", "is_disabled": 0}, {"rental_uris": {"ios": "https://dc.lft.to/lastmile_qr_scan", "android": "https://dc.lft.to/lastmile_qr_scan"}, "lat": 38.901050166666664, "bike_id": "70137e37b40a41a895716096b7c3f21a", "lon": -77.05973166666666, "type": "electric_scooter", "fusion_lon": 0.0, "fusion_lat": 0.0, "is_reserved": 0, "name": "70137e37b40a41a895716096b7c3f21a", "is_disabled": 0}, {"rental_uris": {"ios": "https://dc.lft.to/lastmile_qr_scan", "android": "https://dc.lft.to/lastmile_qr_scan"}, "lat": 38.91398266666667, "bike_id": "a3e035f6918b7022735b45185157f6af", "lon": -77.02407166666667, "type": "electric_scooter", "fusion_lon": 0.0, "fusion_lat": 0.0, "is_reserved": 0, "name": "a3e035f6918b7022735b45185157f6af", "is_disabled": 0}, {"rental_uris": {"ios": "https://dc.lft.to/lastmile_qr_scan", "android": "https://dc.lft.to/lastmile_qr_scan"}, "lat": 38.909184, "bike_id": "e704c68102980c33bd68c22c21a590b7", "lon": -77.018939, "type": "electric_scooter", "fusion_lon": 0.0, "fusion_lat": 0.0, "is_reserved": 0, "name": "e704c68102980c33bd68c22c21a590b7", "is_disabled": 0}, {"rental_uris": {"ios": "https://dc.lft.to/lastmile_qr_scan", "android": "https://dc.lft.to/lastmile_qr_scan"}, "lat": 38.9009345, "bike_id": "646f8ca6981b392cb8da2f938657c57d", "lon": -77.01336683333334, "type": "electric_scooter", "fusion_lon": 0.0, "fusion_lat": 0.0, "is_reserved": 0, "name": "646f8ca6981b392cb8da2f938657c57d", "is_disabled": 0}, {"rental_uris": {"ios": "https://dc.lft.to/lastmile_qr_scan", "android": "https://dc.lft.to/lastmile_qr_scan"}, "lat": 38.900934, "bike_id": "45aa89615d9b2f687c653c3b814cc417", "lon": -77.02308266666667, "type": "electric_scooter", "fusion_lon": 0.0, "fusion_lat": 0.0, "is_reserved": 0, "name": "45aa89615d9b2f687c653c3b814cc417", "is_disabled": 0}, {"rental_uris": {"ios": "https://dc.lft.to/lastmile_qr_scan", "android": "https://dc.lft.to/lastmile_qr_scan"}, "lat": 38.9029345, "bike_id": "8294c86c5551ab6bfd6360542a9dec33", "lon": -77.00190583333334, "type": "electric_scooter", "fusion_lon": 0.0, "fusion_lat": 0.0, "is_reserved": 0, "name": "8294c86c5551ab6bfd6360542a9dec33", "is_disabled": 0}, {"rental_uris": {"ios": "https://dc.lft.to/lastmile_qr_scan", "android": "https://dc.lft.to/lastmile_qr_scan"}, "lat": 38.915458, "bike_id": "a1d1f195fdc729dd202282a728389e6a", "lon": -77.03173366666667, "type": "electric_scooter", "fusion_lon": 0.0, "fusion_lat": 0.0, "is_reserved": 0, "name": "a1d1f195fdc729dd202282a728389e6a", "is_disabled": 0}, {"rental_uris": {"ios": "https://dc.lft.to/lastmile_qr_scan", "android": "https://dc.lft.to/lastmile_qr_scan"}, "lat": 38.915685, "bike_id": "5ac9527ca47769844a508631474a5171", "lon": -77.02286116666667, "type": "electric_scooter", "fusion_lon": 0.0, "fusion_lat": 0.0, "is_reserved": 0, "name": "5ac9527ca47769844a508631474a5171", "is_disabled": 0}, {"rental_uris": {"ios": "https://dc.lft.to/lastmile_qr_scan", "android": "https://dc.lft.to/lastmile_qr_scan"}, "lat": 38.918038, "bike_id": "3a5dfbc014b170f8972a8c22d3cb1a6c", "lon": -77.02490533333334, "type": "electric_scooter", "fusion_lon": 0.0, "fusion_lat": 0.0, "is_reserved": 0, "name": "3a5dfbc014b170f8972a8c22d3cb1a6c", "is_disabled": 0}, {"rental_uris": {"ios": "https://dc.lft.to/lastmile_qr_scan", "android": "https://dc.lft.to/lastmile_qr_scan"}, "lat": 38.886607, "bike_id": "8063416d992cc7968a0b4b18f73da861", "lon": -77.16230016666667, "type": "electric_bike", "fusion_lon": 0.0, "fusion_lat": 0.0, "is_reserved": 0, "name": "8063416d992cc7968a0b4b18f73da861", "is_disabled": 0}, {"rental_uris": {"ios": "https://dc.lft.to/lastmile_qr_scan", "android": "https://dc.lft.to/lastmile_qr_scan"}, "lat": 38.902847333333334, "bike_id": "3ffce5b9ca9c2b3abce611c46bb1c786", "lon": -77.0335595, "type": "electric_scooter", "fusion_lon": 0.0, "fusion_lat": 0.0, "is_reserved": 0, "name": "3ffce5b9ca9c2b3abce611c46bb1c786", "is_disabled": 0}, {"rental_uris": {"ios": "https://dc.lft.to/lastmile_qr_scan", "android": "https://dc.lft.to/lastmile_qr_scan"}, "lat": 38.90874816666667, "bike_id": "fa2f2eb06a0791bef265fb868768ac10", "lon": -77.043261, "type": "electric_scooter", "fusion_lon": 0.0, "fusion_lat": 0.0, "is_reserved": 0, "name": "fa2f2eb06a0791bef265fb868768ac10", "is_disabled": 0}, {"rental_uris": {"ios": "https://dc.lft.to/lastmile_qr_scan", "android": "https://dc.lft.to/lastmile_qr_scan"}, "lat": 38.919118, "bike_id": "c233034eec61c4b097d94f38ef6ef377", "lon": -77.01263883333333, "type": "electric_scooter", "fusion_lon": 0.0, "fusion_lat": 0.0, "is_reserved": 0, "name": "c233034eec61c4b097d94f38ef6ef377", "is_disabled": 0}, {"rental_uris": {"ios": "https://dc.lft.to/lastmile_qr_scan", "android": "https://dc.lft.to/lastmile_qr_scan"}, "lat": 38.90007416666667, "bike_id": "eb37f45c6e497e937572737d5be10eb4", "lon": -77.0458455, "type": "electric_scooter", "fusion_lon": 0.0, "fusion_lat": 0.0, "is_reserved": 0, "name": "eb37f45c6e497e937572737d5be10eb4", "is_disabled": 0}, {"rental_uris": {"ios": "https://dc.lft.to/lastmile_qr_scan", "android": "https://dc.lft.to/lastmile_qr_scan"}, "lat": 39.0243225, "bike_id": "ba1b4d39ac2589886cc45fa5604e8651", "lon": -77.130985, "type": "electric_bike", "fusion_lon": 0.0, "fusion_lat": 0.0, "is_reserved": 0, "name": "ba1b4d39ac2589886cc45fa5604e8651", "is_disabled": 0}, {"rental_uris": {"ios": "https://dc.lft.to/lastmile_qr_scan", "android": "https://dc.lft.to/lastmile_qr_scan"}, "lat": 38.91994066666667, "bike_id": "6d65725486550f9867c1ad3d78d353f1", "lon": -77.037996, "type": "electric_scooter", "fusion_lon": 0.0, "fusion_lat": 0.0, "is_reserved": 0, "name": "6d65725486550f9867c1ad3d78d353f1", "is_disabled": 0}, {"rental_uris": {"ios": "https://dc.lft.to/lastmile_qr_scan", "android": "https://dc.lft.to/lastmile_qr_scan"}, "lat": 38.9169235, "bike_id": "65e57e9d8d1a6fcbbf6470b171a65923", "lon": -77.0349265, "type": "electric_scooter", "fusion_lon": 0.0, "fusion_lat": 0.0, "is_reserved": 0, "name": "65e57e9d8d1a6fcbbf6470b171a65923", "is_disabled": 0}, {"rental_uris": {"ios": "https://dc.lft.to/lastmile_qr_scan", "android": "https://dc.lft.to/lastmile_qr_scan"}, "lat": 38.920689, "bike_id": "76ab63eff35606268226c5b0fea77b4d", "lon": -77.0419445, "type": "electric_scooter", "fusion_lon": 0.0, "fusion_lat": 0.0, "is_reserved": 0, "name": "76ab63eff35606268226c5b0fea77b4d", "is_disabled": 0}, {"rental_uris": {"ios": "https://dc.lft.to/lastmile_qr_scan", "android": "https://dc.lft.to/lastmile_qr_scan"}, "lat": 38.91485616666667, "bike_id": "b4237c872ca0f86ebf5a56f8e51d29d2", "lon": -77.02584133333333, "type": "electric_scooter", "fusion_lon": 0.0, "fusion_lat": 0.0, "is_reserved": 0, "name": "b4237c872ca0f86ebf5a56f8e51d29d2", "is_disabled": 0}, {"rental_uris": {"ios": "https://dc.lft.to/lastmile_qr_scan", "android": "https://dc.lft.to/lastmile_qr_scan"}, "lat": 38.92028783333333, "bike_id": "6e79804dfe2a4936a1e362926fcd18bc", "lon": -77.03117633333333, "type": "electric_scooter", "fusion_lon": 0.0, "fusion_lat": 0.0, "is_reserved": 0, "name": "6e79804dfe2a4936a1e362926fcd18bc", "is_disabled": 0}, {"rental_uris": {"ios": "https://dc.lft.to/lastmile_qr_scan", "android": "https://dc.lft.to/lastmile_qr_scan"}, "lat": 38.896050833333334, "bike_id": "f6305961b108e43d9395ce0b64db63c1", "lon": -77.04451616666667, "type": "electric_scooter", "fusion_lon": 0.0, "fusion_lat": 0.0, "is_reserved": 0, "name": "f6305961b108e43d9395ce0b64db63c1", "is_disabled": 0}, {"rental_uris": {"ios": "https://dc.lft.to/lastmile_qr_scan", "android": "https://dc.lft.to/lastmile_qr_scan"}, "lat": 38.93146616666667, "bike_id": "efe0a40c0cb4a05becc44db6f43db903", "lon": -77.03831, "type": "electric_scooter", "fusion_lon": 0.0, "fusion_lat": 0.0, "is_reserved": 0, "name": "efe0a40c0cb4a05becc44db6f43db903", "is_disabled": 0}, {"rental_uris": {"ios": "https://dc.lft.to/lastmile_qr_scan", "android": "https://dc.lft.to/lastmile_qr_scan"}, "lat": 38.9358905, "bike_id": "336b7ce096d150b2e7d4e251edd59606", "lon": -77.02446516666667, "type": "electric_scooter", "fusion_lon": 0.0, "fusion_lat": 0.0, "is_reserved": 0, "name": "336b7ce096d150b2e7d4e251edd59606", "is_disabled": 0}, {"rental_uris": {"ios": "https://dc.lft.to/lastmile_qr_scan", "android": "https://dc.lft.to/lastmile_qr_scan"}, "lat": 38.8044955, "bike_id": "f56db1420598ddeb76393914b31259c4", "lon": -77.05392366666666, "type": "electric_bike", "fusion_lon": 0.0, "fusion_lat": 0.0, "is_reserved": 0, "name": "f56db1420598ddeb76393914b31259c4", "is_disabled": 0}, {"rental_uris": {"ios": "https://dc.lft.to/lastmile_qr_scan", "android": "https://dc.lft.to/lastmile_qr_scan"}, "lat": 38.8999025, "bike_id": "a77e8da986fdb357150fd24ef16af922", "lon": -76.98099316666666, "type": "electric_scooter", "fusion_lon": 0.0, "fusion_lat": 0.0, "is_reserved": 0, "name": "a77e8da986fdb357150fd24ef16af922", "is_disabled": 0}, {"rental_uris": {"ios": "https://dc.lft.to/lastmile_qr_scan", "android": "https://dc.lft.to/lastmile_qr_scan"}, "lat": 38.904725666666664, "bike_id": "fff0e38320b1e8c3c874272c64f19e1d", "lon": -77.0463995, "type": "electric_scooter", "fusion_lon": 0.0, "fusion_lat": 0.0, "is_reserved": 0, "name": "fff0e38320b1e8c3c874272c64f19e1d", "is_disabled": 0}, {"rental_uris": {"ios": "https://dc.lft.to/lastmile_qr_scan", "android": "https://dc.lft.to/lastmile_qr_scan"}, "lat": 38.898585833333335, "bike_id": "f7c0f6666e9d414300ab01569d886e07", "lon": -76.975197, "type": "electric_scooter", "fusion_lon": 0.0, "fusion_lat": 0.0, "is_reserved": 0, "name": "f7c0f6666e9d414300ab01569d886e07", "is_disabled": 0}, {"rental_uris": {"ios": "https://dc.lft.to/lastmile_qr_scan", "android": "https://dc.lft.to/lastmile_qr_scan"}, "lat": 38.8984475, "bike_id": "ed40d5709518f2f94386f51bfddaf7e7", "lon": -77.04358933333333, "type": "electric_scooter", "fusion_lon": 0.0, "fusion_lat": 0.0, "is_reserved": 0, "name": "ed40d5709518f2f94386f51bfddaf7e7", "is_disabled": 0}, {"rental_uris": {"ios": "https://dc.lft.to/lastmile_qr_scan", "android": "https://dc.lft.to/lastmile_qr_scan"}, "lat": 38.914216833333334, "bike_id": "f2fb015e7fd5f98b7c88adf0daca9b04", "lon": -77.02405866666666, "type": "electric_scooter", "fusion_lon": 0.0, "fusion_lat": 0.0, "is_reserved": 0, "name": "f2fb015e7fd5f98b7c88adf0daca9b04", "is_disabled": 0}, {"rental_uris": {"ios": "https://dc.lft.to/lastmile_qr_scan", "android": "https://dc.lft.to/lastmile_qr_scan"}, "lat": 38.914191833333334, "bike_id": "e06833643e3c40564e6956116b9fa97d", "lon": -77.04473983333334, "type": "electric_scooter", "fusion_lon": 0.0, "fusion_lat": 0.0, "is_reserved": 0, "name": "e06833643e3c40564e6956116b9fa97d", "is_disabled": 0}, {"rental_uris": {"ios": "https://dc.lft.to/lastmile_qr_scan", "android": "https://dc.lft.to/lastmile_qr_scan"}, "lat": 38.896092833333334, "bike_id": "4529c9f2f9739d7c62a6265b80632822", "lon": -77.04611166666666, "type": "electric_scooter", "fusion_lon": 0.0, "fusion_lat": 0.0, "is_reserved": 0, "name": "4529c9f2f9739d7c62a6265b80632822", "is_disabled": 0}, {"rental_uris": {"ios": "https://dc.lft.to/lastmile_qr_scan", "android": "https://dc.lft.to/lastmile_qr_scan"}, "lat": 38.898918333333334, "bike_id": "1dba42438b8369fccbc199a778b53a33", "lon": -77.03280916666667, "type": "electric_scooter", "fusion_lon": 0.0, "fusion_lat": 0.0, "is_reserved": 0, "name": "1dba42438b8369fccbc199a778b53a33", "is_disabled": 0}, {"rental_uris": {"ios": "https://dc.lft.to/lastmile_qr_scan", "android": "https://dc.lft.to/lastmile_qr_scan"}, "lat": 38.897665, "bike_id": "ac27dd2dabbade337319f30ea0adb700", "lon": -77.02934133333333, "type": "electric_scooter", "fusion_lon": 0.0, "fusion_lat": 0.0, "is_reserved": 0, "name": "ac27dd2dabbade337319f30ea0adb700", "is_disabled": 0}, {"rental_uris": {"ios": "https://dc.lft.to/lastmile_qr_scan", "android": "https://dc.lft.to/lastmile_qr_scan"}, "lat": 38.919988833333335, "bike_id": "ad39eb26350b69a321b05b34168de19e", "lon": -77.0327725, "type": "electric_scooter", "fusion_lon": 0.0, "fusion_lat": 0.0, "is_reserved": 0, "name": "ad39eb26350b69a321b05b34168de19e", "is_disabled": 0}, {"rental_uris": {"ios": "https://dc.lft.to/lastmile_qr_scan", "android": "https://dc.lft.to/lastmile_qr_scan"}, "lat": 38.872098666666666, "bike_id": "15646db555dc8496ffc2814c30c59a97", "lon": -77.01631616666667, "type": "electric_scooter", "fusion_lon": 0.0, "fusion_lat": 0.0, "is_reserved": 0, "name": "15646db555dc8496ffc2814c30c59a97", "is_disabled": 0}, {"rental_uris": {"ios": "https://dc.lft.to/lastmile_qr_scan", "android": "https://dc.lft.to/lastmile_qr_scan"}, "lat": 38.90697183333333, "bike_id": "7b2ede35bcb989cb602e899b971c51dd", "lon": -77.02384566666667, "type": "electric_scooter", "fusion_lon": 0.0, "fusion_lat": 0.0, "is_reserved": 0, "name": "7b2ede35bcb989cb602e899b971c51dd", "is_disabled": 0}, {"rental_uris": {"ios": "https://dc.lft.to/lastmile_qr_scan", "android": "https://dc.lft.to/lastmile_qr_scan"}, "lat": 38.90570866666667, "bike_id": "0524754439b7c6d8899515c1186cded1", "lon": -77.06268983333334, "type": "electric_scooter", "fusion_lon": 0.0, "fusion_lat": 0.0, "is_reserved": 0, "name": "0524754439b7c6d8899515c1186cded1", "is_disabled": 0}, {"rental_uris": {"ios": "https://dc.lft.to/lastmile_qr_scan", "android": "https://dc.lft.to/lastmile_qr_scan"}, "lat": 38.90278466666667, "bike_id": "9680bf5f11a8020f5ed2eb9af330814b", "lon": -77.05917016666666, "type": "electric_scooter", "fusion_lon": 0.0, "fusion_lat": 0.0, "is_reserved": 0, "name": "9680bf5f11a8020f5ed2eb9af330814b", "is_disabled": 0}, {"rental_uris": {"ios": "https://dc.lft.to/lastmile_qr_scan", "android": "https://dc.lft.to/lastmile_qr_scan"}, "lat": 38.89350066666667, "bike_id": "9dd09b0e366a32982eb196726ad4d448", "lon": -77.02876433333333, "type": "electric_scooter", "fusion_lon": 0.0, "fusion_lat": 0.0, "is_reserved": 0, "name": "9dd09b0e366a32982eb196726ad4d448", "is_disabled": 0}, {"rental_uris": {"ios": "https://dc.lft.to/lastmile_qr_scan", "android": "https://dc.lft.to/lastmile_qr_scan"}, "lat": 38.94190416666667, "bike_id": "eafc429ef61be36639412b761ca11c49", "lon": -77.038362, "type": "electric_scooter", "fusion_lon": 0.0, "fusion_lat": 0.0, "is_reserved": 0, "name": "eafc429ef61be36639412b761ca11c49", "is_disabled": 0}, {"rental_uris": {"ios": "https://dc.lft.to/lastmile_qr_scan", "android": "https://dc.lft.to/lastmile_qr_scan"}, "lat": 38.917160333333335, "bike_id": "5d072004bb78aba8383352d4f05d56e4", "lon": -77.03173583333333, "type": "electric_scooter", "fusion_lon": 0.0, "fusion_lat": 0.0, "is_reserved": 0, "name": "5d072004bb78aba8383352d4f05d56e4", "is_disabled": 0}, {"rental_uris": {"ios": "https://dc.lft.to/lastmile_qr_scan", "android": "https://dc.lft.to/lastmile_qr_scan"}, "lat": 38.892191833333335, "bike_id": "6a2b6542ab991350290aa15bab6d5a02", "lon": -77.02221633333333, "type": "electric_scooter", "fusion_lon": 0.0, "fusion_lat": 0.0, "is_reserved": 0, "name": "6a2b6542ab991350290aa15bab6d5a02", "is_disabled": 0}, {"rental_uris": {"ios": "https://dc.lft.to/lastmile_qr_scan", "android": "https://dc.lft.to/lastmile_qr_scan"}, "lat": 38.87627883333333, "bike_id": "0dcb09e9f258e2b7eb4c99a0962826ba", "lon": -77.005731, "type": "electric_scooter", "fusion_lon": 0.0, "fusion_lat": 0.0, "is_reserved": 0, "name": "0dcb09e9f258e2b7eb4c99a0962826ba", "is_disabled": 0}, {"rental_uris": {"ios": "https://dc.lft.to/lastmile_qr_scan", "android": "https://dc.lft.to/lastmile_qr_scan"}, "lat": 38.92826, "bike_id": "1979841c6e2997ebe9fa3546fa1ad239", "lon": -77.03718033333334, "type": "electric_scooter", "fusion_lon": 0.0, "fusion_lat": 0.0, "is_reserved": 0, "name": "1979841c6e2997ebe9fa3546fa1ad239", "is_disabled": 0}, {"rental_uris": {"ios": "https://dc.lft.to/lastmile_qr_scan", "android": "https://dc.lft.to/lastmile_qr_scan"}, "lat": 38.90166716666667, "bike_id": "37ef15e487bc64cbeb19b796bf71597e", "lon": -76.93016783333333, "type": "electric_scooter", "fusion_lon": 0.0, "fusion_lat": 0.0, "is_reserved": 0, "name": "37ef15e487bc64cbeb19b796bf71597e", "is_disabled": 0}, {"rental_uris": {"ios": "https://dc.lft.to/lastmile_qr_scan", "android": "https://dc.lft.to/lastmile_qr_scan"}, "lat": 38.87476683333333, "bike_id": "b8401c99a51da1103e75fc12f4dedbb7", "lon": -76.96521333333334, "type": "electric_bike", "fusion_lon": 0.0, "fusion_lat": 0.0, "is_reserved": 0, "name": "b8401c99a51da1103e75fc12f4dedbb7", "is_disabled": 0}, {"rental_uris": {"ios": "https://dc.lft.to/lastmile_qr_scan", "android": "https://dc.lft.to/lastmile_qr_scan"}, "lat": 38.88652733333333, "bike_id": "7d23751e37697ca2f51af9e38bc0929a", "lon": -77.0011105, "type": "electric_scooter", "fusion_lon": 0.0, "fusion_lat": 0.0, "is_reserved": 0, "name": "7d23751e37697ca2f51af9e38bc0929a", "is_disabled": 0}, {"rental_uris": {"ios": "https://dc.lft.to/lastmile_qr_scan", "android": "https://dc.lft.to/lastmile_qr_scan"}, "lat": 38.92961016666667, "bike_id": "f7e5bd26a82c1f85e8fe7dd292a2b51e", "lon": -77.01146083333333, "type": "electric_scooter", "fusion_lon": 0.0, "fusion_lat": 0.0, "is_reserved": 0, "name": "f7e5bd26a82c1f85e8fe7dd292a2b51e", "is_disabled": 0}, {"rental_uris": {"ios": "https://dc.lft.to/lastmile_qr_scan", "android": "https://dc.lft.to/lastmile_qr_scan"}, "lat": 38.92377483333333, "bike_id": "af7f87b7394c248a47ee9f370f84ae0d", "lon": -77.0514755, "type": "electric_scooter", "fusion_lon": 0.0, "fusion_lat": 0.0, "is_reserved": 0, "name": "af7f87b7394c248a47ee9f370f84ae0d", "is_disabled": 0}, {"rental_uris": {"ios": "https://dc.lft.to/lastmile_qr_scan", "android": "https://dc.lft.to/lastmile_qr_scan"}, "lat": 38.919233, "bike_id": "eb3439182a0d68c9cfefb5b4677fba1c", "lon": -77.0097895, "type": "electric_scooter", "fusion_lon": 0.0, "fusion_lat": 0.0, "is_reserved": 0, "name": "eb3439182a0d68c9cfefb5b4677fba1c", "is_disabled": 0}, {"rental_uris": {"ios": "https://dc.lft.to/lastmile_qr_scan", "android": "https://dc.lft.to/lastmile_qr_scan"}, "lat": 38.913238666666665, "bike_id": "126cac9b0327b8228b3a2a92f6d0347d", "lon": -77.03179366666667, "type": "electric_scooter", "fusion_lon": 0.0, "fusion_lat": 0.0, "is_reserved": 0, "name": "126cac9b0327b8228b3a2a92f6d0347d", "is_disabled": 0}, {"rental_uris": {"ios": "https://dc.lft.to/lastmile_qr_scan", "android": "https://dc.lft.to/lastmile_qr_scan"}, "lat": 38.91739033333333, "bike_id": "e3b70681626aadac00723781e36619f3", "lon": -77.02113616666666, "type": "electric_scooter", "fusion_lon": 0.0, "fusion_lat": 0.0, "is_reserved": 0, "name": "e3b70681626aadac00723781e36619f3", "is_disabled": 0}, {"rental_uris": {"ios": "https://dc.lft.to/lastmile_qr_scan", "android": "https://dc.lft.to/lastmile_qr_scan"}, "lat": 38.9563285, "bike_id": "d94ee1653a9de3d36269d6de444b95ae", "lon": -77.01148466666666, "type": "electric_scooter", "fusion_lon": 0.0, "fusion_lat": 0.0, "is_reserved": 0, "name": "d94ee1653a9de3d36269d6de444b95ae", "is_disabled": 0}, {"rental_uris": {"ios": "https://dc.lft.to/lastmile_qr_scan", "android": "https://dc.lft.to/lastmile_qr_scan"}, "lat": 38.943328666666666, "bike_id": "6e9e178c543c0f1585823a8981eeaf23", "lon": -77.024706, "type": "electric_scooter", "fusion_lon": 0.0, "fusion_lat": 0.0, "is_reserved": 0, "name": "6e9e178c543c0f1585823a8981eeaf23", "is_disabled": 0}, {"rental_uris": {"ios": "https://dc.lft.to/lastmile_qr_scan", "android": "https://dc.lft.to/lastmile_qr_scan"}, "lat": 38.90198483333333, "bike_id": "54dc71a1293006c0a7421c671eaa1b56", "lon": -77.02126816666667, "type": "electric_scooter", "fusion_lon": 0.0, "fusion_lat": 0.0, "is_reserved": 0, "name": "54dc71a1293006c0a7421c671eaa1b56", "is_disabled": 0}, {"rental_uris": {"ios": "https://dc.lft.to/lastmile_qr_scan", "android": "https://dc.lft.to/lastmile_qr_scan"}, "lat": 38.909028666666664, "bike_id": "2d39bce6c4ca58c628f99073edae3cbe", "lon": -77.02316016666667, "type": "electric_scooter", "fusion_lon": 0.0, "fusion_lat": 0.0, "is_reserved": 0, "name": "2d39bce6c4ca58c628f99073edae3cbe", "is_disabled": 0}, {"rental_uris": {"ios": "https://dc.lft.to/lastmile_qr_scan", "android": "https://dc.lft.to/lastmile_qr_scan"}, "lat": 38.896037166666666, "bike_id": "666fb9db796e2866c99aff213792e5f7", "lon": -77.0543775, "type": "electric_scooter", "fusion_lon": 0.0, "fusion_lat": 0.0, "is_reserved": 0, "name": "666fb9db796e2866c99aff213792e5f7", "is_disabled": 0}, {"rental_uris": {"ios": "https://dc.lft.to/lastmile_qr_scan", "android": "https://dc.lft.to/lastmile_qr_scan"}, "lat": 38.89351666666666, "bike_id": "37e07c90dfd96b307a819116b0e76c27", "lon": -77.00337333333333, "type": "electric_scooter", "fusion_lon": 0.0, "fusion_lat": 0.0, "is_reserved": 0, "name": "37e07c90dfd96b307a819116b0e76c27", "is_disabled": 0}, {"rental_uris": {"ios": "https://dc.lft.to/lastmile_qr_scan", "android": "https://dc.lft.to/lastmile_qr_scan"}, "lat": 38.926404, "bike_id": "acf63521af5b39896f83f6ee4e3f20f4", "lon": -77.014286, "type": "electric_scooter", "fusion_lon": 0.0, "fusion_lat": 0.0, "is_reserved": 0, "name": "acf63521af5b39896f83f6ee4e3f20f4", "is_disabled": 0}, {"rental_uris": {"ios": "https://dc.lft.to/lastmile_qr_scan", "android": "https://dc.lft.to/lastmile_qr_scan"}, "lat": 38.895163, "bike_id": "293e1883492b5160d4ec0c946c8d11b9", "lon": -77.02270883333334, "type": "electric_scooter", "fusion_lon": 0.0, "fusion_lat": 0.0, "is_reserved": 0, "name": "293e1883492b5160d4ec0c946c8d11b9", "is_disabled": 0}, {"rental_uris": {"ios": "https://dc.lft.to/lastmile_qr_scan", "android": "https://dc.lft.to/lastmile_qr_scan"}, "lat": 38.798537, "bike_id": "bc50392613ba9c4b12a686049243a4e6", "lon": -77.06305833333333, "type": "electric_bike", "fusion_lon": 0.0, "fusion_lat": 0.0, "is_reserved": 0, "name": "bc50392613ba9c4b12a686049243a4e6", "is_disabled": 0}, {"rental_uris": {"ios": "https://dc.lft.to/lastmile_qr_scan", "android": "https://dc.lft.to/lastmile_qr_scan"}, "lat": 38.9055525, "bike_id": "50cb8f38b127c85a7af388f3a6126b8b", "lon": -77.03979683333333, "type": "electric_scooter", "fusion_lon": 0.0, "fusion_lat": 0.0, "is_reserved": 0, "name": "50cb8f38b127c85a7af388f3a6126b8b", "is_disabled": 0}, {"rental_uris": {"ios": "https://dc.lft.to/lastmile_qr_scan", "android": "https://dc.lft.to/lastmile_qr_scan"}, "lat": 38.92646083333333, "bike_id": "38b26f987c10bf668f91e13ef0ad8422", "lon": -76.98421383333333, "type": "electric_bike", "fusion_lon": 0.0, "fusion_lat": 0.0, "is_reserved": 0, "name": "38b26f987c10bf668f91e13ef0ad8422", "is_disabled": 0}, {"rental_uris": {"ios": "https://dc.lft.to/lastmile_qr_scan", "android": "https://dc.lft.to/lastmile_qr_scan"}, "lat": 38.879836166666664, "bike_id": "f3c3d4caa3afceabb2b9a368a449b37d", "lon": -77.02410683333333, "type": "electric_scooter", "fusion_lon": 0.0, "fusion_lat": 0.0, "is_reserved": 0, "name": "f3c3d4caa3afceabb2b9a368a449b37d", "is_disabled": 0}, {"rental_uris": {"ios": "https://dc.lft.to/lastmile_qr_scan", "android": "https://dc.lft.to/lastmile_qr_scan"}, "lat": 38.902082, "bike_id": "851525b075cdcc1ce904db25e4bde887", "lon": -76.974074, "type": "electric_bike", "fusion_lon": 0.0, "fusion_lat": 0.0, "is_reserved": 0, "name": "851525b075cdcc1ce904db25e4bde887", "is_disabled": 0}, {"rental_uris": {"ios": "https://dc.lft.to/lastmile_qr_scan", "android": "https://dc.lft.to/lastmile_qr_scan"}, "lat": 38.93924533333333, "bike_id": "64cc6680e3f6142854a8c2e0a14ad61a", "lon": -76.95505633333333, "type": "electric_bike", "fusion_lon": 0.0, "fusion_lat": 0.0, "is_reserved": 0, "name": "64cc6680e3f6142854a8c2e0a14ad61a", "is_disabled": 0}, {"rental_uris": {"ios": "https://dc.lft.to/lastmile_qr_scan", "android": "https://dc.lft.to/lastmile_qr_scan"}, "lat": 38.9336945, "bike_id": "5b15da39bc0c3975fd9fc6857297b7d3", "lon": -76.99501133333334, "type": "electric_scooter", "fusion_lon": 0.0, "fusion_lat": 0.0, "is_reserved": 0, "name": "5b15da39bc0c3975fd9fc6857297b7d3", "is_disabled": 0}, {"rental_uris": {"ios": "https://dc.lft.to/lastmile_qr_scan", "android": "https://dc.lft.to/lastmile_qr_scan"}, "lat": 38.90847333333333, "bike_id": "a1d26050d08a1ccbd1ce566da1f10bf3", "lon": -77.042607, "type": "electric_scooter", "fusion_lon": 0.0, "fusion_lat": 0.0, "is_reserved": 0, "name": "a1d26050d08a1ccbd1ce566da1f10bf3", "is_disabled": 0}, {"rental_uris": {"ios": "https://dc.lft.to/lastmile_qr_scan", "android": "https://dc.lft.to/lastmile_qr_scan"}, "lat": 38.9204375, "bike_id": "13418ea4a0bf328048ea00d7fd952b33", "lon": -77.01679533333333, "type": "electric_scooter", "fusion_lon": 0.0, "fusion_lat": 0.0, "is_reserved": 0, "name": "13418ea4a0bf328048ea00d7fd952b33", "is_disabled": 0}, {"rental_uris": {"ios": "https://dc.lft.to/lastmile_qr_scan", "android": "https://dc.lft.to/lastmile_qr_scan"}, "lat": 38.870839, "bike_id": "35c121ec6333950d3b9705a4c3ca91c4", "lon": -77.01210516666667, "type": "electric_bike", "fusion_lon": 0.0, "fusion_lat": 0.0, "is_reserved": 0, "name": "35c121ec6333950d3b9705a4c3ca91c4", "is_disabled": 0}, {"rental_uris": {"ios": "https://dc.lft.to/lastmile_qr_scan", "android": "https://dc.lft.to/lastmile_qr_scan"}, "lat": 38.92686116666667, "bike_id": "cd86bcf451b9677c9d49dc1151ce57fa", "lon": -77.0220235, "type": "electric_scooter", "fusion_lon": 0.0, "fusion_lat": 0.0, "is_reserved": 0, "name": "cd86bcf451b9677c9d49dc1151ce57fa", "is_disabled": 0}, {"rental_uris": {"ios": "https://dc.lft.to/lastmile_qr_scan", "android": "https://dc.lft.to/lastmile_qr_scan"}, "lat": 38.9244995, "bike_id": "0a6aef09e46220ad3ceac203aaa87b05", "lon": -77.22558766666667, "type": "electric_bike", "fusion_lon": 0.0, "fusion_lat": 0.0, "is_reserved": 0, "name": "0a6aef09e46220ad3ceac203aaa87b05", "is_disabled": 0}, {"rental_uris": {"ios": "https://dc.lft.to/lastmile_qr_scan", "android": "https://dc.lft.to/lastmile_qr_scan"}, "lat": 38.9003975, "bike_id": "d55b99d36b8db73106210e903e457b1d", "lon": -77.01285383333334, "type": "electric_scooter", "fusion_lon": 0.0, "fusion_lat": 0.0, "is_reserved": 0, "name": "d55b99d36b8db73106210e903e457b1d", "is_disabled": 0}, {"rental_uris": {"ios": "https://dc.lft.to/lastmile_qr_scan", "android": "https://dc.lft.to/lastmile_qr_scan"}, "lat": 38.8983465, "bike_id": "e6fa8388f4742375d2c73cd567ec2a34", "lon": -77.04335683333333, "type": "electric_scooter", "fusion_lon": 0.0, "fusion_lat": 0.0, "is_reserved": 0, "name": "e6fa8388f4742375d2c73cd567ec2a34", "is_disabled": 0}, {"rental_uris": {"ios": "https://dc.lft.to/lastmile_qr_scan", "android": "https://dc.lft.to/lastmile_qr_scan"}, "lat": 38.9026565, "bike_id": "8cb760380971d88b0c5a775769f647bb", "lon": -77.03525583333334, "type": "electric_scooter", "fusion_lon": 0.0, "fusion_lat": 0.0, "is_reserved": 0, "name": "8cb760380971d88b0c5a775769f647bb", "is_disabled": 0}, {"rental_uris": {"ios": "https://dc.lft.to/lastmile_qr_scan", "android": "https://dc.lft.to/lastmile_qr_scan"}, "lat": 38.90001316666667, "bike_id": "68c2d666a86b766d847b3c49147794c0", "lon": -77.02715233333333, "type": "electric_scooter", "fusion_lon": 0.0, "fusion_lat": 0.0, "is_reserved": 0, "name": "68c2d666a86b766d847b3c49147794c0", "is_disabled": 0}, {"rental_uris": {"ios": "https://dc.lft.to/lastmile_qr_scan", "android": "https://dc.lft.to/lastmile_qr_scan"}, "lat": 38.915722, "bike_id": "1b195af30ebdb19cf9d376f8ecc6e214", "lon": -77.015551, "type": "electric_bike", "fusion_lon": 0.0, "fusion_lat": 0.0, "is_reserved": 0, "name": "1b195af30ebdb19cf9d376f8ecc6e214", "is_disabled": 0}, {"rental_uris": {"ios": "https://dc.lft.to/lastmile_qr_scan", "android": "https://dc.lft.to/lastmile_qr_scan"}, "lat": 38.92230033333333, "bike_id": "1839a300662033eda38bce391c501cf0", "lon": -77.04374783333333, "type": "electric_scooter", "fusion_lon": 0.0, "fusion_lat": 0.0, "is_reserved": 0, "name": "1839a300662033eda38bce391c501cf0", "is_disabled": 0}, {"rental_uris": {"ios": "https://dc.lft.to/lastmile_qr_scan", "android": "https://dc.lft.to/lastmile_qr_scan"}, "lat": 38.903020833333336, "bike_id": "143c58cd2d0ab4067e983d89c64d8b08", "lon": -77.046935, "type": "electric_scooter", "fusion_lon": 0.0, "fusion_lat": 0.0, "is_reserved": 0, "name": "143c58cd2d0ab4067e983d89c64d8b08", "is_disabled": 0}, {"rental_uris": {"ios": "https://dc.lft.to/lastmile_qr_scan", "android": "https://dc.lft.to/lastmile_qr_scan"}, "lat": 38.9174635, "bike_id": "3e2cc3a437c1f3aa88b6572b136dbd78", "lon": -77.04152216666667, "type": "electric_scooter", "fusion_lon": 0.0, "fusion_lat": 0.0, "is_reserved": 0, "name": "3e2cc3a437c1f3aa88b6572b136dbd78", "is_disabled": 0}, {"rental_uris": {"ios": "https://dc.lft.to/lastmile_qr_scan", "android": "https://dc.lft.to/lastmile_qr_scan"}, "lat": 38.90867766666667, "bike_id": "54488610365dff8b227f9d85f5419ca6", "lon": -77.08595416666667, "type": "electric_scooter", "fusion_lon": 0.0, "fusion_lat": 0.0, "is_reserved": 0, "name": "54488610365dff8b227f9d85f5419ca6", "is_disabled": 0}, {"rental_uris": {"ios": "https://dc.lft.to/lastmile_qr_scan", "android": "https://dc.lft.to/lastmile_qr_scan"}, "lat": 38.90082566666667, "bike_id": "cbb0623597f7291b2168c04b18d0f989", "lon": -77.012223, "type": "electric_scooter", "fusion_lon": 0.0, "fusion_lat": 0.0, "is_reserved": 0, "name": "cbb0623597f7291b2168c04b18d0f989", "is_disabled": 0}, {"rental_uris": {"ios": "https://dc.lft.to/lastmile_qr_scan", "android": "https://dc.lft.to/lastmile_qr_scan"}, "lat": 38.87501, "bike_id": "9df4492890b2f12bc3b3adf15007a03e", "lon": -76.99984816666667, "type": "electric_scooter", "fusion_lon": 0.0, "fusion_lat": 0.0, "is_reserved": 0, "name": "9df4492890b2f12bc3b3adf15007a03e", "is_disabled": 0}, {"rental_uris": {"ios": "https://dc.lft.to/lastmile_qr_scan", "android": "https://dc.lft.to/lastmile_qr_scan"}, "lat": 38.86370733333333, "bike_id": "e3507491963b22d32e5007f5ea803e4b", "lon": -76.99057516666667, "type": "electric_scooter", "fusion_lon": 0.0, "fusion_lat": 0.0, "is_reserved": 0, "name": "e3507491963b22d32e5007f5ea803e4b", "is_disabled": 0}, {"rental_uris": {"ios": "https://dc.lft.to/lastmile_qr_scan", "android": "https://dc.lft.to/lastmile_qr_scan"}, "lat": 38.89269783333334, "bike_id": "9eba215fe2e5d07db5ada7bebb40c4d9", "lon": -77.00128633333334, "type": "electric_scooter", "fusion_lon": 0.0, "fusion_lat": 0.0, "is_reserved": 0, "name": "9eba215fe2e5d07db5ada7bebb40c4d9", "is_disabled": 0}, {"rental_uris": {"ios": "https://dc.lft.to/lastmile_qr_scan", "android": "https://dc.lft.to/lastmile_qr_scan"}, "lat": 38.91703733333333, "bike_id": "907191193cd0a6dbbb1832affccba384", "lon": -77.02317833333333, "type": "electric_scooter", "fusion_lon": 0.0, "fusion_lat": 0.0, "is_reserved": 0, "name": "907191193cd0a6dbbb1832affccba384", "is_disabled": 0}, {"rental_uris": {"ios": "https://dc.lft.to/lastmile_qr_scan", "android": "https://dc.lft.to/lastmile_qr_scan"}, "lat": 38.922318, "bike_id": "e8f09484af7c68704aa5f6871b84e808", "lon": -77.02974083333334, "type": "electric_scooter", "fusion_lon": 0.0, "fusion_lat": 0.0, "is_reserved": 0, "name": "e8f09484af7c68704aa5f6871b84e808", "is_disabled": 0}, {"rental_uris": {"ios": "https://dc.lft.to/lastmile_qr_scan", "android": "https://dc.lft.to/lastmile_qr_scan"}, "lat": 38.925070833333336, "bike_id": "a45274cdede252db5b661d091ff444f4", "lon": -77.0227515, "type": "electric_scooter", "fusion_lon": 0.0, "fusion_lat": 0.0, "is_reserved": 0, "name": "a45274cdede252db5b661d091ff444f4", "is_disabled": 0}, {"rental_uris": {"ios": "https://dc.lft.to/lastmile_qr_scan", "android": "https://dc.lft.to/lastmile_qr_scan"}, "lat": 38.919255166666666, "bike_id": "73e50ab77b82b030ca44f337bf8b7ec1", "lon": -77.02514133333334, "type": "electric_scooter", "fusion_lon": 0.0, "fusion_lat": 0.0, "is_reserved": 0, "name": "73e50ab77b82b030ca44f337bf8b7ec1", "is_disabled": 0}, {"rental_uris": {"ios": "https://dc.lft.to/lastmile_qr_scan", "android": "https://dc.lft.to/lastmile_qr_scan"}, "lat": 38.902519833333336, "bike_id": "88c10422b88bdb19045f53ac9a5df3e1", "lon": -77.045735, "type": "electric_scooter", "fusion_lon": 0.0, "fusion_lat": 0.0, "is_reserved": 0, "name": "88c10422b88bdb19045f53ac9a5df3e1", "is_disabled": 0}, {"rental_uris": {"ios": "https://dc.lft.to/lastmile_qr_scan", "android": "https://dc.lft.to/lastmile_qr_scan"}, "lat": 38.90279866666667, "bike_id": "93987c26737570da113990e875159283", "lon": -77.03835116666667, "type": "electric_scooter", "fusion_lon": 0.0, "fusion_lat": 0.0, "is_reserved": 0, "name": "93987c26737570da113990e875159283", "is_disabled": 0}, {"rental_uris": {"ios": "https://dc.lft.to/lastmile_qr_scan", "android": "https://dc.lft.to/lastmile_qr_scan"}, "lat": 38.900243333333336, "bike_id": "025aa5bf7c8e45c43d748f0b236ae68a", "lon": -77.02853166666667, "type": "electric_scooter", "fusion_lon": 0.0, "fusion_lat": 0.0, "is_reserved": 0, "name": "025aa5bf7c8e45c43d748f0b236ae68a", "is_disabled": 0}, {"rental_uris": {"ios": "https://dc.lft.to/lastmile_qr_scan", "android": "https://dc.lft.to/lastmile_qr_scan"}, "lat": 38.904868, "bike_id": "36cd09542844b47c1b46fa5e26afab47", "lon": -77.03424066666666, "type": "electric_scooter", "fusion_lon": 0.0, "fusion_lat": 0.0, "is_reserved": 0, "name": "36cd09542844b47c1b46fa5e26afab47", "is_disabled": 0}, {"rental_uris": {"ios": "https://dc.lft.to/lastmile_qr_scan", "android": "https://dc.lft.to/lastmile_qr_scan"}, "lat": 38.900735166666664, "bike_id": "001903ce0b665f02dda1792103a0f936", "lon": -77.050197, "type": "electric_scooter", "fusion_lon": 0.0, "fusion_lat": 0.0, "is_reserved": 0, "name": "001903ce0b665f02dda1792103a0f936", "is_disabled": 0}, {"rental_uris": {"ios": "https://dc.lft.to/lastmile_qr_scan", "android": "https://dc.lft.to/lastmile_qr_scan"}, "lat": 38.90008733333333, "bike_id": "18dc9fc21b8b725a203cac4dc33e646a", "lon": -77.00680433333333, "type": "electric_scooter", "fusion_lon": 0.0, "fusion_lat": 0.0, "is_reserved": 0, "name": "18dc9fc21b8b725a203cac4dc33e646a", "is_disabled": 0}, {"rental_uris": {"ios": "https://dc.lft.to/lastmile_qr_scan", "android": "https://dc.lft.to/lastmile_qr_scan"}, "lat": 38.90572233333333, "bike_id": "cddc25789ebf0af26dcb3b216693c2f4", "lon": -77.00779433333334, "type": "electric_scooter", "fusion_lon": 0.0, "fusion_lat": 0.0, "is_reserved": 0, "name": "cddc25789ebf0af26dcb3b216693c2f4", "is_disabled": 0}, {"rental_uris": {"ios": "https://dc.lft.to/lastmile_qr_scan", "android": "https://dc.lft.to/lastmile_qr_scan"}, "lat": 38.924193833333334, "bike_id": "bb5b91f886be4f9a6ddc9ce102c81308", "lon": -77.0200875, "type": "electric_scooter", "fusion_lon": 0.0, "fusion_lat": 0.0, "is_reserved": 0, "name": "bb5b91f886be4f9a6ddc9ce102c81308", "is_disabled": 0}, {"rental_uris": {"ios": "https://dc.lft.to/lastmile_qr_scan", "android": "https://dc.lft.to/lastmile_qr_scan"}, "lat": 38.909723666666665, "bike_id": "81b3b4a89e16775aad44f358cac93911", "lon": -77.011044, "type": "electric_scooter", "fusion_lon": 0.0, "fusion_lat": 0.0, "is_reserved": 0, "name": "81b3b4a89e16775aad44f358cac93911", "is_disabled": 0}, {"rental_uris": {"ios": "https://dc.lft.to/lastmile_qr_scan", "android": "https://dc.lft.to/lastmile_qr_scan"}, "lat": 38.90126766666667, "bike_id": "4c5a26f17e7f93ff2b568af8d7b2374d", "lon": -77.03257866666667, "type": "electric_scooter", "fusion_lon": 0.0, "fusion_lat": 0.0, "is_reserved": 0, "name": "4c5a26f17e7f93ff2b568af8d7b2374d", "is_disabled": 0}, {"rental_uris": {"ios": "https://dc.lft.to/lastmile_qr_scan", "android": "https://dc.lft.to/lastmile_qr_scan"}, "lat": 38.914177, "bike_id": "d73fd6aff7f866e630a840525c16b5f8", "lon": -77.03175266666666, "type": "electric_scooter", "fusion_lon": 0.0, "fusion_lat": 0.0, "is_reserved": 0, "name": "d73fd6aff7f866e630a840525c16b5f8", "is_disabled": 0}, {"rental_uris": {"ios": "https://dc.lft.to/lastmile_qr_scan", "android": "https://dc.lft.to/lastmile_qr_scan"}, "lat": 38.9160955, "bike_id": "d178ea59fdc6f2de1fab632fbe787d64", "lon": -77.08534933333334, "type": "electric_scooter", "fusion_lon": 0.0, "fusion_lat": 0.0, "is_reserved": 0, "name": "d178ea59fdc6f2de1fab632fbe787d64", "is_disabled": 0}, {"rental_uris": {"ios": "https://dc.lft.to/lastmile_qr_scan", "android": "https://dc.lft.to/lastmile_qr_scan"}, "lat": 38.952553333333334, "bike_id": "9bdac3dd1f6227445f18cce722e359de", "lon": -77.01967233333333, "type": "electric_scooter", "fusion_lon": 0.0, "fusion_lat": 0.0, "is_reserved": 0, "name": "9bdac3dd1f6227445f18cce722e359de", "is_disabled": 0}, {"rental_uris": {"ios": "https://dc.lft.to/lastmile_qr_scan", "android": "https://dc.lft.to/lastmile_qr_scan"}, "lat": 38.9845845, "bike_id": "046ea632ac98c3e93e36e8330662457b", "lon": -76.97049883333334, "type": "electric_bike", "fusion_lon": 0.0, "fusion_lat": 0.0, "is_reserved": 0, "name": "046ea632ac98c3e93e36e8330662457b", "is_disabled": 0}, {"rental_uris": {"ios": "https://dc.lft.to/lastmile_qr_scan", "android": "https://dc.lft.to/lastmile_qr_scan"}, "lat": 38.90754483333333, "bike_id": "d53993b3ad4f2805f1d50e1ccd829deb", "lon": -77.07146833333333, "type": "electric_scooter", "fusion_lon": 0.0, "fusion_lat": 0.0, "is_reserved": 0, "name": "d53993b3ad4f2805f1d50e1ccd829deb", "is_disabled": 0}, {"rental_uris": {"ios": "https://dc.lft.to/lastmile_qr_scan", "android": "https://dc.lft.to/lastmile_qr_scan"}, "lat": 38.91004, "bike_id": "fa119639357698d91113d430a970e301", "lon": -77.03663433333334, "type": "electric_scooter", "fusion_lon": 0.0, "fusion_lat": 0.0, "is_reserved": 0, "name": "fa119639357698d91113d430a970e301", "is_disabled": 0}, {"rental_uris": {"ios": "https://dc.lft.to/lastmile_qr_scan", "android": "https://dc.lft.to/lastmile_qr_scan"}, "lat": 38.92447283333333, "bike_id": "2133e3e32742c8c92ae198a82edb9258", "lon": -77.02020016666667, "type": "electric_scooter", "fusion_lon": 0.0, "fusion_lat": 0.0, "is_reserved": 0, "name": "2133e3e32742c8c92ae198a82edb9258", "is_disabled": 0}, {"rental_uris": {"ios": "https://dc.lft.to/lastmile_qr_scan", "android": "https://dc.lft.to/lastmile_qr_scan"}, "lat": 38.93107783333333, "bike_id": "77bd481cac15f83fb30aedab5a5c4a7e", "lon": -77.03508066666667, "type": "electric_scooter", "fusion_lon": 0.0, "fusion_lat": 0.0, "is_reserved": 0, "name": "77bd481cac15f83fb30aedab5a5c4a7e", "is_disabled": 0}, {"rental_uris": {"ios": "https://dc.lft.to/lastmile_qr_scan", "android": "https://dc.lft.to/lastmile_qr_scan"}, "lat": 38.929614, "bike_id": "ef956bc4ae5a21900827733e4edde449", "lon": -77.0324675, "type": "electric_scooter", "fusion_lon": 0.0, "fusion_lat": 0.0, "is_reserved": 0, "name": "ef956bc4ae5a21900827733e4edde449", "is_disabled": 0}, {"rental_uris": {"ios": "https://dc.lft.to/lastmile_qr_scan", "android": "https://dc.lft.to/lastmile_qr_scan"}, "lat": 38.9027595, "bike_id": "02fe34eae32fedfd64e8a03a5861caf2", "lon": -77.03812616666667, "type": "electric_scooter", "fusion_lon": 0.0, "fusion_lat": 0.0, "is_reserved": 0, "name": "02fe34eae32fedfd64e8a03a5861caf2", "is_disabled": 0}, {"rental_uris": {"ios": "https://dc.lft.to/lastmile_qr_scan", "android": "https://dc.lft.to/lastmile_qr_scan"}, "lat": 38.905833, "bike_id": "f98ca8a9ed90117b72aedc92c3e69e11", "lon": -77.05702466666666, "type": "electric_scooter", "fusion_lon": 0.0, "fusion_lat": 0.0, "is_reserved": 0, "name": "f98ca8a9ed90117b72aedc92c3e69e11", "is_disabled": 0}, {"rental_uris": {"ios": "https://dc.lft.to/lastmile_qr_scan", "android": "https://dc.lft.to/lastmile_qr_scan"}, "lat": 38.90752366666667, "bike_id": "9824795c3996275eeeaf7d292cbc7dde", "lon": -77.03603016666666, "type": "electric_scooter", "fusion_lon": 0.0, "fusion_lat": 0.0, "is_reserved": 0, "name": "9824795c3996275eeeaf7d292cbc7dde", "is_disabled": 0}, {"rental_uris": {"ios": "https://dc.lft.to/lastmile_qr_scan", "android": "https://dc.lft.to/lastmile_qr_scan"}, "lat": 38.915668833333335, "bike_id": "235200303d183f8b25c6b2dab988bac5", "lon": -77.03195283333334, "type": "electric_scooter", "fusion_lon": 0.0, "fusion_lat": 0.0, "is_reserved": 0, "name": "235200303d183f8b25c6b2dab988bac5", "is_disabled": 0}, {"rental_uris": {"ios": "https://dc.lft.to/lastmile_qr_scan", "android": "https://dc.lft.to/lastmile_qr_scan"}, "lat": 38.875382333333334, "bike_id": "2aa9f22c66ad5f7ad710366e607a6647", "lon": -77.00078716666667, "type": "electric_scooter", "fusion_lon": 0.0, "fusion_lat": 0.0, "is_reserved": 0, "name": "2aa9f22c66ad5f7ad710366e607a6647", "is_disabled": 0}, {"rental_uris": {"ios": "https://dc.lft.to/lastmile_qr_scan", "android": "https://dc.lft.to/lastmile_qr_scan"}, "lat": 38.908649833333335, "bike_id": "bbebd288c10bc41f2cf13a09c00fe319", "lon": -76.93338916666667, "type": "electric_scooter", "fusion_lon": 0.0, "fusion_lat": 0.0, "is_reserved": 0, "name": "bbebd288c10bc41f2cf13a09c00fe319", "is_disabled": 0}, {"rental_uris": {"ios": "https://dc.lft.to/lastmile_qr_scan", "android": "https://dc.lft.to/lastmile_qr_scan"}, "lat": 38.908319166666665, "bike_id": "375d7216d2a1e8e9a92606d553df5bb8", "lon": -77.036626, "type": "electric_scooter", "fusion_lon": 0.0, "fusion_lat": 0.0, "is_reserved": 0, "name": "375d7216d2a1e8e9a92606d553df5bb8", "is_disabled": 0}, {"rental_uris": {"ios": "https://dc.lft.to/lastmile_qr_scan", "android": "https://dc.lft.to/lastmile_qr_scan"}, "lat": 38.88426333333334, "bike_id": "ee01424c02999ddfaf1dd86a085a2013", "lon": -76.99696283333333, "type": "electric_scooter", "fusion_lon": 0.0, "fusion_lat": 0.0, "is_reserved": 0, "name": "ee01424c02999ddfaf1dd86a085a2013", "is_disabled": 0}, {"rental_uris": {"ios": "https://dc.lft.to/lastmile_qr_scan", "android": "https://dc.lft.to/lastmile_qr_scan"}, "lat": 38.9387415, "bike_id": "2676b569958fc3f3881892fc914ee18f", "lon": -77.03410183333334, "type": "electric_scooter", "fusion_lon": 0.0, "fusion_lat": 0.0, "is_reserved": 0, "name": "2676b569958fc3f3881892fc914ee18f", "is_disabled": 0}, {"rental_uris": {"ios": "https://dc.lft.to/lastmile_qr_scan", "android": "https://dc.lft.to/lastmile_qr_scan"}, "lat": 38.896224833333335, "bike_id": "71436257b6d437551c6b1c6e3489ace4", "lon": -77.02244916666666, "type": "electric_scooter", "fusion_lon": 0.0, "fusion_lat": 0.0, "is_reserved": 0, "name": "71436257b6d437551c6b1c6e3489ace4", "is_disabled": 0}, {"rental_uris": {"ios": "https://dc.lft.to/lastmile_qr_scan", "android": "https://dc.lft.to/lastmile_qr_scan"}, "lat": 38.90730666666666, "bike_id": "94ad0a64fc1ae4d2080bda0e0b6bf89d", "lon": -77.02372633333333, "type": "electric_scooter", "fusion_lon": 0.0, "fusion_lat": 0.0, "is_reserved": 0, "name": "94ad0a64fc1ae4d2080bda0e0b6bf89d", "is_disabled": 0}, {"rental_uris": {"ios": "https://dc.lft.to/lastmile_qr_scan", "android": "https://dc.lft.to/lastmile_qr_scan"}, "lat": 38.86006316666667, "bike_id": "0ae22db194cbbb792734603815f02c03", "lon": -76.99656733333333, "type": "electric_scooter", "fusion_lon": 0.0, "fusion_lat": 0.0, "is_reserved": 0, "name": "0ae22db194cbbb792734603815f02c03", "is_disabled": 0}, {"rental_uris": {"ios": "https://dc.lft.to/lastmile_qr_scan", "android": "https://dc.lft.to/lastmile_qr_scan"}, "lat": 38.876596666666664, "bike_id": "a15e3063d2a07175a17f74c9f0dfdfb0", "lon": -77.004577, "type": "electric_scooter", "fusion_lon": 0.0, "fusion_lat": 0.0, "is_reserved": 0, "name": "a15e3063d2a07175a17f74c9f0dfdfb0", "is_disabled": 0}, {"rental_uris": {"ios": "https://dc.lft.to/lastmile_qr_scan", "android": "https://dc.lft.to/lastmile_qr_scan"}, "lat": 38.92265183333333, "bike_id": "34dfbc778339641832ba1bd8ffddb725", "lon": -77.01825483333333, "type": "electric_scooter", "fusion_lon": 0.0, "fusion_lat": 0.0, "is_reserved": 0, "name": "34dfbc778339641832ba1bd8ffddb725", "is_disabled": 0}, {"rental_uris": {"ios": "https://dc.lft.to/lastmile_qr_scan", "android": "https://dc.lft.to/lastmile_qr_scan"}, "lat": 38.88257616666667, "bike_id": "ad4cdb0fb197dc689c30c871806f0ac2", "lon": -76.9355715, "type": "electric_scooter", "fusion_lon": 0.0, "fusion_lat": 0.0, "is_reserved": 0, "name": "ad4cdb0fb197dc689c30c871806f0ac2", "is_disabled": 0}, {"rental_uris": {"ios": "https://dc.lft.to/lastmile_qr_scan", "android": "https://dc.lft.to/lastmile_qr_scan"}, "lat": 38.90854266666667, "bike_id": "d14ee9df5513bbe45ed2f8d6071373c7", "lon": -76.99799633333333, "type": "electric_scooter", "fusion_lon": 0.0, "fusion_lat": 0.0, "is_reserved": 0, "name": "d14ee9df5513bbe45ed2f8d6071373c7", "is_disabled": 0}, {"rental_uris": {"ios": "https://dc.lft.to/lastmile_qr_scan", "android": "https://dc.lft.to/lastmile_qr_scan"}, "lat": 38.8983725, "bike_id": "6c0e36dcfff8bb074e6910d60aa2fb88", "lon": -77.02647116666667, "type": "electric_scooter", "fusion_lon": 0.0, "fusion_lat": 0.0, "is_reserved": 0, "name": "6c0e36dcfff8bb074e6910d60aa2fb88", "is_disabled": 0}, {"rental_uris": {"ios": "https://dc.lft.to/lastmile_qr_scan", "android": "https://dc.lft.to/lastmile_qr_scan"}, "lat": 39.0549865, "bike_id": "456c750f9eccdf04965490b0591a590d", "lon": -77.11787166666667, "type": "electric_bike", "fusion_lon": 0.0, "fusion_lat": 0.0, "is_reserved": 0, "name": "456c750f9eccdf04965490b0591a590d", "is_disabled": 0}, {"rental_uris": {"ios": "https://dc.lft.to/lastmile_qr_scan", "android": "https://dc.lft.to/lastmile_qr_scan"}, "lat": 38.87179366666667, "bike_id": "98b8e39890c1d2be7cff9374316cedb0", "lon": -77.0060425, "type": "electric_scooter", "fusion_lon": 0.0, "fusion_lat": 0.0, "is_reserved": 0, "name": "98b8e39890c1d2be7cff9374316cedb0", "is_disabled": 0}, {"rental_uris": {"ios": "https://dc.lft.to/lastmile_qr_scan", "android": "https://dc.lft.to/lastmile_qr_scan"}, "lat": 38.90248483333333, "bike_id": "aec20bd18fe7b3b1759d4759c318f504", "lon": -77.02814483333333, "type": "electric_scooter", "fusion_lon": 0.0, "fusion_lat": 0.0, "is_reserved": 0, "name": "aec20bd18fe7b3b1759d4759c318f504", "is_disabled": 0}, {"rental_uris": {"ios": "https://dc.lft.to/lastmile_qr_scan", "android": "https://dc.lft.to/lastmile_qr_scan"}, "lat": 38.97498133333333, "bike_id": "65828cc354d1ef2a074c1d925f31eec7", "lon": -77.01694066666667, "type": "electric_scooter", "fusion_lon": 0.0, "fusion_lat": 0.0, "is_reserved": 0, "name": "65828cc354d1ef2a074c1d925f31eec7", "is_disabled": 0}, {"rental_uris": {"ios": "https://dc.lft.to/lastmile_qr_scan", "android": "https://dc.lft.to/lastmile_qr_scan"}, "lat": 38.893544, "bike_id": "92d6355ee438d9729b6cba9d54515929", "lon": -77.02857616666667, "type": "electric_scooter", "fusion_lon": 0.0, "fusion_lat": 0.0, "is_reserved": 0, "name": "92d6355ee438d9729b6cba9d54515929", "is_disabled": 0}, {"rental_uris": {"ios": "https://dc.lft.to/lastmile_qr_scan", "android": "https://dc.lft.to/lastmile_qr_scan"}, "lat": 38.920221833333336, "bike_id": "b34fe5377dd4e2020f0edf5813861cab", "lon": -77.0311715, "type": "electric_scooter", "fusion_lon": 0.0, "fusion_lat": 0.0, "is_reserved": 0, "name": "b34fe5377dd4e2020f0edf5813861cab", "is_disabled": 0}, {"rental_uris": {"ios": "https://dc.lft.to/lastmile_qr_scan", "android": "https://dc.lft.to/lastmile_qr_scan"}, "lat": 38.917423166666666, "bike_id": "97603606c3068137ee1cfc014683a0ca", "lon": -77.0319045, "type": "electric_scooter", "fusion_lon": 0.0, "fusion_lat": 0.0, "is_reserved": 0, "name": "97603606c3068137ee1cfc014683a0ca", "is_disabled": 0}, {"rental_uris": {"ios": "https://dc.lft.to/lastmile_qr_scan", "android": "https://dc.lft.to/lastmile_qr_scan"}, "lat": 38.898248, "bike_id": "197ba4e96ed01221c5d91c7c0fff80f8", "lon": -77.045472, "type": "electric_scooter", "fusion_lon": 0.0, "fusion_lat": 0.0, "is_reserved": 0, "name": "197ba4e96ed01221c5d91c7c0fff80f8", "is_disabled": 0}, {"rental_uris": {"ios": "https://dc.lft.to/lastmile_qr_scan", "android": "https://dc.lft.to/lastmile_qr_scan"}, "lat": 38.916075, "bike_id": "708b8b4076c85d58cb267e6c17c74f47", "lon": -77.01723016666666, "type": "electric_scooter", "fusion_lon": 0.0, "fusion_lat": 0.0, "is_reserved": 0, "name": "708b8b4076c85d58cb267e6c17c74f47", "is_disabled": 0}, {"rental_uris": {"ios": "https://dc.lft.to/lastmile_qr_scan", "android": "https://dc.lft.to/lastmile_qr_scan"}, "lat": 38.9301145, "bike_id": "7820fe5c6eb2cb9d93c2de42979ed195", "lon": -77.05523116666667, "type": "electric_scooter", "fusion_lon": 0.0, "fusion_lat": 0.0, "is_reserved": 0, "name": "7820fe5c6eb2cb9d93c2de42979ed195", "is_disabled": 0}, {"rental_uris": {"ios": "https://dc.lft.to/lastmile_qr_scan", "android": "https://dc.lft.to/lastmile_qr_scan"}, "lat": 38.922083666666666, "bike_id": "a634a1e648814ccde340b936db7b4de0", "lon": -77.0339975, "type": "electric_scooter", "fusion_lon": 0.0, "fusion_lat": 0.0, "is_reserved": 0, "name": "a634a1e648814ccde340b936db7b4de0", "is_disabled": 0}, {"rental_uris": {"ios": "https://dc.lft.to/lastmile_qr_scan", "android": "https://dc.lft.to/lastmile_qr_scan"}, "lat": 38.87375083333333, "bike_id": "6761a9b8d652a0626e5d15700dd9c06c", "lon": -77.0005455, "type": "electric_scooter", "fusion_lon": 0.0, "fusion_lat": 0.0, "is_reserved": 0, "name": "6761a9b8d652a0626e5d15700dd9c06c", "is_disabled": 0}, {"rental_uris": {"ios": "https://dc.lft.to/lastmile_qr_scan", "android": "https://dc.lft.to/lastmile_qr_scan"}, "lat": 38.903063, "bike_id": "76e37349c18c6ad0722378b5cf899920", "lon": -77.0468835, "type": "electric_scooter", "fusion_lon": 0.0, "fusion_lat": 0.0, "is_reserved": 0, "name": "76e37349c18c6ad0722378b5cf899920", "is_disabled": 0}, {"rental_uris": {"ios": "https://dc.lft.to/lastmile_qr_scan", "android": "https://dc.lft.to/lastmile_qr_scan"}, "lat": 38.91819483333333, "bike_id": "defa6140b557dac5f0038745edefc40d", "lon": -77.03441083333334, "type": "electric_scooter", "fusion_lon": 0.0, "fusion_lat": 0.0, "is_reserved": 0, "name": "defa6140b557dac5f0038745edefc40d", "is_disabled": 0}, {"rental_uris": {"ios": "https://dc.lft.to/lastmile_qr_scan", "android": "https://dc.lft.to/lastmile_qr_scan"}, "lat": 38.90944133333333, "bike_id": "a91e78c04aee98b5784c850403925eec", "lon": -77.026975, "type": "electric_scooter", "fusion_lon": 0.0, "fusion_lat": 0.0, "is_reserved": 0, "name": "a91e78c04aee98b5784c850403925eec", "is_disabled": 0}, {"rental_uris": {"ios": "https://dc.lft.to/lastmile_qr_scan", "android": "https://dc.lft.to/lastmile_qr_scan"}, "lat": 38.91633683333333, "bike_id": "b39e4afa2d3bf3c3f80ed5663762be60", "lon": -77.03045066666667, "type": "electric_scooter", "fusion_lon": 0.0, "fusion_lat": 0.0, "is_reserved": 0, "name": "b39e4afa2d3bf3c3f80ed5663762be60", "is_disabled": 0}, {"rental_uris": {"ios": "https://dc.lft.to/lastmile_qr_scan", "android": "https://dc.lft.to/lastmile_qr_scan"}, "lat": 38.918181833333335, "bike_id": "98e815fbfc14c202798b80cfa0f0a9c8", "lon": -77.02716766666667, "type": "electric_scooter", "fusion_lon": 0.0, "fusion_lat": 0.0, "is_reserved": 0, "name": "98e815fbfc14c202798b80cfa0f0a9c8", "is_disabled": 0}, {"rental_uris": {"ios": "https://dc.lft.to/lastmile_qr_scan", "android": "https://dc.lft.to/lastmile_qr_scan"}, "lat": 38.908606166666665, "bike_id": "991eb73d67566c515cf205326df6a052", "lon": -77.044846, "type": "electric_scooter", "fusion_lon": 0.0, "fusion_lat": 0.0, "is_reserved": 0, "name": "991eb73d67566c515cf205326df6a052", "is_disabled": 0}, {"rental_uris": {"ios": "https://dc.lft.to/lastmile_qr_scan", "android": "https://dc.lft.to/lastmile_qr_scan"}, "lat": 38.921364833333335, "bike_id": "2f082b747c0e795a1fceaf3d0b5ad93a", "lon": -77.01804233333333, "type": "electric_scooter", "fusion_lon": 0.0, "fusion_lat": 0.0, "is_reserved": 0, "name": "2f082b747c0e795a1fceaf3d0b5ad93a", "is_disabled": 0}, {"rental_uris": {"ios": "https://dc.lft.to/lastmile_qr_scan", "android": "https://dc.lft.to/lastmile_qr_scan"}, "lat": 38.8871075, "bike_id": "bc639f05e0b7f19f9093c2f85f9e05c1", "lon": -77.01774766666666, "type": "electric_scooter", "fusion_lon": 0.0, "fusion_lat": 0.0, "is_reserved": 0, "name": "bc639f05e0b7f19f9093c2f85f9e05c1", "is_disabled": 0}, {"rental_uris": {"ios": "https://dc.lft.to/lastmile_qr_scan", "android": "https://dc.lft.to/lastmile_qr_scan"}, "lat": 38.9046685, "bike_id": "00911ae09c16149c35a4136981a1d977", "lon": -77.01939116666667, "type": "electric_scooter", "fusion_lon": 0.0, "fusion_lat": 0.0, "is_reserved": 0, "name": "00911ae09c16149c35a4136981a1d977", "is_disabled": 0}, {"rental_uris": {"ios": "https://dc.lft.to/lastmile_qr_scan", "android": "https://dc.lft.to/lastmile_qr_scan"}, "lat": 38.863725333333335, "bike_id": "aa386f786c2b766e1527c4ef64a1dee9", "lon": -76.9906015, "type": "electric_scooter", "fusion_lon": 0.0, "fusion_lat": 0.0, "is_reserved": 0, "name": "aa386f786c2b766e1527c4ef64a1dee9", "is_disabled": 0}, {"rental_uris": {"ios": "https://dc.lft.to/lastmile_qr_scan", "android": "https://dc.lft.to/lastmile_qr_scan"}, "lat": 38.92151916666667, "bike_id": "43728bfc5a5603574633b121119c1e2b", "lon": -77.02086633333333, "type": "electric_scooter", "fusion_lon": 0.0, "fusion_lat": 0.0, "is_reserved": 0, "name": "43728bfc5a5603574633b121119c1e2b", "is_disabled": 0}, {"rental_uris": {"ios": "https://dc.lft.to/lastmile_qr_scan", "android": "https://dc.lft.to/lastmile_qr_scan"}, "lat": 38.88539983333333, "bike_id": "7655525072a8282591aa1cb573187814", "lon": -77.00575416666666, "type": "electric_scooter", "fusion_lon": 0.0, "fusion_lat": 0.0, "is_reserved": 0, "name": "7655525072a8282591aa1cb573187814", "is_disabled": 0}, {"rental_uris": {"ios": "https://dc.lft.to/lastmile_qr_scan", "android": "https://dc.lft.to/lastmile_qr_scan"}, "lat": 38.88037116666667, "bike_id": "75f0020ef88d9558d2b05fbc91a34c2a", "lon": -77.01979083333333, "type": "electric_scooter", "fusion_lon": 0.0, "fusion_lat": 0.0, "is_reserved": 0, "name": "75f0020ef88d9558d2b05fbc91a34c2a", "is_disabled": 0}, {"rental_uris": {"ios": "https://dc.lft.to/lastmile_qr_scan", "android": "https://dc.lft.to/lastmile_qr_scan"}, "lat": 38.895811333333334, "bike_id": "5d5e79d590c3105ee52923741c3afcd8", "lon": -77.00476183333333, "type": "electric_scooter", "fusion_lon": 0.0, "fusion_lat": 0.0, "is_reserved": 0, "name": "5d5e79d590c3105ee52923741c3afcd8", "is_disabled": 0}, {"rental_uris": {"ios": "https://dc.lft.to/lastmile_qr_scan", "android": "https://dc.lft.to/lastmile_qr_scan"}, "lat": 38.9142125, "bike_id": "f9a9e9a5cd5f3ec96d7122f27cd481f9", "lon": -77.01983883333334, "type": "electric_scooter", "fusion_lon": 0.0, "fusion_lat": 0.0, "is_reserved": 0, "name": "f9a9e9a5cd5f3ec96d7122f27cd481f9", "is_disabled": 0}, {"rental_uris": {"ios": "https://dc.lft.to/lastmile_qr_scan", "android": "https://dc.lft.to/lastmile_qr_scan"}, "lat": 38.9305685, "bike_id": "e519d80abc2012ce40f95055c5726ffc", "lon": -77.03633916666666, "type": "electric_scooter", "fusion_lon": 0.0, "fusion_lat": 0.0, "is_reserved": 0, "name": "e519d80abc2012ce40f95055c5726ffc", "is_disabled": 0}, {"rental_uris": {"ios": "https://dc.lft.to/lastmile_qr_scan", "android": "https://dc.lft.to/lastmile_qr_scan"}, "lat": 38.9055355, "bike_id": "decf009fe8b8b7a2f418edf1da8b768f", "lon": -77.00293416666666, "type": "electric_scooter", "fusion_lon": 0.0, "fusion_lat": 0.0, "is_reserved": 0, "name": "decf009fe8b8b7a2f418edf1da8b768f", "is_disabled": 0}, {"rental_uris": {"ios": "https://dc.lft.to/lastmile_qr_scan", "android": "https://dc.lft.to/lastmile_qr_scan"}, "lat": 38.914181666666664, "bike_id": "f73c172e8bf7d6a7a5a3f87ea338014f", "lon": -77.02110183333333, "type": "electric_scooter", "fusion_lon": 0.0, "fusion_lat": 0.0, "is_reserved": 0, "name": "f73c172e8bf7d6a7a5a3f87ea338014f", "is_disabled": 0}, {"rental_uris": {"ios": "https://dc.lft.to/lastmile_qr_scan", "android": "https://dc.lft.to/lastmile_qr_scan"}, "lat": 38.932211, "bike_id": "80a36bead2de2d123c514d8a5eef8ede", "lon": -77.03364283333333, "type": "electric_scooter", "fusion_lon": 0.0, "fusion_lat": 0.0, "is_reserved": 0, "name": "80a36bead2de2d123c514d8a5eef8ede", "is_disabled": 0}, {"rental_uris": {"ios": "https://dc.lft.to/lastmile_qr_scan", "android": "https://dc.lft.to/lastmile_qr_scan"}, "lat": 38.9030855, "bike_id": "6052f78d7437a492d734b52ee19b5928", "lon": -77.04870166666667, "type": "electric_scooter", "fusion_lon": 0.0, "fusion_lat": 0.0, "is_reserved": 0, "name": "6052f78d7437a492d734b52ee19b5928", "is_disabled": 0}, {"rental_uris": {"ios": "https://dc.lft.to/lastmile_qr_scan", "android": "https://dc.lft.to/lastmile_qr_scan"}, "lat": 39.03700583333333, "bike_id": "2583bc5a378b3bba70772924ed89a52b", "lon": -77.02852516666667, "type": "electric_bike", "fusion_lon": 0.0, "fusion_lat": 0.0, "is_reserved": 0, "name": "2583bc5a378b3bba70772924ed89a52b", "is_disabled": 0}, {"rental_uris": {"ios": "https://dc.lft.to/lastmile_qr_scan", "android": "https://dc.lft.to/lastmile_qr_scan"}, "lat": 38.83058883333333, "bike_id": "f211725d46f71f809896fa7b2751bca1", "lon": -77.040838, "type": "electric_bike", "fusion_lon": 0.0, "fusion_lat": 0.0, "is_reserved": 0, "name": "f211725d46f71f809896fa7b2751bca1", "is_disabled": 0}, {"rental_uris": {"ios": "https://dc.lft.to/lastmile_qr_scan", "android": "https://dc.lft.to/lastmile_qr_scan"}, "lat": 38.91411766666667, "bike_id": "1ce14fcbf9657adccb09791a2d4696c0", "lon": -77.0261035, "type": "electric_scooter", "fusion_lon": 0.0, "fusion_lat": 0.0, "is_reserved": 0, "name": "1ce14fcbf9657adccb09791a2d4696c0", "is_disabled": 0}, {"rental_uris": {"ios": "https://dc.lft.to/lastmile_qr_scan", "android": "https://dc.lft.to/lastmile_qr_scan"}, "lat": 38.89838816666666, "bike_id": "0991514c7c001e3e97e822cd2e8db2d8", "lon": -77.048284, "type": "electric_scooter", "fusion_lon": 0.0, "fusion_lat": 0.0, "is_reserved": 0, "name": "0991514c7c001e3e97e822cd2e8db2d8", "is_disabled": 0}, {"rental_uris": {"ios": "https://dc.lft.to/lastmile_qr_scan", "android": "https://dc.lft.to/lastmile_qr_scan"}, "lat": 38.91583716666667, "bike_id": "31a9a927b82afe70c9638f09d9d5b3ed", "lon": -77.02304066666666, "type": "electric_scooter", "fusion_lon": 0.0, "fusion_lat": 0.0, "is_reserved": 0, "name": "31a9a927b82afe70c9638f09d9d5b3ed", "is_disabled": 0}, {"rental_uris": {"ios": "https://dc.lft.to/lastmile_qr_scan", "android": "https://dc.lft.to/lastmile_qr_scan"}, "lat": 38.952175833333335, "bike_id": "9032232d2f640bdf71e982e12ccc7f44", "lon": -77.07076966666666, "type": "electric_scooter", "fusion_lon": 0.0, "fusion_lat": 0.0, "is_reserved": 0, "name": "9032232d2f640bdf71e982e12ccc7f44", "is_disabled": 0}, {"rental_uris": {"ios": "https://dc.lft.to/lastmile_qr_scan", "android": "https://dc.lft.to/lastmile_qr_scan"}, "lat": 38.948942333333335, "bike_id": "5ab4c23b4a458f2a65c13a9ee2fb7a63", "lon": -76.96370916666666, "type": "electric_bike", "fusion_lon": 0.0, "fusion_lat": 0.0, "is_reserved": 0, "name": "5ab4c23b4a458f2a65c13a9ee2fb7a63", "is_disabled": 0}, {"rental_uris": {"ios": "https://dc.lft.to/lastmile_qr_scan", "android": "https://dc.lft.to/lastmile_qr_scan"}, "lat": 38.94418133333333, "bike_id": "7b97593bab250133c5708cdfd9b06577", "lon": -77.06392416666667, "type": "electric_scooter", "fusion_lon": 0.0, "fusion_lat": 0.0, "is_reserved": 0, "name": "7b97593bab250133c5708cdfd9b06577", "is_disabled": 0}, {"rental_uris": {"ios": "https://dc.lft.to/lastmile_qr_scan", "android": "https://dc.lft.to/lastmile_qr_scan"}, "lat": 38.900353, "bike_id": "2a7c5701ea4f3832642e87d48261b36a", "lon": -77.00058916666667, "type": "electric_scooter", "fusion_lon": 0.0, "fusion_lat": 0.0, "is_reserved": 0, "name": "2a7c5701ea4f3832642e87d48261b36a", "is_disabled": 0}, {"rental_uris": {"ios": "https://dc.lft.to/lastmile_qr_scan", "android": "https://dc.lft.to/lastmile_qr_scan"}, "lat": 38.900978, "bike_id": "5255bff92df67a81822443eb906e4345", "lon": -77.0063295, "type": "electric_scooter", "fusion_lon": 0.0, "fusion_lat": 0.0, "is_reserved": 0, "name": "5255bff92df67a81822443eb906e4345", "is_disabled": 0}, {"rental_uris": {"ios": "https://dc.lft.to/lastmile_qr_scan", "android": "https://dc.lft.to/lastmile_qr_scan"}, "lat": 38.9172125, "bike_id": "fbb5a557b74d47c7135b2a33690a3b25", "lon": -77.02965166666667, "type": "electric_scooter", "fusion_lon": 0.0, "fusion_lat": 0.0, "is_reserved": 0, "name": "fbb5a557b74d47c7135b2a33690a3b25", "is_disabled": 0}, {"rental_uris": {"ios": "https://dc.lft.to/lastmile_qr_scan", "android": "https://dc.lft.to/lastmile_qr_scan"}, "lat": 38.92518416666667, "bike_id": "0efbecc5d7678a1d223514c76303ad87", "lon": -77.04094233333333, "type": "electric_scooter", "fusion_lon": 0.0, "fusion_lat": 0.0, "is_reserved": 0, "name": "0efbecc5d7678a1d223514c76303ad87", "is_disabled": 0}, {"rental_uris": {"ios": "https://dc.lft.to/lastmile_qr_scan", "android": "https://dc.lft.to/lastmile_qr_scan"}, "lat": 38.911133666666665, "bike_id": "f2f9aac5f6c46786c702426b55120800", "lon": -77.0340455, "type": "electric_scooter", "fusion_lon": 0.0, "fusion_lat": 0.0, "is_reserved": 0, "name": "f2f9aac5f6c46786c702426b55120800", "is_disabled": 0}, {"rental_uris": {"ios": "https://dc.lft.to/lastmile_qr_scan", "android": "https://dc.lft.to/lastmile_qr_scan"}, "lat": 38.91237066666667, "bike_id": "9d19e074ae28749746cb3f3df888c6d0", "lon": -76.98788416666666, "type": "electric_scooter", "fusion_lon": 0.0, "fusion_lat": 0.0, "is_reserved": 0, "name": "9d19e074ae28749746cb3f3df888c6d0", "is_disabled": 0}, {"rental_uris": {"ios": "https://dc.lft.to/lastmile_qr_scan", "android": "https://dc.lft.to/lastmile_qr_scan"}, "lat": 38.914448666666665, "bike_id": "f63b7916995df463cc618b44661b00db", "lon": -77.0230245, "type": "electric_scooter", "fusion_lon": 0.0, "fusion_lat": 0.0, "is_reserved": 0, "name": "f63b7916995df463cc618b44661b00db", "is_disabled": 0}, {"rental_uris": {"ios": "https://dc.lft.to/lastmile_qr_scan", "android": "https://dc.lft.to/lastmile_qr_scan"}, "lat": 38.86930433333333, "bike_id": "624ad86cbc1db97d1f9a5a7abda86f37", "lon": -76.96015283333334, "type": "electric_scooter", "fusion_lon": 0.0, "fusion_lat": 0.0, "is_reserved": 0, "name": "624ad86cbc1db97d1f9a5a7abda86f37", "is_disabled": 0}, {"rental_uris": {"ios": "https://dc.lft.to/lastmile_qr_scan", "android": "https://dc.lft.to/lastmile_qr_scan"}, "lat": 38.831640166666666, "bike_id": "b572a22fa4b5e16a88e455f7921c140a", "lon": -77.00777316666667, "type": "electric_scooter", "fusion_lon": 0.0, "fusion_lat": 0.0, "is_reserved": 0, "name": "b572a22fa4b5e16a88e455f7921c140a", "is_disabled": 0}, {"rental_uris": {"ios": "https://dc.lft.to/lastmile_qr_scan", "android": "https://dc.lft.to/lastmile_qr_scan"}, "lat": 38.923620666666665, "bike_id": "2eafef907f891041fd156fc67f02a49e", "lon": -77.051206, "type": "electric_scooter", "fusion_lon": 0.0, "fusion_lat": 0.0, "is_reserved": 0, "name": "2eafef907f891041fd156fc67f02a49e", "is_disabled": 0}, {"rental_uris": {"ios": "https://dc.lft.to/lastmile_qr_scan", "android": "https://dc.lft.to/lastmile_qr_scan"}, "lat": 38.9105685, "bike_id": "277c563ec67a3c9afeb7df75ac6e5579", "lon": -77.0382995, "type": "electric_scooter", "fusion_lon": 0.0, "fusion_lat": 0.0, "is_reserved": 0, "name": "277c563ec67a3c9afeb7df75ac6e5579", "is_disabled": 0}, {"rental_uris": {"ios": "https://dc.lft.to/lastmile_qr_scan", "android": "https://dc.lft.to/lastmile_qr_scan"}, "lat": 38.92405133333333, "bike_id": "c8250dd332afb58a0061e03f2cf9a4e7", "lon": -77.02090233333334, "type": "electric_scooter", "fusion_lon": 0.0, "fusion_lat": 0.0, "is_reserved": 0, "name": "c8250dd332afb58a0061e03f2cf9a4e7", "is_disabled": 0}, {"rental_uris": {"ios": "https://dc.lft.to/lastmile_qr_scan", "android": "https://dc.lft.to/lastmile_qr_scan"}, "lat": 38.917112833333334, "bike_id": "4a12c77e7d5b4dd856a0b3f7c231d106", "lon": -77.03873416666667, "type": "electric_scooter", "fusion_lon": 0.0, "fusion_lat": 0.0, "is_reserved": 0, "name": "4a12c77e7d5b4dd856a0b3f7c231d106", "is_disabled": 0}, {"rental_uris": {"ios": "https://dc.lft.to/lastmile_qr_scan", "android": "https://dc.lft.to/lastmile_qr_scan"}, "lat": 38.93702366666667, "bike_id": "9559ad87a4e9ce276eebebe717e4f749", "lon": -77.05593616666667, "type": "electric_bike", "fusion_lon": 0.0, "fusion_lat": 0.0, "is_reserved": 0, "name": "9559ad87a4e9ce276eebebe717e4f749", "is_disabled": 0}, {"rental_uris": {"ios": "https://dc.lft.to/lastmile_qr_scan", "android": "https://dc.lft.to/lastmile_qr_scan"}, "lat": 38.927391, "bike_id": "6514d1ea84e175c25f0596102ee8379b", "lon": -77.03426883333333, "type": "electric_scooter", "fusion_lon": 0.0, "fusion_lat": 0.0, "is_reserved": 0, "name": "6514d1ea84e175c25f0596102ee8379b", "is_disabled": 0}, {"rental_uris": {"ios": "https://dc.lft.to/lastmile_qr_scan", "android": "https://dc.lft.to/lastmile_qr_scan"}, "lat": 38.89473266666667, "bike_id": "6bf21b5c73ad7c16e28853d66d4c9d4c", "lon": -77.0452885, "type": "electric_scooter", "fusion_lon": 0.0, "fusion_lat": 0.0, "is_reserved": 0, "name": "6bf21b5c73ad7c16e28853d66d4c9d4c", "is_disabled": 0}, {"rental_uris": {"ios": "https://dc.lft.to/lastmile_qr_scan", "android": "https://dc.lft.to/lastmile_qr_scan"}, "lat": 38.940540666666664, "bike_id": "d84488a2c76093f5983219f7ba641282", "lon": -76.9041725, "type": "electric_bike", "fusion_lon": 0.0, "fusion_lat": 0.0, "is_reserved": 0, "name": "d84488a2c76093f5983219f7ba641282", "is_disabled": 0}, {"rental_uris": {"ios": "https://dc.lft.to/lastmile_qr_scan", "android": "https://dc.lft.to/lastmile_qr_scan"}, "lat": 38.8485175, "bike_id": "a25fae2e73c1dc44f3a7f9c34fa4cb64", "lon": -77.0038275, "type": "electric_scooter", "fusion_lon": 0.0, "fusion_lat": 0.0, "is_reserved": 0, "name": "a25fae2e73c1dc44f3a7f9c34fa4cb64", "is_disabled": 0}, {"rental_uris": {"ios": "https://dc.lft.to/lastmile_qr_scan", "android": "https://dc.lft.to/lastmile_qr_scan"}, "lat": 38.897451333333336, "bike_id": "4b3eb77ae16c9d89fa3b56f8673e47bb", "lon": -77.02206966666667, "type": "electric_scooter", "fusion_lon": 0.0, "fusion_lat": 0.0, "is_reserved": 0, "name": "4b3eb77ae16c9d89fa3b56f8673e47bb", "is_disabled": 0}, {"rental_uris": {"ios": "https://dc.lft.to/lastmile_qr_scan", "android": "https://dc.lft.to/lastmile_qr_scan"}, "lat": 38.8835465, "bike_id": "a17134e54834e037eb547b1b273a80a1", "lon": -76.99486566666667, "type": "electric_bike", "fusion_lon": 0.0, "fusion_lat": 0.0, "is_reserved": 0, "name": "a17134e54834e037eb547b1b273a80a1", "is_disabled": 0}, {"rental_uris": {"ios": "https://dc.lft.to/lastmile_qr_scan", "android": "https://dc.lft.to/lastmile_qr_scan"}, "lat": 38.906481, "bike_id": "38c07e74eac86b74811b09e757d9566f", "lon": -77.02535433333334, "type": "electric_scooter", "fusion_lon": 0.0, "fusion_lat": 0.0, "is_reserved": 0, "name": "38c07e74eac86b74811b09e757d9566f", "is_disabled": 0}, {"rental_uris": {"ios": "https://dc.lft.to/lastmile_qr_scan", "android": "https://dc.lft.to/lastmile_qr_scan"}, "lat": 38.90322533333333, "bike_id": "ce4735da0e7e4264233b91ccf9debf2f", "lon": -77.03825566666667, "type": "electric_scooter", "fusion_lon": 0.0, "fusion_lat": 0.0, "is_reserved": 0, "name": "ce4735da0e7e4264233b91ccf9debf2f", "is_disabled": 0}, {"rental_uris": {"ios": "https://dc.lft.to/lastmile_qr_scan", "android": "https://dc.lft.to/lastmile_qr_scan"}, "lat": 38.8923145, "bike_id": "5a0325bf9c1f8fc82590d091793ed661", "lon": -77.03329183333334, "type": "electric_scooter", "fusion_lon": 0.0, "fusion_lat": 0.0, "is_reserved": 0, "name": "5a0325bf9c1f8fc82590d091793ed661", "is_disabled": 0}, {"rental_uris": {"ios": "https://dc.lft.to/lastmile_qr_scan", "android": "https://dc.lft.to/lastmile_qr_scan"}, "lat": 38.9072965, "bike_id": "aaedb2378911feef679bf3bd485823df", "lon": -77.04511266666667, "type": "electric_scooter", "fusion_lon": 0.0, "fusion_lat": 0.0, "is_reserved": 0, "name": "aaedb2378911feef679bf3bd485823df", "is_disabled": 0}, {"rental_uris": {"ios": "https://dc.lft.to/lastmile_qr_scan", "android": "https://dc.lft.to/lastmile_qr_scan"}, "lat": 38.923180333333335, "bike_id": "6276180b98e1be065fd49613303101ef", "lon": -77.03401283333334, "type": "electric_scooter", "fusion_lon": 0.0, "fusion_lat": 0.0, "is_reserved": 0, "name": "6276180b98e1be065fd49613303101ef", "is_disabled": 0}, {"rental_uris": {"ios": "https://dc.lft.to/lastmile_qr_scan", "android": "https://dc.lft.to/lastmile_qr_scan"}, "lat": 38.897232833333334, "bike_id": "49b1c3707dc77508b05d35dc92f60cc4", "lon": -77.03250433333334, "type": "electric_scooter", "fusion_lon": 0.0, "fusion_lat": 0.0, "is_reserved": 0, "name": "49b1c3707dc77508b05d35dc92f60cc4", "is_disabled": 0}, {"rental_uris": {"ios": "https://dc.lft.to/lastmile_qr_scan", "android": "https://dc.lft.to/lastmile_qr_scan"}, "lat": 38.9159075, "bike_id": "a85c500291adedf83e78fe991bc63aa4", "lon": -77.02303016666667, "type": "electric_scooter", "fusion_lon": 0.0, "fusion_lat": 0.0, "is_reserved": 0, "name": "a85c500291adedf83e78fe991bc63aa4", "is_disabled": 0}, {"rental_uris": {"ios": "https://dc.lft.to/lastmile_qr_scan", "android": "https://dc.lft.to/lastmile_qr_scan"}, "lat": 38.9876735, "bike_id": "6078e46da6b3de4fa424bd2c2c061b42", "lon": -77.14051983333333, "type": "electric_bike", "fusion_lon": 0.0, "fusion_lat": 0.0, "is_reserved": 0, "name": "6078e46da6b3de4fa424bd2c2c061b42", "is_disabled": 0}, {"rental_uris": {"ios": "https://dc.lft.to/lastmile_qr_scan", "android": "https://dc.lft.to/lastmile_qr_scan"}, "lat": 38.90364233333333, "bike_id": "83595e954af0093176610e6962527486", "lon": -77.04502683333334, "type": "electric_scooter", "fusion_lon": 0.0, "fusion_lat": 0.0, "is_reserved": 0, "name": "83595e954af0093176610e6962527486", "is_disabled": 0}, {"rental_uris": {"ios": "https://dc.lft.to/lastmile_qr_scan", "android": "https://dc.lft.to/lastmile_qr_scan"}, "lat": 38.90525183333333, "bike_id": "8ed62969d0f3caddf9ff484c307d4d9a", "lon": -77.03224283333333, "type": "electric_scooter", "fusion_lon": 0.0, "fusion_lat": 0.0, "is_reserved": 0, "name": "8ed62969d0f3caddf9ff484c307d4d9a", "is_disabled": 0}, {"rental_uris": {"ios": "https://dc.lft.to/lastmile_qr_scan", "android": "https://dc.lft.to/lastmile_qr_scan"}, "lat": 38.88400516666667, "bike_id": "ab9ac0530ea2fa01e3c282ab8e5c9b38", "lon": -76.96056566666667, "type": "electric_bike", "fusion_lon": 0.0, "fusion_lat": 0.0, "is_reserved": 0, "name": "ab9ac0530ea2fa01e3c282ab8e5c9b38", "is_disabled": 0}, {"rental_uris": {"ios": "https://dc.lft.to/lastmile_qr_scan", "android": "https://dc.lft.to/lastmile_qr_scan"}, "lat": 38.918344166666664, "bike_id": "1a47a5ee13a3221da3f5b567f5b042d3", "lon": -77.03222316666667, "type": "electric_scooter", "fusion_lon": 0.0, "fusion_lat": 0.0, "is_reserved": 0, "name": "1a47a5ee13a3221da3f5b567f5b042d3", "is_disabled": 0}, {"rental_uris": {"ios": "https://dc.lft.to/lastmile_qr_scan", "android": "https://dc.lft.to/lastmile_qr_scan"}, "lat": 38.884943666666665, "bike_id": "90f173f57594f358652fdaabbf14c557", "lon": -77.0072615, "type": "electric_scooter", "fusion_lon": 0.0, "fusion_lat": 0.0, "is_reserved": 0, "name": "90f173f57594f358652fdaabbf14c557", "is_disabled": 0}, {"rental_uris": {"ios": "https://dc.lft.to/lastmile_qr_scan", "android": "https://dc.lft.to/lastmile_qr_scan"}, "lat": 38.912693, "bike_id": "51198bfd4434010da4926034871e8df6", "lon": -77.032327, "type": "electric_scooter", "fusion_lon": 0.0, "fusion_lat": 0.0, "is_reserved": 0, "name": "51198bfd4434010da4926034871e8df6", "is_disabled": 0}, {"rental_uris": {"ios": "https://dc.lft.to/lastmile_qr_scan", "android": "https://dc.lft.to/lastmile_qr_scan"}, "lat": 38.867208833333336, "bike_id": "5fe757b5c1085bb137709ab5862d4351", "lon": -76.98697316666667, "type": "electric_scooter", "fusion_lon": 0.0, "fusion_lat": 0.0, "is_reserved": 0, "name": "5fe757b5c1085bb137709ab5862d4351", "is_disabled": 0}, {"rental_uris": {"ios": "https://dc.lft.to/lastmile_qr_scan", "android": "https://dc.lft.to/lastmile_qr_scan"}, "lat": 38.9203345, "bike_id": "4b9233f8a20153bd6985d89c10318fc1", "lon": -77.003073, "type": "electric_scooter", "fusion_lon": 0.0, "fusion_lat": 0.0, "is_reserved": 0, "name": "4b9233f8a20153bd6985d89c10318fc1", "is_disabled": 0}, {"rental_uris": {"ios": "https://dc.lft.to/lastmile_qr_scan", "android": "https://dc.lft.to/lastmile_qr_scan"}, "lat": 38.9232645, "bike_id": "77289b23b7b3ef6258ebbdca5a45fcba", "lon": -77.0087855, "type": "electric_scooter", "fusion_lon": 0.0, "fusion_lat": 0.0, "is_reserved": 0, "name": "77289b23b7b3ef6258ebbdca5a45fcba", "is_disabled": 0}, {"rental_uris": {"ios": "https://dc.lft.to/lastmile_qr_scan", "android": "https://dc.lft.to/lastmile_qr_scan"}, "lat": 38.866902, "bike_id": "946359e174d4e99b786b634be9e5b10e", "lon": -76.98542683333334, "type": "electric_scooter", "fusion_lon": 0.0, "fusion_lat": 0.0, "is_reserved": 0, "name": "946359e174d4e99b786b634be9e5b10e", "is_disabled": 0}, {"rental_uris": {"ios": "https://dc.lft.to/lastmile_qr_scan", "android": "https://dc.lft.to/lastmile_qr_scan"}, "lat": 38.845984333333334, "bike_id": "1cfcce8c943284ae3df450f3c0eb1210", "lon": -77.1085775, "type": "electric_bike", "fusion_lon": 0.0, "fusion_lat": 0.0, "is_reserved": 0, "name": "1cfcce8c943284ae3df450f3c0eb1210", "is_disabled": 0}, {"rental_uris": {"ios": "https://dc.lft.to/lastmile_qr_scan", "android": "https://dc.lft.to/lastmile_qr_scan"}, "lat": 38.884805166666666, "bike_id": "c25e96046574804123e8bea41363db60", "lon": -77.01508016666666, "type": "electric_scooter", "fusion_lon": 0.0, "fusion_lat": 0.0, "is_reserved": 0, "name": "c25e96046574804123e8bea41363db60", "is_disabled": 0}, {"rental_uris": {"ios": "https://dc.lft.to/lastmile_qr_scan", "android": "https://dc.lft.to/lastmile_qr_scan"}, "lat": 38.8717275, "bike_id": "18f65ce810970a6fae0e489fb0fc5e60", "lon": -77.006811, "type": "electric_scooter", "fusion_lon": 0.0, "fusion_lat": 0.0, "is_reserved": 0, "name": "18f65ce810970a6fae0e489fb0fc5e60", "is_disabled": 0}, {"rental_uris": {"ios": "https://dc.lft.to/lastmile_qr_scan", "android": "https://dc.lft.to/lastmile_qr_scan"}, "lat": 38.9233975, "bike_id": "135c27eade58254085101daf7fd17077", "lon": -77.05039483333333, "type": "electric_scooter", "fusion_lon": 0.0, "fusion_lat": 0.0, "is_reserved": 0, "name": "135c27eade58254085101daf7fd17077", "is_disabled": 0}, {"rental_uris": {"ios": "https://dc.lft.to/lastmile_qr_scan", "android": "https://dc.lft.to/lastmile_qr_scan"}, "lat": 38.8983155, "bike_id": "0197a228391ab3d0f3f6e540a62a2e5d", "lon": -76.94639916666667, "type": "electric_scooter", "fusion_lon": 0.0, "fusion_lat": 0.0, "is_reserved": 0, "name": "0197a228391ab3d0f3f6e540a62a2e5d", "is_disabled": 0}, {"rental_uris": {"ios": "https://dc.lft.to/lastmile_qr_scan", "android": "https://dc.lft.to/lastmile_qr_scan"}, "lat": 38.821764333333334, "bike_id": "eb899c11a49859f830d5177c27dc69e6", "lon": -76.99508183333333, "type": "electric_bike", "fusion_lon": 0.0, "fusion_lat": 0.0, "is_reserved": 0, "name": "eb899c11a49859f830d5177c27dc69e6", "is_disabled": 0}, {"rental_uris": {"ios": "https://dc.lft.to/lastmile_qr_scan", "android": "https://dc.lft.to/lastmile_qr_scan"}, "lat": 38.9171115, "bike_id": "03f98625c3fff7d4ee0f9540518b1482", "lon": -77.0246175, "type": "electric_scooter", "fusion_lon": 0.0, "fusion_lat": 0.0, "is_reserved": 0, "name": "03f98625c3fff7d4ee0f9540518b1482", "is_disabled": 0}, {"rental_uris": {"ios": "https://dc.lft.to/lastmile_qr_scan", "android": "https://dc.lft.to/lastmile_qr_scan"}, "lat": 38.928798, "bike_id": "7f17cc8d83b5c9cfb077f3a94a0e8ec1", "lon": -77.0373235, "type": "electric_scooter", "fusion_lon": 0.0, "fusion_lat": 0.0, "is_reserved": 0, "name": "7f17cc8d83b5c9cfb077f3a94a0e8ec1", "is_disabled": 0}, {"rental_uris": {"ios": "https://dc.lft.to/lastmile_qr_scan", "android": "https://dc.lft.to/lastmile_qr_scan"}, "lat": 38.91811083333333, "bike_id": "8807648fb434657f86e83d11fff17442", "lon": -77.03979933333333, "type": "electric_scooter", "fusion_lon": 0.0, "fusion_lat": 0.0, "is_reserved": 0, "name": "8807648fb434657f86e83d11fff17442", "is_disabled": 0}, {"rental_uris": {"ios": "https://dc.lft.to/lastmile_qr_scan", "android": "https://dc.lft.to/lastmile_qr_scan"}, "lat": 38.9417745, "bike_id": "3e6561b36c17b3846de235e0a64faed3", "lon": -77.03147683333333, "type": "electric_scooter", "fusion_lon": 0.0, "fusion_lat": 0.0, "is_reserved": 0, "name": "3e6561b36c17b3846de235e0a64faed3", "is_disabled": 0}, {"rental_uris": {"ios": "https://dc.lft.to/lastmile_qr_scan", "android": "https://dc.lft.to/lastmile_qr_scan"}, "lat": 38.93066, "bike_id": "c650780317dd9434eed9cf577830ae04", "lon": -77.03276133333334, "type": "electric_scooter", "fusion_lon": 0.0, "fusion_lat": 0.0, "is_reserved": 0, "name": "c650780317dd9434eed9cf577830ae04", "is_disabled": 0}, {"rental_uris": {"ios": "https://dc.lft.to/lastmile_qr_scan", "android": "https://dc.lft.to/lastmile_qr_scan"}, "lat": 38.87746033333333, "bike_id": "ab72d86a2951bbc64db3c231542a7211", "lon": -76.9975275, "type": "electric_scooter", "fusion_lon": 0.0, "fusion_lat": 0.0, "is_reserved": 0, "name": "ab72d86a2951bbc64db3c231542a7211", "is_disabled": 0}, {"rental_uris": {"ios": "https://dc.lft.to/lastmile_qr_scan", "android": "https://dc.lft.to/lastmile_qr_scan"}, "lat": 38.91416483333333, "bike_id": "83be09d90883757c028b624c0e4fab49", "lon": -77.02117133333333, "type": "electric_scooter", "fusion_lon": 0.0, "fusion_lat": 0.0, "is_reserved": 0, "name": "83be09d90883757c028b624c0e4fab49", "is_disabled": 0}, {"rental_uris": {"ios": "https://dc.lft.to/lastmile_qr_scan", "android": "https://dc.lft.to/lastmile_qr_scan"}, "lat": 38.90261683333333, "bike_id": "50b3e1292b47fca1fce17968dfbe58e7", "lon": -77.0174655, "type": "electric_scooter", "fusion_lon": 0.0, "fusion_lat": 0.0, "is_reserved": 0, "name": "50b3e1292b47fca1fce17968dfbe58e7", "is_disabled": 0}, {"rental_uris": {"ios": "https://dc.lft.to/lastmile_qr_scan", "android": "https://dc.lft.to/lastmile_qr_scan"}, "lat": 38.90946, "bike_id": "bac54f5258940a3530c34b8a6f74e3e1", "lon": -77.04413116666667, "type": "electric_scooter", "fusion_lon": 0.0, "fusion_lat": 0.0, "is_reserved": 0, "name": "bac54f5258940a3530c34b8a6f74e3e1", "is_disabled": 0}, {"rental_uris": {"ios": "https://dc.lft.to/lastmile_qr_scan", "android": "https://dc.lft.to/lastmile_qr_scan"}, "lat": 38.8935735, "bike_id": "cdb2846c3f9dd455a5f31373b7faee6c", "lon": -76.94930366666667, "type": "electric_scooter", "fusion_lon": 0.0, "fusion_lat": 0.0, "is_reserved": 0, "name": "cdb2846c3f9dd455a5f31373b7faee6c", "is_disabled": 0}, {"rental_uris": {"ios": "https://dc.lft.to/lastmile_qr_scan", "android": "https://dc.lft.to/lastmile_qr_scan"}, "lat": 38.84638983333333, "bike_id": "da83827c74da8dae55d559f0b0caa8ce", "lon": -76.9913145, "type": "electric_scooter", "fusion_lon": 0.0, "fusion_lat": 0.0, "is_reserved": 0, "name": "da83827c74da8dae55d559f0b0caa8ce", "is_disabled": 0}, {"rental_uris": {"ios": "https://dc.lft.to/lastmile_qr_scan", "android": "https://dc.lft.to/lastmile_qr_scan"}, "lat": 38.89725033333333, "bike_id": "fcf947578dec6eea36451a5caea2edfb", "lon": -77.02731183333333, "type": "electric_scooter", "fusion_lon": 0.0, "fusion_lat": 0.0, "is_reserved": 0, "name": "fcf947578dec6eea36451a5caea2edfb", "is_disabled": 0}, {"rental_uris": {"ios": "https://dc.lft.to/lastmile_qr_scan", "android": "https://dc.lft.to/lastmile_qr_scan"}, "lat": 38.92324383333333, "bike_id": "a40967e5581e3c270b0d097492a64fb8", "lon": -77.0005275, "type": "electric_scooter", "fusion_lon": 0.0, "fusion_lat": 0.0, "is_reserved": 0, "name": "a40967e5581e3c270b0d097492a64fb8", "is_disabled": 0}, {"rental_uris": {"ios": "https://dc.lft.to/lastmile_qr_scan", "android": "https://dc.lft.to/lastmile_qr_scan"}, "lat": 38.908944, "bike_id": "18399c40295d8718e3d96f785d09d1ed", "lon": -76.99784783333334, "type": "electric_scooter", "fusion_lon": 0.0, "fusion_lat": 0.0, "is_reserved": 0, "name": "18399c40295d8718e3d96f785d09d1ed", "is_disabled": 0}, {"rental_uris": {"ios": "https://dc.lft.to/lastmile_qr_scan", "android": "https://dc.lft.to/lastmile_qr_scan"}, "lat": 38.923599, "bike_id": "ce0ce8d7d5f99508439f4a130c0f3458", "lon": -77.04266483333333, "type": "electric_scooter", "fusion_lon": 0.0, "fusion_lat": 0.0, "is_reserved": 0, "name": "ce0ce8d7d5f99508439f4a130c0f3458", "is_disabled": 0}, {"rental_uris": {"ios": "https://dc.lft.to/lastmile_qr_scan", "android": "https://dc.lft.to/lastmile_qr_scan"}, "lat": 38.89945683333333, "bike_id": "8d1912a2fffed8cbbd4bfaf673720113", "lon": -77.0449175, "type": "electric_scooter", "fusion_lon": 0.0, "fusion_lat": 0.0, "is_reserved": 0, "name": "8d1912a2fffed8cbbd4bfaf673720113", "is_disabled": 0}, {"rental_uris": {"ios": "https://dc.lft.to/lastmile_qr_scan", "android": "https://dc.lft.to/lastmile_qr_scan"}, "lat": 38.90012883333333, "bike_id": "1adb73b40d6b83f160f5c355aba4517b", "lon": -77.04151983333334, "type": "electric_scooter", "fusion_lon": 0.0, "fusion_lat": 0.0, "is_reserved": 0, "name": "1adb73b40d6b83f160f5c355aba4517b", "is_disabled": 0}, {"rental_uris": {"ios": "https://dc.lft.to/lastmile_qr_scan", "android": "https://dc.lft.to/lastmile_qr_scan"}, "lat": 38.923602333333335, "bike_id": "5d01ca8b621a2d26b7f3ec405f3f2024", "lon": -77.02116933333333, "type": "electric_scooter", "fusion_lon": 0.0, "fusion_lat": 0.0, "is_reserved": 0, "name": "5d01ca8b621a2d26b7f3ec405f3f2024", "is_disabled": 0}, {"rental_uris": {"ios": "https://dc.lft.to/lastmile_qr_scan", "android": "https://dc.lft.to/lastmile_qr_scan"}, "lat": 38.887422666666666, "bike_id": "c55670a3b776e6f4aacba5dc021ed693", "lon": -77.02568466666666, "type": "electric_scooter", "fusion_lon": 0.0, "fusion_lat": 0.0, "is_reserved": 0, "name": "c55670a3b776e6f4aacba5dc021ed693", "is_disabled": 0}, {"rental_uris": {"ios": "https://dc.lft.to/lastmile_qr_scan", "android": "https://dc.lft.to/lastmile_qr_scan"},