{"data": {"bikes": [{"rental_uris": {"android": "https://dc.lft.to/lastmile_qr_scan", "ios": "https://dc.lft.to/lastmile_qr_scan"}, "is_reserved": 0, "is_disabled": 0, "name": "21ecb967f3d98a97545cc44003614da4", "bike_id": "21ecb967f3d98a97545cc44003614da4", "fusion_lat": 0.0, "lon": -77.02045516666666, "type": "electric_scooter", "fusion_lon": 0.0, "lat": 38.92180966666667}, {"rental_uris": {"android": "https://dc.lft.to/lastmile_qr_scan", "ios": "https://dc.lft.to/lastmile_qr_scan"}, "is_reserved": 0, "is_disabled": 0, "name": "cb086382493058689c2ab3d83855638b", "bike_id": "cb086382493058689c2ab3d83855638b", "fusion_lat": 0.0, "lon": -77.03445633333334, "type": "electric_scooter", "fusion_lon": 0.0, "lat": 38.90281233333333}, {"rental_uris": {"android": "https://dc.lft.to/lastmile_qr_scan", "ios": "https://dc.lft.to/lastmile_qr_scan"}, "is_reserved": 0, "is_disabled": 0, "name": "5405679eb8442c1ad3122192fb5db38a", "bike_id": "5405679eb8442c1ad3122192fb5db38a", "fusion_lat": 0.0, "lon": -77.03259166666666, "type": "electric_bike", "fusion_lon": 0.0, "lat": 38.935208833333334}, {"rental_uris": {"android": "https://dc.lft.to/lastmile_qr_scan", "ios": "https://dc.lft.to/lastmile_qr_scan"}, "is_reserved": 0, "is_disabled": 0, "name": "4d65ed2e4b1d00848cf37f42396c116a", "bike_id": "4d65ed2e4b1d00848cf37f42396c116a", "fusion_lat": 0.0, "lon": -77.04396466666667, "type": "electric_scooter", "fusion_lon": 0.0, "lat": 38.90127183333333}, {"rental_uris": {"android": "https://dc.lft.to/lastmile_qr_scan", "ios": "https://dc.lft.to/lastmile_qr_scan"}, "is_reserved": 0, "is_disabled": 0, "name": "abd7144a8bb963f5ae7d84c83b013771", "bike_id": "abd7144a8bb963f5ae7d84c83b013771", "fusion_lat": 0.0, "lon": -77.01972283333333, "type": "electric_scooter", "fusion_lon": 0.0, "lat": 38.8985805}, {"rental_uris": {"android": "https://dc.lft.to/lastmile_qr_scan", "ios": "https://dc.lft.to/lastmile_qr_scan"}, "is_reserved": 0, "is_disabled": 0, "name": "1f29d207fb66589b36de3d28fd381695", "bike_id": "1f29d207fb66589b36de3d28fd381695", "fusion_lat": 0.0, "lon": -77.048848, "type": "electric_scooter", "fusion_lon": 0.0, "lat": 38.900809833333334}, {"rental_uris": {"android": "https://dc.lft.to/lastmile_qr_scan", "ios": "https://dc.lft.to/lastmile_qr_scan"}, "is_reserved": 0, "is_disabled": 0, "name": "34d836d12115c1a9e96a3c0b485fc39d", "bike_id": "34d836d12115c1a9e96a3c0b485fc39d", "fusion_lat": 0.0, "lon": -77.04112383333333, "type": "electric_scooter", "fusion_lon": 0.0, "lat": 38.911851666666664}, {"rental_uris": {"android": "https://dc.lft.to/lastmile_qr_scan", "ios": "https://dc.lft.to/lastmile_qr_scan"}, "is_reserved": 0, "is_disabled": 0, "name": "07a5a1163b4399f970bb5ea41b6b9b90", "bike_id": "07a5a1163b4399f970bb5ea41b6b9b90", "fusion_lat": 0.0, "lon": -77.00374816666667, "type": "electric_scooter", "fusion_lon": 0.0, "lat": 38.897366}, {"rental_uris": {"android": "https://dc.lft.to/lastmile_qr_scan", "ios": "https://dc.lft.to/lastmile_qr_scan"}, "is_reserved": 0, "is_disabled": 0, "name": "5b6e9bbbc93fe0d09aa6987a74648df0", "bike_id": "5b6e9bbbc93fe0d09aa6987a74648df0", "fusion_lat": 0.0, "lon": -76.9950345, "type": "electric_scooter", "fusion_lon": 0.0, "lat": 38.862148166666664}, {"rental_uris": {"android": "https://dc.lft.to/lastmile_qr_scan", "ios": "https://dc.lft.to/lastmile_qr_scan"}, "is_reserved": 0, "is_disabled": 0, "name": "2bacde829fe32ac3c48fe97eda3a4ad4", "bike_id": "2bacde829fe32ac3c48fe97eda3a4ad4", "fusion_lat": 0.0, "lon": -77.02611316666666, "type": "electric_scooter", "fusion_lon": 0.0, "lat": 38.904169333333336}, {"rental_uris": {"android": "https://dc.lft.to/lastmile_qr_scan", "ios": "https://dc.lft.to/lastmile_qr_scan"}, "is_reserved": 0, "is_disabled": 0, "name": "07886971e29968d6badb0bafcc97a263", "bike_id": "07886971e29968d6badb0bafcc97a263", "fusion_lat": 0.0, "lon": -77.03686316666666, "type": "electric_scooter", "fusion_lon": 0.0, "lat": 38.9393695}, {"rental_uris": {"android": "https://dc.lft.to/lastmile_qr_scan", "ios": "https://dc.lft.to/lastmile_qr_scan"}, "is_reserved": 0, "is_disabled": 0, "name": "210d902915d587fb96fb32a5d158f040", "bike_id": "210d902915d587fb96fb32a5d158f040", "fusion_lat": 0.0, "lon": -77.02247233333334, "type": "electric_scooter", "fusion_lon": 0.0, "lat": 38.89985683333333}, {"rental_uris": {"android": "https://dc.lft.to/lastmile_qr_scan", "ios": "https://dc.lft.to/lastmile_qr_scan"}, "is_reserved": 0, "is_disabled": 0, "name": "9cfd35925980f4d4dc94831f6486990f", "bike_id": "9cfd35925980f4d4dc94831f6486990f", "fusion_lat": 0.0, "lon": -77.03860666666667, "type": "electric_scooter", "fusion_lon": 0.0, "lat": 38.9125845}, {"rental_uris": {"android": "https://dc.lft.to/lastmile_qr_scan", "ios": "https://dc.lft.to/lastmile_qr_scan"}, "is_reserved": 0, "is_disabled": 0, "name": "d23456e60dc249ee3b9df8f833fd29f4", "bike_id": "d23456e60dc249ee3b9df8f833fd29f4", "fusion_lat": 0.0, "lon": -77.02150666666667, "type": "electric_scooter", "fusion_lon": 0.0, "lat": 38.887449}, {"rental_uris": {"android": "https://dc.lft.to/lastmile_qr_scan", "ios": "https://dc.lft.to/lastmile_qr_scan"}, "is_reserved": 0, "is_disabled": 0, "name": "aecdd3a1dd5dcd8c64b43a2824d230e9", "bike_id": "aecdd3a1dd5dcd8c64b43a2824d230e9", "fusion_lat": 0.0, "lon": -77.02107483333333, "type": "electric_scooter", "fusion_lon": 0.0, "lat": 38.906081666666665}, {"rental_uris": {"android": "https://dc.lft.to/lastmile_qr_scan", "ios": "https://dc.lft.to/lastmile_qr_scan"}, "is_reserved": 0, "is_disabled": 0, "name": "0e75faa9dc4594b5cd7fb199af383f22", "bike_id": "0e75faa9dc4594b5cd7fb199af383f22", "fusion_lat": 0.0, "lon": -77.07191533333334, "type": "electric_scooter", "fusion_lon": 0.0, "lat": 38.9076055}, {"rental_uris": {"android": "https://dc.lft.to/lastmile_qr_scan", "ios": "https://dc.lft.to/lastmile_qr_scan"}, "is_reserved": 0, "is_disabled": 0, "name": "4038c38aa377d165f3309bcd9d301b7c", "bike_id": "4038c38aa377d165f3309bcd9d301b7c", "fusion_lat": 0.0, "lon": -77.05682783333333, "type": "electric_scooter", "fusion_lon": 0.0, "lat": 38.923297833333336}, {"rental_uris": {"android": "https://dc.lft.to/lastmile_qr_scan", "ios": "https://dc.lft.to/lastmile_qr_scan"}, "is_reserved": 0, "is_disabled": 0, "name": "e217efdc10329e1792fafa36fc749672", "bike_id": "e217efdc10329e1792fafa36fc749672", "fusion_lat": 0.0, "lon": -77.0451915, "type": "electric_scooter", "fusion_lon": 0.0, "lat": 38.90968616666667}, {"rental_uris": {"android": "https://dc.lft.to/lastmile_qr_scan", "ios": "https://dc.lft.to/lastmile_qr_scan"}, "is_reserved": 0, "is_disabled": 0, "name": "69f6f787b434d414ba01cd6072ab2365", "bike_id": "69f6f787b434d414ba01cd6072ab2365", "fusion_lat": 0.0, "lon": -77.01747933333333, "type": "electric_scooter", "fusion_lon": 0.0, "lat": 38.939919333333336}, {"rental_uris": {"android": "https://dc.lft.to/lastmile_qr_scan", "ios": "https://dc.lft.to/lastmile_qr_scan"}, "is_reserved": 0, "is_disabled": 0, "name": "f8a59d669dce562ef279f4171cd6adc5", "bike_id": "f8a59d669dce562ef279f4171cd6adc5", "fusion_lat": 0.0, "lon": -77.00254983333333, "type": "electric_scooter", "fusion_lon": 0.0, "lat": 38.89478016666666}, {"rental_uris": {"android": "https://dc.lft.to/lastmile_qr_scan", "ios": "https://dc.lft.to/lastmile_qr_scan"}, "is_reserved": 0, "is_disabled": 0, "name": "abb4a2c064c783f8333683e92330b37d", "bike_id": "abb4a2c064c783f8333683e92330b37d", "fusion_lat": 0.0, "lon": -77.02992283333333, "type": "electric_scooter", "fusion_lon": 0.0, "lat": 38.90136866666667}, {"rental_uris": {"android": "https://dc.lft.to/lastmile_qr_scan", "ios": "https://dc.lft.to/lastmile_qr_scan"}, "is_reserved": 0, "is_disabled": 0, "name": "fd495c32776beda1b795c408d7e6044b", "bike_id": "fd495c32776beda1b795c408d7e6044b", "fusion_lat": 0.0, "lon": -77.05340316666667, "type": "electric_scooter", "fusion_lon": 0.0, "lat": 38.90646533333334}, {"rental_uris": {"android": "https://dc.lft.to/lastmile_qr_scan", "ios": "https://dc.lft.to/lastmile_qr_scan"}, "is_reserved": 0, "is_disabled": 0, "name": "8f32a19b02137f608f13b21124defd54", "bike_id": "8f32a19b02137f608f13b21124defd54", "fusion_lat": 0.0, "lon": -76.9949235, "type": "electric_scooter", "fusion_lon": 0.0, "lat": 38.894039666666664}, {"rental_uris": {"android": "https://dc.lft.to/lastmile_qr_scan", "ios": "https://dc.lft.to/lastmile_qr_scan"}, "is_reserved": 0, "is_disabled": 0, "name": "8cf463b17857769f86e0f0daed601271", "bike_id": "8cf463b17857769f86e0f0daed601271", "fusion_lat": 0.0, "lon": -76.98077566666667, "type": "electric_bike", "fusion_lon": 0.0, "lat": 38.957408666666666}, {"rental_uris": {"android": "https://dc.lft.to/lastmile_qr_scan", "ios": "https://dc.lft.to/lastmile_qr_scan"}, "is_reserved": 0, "is_disabled": 0, "name": "f9fb980368434f670662ced4624d0c93", "bike_id": "f9fb980368434f670662ced4624d0c93", "fusion_lat": 0.0, "lon": -77.06215516666667, "type": "electric_scooter", "fusion_lon": 0.0, "lat": 38.904797333333335}, {"rental_uris": {"android": "https://dc.lft.to/lastmile_qr_scan", "ios": "https://dc.lft.to/lastmile_qr_scan"}, "is_reserved": 0, "is_disabled": 0, "name": "edccc36a4a7e93badae650c7f785befa", "bike_id": "edccc36a4a7e93badae650c7f785befa", "fusion_lat": 0.0, "lon": -77.01980666666667, "type": "electric_scooter", "fusion_lon": 0.0, "lat": 38.90508966666667}, {"rental_uris": {"android": "https://dc.lft.to/lastmile_qr_scan", "ios": "https://dc.lft.to/lastmile_qr_scan"}, "is_reserved": 0, "is_disabled": 0, "name": "58624641bddbdf933200b0cb2aca077c", "bike_id": "58624641bddbdf933200b0cb2aca077c", "fusion_lat": 0.0, "lon": -77.01023866666667, "type": "electric_scooter", "fusion_lon": 0.0, "lat": 38.914001666666664}, {"rental_uris": {"android": "https://dc.lft.to/lastmile_qr_scan", "ios": "https://dc.lft.to/lastmile_qr_scan"}, "is_reserved": 0, "is_disabled": 0, "name": "12cf07e2038a275ad560db363090a766", "bike_id": "12cf07e2038a275ad560db363090a766", "fusion_lat": 0.0, "lon": -77.02690833333334, "type": "electric_scooter", "fusion_lon": 0.0, "lat": 38.91274133333334}, {"rental_uris": {"android": "https://dc.lft.to/lastmile_qr_scan", "ios": "https://dc.lft.to/lastmile_qr_scan"}, "is_reserved": 0, "is_disabled": 0, "name": "54407dcaee10a9b80e038e04525ae139", "bike_id": "54407dcaee10a9b80e038e04525ae139", "fusion_lat": 0.0, "lon": -77.0468445, "type": "electric_scooter", "fusion_lon": 0.0, "lat": 38.899576333333336}, {"rental_uris": {"android": "https://dc.lft.to/lastmile_qr_scan", "ios": "https://dc.lft.to/lastmile_qr_scan"}, "is_reserved": 0, "is_disabled": 0, "name": "b4e4aec39a0e14dcd9e4c9d3e60543b7", "bike_id": "b4e4aec39a0e14dcd9e4c9d3e60543b7", "fusion_lat": 0.0, "lon": -77.02385883333334, "type": "electric_scooter", "fusion_lon": 0.0, "lat": 38.9097595}, {"rental_uris": {"android": "https://dc.lft.to/lastmile_qr_scan", "ios": "https://dc.lft.to/lastmile_qr_scan"}, "is_reserved": 0, "is_disabled": 0, "name": "2d5fb296103b7b052ce9a3c67f0f5ba4", "bike_id": "2d5fb296103b7b052ce9a3c67f0f5ba4", "fusion_lat": 0.0, "lon": -77.00195766666667, "type": "electric_scooter", "fusion_lon": 0.0, "lat": 38.900408666666664}, {"rental_uris": {"android": "https://dc.lft.to/lastmile_qr_scan", "ios": "https://dc.lft.to/lastmile_qr_scan"}, "is_reserved": 0, "is_disabled": 0, "name": "45a5e79cdef410aaf654177df9202af2", "bike_id": "45a5e79cdef410aaf654177df9202af2", "fusion_lat": 0.0, "lon": -77.02837683333334, "type": "electric_bike", "fusion_lon": 0.0, "lat": 38.92641316666667}, {"rental_uris": {"android": "https://dc.lft.to/lastmile_qr_scan", "ios": "https://dc.lft.to/lastmile_qr_scan"}, "is_reserved": 0, "is_disabled": 0, "name": "bda11f24a8e6d0478ddd2a8a8afc2cea", "bike_id": "bda11f24a8e6d0478ddd2a8a8afc2cea", "fusion_lat": 0.0, "lon": -77.01953483333334, "type": "electric_scooter", "fusion_lon": 0.0, "lat": 38.92328533333333}, {"rental_uris": {"android": "https://dc.lft.to/lastmile_qr_scan", "ios": "https://dc.lft.to/lastmile_qr_scan"}, "is_reserved": 0, "is_disabled": 0, "name": "91875db4beefdab431d93888fe0144c7", "bike_id": "91875db4beefdab431d93888fe0144c7", "fusion_lat": 0.0, "lon": -76.97966133333334, "type": "electric_bike", "fusion_lon": 0.0, "lat": 38.920481}, {"rental_uris": {"android": "https://dc.lft.to/lastmile_qr_scan", "ios": "https://dc.lft.to/lastmile_qr_scan"}, "is_reserved": 0, "is_disabled": 0, "name": "7c027c115d7a195c0b85538973b30d3a", "bike_id": "7c027c115d7a195c0b85538973b30d3a", "fusion_lat": 0.0, "lon": -77.02698883333333, "type": "electric_scooter", "fusion_lon": 0.0, "lat": 38.9497825}, {"rental_uris": {"android": "https://dc.lft.to/lastmile_qr_scan", "ios": "https://dc.lft.to/lastmile_qr_scan"}, "is_reserved": 0, "is_disabled": 0, "name": "a2c267485ee4d1eb86baa5596a727896", "bike_id": "a2c267485ee4d1eb86baa5596a727896", "fusion_lat": 0.0, "lon": -77.02085633333333, "type": "electric_scooter", "fusion_lon": 0.0, "lat": 38.8851145}, {"rental_uris": {"android": "https://dc.lft.to/lastmile_qr_scan", "ios": "https://dc.lft.to/lastmile_qr_scan"}, "is_reserved": 0, "is_disabled": 0, "name": "633dd86d289272827563d76cd878ae7c", "bike_id": "633dd86d289272827563d76cd878ae7c", "fusion_lat": 0.0, "lon": -76.98063966666666, "type": "electric_bike", "fusion_lon": 0.0, "lat": 38.97251883333333}, {"rental_uris": {"android": "https://dc.lft.to/lastmile_qr_scan", "ios": "https://dc.lft.to/lastmile_qr_scan"}, "is_reserved": 0, "is_disabled": 0, "name": "37f8c302c189409e71c82029d6598a98", "bike_id": "37f8c302c189409e71c82029d6598a98", "fusion_lat": 0.0, "lon": -77.039896, "type": "electric_scooter", "fusion_lon": 0.0, "lat": 38.93400233333333}, {"rental_uris": {"android": "https://dc.lft.to/lastmile_qr_scan", "ios": "https://dc.lft.to/lastmile_qr_scan"}, "is_reserved": 0, "is_disabled": 0, "name": "b00424fbc325f11ca05bbe9e684c5363", "bike_id": "b00424fbc325f11ca05bbe9e684c5363", "fusion_lat": 0.0, "lon": -77.02780783333333, "type": "electric_scooter", "fusion_lon": 0.0, "lat": 38.92768083333333}, {"rental_uris": {"android": "https://dc.lft.to/lastmile_qr_scan", "ios": "https://dc.lft.to/lastmile_qr_scan"}, "is_reserved": 0, "is_disabled": 0, "name": "acc739fac4a1bc961a43fcab6409203a", "bike_id": "acc739fac4a1bc961a43fcab6409203a", "fusion_lat": 0.0, "lon": -77.04837033333334, "type": "electric_scooter", "fusion_lon": 0.0, "lat": 38.90060316666667}, {"rental_uris": {"android": "https://dc.lft.to/lastmile_qr_scan", "ios": "https://dc.lft.to/lastmile_qr_scan"}, "is_reserved": 0, "is_disabled": 0, "name": "2d01477e5caceeb0b43860e92e7415df", "bike_id": "2d01477e5caceeb0b43860e92e7415df", "fusion_lat": 0.0, "lon": -77.0287165, "type": "electric_scooter", "fusion_lon": 0.0, "lat": 38.9315875}, {"rental_uris": {"android": "https://dc.lft.to/lastmile_qr_scan", "ios": "https://dc.lft.to/lastmile_qr_scan"}, "is_reserved": 0, "is_disabled": 0, "name": "bf0c3df2fcf2655661aaaa108279ea3d", "bike_id": "bf0c3df2fcf2655661aaaa108279ea3d", "fusion_lat": 0.0, "lon": -77.045571, "type": "electric_scooter", "fusion_lon": 0.0, "lat": 38.91363166666667}, {"rental_uris": {"android": "https://dc.lft.to/lastmile_qr_scan", "ios": "https://dc.lft.to/lastmile_qr_scan"}, "is_reserved": 0, "is_disabled": 0, "name": "b136db2bf3eaacfc6a957b97fd11555a", "bike_id": "b136db2bf3eaacfc6a957b97fd11555a", "fusion_lat": 0.0, "lon": -77.02661133333334, "type": "electric_bike", "fusion_lon": 0.0, "lat": 38.98812433333333}, {"rental_uris": {"android": "https://dc.lft.to/lastmile_qr_scan", "ios": "https://dc.lft.to/lastmile_qr_scan"}, "is_reserved": 0, "is_disabled": 0, "name": "5d102ef1b58f0842579a617e2050d601", "bike_id": "5d102ef1b58f0842579a617e2050d601", "fusion_lat": 0.0, "lon": -77.0029585, "type": "electric_scooter", "fusion_lon": 0.0, "lat": 38.891970666666666}, {"rental_uris": {"android": "https://dc.lft.to/lastmile_qr_scan", "ios": "https://dc.lft.to/lastmile_qr_scan"}, "is_reserved": 0, "is_disabled": 0, "name": "bff18731fe1dceecc828548aadb98200", "bike_id": "bff18731fe1dceecc828548aadb98200", "fusion_lat": 0.0, "lon": -77.039399, "type": "electric_scooter", "fusion_lon": 0.0, "lat": 38.9156915}, {"rental_uris": {"android": "https://dc.lft.to/lastmile_qr_scan", "ios": "https://dc.lft.to/lastmile_qr_scan"}, "is_reserved": 0, "is_disabled": 0, "name": "0e185ed69f060b6d34e7e2e32ade7c90", "bike_id": "0e185ed69f060b6d34e7e2e32ade7c90", "fusion_lat": 0.0, "lon": -77.004807, "type": "electric_scooter", "fusion_lon": 0.0, "lat": 38.874601166666665}, {"rental_uris": {"android": "https://dc.lft.to/lastmile_qr_scan", "ios": "https://dc.lft.to/lastmile_qr_scan"}, "is_reserved": 0, "is_disabled": 0, "name": "cec334fbd22889e56daad262fe19f045", "bike_id": "cec334fbd22889e56daad262fe19f045", "fusion_lat": 0.0, "lon": -77.04382283333334, "type": "electric_scooter", "fusion_lon": 0.0, "lat": 38.9205255}, {"rental_uris": {"android": "https://dc.lft.to/lastmile_qr_scan", "ios": "https://dc.lft.to/lastmile_qr_scan"}, "is_reserved": 0, "is_disabled": 0, "name": "5a01f5fc455c7d7ca8d798fb9aaa01df", "bike_id": "5a01f5fc455c7d7ca8d798fb9aaa01df", "fusion_lat": 0.0, "lon": -77.03361916666667, "type": "electric_scooter", "fusion_lon": 0.0, "lat": 38.92442483333333}, {"rental_uris": {"android": "https://dc.lft.to/lastmile_qr_scan", "ios": "https://dc.lft.to/lastmile_qr_scan"}, "is_reserved": 0, "is_disabled": 0, "name": "4016ea022c5daa750de2b3f7de863efd", "bike_id": "4016ea022c5daa750de2b3f7de863efd", "fusion_lat": 0.0, "lon": -77.00953933333334, "type": "electric_bike", "fusion_lon": 0.0, "lat": 38.921366}, {"rental_uris": {"android": "https://dc.lft.to/lastmile_qr_scan", "ios": "https://dc.lft.to/lastmile_qr_scan"}, "is_reserved": 0, "is_disabled": 0, "name": "2fb3f1c221420864991f9e097d14ab97", "bike_id": "2fb3f1c221420864991f9e097d14ab97", "fusion_lat": 0.0, "lon": -76.93805966666666, "type": "electric_bike", "fusion_lon": 0.0, "lat": 38.979726666666664}, {"rental_uris": {"android": "https://dc.lft.to/lastmile_qr_scan", "ios": "https://dc.lft.to/lastmile_qr_scan"}, "is_reserved": 0, "is_disabled": 0, "name": "3e5c4118b98ca491ca82d708a328fef0", "bike_id": "3e5c4118b98ca491ca82d708a328fef0", "fusion_lat": 0.0, "lon": -77.03268, "type": "electric_scooter", "fusion_lon": 0.0, "lat": 38.935217333333334}, {"rental_uris": {"android": "https://dc.lft.to/lastmile_qr_scan", "ios": "https://dc.lft.to/lastmile_qr_scan"}, "is_reserved": 0, "is_disabled": 0, "name": "b1218fbbf2b4a364e1eddd8095b27a67", "bike_id": "b1218fbbf2b4a364e1eddd8095b27a67", "fusion_lat": 0.0, "lon": -77.01226883333334, "type": "electric_scooter", "fusion_lon": 0.0, "lat": 38.900854833333334}, {"rental_uris": {"android": "https://dc.lft.to/lastmile_qr_scan", "ios": "https://dc.lft.to/lastmile_qr_scan"}, "is_reserved": 0, "is_disabled": 0, "name": "a4be28d10bc260eece0dbd07de108720", "bike_id": "a4be28d10bc260eece0dbd07de108720", "fusion_lat": 0.0, "lon": -76.98232733333333, "type": "electric_scooter", "fusion_lon": 0.0, "lat": 38.90890316666667}, {"rental_uris": {"android": "https://dc.lft.to/lastmile_qr_scan", "ios": "https://dc.lft.to/lastmile_qr_scan"}, "is_reserved": 0, "is_disabled": 0, "name": "371b59c6db36ae8e11f7d41f3f7c1706", "bike_id": "371b59c6db36ae8e11f7d41f3f7c1706", "fusion_lat": 0.0, "lon": -77.034495, "type": "electric_scooter", "fusion_lon": 0.0, "lat": 38.907438666666664}, {"rental_uris": {"android": "https://dc.lft.to/lastmile_qr_scan", "ios": "https://dc.lft.to/lastmile_qr_scan"}, "is_reserved": 0, "is_disabled": 0, "name": "33761cd7b275c106708d5f57f488f23e", "bike_id": "33761cd7b275c106708d5f57f488f23e", "fusion_lat": 0.0, "lon": -77.02477166666667, "type": "electric_scooter", "fusion_lon": 0.0, "lat": 38.91816383333333}, {"rental_uris": {"android": "https://dc.lft.to/lastmile_qr_scan", "ios": "https://dc.lft.to/lastmile_qr_scan"}, "is_reserved": 0, "is_disabled": 0, "name": "acf27735686dba64d08d1b3764075d2d", "bike_id": "acf27735686dba64d08d1b3764075d2d", "fusion_lat": 0.0, "lon": -77.04144483333333, "type": "electric_scooter", "fusion_lon": 0.0, "lat": 38.89348783333333}, {"rental_uris": {"android": "https://dc.lft.to/lastmile_qr_scan", "ios": "https://dc.lft.to/lastmile_qr_scan"}, "is_reserved": 0, "is_disabled": 0, "name": "18fa3e6cbcc15b9d102afb4f9a06dbf7", "bike_id": "18fa3e6cbcc15b9d102afb4f9a06dbf7", "fusion_lat": 0.0, "lon": -77.0082355, "type": "electric_scooter", "fusion_lon": 0.0, "lat": 38.87659716666667}, {"rental_uris": {"android": "https://dc.lft.to/lastmile_qr_scan", "ios": "https://dc.lft.to/lastmile_qr_scan"}, "is_reserved": 0, "is_disabled": 0, "name": "2b73932bf30a6f8d40c79e4870eca89d", "bike_id": "2b73932bf30a6f8d40c79e4870eca89d", "fusion_lat": 0.0, "lon": -77.04014633333334, "type": "electric_scooter", "fusion_lon": 0.0, "lat": 38.91801983333333}, {"rental_uris": {"android": "https://dc.lft.to/lastmile_qr_scan", "ios": "https://dc.lft.to/lastmile_qr_scan"}, "is_reserved": 0, "is_disabled": 0, "name": "80915d504d2c6cc875d9c00a4fa161f0", "bike_id": "80915d504d2c6cc875d9c00a4fa161f0", "fusion_lat": 0.0, "lon": -76.93221716666666, "type": "electric_scooter", "fusion_lon": 0.0, "lat": 38.8806955}, {"rental_uris": {"android": "https://dc.lft.to/lastmile_qr_scan", "ios": "https://dc.lft.to/lastmile_qr_scan"}, "is_reserved": 0, "is_disabled": 0, "name": "0143936be9353f821e405e7a33cf3c2c", "bike_id": "0143936be9353f821e405e7a33cf3c2c", "fusion_lat": 0.0, "lon": -77.0334825, "type": "electric_scooter", "fusion_lon": 0.0, "lat": 38.9351095}, {"rental_uris": {"android": "https://dc.lft.to/lastmile_qr_scan", "ios": "https://dc.lft.to/lastmile_qr_scan"}, "is_reserved": 0, "is_disabled": 0, "name": "467930b3590686e90749dd376020d866", "bike_id": "467930b3590686e90749dd376020d866", "fusion_lat": 0.0, "lon": -77.03486316666667, "type": "electric_scooter", "fusion_lon": 0.0, "lat": 38.921506}, {"rental_uris": {"android": "https://dc.lft.to/lastmile_qr_scan", "ios": "https://dc.lft.to/lastmile_qr_scan"}, "is_reserved": 0, "is_disabled": 0, "name": "ad28e0e77408ff3b7c6ac49b2a27056a", "bike_id": "ad28e0e77408ff3b7c6ac49b2a27056a", "fusion_lat": 0.0, "lon": -77.03487233333334, "type": "electric_scooter", "fusion_lon": 0.0, "lat": 38.924784333333335}, {"rental_uris": {"android": "https://dc.lft.to/lastmile_qr_scan", "ios": "https://dc.lft.to/lastmile_qr_scan"}, "is_reserved": 0, "is_disabled": 0, "name": "d8439b483b02e6d6a27cf1911de2a395", "bike_id": "d8439b483b02e6d6a27cf1911de2a395", "fusion_lat": 0.0, "lon": -77.05042083333333, "type": "electric_scooter", "fusion_lon": 0.0, "lat": 38.92367616666667}, {"rental_uris": {"android": "https://dc.lft.to/lastmile_qr_scan", "ios": "https://dc.lft.to/lastmile_qr_scan"}, "is_reserved": 0, "is_disabled": 0, "name": "86dbbf8f43520d55a6f90355fc9c1216", "bike_id": "86dbbf8f43520d55a6f90355fc9c1216", "fusion_lat": 0.0, "lon": -77.036569, "type": "electric_scooter", "fusion_lon": 0.0, "lat": 38.936004}, {"rental_uris": {"android": "https://dc.lft.to/lastmile_qr_scan", "ios": "https://dc.lft.to/lastmile_qr_scan"}, "is_reserved": 0, "is_disabled": 0, "name": "91ad3bfa4d74ae28b17687c2eba6bf9f", "bike_id": "91ad3bfa4d74ae28b17687c2eba6bf9f", "fusion_lat": 0.0, "lon": -77.0075825, "type": "electric_scooter", "fusion_lon": 0.0, "lat": 38.9267425}, {"rental_uris": {"android": "https://dc.lft.to/lastmile_qr_scan", "ios": "https://dc.lft.to/lastmile_qr_scan"}, "is_reserved": 0, "is_disabled": 0, "name": "9a53cee3b2c58dfa0fd3df1e0d5f9da8", "bike_id": "9a53cee3b2c58dfa0fd3df1e0d5f9da8", "fusion_lat": 0.0, "lon": -77.01914633333334, "type": "electric_scooter", "fusion_lon": 0.0, "lat": 38.917316}, {"rental_uris": {"android": "https://dc.lft.to/lastmile_qr_scan", "ios": "https://dc.lft.to/lastmile_qr_scan"}, "is_reserved": 0, "is_disabled": 0, "name": "596213b2593019cf99c389079735be1b", "bike_id": "596213b2593019cf99c389079735be1b", "fusion_lat": 0.0, "lon": -76.95060316666667, "type": "electric_bike", "fusion_lon": 0.0, "lat": 39.085103833333335}, {"rental_uris": {"android": "https://dc.lft.to/lastmile_qr_scan", "ios": "https://dc.lft.to/lastmile_qr_scan"}, "is_reserved": 0, "is_disabled": 0, "name": "661e1ffaf95098cdfc9c54252cd33344", "bike_id": "661e1ffaf95098cdfc9c54252cd33344", "fusion_lat": 0.0, "lon": -77.03519316666667, "type": "electric_scooter", "fusion_lon": 0.0, "lat": 38.93597916666667}, {"rental_uris": {"android": "https://dc.lft.to/lastmile_qr_scan", "ios": "https://dc.lft.to/lastmile_qr_scan"}, "is_reserved": 0, "is_disabled": 0, "name": "d5195e1a7fdb5b9f83d5433787af87a7", "bike_id": "d5195e1a7fdb5b9f83d5433787af87a7", "fusion_lat": 0.0, "lon": -77.01558483333334, "type": "electric_scooter", "fusion_lon": 0.0, "lat": 38.88314233333333}, {"rental_uris": {"android": "https://dc.lft.to/lastmile_qr_scan", "ios": "https://dc.lft.to/lastmile_qr_scan"}, "is_reserved": 0, "is_disabled": 0, "name": "59c872ad5d2ad6a129abd4cc7e99da3d", "bike_id": "59c872ad5d2ad6a129abd4cc7e99da3d", "fusion_lat": 0.0, "lon": -77.02578, "type": "electric_scooter", "fusion_lon": 0.0, "lat": 38.897426}, {"rental_uris": {"android": "https://dc.lft.to/lastmile_qr_scan", "ios": "https://dc.lft.to/lastmile_qr_scan"}, "is_reserved": 0, "is_disabled": 0, "name": "5222a6ef98f91d5eb0a8aa17805665da", "bike_id": "5222a6ef98f91d5eb0a8aa17805665da", "fusion_lat": 0.0, "lon": -77.07334816666666, "type": "electric_scooter", "fusion_lon": 0.0, "lat": 38.926060666666665}, {"rental_uris": {"android": "https://dc.lft.to/lastmile_qr_scan", "ios": "https://dc.lft.to/lastmile_qr_scan"}, "is_reserved": 0, "is_disabled": 0, "name": "9f03d64400c4c7dddb37a49bee9b7d7d", "bike_id": "9f03d64400c4c7dddb37a49bee9b7d7d", "fusion_lat": 0.0, "lon": -77.04747033333334, "type": "electric_scooter", "fusion_lon": 0.0, "lat": 38.9009075}, {"rental_uris": {"android": "https://dc.lft.to/lastmile_qr_scan", "ios": "https://dc.lft.to/lastmile_qr_scan"}, "is_reserved": 0, "is_disabled": 0, "name": "d38fa351fd4dcf758afcaf1b1300e1f5", "bike_id": "d38fa351fd4dcf758afcaf1b1300e1f5", "fusion_lat": 0.0, "lon": -77.022281, "type": "electric_scooter", "fusion_lon": 0.0, "lat": 38.9140405}, {"rental_uris": {"android": "https://dc.lft.to/lastmile_qr_scan", "ios": "https://dc.lft.to/lastmile_qr_scan"}, "is_reserved": 0, "is_disabled": 0, "name": "78db16e41db2316fa38347b7c8d15753", "bike_id": "78db16e41db2316fa38347b7c8d15753", "fusion_lat": 0.0, "lon": -77.01307283333334, "type": "electric_scooter", "fusion_lon": 0.0, "lat": 38.897398333333335}, {"rental_uris": {"android": "https://dc.lft.to/lastmile_qr_scan", "ios": "https://dc.lft.to/lastmile_qr_scan"}, "is_reserved": 0, "is_disabled": 0, "name": "6925fb280e271f66f54231aa4255374e", "bike_id": "6925fb280e271f66f54231aa4255374e", "fusion_lat": 0.0, "lon": -76.98615316666667, "type": "electric_scooter", "fusion_lon": 0.0, "lat": 38.907291}, {"rental_uris": {"android": "https://dc.lft.to/lastmile_qr_scan", "ios": "https://dc.lft.to/lastmile_qr_scan"}, "is_reserved": 0, "is_disabled": 0, "name": "2a587ebdec7abd12c8b7b6487801c7cd", "bike_id": "2a587ebdec7abd12c8b7b6487801c7cd", "fusion_lat": 0.0, "lon": -77.02824316666667, "type": "electric_scooter", "fusion_lon": 0.0, "lat": 38.899215166666664}, {"rental_uris": {"android": "https://dc.lft.to/lastmile_qr_scan", "ios": "https://dc.lft.to/lastmile_qr_scan"}, "is_reserved": 0, "is_disabled": 0, "name": "92c644b4cf5a1d901f8edd6f0ae731ae", "bike_id": "92c644b4cf5a1d901f8edd6f0ae731ae", "fusion_lat": 0.0, "lon": -77.02324383333334, "type": "electric_scooter", "fusion_lon": 0.0, "lat": 38.916812666666665}, {"rental_uris": {"android": "https://dc.lft.to/lastmile_qr_scan", "ios": "https://dc.lft.to/lastmile_qr_scan"}, "is_reserved": 0, "is_disabled": 0, "name": "80abad43bc3d4a7802b34f4a4baa1646", "bike_id": "80abad43bc3d4a7802b34f4a4baa1646", "fusion_lat": 0.0, "lon": -76.98500483333333, "type": "electric_scooter", "fusion_lon": 0.0, "lat": 38.860622}, {"rental_uris": {"android": "https://dc.lft.to/lastmile_qr_scan", "ios": "https://dc.lft.to/lastmile_qr_scan"}, "is_reserved": 0, "is_disabled": 0, "name": "afc935dc04848dda932f8c446031be01", "bike_id": "afc935dc04848dda932f8c446031be01", "fusion_lat": 0.0, "lon": -76.99839566666667, "type": "electric_bike", "fusion_lon": 0.0, "lat": 38.9181245}, {"rental_uris": {"android": "https://dc.lft.to/lastmile_qr_scan", "ios": "https://dc.lft.to/lastmile_qr_scan"}, "is_reserved": 0, "is_disabled": 0, "name": "8e949fce2cd57e346e9ff87803d83bd7", "bike_id": "8e949fce2cd57e346e9ff87803d83bd7", "fusion_lat": 0.0, "lon": -77.02090316666667, "type": "electric_scooter", "fusion_lon": 0.0, "lat": 38.927159833333334}, {"rental_uris": {"android": "https://dc.lft.to/lastmile_qr_scan", "ios": "https://dc.lft.to/lastmile_qr_scan"}, "is_reserved": 0, "is_disabled": 0, "name": "7d8226d0d6f90ae03e7416f02333cf5f", "bike_id": "7d8226d0d6f90ae03e7416f02333cf5f", "fusion_lat": 0.0, "lon": -77.02762716666666, "type": "electric_scooter", "fusion_lon": 0.0, "lat": 38.934629}, {"rental_uris": {"android": "https://dc.lft.to/lastmile_qr_scan", "ios": "https://dc.lft.to/lastmile_qr_scan"}, "is_reserved": 0, "is_disabled": 0, "name": "dc64fb582865d876ca9e019e37d72b15", "bike_id": "dc64fb582865d876ca9e019e37d72b15", "fusion_lat": 0.0, "lon": -77.0122345, "type": "electric_scooter", "fusion_lon": 0.0, "lat": 38.915462}, {"rental_uris": {"android": "https://dc.lft.to/lastmile_qr_scan", "ios": "https://dc.lft.to/lastmile_qr_scan"}, "is_reserved": 0, "is_disabled": 0, "name": "a15347fcf4260fb9187c81b73b833bec", "bike_id": "a15347fcf4260fb9187c81b73b833bec", "fusion_lat": 0.0, "lon": -77.04333683333333, "type": "electric_scooter", "fusion_lon": 0.0, "lat": 38.913095166666665}, {"rental_uris": {"android": "https://dc.lft.to/lastmile_qr_scan", "ios": "https://dc.lft.to/lastmile_qr_scan"}, "is_reserved": 0, "is_disabled": 0, "name": "8d9ae0481a8ecdc767ffdd1d45cf9437", "bike_id": "8d9ae0481a8ecdc767ffdd1d45cf9437", "fusion_lat": 0.0, "lon": -77.03350433333334, "type": "electric_scooter", "fusion_lon": 0.0, "lat": 38.90288666666667}, {"rental_uris": {"android": "https://dc.lft.to/lastmile_qr_scan", "ios": "https://dc.lft.to/lastmile_qr_scan"}, "is_reserved": 0, "is_disabled": 0, "name": "89c9a5ec8ed4da8c8f89f1eefe720955", "bike_id": "89c9a5ec8ed4da8c8f89f1eefe720955", "fusion_lat": 0.0, "lon": -77.02695216666666, "type": "electric_scooter", "fusion_lon": 0.0, "lat": 38.904326833333336}, {"rental_uris": {"android": "https://dc.lft.to/lastmile_qr_scan", "ios": "https://dc.lft.to/lastmile_qr_scan"}, "is_reserved": 0, "is_disabled": 0, "name": "ba265b9b876cb1f9cc39bdc34e7b17c1", "bike_id": "ba265b9b876cb1f9cc39bdc34e7b17c1", "fusion_lat": 0.0, "lon": -77.01225383333333, "type": "electric_scooter", "fusion_lon": 0.0, "lat": 38.915225}, {"rental_uris": {"android": "https://dc.lft.to/lastmile_qr_scan", "ios": "https://dc.lft.to/lastmile_qr_scan"}, "is_reserved": 0, "is_disabled": 0, "name": "32a7c80820974630c301fb7c8baeb282", "bike_id": "32a7c80820974630c301fb7c8baeb282", "fusion_lat": 0.0, "lon": -77.05146433333333, "type": "electric_scooter", "fusion_lon": 0.0, "lat": 38.906536}, {"rental_uris": {"android": "https://dc.lft.to/lastmile_qr_scan", "ios": "https://dc.lft.to/lastmile_qr_scan"}, "is_reserved": 0, "is_disabled": 0, "name": "4b335278c4c7e906848bdf83eea51cc0", "bike_id": "4b335278c4c7e906848bdf83eea51cc0", "fusion_lat": 0.0, "lon": -77.02661883333333, "type": "electric_scooter", "fusion_lon": 0.0, "lat": 38.921764833333334}, {"rental_uris": {"android": "https://dc.lft.to/lastmile_qr_scan", "ios": "https://dc.lft.to/lastmile_qr_scan"}, "is_reserved": 0, "is_disabled": 0, "name": "d3c671d59cd9afbd105ad7332d6e03cf", "bike_id": "d3c671d59cd9afbd105ad7332d6e03cf", "fusion_lat": 0.0, "lon": -77.02606416666667, "type": "electric_scooter", "fusion_lon": 0.0, "lat": 38.9203925}, {"rental_uris": {"android": "https://dc.lft.to/lastmile_qr_scan", "ios": "https://dc.lft.to/lastmile_qr_scan"}, "is_reserved": 0, "is_disabled": 0, "name": "e7767aef6749aeb7f352994bfe390200", "bike_id": "e7767aef6749aeb7f352994bfe390200", "fusion_lat": 0.0, "lon": -77.026948, "type": "electric_scooter", "fusion_lon": 0.0, "lat": 38.94977216666667}, {"rental_uris": {"android": "https://dc.lft.to/lastmile_qr_scan", "ios": "https://dc.lft.to/lastmile_qr_scan"}, "is_reserved": 0, "is_disabled": 0, "name": "f83147893f11a73b408ac24fddd9d977", "bike_id": "f83147893f11a73b408ac24fddd9d977", "fusion_lat": 0.0, "lon": -77.06365283333334, "type": "electric_scooter", "fusion_lon": 0.0, "lat": 38.92017766666667}, {"rental_uris": {"android": "https://dc.lft.to/lastmile_qr_scan", "ios": "https://dc.lft.to/lastmile_qr_scan"}, "is_reserved": 0, "is_disabled": 0, "name": "a400c7f1ec08579b7b699a4105bde66e", "bike_id": "a400c7f1ec08579b7b699a4105bde66e", "fusion_lat": 0.0, "lon": -76.92895966666667, "type": "electric_scooter", "fusion_lon": 0.0, "lat": 38.879475666666664}, {"rental_uris": {"android": "https://dc.lft.to/lastmile_qr_scan", "ios": "https://dc.lft.to/lastmile_qr_scan"}, "is_reserved": 0, "is_disabled": 0, "name": "2db2ebb2b21a19feff9dc9c40efd1c63", "bike_id": "2db2ebb2b21a19feff9dc9c40efd1c63", "fusion_lat": 0.0, "lon": -76.99839133333333, "type": "electric_scooter", "fusion_lon": 0.0, "lat": 38.90062016666667}, {"rental_uris": {"android": "https://dc.lft.to/lastmile_qr_scan", "ios": "https://dc.lft.to/lastmile_qr_scan"}, "is_reserved": 0, "is_disabled": 0, "name": "3e955ddf1cfc670eecc36fead2edb8a0", "bike_id": "3e955ddf1cfc670eecc36fead2edb8a0", "fusion_lat": 0.0, "lon": -77.04213366666667, "type": "electric_scooter", "fusion_lon": 0.0, "lat": 38.909263833333334}, {"rental_uris": {"android": "https://dc.lft.to/lastmile_qr_scan", "ios": "https://dc.lft.to/lastmile_qr_scan"}, "is_reserved": 0, "is_disabled": 0, "name": "a0410fcfbd5ebe516e1cbced853a2382", "bike_id": "a0410fcfbd5ebe516e1cbced853a2382", "fusion_lat": 0.0, "lon": -77.04509033333333, "type": "electric_scooter", "fusion_lon": 0.0, "lat": 38.89963616666667}, {"rental_uris": {"android": "https://dc.lft.to/lastmile_qr_scan", "ios": "https://dc.lft.to/lastmile_qr_scan"}, "is_reserved": 0, "is_disabled": 0, "name": "8c9f06136f1da1d66e39618d922ffafa", "bike_id": "8c9f06136f1da1d66e39618d922ffafa", "fusion_lat": 0.0, "lon": -77.0235445, "type": "electric_scooter", "fusion_lon": 0.0, "lat": 38.9419955}, {"rental_uris": {"android": "https://dc.lft.to/lastmile_qr_scan", "ios": "https://dc.lft.to/lastmile_qr_scan"}, "is_reserved": 0, "is_disabled": 0, "name": "68c1efe8fe284473d78601a7d44fe12b", "bike_id": "68c1efe8fe284473d78601a7d44fe12b", "fusion_lat": 0.0, "lon": -77.06612, "type": "electric_scooter", "fusion_lon": 0.0, "lat": 38.91366816666667}, {"rental_uris": {"android": "https://dc.lft.to/lastmile_qr_scan", "ios": "https://dc.lft.to/lastmile_qr_scan"}, "is_reserved": 0, "is_disabled": 0, "name": "8c9bac3466f5ed21271852591dbcd077", "bike_id": "8c9bac3466f5ed21271852591dbcd077", "fusion_lat": 0.0, "lon": -76.9984045, "type": "electric_scooter", "fusion_lon": 0.0, "lat": 38.900782166666666}, {"rental_uris": {"android": "https://dc.lft.to/lastmile_qr_scan", "ios": "https://dc.lft.to/lastmile_qr_scan"}, "is_reserved": 0, "is_disabled": 0, "name": "dae58a691377836227715163cab4f07c", "bike_id": "dae58a691377836227715163cab4f07c", "fusion_lat": 0.0, "lon": -76.9837255, "type": "electric_scooter", "fusion_lon": 0.0, "lat": 38.8926675}, {"rental_uris": {"android": "https://dc.lft.to/lastmile_qr_scan", "ios": "https://dc.lft.to/lastmile_qr_scan"}, "is_reserved": 0, "is_disabled": 0, "name": "ca401af5a12c8cbede44b288150792fe", "bike_id": "ca401af5a12c8cbede44b288150792fe", "fusion_lat": 0.0, "lon": -76.99015433333334, "type": "electric_scooter", "fusion_lon": 0.0, "lat": 38.88270833333333}, {"rental_uris": {"android": "https://dc.lft.to/lastmile_qr_scan", "ios": "https://dc.lft.to/lastmile_qr_scan"}, "is_reserved": 0, "is_disabled": 0, "name": "9cf87c8c1bb12bb6300c9d18bcf7e9da", "bike_id": "9cf87c8c1bb12bb6300c9d18bcf7e9da", "fusion_lat": 0.0, "lon": -77.03505383333334, "type": "electric_scooter", "fusion_lon": 0.0, "lat": 38.91874333333333}, {"rental_uris": {"android": "https://dc.lft.to/lastmile_qr_scan", "ios": "https://dc.lft.to/lastmile_qr_scan"}, "is_reserved": 0, "is_disabled": 0, "name": "c502e436526ef1d8ee407b16d14f15d7", "bike_id": "c502e436526ef1d8ee407b16d14f15d7", "fusion_lat": 0.0, "lon": -77.09683616666666, "type": "electric_bike", "fusion_lon": 0.0, "lat": 38.807395666666665}, {"rental_uris": {"android": "https://dc.lft.to/lastmile_qr_scan", "ios": "https://dc.lft.to/lastmile_qr_scan"}, "is_reserved": 0, "is_disabled": 0, "name": "d8b6ad2602490d35309e004cd7d415f7", "bike_id": "d8b6ad2602490d35309e004cd7d415f7", "fusion_lat": 0.0, "lon": -77.02981016666666, "type": "electric_scooter", "fusion_lon": 0.0, "lat": 38.90714583333333}, {"rental_uris": {"android": "https://dc.lft.to/lastmile_qr_scan", "ios": "https://dc.lft.to/lastmile_qr_scan"}, "is_reserved": 0, "is_disabled": 0, "name": "707f4d808d65fb4cffdbf9d53620e10b", "bike_id": "707f4d808d65fb4cffdbf9d53620e10b", "fusion_lat": 0.0, "lon": -77.03197283333333, "type": "electric_scooter", "fusion_lon": 0.0, "lat": 38.9102695}, {"rental_uris": {"android": "https://dc.lft.to/lastmile_qr_scan", "ios": "https://dc.lft.to/lastmile_qr_scan"}, "is_reserved": 0, "is_disabled": 0, "name": "6d537ee040ab0b3b81be4f3f0da0bcce", "bike_id": "6d537ee040ab0b3b81be4f3f0da0bcce", "fusion_lat": 0.0, "lon": -77.015289, "type": "electric_scooter", "fusion_lon": 0.0, "lat": 38.872800166666664}, {"rental_uris": {"android": "https://dc.lft.to/lastmile_qr_scan", "ios": "https://dc.lft.to/lastmile_qr_scan"}, "is_reserved": 0, "is_disabled": 0, "name": "731aeffc8a67f2d8215da803b9063733", "bike_id": "731aeffc8a67f2d8215da803b9063733", "fusion_lat": 0.0, "lon": -77.03869766666666, "type": "electric_scooter", "fusion_lon": 0.0, "lat": 38.91714233333333}, {"rental_uris": {"android": "https://dc.lft.to/lastmile_qr_scan", "ios": "https://dc.lft.to/lastmile_qr_scan"}, "is_reserved": 0, "is_disabled": 0, "name": "ffd43801afd5e38cd6732b66536ed6f1", "bike_id": "ffd43801afd5e38cd6732b66536ed6f1", "fusion_lat": 0.0, "lon": -77.04682883333334, "type": "electric_scooter", "fusion_lon": 0.0, "lat": 38.892237333333334}, {"rental_uris": {"android": "https://dc.lft.to/lastmile_qr_scan", "ios": "https://dc.lft.to/lastmile_qr_scan"}, "is_reserved": 0, "is_disabled": 0, "name": "4c7a0685550c053de85cfd8447527c22", "bike_id": "4c7a0685550c053de85cfd8447527c22", "fusion_lat": 0.0, "lon": -77.043524, "type": "electric_scooter", "fusion_lon": 0.0, "lat": 38.9113025}, {"rental_uris": {"android": "https://dc.lft.to/lastmile_qr_scan", "ios": "https://dc.lft.to/lastmile_qr_scan"}, "is_reserved": 0, "is_disabled": 0, "name": "80067cdc252f8bb8ce41f45edcb27e4f", "bike_id": "80067cdc252f8bb8ce41f45edcb27e4f", "fusion_lat": 0.0, "lon": -76.98859516666667, "type": "electric_scooter", "fusion_lon": 0.0, "lat": 38.90022666666667}, {"rental_uris": {"android": "https://dc.lft.to/lastmile_qr_scan", "ios": "https://dc.lft.to/lastmile_qr_scan"}, "is_reserved": 0, "is_disabled": 0, "name": "0c9c27584ed6f96c5a8b0f5972527a7b", "bike_id": "0c9c27584ed6f96c5a8b0f5972527a7b", "fusion_lat": 0.0, "lon": -77.06173966666667, "type": "electric_scooter", "fusion_lon": 0.0, "lat": 38.94126283333333}, {"rental_uris": {"android": "https://dc.lft.to/lastmile_qr_scan", "ios": "https://dc.lft.to/lastmile_qr_scan"}, "is_reserved": 0, "is_disabled": 0, "name": "53edee879acf64b2aa45a5a528cade8d", "bike_id": "53edee879acf64b2aa45a5a528cade8d", "fusion_lat": 0.0, "lon": -77.04385316666666, "type": "electric_scooter", "fusion_lon": 0.0, "lat": 38.92060716666667}, {"rental_uris": {"android": "https://dc.lft.to/lastmile_qr_scan", "ios": "https://dc.lft.to/lastmile_qr_scan"}, "is_reserved": 0, "is_disabled": 0, "name": "555b94823d5be234c6fe3774e15e4d5d", "bike_id": "555b94823d5be234c6fe3774e15e4d5d", "fusion_lat": 0.0, "lon": -77.0195015, "type": "electric_scooter", "fusion_lon": 0.0, "lat": 38.924419}, {"rental_uris": {"android": "https://dc.lft.to/lastmile_qr_scan", "ios": "https://dc.lft.to/lastmile_qr_scan"}, "is_reserved": 0, "is_disabled": 0, "name": "c2f256224d09000f0ffa8e4147879dcb", "bike_id": "c2f256224d09000f0ffa8e4147879dcb", "fusion_lat": 0.0, "lon": -77.03675, "type": "electric_scooter", "fusion_lon": 0.0, "lat": 38.906930833333334}, {"rental_uris": {"android": "https://dc.lft.to/lastmile_qr_scan", "ios": "https://dc.lft.to/lastmile_qr_scan"}, "is_reserved": 0, "is_disabled": 0, "name": "015ae6ecc78de20d5263cd0aa6373289", "bike_id": "015ae6ecc78de20d5263cd0aa6373289", "fusion_lat": 0.0, "lon": -77.024358, "type": "electric_scooter", "fusion_lon": 0.0, "lat": 38.902168833333334}, {"rental_uris": {"android": "https://dc.lft.to/lastmile_qr_scan", "ios": "https://dc.lft.to/lastmile_qr_scan"}, "is_reserved": 0, "is_disabled": 0, "name": "25f8bc21fba4e6e2a9d9167228271db6", "bike_id": "25f8bc21fba4e6e2a9d9167228271db6", "fusion_lat": 0.0, "lon": -77.04365583333333, "type": "electric_scooter", "fusion_lon": 0.0, "lat": 38.92245966666667}, {"rental_uris": {"android": "https://dc.lft.to/lastmile_qr_scan", "ios": "https://dc.lft.to/lastmile_qr_scan"}, "is_reserved": 0, "is_disabled": 0, "name": "0d486f90246f2bd74cce3200075b566f", "bike_id": "0d486f90246f2bd74cce3200075b566f", "fusion_lat": 0.0, "lon": -77.23385616666667, "type": "electric_bike", "fusion_lon": 0.0, "lat": 38.87171583333333}, {"rental_uris": {"android": "https://dc.lft.to/lastmile_qr_scan", "ios": "https://dc.lft.to/lastmile_qr_scan"}, "is_reserved": 0, "is_disabled": 0, "name": "bfeaa74510ced9303b6aa27a268b4ca9", "bike_id": "bfeaa74510ced9303b6aa27a268b4ca9", "fusion_lat": 0.0, "lon": -77.09657816666666, "type": "electric_bike", "fusion_lon": 0.0, "lat": 38.952185}, {"rental_uris": {"android": "https://dc.lft.to/lastmile_qr_scan", "ios": "https://dc.lft.to/lastmile_qr_scan"}, "is_reserved": 0, "is_disabled": 0, "name": "d2370c2df35cf81aea6124a8c5069965", "bike_id": "d2370c2df35cf81aea6124a8c5069965", "fusion_lat": 0.0, "lon": -77.02775816666667, "type": "electric_scooter", "fusion_lon": 0.0, "lat": 38.93005216666667}, {"rental_uris": {"android": "https://dc.lft.to/lastmile_qr_scan", "ios": "https://dc.lft.to/lastmile_qr_scan"}, "is_reserved": 0, "is_disabled": 0, "name": "594bedca9bb6fde8362234b67e5d92f6", "bike_id": "594bedca9bb6fde8362234b67e5d92f6", "fusion_lat": 0.0, "lon": -77.01950866666667, "type": "electric_scooter", "fusion_lon": 0.0, "lat": 38.92334233333333}, {"rental_uris": {"android": "https://dc.lft.to/lastmile_qr_scan", "ios": "https://dc.lft.to/lastmile_qr_scan"}, "is_reserved": 0, "is_disabled": 0, "name": "c59aea0ec3384a107dc9fef4b6080050", "bike_id": "c59aea0ec3384a107dc9fef4b6080050", "fusion_lat": 0.0, "lon": -77.02355933333334, "type": "electric_scooter", "fusion_lon": 0.0, "lat": 38.93531316666667}, {"rental_uris": {"android": "https://dc.lft.to/lastmile_qr_scan", "ios": "https://dc.lft.to/lastmile_qr_scan"}, "is_reserved": 0, "is_disabled": 0, "name": "f5a94cf5b70cca40a4d66a643ff8c4be", "bike_id": "f5a94cf5b70cca40a4d66a643ff8c4be", "fusion_lat": 0.0, "lon": -77.03304816666666, "type": "electric_scooter", "fusion_lon": 0.0, "lat": 38.911154833333335}, {"rental_uris": {"android": "https://dc.lft.to/lastmile_qr_scan", "ios": "https://dc.lft.to/lastmile_qr_scan"}, "is_reserved": 0, "is_disabled": 0, "name": "77f78a449ba78588714cff7043fdfcf6", "bike_id": "77f78a449ba78588714cff7043fdfcf6", "fusion_lat": 0.0, "lon": -77.04696266666667, "type": "electric_scooter", "fusion_lon": 0.0, "lat": 38.921114}, {"rental_uris": {"android": "https://dc.lft.to/lastmile_qr_scan", "ios": "https://dc.lft.to/lastmile_qr_scan"}, "is_reserved": 0, "is_disabled": 0, "name": "69d9d7ee1ceb01fadadc2c34bf9efc2e", "bike_id": "69d9d7ee1ceb01fadadc2c34bf9efc2e", "fusion_lat": 0.0, "lon": -77.03658966666667, "type": "electric_scooter", "fusion_lon": 0.0, "lat": 38.917993833333334}, {"rental_uris": {"android": "https://dc.lft.to/lastmile_qr_scan", "ios": "https://dc.lft.to/lastmile_qr_scan"}, "is_reserved": 0, "is_disabled": 0, "name": "4aeefd73c7c9a86fb8e10cf42499e000", "bike_id": "4aeefd73c7c9a86fb8e10cf42499e000", "fusion_lat": 0.0, "lon": -77.02809833333333, "type": "electric_scooter", "fusion_lon": 0.0, "lat": 38.930820833333335}, {"rental_uris": {"android": "https://dc.lft.to/lastmile_qr_scan", "ios": "https://dc.lft.to/lastmile_qr_scan"}, "is_reserved": 0, "is_disabled": 0, "name": "68e426e3b81dd6df214ce33553142536", "bike_id": "68e426e3b81dd6df214ce33553142536", "fusion_lat": 0.0, "lon": -77.01214166666666, "type": "electric_scooter", "fusion_lon": 0.0, "lat": 38.95343883333334}, {"rental_uris": {"android": "https://dc.lft.to/lastmile_qr_scan", "ios": "https://dc.lft.to/lastmile_qr_scan"}, "is_reserved": 0, "is_disabled": 0, "name": "5331f60a9a0a800f67a10409a4abead8", "bike_id": "5331f60a9a0a800f67a10409a4abead8", "fusion_lat": 0.0, "lon": -77.02183383333333, "type": "electric_scooter", "fusion_lon": 0.0, "lat": 38.894118}, {"rental_uris": {"android": "https://dc.lft.to/lastmile_qr_scan", "ios": "https://dc.lft.to/lastmile_qr_scan"}, "is_reserved": 0, "is_disabled": 0, "name": "f256c323158e8df3d464849c96ef3183", "bike_id": "f256c323158e8df3d464849c96ef3183", "fusion_lat": 0.0, "lon": -76.99776066666666, "type": "electric_scooter", "fusion_lon": 0.0, "lat": 38.901319666666666}, {"rental_uris": {"android": "https://dc.lft.to/lastmile_qr_scan", "ios": "https://dc.lft.to/lastmile_qr_scan"}, "is_reserved": 0, "is_disabled": 0, "name": "e02a5398a5a7814732a7df280d5fc590", "bike_id": "e02a5398a5a7814732a7df280d5fc590", "fusion_lat": 0.0, "lon": -77.04569133333334, "type": "electric_scooter", "fusion_lon": 0.0, "lat": 38.90392333333333}, {"rental_uris": {"android": "https://dc.lft.to/lastmile_qr_scan", "ios": "https://dc.lft.to/lastmile_qr_scan"}, "is_reserved": 0, "is_disabled": 0, "name": "808edd81405754d052c536b76f8d498d", "bike_id": "808edd81405754d052c536b76f8d498d", "fusion_lat": 0.0, "lon": -77.01998233333333, "type": "electric_scooter", "fusion_lon": 0.0, "lat": 38.90556733333333}, {"rental_uris": {"android": "https://dc.lft.to/lastmile_qr_scan", "ios": "https://dc.lft.to/lastmile_qr_scan"}, "is_reserved": 0, "is_disabled": 0, "name": "e31f136596ef725e6194377d583c3ae5", "bike_id": "e31f136596ef725e6194377d583c3ae5", "fusion_lat": 0.0, "lon": -77.06270933333333, "type": "electric_scooter", "fusion_lon": 0.0, "lat": 38.905709}, {"rental_uris": {"android": "https://dc.lft.to/lastmile_qr_scan", "ios": "https://dc.lft.to/lastmile_qr_scan"}, "is_reserved": 0, "is_disabled": 0, "name": "b85c64318b9d99e4da871bdf33f35ac6", "bike_id": "b85c64318b9d99e4da871bdf33f35ac6", "fusion_lat": 0.0, "lon": -77.01956366666667, "type": "electric_scooter", "fusion_lon": 0.0, "lat": 38.92328083333334}, {"rental_uris": {"android": "https://dc.lft.to/lastmile_qr_scan", "ios": "https://dc.lft.to/lastmile_qr_scan"}, "is_reserved": 0, "is_disabled": 0, "name": "72b35bb6bf456c89037c34233f949e06", "bike_id": "72b35bb6bf456c89037c34233f949e06", "fusion_lat": 0.0, "lon": -77.0365815, "type": "electric_scooter", "fusion_lon": 0.0, "lat": 38.917985}, {"rental_uris": {"android": "https://dc.lft.to/lastmile_qr_scan", "ios": "https://dc.lft.to/lastmile_qr_scan"}, "is_reserved": 0, "is_disabled": 0, "name": "24dea405beba947a0d8f215b7d87e24b", "bike_id": "24dea405beba947a0d8f215b7d87e24b", "fusion_lat": 0.0, "lon": -77.02103116666666, "type": "electric_scooter", "fusion_lon": 0.0, "lat": 38.8961615}, {"rental_uris": {"android": "https://dc.lft.to/lastmile_qr_scan", "ios": "https://dc.lft.to/lastmile_qr_scan"}, "is_reserved": 0, "is_disabled": 0, "name": "80a397cd90ee7cca0442f73871cbaa94", "bike_id": "80a397cd90ee7cca0442f73871cbaa94", "fusion_lat": 0.0, "lon": -77.0445175, "type": "electric_scooter", "fusion_lon": 0.0, "lat": 38.90271533333333}, {"rental_uris": {"android": "https://dc.lft.to/lastmile_qr_scan", "ios": "https://dc.lft.to/lastmile_qr_scan"}, "is_reserved": 0, "is_disabled": 0, "name": "ffab539e0b9e150256cc948b549dfc0b", "bike_id": "ffab539e0b9e150256cc948b549dfc0b", "fusion_lat": 0.0, "lon": -77.03667883333334, "type": "electric_scooter", "fusion_lon": 0.0, "lat": 38.90293966666667}, {"rental_uris": {"android": "https://dc.lft.to/lastmile_qr_scan", "ios": "https://dc.lft.to/lastmile_qr_scan"}, "is_reserved": 0, "is_disabled": 0, "name": "34c3f3544e5628b75fdc2886c5b981ed", "bike_id": "34c3f3544e5628b75fdc2886c5b981ed", "fusion_lat": 0.0, "lon": -77.02452566666666, "type": "electric_scooter", "fusion_lon": 0.0, "lat": 38.915167833333335}, {"rental_uris": {"android": "https://dc.lft.to/lastmile_qr_scan", "ios": "https://dc.lft.to/lastmile_qr_scan"}, "is_reserved": 0, "is_disabled": 0, "name": "3bacf0cc4918c8c507d5609b07b224db", "bike_id": "3bacf0cc4918c8c507d5609b07b224db", "fusion_lat": 0.0, "lon": -77.016825, "type": "electric_scooter", "fusion_lon": 0.0, "lat": 38.920410833333335}, {"rental_uris": {"android": "https://dc.lft.to/lastmile_qr_scan", "ios": "https://dc.lft.to/lastmile_qr_scan"}, "is_reserved": 0, "is_disabled": 0, "name": "045ef16dd71e09cd2f80a4b4f1ad445b", "bike_id": "045ef16dd71e09cd2f80a4b4f1ad445b", "fusion_lat": 0.0, "lon": -77.03609416666667, "type": "electric_scooter", "fusion_lon": 0.0, "lat": 38.928503}, {"rental_uris": {"android": "https://dc.lft.to/lastmile_qr_scan", "ios": "https://dc.lft.to/lastmile_qr_scan"}, "is_reserved": 0, "is_disabled": 0, "name": "31df426a034aed05c7681aefbda84b2b", "bike_id": "31df426a034aed05c7681aefbda84b2b", "fusion_lat": 0.0, "lon": -76.94578066666666, "type": "electric_scooter", "fusion_lon": 0.0, "lat": 38.89926616666666}, {"rental_uris": {"android": "https://dc.lft.to/lastmile_qr_scan", "ios": "https://dc.lft.to/lastmile_qr_scan"}, "is_reserved": 0, "is_disabled": 0, "name": "df7df4a10399bfc2a68ebcd7192bfd4e", "bike_id": "df7df4a10399bfc2a68ebcd7192bfd4e", "fusion_lat": 0.0, "lon": -77.0045195, "type": "electric_scooter", "fusion_lon": 0.0, "lat": 38.911571333333335}, {"rental_uris": {"android": "https://dc.lft.to/lastmile_qr_scan", "ios": "https://dc.lft.to/lastmile_qr_scan"}, "is_reserved": 0, "is_disabled": 0, "name": "182ff1e4986d0981ed412ceb1167a7ed", "bike_id": "182ff1e4986d0981ed412ceb1167a7ed", "fusion_lat": 0.0, "lon": -77.04574516666666, "type": "electric_scooter", "fusion_lon": 0.0, "lat": 38.90706383333333}, {"rental_uris": {"android": "https://dc.lft.to/lastmile_qr_scan", "ios": "https://dc.lft.to/lastmile_qr_scan"}, "is_reserved": 0, "is_disabled": 0, "name": "ce026cd973515348d7e4a0c01e45857e", "bike_id": "ce026cd973515348d7e4a0c01e45857e", "fusion_lat": 0.0, "lon": -77.02382616666667, "type": "electric_scooter", "fusion_lon": 0.0, "lat": 38.89197333333333}, {"rental_uris": {"android": "https://dc.lft.to/lastmile_qr_scan", "ios": "https://dc.lft.to/lastmile_qr_scan"}, "is_reserved": 0, "is_disabled": 0, "name": "36ce57d2f0584f93d8569f9d443537f1", "bike_id": "36ce57d2f0584f93d8569f9d443537f1", "fusion_lat": 0.0, "lon": -77.038859, "type": "electric_bike", "fusion_lon": 0.0, "lat": 39.0262495}, {"rental_uris": {"android": "https://dc.lft.to/lastmile_qr_scan", "ios": "https://dc.lft.to/lastmile_qr_scan"}, "is_reserved": 0, "is_disabled": 0, "name": "9e670b7e1780234afc377c82cb7af2d1", "bike_id": "9e670b7e1780234afc377c82cb7af2d1", "fusion_lat": 0.0, "lon": -77.02722933333334, "type": "electric_scooter", "fusion_lon": 0.0, "lat": 38.92227066666667}, {"rental_uris": {"android": "https://dc.lft.to/lastmile_qr_scan", "ios": "https://dc.lft.to/lastmile_qr_scan"}, "is_reserved": 0, "is_disabled": 0, "name": "034c6c0967b2678b2fcebf356d20d1f5", "bike_id": "034c6c0967b2678b2fcebf356d20d1f5", "fusion_lat": 0.0, "lon": -77.01172066666666, "type": "electric_scooter", "fusion_lon": 0.0, "lat": 38.89662166666667}, {"rental_uris": {"android": "https://dc.lft.to/lastmile_qr_scan", "ios": "https://dc.lft.to/lastmile_qr_scan"}, "is_reserved": 0, "is_disabled": 0, "name": "2698d9af61f97c95046db5534e263105", "bike_id": "2698d9af61f97c95046db5534e263105", "fusion_lat": 0.0, "lon": -77.02389166666667, "type": "electric_scooter", "fusion_lon": 0.0, "lat": 38.90678666666667}, {"rental_uris": {"android": "https://dc.lft.to/lastmile_qr_scan", "ios": "https://dc.lft.to/lastmile_qr_scan"}, "is_reserved": 0, "is_disabled": 0, "name": "393b42816e90537a7c54992022002b1c", "bike_id": "393b42816e90537a7c54992022002b1c", "fusion_lat": 0.0, "lon": -76.9791745, "type": "electric_bike", "fusion_lon": 0.0, "lat": 38.95852466666667}, {"rental_uris": {"android": "https://dc.lft.to/lastmile_qr_scan", "ios": "https://dc.lft.to/lastmile_qr_scan"}, "is_reserved": 0, "is_disabled": 0, "name": "a8df24679ea43a4e7149426abf151085", "bike_id": "a8df24679ea43a4e7149426abf151085", "fusion_lat": 0.0, "lon": -77.1273955, "type": "electric_bike", "fusion_lon": 0.0, "lat": 38.895663666666664}, {"rental_uris": {"android": "https://dc.lft.to/lastmile_qr_scan", "ios": "https://dc.lft.to/lastmile_qr_scan"}, "is_reserved": 0, "is_disabled": 0, "name": "26ece29e81da2a9344fe2674bf8aee09", "bike_id": "26ece29e81da2a9344fe2674bf8aee09", "fusion_lat": 0.0, "lon": -77.01608883333333, "type": "electric_scooter", "fusion_lon": 0.0, "lat": 38.913072666666665}, {"rental_uris": {"android": "https://dc.lft.to/lastmile_qr_scan", "ios": "https://dc.lft.to/lastmile_qr_scan"}, "is_reserved": 0, "is_disabled": 0, "name": "a818c17f625e659902d18b52ddd18077", "bike_id": "a818c17f625e659902d18b52ddd18077", "fusion_lat": 0.0, "lon": -77.01706333333334, "type": "electric_scooter", "fusion_lon": 0.0, "lat": 38.872953}, {"rental_uris": {"android": "https://dc.lft.to/lastmile_qr_scan", "ios": "https://dc.lft.to/lastmile_qr_scan"}, "is_reserved": 0, "is_disabled": 0, "name": "62b8527959def2bf1e7fa01c96eecb7b", "bike_id": "62b8527959def2bf1e7fa01c96eecb7b", "fusion_lat": 0.0, "lon": -77.01760316666666, "type": "electric_scooter", "fusion_lon": 0.0, "lat": 38.876808833333335}, {"rental_uris": {"android": "https://dc.lft.to/lastmile_qr_scan", "ios": "https://dc.lft.to/lastmile_qr_scan"}, "is_reserved": 0, "is_disabled": 0, "name": "67bf0e48212724e1ded90cc0a0456850", "bike_id": "67bf0e48212724e1ded90cc0a0456850", "fusion_lat": 0.0, "lon": -77.03621116666666, "type": "electric_scooter", "fusion_lon": 0.0, "lat": 38.903853166666664}, {"rental_uris": {"android": "https://dc.lft.to/lastmile_qr_scan", "ios": "https://dc.lft.to/lastmile_qr_scan"}, "is_reserved": 0, "is_disabled": 0, "name": "1243bfebd8d09fdf63db56b85ca865c3", "bike_id": "1243bfebd8d09fdf63db56b85ca865c3", "fusion_lat": 0.0, "lon": -77.041918, "type": "electric_scooter", "fusion_lon": 0.0, "lat": 38.91138766666667}, {"rental_uris": {"android": "https://dc.lft.to/lastmile_qr_scan", "ios": "https://dc.lft.to/lastmile_qr_scan"}, "is_reserved": 0, "is_disabled": 0, "name": "abb74a23e1f5a4b876ae08a8d5f2d96e", "bike_id": "abb74a23e1f5a4b876ae08a8d5f2d96e", "fusion_lat": 0.0, "lon": -76.92507433333333, "type": "electric_scooter", "fusion_lon": 0.0, "lat": 38.88602233333334}, {"rental_uris": {"android": "https://dc.lft.to/lastmile_qr_scan", "ios": "https://dc.lft.to/lastmile_qr_scan"}, "is_reserved": 0, "is_disabled": 0, "name": "1468e4ae095de5053203d2a48358aa76", "bike_id": "1468e4ae095de5053203d2a48358aa76", "fusion_lat": 0.0, "lon": -77.046753, "type": "electric_scooter", "fusion_lon": 0.0, "lat": 38.89831366666667}, {"rental_uris": {"android": "https://dc.lft.to/lastmile_qr_scan", "ios": "https://dc.lft.to/lastmile_qr_scan"}, "is_reserved": 0, "is_disabled": 0, "name": "76b655d6186baf2680ac8908d1245303", "bike_id": "76b655d6186baf2680ac8908d1245303", "fusion_lat": 0.0, "lon": -76.92628616666667, "type": "electric_scooter", "fusion_lon": 0.0, "lat": 38.883763333333334}, {"rental_uris": {"android": "https://dc.lft.to/lastmile_qr_scan", "ios": "https://dc.lft.to/lastmile_qr_scan"}, "is_reserved": 0, "is_disabled": 0, "name": "455c989bdea32497afa8ac6c18ddcb87", "bike_id": "455c989bdea32497afa8ac6c18ddcb87", "fusion_lat": 0.0, "lon": -77.03798233333333, "type": "electric_scooter", "fusion_lon": 0.0, "lat": 38.925496}, {"rental_uris": {"android": "https://dc.lft.to/lastmile_qr_scan", "ios": "https://dc.lft.to/lastmile_qr_scan"}, "is_reserved": 0, "is_disabled": 0, "name": "2b5a248e3b27c549c54cedba4e6bb97f", "bike_id": "2b5a248e3b27c549c54cedba4e6bb97f", "fusion_lat": 0.0, "lon": -77.04444216666667, "type": "electric_scooter", "fusion_lon": 0.0, "lat": 38.92230283333333}, {"rental_uris": {"android": "https://dc.lft.to/lastmile_qr_scan", "ios": "https://dc.lft.to/lastmile_qr_scan"}, "is_reserved": 0, "is_disabled": 0, "name": "a1c73e7ae4b040a0b73b3aae77151fa5", "bike_id": "a1c73e7ae4b040a0b73b3aae77151fa5", "fusion_lat": 0.0, "lon": -77.02693983333333, "type": "electric_scooter", "fusion_lon": 0.0, "lat": 38.924457}, {"rental_uris": {"android": "https://dc.lft.to/lastmile_qr_scan", "ios": "https://dc.lft.to/lastmile_qr_scan"}, "is_reserved": 0, "is_disabled": 0, "name": "49271367e11cbd198ec898c7116ff4ce", "bike_id": "49271367e11cbd198ec898c7116ff4ce", "fusion_lat": 0.0, "lon": -77.0303685, "type": "electric_scooter", "fusion_lon": 0.0, "lat": 38.90263066666667}, {"rental_uris": {"android": "https://dc.lft.to/lastmile_qr_scan", "ios": "https://dc.lft.to/lastmile_qr_scan"}, "is_reserved": 0, "is_disabled": 0, "name": "4dab7498baf2a550ad57ea773529fa56", "bike_id": "4dab7498baf2a550ad57ea773529fa56", "fusion_lat": 0.0, "lon": -77.00069466666666, "type": "electric_scooter", "fusion_lon": 0.0, "lat": 38.874430833333335}, {"rental_uris": {"android": "https://dc.lft.to/lastmile_qr_scan", "ios": "https://dc.lft.to/lastmile_qr_scan"}, "is_reserved": 0, "is_disabled": 0, "name": "ed58bd0b40cbeeb30c04e3fb1396e16d", "bike_id": "ed58bd0b40cbeeb30c04e3fb1396e16d", "fusion_lat": 0.0, "lon": -77.12841766666666, "type": "electric_bike", "fusion_lon": 0.0, "lat": 38.80053383333333}, {"rental_uris": {"android": "https://dc.lft.to/lastmile_qr_scan", "ios": "https://dc.lft.to/lastmile_qr_scan"}, "is_reserved": 0, "is_disabled": 0, "name": "3ff82773e0bc5264c1fc229088b3c135", "bike_id": "3ff82773e0bc5264c1fc229088b3c135", "fusion_lat": 0.0, "lon": -77.026741, "type": "electric_scooter", "fusion_lon": 0.0, "lat": 38.92236066666667}, {"rental_uris": {"android": "https://dc.lft.to/lastmile_qr_scan", "ios": "https://dc.lft.to/lastmile_qr_scan"}, "is_reserved": 0, "is_disabled": 0, "name": "ed2ebc5802a07f2df7e0a517aeb1b445", "bike_id": "ed2ebc5802a07f2df7e0a517aeb1b445", "fusion_lat": 0.0, "lon": -77.001662, "type": "electric_scooter", "fusion_lon": 0.0, "lat": 38.919131}, {"rental_uris": {"android": "https://dc.lft.to/lastmile_qr_scan", "ios": "https://dc.lft.to/lastmile_qr_scan"}, "is_reserved": 0, "is_disabled": 0, "name": "75453010a046fe449d3fcd035db00550", "bike_id": "75453010a046fe449d3fcd035db00550", "fusion_lat": 0.0, "lon": -77.0302195, "type": "electric_scooter", "fusion_lon": 0.0, "lat": 38.907097666666665}, {"rental_uris": {"android": "https://dc.lft.to/lastmile_qr_scan", "ios": "https://dc.lft.to/lastmile_qr_scan"}, "is_reserved": 0, "is_disabled": 0, "name": "190a790f2940211da34437e136573579", "bike_id": "190a790f2940211da34437e136573579", "fusion_lat": 0.0, "lon": -77.01999133333334, "type": "electric_scooter", "fusion_lon": 0.0, "lat": 38.876049}, {"rental_uris": {"android": "https://dc.lft.to/lastmile_qr_scan", "ios": "https://dc.lft.to/lastmile_qr_scan"}, "is_reserved": 0, "is_disabled": 0, "name": "729d5e5a48547f2e7a64afe35c322a36", "bike_id": "729d5e5a48547f2e7a64afe35c322a36", "fusion_lat": 0.0, "lon": -77.00369533333334, "type": "electric_scooter", "fusion_lon": 0.0, "lat": 38.8973365}, {"rental_uris": {"android": "https://dc.lft.to/lastmile_qr_scan", "ios": "https://dc.lft.to/lastmile_qr_scan"}, "is_reserved": 0, "is_disabled": 0, "name": "0f02a46f7458ce2e3fbabb010b5257b7", "bike_id": "0f02a46f7458ce2e3fbabb010b5257b7", "fusion_lat": 0.0, "lon": -77.04017833333333, "type": "electric_scooter", "fusion_lon": 0.0, "lat": 38.8983005}, {"rental_uris": {"android": "https://dc.lft.to/lastmile_qr_scan", "ios": "https://dc.lft.to/lastmile_qr_scan"}, "is_reserved": 0, "is_disabled": 0, "name": "e1ba6c12e86e35ab0c1df58c44678a55", "bike_id": "e1ba6c12e86e35ab0c1df58c44678a55", "fusion_lat": 0.0, "lon": -76.98381083333334, "type": "electric_scooter", "fusion_lon": 0.0, "lat": 38.8794625}, {"rental_uris": {"android": "https://dc.lft.to/lastmile_qr_scan", "ios": "https://dc.lft.to/lastmile_qr_scan"}, "is_reserved": 0, "is_disabled": 0, "name": "b38ff11c6811372ce2c299b85b77cb03", "bike_id": "b38ff11c6811372ce2c299b85b77cb03", "fusion_lat": 0.0, "lon": -76.98113933333333, "type": "electric_bike", "fusion_lon": 0.0, "lat": 38.945732}, {"rental_uris": {"android": "https://dc.lft.to/lastmile_qr_scan", "ios": "https://dc.lft.to/lastmile_qr_scan"}, "is_reserved": 0, "is_disabled": 0, "name": "df2bd5b1da8558dff88cc95a55912f01", "bike_id": "df2bd5b1da8558dff88cc95a55912f01", "fusion_lat": 0.0, "lon": -77.082452, "type": "electric_scooter", "fusion_lon": 0.0, "lat": 38.90736716666667}, {"rental_uris": {"android": "https://dc.lft.to/lastmile_qr_scan", "ios": "https://dc.lft.to/lastmile_qr_scan"}, "is_reserved": 0, "is_disabled": 0, "name": "27e5e217edbd9fb3c37caf1781f515d0", "bike_id": "27e5e217edbd9fb3c37caf1781f515d0", "fusion_lat": 0.0, "lon": -77.021746, "type": "electric_scooter", "fusion_lon": 0.0, "lat": 38.942921166666665}, {"rental_uris": {"android": "https://dc.lft.to/lastmile_qr_scan", "ios": "https://dc.lft.to/lastmile_qr_scan"}, "is_reserved": 0, "is_disabled": 0, "name": "31dc9e7a354c09d5ee19913f229d6179", "bike_id": "31dc9e7a354c09d5ee19913f229d6179", "fusion_lat": 0.0, "lon": -77.02724466666666, "type": "electric_scooter", "fusion_lon": 0.0, "lat": 38.932512}, {"rental_uris": {"android": "https://dc.lft.to/lastmile_qr_scan", "ios": "https://dc.lft.to/lastmile_qr_scan"}, "is_reserved": 0, "is_disabled": 0, "name": "492ef12a50b34e6b7f73ad8f41270ba7", "bike_id": "492ef12a50b34e6b7f73ad8f41270ba7", "fusion_lat": 0.0, "lon": -77.02414283333333, "type": "electric_scooter", "fusion_lon": 0.0, "lat": 38.917206166666666}, {"rental_uris": {"android": "https://dc.lft.to/lastmile_qr_scan", "ios": "https://dc.lft.to/lastmile_qr_scan"}, "is_reserved": 0, "is_disabled": 0, "name": "16017305ab7abed95dd7fadebd0fe814", "bike_id": "16017305ab7abed95dd7fadebd0fe814", "fusion_lat": 0.0, "lon": -77.0785175, "type": "electric_scooter", "fusion_lon": 0.0, "lat": 38.9460245}, {"rental_uris": {"android": "https://dc.lft.to/lastmile_qr_scan", "ios": "https://dc.lft.to/lastmile_qr_scan"}, "is_reserved": 0, "is_disabled": 0, "name": "72488345509be746997a11b9a233c3be", "bike_id": "72488345509be746997a11b9a233c3be", "fusion_lat": 0.0, "lon": -77.06986816666667, "type": "electric_scooter", "fusion_lon": 0.0, "lat": 38.905845166666666}, {"rental_uris": {"android": "https://dc.lft.to/lastmile_qr_scan", "ios": "https://dc.lft.to/lastmile_qr_scan"}, "is_reserved": 0, "is_disabled": 0, "name": "488b5c557d5848f0dcb09d525ba328d3", "bike_id": "488b5c557d5848f0dcb09d525ba328d3", "fusion_lat": 0.0, "lon": -77.03212066666667, "type": "electric_scooter", "fusion_lon": 0.0, "lat": 38.9162075}, {"rental_uris": {"android": "https://dc.lft.to/lastmile_qr_scan", "ios": "https://dc.lft.to/lastmile_qr_scan"}, "is_reserved": 0, "is_disabled": 0, "name": "6c6243b1fe09b15b497109154b0bd0c0", "bike_id": "6c6243b1fe09b15b497109154b0bd0c0", "fusion_lat": 0.0, "lon": -77.03437016666666, "type": "electric_scooter", "fusion_lon": 0.0, "lat": 38.9180965}, {"rental_uris": {"android": "https://dc.lft.to/lastmile_qr_scan", "ios": "https://dc.lft.to/lastmile_qr_scan"}, "is_reserved": 0, "is_disabled": 0, "name": "7b9cad46d225b1d77843238265da1a89", "bike_id": "7b9cad46d225b1d77843238265da1a89", "fusion_lat": 0.0, "lon": -77.01198, "type": "electric_scooter", "fusion_lon": 0.0, "lat": 38.917061333333336}, {"rental_uris": {"android": "https://dc.lft.to/lastmile_qr_scan", "ios": "https://dc.lft.to/lastmile_qr_scan"}, "is_reserved": 0, "is_disabled": 0, "name": "7de316b8bc4d57ab075f56d12a1eb48e", "bike_id": "7de316b8bc4d57ab075f56d12a1eb48e", "fusion_lat": 0.0, "lon": -77.0407255, "type": "electric_scooter", "fusion_lon": 0.0, "lat": 38.917107666666666}, {"rental_uris": {"android": "https://dc.lft.to/lastmile_qr_scan", "ios": "https://dc.lft.to/lastmile_qr_scan"}, "is_reserved": 0, "is_disabled": 0, "name": "1140b412d4c4a7eccfcd6d8c682ca10c", "bike_id": "1140b412d4c4a7eccfcd6d8c682ca10c", "fusion_lat": 0.0, "lon": -77.01815733333333, "type": "electric_scooter", "fusion_lon": 0.0, "lat": 38.921569166666664}, {"rental_uris": {"android": "https://dc.lft.to/lastmile_qr_scan", "ios": "https://dc.lft.to/lastmile_qr_scan"}, "is_reserved": 0, "is_disabled": 0, "name": "dab8774face4ebb9346326fbf76fc7dc", "bike_id": "dab8774face4ebb9346326fbf76fc7dc", "fusion_lat": 0.0, "lon": -77.04323083333334, "type": "electric_scooter", "fusion_lon": 0.0, "lat": 38.918777}, {"rental_uris": {"android": "https://dc.lft.to/lastmile_qr_scan", "ios": "https://dc.lft.to/lastmile_qr_scan"}, "is_reserved": 0, "is_disabled": 0, "name": "ab06a4c8167a70ed96f293ec92e51d7d", "bike_id": "ab06a4c8167a70ed96f293ec92e51d7d", "fusion_lat": 0.0, "lon": -77.022733, "type": "electric_scooter", "fusion_lon": 0.0, "lat": 38.916580333333336}, {"rental_uris": {"android": "https://dc.lft.to/lastmile_qr_scan", "ios": "https://dc.lft.to/lastmile_qr_scan"}, "is_reserved": 0, "is_disabled": 0, "name": "951b909529d7ccc12237ebe449db9010", "bike_id": "951b909529d7ccc12237ebe449db9010", "fusion_lat": 0.0, "lon": -77.01196466666667, "type": "electric_scooter", "fusion_lon": 0.0, "lat": 38.91196433333333}, {"rental_uris": {"android": "https://dc.lft.to/lastmile_qr_scan", "ios": "https://dc.lft.to/lastmile_qr_scan"}, "is_reserved": 0, "is_disabled": 0, "name": "25a5583dade1ed515bbbf57283280713", "bike_id": "25a5583dade1ed515bbbf57283280713", "fusion_lat": 0.0, "lon": -77.01790766666667, "type": "electric_scooter", "fusion_lon": 0.0, "lat": 38.920327666666665}, {"rental_uris": {"android": "https://dc.lft.to/lastmile_qr_scan", "ios": "https://dc.lft.to/lastmile_qr_scan"}, "is_reserved": 0, "is_disabled": 0, "name": "a4eb7991898180fa25ce036919950eec", "bike_id": "a4eb7991898180fa25ce036919950eec", "fusion_lat": 0.0, "lon": -77.019169, "type": "electric_scooter", "fusion_lon": 0.0, "lat": 38.92022383333333}, {"rental_uris": {"android": "https://dc.lft.to/lastmile_qr_scan", "ios": "https://dc.lft.to/lastmile_qr_scan"}, "is_reserved": 0, "is_disabled": 0, "name": "0c7d61bfdc4e2b59c2e75230ec8e3eb9", "bike_id": "0c7d61bfdc4e2b59c2e75230ec8e3eb9", "fusion_lat": 0.0, "lon": -77.05281716666667, "type": "electric_scooter", "fusion_lon": 0.0, "lat": 38.910218}, {"rental_uris": {"android": "https://dc.lft.to/lastmile_qr_scan", "ios": "https://dc.lft.to/lastmile_qr_scan"}, "is_reserved": 0, "is_disabled": 0, "name": "dcdf8019f6b93a86d95a731ce8b6bfcc", "bike_id": "dcdf8019f6b93a86d95a731ce8b6bfcc", "fusion_lat": 0.0, "lon": -77.07456133333334, "type": "electric_scooter", "fusion_lon": 0.0, "lat": 38.93782066666667}, {"rental_uris": {"android": "https://dc.lft.to/lastmile_qr_scan", "ios": "https://dc.lft.to/lastmile_qr_scan"}, "is_reserved": 0, "is_disabled": 0, "name": "753c1c9e72b54df235fd77bd402bffec", "bike_id": "753c1c9e72b54df235fd77bd402bffec", "fusion_lat": 0.0, "lon": -77.00363516666667, "type": "electric_scooter", "fusion_lon": 0.0, "lat": 38.915518666666664}, {"rental_uris": {"android": "https://dc.lft.to/lastmile_qr_scan", "ios": "https://dc.lft.to/lastmile_qr_scan"}, "is_reserved": 0, "is_disabled": 0, "name": "4edd3f4ca8ff3848f2ba6472002d9946", "bike_id": "4edd3f4ca8ff3848f2ba6472002d9946", "fusion_lat": 0.0, "lon": -76.97304616666666, "type": "electric_scooter", "fusion_lon": 0.0, "lat": 38.919868666666666}, {"rental_uris": {"android": "https://dc.lft.to/lastmile_qr_scan", "ios": "https://dc.lft.to/lastmile_qr_scan"}, "is_reserved": 0, "is_disabled": 0, "name": "539b3ae7e0e97035111119832c67e9f8", "bike_id": "539b3ae7e0e97035111119832c67e9f8", "fusion_lat": 0.0, "lon": -77.01757683333334, "type": "electric_scooter", "fusion_lon": 0.0, "lat": 38.876839333333336}, {"rental_uris": {"android": "https://dc.lft.to/lastmile_qr_scan", "ios": "https://dc.lft.to/lastmile_qr_scan"}, "is_reserved": 0, "is_disabled": 0, "name": "7f2e0ca4ec4c9c425e7e112aafdfe302", "bike_id": "7f2e0ca4ec4c9c425e7e112aafdfe302", "fusion_lat": 0.0, "lon": -77.02805966666666, "type": "electric_scooter", "fusion_lon": 0.0, "lat": 38.907377333333336}, {"rental_uris": {"android": "https://dc.lft.to/lastmile_qr_scan", "ios": "https://dc.lft.to/lastmile_qr_scan"}, "is_reserved": 0, "is_disabled": 0, "name": "84a61380d855ff164ccd40ee696d37fb", "bike_id": "84a61380d855ff164ccd40ee696d37fb", "fusion_lat": 0.0, "lon": -77.04316633333333, "type": "electric_bike", "fusion_lon": 0.0, "lat": 39.0342325}, {"rental_uris": {"android": "https://dc.lft.to/lastmile_qr_scan", "ios": "https://dc.lft.to/lastmile_qr_scan"}, "is_reserved": 0, "is_disabled": 0, "name": "965e1ef697ef9075c1a88dda87983af6", "bike_id": "965e1ef697ef9075c1a88dda87983af6", "fusion_lat": 0.0, "lon": -77.04332883333333, "type": "electric_scooter", "fusion_lon": 0.0, "lat": 38.92317633333333}, {"rental_uris": {"android": "https://dc.lft.to/lastmile_qr_scan", "ios": "https://dc.lft.to/lastmile_qr_scan"}, "is_reserved": 0, "is_disabled": 0, "name": "52e9a15b5f3c3b50ed4fbe0bab47bb87", "bike_id": "52e9a15b5f3c3b50ed4fbe0bab47bb87", "fusion_lat": 0.0, "lon": -77.01960333333334, "type": "electric_scooter", "fusion_lon": 0.0, "lat": 38.923262666666666}, {"rental_uris": {"android": "https://dc.lft.to/lastmile_qr_scan", "ios": "https://dc.lft.to/lastmile_qr_scan"}, "is_reserved": 0, "is_disabled": 0, "name": "77585b77fd69263fe982d593651b3e88", "bike_id": "77585b77fd69263fe982d593651b3e88", "fusion_lat": 0.0, "lon": -77.028072, "type": "electric_scooter", "fusion_lon": 0.0, "lat": 38.91042933333333}, {"rental_uris": {"android": "https://dc.lft.to/lastmile_qr_scan", "ios": "https://dc.lft.to/lastmile_qr_scan"}, "is_reserved": 0, "is_disabled": 0, "name": "645124ce761fd0abf2a201a1db336915", "bike_id": "645124ce761fd0abf2a201a1db336915", "fusion_lat": 0.0, "lon": -77.018459, "type": "electric_scooter", "fusion_lon": 0.0, "lat": 38.909582}, {"rental_uris": {"android": "https://dc.lft.to/lastmile_qr_scan", "ios": "https://dc.lft.to/lastmile_qr_scan"}, "is_reserved": 0, "is_disabled": 0, "name": "01dd9d6d3f66735dd5e66894835549ec", "bike_id": "01dd9d6d3f66735dd5e66894835549ec", "fusion_lat": 0.0, "lon": -77.0165035, "type": "electric_scooter", "fusion_lon": 0.0, "lat": 38.9420785}, {"rental_uris": {"android": "https://dc.lft.to/lastmile_qr_scan", "ios": "https://dc.lft.to/lastmile_qr_scan"}, "is_reserved": 0, "is_disabled": 0, "name": "891ba2d53627ea80dbb5306ff3c748c6", "bike_id": "891ba2d53627ea80dbb5306ff3c748c6", "fusion_lat": 0.0, "lon": -77.04101966666667, "type": "electric_scooter", "fusion_lon": 0.0, "lat": 38.898382}, {"rental_uris": {"android": "https://dc.lft.to/lastmile_qr_scan", "ios": "https://dc.lft.to/lastmile_qr_scan"}, "is_reserved": 0, "is_disabled": 0, "name": "bdd1c8064d9e67e700851846e28f9872", "bike_id": "bdd1c8064d9e67e700851846e28f9872", "fusion_lat": 0.0, "lon": -77.0328045, "type": "electric_scooter", "fusion_lon": 0.0, "lat": 38.93002966666667}, {"rental_uris": {"android": "https://dc.lft.to/lastmile_qr_scan", "ios": "https://dc.lft.to/lastmile_qr_scan"}, "is_reserved": 0, "is_disabled": 0, "name": "f6c69ac7ff8a778e06f108742faba0cb", "bike_id": "f6c69ac7ff8a778e06f108742faba0cb", "fusion_lat": 0.0, "lon": -77.04333783333334, "type": "electric_scooter", "fusion_lon": 0.0, "lat": 38.91700133333333}, {"rental_uris": {"android": "https://dc.lft.to/lastmile_qr_scan", "ios": "https://dc.lft.to/lastmile_qr_scan"}, "is_reserved": 0, "is_disabled": 0, "name": "16c59f3efd073b294fc10c782af58bd1", "bike_id": "16c59f3efd073b294fc10c782af58bd1", "fusion_lat": 0.0, "lon": -77.03706583333333, "type": "electric_scooter", "fusion_lon": 0.0, "lat": 38.92636683333333}, {"rental_uris": {"android": "https://dc.lft.to/lastmile_qr_scan", "ios": "https://dc.lft.to/lastmile_qr_scan"}, "is_reserved": 0, "is_disabled": 0, "name": "8907882f654527a8b60ff3126b075899", "bike_id": "8907882f654527a8b60ff3126b075899", "fusion_lat": 0.0, "lon": -77.02562816666666, "type": "electric_scooter", "fusion_lon": 0.0, "lat": 38.94193033333333}, {"rental_uris": {"android": "https://dc.lft.to/lastmile_qr_scan", "ios": "https://dc.lft.to/lastmile_qr_scan"}, "is_reserved": 0, "is_disabled": 0, "name": "d55dd78d57ddf7755f426966d1f43457", "bike_id": "d55dd78d57ddf7755f426966d1f43457", "fusion_lat": 0.0, "lon": -76.99967716666667, "type": "electric_scooter", "fusion_lon": 0.0, "lat": 38.907120166666665}, {"rental_uris": {"android": "https://dc.lft.to/lastmile_qr_scan", "ios": "https://dc.lft.to/lastmile_qr_scan"}, "is_reserved": 0, "is_disabled": 0, "name": "dd8bfe163fe816c432a7237127b5bec3", "bike_id": "dd8bfe163fe816c432a7237127b5bec3", "fusion_lat": 0.0, "lon": -77.01557866666667, "type": "electric_scooter", "fusion_lon": 0.0, "lat": 38.91853183333333}, {"rental_uris": {"android": "https://dc.lft.to/lastmile_qr_scan", "ios": "https://dc.lft.to/lastmile_qr_scan"}, "is_reserved": 0, "is_disabled": 0, "name": "d24078eb90287e5bb8f8eec14ec18356", "bike_id": "d24078eb90287e5bb8f8eec14ec18356", "fusion_lat": 0.0, "lon": -77.0363435, "type": "electric_scooter", "fusion_lon": 0.0, "lat": 38.925964666666665}, {"rental_uris": {"android": "https://dc.lft.to/lastmile_qr_scan", "ios": "https://dc.lft.to/lastmile_qr_scan"}, "is_reserved": 0, "is_disabled": 0, "name": "d4548716fa8aa78b3fc277fa2b9307df", "bike_id": "d4548716fa8aa78b3fc277fa2b9307df", "fusion_lat": 0.0, "lon": -77.05167566666667, "type": "electric_scooter", "fusion_lon": 0.0, "lat": 38.901143}, {"rental_uris": {"android": "https://dc.lft.to/lastmile_qr_scan", "ios": "https://dc.lft.to/lastmile_qr_scan"}, "is_reserved": 0, "is_disabled": 0, "name": "c1b6ce8733b943af9b512bee3408bf9e", "bike_id": "c1b6ce8733b943af9b512bee3408bf9e", "fusion_lat": 0.0, "lon": -77.039578, "type": "electric_scooter", "fusion_lon": 0.0, "lat": 38.892515833333334}, {"rental_uris": {"android": "https://dc.lft.to/lastmile_qr_scan", "ios": "https://dc.lft.to/lastmile_qr_scan"}, "is_reserved": 0, "is_disabled": 0, "name": "e122ce45257fa2ce20797403167c803c", "bike_id": "e122ce45257fa2ce20797403167c803c", "fusion_lat": 0.0, "lon": -76.97330366666667, "type": "electric_scooter", "fusion_lon": 0.0, "lat": 38.904115833333336}, {"rental_uris": {"android": "https://dc.lft.to/lastmile_qr_scan", "ios": "https://dc.lft.to/lastmile_qr_scan"}, "is_reserved": 0, "is_disabled": 0, "name": "acb3b9881285f1f9245c9dccabbff558", "bike_id": "acb3b9881285f1f9245c9dccabbff558", "fusion_lat": 0.0, "lon": -77.02370383333333, "type": "electric_scooter", "fusion_lon": 0.0, "lat": 38.902193}, {"rental_uris": {"android": "https://dc.lft.to/lastmile_qr_scan", "ios": "https://dc.lft.to/lastmile_qr_scan"}, "is_reserved": 0, "is_disabled": 0, "name": "84920de201b992f1eb3f6ed0ce0afffe", "bike_id": "84920de201b992f1eb3f6ed0ce0afffe", "fusion_lat": 0.0, "lon": -76.98239283333334, "type": "electric_bike", "fusion_lon": 0.0, "lat": 38.922131}, {"rental_uris": {"android": "https://dc.lft.to/lastmile_qr_scan", "ios": "https://dc.lft.to/lastmile_qr_scan"}, "is_reserved": 0, "is_disabled": 0, "name": "32ed7e91fecf619eaf8c8a1172eb5e4a", "bike_id": "32ed7e91fecf619eaf8c8a1172eb5e4a", "fusion_lat": 0.0, "lon": -77.05335183333334, "type": "electric_scooter", "fusion_lon": 0.0, "lat": 38.92335533333333}, {"rental_uris": {"android": "https://dc.lft.to/lastmile_qr_scan", "ios": "https://dc.lft.to/lastmile_qr_scan"}, "is_reserved": 0, "is_disabled": 0, "name": "b2c2c70a8cd7d00cb29d5499e3f6d599", "bike_id": "b2c2c70a8cd7d00cb29d5499e3f6d599", "fusion_lat": 0.0, "lon": -77.044248, "type": "electric_scooter", "fusion_lon": 0.0, "lat": 38.896024}, {"rental_uris": {"android": "https://dc.lft.to/lastmile_qr_scan", "ios": "https://dc.lft.to/lastmile_qr_scan"}, "is_reserved": 0, "is_disabled": 0, "name": "271688f566d69f0c7e2d1a90ca520a37", "bike_id": "271688f566d69f0c7e2d1a90ca520a37", "fusion_lat": 0.0, "lon": -77.037898, "type": "electric_scooter", "fusion_lon": 0.0, "lat": 38.9257755}, {"rental_uris": {"android": "https://dc.lft.to/lastmile_qr_scan", "ios": "https://dc.lft.to/lastmile_qr_scan"}, "is_reserved": 0, "is_disabled": 0, "name": "0180837e198be0e0a6e3be95c7760065", "bike_id": "0180837e198be0e0a6e3be95c7760065", "fusion_lat": 0.0, "lon": -77.069501, "type": "electric_bike", "fusion_lon": 0.0, "lat": 38.836301666666664}, {"rental_uris": {"android": "https://dc.lft.to/lastmile_qr_scan", "ios": "https://dc.lft.to/lastmile_qr_scan"}, "is_reserved": 0, "is_disabled": 0, "name": "b6f5b9c5d985eeb8b37b33fe8591b8f5", "bike_id": "b6f5b9c5d985eeb8b37b33fe8591b8f5", "fusion_lat": 0.0, "lon": -77.03629933333333, "type": "electric_scooter", "fusion_lon": 0.0, "lat": 38.936812333333336}, {"rental_uris": {"android": "https://dc.lft.to/lastmile_qr_scan", "ios": "https://dc.lft.to/lastmile_qr_scan"}, "is_reserved": 0, "is_disabled": 0, "name": "6092ebec3c64e8eb9b1fefd70cae78ac", "bike_id": "6092ebec3c64e8eb9b1fefd70cae78ac", "fusion_lat": 0.0, "lon": -77.03199333333333, "type": "electric_scooter", "fusion_lon": 0.0, "lat": 38.910092166666665}, {"rental_uris": {"android": "https://dc.lft.to/lastmile_qr_scan", "ios": "https://dc.lft.to/lastmile_qr_scan"}, "is_reserved": 0, "is_disabled": 0, "name": "28635084265f28a5d39dc1dc53ce5557", "bike_id": "28635084265f28a5d39dc1dc53ce5557", "fusion_lat": 0.0, "lon": -77.0241005, "type": "electric_scooter", "fusion_lon": 0.0, "lat": 38.909771666666664}, {"rental_uris": {"android": "https://dc.lft.to/lastmile_qr_scan", "ios": "https://dc.lft.to/lastmile_qr_scan"}, "is_reserved": 0, "is_disabled": 0, "name": "7cfab00602e92221b393a65f3d2e1768", "bike_id": "7cfab00602e92221b393a65f3d2e1768", "fusion_lat": 0.0, "lon": -77.0381445, "type": "electric_scooter", "fusion_lon": 0.0, "lat": 38.906823333333335}, {"rental_uris": {"android": "https://dc.lft.to/lastmile_qr_scan", "ios": "https://dc.lft.to/lastmile_qr_scan"}, "is_reserved": 0, "is_disabled": 0, "name": "58112314417a3f14ab380af6aff7f9f5", "bike_id": "58112314417a3f14ab380af6aff7f9f5", "fusion_lat": 0.0, "lon": -77.0354175, "type": "electric_scooter", "fusion_lon": 0.0, "lat": 38.91696483333333}, {"rental_uris": {"android": "https://dc.lft.to/lastmile_qr_scan", "ios": "https://dc.lft.to/lastmile_qr_scan"}, "is_reserved": 0, "is_disabled": 0, "name": "65a0fe035aaa318c310a1bfb616d7b40", "bike_id": "65a0fe035aaa318c310a1bfb616d7b40", "fusion_lat": 0.0, "lon": -77.05820933333334, "type": "electric_scooter", "fusion_lon": 0.0, "lat": 38.93530366666667}, {"rental_uris": {"android": "https://dc.lft.to/lastmile_qr_scan", "ios": "https://dc.lft.to/lastmile_qr_scan"}, "is_reserved": 0, "is_disabled": 0, "name": "b03f0f9d095ac1fc57193a69cd4e7117", "bike_id": "b03f0f9d095ac1fc57193a69cd4e7117", "fusion_lat": 0.0, "lon": -77.03194783333333, "type": "electric_scooter", "fusion_lon": 0.0, "lat": 38.9163595}, {"rental_uris": {"android": "https://dc.lft.to/lastmile_qr_scan", "ios": "https://dc.lft.to/lastmile_qr_scan"}, "is_reserved": 0, "is_disabled": 0, "name": "625eaf2822cfbd4b5db0c2f61c619763", "bike_id": "625eaf2822cfbd4b5db0c2f61c619763", "fusion_lat": 0.0, "lon": -76.98858933333334, "type": "electric_scooter", "fusion_lon": 0.0, "lat": 38.8442225}, {"rental_uris": {"android": "https://dc.lft.to/lastmile_qr_scan", "ios": "https://dc.lft.to/lastmile_qr_scan"}, "is_reserved": 0, "is_disabled": 0, "name": "544a7fd4337fa1dc9f3e44d71de82037", "bike_id": "544a7fd4337fa1dc9f3e44d71de82037", "fusion_lat": 0.0, "lon": -76.99028616666666, "type": "electric_bike", "fusion_lon": 0.0, "lat": 38.835823500000004}, {"rental_uris": {"android": "https://dc.lft.to/lastmile_qr_scan", "ios": "https://dc.lft.to/lastmile_qr_scan"}, "is_reserved": 0, "is_disabled": 0, "name": "804b3d9ad79df3bea1e26d1f05755caa", "bike_id": "804b3d9ad79df3bea1e26d1f05755caa", "fusion_lat": 0.0, "lon": -77.021407, "type": "electric_bike", "fusion_lon": 0.0, "lat": 38.9481025}, {"rental_uris": {"android": "https://dc.lft.to/lastmile_qr_scan", "ios": "https://dc.lft.to/lastmile_qr_scan"}, "is_reserved": 0, "is_disabled": 0, "name": "da23558effcaa10964ceb183866ada5f", "bike_id": "da23558effcaa10964ceb183866ada5f", "fusion_lat": 0.0, "lon": -77.02143716666667, "type": "electric_bike", "fusion_lon": 0.0, "lat": 38.948092}, {"rental_uris": {"android": "https://dc.lft.to/lastmile_qr_scan", "ios": "https://dc.lft.to/lastmile_qr_scan"}, "is_reserved": 0, "is_disabled": 0, "name": "8c7bca78287a7099cab07583b41d0c20", "bike_id": "8c7bca78287a7099cab07583b41d0c20", "fusion_lat": 0.0, "lon": -77.02598783333333, "type": "electric_scooter", "fusion_lon": 0.0, "lat": 38.91693433333333}, {"rental_uris": {"android": "https://dc.lft.to/lastmile_qr_scan", "ios": "https://dc.lft.to/lastmile_qr_scan"}, "is_reserved": 0, "is_disabled": 0, "name": "18216ec95657950f536ee72451b07515", "bike_id": "18216ec95657950f536ee72451b07515", "fusion_lat": 0.0, "lon": -76.97222366666666, "type": "electric_bike", "fusion_lon": 0.0, "lat": 38.900348666666666}, {"rental_uris": {"android": "https://dc.lft.to/lastmile_qr_scan", "ios": "https://dc.lft.to/lastmile_qr_scan"}, "is_reserved": 0, "is_disabled": 0, "name": "947bd8d6277437c298bb16437fabf776", "bike_id": "947bd8d6277437c298bb16437fabf776", "fusion_lat": 0.0, "lon": -77.01962666666667, "type": "electric_scooter", "fusion_lon": 0.0, "lat": 38.923230833333335}, {"rental_uris": {"android": "https://dc.lft.to/lastmile_qr_scan", "ios": "https://dc.lft.to/lastmile_qr_scan"}, "is_reserved": 0, "is_disabled": 0, "name": "6cd728745ead42b9745027e44c4773f2", "bike_id": "6cd728745ead42b9745027e44c4773f2", "fusion_lat": 0.0, "lon": -77.02715683333334, "type": "electric_bike", "fusion_lon": 0.0, "lat": 38.931171}, {"rental_uris": {"android": "https://dc.lft.to/lastmile_qr_scan", "ios": "https://dc.lft.to/lastmile_qr_scan"}, "is_reserved": 0, "is_disabled": 0, "name": "88d7d06fe23db4806269aaf760545bdd", "bike_id": "88d7d06fe23db4806269aaf760545bdd", "fusion_lat": 0.0, "lon": -77.03368, "type": "electric_scooter", "fusion_lon": 0.0, "lat": 38.89970366666667}, {"rental_uris": {"android": "https://dc.lft.to/lastmile_qr_scan", "ios": "https://dc.lft.to/lastmile_qr_scan"}, "is_reserved": 0, "is_disabled": 0, "name": "71845c23ac0ac305a67658a28c7944df", "bike_id": "71845c23ac0ac305a67658a28c7944df", "fusion_lat": 0.0, "lon": -77.0256485, "type": "electric_scooter", "fusion_lon": 0.0, "lat": 38.887469}, {"rental_uris": {"android": "https://dc.lft.to/lastmile_qr_scan", "ios": "https://dc.lft.to/lastmile_qr_scan"}, "is_reserved": 0, "is_disabled": 0, "name": "bbb29090d335ed628d258845e4c5a30c", "bike_id": "bbb29090d335ed628d258845e4c5a30c", "fusion_lat": 0.0, "lon": -77.02380783333334, "type": "electric_scooter", "fusion_lon": 0.0, "lat": 38.9095915}, {"rental_uris": {"android": "https://dc.lft.to/lastmile_qr_scan", "ios": "https://dc.lft.to/lastmile_qr_scan"}, "is_reserved": 0, "is_disabled": 0, "name": "854009e15d6896bf80de4c04bcd5c7f9", "bike_id": "854009e15d6896bf80de4c04bcd5c7f9", "fusion_lat": 0.0, "lon": -76.97004366666667, "type": "electric_bike", "fusion_lon": 0.0, "lat": 38.89113433333333}, {"rental_uris": {"android": "https://dc.lft.to/lastmile_qr_scan", "ios": "https://dc.lft.to/lastmile_qr_scan"}, "is_reserved": 0, "is_disabled": 0, "name": "cd55dc085508d6a4707428d30a3bd65a", "bike_id": "cd55dc085508d6a4707428d30a3bd65a", "fusion_lat": 0.0, "lon": -77.034517, "type": "electric_scooter", "fusion_lon": 0.0, "lat": 38.9139675}, {"rental_uris": {"android": "https://dc.lft.to/lastmile_qr_scan", "ios": "https://dc.lft.to/lastmile_qr_scan"}, "is_reserved": 0, "is_disabled": 0, "name": "2c7f7db50e48d69727f0ff0d196c1ad2", "bike_id": "2c7f7db50e48d69727f0ff0d196c1ad2", "fusion_lat": 0.0, "lon": -77.01705, "type": "electric_scooter", "fusion_lon": 0.0, "lat": 38.904735}, {"rental_uris": {"android": "https://dc.lft.to/lastmile_qr_scan", "ios": "https://dc.lft.to/lastmile_qr_scan"}, "is_reserved": 0, "is_disabled": 0, "name": "74affeb210c5dc5973143d2dfbb808a2", "bike_id": "74affeb210c5dc5973143d2dfbb808a2", "fusion_lat": 0.0, "lon": -77.0122525, "type": "electric_scooter", "fusion_lon": 0.0, "lat": 38.89800683333333}, {"rental_uris": {"android": "https://dc.lft.to/lastmile_qr_scan", "ios": "https://dc.lft.to/lastmile_qr_scan"}, "is_reserved": 0, "is_disabled": 0, "name": "c251bbd154a84a1024ed01ce5731d408", "bike_id": "c251bbd154a84a1024ed01ce5731d408", "fusion_lat": 0.0, "lon": -77.02513, "type": "electric_scooter", "fusion_lon": 0.0, "lat": 38.920931833333334}, {"rental_uris": {"android": "https://dc.lft.to/lastmile_qr_scan", "ios": "https://dc.lft.to/lastmile_qr_scan"}, "is_reserved": 0, "is_disabled": 0, "name": "e8e41c74d56476e15ed9f8482d05c9a7", "bike_id": "e8e41c74d56476e15ed9f8482d05c9a7", "fusion_lat": 0.0, "lon": -77.01147816666666, "type": "electric_scooter", "fusion_lon": 0.0, "lat": 38.9296385}, {"rental_uris": {"android": "https://dc.lft.to/lastmile_qr_scan", "ios": "https://dc.lft.to/lastmile_qr_scan"}, "is_reserved": 0, "is_disabled": 0, "name": "7e8a9b35ab28afbe4c7d4b21c6422a77", "bike_id": "7e8a9b35ab28afbe4c7d4b21c6422a77", "fusion_lat": 0.0, "lon": -77.01811783333333, "type": "electric_scooter", "fusion_lon": 0.0, "lat": 38.95229366666667}, {"rental_uris": {"android": "https://dc.lft.to/lastmile_qr_scan", "ios": "https://dc.lft.to/lastmile_qr_scan"}, "is_reserved": 0, "is_disabled": 0, "name": "f6e8171cf8e0d9c6b39f2a8aeedce1f9", "bike_id": "f6e8171cf8e0d9c6b39f2a8aeedce1f9", "fusion_lat": 0.0, "lon": -76.90313433333333, "type": "electric_bike", "fusion_lon": 0.0, "lat": 39.002970166666664}, {"rental_uris": {"android": "https://dc.lft.to/lastmile_qr_scan", "ios": "https://dc.lft.to/lastmile_qr_scan"}, "is_reserved": 0, "is_disabled": 0, "name": "5d46e3d7e7f5ac5296a65c688fd82942", "bike_id": "5d46e3d7e7f5ac5296a65c688fd82942", "fusion_lat": 0.0, "lon": -77.05989383333333, "type": "electric_scooter", "fusion_lon": 0.0, "lat": 38.93822183333333}, {"rental_uris": {"android": "https://dc.lft.to/lastmile_qr_scan", "ios": "https://dc.lft.to/lastmile_qr_scan"}, "is_reserved": 0, "is_disabled": 0, "name": "ac2bee2121a2987d2ec3e96d15e957f0", "bike_id": "ac2bee2121a2987d2ec3e96d15e957f0", "fusion_lat": 0.0, "lon": -77.02972883333334, "type": "electric_scooter", "fusion_lon": 0.0, "lat": 38.90717333333333}, {"rental_uris": {"android": "https://dc.lft.to/lastmile_qr_scan", "ios": "https://dc.lft.to/lastmile_qr_scan"}, "is_reserved": 0, "is_disabled": 0, "name": "700f4eb117e49731d37c4a6864252b0b", "bike_id": "700f4eb117e49731d37c4a6864252b0b", "fusion_lat": 0.0, "lon": -77.05791933333333, "type": "electric_scooter", "fusion_lon": 0.0, "lat": 38.934785}, {"rental_uris": {"android": "https://dc.lft.to/lastmile_qr_scan", "ios": "https://dc.lft.to/lastmile_qr_scan"}, "is_reserved": 0, "is_disabled": 0, "name": "d45ec95b2831bf29a06d690c31b18719", "bike_id": "d45ec95b2831bf29a06d690c31b18719", "fusion_lat": 0.0, "lon": -77.02967483333333, "type": "electric_scooter", "fusion_lon": 0.0, "lat": 38.89232}, {"rental_uris": {"android": "https://dc.lft.to/lastmile_qr_scan", "ios": "https://dc.lft.to/lastmile_qr_scan"}, "is_reserved": 0, "is_disabled": 0, "name": "fb344097364779f80606250e687ac9d1", "bike_id": "fb344097364779f80606250e687ac9d1", "fusion_lat": 0.0, "lon": -77.02887733333333, "type": "electric_bike", "fusion_lon": 0.0, "lat": 38.995250166666665}, {"rental_uris": {"android": "https://dc.lft.to/lastmile_qr_scan", "ios": "https://dc.lft.to/lastmile_qr_scan"}, "is_reserved": 0, "is_disabled": 0, "name": "e9f94cdd48d54bbcd6f62965552424de", "bike_id": "e9f94cdd48d54bbcd6f62965552424de", "fusion_lat": 0.0, "lon": -77.0128935, "type": "electric_scooter", "fusion_lon": 0.0, "lat": 38.8984095}, {"rental_uris": {"android": "https://dc.lft.to/lastmile_qr_scan", "ios": "https://dc.lft.to/lastmile_qr_scan"}, "is_reserved": 0, "is_disabled": 0, "name": "9e15ea8c94882ade3a2f826cbd3f5f36", "bike_id": "9e15ea8c94882ade3a2f826cbd3f5f36", "fusion_lat": 0.0, "lon": -76.99844083333333, "type": "electric_scooter", "fusion_lon": 0.0, "lat": 38.9064535}, {"rental_uris": {"android": "https://dc.lft.to/lastmile_qr_scan", "ios": "https://dc.lft.to/lastmile_qr_scan"}, "is_reserved": 0, "is_disabled": 0, "name": "5af492a3e89e63107a1ce5ba42573511", "bike_id": "5af492a3e89e63107a1ce5ba42573511", "fusion_lat": 0.0, "lon": -76.98341366666666, "type": "electric_scooter", "fusion_lon": 0.0, "lat": 38.900942666666666}, {"rental_uris": {"android": "https://dc.lft.to/lastmile_qr_scan", "ios": "https://dc.lft.to/lastmile_qr_scan"}, "is_reserved": 0, "is_disabled": 0, "name": "94b6fdb31cec75113881961db8893b79", "bike_id": "94b6fdb31cec75113881961db8893b79", "fusion_lat": 0.0, "lon": -77.04926366666666, "type": "electric_scooter", "fusion_lon": 0.0, "lat": 38.89550166666667}, {"rental_uris": {"android": "https://dc.lft.to/lastmile_qr_scan", "ios": "https://dc.lft.to/lastmile_qr_scan"}, "is_reserved": 0, "is_disabled": 0, "name": "5933614abe0f0e8281517db897090044", "bike_id": "5933614abe0f0e8281517db897090044", "fusion_lat": 0.0, "lon": -77.05323283333334, "type": "electric_scooter", "fusion_lon": 0.0, "lat": 38.90426566666667}, {"rental_uris": {"android": "https://dc.lft.to/lastmile_qr_scan", "ios": "https://dc.lft.to/lastmile_qr_scan"}, "is_reserved": 0, "is_disabled": 0, "name": "f6726a7ad0ad236d38642fec8ad808ad", "bike_id": "f6726a7ad0ad236d38642fec8ad808ad", "fusion_lat": 0.0, "lon": -77.04106633333333, "type": "electric_scooter", "fusion_lon": 0.0, "lat": 38.91065116666667}, {"rental_uris": {"android": "https://dc.lft.to/lastmile_qr_scan", "ios": "https://dc.lft.to/lastmile_qr_scan"}, "is_reserved": 0, "is_disabled": 0, "name": "a9b18c3c2b72bf2335750390567679e3", "bike_id": "a9b18c3c2b72bf2335750390567679e3", "fusion_lat": 0.0, "lon": -77.01517916666667, "type": "electric_scooter", "fusion_lon": 0.0, "lat": 38.872235833333335}, {"rental_uris": {"android": "https://dc.lft.to/lastmile_qr_scan", "ios": "https://dc.lft.to/lastmile_qr_scan"}, "is_reserved": 0, "is_disabled": 0, "name": "45159dda7b83b788d24674fbb4c10508", "bike_id": "45159dda7b83b788d24674fbb4c10508", "fusion_lat": 0.0, "lon": -77.07258316666666, "type": "electric_scooter", "fusion_lon": 0.0, "lat": 38.93440716666667}, {"rental_uris": {"android": "https://dc.lft.to/lastmile_qr_scan", "ios": "https://dc.lft.to/lastmile_qr_scan"}, "is_reserved": 0, "is_disabled": 0, "name": "5a8b67500635a49cfdd52aae5d2ccff6", "bike_id": "5a8b67500635a49cfdd52aae5d2ccff6", "fusion_lat": 0.0, "lon": -77.002018, "type": "electric_scooter", "fusion_lon": 0.0, "lat": 38.9027775}, {"rental_uris": {"android": "https://dc.lft.to/lastmile_qr_scan", "ios": "https://dc.lft.to/lastmile_qr_scan"}, "is_reserved": 0, "is_disabled": 0, "name": "3f2b7f06cc814f2bacf9e81915e1a7f3", "bike_id": "3f2b7f06cc814f2bacf9e81915e1a7f3", "fusion_lat": 0.0, "lon": -77.02628766666666, "type": "electric_bike", "fusion_lon": 0.0, "lat": 38.962270833333335}, {"rental_uris": {"android": "https://dc.lft.to/lastmile_qr_scan", "ios": "https://dc.lft.to/lastmile_qr_scan"}, "is_reserved": 0, "is_disabled": 0, "name": "417b1274dd67a43729499018bf2cfb11", "bike_id": "417b1274dd67a43729499018bf2cfb11", "fusion_lat": 0.0, "lon": -77.04478366666666, "type": "electric_scooter", "fusion_lon": 0.0, "lat": 38.89916066666667}, {"rental_uris": {"android": "https://dc.lft.to/lastmile_qr_scan", "ios": "https://dc.lft.to/lastmile_qr_scan"}, "is_reserved": 0, "is_disabled": 0, "name": "9a3f94685058041d5290108f46a35865", "bike_id": "9a3f94685058041d5290108f46a35865", "fusion_lat": 0.0, "lon": -77.04555866666666, "type": "electric_scooter", "fusion_lon": 0.0, "lat": 38.903905}, {"rental_uris": {"android": "https://dc.lft.to/lastmile_qr_scan", "ios": "https://dc.lft.to/lastmile_qr_scan"}, "is_reserved": 0, "is_disabled": 0, "name": "e03af63f924f9b8e732b9d6508eaa984", "bike_id": "e03af63f924f9b8e732b9d6508eaa984", "fusion_lat": 0.0, "lon": -77.02925633333334, "type": "electric_scooter", "fusion_lon": 0.0, "lat": 38.898238666666664}, {"rental_uris": {"android": "https://dc.lft.to/lastmile_qr_scan", "ios": "https://dc.lft.to/lastmile_qr_scan"}, "is_reserved": 0, "is_disabled": 0, "name": "65927cd304948237a046c317f82fc194", "bike_id": "65927cd304948237a046c317f82fc194", "fusion_lat": 0.0, "lon": -77.065911, "type": "electric_scooter", "fusion_lon": 0.0, "lat": 38.90405116666667}, {"rental_uris": {"android": "https://dc.lft.to/lastmile_qr_scan", "ios": "https://dc.lft.to/lastmile_qr_scan"}, "is_reserved": 0, "is_disabled": 0, "name": "4907544f8c0dfc0d675f92c8e27a50da", "bike_id": "4907544f8c0dfc0d675f92c8e27a50da", "fusion_lat": 0.0, "lon": -76.98332466666666, "type": "electric_scooter", "fusion_lon": 0.0, "lat": 38.895439333333336}, {"rental_uris": {"android": "https://dc.lft.to/lastmile_qr_scan", "ios": "https://dc.lft.to/lastmile_qr_scan"}, "is_reserved": 0, "is_disabled": 0, "name": "4fe4bf9f375daa22f2a69857b6f6e4ba", "bike_id": "4fe4bf9f375daa22f2a69857b6f6e4ba", "fusion_lat": 0.0, "lon": -77.01070883333334, "type": "electric_scooter", "fusion_lon": 0.0, "lat": 38.918112666666666}, {"rental_uris": {"android": "https://dc.lft.to/lastmile_qr_scan", "ios": "https://dc.lft.to/lastmile_qr_scan"}, "is_reserved": 0, "is_disabled": 0, "name": "9c6919a4cc3041a1c39e063292671782", "bike_id": "9c6919a4cc3041a1c39e063292671782", "fusion_lat": 0.0, "lon": -77.01277483333334, "type": "electric_scooter", "fusion_lon": 0.0, "lat": 38.90952133333333}, {"rental_uris": {"android": "https://dc.lft.to/lastmile_qr_scan", "ios": "https://dc.lft.to/lastmile_qr_scan"}, "is_reserved": 0, "is_disabled": 0, "name": "f08798b91edd491c97941761da696ee3", "bike_id": "f08798b91edd491c97941761da696ee3", "fusion_lat": 0.0, "lon": -77.02206066666666, "type": "electric_scooter", "fusion_lon": 0.0, "lat": 38.9053595}, {"rental_uris": {"android": "https://dc.lft.to/lastmile_qr_scan", "ios": "https://dc.lft.to/lastmile_qr_scan"}, "is_reserved": 0, "is_disabled": 0, "name": "740a67971ef18a9c6362b47c6022c4d6", "bike_id": "740a67971ef18a9c6362b47c6022c4d6", "fusion_lat": 0.0, "lon": -76.954515, "type": "electric_scooter", "fusion_lon": 0.0, "lat": 38.883894}, {"rental_uris": {"android": "https://dc.lft.to/lastmile_qr_scan", "ios": "https://dc.lft.to/lastmile_qr_scan"}, "is_reserved": 0, "is_disabled": 0, "name": "15427c7a707f5f4de9e0394a7818e1e7", "bike_id": "15427c7a707f5f4de9e0394a7818e1e7", "fusion_lat": 0.0, "lon": -77.02215716666667, "type": "electric_scooter", "fusion_lon": 0.0, "lat": 38.899829}, {"rental_uris": {"android": "https://dc.lft.to/lastmile_qr_scan", "ios": "https://dc.lft.to/lastmile_qr_scan"}, "is_reserved": 0, "is_disabled": 0, "name": "712b398003c1d0bb235d9a65748a882d", "bike_id": "712b398003c1d0bb235d9a65748a882d", "fusion_lat": 0.0, "lon": -77.02205466666666, "type": "electric_scooter", "fusion_lon": 0.0, "lat": 38.89513316666667}, {"rental_uris": {"android": "https://dc.lft.to/lastmile_qr_scan", "ios": "https://dc.lft.to/lastmile_qr_scan"}, "is_reserved": 0, "is_disabled": 0, "name": "7056763fdff94d971008d46c5155438b", "bike_id": "7056763fdff94d971008d46c5155438b", "fusion_lat": 0.0, "lon": -77.024139, "type": "electric_scooter", "fusion_lon": 0.0, "lat": 38.896376}, {"rental_uris": {"android": "https://dc.lft.to/lastmile_qr_scan", "ios": "https://dc.lft.to/lastmile_qr_scan"}, "is_reserved": 0, "is_disabled": 0, "name": "36e676bd3c4e1c02fb6564ebe6378522", "bike_id": "36e676bd3c4e1c02fb6564ebe6378522", "fusion_lat": 0.0, "lon": -77.021878, "type": "electric_scooter", "fusion_lon": 0.0, "lat": 38.91486066666667}, {"rental_uris": {"android": "https://dc.lft.to/lastmile_qr_scan", "ios": "https://dc.lft.to/lastmile_qr_scan"}, "is_reserved": 0, "is_disabled": 0, "name": "94e411da9dda43da864157a8405c8322", "bike_id": "94e411da9dda43da864157a8405c8322", "fusion_lat": 0.0, "lon": -77.03458666666667, "type": "electric_scooter", "fusion_lon": 0.0, "lat": 38.908417166666666}, {"rental_uris": {"android": "https://dc.lft.to/lastmile_qr_scan", "ios": "https://dc.lft.to/lastmile_qr_scan"}, "is_reserved": 0, "is_disabled": 0, "name": "93d92bfd3db32dcd3c383f80a438c81e", "bike_id": "93d92bfd3db32dcd3c383f80a438c81e", "fusion_lat": 0.0, "lon": -77.02985683333333, "type": "electric_scooter", "fusion_lon": 0.0, "lat": 38.9012895}, {"rental_uris": {"android": "https://dc.lft.to/lastmile_qr_scan", "ios": "https://dc.lft.to/lastmile_qr_scan"}, "is_reserved": 0, "is_disabled": 0, "name": "db57b891d70816b5b69beab9dfe0a1c0", "bike_id": "db57b891d70816b5b69beab9dfe0a1c0", "fusion_lat": 0.0, "lon": -77.0451375, "type": "electric_scooter", "fusion_lon": 0.0, "lat": 38.91604266666667}, {"rental_uris": {"android": "https://dc.lft.to/lastmile_qr_scan", "ios": "https://dc.lft.to/lastmile_qr_scan"}, "is_reserved": 0, "is_disabled": 0, "name": "6e449483d8db8678bdeac3817b76b02e", "bike_id": "6e449483d8db8678bdeac3817b76b02e", "fusion_lat": 0.0, "lon": -76.99598083333333, "type": "electric_scooter", "fusion_lon": 0.0, "lat": 38.88428783333333}, {"rental_uris": {"android": "https://dc.lft.to/lastmile_qr_scan", "ios": "https://dc.lft.to/lastmile_qr_scan"}, "is_reserved": 0, "is_disabled": 0, "name": "9392bb6a781765ce185ebaba08e01f44", "bike_id": "9392bb6a781765ce185ebaba08e01f44", "fusion_lat": 0.0, "lon": -77.0297845, "type": "electric_scooter", "fusion_lon": 0.0, "lat": 38.9155565}, {"rental_uris": {"android": "https://dc.lft.to/lastmile_qr_scan", "ios": "https://dc.lft.to/lastmile_qr_scan"}, "is_reserved": 0, "is_disabled": 0, "name": "b1c86e072f95082aa349754a7a6df5e0", "bike_id": "b1c86e072f95082aa349754a7a6df5e0", "fusion_lat": 0.0, "lon": -77.04619133333334, "type": "electric_scooter", "fusion_lon": 0.0, "lat": 38.909716833333334}, {"rental_uris": {"android": "https://dc.lft.to/lastmile_qr_scan", "ios": "https://dc.lft.to/lastmile_qr_scan"}, "is_reserved": 0, "is_disabled": 0, "name": "d4c4b6ffa276c25a153629ced745755f", "bike_id": "d4c4b6ffa276c25a153629ced745755f", "fusion_lat": 0.0, "lon": -77.032542, "type": "electric_scooter", "fusion_lon": 0.0, "lat": 38.92058516666667}, {"rental_uris": {"android": "https://dc.lft.to/lastmile_qr_scan", "ios": "https://dc.lft.to/lastmile_qr_scan"}, "is_reserved": 0, "is_disabled": 0, "name": "d382a5d44c56ddd1714a5d02ac7941ee", "bike_id": "d382a5d44c56ddd1714a5d02ac7941ee", "fusion_lat": 0.0, "lon": -76.9870475, "type": "electric_scooter", "fusion_lon": 0.0, "lat": 38.8596305}, {"rental_uris": {"android": "https://dc.lft.to/lastmile_qr_scan", "ios": "https://dc.lft.to/lastmile_qr_scan"}, "is_reserved": 0, "is_disabled": 0, "name": "bf6dd990575c60070cbfd6fc9d966ab3", "bike_id": "bf6dd990575c60070cbfd6fc9d966ab3", "fusion_lat": 0.0, "lon": -76.97379333333333, "type": "electric_scooter", "fusion_lon": 0.0, "lat": 38.850044833333335}, {"rental_uris": {"android": "https://dc.lft.to/lastmile_qr_scan", "ios": "https://dc.lft.to/lastmile_qr_scan"}, "is_reserved": 0, "is_disabled": 0, "name": "b01a0a538dd628d0ce282655abcd6af2", "bike_id": "b01a0a538dd628d0ce282655abcd6af2", "fusion_lat": 0.0, "lon": -77.023794, "type": "electric_scooter", "fusion_lon": 0.0, "lat": 38.93711316666667}, {"rental_uris": {"android": "https://dc.lft.to/lastmile_qr_scan", "ios": "https://dc.lft.to/lastmile_qr_scan"}, "is_reserved": 0, "is_disabled": 0, "name": "7cd9c159e55fd7c4a93f7e7533fe7c24", "bike_id": "7cd9c159e55fd7c4a93f7e7533fe7c24", "fusion_lat": 0.0, "lon": -77.2317875, "type": "electric_bike", "fusion_lon": 0.0, "lat": 38.928949833333334}, {"rental_uris": {"android": "https://dc.lft.to/lastmile_qr_scan", "ios": "https://dc.lft.to/lastmile_qr_scan"}, "is_reserved": 0, "is_disabled": 0, "name": "4e261a6415b3f3227bc13b3c8fbd3223", "bike_id": "4e261a6415b3f3227bc13b3c8fbd3223", "fusion_lat": 0.0, "lon": -76.979612, "type": "electric_bike", "fusion_lon": 0.0, "lat": 38.920363333333334}, {"rental_uris": {"android": "https://dc.lft.to/lastmile_qr_scan", "ios": "https://dc.lft.to/lastmile_qr_scan"}, "is_reserved": 0, "is_disabled": 0, "name": "c1b9c151626f9cfe882c34cc1eeb4afe", "bike_id": "c1b9c151626f9cfe882c34cc1eeb4afe", "fusion_lat": 0.0, "lon": -77.03635133333333, "type": "electric_bike", "fusion_lon": 0.0, "lat": 38.927439},