{"data": {"bikes": [{"lat": 38.8634765, "is_disabled": 0, "type": "electric_scooter", "lon": -76.99003983333333, "bike_id": "67c6f036a0f74e508324254901723f0d", "fusion_lat": 0.0, "name": "67c6f036a0f74e508324254901723f0d", "is_reserved": 0, "rental_uris": {"android": "https://dc.lft.to/lastmile_qr_scan", "ios": "https://dc.lft.to/lastmile_qr_scan"}, "fusion_lon": 0.0}, {"lat": 38.84857383333333, "is_disabled": 0, "type": "electric_scooter", "lon": -76.97699283333333, "bike_id": "c5e8c4e604762af1685c1ad346e42644", "fusion_lat": 0.0, "name": "c5e8c4e604762af1685c1ad346e42644", "is_reserved": 0, "rental_uris": {"android": "https://dc.lft.to/lastmile_qr_scan", "ios": "https://dc.lft.to/lastmile_qr_scan"}, "fusion_lon": 0.0}, {"lat": 38.9124735, "is_disabled": 0, "type": "electric_scooter", "lon": -77.047688, "bike_id": "c73e5835335bb4fa738208cb7a97dd0d", "fusion_lat": 0.0, "name": "c73e5835335bb4fa738208cb7a97dd0d", "is_reserved": 0, "rental_uris": {"android": "https://dc.lft.to/lastmile_qr_scan", "ios": "https://dc.lft.to/lastmile_qr_scan"}, "fusion_lon": 0.0}, {"lat": 38.915518, "is_disabled": 0, "type": "electric_scooter", "lon": -77.0243035, "bike_id": "397c2390a4255aa567e6ff3c088da9e7", "fusion_lat": 0.0, "name": "397c2390a4255aa567e6ff3c088da9e7", "is_reserved": 0, "rental_uris": {"android": "https://dc.lft.to/lastmile_qr_scan", "ios": "https://dc.lft.to/lastmile_qr_scan"}, "fusion_lon": 0.0}, {"lat": 38.898806666666665, "is_disabled": 0, "type": "electric_scooter", "lon": -77.053382, "bike_id": "443aac80e70a0a1f9a45511c4fd68ec3", "fusion_lat": 0.0, "name": "443aac80e70a0a1f9a45511c4fd68ec3", "is_reserved": 0, "rental_uris": {"android": "https://dc.lft.to/lastmile_qr_scan", "ios": "https://dc.lft.to/lastmile_qr_scan"}, "fusion_lon": 0.0}, {"lat": 38.955493833333335, "is_disabled": 0, "type": "electric_bike", "lon": -76.93543633333333, "bike_id": "6074333947b7f8f817708e65cbfd8ce8", "fusion_lat": 0.0, "name": "6074333947b7f8f817708e65cbfd8ce8", "is_reserved": 0, "rental_uris": {"android": "https://dc.lft.to/lastmile_qr_scan", "ios": "https://dc.lft.to/lastmile_qr_scan"}, "fusion_lon": 0.0}, {"lat": 38.899153166666665, "is_disabled": 0, "type": "electric_scooter", "lon": -76.933815, "bike_id": "92578cea975a9e5fab7b038a3017166a", "fusion_lat": 0.0, "name": "92578cea975a9e5fab7b038a3017166a", "is_reserved": 0, "rental_uris": {"android": "https://dc.lft.to/lastmile_qr_scan", "ios": "https://dc.lft.to/lastmile_qr_scan"}, "fusion_lon": 0.0}, {"lat": 38.89042766666667, "is_disabled": 0, "type": "electric_scooter", "lon": -76.95140533333333, "bike_id": "9c17143907538d278bddbddc123a32f4", "fusion_lat": 0.0, "name": "9c17143907538d278bddbddc123a32f4", "is_reserved": 0, "rental_uris": {"android": "https://dc.lft.to/lastmile_qr_scan", "ios": "https://dc.lft.to/lastmile_qr_scan"}, "fusion_lon": 0.0}, {"lat": 38.916070833333336, "is_disabled": 0, "type": "electric_scooter", "lon": -77.0212925, "bike_id": "a32cc5b9e542c6540403b426c41f20b1", "fusion_lat": 0.0, "name": "a32cc5b9e542c6540403b426c41f20b1", "is_reserved": 0, "rental_uris": {"android": "https://dc.lft.to/lastmile_qr_scan", "ios": "https://dc.lft.to/lastmile_qr_scan"}, "fusion_lon": 0.0}, {"lat": 38.9065145, "is_disabled": 0, "type": "electric_scooter", "lon": -77.0259755, "bike_id": "788baab570c2b4996c9dcb0b7c66fb7b", "fusion_lat": 0.0, "name": "788baab570c2b4996c9dcb0b7c66fb7b", "is_reserved": 0, "rental_uris": {"android": "https://dc.lft.to/lastmile_qr_scan", "ios": "https://dc.lft.to/lastmile_qr_scan"}, "fusion_lon": 0.0}, {"lat": 38.869057166666664, "is_disabled": 0, "type": "electric_bike", "lon": -77.13183116666667, "bike_id": "2ce20ee6764cc5a0ab7fb72f6a8a5e9f", "fusion_lat": 0.0, "name": "2ce20ee6764cc5a0ab7fb72f6a8a5e9f", "is_reserved": 0, "rental_uris": {"android": "https://dc.lft.to/lastmile_qr_scan", "ios": "https://dc.lft.to/lastmile_qr_scan"}, "fusion_lon": 0.0}, {"lat": 38.92004266666667, "is_disabled": 0, "type": "electric_scooter", "lon": -77.02060233333333, "bike_id": "863e053b22f43dcbf3234e4a7035582a", "fusion_lat": 0.0, "name": "863e053b22f43dcbf3234e4a7035582a", "is_reserved": 0, "rental_uris": {"android": "https://dc.lft.to/lastmile_qr_scan", "ios": "https://dc.lft.to/lastmile_qr_scan"}, "fusion_lon": 0.0}, {"lat": 38.917821, "is_disabled": 0, "type": "electric_scooter", "lon": -77.0231535, "bike_id": "f503a82855b72f3b5abccd037683ea17", "fusion_lat": 0.0, "name": "f503a82855b72f3b5abccd037683ea17", "is_reserved": 0, "rental_uris": {"android": "https://dc.lft.to/lastmile_qr_scan", "ios": "https://dc.lft.to/lastmile_qr_scan"}, "fusion_lon": 0.0}, {"lat": 38.90774016666667, "is_disabled": 0, "type": "electric_scooter", "lon": -77.04255583333334, "bike_id": "2af7b91806247a79bffca6a5b2405657", "fusion_lat": 0.0, "name": "2af7b91806247a79bffca6a5b2405657", "is_reserved": 0, "rental_uris": {"android": "https://dc.lft.to/lastmile_qr_scan", "ios": "https://dc.lft.to/lastmile_qr_scan"}, "fusion_lon": 0.0}, {"lat": 38.89719866666667, "is_disabled": 0, "type": "electric_scooter", "lon": -77.00799566666667, "bike_id": "33ada516c7e7c2ef197d3c4c42064bed", "fusion_lat": 0.0, "name": "33ada516c7e7c2ef197d3c4c42064bed", "is_reserved": 0, "rental_uris": {"android": "https://dc.lft.to/lastmile_qr_scan", "ios": "https://dc.lft.to/lastmile_qr_scan"}, "fusion_lon": 0.0}, {"lat": 38.9057895, "is_disabled": 0, "type": "electric_scooter", "lon": -77.02959366666667, "bike_id": "aed2b69f2ca4b19c463636529c46c545", "fusion_lat": 0.0, "name": "aed2b69f2ca4b19c463636529c46c545", "is_reserved": 0, "rental_uris": {"android": "https://dc.lft.to/lastmile_qr_scan", "ios": "https://dc.lft.to/lastmile_qr_scan"}, "fusion_lon": 0.0}, {"lat": 38.907254333333334, "is_disabled": 0, "type": "electric_scooter", "lon": -77.04350333333333, "bike_id": "4ca7a72f1118622982845ddee5d71a76", "fusion_lat": 0.0, "name": "4ca7a72f1118622982845ddee5d71a76", "is_reserved": 0, "rental_uris": {"android": "https://dc.lft.to/lastmile_qr_scan", "ios": "https://dc.lft.to/lastmile_qr_scan"}, "fusion_lon": 0.0}, {"lat": 38.9104505, "is_disabled": 0, "type": "electric_scooter", "lon": -77.01514583333334, "bike_id": "b7e8c9eee3e54227f27bd43017c4953d", "fusion_lat": 0.0, "name": "b7e8c9eee3e54227f27bd43017c4953d", "is_reserved": 0, "rental_uris": {"android": "https://dc.lft.to/lastmile_qr_scan", "ios": "https://dc.lft.to/lastmile_qr_scan"}, "fusion_lon": 0.0}, {"lat": 38.897343166666666, "is_disabled": 0, "type": "electric_scooter", "lon": -77.00751533333333, "bike_id": "bac4ce0f5c5f43ec29ad4d96663821cb", "fusion_lat": 0.0, "name": "bac4ce0f5c5f43ec29ad4d96663821cb", "is_reserved": 0, "rental_uris": {"android": "https://dc.lft.to/lastmile_qr_scan", "ios": "https://dc.lft.to/lastmile_qr_scan"}, "fusion_lon": 0.0}, {"lat": 38.954043666666664, "is_disabled": 0, "type": "electric_scooter", "lon": -77.0363335, "bike_id": "f3d1d3e57bc7352689cfafc90bccebe8", "fusion_lat": 0.0, "name": "f3d1d3e57bc7352689cfafc90bccebe8", "is_reserved": 0, "rental_uris": {"android": "https://dc.lft.to/lastmile_qr_scan", "ios": "https://dc.lft.to/lastmile_qr_scan"}, "fusion_lon": 0.0}, {"lat": 38.8787845, "is_disabled": 0, "type": "electric_scooter", "lon": -77.02326616666667, "bike_id": "078a21a408465475e4fad8fa8ca1c678", "fusion_lat": 0.0, "name": "078a21a408465475e4fad8fa8ca1c678", "is_reserved": 0, "rental_uris": {"android": "https://dc.lft.to/lastmile_qr_scan", "ios": "https://dc.lft.to/lastmile_qr_scan"}, "fusion_lon": 0.0}, {"lat": 38.9220555, "is_disabled": 0, "type": "electric_scooter", "lon": -77.04007616666667, "bike_id": "a7d3bb2ea99e9631f6d6ae1a677f3485", "fusion_lat": 0.0, "name": "a7d3bb2ea99e9631f6d6ae1a677f3485", "is_reserved": 0, "rental_uris": {"android": "https://dc.lft.to/lastmile_qr_scan", "ios": "https://dc.lft.to/lastmile_qr_scan"}, "fusion_lon": 0.0}, {"lat": 38.945832833333334, "is_disabled": 0, "type": "electric_scooter", "lon": -77.06474666666666, "bike_id": "a20d263bb7041c539009698e261ef439", "fusion_lat": 0.0, "name": "a20d263bb7041c539009698e261ef439", "is_reserved": 0, "rental_uris": {"android": "https://dc.lft.to/lastmile_qr_scan", "ios": "https://dc.lft.to/lastmile_qr_scan"}, "fusion_lon": 0.0}, {"lat": 38.903812333333335, "is_disabled": 0, "type": "electric_scooter", "lon": -77.04356566666667, "bike_id": "09b6abb41a95f83fa2745394495a55e2", "fusion_lat": 0.0, "name": "09b6abb41a95f83fa2745394495a55e2", "is_reserved": 0, "rental_uris": {"android": "https://dc.lft.to/lastmile_qr_scan", "ios": "https://dc.lft.to/lastmile_qr_scan"}, "fusion_lon": 0.0}, {"lat": 38.8556875, "is_disabled": 0, "type": "electric_bike", "lon": -77.11145033333334, "bike_id": "2a81482ab766b01ac2783fd3340fccf9", "fusion_lat": 0.0, "name": "2a81482ab766b01ac2783fd3340fccf9", "is_reserved": 0, "rental_uris": {"android": "https://dc.lft.to/lastmile_qr_scan", "ios": "https://dc.lft.to/lastmile_qr_scan"}, "fusion_lon": 0.0}, {"lat": 38.905267333333335, "is_disabled": 0, "type": "electric_scooter", "lon": -77.06243866666667, "bike_id": "2b1c318f85eb005efac1e8cae116f9b4", "fusion_lat": 0.0, "name": "2b1c318f85eb005efac1e8cae116f9b4", "is_reserved": 0, "rental_uris": {"android": "https://dc.lft.to/lastmile_qr_scan", "ios": "https://dc.lft.to/lastmile_qr_scan"}, "fusion_lon": 0.0}, {"lat": 38.93323933333333, "is_disabled": 0, "type": "electric_scooter", "lon": -77.04369066666666, "bike_id": "8f478430ed13ec7aa4fe624c2721fbfc", "fusion_lat": 0.0, "name": "8f478430ed13ec7aa4fe624c2721fbfc", "is_reserved": 0, "rental_uris": {"android": "https://dc.lft.to/lastmile_qr_scan", "ios": "https://dc.lft.to/lastmile_qr_scan"}, "fusion_lon": 0.0}, {"lat": 38.8921695, "is_disabled": 0, "type": "electric_scooter", "lon": -77.02626466666666, "bike_id": "2ff7b7528cbe02c2ee639a19302492f7", "fusion_lat": 0.0, "name": "2ff7b7528cbe02c2ee639a19302492f7", "is_reserved": 0, "rental_uris": {"android": "https://dc.lft.to/lastmile_qr_scan", "ios": "https://dc.lft.to/lastmile_qr_scan"}, "fusion_lon": 0.0}, {"lat": 38.91949666666667, "is_disabled": 0, "type": "electric_scooter", "lon": -76.9807925, "bike_id": "98b909baacff17f26ace8891521be823", "fusion_lat": 0.0, "name": "98b909baacff17f26ace8891521be823", "is_reserved": 0, "rental_uris": {"android": "https://dc.lft.to/lastmile_qr_scan", "ios": "https://dc.lft.to/lastmile_qr_scan"}, "fusion_lon": 0.0}, {"lat": 38.902629166666664, "is_disabled": 0, "type": "electric_scooter", "lon": -77.02825066666666, "bike_id": "2749d8f94bfb61e0e3b09a3a7f54aaef", "fusion_lat": 0.0, "name": "2749d8f94bfb61e0e3b09a3a7f54aaef", "is_reserved": 0, "rental_uris": {"android": "https://dc.lft.to/lastmile_qr_scan", "ios": "https://dc.lft.to/lastmile_qr_scan"}, "fusion_lon": 0.0}, {"lat": 38.9180835, "is_disabled": 0, "type": "electric_scooter", "lon": -77.034383, "bike_id": "ae64af2ddbfaebbe17737b7beeb81e14", "fusion_lat": 0.0, "name": "ae64af2ddbfaebbe17737b7beeb81e14", "is_reserved": 0, "rental_uris": {"android": "https://dc.lft.to/lastmile_qr_scan", "ios": "https://dc.lft.to/lastmile_qr_scan"}, "fusion_lon": 0.0}, {"lat": 38.917357333333335, "is_disabled": 0, "type": "electric_scooter", "lon": -77.0689455, "bike_id": "2b74b95c9006e92e88ee08d6530cab2e", "fusion_lat": 0.0, "name": "2b74b95c9006e92e88ee08d6530cab2e", "is_reserved": 0, "rental_uris": {"android": "https://dc.lft.to/lastmile_qr_scan", "ios": "https://dc.lft.to/lastmile_qr_scan"}, "fusion_lon": 0.0}, {"lat": 38.918805666666664, "is_disabled": 0, "type": "electric_scooter", "lon": -77.0404565, "bike_id": "33f80d363ef5dd5fcdf57a10f9d9ba1f", "fusion_lat": 0.0, "name": "33f80d363ef5dd5fcdf57a10f9d9ba1f", "is_reserved": 0, "rental_uris": {"android": "https://dc.lft.to/lastmile_qr_scan", "ios": "https://dc.lft.to/lastmile_qr_scan"}, "fusion_lon": 0.0}, {"lat": 38.9133905, "is_disabled": 0, "type": "electric_scooter", "lon": -77.00226533333333, "bike_id": "c496b3e3a2f3fb9bdec73de367f4cbe7", "fusion_lat": 0.0, "name": "c496b3e3a2f3fb9bdec73de367f4cbe7", "is_reserved": 0, "rental_uris": {"android": "https://dc.lft.to/lastmile_qr_scan", "ios": "https://dc.lft.to/lastmile_qr_scan"}, "fusion_lon": 0.0}, {"lat": 38.91111183333334, "is_disabled": 0, "type": "electric_scooter", "lon": -77.0321275, "bike_id": "843a4fc0e62158ecefab91721df1619f", "fusion_lat": 0.0, "name": "843a4fc0e62158ecefab91721df1619f", "is_reserved": 0, "rental_uris": {"android": "https://dc.lft.to/lastmile_qr_scan", "ios": "https://dc.lft.to/lastmile_qr_scan"}, "fusion_lon": 0.0}, {"lat": 38.923400666666666, "is_disabled": 0, "type": "electric_scooter", "lon": -77.01903916666667, "bike_id": "68d3df4defc0207a9fb9ca69252007b2", "fusion_lat": 0.0, "name": "68d3df4defc0207a9fb9ca69252007b2", "is_reserved": 0, "rental_uris": {"android": "https://dc.lft.to/lastmile_qr_scan", "ios": "https://dc.lft.to/lastmile_qr_scan"}, "fusion_lon": 0.0}, {"lat": 38.89895933333333, "is_disabled": 0, "type": "electric_scooter", "lon": -77.0219655, "bike_id": "7b88ce2520e9ab90b223f29dd1056b31", "fusion_lat": 0.0, "name": "7b88ce2520e9ab90b223f29dd1056b31", "is_reserved": 0, "rental_uris": {"android": "https://dc.lft.to/lastmile_qr_scan", "ios": "https://dc.lft.to/lastmile_qr_scan"}, "fusion_lon": 0.0}, {"lat": 38.91719616666666, "is_disabled": 0, "type": "electric_scooter", "lon": -77.022927, "bike_id": "1e044f2e435047857f7ed2d7b646f7ee", "fusion_lat": 0.0, "name": "1e044f2e435047857f7ed2d7b646f7ee", "is_reserved": 0, "rental_uris": {"android": "https://dc.lft.to/lastmile_qr_scan", "ios": "https://dc.lft.to/lastmile_qr_scan"}, "fusion_lon": 0.0}, {"lat": 38.8833435, "is_disabled": 0, "type": "electric_scooter", "lon": -77.031532, "bike_id": "1f4c251ae2702814c43459997452715a", "fusion_lat": 0.0, "name": "1f4c251ae2702814c43459997452715a", "is_reserved": 0, "rental_uris": {"android": "https://dc.lft.to/lastmile_qr_scan", "ios": "https://dc.lft.to/lastmile_qr_scan"}, "fusion_lon": 0.0}, {"lat": 38.857895, "is_disabled": 0, "type": "electric_scooter", "lon": -76.987186, "bike_id": "df2043a8f9a0a78dbe19c5a5a26c6c3f", "fusion_lat": 0.0, "name": "df2043a8f9a0a78dbe19c5a5a26c6c3f", "is_reserved": 0, "rental_uris": {"android": "https://dc.lft.to/lastmile_qr_scan", "ios": "https://dc.lft.to/lastmile_qr_scan"}, "fusion_lon": 0.0}, {"lat": 38.912207333333335, "is_disabled": 0, "type": "electric_scooter", "lon": -77.04510133333333, "bike_id": "f818ae0254b3c9f4b41f69e512016159", "fusion_lat": 0.0, "name": "f818ae0254b3c9f4b41f69e512016159", "is_reserved": 0, "rental_uris": {"android": "https://dc.lft.to/lastmile_qr_scan", "ios": "https://dc.lft.to/lastmile_qr_scan"}, "fusion_lon": 0.0}, {"lat": 38.875272833333334, "is_disabled": 0, "type": "electric_scooter", "lon": -77.01762666666667, "bike_id": "b449b6d4afe85dc601d94b41d99d078c", "fusion_lat": 0.0, "name": "b449b6d4afe85dc601d94b41d99d078c", "is_reserved": 0, "rental_uris": {"android": "https://dc.lft.to/lastmile_qr_scan", "ios": "https://dc.lft.to/lastmile_qr_scan"}, "fusion_lon": 0.0}, {"lat": 38.92243533333333, "is_disabled": 0, "type": "electric_scooter", "lon": -77.0425235, "bike_id": "38c430e71b2396cb19e366e86c9f1a53", "fusion_lat": 0.0, "name": "38c430e71b2396cb19e366e86c9f1a53", "is_reserved": 0, "rental_uris": {"android": "https://dc.lft.to/lastmile_qr_scan", "ios": "https://dc.lft.to/lastmile_qr_scan"}, "fusion_lon": 0.0}, {"lat": 38.91799283333334, "is_disabled": 0, "type": "electric_scooter", "lon": -77.026965, "bike_id": "8d54e2e64320cee32b29fcbab5028c37", "fusion_lat": 0.0, "name": "8d54e2e64320cee32b29fcbab5028c37", "is_reserved": 0, "rental_uris": {"android": "https://dc.lft.to/lastmile_qr_scan", "ios": "https://dc.lft.to/lastmile_qr_scan"}, "fusion_lon": 0.0}, {"lat": 38.92392, "is_disabled": 0, "type": "electric_scooter", "lon": -77.000659, "bike_id": "0044b819995c4e898ee905906226727a", "fusion_lat": 0.0, "name": "0044b819995c4e898ee905906226727a", "is_reserved": 0, "rental_uris": {"android": "https://dc.lft.to/lastmile_qr_scan", "ios": "https://dc.lft.to/lastmile_qr_scan"}, "fusion_lon": 0.0}, {"lat": 38.80045466666667, "is_disabled": 0, "type": "electric_bike", "lon": -77.06294566666666, "bike_id": "fdf9210c4c188f1b9b5591e4a173ae74", "fusion_lat": 0.0, "name": "fdf9210c4c188f1b9b5591e4a173ae74", "is_reserved": 0, "rental_uris": {"android": "https://dc.lft.to/lastmile_qr_scan", "ios": "https://dc.lft.to/lastmile_qr_scan"}, "fusion_lon": 0.0}, {"lat": 38.9072505, "is_disabled": 0, "type": "electric_scooter", "lon": -77.02981433333333, "bike_id": "b19025b2fea982fdfc1f4002c86c0c31", "fusion_lat": 0.0, "name": "b19025b2fea982fdfc1f4002c86c0c31", "is_reserved": 0, "rental_uris": {"android": "https://dc.lft.to/lastmile_qr_scan", "ios": "https://dc.lft.to/lastmile_qr_scan"}, "fusion_lon": 0.0}, {"lat": 38.885008166666665, "is_disabled": 0, "type": "electric_scooter", "lon": -77.00709183333333, "bike_id": "2bc62d9ab7b9abac89bc2b9a3eb1952e", "fusion_lat": 0.0, "name": "2bc62d9ab7b9abac89bc2b9a3eb1952e", "is_reserved": 0, "rental_uris": {"android": "https://dc.lft.to/lastmile_qr_scan", "ios": "https://dc.lft.to/lastmile_qr_scan"}, "fusion_lon": 0.0}, {"lat": 38.8664635, "is_disabled": 0, "type": "electric_scooter", "lon": -76.9888485, "bike_id": "1c16e2b381c6d685802ffae674715617", "fusion_lat": 0.0, "name": "1c16e2b381c6d685802ffae674715617", "is_reserved": 0, "rental_uris": {"android": "https://dc.lft.to/lastmile_qr_scan", "ios": "https://dc.lft.to/lastmile_qr_scan"}, "fusion_lon": 0.0}, {"lat": 38.941738, "is_disabled": 0, "type": "electric_bike", "lon": -76.9848705, "bike_id": "965ae30adde5c01b184023fecf617c8d", "fusion_lat": 0.0, "name": "965ae30adde5c01b184023fecf617c8d", "is_reserved": 0, "rental_uris": {"android": "https://dc.lft.to/lastmile_qr_scan", "ios": "https://dc.lft.to/lastmile_qr_scan"}, "fusion_lon": 0.0}, {"lat": 38.91253016666667, "is_disabled": 0, "type": "electric_scooter", "lon": -77.03213066666666, "bike_id": "915156832ee74fc2ff93df2dbedc64e7", "fusion_lat": 0.0, "name": "915156832ee74fc2ff93df2dbedc64e7", "is_reserved": 0, "rental_uris": {"android": "https://dc.lft.to/lastmile_qr_scan", "ios": "https://dc.lft.to/lastmile_qr_scan"}, "fusion_lon": 0.0}, {"lat": 38.88708416666667, "is_disabled": 0, "type": "electric_scooter", "lon": -77.01302283333334, "bike_id": "d201784cd198015e37fa7e2e8257685a", "fusion_lat": 0.0, "name": "d201784cd198015e37fa7e2e8257685a", "is_reserved": 0, "rental_uris": {"android": "https://dc.lft.to/lastmile_qr_scan", "ios": "https://dc.lft.to/lastmile_qr_scan"}, "fusion_lon": 0.0}, {"lat": 38.91689133333333, "is_disabled": 0, "type": "electric_scooter", "lon": -77.04275116666666, "bike_id": "21b3228574ff4015587c7f0f2b870965", "fusion_lat": 0.0, "name": "21b3228574ff4015587c7f0f2b870965", "is_reserved": 0, "rental_uris": {"android": "https://dc.lft.to/lastmile_qr_scan", "ios": "https://dc.lft.to/lastmile_qr_scan"}, "fusion_lon": 0.0}, {"lat": 38.935963, "is_disabled": 0, "type": "electric_scooter", "lon": -77.0352825, "bike_id": "ac66becba4e1aa273f13d187b2989e5f", "fusion_lat": 0.0, "name": "ac66becba4e1aa273f13d187b2989e5f", "is_reserved": 0, "rental_uris": {"android": "https://dc.lft.to/lastmile_qr_scan", "ios": "https://dc.lft.to/lastmile_qr_scan"}, "fusion_lon": 0.0}, {"lat": 38.9169925, "is_disabled": 0, "type": "electric_scooter", "lon": -77.03761966666667, "bike_id": "fe0107a3911662548d1ee277cfba1247", "fusion_lat": 0.0, "name": "fe0107a3911662548d1ee277cfba1247", "is_reserved": 0, "rental_uris": {"android": "https://dc.lft.to/lastmile_qr_scan", "ios": "https://dc.lft.to/lastmile_qr_scan"}, "fusion_lon": 0.0}, {"lat": 38.884476, "is_disabled": 0, "type": "electric_bike", "lon": -77.096634, "bike_id": "97afc4e74143a2fe9bcf9b54a5b2d4cd", "fusion_lat": 0.0, "name": "97afc4e74143a2fe9bcf9b54a5b2d4cd", "is_reserved": 0, "rental_uris": {"android": "https://dc.lft.to/lastmile_qr_scan", "ios": "https://dc.lft.to/lastmile_qr_scan"}, "fusion_lon": 0.0}, {"lat": 38.90684433333333, "is_disabled": 0, "type": "electric_scooter", "lon": -77.0238845, "bike_id": "e377d7e149998954cf424f506610e166", "fusion_lat": 0.0, "name": "e377d7e149998954cf424f506610e166", "is_reserved": 0, "rental_uris": {"android": "https://dc.lft.to/lastmile_qr_scan", "ios": "https://dc.lft.to/lastmile_qr_scan"}, "fusion_lon": 0.0}, {"lat": 38.9003615, "is_disabled": 0, "type": "electric_scooter", "lon": -77.00591416666667, "bike_id": "e24f0fa91be34bd4ca093f6c73e2b4f7", "fusion_lat": 0.0, "name": "e24f0fa91be34bd4ca093f6c73e2b4f7", "is_reserved": 0, "rental_uris": {"android": "https://dc.lft.to/lastmile_qr_scan", "ios": "https://dc.lft.to/lastmile_qr_scan"}, "fusion_lon": 0.0}, {"lat": 38.911117833333336, "is_disabled": 0, "type": "electric_scooter", "lon": -77.03834033333334, "bike_id": "21be104d9aaed5542a87e1d5a28bf794", "fusion_lat": 0.0, "name": "21be104d9aaed5542a87e1d5a28bf794", "is_reserved": 0, "rental_uris": {"android": "https://dc.lft.to/lastmile_qr_scan", "ios": "https://dc.lft.to/lastmile_qr_scan"}, "fusion_lon": 0.0}, {"lat": 38.89741333333333, "is_disabled": 0, "type": "electric_scooter", "lon": -77.04805233333333, "bike_id": "bddc8f5a6b1be522f2de45b305fb6300", "fusion_lat": 0.0, "name": "bddc8f5a6b1be522f2de45b305fb6300", "is_reserved": 0, "rental_uris": {"android": "https://dc.lft.to/lastmile_qr_scan", "ios": "https://dc.lft.to/lastmile_qr_scan"}, "fusion_lon": 0.0}, {"lat": 38.924622166666666, "is_disabled": 0, "type": "electric_bike", "lon": -77.20840233333334, "bike_id": "6a571acfb08442b4c686e9bd156bbf6b", "fusion_lat": 0.0, "name": "6a571acfb08442b4c686e9bd156bbf6b", "is_reserved": 0, "rental_uris": {"android": "https://dc.lft.to/lastmile_qr_scan", "ios": "https://dc.lft.to/lastmile_qr_scan"}, "fusion_lon": 0.0}, {"lat": 38.90592566666667, "is_disabled": 0, "type": "electric_scooter", "lon": -77.0403145, "bike_id": "98384a7bc2a40a14125777fa994b87a2", "fusion_lat": 0.0, "name": "98384a7bc2a40a14125777fa994b87a2", "is_reserved": 0, "rental_uris": {"android": "https://dc.lft.to/lastmile_qr_scan", "ios": "https://dc.lft.to/lastmile_qr_scan"}, "fusion_lon": 0.0}, {"lat": 38.842552833333336, "is_disabled": 0, "type": "electric_bike", "lon": -77.0583455, "bike_id": "461425743b8670f35e64a45feef7ebb5", "fusion_lat": 0.0, "name": "461425743b8670f35e64a45feef7ebb5", "is_reserved": 0, "rental_uris": {"android": "https://dc.lft.to/lastmile_qr_scan", "ios": "https://dc.lft.to/lastmile_qr_scan"}, "fusion_lon": 0.0}, {"lat": 38.91118783333334, "is_disabled": 0, "type": "electric_scooter", "lon": -77.003183, "bike_id": "1d2fe3a5f535b3482f469255d981b048", "fusion_lat": 0.0, "name": "1d2fe3a5f535b3482f469255d981b048", "is_reserved": 0, "rental_uris": {"android": "https://dc.lft.to/lastmile_qr_scan", "ios": "https://dc.lft.to/lastmile_qr_scan"}, "fusion_lon": 0.0}, {"lat": 38.91766366666667, "is_disabled": 0, "type": "electric_scooter", "lon": -77.003611, "bike_id": "28e61f27259d24716acbfb0d4e72fd10", "fusion_lat": 0.0, "name": "28e61f27259d24716acbfb0d4e72fd10", "is_reserved": 0, "rental_uris": {"android": "https://dc.lft.to/lastmile_qr_scan", "ios": "https://dc.lft.to/lastmile_qr_scan"}, "fusion_lon": 0.0}, {"lat": 38.909760666666664, "is_disabled": 0, "type": "electric_scooter", "lon": -77.034435, "bike_id": "dbdc6e5d1c5bd9b177e71dcb343930ff", "fusion_lat": 0.0, "name": "dbdc6e5d1c5bd9b177e71dcb343930ff", "is_reserved": 0, "rental_uris": {"android": "https://dc.lft.to/lastmile_qr_scan", "ios": "https://dc.lft.to/lastmile_qr_scan"}, "fusion_lon": 0.0}, {"lat": 38.87010983333333, "is_disabled": 0, "type": "electric_bike", "lon": -76.96022216666667, "bike_id": "bc2914d791354dd5af4d2c2abbd7627b", "fusion_lat": 0.0, "name": "bc2914d791354dd5af4d2c2abbd7627b", "is_reserved": 0, "rental_uris": {"android": "https://dc.lft.to/lastmile_qr_scan", "ios": "https://dc.lft.to/lastmile_qr_scan"}, "fusion_lon": 0.0}, {"lat": 38.9006495, "is_disabled": 0, "type": "electric_scooter", "lon": -77.00207833333333, "bike_id": "1c5f01a04a41ad9356f5c040cfafe2c9", "fusion_lat": 0.0, "name": "1c5f01a04a41ad9356f5c040cfafe2c9", "is_reserved": 0, "rental_uris": {"android": "https://dc.lft.to/lastmile_qr_scan", "ios": "https://dc.lft.to/lastmile_qr_scan"}, "fusion_lon": 0.0}, {"lat": 38.908636333333334, "is_disabled": 0, "type": "electric_scooter", "lon": -77.04589233333333, "bike_id": "00010bb479316c6ba8a3622ccc36887a", "fusion_lat": 0.0, "name": "00010bb479316c6ba8a3622ccc36887a", "is_reserved": 0, "rental_uris": {"android": "https://dc.lft.to/lastmile_qr_scan", "ios": "https://dc.lft.to/lastmile_qr_scan"}, "fusion_lon": 0.0}, {"lat": 38.836767333333334, "is_disabled": 0, "type": "electric_scooter", "lon": -77.0057435, "bike_id": "e19cc3d778f4c1929b9f2d5c33bb5007", "fusion_lat": 0.0, "name": "e19cc3d778f4c1929b9f2d5c33bb5007", "is_reserved": 0, "rental_uris": {"android": "https://dc.lft.to/lastmile_qr_scan", "ios": "https://dc.lft.to/lastmile_qr_scan"}, "fusion_lon": 0.0}, {"lat": 38.89752816666667, "is_disabled": 0, "type": "electric_scooter", "lon": -77.00744383333334, "bike_id": "501d0e8ad29dcb35dc0c24af7d5ce215", "fusion_lat": 0.0, "name": "501d0e8ad29dcb35dc0c24af7d5ce215", "is_reserved": 0, "rental_uris": {"android": "https://dc.lft.to/lastmile_qr_scan", "ios": "https://dc.lft.to/lastmile_qr_scan"}, "fusion_lon": 0.0}, {"lat": 38.90758116666667, "is_disabled": 0, "type": "electric_scooter", "lon": -77.0344905, "bike_id": "957cca4b9c2a76042a1c2ba956eedc42", "fusion_lat": 0.0, "name": "957cca4b9c2a76042a1c2ba956eedc42", "is_reserved": 0, "rental_uris": {"android": "https://dc.lft.to/lastmile_qr_scan", "ios": "https://dc.lft.to/lastmile_qr_scan"}, "fusion_lon": 0.0}, {"lat": 38.900329666666664, "is_disabled": 0, "type": "electric_scooter", "lon": -76.98877266666666, "bike_id": "8a62cb663b032bf553dfc1ba2b7b92be", "fusion_lat": 0.0, "name": "8a62cb663b032bf553dfc1ba2b7b92be", "is_reserved": 0, "rental_uris": {"android": "https://dc.lft.to/lastmile_qr_scan", "ios": "https://dc.lft.to/lastmile_qr_scan"}, "fusion_lon": 0.0}, {"lat": 38.90848066666667, "is_disabled": 0, "type": "electric_scooter", "lon": -77.04770016666667, "bike_id": "5a84af35168742f2d90effeff581b23a", "fusion_lat": 0.0, "name": "5a84af35168742f2d90effeff581b23a", "is_reserved": 0, "rental_uris": {"android": "https://dc.lft.to/lastmile_qr_scan", "ios": "https://dc.lft.to/lastmile_qr_scan"}, "fusion_lon": 0.0}, {"lat": 38.90242333333333, "is_disabled": 0, "type": "electric_scooter", "lon": -77.0248, "bike_id": "3453280acf914476bf50c68c0bf98989", "fusion_lat": 0.0, "name": "3453280acf914476bf50c68c0bf98989", "is_reserved": 0, "rental_uris": {"android": "https://dc.lft.to/lastmile_qr_scan", "ios": "https://dc.lft.to/lastmile_qr_scan"}, "fusion_lon": 0.0}, {"lat": 38.91815483333333, "is_disabled": 0, "type": "electric_scooter", "lon": -77.024737, "bike_id": "284ce1e201237cd6141fb2adfdb020f1", "fusion_lat": 0.0, "name": "284ce1e201237cd6141fb2adfdb020f1", "is_reserved": 0, "rental_uris": {"android": "https://dc.lft.to/lastmile_qr_scan", "ios": "https://dc.lft.to/lastmile_qr_scan"}, "fusion_lon": 0.0}, {"lat": 38.954086833333335, "is_disabled": 0, "type": "electric_bike", "lon": -76.98059933333333, "bike_id": "1a7cc8dc63430ee99507883cedb58766", "fusion_lat": 0.0, "name": "1a7cc8dc63430ee99507883cedb58766", "is_reserved": 0, "rental_uris": {"android": "https://dc.lft.to/lastmile_qr_scan", "ios": "https://dc.lft.to/lastmile_qr_scan"}, "fusion_lon": 0.0}, {"lat": 38.9062255, "is_disabled": 0, "type": "electric_scooter", "lon": -77.02183966666666, "bike_id": "ba5d49cc6ddf1fb981d43a6603bd887a", "fusion_lat": 0.0, "name": "ba5d49cc6ddf1fb981d43a6603bd887a", "is_reserved": 0, "rental_uris": {"android": "https://dc.lft.to/lastmile_qr_scan", "ios": "https://dc.lft.to/lastmile_qr_scan"}, "fusion_lon": 0.0}, {"lat": 38.91654716666667, "is_disabled": 0, "type": "electric_scooter", "lon": -77.03860283333333, "bike_id": "d2e0cc9198c5892ae3814e4939852da4", "fusion_lat": 0.0, "name": "d2e0cc9198c5892ae3814e4939852da4", "is_reserved": 0, "rental_uris": {"android": "https://dc.lft.to/lastmile_qr_scan", "ios": "https://dc.lft.to/lastmile_qr_scan"}, "fusion_lon": 0.0}, {"lat": 38.876291, "is_disabled": 0, "type": "electric_scooter", "lon": -76.96526683333333, "bike_id": "9dabff93ce7f667456f44f9cb03df193", "fusion_lat": 0.0, "name": "9dabff93ce7f667456f44f9cb03df193", "is_reserved": 0, "rental_uris": {"android": "https://dc.lft.to/lastmile_qr_scan", "ios": "https://dc.lft.to/lastmile_qr_scan"}, "fusion_lon": 0.0}, {"lat": 38.91954366666667, "is_disabled": 0, "type": "electric_scooter", "lon": -77.04884366666667, "bike_id": "fbcd66729929f9eaea8e5e57a762feb9", "fusion_lat": 0.0, "name": "fbcd66729929f9eaea8e5e57a762feb9", "is_reserved": 0, "rental_uris": {"android": "https://dc.lft.to/lastmile_qr_scan", "ios": "https://dc.lft.to/lastmile_qr_scan"}, "fusion_lon": 0.0}, {"lat": 38.9012545, "is_disabled": 0, "type": "electric_scooter", "lon": -77.03302633333334, "bike_id": "e1f7643ac54d2a8b13bae13f580df049", "fusion_lat": 0.0, "name": "e1f7643ac54d2a8b13bae13f580df049", "is_reserved": 0, "rental_uris": {"android": "https://dc.lft.to/lastmile_qr_scan", "ios": "https://dc.lft.to/lastmile_qr_scan"}, "fusion_lon": 0.0}, {"lat": 38.93080483333333, "is_disabled": 0, "type": "electric_scooter", "lon": -77.02612116666667, "bike_id": "3fe47d79ad41522a8f90e5692363f973", "fusion_lat": 0.0, "name": "3fe47d79ad41522a8f90e5692363f973", "is_reserved": 0, "rental_uris": {"android": "https://dc.lft.to/lastmile_qr_scan", "ios": "https://dc.lft.to/lastmile_qr_scan"}, "fusion_lon": 0.0}, {"lat": 38.87339016666667, "is_disabled": 0, "type": "electric_scooter", "lon": -76.99163933333334, "bike_id": "70db7e3e9ab5eca57b65e9c1d919bb7e", "fusion_lat": 0.0, "name": "70db7e3e9ab5eca57b65e9c1d919bb7e", "is_reserved": 0, "rental_uris": {"android": "https://dc.lft.to/lastmile_qr_scan", "ios": "https://dc.lft.to/lastmile_qr_scan"}, "fusion_lon": 0.0}, {"lat": 38.900261, "is_disabled": 0, "type": "electric_scooter", "lon": -77.04425633333334, "bike_id": "cf44fd96478ebb032dcce20ef6fdd949", "fusion_lat": 0.0, "name": "cf44fd96478ebb032dcce20ef6fdd949", "is_reserved": 0, "rental_uris": {"android": "https://dc.lft.to/lastmile_qr_scan", "ios": "https://dc.lft.to/lastmile_qr_scan"}, "fusion_lon": 0.0}, {"lat": 38.931981, "is_disabled": 0, "type": "electric_scooter", "lon": -77.03748133333333, "bike_id": "4b05675ae7b3081a813baa867724895c", "fusion_lat": 0.0, "name": "4b05675ae7b3081a813baa867724895c", "is_reserved": 0, "rental_uris": {"android": "https://dc.lft.to/lastmile_qr_scan", "ios": "https://dc.lft.to/lastmile_qr_scan"}, "fusion_lon": 0.0}, {"lat": 38.874112, "is_disabled": 0, "type": "electric_scooter", "lon": -76.97307016666667, "bike_id": "3b24d6ae68354298a43c9eec5b2f98aa", "fusion_lat": 0.0, "name": "3b24d6ae68354298a43c9eec5b2f98aa", "is_reserved": 0, "rental_uris": {"android": "https://dc.lft.to/lastmile_qr_scan", "ios": "https://dc.lft.to/lastmile_qr_scan"}, "fusion_lon": 0.0}, {"lat": 38.8665575, "is_disabled": 0, "type": "electric_scooter", "lon": -76.98883883333333, "bike_id": "8fd59d7ad43c26d5f12f932e8f2a63ef", "fusion_lat": 0.0, "name": "8fd59d7ad43c26d5f12f932e8f2a63ef", "is_reserved": 0, "rental_uris": {"android": "https://dc.lft.to/lastmile_qr_scan", "ios": "https://dc.lft.to/lastmile_qr_scan"}, "fusion_lon": 0.0}, {"lat": 38.92572366666667, "is_disabled": 0, "type": "electric_scooter", "lon": -77.05765516666666, "bike_id": "8dad213611061015f9ffbae5ec848f49", "fusion_lat": 0.0, "name": "8dad213611061015f9ffbae5ec848f49", "is_reserved": 0, "rental_uris": {"android": "https://dc.lft.to/lastmile_qr_scan", "ios": "https://dc.lft.to/lastmile_qr_scan"}, "fusion_lon": 0.0}, {"lat": 38.92143016666667, "is_disabled": 0, "type": "electric_scooter", "lon": -77.043629, "bike_id": "2f30cb4fc2715babed7a61bad98b9698", "fusion_lat": 0.0, "name": "2f30cb4fc2715babed7a61bad98b9698", "is_reserved": 0, "rental_uris": {"android": "https://dc.lft.to/lastmile_qr_scan", "ios": "https://dc.lft.to/lastmile_qr_scan"}, "fusion_lon": 0.0}, {"lat": 38.806828, "is_disabled": 0, "type": "electric_bike", "lon": -77.08120816666667, "bike_id": "d36d2a34a6010abf9c1b3a15c65880c8", "fusion_lat": 0.0, "name": "d36d2a34a6010abf9c1b3a15c65880c8", "is_reserved": 0, "rental_uris": {"android": "https://dc.lft.to/lastmile_qr_scan", "ios": "https://dc.lft.to/lastmile_qr_scan"}, "fusion_lon": 0.0}, {"lat": 38.90332016666667, "is_disabled": 0, "type": "electric_scooter", "lon": -76.9759605, "bike_id": "081d87e3672e440f032792f3c41e3fe4", "fusion_lat": 0.0, "name": "081d87e3672e440f032792f3c41e3fe4", "is_reserved": 0, "rental_uris": {"android": "https://dc.lft.to/lastmile_qr_scan", "ios": "https://dc.lft.to/lastmile_qr_scan"}, "fusion_lon": 0.0}, {"lat": 38.93991366666667, "is_disabled": 0, "type": "electric_scooter", "lon": -77.0717405, "bike_id": "b548ec1cf5f37c53ac6e0b29b4d4fb60", "fusion_lat": 0.0, "name": "b548ec1cf5f37c53ac6e0b29b4d4fb60", "is_reserved": 0, "rental_uris": {"android": "https://dc.lft.to/lastmile_qr_scan", "ios": "https://dc.lft.to/lastmile_qr_scan"}, "fusion_lon": 0.0}, {"lat": 38.90759416666667, "is_disabled": 0, "type": "electric_scooter", "lon": -77.070252, "bike_id": "1f4737794f8bb66ae6abe52d6d476645", "fusion_lat": 0.0, "name": "1f4737794f8bb66ae6abe52d6d476645", "is_reserved": 0, "rental_uris": {"android": "https://dc.lft.to/lastmile_qr_scan", "ios": "https://dc.lft.to/lastmile_qr_scan"}, "fusion_lon": 0.0}, {"lat": 38.903563, "is_disabled": 0, "type": "electric_scooter", "lon": -77.02519266666667, "bike_id": "3259cddc3933e11f55403edb9765bc5e", "fusion_lat": 0.0, "name": "3259cddc3933e11f55403edb9765bc5e", "is_reserved": 0, "rental_uris": {"android": "https://dc.lft.to/lastmile_qr_scan", "ios": "https://dc.lft.to/lastmile_qr_scan"}, "fusion_lon": 0.0}, {"lat": 38.89906383333334, "is_disabled": 0, "type": "electric_scooter", "lon": -76.93360266666667, "bike_id": "708fb5d3123c365043f62c344dbdea43", "fusion_lat": 0.0, "name": "708fb5d3123c365043f62c344dbdea43", "is_reserved": 0, "rental_uris": {"android": "https://dc.lft.to/lastmile_qr_scan", "ios": "https://dc.lft.to/lastmile_qr_scan"}, "fusion_lon": 0.0}, {"lat": 38.8974975, "is_disabled": 0, "type": "electric_scooter", "lon": -77.04536033333333, "bike_id": "0af10f9e52d24e64a691b69042cbae0a", "fusion_lat": 0.0, "name": "0af10f9e52d24e64a691b69042cbae0a", "is_reserved": 0, "rental_uris": {"android": "https://dc.lft.to/lastmile_qr_scan", "ios": "https://dc.lft.to/lastmile_qr_scan"}, "fusion_lon": 0.0}, {"lat": 38.870655666666664, "is_disabled": 0, "type": "electric_scooter", "lon": -77.0084455, "bike_id": "bc69b876abc173bba745d7cd4ba48051", "fusion_lat": 0.0, "name": "bc69b876abc173bba745d7cd4ba48051", "is_reserved": 0, "rental_uris": {"android": "https://dc.lft.to/lastmile_qr_scan", "ios": "https://dc.lft.to/lastmile_qr_scan"}, "fusion_lon": 0.0}, {"lat": 38.9082355, "is_disabled": 0, "type": "electric_scooter", "lon": -77.04353933333333, "bike_id": "093d7f8d197e2e7705e03024a910c4ff", "fusion_lat": 0.0, "name": "093d7f8d197e2e7705e03024a910c4ff", "is_reserved": 0, "rental_uris": {"android": "https://dc.lft.to/lastmile_qr_scan", "ios": "https://dc.lft.to/lastmile_qr_scan"}, "fusion_lon": 0.0}, {"lat": 38.90583766666666, "is_disabled": 0, "type": "electric_scooter", "lon": -77.00616583333333, "bike_id": "5130a50a3adde277000acaa8bdfe0443", "fusion_lat": 0.0, "name": "5130a50a3adde277000acaa8bdfe0443", "is_reserved": 0, "rental_uris": {"android": "https://dc.lft.to/lastmile_qr_scan", "ios": "https://dc.lft.to/lastmile_qr_scan"}, "fusion_lon": 0.0}, {"lat": 38.89502066666667, "is_disabled": 0, "type": "electric_scooter", "lon": -77.00327083333333, "bike_id": "f04615cd8dd93c8eff257e1622c8e51d", "fusion_lat": 0.0, "name": "f04615cd8dd93c8eff257e1622c8e51d", "is_reserved": 0, "rental_uris": {"android": "https://dc.lft.to/lastmile_qr_scan", "ios": "https://dc.lft.to/lastmile_qr_scan"}, "fusion_lon": 0.0}, {"lat": 38.917061333333336, "is_disabled": 0, "type": "electric_scooter", "lon": -77.02293283333333, "bike_id": "d746246f34cc9f4429cb6408bc76bfc0", "fusion_lat": 0.0, "name": "d746246f34cc9f4429cb6408bc76bfc0", "is_reserved": 0, "rental_uris": {"android": "https://dc.lft.to/lastmile_qr_scan", "ios": "https://dc.lft.to/lastmile_qr_scan"}, "fusion_lon": 0.0}, {"lat": 38.8998225, "is_disabled": 0, "type": "electric_scooter", "lon": -77.0214675, "bike_id": "a587e8b304f6c04598cbced94262d381", "fusion_lat": 0.0, "name": "a587e8b304f6c04598cbced94262d381", "is_reserved": 0, "rental_uris": {"android": "https://dc.lft.to/lastmile_qr_scan", "ios": "https://dc.lft.to/lastmile_qr_scan"}, "fusion_lon": 0.0}, {"lat": 38.88194133333333, "is_disabled": 0, "type": "electric_scooter", "lon": -76.99619433333334, "bike_id": "6070e9fbcbe3bdd0589b099bb72f1cdd", "fusion_lat": 0.0, "name": "6070e9fbcbe3bdd0589b099bb72f1cdd", "is_reserved": 0, "rental_uris": {"android": "https://dc.lft.to/lastmile_qr_scan", "ios": "https://dc.lft.to/lastmile_qr_scan"}, "fusion_lon": 0.0}, {"lat": 38.908219833333334, "is_disabled": 0, "type": "electric_scooter", "lon": -77.043519, "bike_id": "c1e3a6ce3030efed8b65aaa50f7d62f1", "fusion_lat": 0.0, "name": "c1e3a6ce3030efed8b65aaa50f7d62f1", "is_reserved": 0, "rental_uris": {"android": "https://dc.lft.to/lastmile_qr_scan", "ios": "https://dc.lft.to/lastmile_qr_scan"}, "fusion_lon": 0.0}, {"lat": 38.91551583333333, "is_disabled": 0, "type": "electric_scooter", "lon": -77.012332, "bike_id": "5c35b879e5aa94fbf49a84355f330432", "fusion_lat": 0.0, "name": "5c35b879e5aa94fbf49a84355f330432", "is_reserved": 0, "rental_uris": {"android": "https://dc.lft.to/lastmile_qr_scan", "ios": "https://dc.lft.to/lastmile_qr_scan"}, "fusion_lon": 0.0}, {"lat": 38.91331983333333, "is_disabled": 0, "type": "electric_scooter", "lon": -77.03666583333333, "bike_id": "3c74ca3ef8ec92ed2ea830f1f9b5d947", "fusion_lat": 0.0, "name": "3c74ca3ef8ec92ed2ea830f1f9b5d947", "is_reserved": 0, "rental_uris": {"android": "https://dc.lft.to/lastmile_qr_scan", "ios": "https://dc.lft.to/lastmile_qr_scan"}, "fusion_lon": 0.0}, {"lat": 38.90233333333333, "is_disabled": 0, "type": "electric_scooter", "lon": -77.01934916666667, "bike_id": "950e02e6c389cb8ff87aac5d0270f897", "fusion_lat": 0.0, "name": "950e02e6c389cb8ff87aac5d0270f897", "is_reserved": 0, "rental_uris": {"android": "https://dc.lft.to/lastmile_qr_scan", "ios": "https://dc.lft.to/lastmile_qr_scan"}, "fusion_lon": 0.0}, {"lat": 38.96095483333333, "is_disabled": 0, "type": "electric_scooter", "lon": -77.08285866666667, "bike_id": "c52760ad5a11bd6cd418a5386d5805ed", "fusion_lat": 0.0, "name": "c52760ad5a11bd6cd418a5386d5805ed", "is_reserved": 0, "rental_uris": {"android": "https://dc.lft.to/lastmile_qr_scan", "ios": "https://dc.lft.to/lastmile_qr_scan"}, "fusion_lon": 0.0}, {"lat": 38.92216616666666, "is_disabled": 0, "type": "electric_scooter", "lon": -77.032888, "bike_id": "ba2d1e8c5c8a498b69b8462aae71631d", "fusion_lat": 0.0, "name": "ba2d1e8c5c8a498b69b8462aae71631d", "is_reserved": 0, "rental_uris": {"android": "https://dc.lft.to/lastmile_qr_scan", "ios": "https://dc.lft.to/lastmile_qr_scan"}, "fusion_lon": 0.0}, {"lat": 38.901370666666665, "is_disabled": 0, "type": "electric_scooter", "lon": -77.00074866666667, "bike_id": "7c8bda623dea1d4bf3770327931aed4a", "fusion_lat": 0.0, "name": "7c8bda623dea1d4bf3770327931aed4a", "is_reserved": 0, "rental_uris": {"android": "https://dc.lft.to/lastmile_qr_scan", "ios": "https://dc.lft.to/lastmile_qr_scan"}, "fusion_lon": 0.0}, {"lat": 38.91815716666667, "is_disabled": 0, "type": "electric_scooter", "lon": -77.02479116666666, "bike_id": "222d0b576ad6d6e79aca06b067047966", "fusion_lat": 0.0, "name": "222d0b576ad6d6e79aca06b067047966", "is_reserved": 0, "rental_uris": {"android": "https://dc.lft.to/lastmile_qr_scan", "ios": "https://dc.lft.to/lastmile_qr_scan"}, "fusion_lon": 0.0}, {"lat": 38.928113, "is_disabled": 0, "type": "electric_scooter", "lon": -77.02623716666666, "bike_id": "4ec03cc344e2b97fc97833a5d726ea40", "fusion_lat": 0.0, "name": "4ec03cc344e2b97fc97833a5d726ea40", "is_reserved": 0, "rental_uris": {"android": "https://dc.lft.to/lastmile_qr_scan", "ios": "https://dc.lft.to/lastmile_qr_scan"}, "fusion_lon": 0.0}, {"lat": 38.935703333333336, "is_disabled": 0, "type": "electric_scooter", "lon": -77.0326595, "bike_id": "631fa5c36a9207453169b63d6df1f330", "fusion_lat": 0.0, "name": "631fa5c36a9207453169b63d6df1f330", "is_reserved": 0, "rental_uris": {"android": "https://dc.lft.to/lastmile_qr_scan", "ios": "https://dc.lft.to/lastmile_qr_scan"}, "fusion_lon": 0.0}, {"lat": 38.9034265, "is_disabled": 0, "type": "electric_scooter", "lon": -77.0446305, "bike_id": "f67be6aef748cafe518e6102c197a2fd", "fusion_lat": 0.0, "name": "f67be6aef748cafe518e6102c197a2fd", "is_reserved": 0, "rental_uris": {"android": "https://dc.lft.to/lastmile_qr_scan", "ios": "https://dc.lft.to/lastmile_qr_scan"}, "fusion_lon": 0.0}, {"lat": 38.93253833333333, "is_disabled": 0, "type": "electric_scooter", "lon": -77.034662, "bike_id": "b8723d7090ae3a40f098517cee934e72", "fusion_lat": 0.0, "name": "b8723d7090ae3a40f098517cee934e72", "is_reserved": 0, "rental_uris": {"android": "https://dc.lft.to/lastmile_qr_scan", "ios": "https://dc.lft.to/lastmile_qr_scan"}, "fusion_lon": 0.0}, {"lat": 38.8970635, "is_disabled": 0, "type": "electric_scooter", "lon": -77.00839433333333, "bike_id": "e6866f52a816f30a49173b186a1da232", "fusion_lat": 0.0, "name": "e6866f52a816f30a49173b186a1da232", "is_reserved": 0, "rental_uris": {"android": "https://dc.lft.to/lastmile_qr_scan", "ios": "https://dc.lft.to/lastmile_qr_scan"}, "fusion_lon": 0.0}, {"lat": 38.911174, "is_disabled": 0, "type": "electric_scooter", "lon": -77.037124, "bike_id": "3580392467046f96a2b0dbe571946b7a", "fusion_lat": 0.0, "name": "3580392467046f96a2b0dbe571946b7a", "is_reserved": 0, "rental_uris": {"android": "https://dc.lft.to/lastmile_qr_scan", "ios": "https://dc.lft.to/lastmile_qr_scan"}, "fusion_lon": 0.0}, {"lat": 38.8984865, "is_disabled": 0, "type": "electric_bike", "lon": -76.93192183333333, "bike_id": "b076f48763709537fadfb0dbc68a592d", "fusion_lat": 0.0, "name": "b076f48763709537fadfb0dbc68a592d", "is_reserved": 0, "rental_uris": {"android": "https://dc.lft.to/lastmile_qr_scan", "ios": "https://dc.lft.to/lastmile_qr_scan"}, "fusion_lon": 0.0}, {"lat": 38.91407516666666, "is_disabled": 0, "type": "electric_scooter", "lon": -77.03148733333333, "bike_id": "ea98633b9bacef406ef7727c271d10a6", "fusion_lat": 0.0, "name": "ea98633b9bacef406ef7727c271d10a6", "is_reserved": 0, "rental_uris": {"android": "https://dc.lft.to/lastmile_qr_scan", "ios": "https://dc.lft.to/lastmile_qr_scan"}, "fusion_lon": 0.0}, {"lat": 38.93382733333333, "is_disabled": 0, "type": "electric_scooter", "lon": -76.9951265, "bike_id": "275e2ccb451fd343823635b9ed055938", "fusion_lat": 0.0, "name": "275e2ccb451fd343823635b9ed055938", "is_reserved": 0, "rental_uris": {"android": "https://dc.lft.to/lastmile_qr_scan", "ios": "https://dc.lft.to/lastmile_qr_scan"}, "fusion_lon": 0.0}, {"lat": 38.89609383333333, "is_disabled": 0, "type": "electric_scooter", "lon": -77.0092695, "bike_id": "da9734cfa36dac602ed6091eb363ed9d", "fusion_lat": 0.0, "name": "da9734cfa36dac602ed6091eb363ed9d", "is_reserved": 0, "rental_uris": {"android": "https://dc.lft.to/lastmile_qr_scan", "ios": "https://dc.lft.to/lastmile_qr_scan"}, "fusion_lon": 0.0}, {"lat": 38.915575, "is_disabled": 0, "type": "electric_scooter", "lon": -77.03222383333333, "bike_id": "1b5e505a40ff4a4974530f53bfe221ec", "fusion_lat": 0.0, "name": "1b5e505a40ff4a4974530f53bfe221ec", "is_reserved": 0, "rental_uris": {"android": "https://dc.lft.to/lastmile_qr_scan", "ios": "https://dc.lft.to/lastmile_qr_scan"}, "fusion_lon": 0.0}, {"lat": 38.91530216666666, "is_disabled": 0, "type": "electric_scooter", "lon": -77.0320975, "bike_id": "f670f0f78ab8aabf4087346daf253189", "fusion_lat": 0.0, "name": "f670f0f78ab8aabf4087346daf253189", "is_reserved": 0, "rental_uris": {"android": "https://dc.lft.to/lastmile_qr_scan", "ios": "https://dc.lft.to/lastmile_qr_scan"}, "fusion_lon": 0.0}, {"lat": 38.93668016666667, "is_disabled": 0, "type": "electric_scooter", "lon": -77.05933883333333, "bike_id": "81c92f78d2c153859f736bb10970d616", "fusion_lat": 0.0, "name": "81c92f78d2c153859f736bb10970d616", "is_reserved": 0, "rental_uris": {"android": "https://dc.lft.to/lastmile_qr_scan", "ios": "https://dc.lft.to/lastmile_qr_scan"}, "fusion_lon": 0.0}, {"lat": 39.004720166666665, "is_disabled": 0, "type": "electric_bike", "lon": -76.90138116666667, "bike_id": "a4b8a53d17064e60010280d0b1475fee", "fusion_lat": 0.0, "name": "a4b8a53d17064e60010280d0b1475fee", "is_reserved": 0, "rental_uris": {"android": "https://dc.lft.to/lastmile_qr_scan", "ios": "https://dc.lft.to/lastmile_qr_scan"}, "fusion_lon": 0.0}, {"lat": 38.828737, "is_disabled": 0, "type": "electric_bike", "lon": -77.11221066666667, "bike_id": "cf595a15839216c336609889d611fbaa", "fusion_lat": 0.0, "name": "cf595a15839216c336609889d611fbaa", "is_reserved": 0, "rental_uris": {"android": "https://dc.lft.to/lastmile_qr_scan", "ios": "https://dc.lft.to/lastmile_qr_scan"}, "fusion_lon": 0.0}, {"lat": 38.91811216666667, "is_disabled": 0, "type": "electric_scooter", "lon": -77.035644, "bike_id": "07d3cdd75f0b6b805099c49738d20ec8", "fusion_lat": 0.0, "name": "07d3cdd75f0b6b805099c49738d20ec8", "is_reserved": 0, "rental_uris": {"android": "https://dc.lft.to/lastmile_qr_scan", "ios": "https://dc.lft.to/lastmile_qr_scan"}, "fusion_lon": 0.0}, {"lat": 38.927962, "is_disabled": 0, "type": "electric_scooter", "lon": -77.03698433333334, "bike_id": "0f903d109ef09a0f2d2bb4565c14a9bc", "fusion_lat": 0.0, "name": "0f903d109ef09a0f2d2bb4565c14a9bc", "is_reserved": 0, "rental_uris": {"android": "https://dc.lft.to/lastmile_qr_scan", "ios": "https://dc.lft.to/lastmile_qr_scan"}, "fusion_lon": 0.0}, {"lat": 38.90992883333333, "is_disabled": 0, "type": "electric_scooter", "lon": -76.9973475, "bike_id": "441572ee8d368bd10a69c64e2da46937", "fusion_lat": 0.0, "name": "441572ee8d368bd10a69c64e2da46937", "is_reserved": 0, "rental_uris": {"android": "https://dc.lft.to/lastmile_qr_scan", "ios": "https://dc.lft.to/lastmile_qr_scan"}, "fusion_lon": 0.0}, {"lat": 38.93290116666667, "is_disabled": 0, "type": "electric_scooter", "lon": -77.03267316666667, "bike_id": "8ada2476e9a2d29f82008c842394720c", "fusion_lat": 0.0, "name": "8ada2476e9a2d29f82008c842394720c", "is_reserved": 0, "rental_uris": {"android": "https://dc.lft.to/lastmile_qr_scan", "ios": "https://dc.lft.to/lastmile_qr_scan"}, "fusion_lon": 0.0}, {"lat": 38.92316916666667, "is_disabled": 0, "type": "electric_scooter", "lon": -77.027962, "bike_id": "3db0cd78fa0f007537563933038d6e90", "fusion_lat": 0.0, "name": "3db0cd78fa0f007537563933038d6e90", "is_reserved": 0, "rental_uris": {"android": "https://dc.lft.to/lastmile_qr_scan", "ios": "https://dc.lft.to/lastmile_qr_scan"}, "fusion_lon": 0.0}, {"lat": 38.9362395, "is_disabled": 0, "type": "electric_scooter", "lon": -77.059069, "bike_id": "23396d68a802bf21c828c475aa323ebd", "fusion_lat": 0.0, "name": "23396d68a802bf21c828c475aa323ebd", "is_reserved": 0, "rental_uris": {"android": "https://dc.lft.to/lastmile_qr_scan", "ios": "https://dc.lft.to/lastmile_qr_scan"}, "fusion_lon": 0.0}, {"lat": 38.91051233333334, "is_disabled": 0, "type": "electric_scooter", "lon": -77.043537, "bike_id": "cf32976464677b1dbfb7007ebc2af762", "fusion_lat": 0.0, "name": "cf32976464677b1dbfb7007ebc2af762", "is_reserved": 0, "rental_uris": {"android": "https://dc.lft.to/lastmile_qr_scan", "ios": "https://dc.lft.to/lastmile_qr_scan"}, "fusion_lon": 0.0}, {"lat": 38.89400283333333, "is_disabled": 0, "type": "electric_scooter", "lon": -77.05004433333333, "bike_id": "5df5946541b65a4ae03ee7bfc3a1ac1f", "fusion_lat": 0.0, "name": "5df5946541b65a4ae03ee7bfc3a1ac1f", "is_reserved": 0, "rental_uris": {"android": "https://dc.lft.to/lastmile_qr_scan", "ios": "https://dc.lft.to/lastmile_qr_scan"}, "fusion_lon": 0.0}, {"lat": 38.90072883333333, "is_disabled": 0, "type": "electric_scooter", "lon": -77.00211516666667, "bike_id": "a770ed79ad7e27102808a54b2a989eb4", "fusion_lat": 0.0, "name": "a770ed79ad7e27102808a54b2a989eb4", "is_reserved": 0, "rental_uris": {"android": "https://dc.lft.to/lastmile_qr_scan", "ios": "https://dc.lft.to/lastmile_qr_scan"}, "fusion_lon": 0.0}, {"lat": 38.89904833333333, "is_disabled": 0, "type": "electric_scooter", "lon": -76.93357433333334, "bike_id": "cc0785ed11faaf426623702cfa17eb46", "fusion_lat": 0.0, "name": "cc0785ed11faaf426623702cfa17eb46", "is_reserved": 0, "rental_uris": {"android": "https://dc.lft.to/lastmile_qr_scan", "ios": "https://dc.lft.to/lastmile_qr_scan"}, "fusion_lon": 0.0}, {"lat": 39.052025, "is_disabled": 0, "type": "electric_bike", "lon": -77.1091515, "bike_id": "7b9c0028769e907c836ae3448bcc538f", "fusion_lat": 0.0, "name": "7b9c0028769e907c836ae3448bcc538f", "is_reserved": 0, "rental_uris": {"android": "https://dc.lft.to/lastmile_qr_scan", "ios": "https://dc.lft.to/lastmile_qr_scan"}, "fusion_lon": 0.0}, {"lat": 38.9086045, "is_disabled": 0, "type": "electric_scooter", "lon": -76.99165316666667, "bike_id": "f32103d13778179e9dfe7205e7a196bd", "fusion_lat": 0.0, "name": "f32103d13778179e9dfe7205e7a196bd", "is_reserved": 0, "rental_uris": {"android": "https://dc.lft.to/lastmile_qr_scan", "ios": "https://dc.lft.to/lastmile_qr_scan"}, "fusion_lon": 0.0}, {"lat": 38.895275166666664, "is_disabled": 0, "type": "electric_scooter", "lon": -77.0281935, "bike_id": "5cbb471b5dd8ae1435790727f001f59c", "fusion_lat": 0.0, "name": "5cbb471b5dd8ae1435790727f001f59c", "is_reserved": 0, "rental_uris": {"android": "https://dc.lft.to/lastmile_qr_scan", "ios": "https://dc.lft.to/lastmile_qr_scan"}, "fusion_lon": 0.0}, {"lat": 38.906211166666665, "is_disabled": 0, "type": "electric_scooter", "lon": -76.98982583333333, "bike_id": "7ba2d5865afccc2fdedb5c703a17f269", "fusion_lat": 0.0, "name": "7ba2d5865afccc2fdedb5c703a17f269", "is_reserved": 0, "rental_uris": {"android": "https://dc.lft.to/lastmile_qr_scan", "ios": "https://dc.lft.to/lastmile_qr_scan"}, "fusion_lon": 0.0}, {"lat": 38.927490666666664, "is_disabled": 0, "type": "electric_scooter", "lon": -77.02535283333333, "bike_id": "8e29b1a882c22c351215fa6866f60ae4", "fusion_lat": 0.0, "name": "8e29b1a882c22c351215fa6866f60ae4", "is_reserved": 0, "rental_uris": {"android": "https://dc.lft.to/lastmile_qr_scan", "ios": "https://dc.lft.to/lastmile_qr_scan"}, "fusion_lon": 0.0}, {"lat": 38.8911745, "is_disabled": 0, "type": "electric_scooter", "lon": -76.94387533333334, "bike_id": "423da7bb41366303a482b8b9c92c358c", "fusion_lat": 0.0, "name": "423da7bb41366303a482b8b9c92c358c", "is_reserved": 0, "rental_uris": {"android": "https://dc.lft.to/lastmile_qr_scan", "ios": "https://dc.lft.to/lastmile_qr_scan"}, "fusion_lon": 0.0}, {"lat": 38.85906516666667, "is_disabled": 0, "type": "electric_scooter", "lon": -76.9914975, "bike_id": "d51a671f2ed8105f1f9c4e1176a64a31", "fusion_lat": 0.0, "name": "d51a671f2ed8105f1f9c4e1176a64a31", "is_reserved": 0, "rental_uris": {"android": "https://dc.lft.to/lastmile_qr_scan", "ios": "https://dc.lft.to/lastmile_qr_scan"}, "fusion_lon": 0.0}, {"lat": 38.9004355, "is_disabled": 0, "type": "electric_scooter", "lon": -76.99385983333333, "bike_id": "d482fd4d9453f30285618a0007c8d10b", "fusion_lat": 0.0, "name": "d482fd4d9453f30285618a0007c8d10b", "is_reserved": 0, "rental_uris": {"android": "https://dc.lft.to/lastmile_qr_scan", "ios": "https://dc.lft.to/lastmile_qr_scan"}, "fusion_lon": 0.0}, {"lat": 38.907254333333334, "is_disabled": 0, "type": "electric_scooter", "lon": -77.00060733333333, "bike_id": "1cd5c7a9e350a057ba38e298422771ac", "fusion_lat": 0.0, "name": "1cd5c7a9e350a057ba38e298422771ac", "is_reserved": 0, "rental_uris": {"android": "https://dc.lft.to/lastmile_qr_scan", "ios": "https://dc.lft.to/lastmile_qr_scan"}, "fusion_lon": 0.0}, {"lat": 38.911033, "is_disabled": 0, "type": "electric_scooter", "lon": -77.042261, "bike_id": "d1b8bb365c04fc06bb7908771a431ad1", "fusion_lat": 0.0, "name": "d1b8bb365c04fc06bb7908771a431ad1", "is_reserved": 0, "rental_uris": {"android": "https://dc.lft.to/lastmile_qr_scan", "ios": "https://dc.lft.to/lastmile_qr_scan"}, "fusion_lon": 0.0}, {"lat": 38.86660416666667, "is_disabled": 0, "type": "electric_scooter", "lon": -76.98880833333334, "bike_id": "38735effa5010e0b4397ddb12b620ffa", "fusion_lat": 0.0, "name": "38735effa5010e0b4397ddb12b620ffa", "is_reserved": 0, "rental_uris": {"android": "https://dc.lft.to/lastmile_qr_scan", "ios": "https://dc.lft.to/lastmile_qr_scan"}, "fusion_lon": 0.0}, {"lat": 38.95277683333333, "is_disabled": 0, "type": "electric_scooter", "lon": -77.068621, "bike_id": "cf9c6e55f77f6313f319e99ae929c3c9", "fusion_lat": 0.0, "name": "cf9c6e55f77f6313f319e99ae929c3c9", "is_reserved": 0, "rental_uris": {"android": "https://dc.lft.to/lastmile_qr_scan", "ios": "https://dc.lft.to/lastmile_qr_scan"}, "fusion_lon": 0.0}, {"lat": 38.91551283333333, "is_disabled": 0, "type": "electric_scooter", "lon": -77.05320516666667, "bike_id": "03f05650071ae93e2ea636925012b615", "fusion_lat": 0.0, "name": "03f05650071ae93e2ea636925012b615", "is_reserved": 0, "rental_uris": {"android": "https://dc.lft.to/lastmile_qr_scan", "ios": "https://dc.lft.to/lastmile_qr_scan"}, "fusion_lon": 0.0}, {"lat": 38.902934, "is_disabled": 0, "type": "electric_scooter", "lon": -77.0334125, "bike_id": "6469a31ae11e7bc3163defe51c917b7c", "fusion_lat": 0.0, "name": "6469a31ae11e7bc3163defe51c917b7c", "is_reserved": 0, "rental_uris": {"android": "https://dc.lft.to/lastmile_qr_scan", "ios": "https://dc.lft.to/lastmile_qr_scan"}, "fusion_lon": 0.0}, {"lat": 38.9337135, "is_disabled": 0, "type": "electric_scooter", "lon": -77.02389133333334, "bike_id": "53e1475dd15a918e7ddf2b5a68516877", "fusion_lat": 0.0, "name": "53e1475dd15a918e7ddf2b5a68516877", "is_reserved": 0, "rental_uris": {"android": "https://dc.lft.to/lastmile_qr_scan", "ios": "https://dc.lft.to/lastmile_qr_scan"}, "fusion_lon": 0.0}, {"lat": 38.95332333333333, "is_disabled": 0, "type": "electric_bike", "lon": -76.97364366666666, "bike_id": "9e6d603709273cb2f11952e14173745d", "fusion_lat": 0.0, "name": "9e6d603709273cb2f11952e14173745d", "is_reserved": 0, "rental_uris": {"android": "https://dc.lft.to/lastmile_qr_scan", "ios": "https://dc.lft.to/lastmile_qr_scan"}, "fusion_lon": 0.0}, {"lat": 38.925864, "is_disabled": 0, "type": "electric_scooter", "lon": -77.02832516666666, "bike_id": "276a134ac931c94144f0f86af2acb4be", "fusion_lat": 0.0, "name": "276a134ac931c94144f0f86af2acb4be", "is_reserved": 0, "rental_uris": {"android": "https://dc.lft.to/lastmile_qr_scan", "ios": "https://dc.lft.to/lastmile_qr_scan"}, "fusion_lon": 0.0}, {"lat": 38.93461933333333, "is_disabled": 0, "type": "electric_scooter", "lon": -77.06193783333333, "bike_id": "402535e5b389d77786692cc1fa361371", "fusion_lat": 0.0, "name": "402535e5b389d77786692cc1fa361371", "is_reserved": 0, "rental_uris": {"android": "https://dc.lft.to/lastmile_qr_scan", "ios": "https://dc.lft.to/lastmile_qr_scan"}, "fusion_lon": 0.0}, {"lat": 38.900931666666665, "is_disabled": 0, "type": "electric_scooter", "lon": -77.04906166666666, "bike_id": "10949492cbe95714946cdda65b573ad8", "fusion_lat": 0.0, "name": "10949492cbe95714946cdda65b573ad8", "is_reserved": 0, "rental_uris": {"android": "https://dc.lft.to/lastmile_qr_scan", "ios": "https://dc.lft.to/lastmile_qr_scan"}, "fusion_lon": 0.0}, {"lat": 39.000248166666665, "is_disabled": 0, "type": "electric_bike", "lon": -76.91080516666666, "bike_id": "acad841b2095e1a8ec7937209c118a9f", "fusion_lat": 0.0, "name": "acad841b2095e1a8ec7937209c118a9f", "is_reserved": 0, "rental_uris": {"android": "https://dc.lft.to/lastmile_qr_scan", "ios": "https://dc.lft.to/lastmile_qr_scan"}, "fusion_lon": 0.0}, {"lat": 38.86387883333333, "is_disabled": 0, "type": "electric_bike", "lon": -76.98991633333333, "bike_id": "781b6939a036710b89003785564babeb", "fusion_lat": 0.0, "name": "781b6939a036710b89003785564babeb", "is_reserved": 0, "rental_uris": {"android": "https://dc.lft.to/lastmile_qr_scan", "ios": "https://dc.lft.to/lastmile_qr_scan"}, "fusion_lon": 0.0}, {"lat": 38.9153955, "is_disabled": 0, "type": "electric_scooter", "lon": -77.032104, "bike_id": "af53aca58df60ef654cb27d782bfb3fa", "fusion_lat": 0.0, "name": "af53aca58df60ef654cb27d782bfb3fa", "is_reserved": 0, "rental_uris": {"android": "https://dc.lft.to/lastmile_qr_scan", "ios": "https://dc.lft.to/lastmile_qr_scan"}, "fusion_lon": 0.0}, {"lat": 38.933027, "is_disabled": 0, "type": "electric_scooter", "lon": -77.0284445, "bike_id": "280c35b47cacbafa7123e88d7ad5935b", "fusion_lat": 0.0, "name": "280c35b47cacbafa7123e88d7ad5935b", "is_reserved": 0, "rental_uris": {"android": "https://dc.lft.to/lastmile_qr_scan", "ios": "https://dc.lft.to/lastmile_qr_scan"}, "fusion_lon": 0.0}, {"lat": 38.9387735, "is_disabled": 0, "type": "electric_scooter", "lon": -77.02009833333334, "bike_id": "795163f1a0a741c8d782e21076fb0bd6", "fusion_lat": 0.0, "name": "795163f1a0a741c8d782e21076fb0bd6", "is_reserved": 0, "rental_uris": {"android": "https://dc.lft.to/lastmile_qr_scan", "ios": "https://dc.lft.to/lastmile_qr_scan"}, "fusion_lon": 0.0}, {"lat": 38.86556866666667, "is_disabled": 0, "type": "electric_scooter", "lon": -76.97423766666667, "bike_id": "368289cc8fc2fdabdcdd261ca5899553", "fusion_lat": 0.0, "name": "368289cc8fc2fdabdcdd261ca5899553", "is_reserved": 0, "rental_uris": {"android": "https://dc.lft.to/lastmile_qr_scan", "ios": "https://dc.lft.to/lastmile_qr_scan"}, "fusion_lon": 0.0}, {"lat": 38.933181166666664, "is_disabled": 0, "type": "electric_scooter", "lon": -77.04528816666667, "bike_id": "160c7c77368fb557e02f6d63771561fd", "fusion_lat": 0.0, "name": "160c7c77368fb557e02f6d63771561fd", "is_reserved": 0, "rental_uris": {"android": "https://dc.lft.to/lastmile_qr_scan", "ios": "https://dc.lft.to/lastmile_qr_scan"}, "fusion_lon": 0.0}, {"lat": 38.972303833333335, "is_disabled": 0, "type": "electric_bike", "lon": -76.9934335, "bike_id": "95f1191b8a0a954915c872c0ab0ba4c7", "fusion_lat": 0.0, "name": "95f1191b8a0a954915c872c0ab0ba4c7", "is_reserved": 0, "rental_uris": {"android": "https://dc.lft.to/lastmile_qr_scan", "ios": "https://dc.lft.to/lastmile_qr_scan"}, "fusion_lon": 0.0}, {"lat": 38.9489055, "is_disabled": 0, "type": "electric_scooter", "lon": -77.03050133333333, "bike_id": "a8db15ab9e28c3949b9fbe14f1e0ebed", "fusion_lat": 0.0, "name": "a8db15ab9e28c3949b9fbe14f1e0ebed", "is_reserved": 0, "rental_uris": {"android": "https://dc.lft.to/lastmile_qr_scan", "ios": "https://dc.lft.to/lastmile_qr_scan"}, "fusion_lon": 0.0}, {"lat": 38.90835116666667, "is_disabled": 0, "type": "electric_scooter", "lon": -76.99701333333333, "bike_id": "27aa9b6a5fb803c0bea93e6a8f3c4925", "fusion_lat": 0.0, "name": "27aa9b6a5fb803c0bea93e6a8f3c4925", "is_reserved": 0, "rental_uris": {"android": "https://dc.lft.to/lastmile_qr_scan", "ios": "https://dc.lft.to/lastmile_qr_scan"}, "fusion_lon": 0.0}, {"lat": 38.90316716666667, "is_disabled": 0, "type": "electric_scooter", "lon": -77.03764566666666, "bike_id": "269f42a992f9fb30f3d61714ef6a349b", "fusion_lat": 0.0, "name": "269f42a992f9fb30f3d61714ef6a349b", "is_reserved": 0, "rental_uris": {"android": "https://dc.lft.to/lastmile_qr_scan", "ios": "https://dc.lft.to/lastmile_qr_scan"}, "fusion_lon": 0.0}, {"lat": 38.92234833333333, "is_disabled": 0, "type": "electric_scooter", "lon": -77.04573466666666, "bike_id": "0fd9fa80296a6043eb7a3d55580be04f", "fusion_lat": 0.0, "name": "0fd9fa80296a6043eb7a3d55580be04f", "is_reserved": 0, "rental_uris": {"android": "https://dc.lft.to/lastmile_qr_scan", "ios": "https://dc.lft.to/lastmile_qr_scan"}, "fusion_lon": 0.0}, {"lat": 38.90161483333333, "is_disabled": 0, "type": "electric_scooter", "lon": -77.02010466666667, "bike_id": "4dbaba25fad232baf6ae0be1c037adbd", "fusion_lat": 0.0, "name": "4dbaba25fad232baf6ae0be1c037adbd", "is_reserved": 0, "rental_uris": {"android": "https://dc.lft.to/lastmile_qr_scan", "ios": "https://dc.lft.to/lastmile_qr_scan"}, "fusion_lon": 0.0}, {"lat": 38.884654, "is_disabled": 0, "type": "electric_scooter", "lon": -77.0242035, "bike_id": "41fcdddada316c0f4a292c95e98521b8", "fusion_lat": 0.0, "name": "41fcdddada316c0f4a292c95e98521b8", "is_reserved": 0, "rental_uris": {"android": "https://dc.lft.to/lastmile_qr_scan", "ios": "https://dc.lft.to/lastmile_qr_scan"}, "fusion_lon": 0.0}, {"lat": 38.865067, "is_disabled": 0, "type": "electric_scooter", "lon": -76.990067, "bike_id": "4b3b9568185de9d184b1df4c61bbdce1", "fusion_lat": 0.0, "name": "4b3b9568185de9d184b1df4c61bbdce1", "is_reserved": 0, "rental_uris": {"android": "https://dc.lft.to/lastmile_qr_scan", "ios": "https://dc.lft.to/lastmile_qr_scan"}, "fusion_lon": 0.0}, {"lat": 38.88110966666667, "is_disabled": 0, "type": "electric_scooter", "lon": -77.0163405, "bike_id": "fcd2246f2f3275f7152aa36498a31be7", "fusion_lat": 0.0, "name": "fcd2246f2f3275f7152aa36498a31be7", "is_reserved": 0, "rental_uris": {"android": "https://dc.lft.to/lastmile_qr_scan", "ios": "https://dc.lft.to/lastmile_qr_scan"}, "fusion_lon": 0.0}, {"lat": 38.86711233333333, "is_disabled": 0, "type": "electric_scooter", "lon": -76.98729333333333, "bike_id": "d384ffa667366afeace42e13b46bab19", "fusion_lat": 0.0, "name": "d384ffa667366afeace42e13b46bab19", "is_reserved": 0, "rental_uris": {"android": "https://dc.lft.to/lastmile_qr_scan", "ios": "https://dc.lft.to/lastmile_qr_scan"}, "fusion_lon": 0.0}, {"lat": 38.903719333333335, "is_disabled": 0, "type": "electric_scooter", "lon": -77.028918, "bike_id": "00a68d8f7421f2d38dbe70341a404206", "fusion_lat": 0.0, "name": "00a68d8f7421f2d38dbe70341a404206", "is_reserved": 0, "rental_uris": {"android": "https://dc.lft.to/lastmile_qr_scan", "ios": "https://dc.lft.to/lastmile_qr_scan"}, "fusion_lon": 0.0}, {"lat": 38.909850166666665, "is_disabled": 0, "type": "electric_scooter", "lon": -77.01508616666666, "bike_id": "0ef7fcd029f96069c4a21a42e8fdecc0", "fusion_lat": 0.0, "name": "0ef7fcd029f96069c4a21a42e8fdecc0", "is_reserved": 0, "rental_uris": {"android": "https://dc.lft.to/lastmile_qr_scan", "ios": "https://dc.lft.to/lastmile_qr_scan"}, "fusion_lon": 0.0}, {"lat": 38.91805633333333, "is_disabled": 0, "type": "electric_bike", "lon": -77.22341933333334, "bike_id": "3bc6f4d7c033e05da62d57de5952ab99", "fusion_lat": 0.0, "name": "3bc6f4d7c033e05da62d57de5952ab99", "is_reserved": 0, "rental_uris": {"android": "https://dc.lft.to/lastmile_qr_scan", "ios": "https://dc.lft.to/lastmile_qr_scan"}, "fusion_lon": 0.0}, {"lat": 38.926430333333336, "is_disabled": 0, "type": "electric_scooter", "lon": -77.04321666666667, "bike_id": "6335371ba4435abe3475d2adde867dc3", "fusion_lat": 0.0, "name": "6335371ba4435abe3475d2adde867dc3", "is_reserved": 0, "rental_uris": {"android": "https://dc.lft.to/lastmile_qr_scan", "ios": "https://dc.lft.to/lastmile_qr_scan"}, "fusion_lon": 0.0}, {"lat": 38.90852983333333, "is_disabled": 0, "type": "electric_scooter", "lon": -77.00625816666667, "bike_id": "722aceab56dcdb35acabdc63cb31a903", "fusion_lat": 0.0, "name": "722aceab56dcdb35acabdc63cb31a903", "is_reserved": 0, "rental_uris": {"android": "https://dc.lft.to/lastmile_qr_scan", "ios": "https://dc.lft.to/lastmile_qr_scan"}, "fusion_lon": 0.0}, {"lat": 38.93760616666667, "is_disabled": 0, "type": "electric_scooter", "lon": -77.02137, "bike_id": "2627e7f0b6b3ca9685732a2358deeb2b", "fusion_lat": 0.0, "name": "2627e7f0b6b3ca9685732a2358deeb2b", "is_reserved": 0, "rental_uris": {"android": "https://dc.lft.to/lastmile_qr_scan", "ios": "https://dc.lft.to/lastmile_qr_scan"}, "fusion_lon": 0.0}, {"lat": 38.89680383333334, "is_disabled": 0, "type": "electric_scooter", "lon": -77.05131916666667, "bike_id": "1241139d8a879929cb2742b7d515245b", "fusion_lat": 0.0, "name": "1241139d8a879929cb2742b7d515245b", "is_reserved": 0, "rental_uris": {"android": "https://dc.lft.to/lastmile_qr_scan", "ios": "https://dc.lft.to/lastmile_qr_scan"}, "fusion_lon": 0.0}, {"lat": 38.914757333333334, "is_disabled": 0, "type": "electric_scooter", "lon": -77.003511, "bike_id": "fbeaa5a8146f3a19c87939e75f72700f", "fusion_lat": 0.0, "name": "fbeaa5a8146f3a19c87939e75f72700f", "is_reserved": 0, "rental_uris": {"android": "https://dc.lft.to/lastmile_qr_scan", "ios": "https://dc.lft.to/lastmile_qr_scan"}, "fusion_lon": 0.0}, {"lat": 38.921871333333335, "is_disabled": 0, "type": "electric_scooter", "lon": -77.03991183333333, "bike_id": "a4e5368e0c0adcd6d8dca3dff2fc67b5", "fusion_lat": 0.0, "name": "a4e5368e0c0adcd6d8dca3dff2fc67b5", "is_reserved": 0, "rental_uris": {"android": "https://dc.lft.to/lastmile_qr_scan", "ios": "https://dc.lft.to/lastmile_qr_scan"}, "fusion_lon": 0.0}, {"lat": 38.914601, "is_disabled": 0, "type": "electric_scooter", "lon": -77.03209483333333, "bike_id": "9e7d14491e03de6a67e6bf2e377b7849", "fusion_lat": 0.0, "name": "9e7d14491e03de6a67e6bf2e377b7849", "is_reserved": 0, "rental_uris": {"android": "https://dc.lft.to/lastmile_qr_scan", "ios": "https://dc.lft.to/lastmile_qr_scan"}, "fusion_lon": 0.0}, {"lat": 38.92478416666667, "is_disabled": 0, "type": "electric_scooter", "lon": -77.0283205, "bike_id": "d8543ff1a7eec6de367ea56c5b57624d", "fusion_lat": 0.0, "name": "d8543ff1a7eec6de367ea56c5b57624d", "is_reserved": 0, "rental_uris": {"android": "https://dc.lft.to/lastmile_qr_scan", "ios": "https://dc.lft.to/lastmile_qr_scan"}, "fusion_lon": 0.0}, {"lat": 38.844233, "is_disabled": 0, "type": "electric_scooter", "lon": -76.99775416666667, "bike_id": "0030f439657447b78df0da0f2a19c93c", "fusion_lat": 0.0, "name": "0030f439657447b78df0da0f2a19c93c", "is_reserved": 0, "rental_uris": {"android": "https://dc.lft.to/lastmile_qr_scan", "ios": "https://dc.lft.to/lastmile_qr_scan"}, "fusion_lon": 0.0}, {"lat": 38.92268933333333, "is_disabled": 0, "type": "electric_scooter", "lon": -77.04257933333334, "bike_id": "48304a5ac7a3f0dbfa499fcfa741c390", "fusion_lat": 0.0, "name": "48304a5ac7a3f0dbfa499fcfa741c390", "is_reserved": 0, "rental_uris": {"android": "https://dc.lft.to/lastmile_qr_scan", "ios": "https://dc.lft.to/lastmile_qr_scan"}, "fusion_lon": 0.0}, {"lat": 38.87468633333334, "is_disabled": 0, "type": "electric_scooter", "lon": -77.0051895, "bike_id": "21a5af999ec54076146a80b226c67245", "fusion_lat": 0.0, "name": "21a5af999ec54076146a80b226c67245", "is_reserved": 0, "rental_uris": {"android": "https://dc.lft.to/lastmile_qr_scan", "ios": "https://dc.lft.to/lastmile_qr_scan"}, "fusion_lon": 0.0}, {"lat": 38.907772, "is_disabled": 0, "type": "electric_scooter", "lon": -77.03860016666667, "bike_id": "1f068678e71ea9c73f619ae21c8c0102", "fusion_lat": 0.0, "name": "1f068678e71ea9c73f619ae21c8c0102", "is_reserved": 0, "rental_uris": {"android": "https://dc.lft.to/lastmile_qr_scan", "ios": "https://dc.lft.to/lastmile_qr_scan"}, "fusion_lon": 0.0}, {"lat": 38.986504, "is_disabled": 0, "type": "electric_bike", "lon": -77.05633383333333, "bike_id": "39fd4d6c5852e03496875e1fae38ead4", "fusion_lat": 0.0, "name": "39fd4d6c5852e03496875e1fae38ead4", "is_reserved": 0, "rental_uris": {"android": "https://dc.lft.to/lastmile_qr_scan", "ios": "https://dc.lft.to/lastmile_qr_scan"}, "fusion_lon": 0.0}, {"lat": 38.91170416666667, "is_disabled": 0, "type": "electric_scooter", "lon": -77.02971566666666, "bike_id": "0d52c0056dc624affe3d8fd92bf2f1ad", "fusion_lat": 0.0, "name": "0d52c0056dc624affe3d8fd92bf2f1ad", "is_reserved": 0, "rental_uris": {"android": "https://dc.lft.to/lastmile_qr_scan", "ios": "https://dc.lft.to/lastmile_qr_scan"}, "fusion_lon": 0.0}, {"lat": 38.9026425, "is_disabled": 0, "type": "electric_scooter", "lon": -77.03377866666666, "bike_id": "b9c3fa0a20320f6014544338fa3099dd", "fusion_lat": 0.0, "name": "b9c3fa0a20320f6014544338fa3099dd", "is_reserved": 0, "rental_uris": {"android": "https://dc.lft.to/lastmile_qr_scan", "ios": "https://dc.lft.to/lastmile_qr_scan"}, "fusion_lon": 0.0}, {"lat": 38.972736166666664, "is_disabled": 0, "type": "electric_bike", "lon": -77.03629533333333, "bike_id": "6b3309e14ff81d78d44ad0305da5a2e3", "fusion_lat": 0.0, "name": "6b3309e14ff81d78d44ad0305da5a2e3", "is_reserved": 0, "rental_uris": {"android": "https://dc.lft.to/lastmile_qr_scan", "ios": "https://dc.lft.to/lastmile_qr_scan"}, "fusion_lon": 0.0}, {"lat": 38.91421233333333, "is_disabled": 0, "type": "electric_scooter", "lon": -77.02205316666667, "bike_id": "e981d70907da434dbf681b6dea03bcb7", "fusion_lat": 0.0, "name": "e981d70907da434dbf681b6dea03bcb7", "is_reserved": 0, "rental_uris": {"android": "https://dc.lft.to/lastmile_qr_scan", "ios": "https://dc.lft.to/lastmile_qr_scan"}, "fusion_lon": 0.0}, {"lat": 38.923243666666664, "is_disabled": 0, "type": "electric_scooter", "lon": -77.041917, "bike_id": "9a8319b17b066757bdd8916b8507babf", "fusion_lat": 0.0, "name": "9a8319b17b066757bdd8916b8507babf", "is_reserved": 0, "rental_uris": {"android": "https://dc.lft.to/lastmile_qr_scan", "ios": "https://dc.lft.to/lastmile_qr_scan"}, "fusion_lon": 0.0}, {"lat": 38.870939, "is_disabled": 0, "type": "electric_bike", "lon": -77.1333555, "bike_id": "252e115029a74ed97b3b29c6ae91ebc5", "fusion_lat": 0.0, "name": "252e115029a74ed97b3b29c6ae91ebc5", "is_reserved": 0, "rental_uris": {"android": "https://dc.lft.to/lastmile_qr_scan", "ios": "https://dc.lft.to/lastmile_qr_scan"}, "fusion_lon": 0.0}, {"lat": 38.91820966666667, "is_disabled": 0, "type": "electric_scooter", "lon": -77.03916333333333, "bike_id": "0d1296c8575a2ab41c339245b7bc0451", "fusion_lat": 0.0, "name": "0d1296c8575a2ab41c339245b7bc0451", "is_reserved": 0, "rental_uris": {"android": "https://dc.lft.to/lastmile_qr_scan", "ios": "https://dc.lft.to/lastmile_qr_scan"}, "fusion_lon": 0.0}, {"lat": 38.90769783333333, "is_disabled": 0, "type": "electric_scooter", "lon": -76.9830995, "bike_id": "7bc4e537b8eb2b5b2fc003ee273310ce", "fusion_lat": 0.0, "name": "7bc4e537b8eb2b5b2fc003ee273310ce", "is_reserved": 0, "rental_uris": {"android": "https://dc.lft.to/lastmile_qr_scan", "ios": "https://dc.lft.to/lastmile_qr_scan"}, "fusion_lon": 0.0}, {"lat": 38.90364366666667, "is_disabled": 0, "type": "electric_scooter", "lon": -77.0400245, "bike_id": "27f57ed2e547a63cd5d0c076dca3d117", "fusion_lat": 0.0, "name": "27f57ed2e547a63cd5d0c076dca3d117", "is_reserved": 0, "rental_uris": {"android": "https://dc.lft.to/lastmile_qr_scan", "ios": "https://dc.lft.to/lastmile_qr_scan"}, "fusion_lon": 0.0}, {"lat": 38.894667166666665, "is_disabled": 0, "type": "electric_scooter", "lon": -77.02120766666667, "bike_id": "56129509cbee89b16c9d2c749342e4aa", "fusion_lat": 0.0, "name": "56129509cbee89b16c9d2c749342e4aa", "is_reserved": 0, "rental_uris": {"android": "https://dc.lft.to/lastmile_qr_scan", "ios": "https://dc.lft.to/lastmile_qr_scan"}, "fusion_lon": 0.0}, {"lat": 38.90976766666667, "is_disabled": 0, "type": "electric_bike", "lon": -76.98518916666667, "bike_id": "dc1264ab69de77e487c5a78f1c320b28", "fusion_lat": 0.0, "name": "dc1264ab69de77e487c5a78f1c320b28", "is_reserved": 0, "rental_uris": {"android": "https://dc.lft.to/lastmile_qr_scan", "ios": "https://dc.lft.to/lastmile_qr_scan"}, "fusion_lon": 0.0}, {"lat": 38.8934685, "is_disabled": 0, "type": "electric_scooter", "lon": -76.949377, "bike_id": "7c3710240696a44f6eabbb63596bcc89", "fusion_lat": 0.0, "name": "7c3710240696a44f6eabbb63596bcc89", "is_reserved": 0, "rental_uris": {"android": "https://dc.lft.to/lastmile_qr_scan", "ios": "https://dc.lft.to/lastmile_qr_scan"}, "fusion_lon": 0.0}, {"lat": 38.900398333333335, "is_disabled": 0, "type": "electric_scooter", "lon": -76.9837285, "bike_id": "4983e83069fe42077dcf91ccdc3987f1", "fusion_lat": 0.0, "name": "4983e83069fe42077dcf91ccdc3987f1", "is_reserved": 0, "rental_uris": {"android": "https://dc.lft.to/lastmile_qr_scan", "ios": "https://dc.lft.to/lastmile_qr_scan"}, "fusion_lon": 0.0}, {"lat": 38.931394, "is_disabled": 0, "type": "electric_scooter", "lon": -77.02142516666666, "bike_id": "664fb2785bcc567a6dfa3faa4897548c", "fusion_lat": 0.0, "name": "664fb2785bcc567a6dfa3faa4897548c", "is_reserved": 0, "rental_uris": {"android": "https://dc.lft.to/lastmile_qr_scan", "ios": "https://dc.lft.to/lastmile_qr_scan"}, "fusion_lon": 0.0}, {"lat": 38.901810166666664, "is_disabled": 0, "type": "electric_scooter", "lon": -77.023965, "bike_id": "768f904a4a5d17aaac9633d99ed7d39a", "fusion_lat": 0.0, "name": "768f904a4a5d17aaac9633d99ed7d39a", "is_reserved": 0, "rental_uris": {"android": "https://dc.lft.to/lastmile_qr_scan", "ios": "https://dc.lft.to/lastmile_qr_scan"}, "fusion_lon": 0.0}, {"lat": 38.940662, "is_disabled": 0, "type": "electric_scooter", "lon": -76.994674, "bike_id": "2418a2777f985dde129f4ca0a20b26cb", "fusion_lat": 0.0, "name": "2418a2777f985dde129f4ca0a20b26cb", "is_reserved": 0, "rental_uris": {"android": "https://dc.lft.to/lastmile_qr_scan", "ios": "https://dc.lft.to/lastmile_qr_scan"}, "fusion_lon": 0.0}, {"lat": 38.91940966666667, "is_disabled": 0, "type": "electric_scooter", "lon": -77.03189016666667, "bike_id": "77cf4e2dc14763b5226b81426390e52c", "fusion_lat": 0.0, "name": "77cf4e2dc14763b5226b81426390e52c", "is_reserved": 0, "rental_uris": {"android": "https://dc.lft.to/lastmile_qr_scan", "ios": "https://dc.lft.to/lastmile_qr_scan"}, "fusion_lon": 0.0}, {"lat": 38.91742133333333, "is_disabled": 0, "type": "electric_scooter", "lon": -77.03202766666666, "bike_id": "531bb599e003804672ff6296a5f2fe8c", "fusion_lat": 0.0, "name": "531bb599e003804672ff6296a5f2fe8c", "is_reserved": 0, "rental_uris": {"android": "https://dc.lft.to/lastmile_qr_scan", "ios": "https://dc.lft.to/lastmile_qr_scan"}, "fusion_lon": 0.0}, {"lat": 38.90266033333333, "is_disabled": 0, "type": "electric_scooter", "lon": -77.05258116666667, "bike_id": "9fafc6d52c06e621755b824f859698d1", "fusion_lat": 0.0, "name": "9fafc6d52c06e621755b824f859698d1", "is_reserved": 0, "rental_uris": {"android": "https://dc.lft.to/lastmile_qr_scan", "ios": "https://dc.lft.to/lastmile_qr_scan"}, "fusion_lon": 0.0}, {"lat": 38.88478833333333, "is_disabled": 0, "type": "electric_scooter", "lon": -76.9452605, "bike_id": "db2610e25e9ef30ca7c580df172555ca", "fusion_lat": 0.0, "name": "db2610e25e9ef30ca7c580df172555ca", "is_reserved": 0, "rental_uris": {"android": "https://dc.lft.to/lastmile_qr_scan", "ios": "https://dc.lft.to/lastmile_qr_scan"}, "fusion_lon": 0.0}, {"lat": 38.905636666666666, "is_disabled": 0, "type": "electric_scooter", "lon": -77.01309783333333, "bike_id": "6446e960107df297df63c3ab55331368", "fusion_lat": 0.0, "name": "6446e960107df297df63c3ab55331368", "is_reserved": 0, "rental_uris": {"android": "https://dc.lft.to/lastmile_qr_scan", "ios": "https://dc.lft.to/lastmile_qr_scan"}, "fusion_lon": 0.0}, {"lat": 38.91745616666667, "is_disabled": 0, "type": "electric_scooter", "lon": -77.03185933333333, "bike_id": "e617bcefe05a0ed84c09371bae891731", "fusion_lat": 0.0, "name": "e617bcefe05a0ed84c09371bae891731", "is_reserved": 0, "rental_uris": {"android": "https://dc.lft.to/lastmile_qr_scan", "ios": "https://dc.lft.to/lastmile_qr_scan"}, "fusion_lon": 0.0}, {"lat": 38.930752166666664, "is_disabled": 0, "type": "electric_scooter", "lon": -77.07762616666666, "bike_id": "9e440473d92bfea3655c1431d3814d0d", "fusion_lat": 0.0, "name": "9e440473d92bfea3655c1431d3814d0d", "is_reserved": 0, "rental_uris": {"android": "https://dc.lft.to/lastmile_qr_scan", "ios": "https://dc.lft.to/lastmile_qr_scan"}, "fusion_lon": 0.0}, {"lat": 38.917753166666664, "is_disabled": 0, "type": "electric_scooter", "lon": -77.02240733333333, "bike_id": "7a351a596da5fed443c1f92dfdf6a590", "fusion_lat": 0.0, "name": "7a351a596da5fed443c1f92dfdf6a590", "is_reserved": 0, "rental_uris": {"android": "https://dc.lft.to/lastmile_qr_scan", "ios": "https://dc.lft.to/lastmile_qr_scan"}, "fusion_lon": 0.0}, {"lat": 38.90943683333333, "is_disabled": 0, "type": "electric_scooter", "lon": -77.04433366666666, "bike_id": "dbc32647818b299aa5f313bf5fc5b9be", "fusion_lat": 0.0, "name": "dbc32647818b299aa5f313bf5fc5b9be", "is_reserved": 0, "rental_uris": {"android": "https://dc.lft.to/lastmile_qr_scan", "ios": "https://dc.lft.to/lastmile_qr_scan"}, "fusion_lon": 0.0}, {"lat": 38.89552316666666, "is_disabled": 0, "type": "electric_scooter", "lon": -76.93381533333333, "bike_id": "292b121680e923350514191cd967409a", "fusion_lat": 0.0, "name": "292b121680e923350514191cd967409a", "is_reserved": 0, "rental_uris": {"android": "https://dc.lft.to/lastmile_qr_scan", "ios": "https://dc.lft.to/lastmile_qr_scan"}, "fusion_lon": 0.0}, {"lat": 38.87470583333333, "is_disabled": 0, "type": "electric_scooter", "lon": -77.00524116666666, "bike_id": "c117692bb66341c885620f46e46abb0d", "fusion_lat": 0.0, "name": "c117692bb66341c885620f46e46abb0d", "is_reserved": 0, "rental_uris": {"android": "https://dc.lft.to/lastmile_qr_scan", "ios": "https://dc.lft.to/lastmile_qr_scan"}, "fusion_lon": 0.0}, {"lat": 38.926619333333335, "is_disabled": 0, "type": "electric_scooter", "lon": -77.055999, "bike_id": "ed5f8656e819c557d50f4d4c7bf1b919", "fusion_lat": 0.0, "name": "ed5f8656e819c557d50f4d4c7bf1b919", "is_reserved": 0, "rental_uris": {"android": "https://dc.lft.to/lastmile_qr_scan", "ios": "https://dc.lft.to/lastmile_qr_scan"}, "fusion_lon": 0.0}, {"lat": 38.91481533333334, "is_disabled": 0, "type": "electric_scooter", "lon": -77.03236516666666, "bike_id": "cb6284147196fb953d2c539c100bcb72", "fusion_lat": 0.0, "name": "cb6284147196fb953d2c539c100bcb72", "is_reserved": 0, "rental_uris": {"android": "https://dc.lft.to/lastmile_qr_scan", "ios": "https://dc.lft.to/lastmile_qr_scan"}, "fusion_lon": 0.0}, {"lat": 38.8922835, "is_disabled": 0, "type": "electric_scooter", "lon": -77.028301, "bike_id": "de5ec4d6c71aa9012903af6cead4a36a", "fusion_lat": 0.0, "name": "de5ec4d6c71aa9012903af6cead4a36a", "is_reserved": 0, "rental_uris": {"android": "https://dc.lft.to/lastmile_qr_scan", "ios": "https://dc.lft.to/lastmile_qr_scan"}, "fusion_lon": 0.0}, {"lat": 38.96062083333333, "is_disabled": 0, "type": "electric_scooter", "lon": -77.07307583333333, "bike_id": "9f9f6f655fd8bed393b0b16ee57fa93b", "fusion_lat": 0.0, "name": "9f9f6f655fd8bed393b0b16ee57fa93b", "is_reserved": 0, "rental_uris": {"android": "https://dc.lft.to/lastmile_qr_scan", "ios": "https://dc.lft.to/lastmile_qr_scan"}, "fusion_lon": 0.0}, {"lat": 38.9038665, "is_disabled": 0, "type": "electric_scooter", "lon": -76.97613583333333, "bike_id": "5cfe0e7f4c4fed01403c5eed6dbd368e", "fusion_lat": 0.0, "name": "5cfe0e7f4c4fed01403c5eed6dbd368e", "is_reserved": 0, "rental_uris": {"android": "https://dc.lft.to/lastmile_qr_scan", "ios": "https://dc.lft.to/lastmile_qr_scan"}, "fusion_lon": 0.0}, {"lat": 38.9259645, "is_disabled": 0, "type": "electric_scooter", "lon": -77.0249095, "bike_id": "61c7fab358ca155d81d93c1100d23365", "fusion_lat": 0.0, "name": "61c7fab358ca155d81d93c1100d23365", "is_reserved": 0, "rental_uris": {"android": "https://dc.lft.to/lastmile_qr_scan", "ios": "https://dc.lft.to/lastmile_qr_scan"}, "fusion_lon": 0.0}, {"lat": 38.89227916666667, "is_disabled": 0, "type": "electric_scooter", "lon": -77.05005116666666, "bike_id": "e84026223d0ac41d6b8e2f463971a5ef", "fusion_lat": 0.0, "name": "e84026223d0ac41d6b8e2f463971a5ef", "is_reserved": 0, "rental_uris": {"android": "https://dc.lft.to/lastmile_qr_scan", "ios": "https://dc.lft.to/lastmile_qr_scan"}, "fusion_lon": 0.0}, {"lat": 38.913428, "is_disabled": 0, "type": "electric_scooter", "lon": -77.04289016666667, "bike_id": "5f1932730897c11dfbc946ec9c6414d2", "fusion_lat": 0.0, "name": "5f1932730897c11dfbc946ec9c6414d2", "is_reserved": 0, "rental_uris": {"android": "https://dc.lft.to/lastmile_qr_scan", "ios": "https://dc.lft.to/lastmile_qr_scan"}, "fusion_lon": 0.0}, {"lat": 38.9006225, "is_disabled": 0, "type": "electric_scooter", "lon": -77.045378, "bike_id": "6a4ab32978d4514e7298ee69ffc6fa9e", "fusion_lat": 0.0, "name": "6a4ab32978d4514e7298ee69ffc6fa9e", "is_reserved": 0, "rental_uris": {"android": "https://dc.lft.to/lastmile_qr_scan", "ios": "https://dc.lft.to/lastmile_qr_scan"}, "fusion_lon": 0.0}, {"lat": 38.88659666666667, "is_disabled": 0, "type": "electric_bike", "lon": -77.03392216666667, "bike_id": "29558f35c0bc31aa2ffc3c8e9b8e964e", "fusion_lat": 0.0, "name": "29558f35c0bc31aa2ffc3c8e9b8e964e", "is_reserved": 0, "rental_uris": {"android": "https://dc.lft.to/lastmile_qr_scan", "ios": "https://dc.lft.to/lastmile_qr_scan"}, "fusion_lon": 0.0}, {"lat": 38.91780283333333, "is_disabled": 0, "type": "electric_scooter", "lon": -77.02603416666666, "bike_id": "e842ddf3f0ec2710425a7eab2fad15c4", "fusion_lat": 0.0, "name": "e842ddf3f0ec2710425a7eab2fad15c4", "is_reserved": 0, "rental_uris": {"android": "https://dc.lft.to/lastmile_qr_scan", "ios": "https://dc.lft.to/lastmile_qr_scan"}, "fusion_lon": 0.0}, {"lat": 38.928537, "is_disabled": 0, "type": "electric_scooter", "lon": -77.02995133333333, "bike_id": "1a39bc4880077c9fa6fc84110eb1811f", "fusion_lat": 0.0, "name": "1a39bc4880077c9fa6fc84110eb1811f", "is_reserved": 0, "rental_uris": {"android": "https://dc.lft.to/lastmile_qr_scan", "ios": "https://dc.lft.to/lastmile_qr_scan"}, "fusion_lon": 0.0}, {"lat": 38.876736, "is_disabled": 0, "type": "electric_bike", "lon": -77.01441133333333, "bike_id": "930ce1bfcbfc0dcc70281e8d2fda412b", "fusion_lat": 0.0, "name": "930ce1bfcbfc0dcc70281e8d2fda412b", "is_reserved": 0, "rental_uris": {"android": "https://dc.lft.to/lastmile_qr_scan", "ios": "https://dc.lft.to/lastmile_qr_scan"}, "fusion_lon": 0.0}, {"lat": 38.96133616666667, "is_disabled": 0, "type": "electric_scooter", "lon": -77.02238033333333, "bike_id": "55ca3c1d07cb71df3693f7d901ac87dc", "fusion_lat": 0.0, "name": "55ca3c1d07cb71df3693f7d901ac87dc", "is_reserved": 0, "rental_uris": {"android": "https://dc.lft.to/lastmile_qr_scan", "ios": "https://dc.lft.to/lastmile_qr_scan"}, "fusion_lon": 0.0}, {"lat": 38.90557883333334, "is_disabled": 0, "type": "electric_scooter", "lon": -77.03075816666667, "bike_id": "65b63c72c84110490d87c5e7314b7411", "fusion_lat": 0.0, "name": "65b63c72c84110490d87c5e7314b7411", "is_reserved": 0, "rental_uris": {"android": "https://dc.lft.to/lastmile_qr_scan", "ios": "https://dc.lft.to/lastmile_qr_scan"}, "fusion_lon": 0.0}, {"lat": 38.929755666666665, "is_disabled": 0, "type": "electric_scooter", "lon": -77.01301683333334, "bike_id": "d6b20e0b4248cec85ced3619f1143029", "fusion_lat": 0.0, "name": "d6b20e0b4248cec85ced3619f1143029", "is_reserved": 0, "rental_uris": {"android": "https://dc.lft.to/lastmile_qr_scan", "ios": "https://dc.lft.to/lastmile_qr_scan"}, "fusion_lon": 0.0}, {"lat": 38.906659, "is_disabled": 0, "type": "electric_scooter", "lon": -77.0386015, "bike_id": "6a477769ca5906d57b43107bb87e785f", "fusion_lat": 0.0, "name": "6a477769ca5906d57b43107bb87e785f", "is_reserved": 0, "rental_uris": {"android": "https://dc.lft.to/lastmile_qr_scan", "ios": "https://dc.lft.to/lastmile_qr_scan"}, "fusion_lon": 0.0}, {"lat": 38.929144, "is_disabled": 0, "type": "electric_scooter", "lon": -77.03254066666666, "bike_id": "5847299f9e65c80b4da7a2808c6603cf", "fusion_lat": 0.0, "name": "5847299f9e65c80b4da7a2808c6603cf", "is_reserved": 0, "rental_uris": {"android": "https://dc.lft.to/lastmile_qr_scan", "ios": "https://dc.lft.to/lastmile_qr_scan"}, "fusion_lon": 0.0}, {"lat": 38.8571725, "is_disabled": 0, "type": "electric_bike", "lon": -76.97098783333334, "bike_id": "5e999c40f72d25177289d0e00fe8f560", "fusion_lat": 0.0, "name": "5e999c40f72d25177289d0e00fe8f560", "is_reserved": 0, "rental_uris": {"android": "https://dc.lft.to/lastmile_qr_scan", "ios": "https://dc.lft.to/lastmile_qr_scan"}, "fusion_lon": 0.0}, {"lat": 38.8714575, "is_disabled": 0, "type": "electric_bike", "lon": -76.93701433333334, "bike_id": "4752ec8f73ebe2081e04759102c71d3d", "fusion_lat": 0.0, "name": "4752ec8f73ebe2081e04759102c71d3d", "is_reserved": 0, "rental_uris": {"android": "https://dc.lft.to/lastmile_qr_scan", "ios": "https://dc.lft.to/lastmile_qr_scan"}, "fusion_lon": 0.0}, {"lat": 38.912629, "is_disabled": 0, "type": "electric_scooter", "lon": -77.03231783333334, "bike_id": "6dc4578fd7caea624d8fc4a0e8565768", "fusion_lat": 0.0, "name": "6dc4578fd7caea624d8fc4a0e8565768", "is_reserved": 0, "rental_uris": {"android": "https://dc.lft.to/lastmile_qr_scan", "ios": "https://dc.lft.to/lastmile_qr_scan"}, "fusion_lon": 0.0}, {"lat": 38.9237565, "is_disabled": 0, "type": "electric_scooter", "lon": -77.03157616666667, "bike_id": "0b782fc0a2a6aee8b06921d7a5677308", "fusion_lat": 0.0, "name": "0b782fc0a2a6aee8b06921d7a5677308", "is_reserved": 0, "rental_uris": {"android": "https://dc.lft.to/lastmile_qr_scan", "ios": "https://dc.lft.to/lastmile_qr_scan"}, "fusion_lon": 0.0}, {"lat": 38.9156575, "is_disabled": 0, "type": "electric_scooter", "lon": -77.03174533333333, "bike_id": "6bffc34bde934f6319e8f55f8fd2ab54", "fusion_lat": 0.0, "name": "6bffc34bde934f6319e8f55f8fd2ab54", "is_reserved": 0, "rental_uris": {"android": "https://dc.lft.to/lastmile_qr_scan", "ios": "https://dc.lft.to/lastmile_qr_scan"}, "fusion_lon": 0.0}, {"lat": 38.8881405, "is_disabled": 0, "type": "electric_bike", "lon": -77.03844683333334, "bike_id": "b156b6708822d24310f5414e02359f6e", "fusion_lat": 0.0, "name": "b156b6708822d24310f5414e02359f6e", "is_reserved": 0, "rental_uris": {"android": "https://dc.lft.to/lastmile_qr_scan", "ios": "https://dc.lft.to/lastmile_qr_scan"}, "fusion_lon": 0.0}, {"lat": 38.933407333333335, "is_disabled": 0, "type": "electric_scooter", "lon": -76.99311283333333, "bike_id": "7c044521e23a5b558f0665c8a732eb51", "fusion_lat": 0.0, "name": "7c044521e23a5b558f0665c8a732eb51", "is_reserved": 0, "rental_uris": {"android": "https://dc.lft.to/lastmile_qr_scan", "ios": "https://dc.lft.to/lastmile_qr_scan"}, "fusion_lon": 0.0}, {"lat": 38.9000875, "is_disabled": 0, "type": "electric_scooter", "lon": -76.92237083333333, "bike_id": "6783fec9ca7e2bee980620417914ba99", "fusion_lat": 0.0, "name": "6783fec9ca7e2bee980620417914ba99", "is_reserved": 0, "rental_uris": {"android": "https://dc.lft.to/lastmile_qr_scan", "ios": "https://dc.lft.to/lastmile_qr_scan"}, "fusion_lon": 0.0}, {"lat": 38.899503333333335, "is_disabled": 0, "type": "electric_scooter", "lon": -77.0035395, "bike_id": "8d4fdf5bc4b05d00a01afe470937e022", "fusion_lat": 0.0, "name": "8d4fdf5bc4b05d00a01afe470937e022", "is_reserved": 0, "rental_uris": {"android": "https://dc.lft.to/lastmile_qr_scan", "ios": "https://dc.lft.to/lastmile_qr_scan"}, "fusion_lon": 0.0}, {"lat": 38.93135, "is_disabled": 0, "type": "electric_scooter", "lon": -77.02147716666667, "bike_id": "528e6b57914c25d4862eedb9c8323f23", "fusion_lat": 0.0, "name": "528e6b57914c25d4862eedb9c8323f23", "is_reserved": 0, "rental_uris": {"android": "https://dc.lft.to/lastmile_qr_scan", "ios": "https://dc.lft.to/lastmile_qr_scan"}, "fusion_lon": 0.0}, {"lat": 38.90070716666666, "is_disabled": 0, "type": "electric_scooter", "lon": -77.025996, "bike_id": "64e3202c5a9427aa56e08354d68bc930", "fusion_lat": 0.0, "name": "64e3202c5a9427aa56e08354d68bc930", "is_reserved": 0, "rental_uris": {"android": "https://dc.lft.to/lastmile_qr_scan", "ios": "https://dc.lft.to/lastmile_qr_scan"}, "fusion_lon": 0.0}, {"lat": 38.916912333333336, "is_disabled": 0, "type": "electric_scooter", "lon": -77.02601133333333, "bike_id": "6e43ea05fa66a0e8d161c11bc62f256a", "fusion_lat": 0.0, "name": "6e43ea05fa66a0e8d161c11bc62f256a", "is_reserved": 0, "rental_uris": {"android": "https://dc.lft.to/lastmile_qr_scan", "ios": "https://dc.lft.to/lastmile_qr_scan"}, "fusion_lon": 0.0}, {"lat": 38.91446933333334, "is_disabled": 0, "type": "electric_scooter", "lon": -77.02973683333333, "bike_id": "ca9e8f3a7225eaf09e918dd32b69c04f", "fusion_lat": 0.0, "name": "ca9e8f3a7225eaf09e918dd32b69c04f", "is_reserved": 0, "rental_uris": {"android": "https://dc.lft.to/lastmile_qr_scan", "ios": "https://dc.lft.to/lastmile_qr_scan"}, "fusion_lon": 0.0}, {"lat": 38.92244783333334, "is_disabled": 0, "type": "electric_scooter", "lon": -77.04245833333333, "bike_id": "35ff4ca8551e2f64a9af0878f0534d9c", "fusion_lat": 0.0, "name": "35ff4ca8551e2f64a9af0878f0534d9c", "is_reserved": 0, "rental_uris": {"android": "https://dc.lft.to/lastmile_qr_scan", "ios": "https://dc.lft.to/lastmile_qr_scan"}, "fusion_lon": 0.0}, {"lat": 38.911102666666665, "is_disabled": 0, "type": "electric_scooter", "lon": -77.03808916666667, "bike_id": "1b6b3b12a49d0bad19930fb8fb02095a", "fusion_lat": 0.0, "name": "1b6b3b12a49d0bad19930fb8fb02095a", "is_reserved": 0, "rental_uris": {"android": "https://dc.lft.to/lastmile_qr_scan", "ios": "https://dc.lft.to/lastmile_qr_scan"}, "fusion_lon": 0.0}, {"lat": 38.92571983333333, "is_disabled": 0, "type": "electric_scooter", "lon": -77.04010516666666, "bike_id": "07b92a8ea2d4012177fc7d654dcf1d1e", "fusion_lat": 0.0, "name": "07b92a8ea2d4012177fc7d654dcf1d1e", "is_reserved": 0, "rental_uris": {"android": "https://dc.lft.to/lastmile_qr_scan", "ios": "https://dc.lft.to/lastmile_qr_scan"}, "fusion_lon": 0.0}, {"lat": 38.892236, "is_disabled": 0, "type": "electric_scooter", "lon": -77.04864133333334, "bike_id": "047184bec554582e85b0cc892affebd4", "fusion_lat": 0.0, "name": "047184bec554582e85b0cc892affebd4", "is_reserved": 0, "rental_uris": {"android": "https://dc.lft.to/lastmile_qr_scan", "ios": "https://dc.lft.to/lastmile_qr_scan"}, "fusion_lon": 0.0}, {"lat": 38.90721083333333, "is_disabled": 0, "type": "electric_scooter", "lon": -77.02985583333333, "bike_id": "8e923070087d53d66167dd9c7268569c", "fusion_lat": 0.0, "name": "8e923070087d53d66167dd9c7268569c", "is_reserved": 0, "rental_uris": {"android": "https://dc.lft.to/lastmile_qr_scan", "ios": "https://dc.lft.to/lastmile_qr_scan"}, "fusion_lon": 0.0}, {"lat": 38.962040333333334, "is_disabled": 0, "type": "electric_bike", "lon": -77.03515583333333, "bike_id": "0ea054637d54917f09bf68c535a818d7", "fusion_lat": 0.0, "name": "0ea054637d54917f09bf68c535a818d7", "is_reserved": 0, "rental_uris": {"android": "https://dc.lft.to/lastmile_qr_scan", "ios": "https://dc.lft.to/lastmile_qr_scan"}, "fusion_lon": 0.0}, {"lat": 38.853206666666665, "is_disabled": 0, "type": "electric_scooter", "lon": -76.98024766666667, "bike_id": "2cf4bfcd5a048551f7c669136e4a7f54", "fusion_lat": 0.0, "name": "2cf4bfcd5a048551f7c669136e4a7f54", "is_reserved": 0, "rental_uris": {"android": "https://dc.lft.to/lastmile_qr_scan", "ios": "https://dc.lft.to/lastmile_qr_scan"}, "fusion_lon": 0.0}, {"lat": 38.925114, "is_disabled": 0, "type": "electric_scooter", "lon": -77.023627, "bike_id": "6476407a898b40103bcf5ea38ec555d9", "fusion_lat": 0.0, "name": "6476407a898b40103bcf5ea38ec555d9", "is_reserved": 0, "rental_uris": {"android": "https://dc.lft.to/lastmile_qr_scan", "ios": "https://dc.lft.to/lastmile_qr_scan"}, "fusion_lon": 0.0}, {"lat": 38.813479, "is_disabled": 0, "type": "electric_bike", "lon": -77.049244, "bike_id": "9a20abab4113ff4a0542d405bd8c97a8", "fusion_lat": 0.0, "name": "9a20abab4113ff4a0542d405bd8c97a8", "is_reserved": 0, "rental_uris": {"android": "https://dc.lft.to/lastmile_qr_scan", "ios": "https://dc.lft.to/lastmile_qr_scan"}, "fusion_lon": 0.0}, {"lat": 38.9128985, "is_disabled": 0, "type": "electric_scooter", "lon": -77.03864233333333, "bike_id": "2552497fe29025bbab94e51c93d2134e", "fusion_lat": 0.0, "name": "2552497fe29025bbab94e51c93d2134e", "is_reserved": 0, "rental_uris": {"android": "https://dc.lft.to/lastmile_qr_scan", "ios": "https://dc.lft.to/lastmile_qr_scan"}, "fusion_lon": 0.0}, {"lat": 38.89616516666667, "is_disabled": 0, "type": "electric_scooter", "lon": -76.9565975, "bike_id": "4a480a3de47ceca54eebe977309fff57", "fusion_lat": 0.0, "name": "4a480a3de47ceca54eebe977309fff57", "is_reserved": 0, "rental_uris": {"android": "https://dc.lft.to/lastmile_qr_scan", "ios": "https://dc.lft.to/lastmile_qr_scan"}, "fusion_lon": 0.0}, {"lat": 38.910509, "is_disabled": 0, "type": "electric_scooter", "lon": -77.0152515, "bike_id": "2bda05631deb760a6e9ebf6c36913e03", "fusion_lat": 0.0, "name": "2bda05631deb760a6e9ebf6c36913e03", "is_reserved": 0, "rental_uris": {"android": "https://dc.lft.to/lastmile_qr_scan", "ios": "https://dc.lft.to/lastmile_qr_scan"}, "fusion_lon": 0.0}, {"lat": 38.941125666666665, "is_disabled": 0, "type": "electric_scooter", "lon": -77.00054666666666, "bike_id": "b1fb846e3ea2afbdb991b427acb3c01e", "fusion_lat": 0.0, "name": "b1fb846e3ea2afbdb991b427acb3c01e", "is_reserved": 0, "rental_uris": {"android": "https://dc.lft.to/lastmile_qr_scan", "ios": "https://dc.lft.to/lastmile_qr_scan"}, "fusion_lon": 0.0}, {"lat": 38.895559166666665, "is_disabled": 0, "type": "electric_scooter", "lon": -77.0036525, "bike_id": "3d409fc1cf8bf2c4976053c24b1856fe", "fusion_lat": 0.0, "name": "3d409fc1cf8bf2c4976053c24b1856fe", "is_reserved": 0, "rental_uris": {"android": "https://dc.lft.to/lastmile_qr_scan", "ios": "https://dc.lft.to/lastmile_qr_scan"}, "fusion_lon": 0.0}, {"lat": 38.9001895, "is_disabled": 0, "type": "electric_scooter", "lon": -77.032947, "bike_id": "8987d142ec20a035e20de10c31566daf", "fusion_lat": 0.0, "name": "8987d142ec20a035e20de10c31566daf", "is_reserved": 0, "rental_uris": {"android": "https://dc.lft.to/lastmile_qr_scan", "ios": "https://dc.lft.to/lastmile_qr_scan"}, "fusion_lon": 0.0}, {"lat": 38.907845333333334, "is_disabled": 0, "type": "electric_scooter", "lon": -77.01101916666667, "bike_id": "be47a366e65132775c8f111a66d17a58", "fusion_lat": 0.0, "name": "be47a366e65132775c8f111a66d17a58", "is_reserved": 0, "rental_uris": {"android": "https://dc.lft.to/lastmile_qr_scan", "ios": "https://dc.lft.to/lastmile_qr_scan"}, "fusion_lon": 0.0}, {"lat": 38.87170833333333, "is_disabled": 0, "type": "electric_scooter", "lon": -77.0136145, "bike_id": "06118bd470756cdb79618002e7af1515", "fusion_lat": 0.0, "name": "06118bd470756cdb79618002e7af1515", "is_reserved": 0, "rental_uris": {"android": "https://dc.lft.to/lastmile_qr_scan", "ios": "https://dc.lft.to/lastmile_qr_scan"}, "fusion_lon": 0.0}, {"lat": 38.93859483333333, "is_disabled": 0, "type": "electric_scooter", "lon": -77.03202583333334, "bike_id": "5f26c6a958d404383c753f9484141e53", "fusion_lat": 0.0, "name": "5f26c6a958d404383c753f9484141e53", "is_reserved": 0, "rental_uris": {"android": "https://dc.lft.to/lastmile_qr_scan", "ios": "https://dc.lft.to/lastmile_qr_scan"}, "fusion_lon": 0.0}, {"lat": 38.94904283333334, "is_disabled": 0, "type": "electric_scooter", "lon": -77.06628366666666, "bike_id": "775874f557ae3d647126779286125f47", "fusion_lat": 0.0, "name": "775874f557ae3d647126779286125f47", "is_reserved": 0, "rental_uris": {"android": "https://dc.lft.to/lastmile_qr_scan", "ios": "https://dc.lft.to/lastmile_qr_scan"}, "fusion_lon": 0.0}, {"lat": 38.92352183333333, "is_disabled": 0, "type": "electric_scooter", "lon": -77.05432416666666, "bike_id": "0649834e61f42d16440284aa69176230", "fusion_lat": 0.0, "name": "0649834e61f42d16440284aa69176230", "is_reserved": 0, "rental_uris": {"android": "https://dc.lft.to/lastmile_qr_scan", "ios": "https://dc.lft.to/lastmile_qr_scan"}, "fusion_lon": 0.0}, {"lat": 38.8816205, "is_disabled": 0, "type": "electric_scooter", "lon": -77.02757633333333, "bike_id": "8ff7b168b25f4ac8a51f247d017cbc3d", "fusion_lat": 0.0, "name": "8ff7b168b25f4ac8a51f247d017cbc3d", "is_reserved": 0, "rental_uris": {"android": "https://dc.lft.to/lastmile_qr_scan", "ios": "https://dc.lft.to/lastmile_qr_scan"}, "fusion_lon": 0.0}, {"lat": 38.915614166666664, "is_disabled": 0, "type": "electric_scooter", "lon": -77.01050166666667, "bike_id": "b6f3bda6e2917dc7ebcf6819eba20744", "fusion_lat": 0.0, "name": "b6f3bda6e2917dc7ebcf6819eba20744", "is_reserved": 0, "rental_uris": {"android": "https://dc.lft.to/lastmile_qr_scan", "ios": "https://dc.lft.to/lastmile_qr_scan"}, "fusion_lon": 0.0}, {"lat": 38.932954, "is_disabled": 0, "type": "electric_scooter", "lon": -77.04533966666666, "bike_id": "7d7a185884da810cd4a53b84d95a3973", "fusion_lat": 0.0, "name": "7d7a185884da810cd4a53b84d95a3973", "is_reserved": 0, "rental_uris": {"android": "https://dc.lft.to/lastmile_qr_scan", "ios": "https://dc.lft.to/lastmile_qr_scan"}, "fusion_lon": 0.0}, {"lat": 38.87072916666666, "is_disabled": 0, "type": "electric_bike", "lon": -76.97841783333334, "bike_id": "5927b6247ddd57f18277cd29bfce7a58", "fusion_lat": 0.0, "name": "5927b6247ddd57f18277cd29bfce7a58", "is_reserved": 0, "rental_uris": {"android": "https://dc.lft.to/lastmile_qr_scan", "ios": "https://dc.lft.to/lastmile_qr_scan"}, "fusion_lon": 0.0}, {"lat": 38.877318833333334, "is_disabled": 0, "type": "electric_scooter", "lon": -77.003383, "bike_id": "497b494dc1e7dabd1c8ba65001e70145", "fusion_lat": 0.0, "name": "497b494dc1e7dabd1c8ba65001e70145", "is_reserved": 0, "rental_uris": {"android": "https://dc.lft.to/lastmile_qr_scan", "ios": "https://dc.lft.to/lastmile_qr_scan"}, "fusion_lon": 0.0}, {"lat": 38.91461016666667, "is_disabled": 0, "type": "electric_scooter", "lon": -77.01434866666666, "bike_id": "e9b45c8b5fe8f7fbea457f68efaefb9e", "fusion_lat": 0.0, "name": "e9b45c8b5fe8f7fbea457f68efaefb9e", "is_reserved": 0, "rental_uris": {"android": "https://dc.lft.to/lastmile_qr_scan", "ios": "https://dc.lft.to/lastmile_qr_scan"}, "fusion_lon": 0.0}, {"lat": 38.8879185, "is_disabled": 0, "type": "electric_scooter", "lon": -76.93358133333334, "bike_id": "7b5294998cd7988adead43e6eaf1caed", "fusion_lat": 0.0, "name": "7b5294998cd7988adead43e6eaf1caed", "is_reserved": 0, "rental_uris": {"android": "https://dc.lft.to/lastmile_qr_scan", "ios": "https://dc.lft.to/lastmile_qr_scan"}, "fusion_lon": 0.0}, {"lat": 38.827821166666666, "is_disabled": 0, "type": "electric_bike", "lon": -77.00918733333333, "bike_id": "59af99287d95278a7c6c4bcc6e002715", "fusion_lat": 0.0, "name": "59af99287d95278a7c6c4bcc6e002715", "is_reserved": 0, "rental_uris": {"android": "https://dc.lft.to/lastmile_qr_scan", "ios": "https://dc.lft.to/lastmile_qr_scan"}, "fusion_lon": 0.0}, {"lat": 38.9169445, "is_disabled": 0, "type": "electric_scooter", "lon": -77.02601083333333, "bike_id": "49b55ca9f5b55d6ca8b3ba13cee6a1ed", "fusion_lat": 0.0, "name": "49b55ca9f5b55d6ca8b3ba13cee6a1ed", "is_reserved": 0, "rental_uris": {"android": "https://dc.lft.to/lastmile_qr_scan", "ios": "https://dc.lft.to/lastmile_qr_scan"}, "fusion_lon": 0.0}, {"lat": 38.93224283333333, "is_disabled": 0, "type": "electric_scooter", "lon": -77.044124, "bike_id": "f9d723de7f7fc31ee6f1bd60a9b08a68", "fusion_lat": 0.0, "name": "f9d723de7f7fc31ee6f1bd60a9b08a68", "is_reserved": 0, "rental_uris": {"android": "https://dc.lft.to/lastmile_qr_scan", "ios": "https://dc.lft.to/lastmile_qr_scan"}, "fusion_lon": 0.0}, {"lat": 38.80466583333333, "is_disabled": 0, "type": "electric_bike", "lon": -77.04333883333334, "bike_id": "07e51b447d619917f23c5a0124cd6254", "fusion_lat": 0.0, "name": "07e51b447d619917f23c5a0124cd6254", "is_reserved": 0, "rental_uris": {"android": "https://dc.lft.to/lastmile_qr_scan", "ios": "https://dc.lft.to/lastmile_qr_scan"}, "fusion_lon": 0.0}, {"lat": 38.8922485, "is_disabled": 0, "type": "electric_scooter", "lon": -77.048653, "bike_id": "017d52e330ec24c31741c343a60c910b", "fusion_lat": 0.0, "name": "017d52e330ec24c31741c343a60c910b", "is_reserved": 0, "rental_uris": {"android": "https://dc.lft.to/lastmile_qr_scan", "ios": "https://dc.lft.to/lastmile_qr_scan"}, "fusion_lon": 0.0}, {"lat": 38.921717, "is_disabled": 0, "type": "electric_scooter", "lon": -77.0513635, "bike_id": "c9492692d696c43a38169f70780bc7f0", "fusion_lat": 0.0, "name": "c9492692d696c43a38169f70780bc7f0", "is_reserved": 0, "rental_uris": {"android": "https://dc.lft.to/lastmile_qr_scan", "ios": "https://dc.lft.to/lastmile_qr_scan"}, "fusion_lon": 0.0}, {"lat": 38.85219883333333, "is_disabled": 0, "type": "electric_bike", "lon": -77.129618, "bike_id": "1137fe270ed6917355e1a566655d0ffc", "fusion_lat": 0.0, "name": "1137fe270ed6917355e1a566655d0ffc", "is_reserved": 0, "rental_uris": {"android": "https://dc.lft.to/lastmile_qr_scan", "ios": "https://dc.lft.to/lastmile_qr_scan"}, "fusion_lon": 0.0}, {"lat": 38.92017716666667, "is_disabled": 0, "type": "electric_scooter", "lon": -77.04188466666666, "bike_id": "af2d55a54d0e228089bf605fe5535bfe", "fusion_lat": 0.0, "name": "af2d55a54d0e228089bf605fe5535bfe", "is_reserved": 0, "rental_uris": {"android": "https://dc.lft.to/lastmile_qr_scan", "ios": "https://dc.lft.to/lastmile_qr_scan"}, "fusion_lon": 0.0},