{"data": {"bikes": [{"name": "ed76af588f4c3d37cfcea544e07fcbb3", "fusion_lat": 0.0, "type": "electric_scooter", "lat": 38.92001883333333, "is_reserved": 0, "is_disabled": 0, "fusion_lon": 0.0, "bike_id": "ed76af588f4c3d37cfcea544e07fcbb3", "lon": -77.08193816666666, "rental_uris": {"ios": "https://dc.lft.to/lastmile_qr_scan", "android": "https://dc.lft.to/lastmile_qr_scan"}}, {"name": "8b7335344c14b88b8246c404d14f3f17", "fusion_lat": 0.0, "type": "electric_scooter", "lat": 38.9272535, "is_reserved": 0, "is_disabled": 0, "fusion_lon": 0.0, "bike_id": "8b7335344c14b88b8246c404d14f3f17", "lon": -77.071421, "rental_uris": {"ios": "https://dc.lft.to/lastmile_qr_scan", "android": "https://dc.lft.to/lastmile_qr_scan"}}, {"name": "afd073ef546df889e7d6605da1914056", "fusion_lat": 0.0, "type": "electric_scooter", "lat": 38.893715, "is_reserved": 0, "is_disabled": 0, "fusion_lon": 0.0, "bike_id": "afd073ef546df889e7d6605da1914056", "lon": -76.95001, "rental_uris": {"ios": "https://dc.lft.to/lastmile_qr_scan", "android": "https://dc.lft.to/lastmile_qr_scan"}}, {"name": "595f829dbfab8f5af3ecc5f044f4e026", "fusion_lat": 0.0, "type": "electric_bike", "lat": 38.88347516666666, "is_reserved": 0, "is_disabled": 0, "fusion_lon": 0.0, "bike_id": "595f829dbfab8f5af3ecc5f044f4e026", "lon": -77.1829145, "rental_uris": {"ios": "https://dc.lft.to/lastmile_qr_scan", "android": "https://dc.lft.to/lastmile_qr_scan"}}, {"name": "e7cdbf04523bee9cca97d3596fa1fb8f", "fusion_lat": 0.0, "type": "electric_scooter", "lat": 38.910498, "is_reserved": 0, "is_disabled": 0, "fusion_lon": 0.0, "bike_id": "e7cdbf04523bee9cca97d3596fa1fb8f", "lon": -77.0436475, "rental_uris": {"ios": "https://dc.lft.to/lastmile_qr_scan", "android": "https://dc.lft.to/lastmile_qr_scan"}}, {"name": "254f5c0d9c05e872536cc7fea51ecd59", "fusion_lat": 0.0, "type": "electric_scooter", "lat": 38.900293, "is_reserved": 0, "is_disabled": 0, "fusion_lon": 0.0, "bike_id": "254f5c0d9c05e872536cc7fea51ecd59", "lon": -76.99860233333334, "rental_uris": {"ios": "https://dc.lft.to/lastmile_qr_scan", "android": "https://dc.lft.to/lastmile_qr_scan"}}, {"name": "595b17412628b7215f785b0b3189df31", "fusion_lat": 0.0, "type": "electric_scooter", "lat": 38.88594833333333, "is_reserved": 0, "is_disabled": 0, "fusion_lon": 0.0, "bike_id": "595b17412628b7215f785b0b3189df31", "lon": -77.02202433333333, "rental_uris": {"ios": "https://dc.lft.to/lastmile_qr_scan", "android": "https://dc.lft.to/lastmile_qr_scan"}}, {"name": "8d98cee09ed3e8cecc935a02b80a807c", "fusion_lat": 0.0, "type": "electric_scooter", "lat": 38.898568, "is_reserved": 0, "is_disabled": 0, "fusion_lon": 0.0, "bike_id": "8d98cee09ed3e8cecc935a02b80a807c", "lon": -77.01609883333333, "rental_uris": {"ios": "https://dc.lft.to/lastmile_qr_scan", "android": "https://dc.lft.to/lastmile_qr_scan"}}, {"name": "f65d974ccee565f8c72121745bd1207d", "fusion_lat": 0.0, "type": "electric_scooter", "lat": 38.94925333333333, "is_reserved": 0, "is_disabled": 0, "fusion_lon": 0.0, "bike_id": "f65d974ccee565f8c72121745bd1207d", "lon": -77.0193765, "rental_uris": {"ios": "https://dc.lft.to/lastmile_qr_scan", "android": "https://dc.lft.to/lastmile_qr_scan"}}, {"name": "b45e67a9ee2b091f1c99b50befe6b638", "fusion_lat": 0.0, "type": "electric_scooter", "lat": 38.90831466666667, "is_reserved": 0, "is_disabled": 0, "fusion_lon": 0.0, "bike_id": "b45e67a9ee2b091f1c99b50befe6b638", "lon": -77.033392, "rental_uris": {"ios": "https://dc.lft.to/lastmile_qr_scan", "android": "https://dc.lft.to/lastmile_qr_scan"}}, {"name": "7e3cdbddcee341452dcaada555a5bc4b", "fusion_lat": 0.0, "type": "electric_scooter", "lat": 38.8635325, "is_reserved": 0, "is_disabled": 0, "fusion_lon": 0.0, "bike_id": "7e3cdbddcee341452dcaada555a5bc4b", "lon": -76.9906435, "rental_uris": {"ios": "https://dc.lft.to/lastmile_qr_scan", "android": "https://dc.lft.to/lastmile_qr_scan"}}, {"name": "411901869dcf5d01f591bd92a1d6c804", "fusion_lat": 0.0, "type": "electric_scooter", "lat": 38.9247985, "is_reserved": 0, "is_disabled": 0, "fusion_lon": 0.0, "bike_id": "411901869dcf5d01f591bd92a1d6c804", "lon": -77.02689183333334, "rental_uris": {"ios": "https://dc.lft.to/lastmile_qr_scan", "android": "https://dc.lft.to/lastmile_qr_scan"}}, {"name": "a95d2df0ef7eeb12b3ab8a9b4c1eaebc", "fusion_lat": 0.0, "type": "electric_scooter", "lat": 38.91224033333334, "is_reserved": 0, "is_disabled": 0, "fusion_lon": 0.0, "bike_id": "a95d2df0ef7eeb12b3ab8a9b4c1eaebc", "lon": -77.03840783333334, "rental_uris": {"ios": "https://dc.lft.to/lastmile_qr_scan", "android": "https://dc.lft.to/lastmile_qr_scan"}}, {"name": "bedae0b1a9ab8913dbcd33fd7e25829c", "fusion_lat": 0.0, "type": "electric_bike", "lat": 38.917759, "is_reserved": 0, "is_disabled": 0, "fusion_lon": 0.0, "bike_id": "bedae0b1a9ab8913dbcd33fd7e25829c", "lon": -77.040735, "rental_uris": {"ios": "https://dc.lft.to/lastmile_qr_scan", "android": "https://dc.lft.to/lastmile_qr_scan"}}, {"name": "aae0fb55563fd6db080c737ccc3158f6", "fusion_lat": 0.0, "type": "electric_bike", "lat": 38.941763333333334, "is_reserved": 0, "is_disabled": 0, "fusion_lon": 0.0, "bike_id": "aae0fb55563fd6db080c737ccc3158f6", "lon": -77.03281316666667, "rental_uris": {"ios": "https://dc.lft.to/lastmile_qr_scan", "android": "https://dc.lft.to/lastmile_qr_scan"}}, {"name": "56499821ed4fcc5376a596e08cced5b9", "fusion_lat": 0.0, "type": "electric_scooter", "lat": 38.909682833333335, "is_reserved": 0, "is_disabled": 0, "fusion_lon": 0.0, "bike_id": "56499821ed4fcc5376a596e08cced5b9", "lon": -77.04730466666666, "rental_uris": {"ios": "https://dc.lft.to/lastmile_qr_scan", "android": "https://dc.lft.to/lastmile_qr_scan"}}, {"name": "e2b6f3633d39868a3aa62dc5f11cfca2", "fusion_lat": 0.0, "type": "electric_scooter", "lat": 38.9292355, "is_reserved": 0, "is_disabled": 0, "fusion_lon": 0.0, "bike_id": "e2b6f3633d39868a3aa62dc5f11cfca2", "lon": -77.03750366666667, "rental_uris": {"ios": "https://dc.lft.to/lastmile_qr_scan", "android": "https://dc.lft.to/lastmile_qr_scan"}}, {"name": "a1b3ca537c686d83b83a15c65de07b70", "fusion_lat": 0.0, "type": "electric_bike", "lat": 38.947962833333335, "is_reserved": 0, "is_disabled": 0, "fusion_lon": 0.0, "bike_id": "a1b3ca537c686d83b83a15c65de07b70", "lon": -77.0214975, "rental_uris": {"ios": "https://dc.lft.to/lastmile_qr_scan", "android": "https://dc.lft.to/lastmile_qr_scan"}}, {"name": "b9736a0782684790f807be071d7678fa", "fusion_lat": 0.0, "type": "electric_scooter", "lat": 38.9064055, "is_reserved": 0, "is_disabled": 0, "fusion_lon": 0.0, "bike_id": "b9736a0782684790f807be071d7678fa", "lon": -77.00592683333333, "rental_uris": {"ios": "https://dc.lft.to/lastmile_qr_scan", "android": "https://dc.lft.to/lastmile_qr_scan"}}, {"name": "9a0d92e8a28708d479449507fcb04247", "fusion_lat": 0.0, "type": "electric_scooter", "lat": 38.908493166666666, "is_reserved": 0, "is_disabled": 0, "fusion_lon": 0.0, "bike_id": "9a0d92e8a28708d479449507fcb04247", "lon": -77.0327, "rental_uris": {"ios": "https://dc.lft.to/lastmile_qr_scan", "android": "https://dc.lft.to/lastmile_qr_scan"}}, {"name": "de3bb53276ee9afb0d3e95e8a528cc5d", "fusion_lat": 0.0, "type": "electric_bike", "lat": 38.946327833333335, "is_reserved": 0, "is_disabled": 0, "fusion_lon": 0.0, "bike_id": "de3bb53276ee9afb0d3e95e8a528cc5d", "lon": -77.01839766666667, "rental_uris": {"ios": "https://dc.lft.to/lastmile_qr_scan", "android": "https://dc.lft.to/lastmile_qr_scan"}}, {"name": "9e8a4285f0cef54aad65c5bb29160251", "fusion_lat": 0.0, "type": "electric_scooter", "lat": 38.92343666666667, "is_reserved": 0, "is_disabled": 0, "fusion_lon": 0.0, "bike_id": "9e8a4285f0cef54aad65c5bb29160251", "lon": -77.05094266666667, "rental_uris": {"ios": "https://dc.lft.to/lastmile_qr_scan", "android": "https://dc.lft.to/lastmile_qr_scan"}}, {"name": "507e2f87240385d99aa51636832bbfb7", "fusion_lat": 0.0, "type": "electric_scooter", "lat": 38.895264166666664, "is_reserved": 0, "is_disabled": 0, "fusion_lon": 0.0, "bike_id": "507e2f87240385d99aa51636832bbfb7", "lon": -77.01611066666666, "rental_uris": {"ios": "https://dc.lft.to/lastmile_qr_scan", "android": "https://dc.lft.to/lastmile_qr_scan"}}, {"name": "a670f45f2dc57d31f244ce547e5b32d3", "fusion_lat": 0.0, "type": "electric_scooter", "lat": 38.91708783333333, "is_reserved": 0, "is_disabled": 0, "fusion_lon": 0.0, "bike_id": "a670f45f2dc57d31f244ce547e5b32d3", "lon": -77.0355635, "rental_uris": {"ios": "https://dc.lft.to/lastmile_qr_scan", "android": "https://dc.lft.to/lastmile_qr_scan"}}, {"name": "ccdacf4b1792449d0c7ced5ab3d2b199", "fusion_lat": 0.0, "type": "electric_bike", "lat": 38.8586925, "is_reserved": 0, "is_disabled": 0, "fusion_lon": 0.0, "bike_id": "ccdacf4b1792449d0c7ced5ab3d2b199", "lon": -77.09554566666667, "rental_uris": {"ios": "https://dc.lft.to/lastmile_qr_scan", "android": "https://dc.lft.to/lastmile_qr_scan"}}, {"name": "6a32a33a9d9bc2d20686317d53d91b2d", "fusion_lat": 0.0, "type": "electric_scooter", "lat": 38.913587, "is_reserved": 0, "is_disabled": 0, "fusion_lon": 0.0, "bike_id": "6a32a33a9d9bc2d20686317d53d91b2d", "lon": -77.04169033333334, "rental_uris": {"ios": "https://dc.lft.to/lastmile_qr_scan", "android": "https://dc.lft.to/lastmile_qr_scan"}}, {"name": "d7ecfd445d607846fa2a66d1fe863149", "fusion_lat": 0.0, "type": "electric_scooter", "lat": 38.917733, "is_reserved": 0, "is_disabled": 0, "fusion_lon": 0.0, "bike_id": "d7ecfd445d607846fa2a66d1fe863149", "lon": -77.0475125, "rental_uris": {"ios": "https://dc.lft.to/lastmile_qr_scan", "android": "https://dc.lft.to/lastmile_qr_scan"}}, {"name": "f52cce1eb0018f929954b6583e492ae2", "fusion_lat": 0.0, "type": "electric_scooter", "lat": 38.9068285, "is_reserved": 0, "is_disabled": 0, "fusion_lon": 0.0, "bike_id": "f52cce1eb0018f929954b6583e492ae2", "lon": -77.048992, "rental_uris": {"ios": "https://dc.lft.to/lastmile_qr_scan", "android": "https://dc.lft.to/lastmile_qr_scan"}}, {"name": "36551d6041d922ab7a45e4cf7b5b5d83", "fusion_lat": 0.0, "type": "electric_bike", "lat": 38.852041, "is_reserved": 0, "is_disabled": 0, "fusion_lon": 0.0, "bike_id": "36551d6041d922ab7a45e4cf7b5b5d83", "lon": -77.10131566666666, "rental_uris": {"ios": "https://dc.lft.to/lastmile_qr_scan", "android": "https://dc.lft.to/lastmile_qr_scan"}}, {"name": "d9735b57d7460f20ef06394a13b29ebe", "fusion_lat": 0.0, "type": "electric_scooter", "lat": 38.91698383333333, "is_reserved": 0, "is_disabled": 0, "fusion_lon": 0.0, "bike_id": "d9735b57d7460f20ef06394a13b29ebe", "lon": -77.02894916666666, "rental_uris": {"ios": "https://dc.lft.to/lastmile_qr_scan", "android": "https://dc.lft.to/lastmile_qr_scan"}}, {"name": "1ff0fb970d897c4ec7ab58f59fa15e23", "fusion_lat": 0.0, "type": "electric_scooter", "lat": 38.93194166666667, "is_reserved": 0, "is_disabled": 0, "fusion_lon": 0.0, "bike_id": "1ff0fb970d897c4ec7ab58f59fa15e23", "lon": -77.03646716666667, "rental_uris": {"ios": "https://dc.lft.to/lastmile_qr_scan", "android": "https://dc.lft.to/lastmile_qr_scan"}}, {"name": "fbaf0b2a9f92be2016f6e633b76c6d82", "fusion_lat": 0.0, "type": "electric_scooter", "lat": 38.87806233333333, "is_reserved": 0, "is_disabled": 0, "fusion_lon": 0.0, "bike_id": "fbaf0b2a9f92be2016f6e633b76c6d82", "lon": -77.003596, "rental_uris": {"ios": "https://dc.lft.to/lastmile_qr_scan", "android": "https://dc.lft.to/lastmile_qr_scan"}}, {"name": "2a597f552eef838d7ed5a8105bfa30e7", "fusion_lat": 0.0, "type": "electric_scooter", "lat": 38.929188333333336, "is_reserved": 0, "is_disabled": 0, "fusion_lon": 0.0, "bike_id": "2a597f552eef838d7ed5a8105bfa30e7", "lon": -77.01950533333333, "rental_uris": {"ios": "https://dc.lft.to/lastmile_qr_scan", "android": "https://dc.lft.to/lastmile_qr_scan"}}, {"name": "8649d7452372b06691588a3c0e899602", "fusion_lat": 0.0, "type": "electric_scooter", "lat": 38.9376435, "is_reserved": 0, "is_disabled": 0, "fusion_lon": 0.0, "bike_id": "8649d7452372b06691588a3c0e899602", "lon": -77.03284283333333, "rental_uris": {"ios": "https://dc.lft.to/lastmile_qr_scan", "android": "https://dc.lft.to/lastmile_qr_scan"}}, {"name": "2bc3da576254fd22e1309f20b26350ea", "fusion_lat": 0.0, "type": "electric_scooter", "lat": 38.934633, "is_reserved": 0, "is_disabled": 0, "fusion_lon": 0.0, "bike_id": "2bc3da576254fd22e1309f20b26350ea", "lon": -77.028508, "rental_uris": {"ios": "https://dc.lft.to/lastmile_qr_scan", "android": "https://dc.lft.to/lastmile_qr_scan"}}, {"name": "d001478d3b9a3dbd0113cfe1407c960e", "fusion_lat": 0.0, "type": "electric_scooter", "lat": 38.90010783333334, "is_reserved": 0, "is_disabled": 0, "fusion_lon": 0.0, "bike_id": "d001478d3b9a3dbd0113cfe1407c960e", "lon": -77.02703083333333, "rental_uris": {"ios": "https://dc.lft.to/lastmile_qr_scan", "android": "https://dc.lft.to/lastmile_qr_scan"}}, {"name": "ac389416d60a0baccaf34874dfad4583", "fusion_lat": 0.0, "type": "electric_scooter", "lat": 38.917018666666664, "is_reserved": 0, "is_disabled": 0, "fusion_lon": 0.0, "bike_id": "ac389416d60a0baccaf34874dfad4583", "lon": -77.03581116666666, "rental_uris": {"ios": "https://dc.lft.to/lastmile_qr_scan", "android": "https://dc.lft.to/lastmile_qr_scan"}}, {"name": "c67d9b37b3ce94b921812ef5c229145d", "fusion_lat": 0.0, "type": "electric_scooter", "lat": 38.92885166666667, "is_reserved": 0, "is_disabled": 0, "fusion_lon": 0.0, "bike_id": "c67d9b37b3ce94b921812ef5c229145d", "lon": -77.02310866666667, "rental_uris": {"ios": "https://dc.lft.to/lastmile_qr_scan", "android": "https://dc.lft.to/lastmile_qr_scan"}}, {"name": "d0c22f85a120557ba46ed318857fd7ae", "fusion_lat": 0.0, "type": "electric_scooter", "lat": 38.92640866666667, "is_reserved": 0, "is_disabled": 0, "fusion_lon": 0.0, "bike_id": "d0c22f85a120557ba46ed318857fd7ae", "lon": -77.0369345, "rental_uris": {"ios": "https://dc.lft.to/lastmile_qr_scan", "android": "https://dc.lft.to/lastmile_qr_scan"}}, {"name": "4f008c04eaf62f7d6c39fd38f67b909f", "fusion_lat": 0.0, "type": "electric_scooter", "lat": 38.90124133333333, "is_reserved": 0, "is_disabled": 0, "fusion_lon": 0.0, "bike_id": "4f008c04eaf62f7d6c39fd38f67b909f", "lon": -77.02191033333334, "rental_uris": {"ios": "https://dc.lft.to/lastmile_qr_scan", "android": "https://dc.lft.to/lastmile_qr_scan"}}, {"name": "d1546bcd8e1e7506a235bbf6df1a59a3", "fusion_lat": 0.0, "type": "electric_scooter", "lat": 38.907339666666665, "is_reserved": 0, "is_disabled": 0, "fusion_lon": 0.0, "bike_id": "d1546bcd8e1e7506a235bbf6df1a59a3", "lon": -77.02438366666667, "rental_uris": {"ios": "https://dc.lft.to/lastmile_qr_scan", "android": "https://dc.lft.to/lastmile_qr_scan"}}, {"name": "c4a46ee5ddcd485cced3324e4b45363b", "fusion_lat": 0.0, "type": "electric_scooter", "lat": 38.909683333333334, "is_reserved": 0, "is_disabled": 0, "fusion_lon": 0.0, "bike_id": "c4a46ee5ddcd485cced3324e4b45363b", "lon": -77.03370233333334, "rental_uris": {"ios": "https://dc.lft.to/lastmile_qr_scan", "android": "https://dc.lft.to/lastmile_qr_scan"}}, {"name": "53109f2528a4dbe0809ced775598d8f7", "fusion_lat": 0.0, "type": "electric_scooter", "lat": 38.88914783333333, "is_reserved": 0, "is_disabled": 0, "fusion_lon": 0.0, "bike_id": "53109f2528a4dbe0809ced775598d8f7", "lon": -76.95374216666667, "rental_uris": {"ios": "https://dc.lft.to/lastmile_qr_scan", "android": "https://dc.lft.to/lastmile_qr_scan"}}, {"name": "b3baa9c5536c82a179c90adb770e3f12", "fusion_lat": 0.0, "type": "electric_scooter", "lat": 38.91191966666667, "is_reserved": 0, "is_disabled": 0, "fusion_lon": 0.0, "bike_id": "b3baa9c5536c82a179c90adb770e3f12", "lon": -77.01782933333334, "rental_uris": {"ios": "https://dc.lft.to/lastmile_qr_scan", "android": "https://dc.lft.to/lastmile_qr_scan"}}, {"name": "01dde3613782a4aad6ee50a0dca6455b", "fusion_lat": 0.0, "type": "electric_scooter", "lat": 38.87015016666667, "is_reserved": 0, "is_disabled": 0, "fusion_lon": 0.0, "bike_id": "01dde3613782a4aad6ee50a0dca6455b", "lon": -77.01225133333334, "rental_uris": {"ios": "https://dc.lft.to/lastmile_qr_scan", "android": "https://dc.lft.to/lastmile_qr_scan"}}, {"name": "1f88234628aeac80b25d9fdba40ddbc1", "fusion_lat": 0.0, "type": "electric_scooter", "lat": 38.890884666666665, "is_reserved": 0, "is_disabled": 0, "fusion_lon": 0.0, "bike_id": "1f88234628aeac80b25d9fdba40ddbc1", "lon": -76.9978675, "rental_uris": {"ios": "https://dc.lft.to/lastmile_qr_scan", "android": "https://dc.lft.to/lastmile_qr_scan"}}, {"name": "1374db5bea4f3c95a821e0a353b86861", "fusion_lat": 0.0, "type": "electric_scooter", "lat": 38.924349666666664, "is_reserved": 0, "is_disabled": 0, "fusion_lon": 0.0, "bike_id": "1374db5bea4f3c95a821e0a353b86861", "lon": -77.04130016666667, "rental_uris": {"ios": "https://dc.lft.to/lastmile_qr_scan", "android": "https://dc.lft.to/lastmile_qr_scan"}}, {"name": "c26697bea5cff047c5d48c4187749e77", "fusion_lat": 0.0, "type": "electric_bike", "lat": 38.96542633333333, "is_reserved": 0, "is_disabled": 0, "fusion_lon": 0.0, "bike_id": "c26697bea5cff047c5d48c4187749e77", "lon": -77.03515066666667, "rental_uris": {"ios": "https://dc.lft.to/lastmile_qr_scan", "android": "https://dc.lft.to/lastmile_qr_scan"}}, {"name": "6c93319275aef1f84baef1bdd4fec3b0", "fusion_lat": 0.0, "type": "electric_scooter", "lat": 38.931814333333335, "is_reserved": 0, "is_disabled": 0, "fusion_lon": 0.0, "bike_id": "6c93319275aef1f84baef1bdd4fec3b0", "lon": -77.0560945, "rental_uris": {"ios": "https://dc.lft.to/lastmile_qr_scan", "android": "https://dc.lft.to/lastmile_qr_scan"}}, {"name": "958950c0d60d271efbcf781e33ea7c50", "fusion_lat": 0.0, "type": "electric_scooter", "lat": 38.920654666666664, "is_reserved": 0, "is_disabled": 0, "fusion_lon": 0.0, "bike_id": "958950c0d60d271efbcf781e33ea7c50", "lon": -77.04704033333333, "rental_uris": {"ios": "https://dc.lft.to/lastmile_qr_scan", "android": "https://dc.lft.to/lastmile_qr_scan"}}, {"name": "65c4243f1aef69b34a022095a7d21f31", "fusion_lat": 0.0, "type": "electric_scooter", "lat": 38.91065966666667, "is_reserved": 0, "is_disabled": 0, "fusion_lon": 0.0, "bike_id": "65c4243f1aef69b34a022095a7d21f31", "lon": -77.02634416666666, "rental_uris": {"ios": "https://dc.lft.to/lastmile_qr_scan", "android": "https://dc.lft.to/lastmile_qr_scan"}}, {"name": "8b696bde6681140bc6b61400fa6cd7a9", "fusion_lat": 0.0, "type": "electric_scooter", "lat": 38.85706716666667, "is_reserved": 0, "is_disabled": 0, "fusion_lon": 0.0, "bike_id": "8b696bde6681140bc6b61400fa6cd7a9", "lon": -76.98130916666666, "rental_uris": {"ios": "https://dc.lft.to/lastmile_qr_scan", "android": "https://dc.lft.to/lastmile_qr_scan"}}, {"name": "f7223bfa56562136d404b7cea39301f7", "fusion_lat": 0.0, "type": "electric_scooter", "lat": 38.92983483333333, "is_reserved": 0, "is_disabled": 0, "fusion_lon": 0.0, "bike_id": "f7223bfa56562136d404b7cea39301f7", "lon": -77.03256733333333, "rental_uris": {"ios": "https://dc.lft.to/lastmile_qr_scan", "android": "https://dc.lft.to/lastmile_qr_scan"}}, {"name": "a34933a3262ad28ca181a65c58ca0188", "fusion_lat": 0.0, "type": "electric_scooter", "lat": 38.90525783333333, "is_reserved": 0, "is_disabled": 0, "fusion_lon": 0.0, "bike_id": "a34933a3262ad28ca181a65c58ca0188", "lon": -77.05762866666667, "rental_uris": {"ios": "https://dc.lft.to/lastmile_qr_scan", "android": "https://dc.lft.to/lastmile_qr_scan"}}, {"name": "a3dd1630f10a890f855b8fb357edc9b0", "fusion_lat": 0.0, "type": "electric_scooter", "lat": 38.887470666666665, "is_reserved": 0, "is_disabled": 0, "fusion_lon": 0.0, "bike_id": "a3dd1630f10a890f855b8fb357edc9b0", "lon": -77.0212855, "rental_uris": {"ios": "https://dc.lft.to/lastmile_qr_scan", "android": "https://dc.lft.to/lastmile_qr_scan"}}, {"name": "0bdc887396d1fd73995a8a4210473041", "fusion_lat": 0.0, "type": "electric_scooter", "lat": 38.910038, "is_reserved": 0, "is_disabled": 0, "fusion_lon": 0.0, "bike_id": "0bdc887396d1fd73995a8a4210473041", "lon": -77.0160875, "rental_uris": {"ios": "https://dc.lft.to/lastmile_qr_scan", "android": "https://dc.lft.to/lastmile_qr_scan"}}, {"name": "72e91864afbf306097dc0f2e35a665fd", "fusion_lat": 0.0, "type": "electric_scooter", "lat": 38.87919733333333, "is_reserved": 0, "is_disabled": 0, "fusion_lon": 0.0, "bike_id": "72e91864afbf306097dc0f2e35a665fd", "lon": -77.00548983333333, "rental_uris": {"ios": "https://dc.lft.to/lastmile_qr_scan", "android": "https://dc.lft.to/lastmile_qr_scan"}}, {"name": "009f95065827407ce7539fcd3fd0e0f0", "fusion_lat": 0.0, "type": "electric_scooter", "lat": 38.898786, "is_reserved": 0, "is_disabled": 0, "fusion_lon": 0.0, "bike_id": "009f95065827407ce7539fcd3fd0e0f0", "lon": -76.93157316666667, "rental_uris": {"ios": "https://dc.lft.to/lastmile_qr_scan", "android": "https://dc.lft.to/lastmile_qr_scan"}}, {"name": "6b51f52e8eebd5e594748bd4c3d9af57", "fusion_lat": 0.0, "type": "electric_scooter", "lat": 38.92527583333333, "is_reserved": 0, "is_disabled": 0, "fusion_lon": 0.0, "bike_id": "6b51f52e8eebd5e594748bd4c3d9af57", "lon": -77.05532966666667, "rental_uris": {"ios": "https://dc.lft.to/lastmile_qr_scan", "android": "https://dc.lft.to/lastmile_qr_scan"}}, {"name": "e6806b3d43b7837303cfa62ffeeda631", "fusion_lat": 0.0, "type": "electric_scooter", "lat": 38.9083535, "is_reserved": 0, "is_disabled": 0, "fusion_lon": 0.0, "bike_id": "e6806b3d43b7837303cfa62ffeeda631", "lon": -76.997015, "rental_uris": {"ios": "https://dc.lft.to/lastmile_qr_scan", "android": "https://dc.lft.to/lastmile_qr_scan"}}, {"name": "e58c804779c1f0cba599fa9649b4f28e", "fusion_lat": 0.0, "type": "electric_scooter", "lat": 38.87185483333333, "is_reserved": 0, "is_disabled": 0, "fusion_lon": 0.0, "bike_id": "e58c804779c1f0cba599fa9649b4f28e", "lon": -77.00598066666667, "rental_uris": {"ios": "https://dc.lft.to/lastmile_qr_scan", "android": "https://dc.lft.to/lastmile_qr_scan"}}, {"name": "088c115c27627e639212f0b6dff883fe", "fusion_lat": 0.0, "type": "electric_scooter", "lat": 38.88430983333333, "is_reserved": 0, "is_disabled": 0, "fusion_lon": 0.0, "bike_id": "088c115c27627e639212f0b6dff883fe", "lon": -76.95754933333333, "rental_uris": {"ios": "https://dc.lft.to/lastmile_qr_scan", "android": "https://dc.lft.to/lastmile_qr_scan"}}, {"name": "7b718f357c738c95a600c708470cc824", "fusion_lat": 0.0, "type": "electric_scooter", "lat": 38.89397683333333, "is_reserved": 0, "is_disabled": 0, "fusion_lon": 0.0, "bike_id": "7b718f357c738c95a600c708470cc824", "lon": -76.94802116666666, "rental_uris": {"ios": "https://dc.lft.to/lastmile_qr_scan", "android": "https://dc.lft.to/lastmile_qr_scan"}}, {"name": "e61f46256560bf2940d35d3247614575", "fusion_lat": 0.0, "type": "electric_bike", "lat": 38.838116, "is_reserved": 0, "is_disabled": 0, "fusion_lon": 0.0, "bike_id": "e61f46256560bf2940d35d3247614575", "lon": -77.09521666666667, "rental_uris": {"ios": "https://dc.lft.to/lastmile_qr_scan", "android": "https://dc.lft.to/lastmile_qr_scan"}}, {"name": "bb6d2ec5cafd8b96afff29458b6cbb96", "fusion_lat": 0.0, "type": "electric_scooter", "lat": 38.93977116666667, "is_reserved": 0, "is_disabled": 0, "fusion_lon": 0.0, "bike_id": "bb6d2ec5cafd8b96afff29458b6cbb96", "lon": -77.03567, "rental_uris": {"ios": "https://dc.lft.to/lastmile_qr_scan", "android": "https://dc.lft.to/lastmile_qr_scan"}}, {"name": "35c2236dc5bacafb38217c3e7e8c98fc", "fusion_lat": 0.0, "type": "electric_scooter", "lat": 38.904315833333335, "is_reserved": 0, "is_disabled": 0, "fusion_lon": 0.0, "bike_id": "35c2236dc5bacafb38217c3e7e8c98fc", "lon": -77.01899733333333, "rental_uris": {"ios": "https://dc.lft.to/lastmile_qr_scan", "android": "https://dc.lft.to/lastmile_qr_scan"}}, {"name": "e0365abf9e3046479d40c963a9a496a4", "fusion_lat": 0.0, "type": "electric_bike", "lat": 38.87301133333333, "is_reserved": 0, "is_disabled": 0, "fusion_lon": 0.0, "bike_id": "e0365abf9e3046479d40c963a9a496a4", "lon": -77.01091783333334, "rental_uris": {"ios": "https://dc.lft.to/lastmile_qr_scan", "android": "https://dc.lft.to/lastmile_qr_scan"}}, {"name": "c7f0182aec5e7f50f6da4035d37ac440", "fusion_lat": 0.0, "type": "electric_scooter", "lat": 38.91740733333334, "is_reserved": 0, "is_disabled": 0, "fusion_lon": 0.0, "bike_id": "c7f0182aec5e7f50f6da4035d37ac440", "lon": -77.03206583333333, "rental_uris": {"ios": "https://dc.lft.to/lastmile_qr_scan", "android": "https://dc.lft.to/lastmile_qr_scan"}}, {"name": "eca5bc2090c79a9104f11040ea8c57a7", "fusion_lat": 0.0, "type": "electric_bike", "lat": 38.90529983333333, "is_reserved": 0, "is_disabled": 0, "fusion_lon": 0.0, "bike_id": "eca5bc2090c79a9104f11040ea8c57a7", "lon": -76.99819116666667, "rental_uris": {"ios": "https://dc.lft.to/lastmile_qr_scan", "android": "https://dc.lft.to/lastmile_qr_scan"}}, {"name": "ea130309680ea083ffbc75104ab71b18", "fusion_lat": 0.0, "type": "electric_scooter", "lat": 38.900017166666665, "is_reserved": 0, "is_disabled": 0, "fusion_lon": 0.0, "bike_id": "ea130309680ea083ffbc75104ab71b18", "lon": -77.02715266666667, "rental_uris": {"ios": "https://dc.lft.to/lastmile_qr_scan", "android": "https://dc.lft.to/lastmile_qr_scan"}}, {"name": "1d890634d90b445d68b85032170774e4", "fusion_lat": 0.0, "type": "electric_bike", "lat": 38.994554, "is_reserved": 0, "is_disabled": 0, "fusion_lon": 0.0, "bike_id": "1d890634d90b445d68b85032170774e4", "lon": -76.90813266666666, "rental_uris": {"ios": "https://dc.lft.to/lastmile_qr_scan", "android": "https://dc.lft.to/lastmile_qr_scan"}}, {"name": "a7eb99c5c81e9a468b59af79371318f1", "fusion_lat": 0.0, "type": "electric_scooter", "lat": 38.914059333333334, "is_reserved": 0, "is_disabled": 0, "fusion_lon": 0.0, "bike_id": "a7eb99c5c81e9a468b59af79371318f1", "lon": -77.03906616666667, "rental_uris": {"ios": "https://dc.lft.to/lastmile_qr_scan", "android": "https://dc.lft.to/lastmile_qr_scan"}}, {"name": "8250b819716666764802f1073da56eef", "fusion_lat": 0.0, "type": "electric_scooter", "lat": 38.92240616666667, "is_reserved": 0, "is_disabled": 0, "fusion_lon": 0.0, "bike_id": "8250b819716666764802f1073da56eef", "lon": -77.03086783333333, "rental_uris": {"ios": "https://dc.lft.to/lastmile_qr_scan", "android": "https://dc.lft.to/lastmile_qr_scan"}}, {"name": "6c1db9bf5101eab28100bc6996f215dc", "fusion_lat": 0.0, "type": "electric_scooter", "lat": 38.902683833333334, "is_reserved": 0, "is_disabled": 0, "fusion_lon": 0.0, "bike_id": "6c1db9bf5101eab28100bc6996f215dc", "lon": -77.03834283333333, "rental_uris": {"ios": "https://dc.lft.to/lastmile_qr_scan", "android": "https://dc.lft.to/lastmile_qr_scan"}}, {"name": "b40dc691bd5f7b3bdf9679741498c18d", "fusion_lat": 0.0, "type": "electric_scooter", "lat": 38.91173333333333, "is_reserved": 0, "is_disabled": 0, "fusion_lon": 0.0, "bike_id": "b40dc691bd5f7b3bdf9679741498c18d", "lon": -77.0317445, "rental_uris": {"ios": "https://dc.lft.to/lastmile_qr_scan", "android": "https://dc.lft.to/lastmile_qr_scan"}}, {"name": "6a48aa15438230d72f2e36ecabf60dfa", "fusion_lat": 0.0, "type": "electric_scooter", "lat": 38.902474, "is_reserved": 0, "is_disabled": 0, "fusion_lon": 0.0, "bike_id": "6a48aa15438230d72f2e36ecabf60dfa", "lon": -77.044519, "rental_uris": {"ios": "https://dc.lft.to/lastmile_qr_scan", "android": "https://dc.lft.to/lastmile_qr_scan"}}, {"name": "5640be3a39e9dc16a22dd1db4431d7ad", "fusion_lat": 0.0, "type": "electric_scooter", "lat": 38.89733533333333, "is_reserved": 0, "is_disabled": 0, "fusion_lon": 0.0, "bike_id": "5640be3a39e9dc16a22dd1db4431d7ad", "lon": -77.04334133333333, "rental_uris": {"ios": "https://dc.lft.to/lastmile_qr_scan", "android": "https://dc.lft.to/lastmile_qr_scan"}}, {"name": "a7a5e1717147c97bfb71cad87a96f302", "fusion_lat": 0.0, "type": "electric_scooter", "lat": 38.91509833333333, "is_reserved": 0, "is_disabled": 0, "fusion_lon": 0.0, "bike_id": "a7a5e1717147c97bfb71cad87a96f302", "lon": -77.02178783333333, "rental_uris": {"ios": "https://dc.lft.to/lastmile_qr_scan", "android": "https://dc.lft.to/lastmile_qr_scan"}}, {"name": "42de1d8f3f249144606ee12217a692c1", "fusion_lat": 0.0, "type": "electric_scooter", "lat": 38.8923065, "is_reserved": 0, "is_disabled": 0, "fusion_lon": 0.0, "bike_id": "42de1d8f3f249144606ee12217a692c1", "lon": -77.03189716666667, "rental_uris": {"ios": "https://dc.lft.to/lastmile_qr_scan", "android": "https://dc.lft.to/lastmile_qr_scan"}}, {"name": "b5ffb76d3dfefbcd11b7baeac42367a3", "fusion_lat": 0.0, "type": "electric_scooter", "lat": 38.90385633333333, "is_reserved": 0, "is_disabled": 0, "fusion_lon": 0.0, "bike_id": "b5ffb76d3dfefbcd11b7baeac42367a3", "lon": -77.02721433333333, "rental_uris": {"ios": "https://dc.lft.to/lastmile_qr_scan", "android": "https://dc.lft.to/lastmile_qr_scan"}}, {"name": "7abfaee95ebcf801f9f3b56b70fc8f62", "fusion_lat": 0.0, "type": "electric_scooter", "lat": 38.915937666666665, "is_reserved": 0, "is_disabled": 0, "fusion_lon": 0.0, "bike_id": "7abfaee95ebcf801f9f3b56b70fc8f62", "lon": -77.043604, "rental_uris": {"ios": "https://dc.lft.to/lastmile_qr_scan", "android": "https://dc.lft.to/lastmile_qr_scan"}}, {"name": "9c5b08d9d49be31ed07d9d65e9424d05", "fusion_lat": 0.0, "type": "electric_scooter", "lat": 38.8771655, "is_reserved": 0, "is_disabled": 0, "fusion_lon": 0.0, "bike_id": "9c5b08d9d49be31ed07d9d65e9424d05", "lon": -77.01756666666667, "rental_uris": {"ios": "https://dc.lft.to/lastmile_qr_scan", "android": "https://dc.lft.to/lastmile_qr_scan"}}, {"name": "0c9582ecf484592da6c968f01c6934bf", "fusion_lat": 0.0, "type": "electric_scooter", "lat": 38.927532, "is_reserved": 0, "is_disabled": 0, "fusion_lon": 0.0, "bike_id": "0c9582ecf484592da6c968f01c6934bf", "lon": -77.02422366666667, "rental_uris": {"ios": "https://dc.lft.to/lastmile_qr_scan", "android": "https://dc.lft.to/lastmile_qr_scan"}}, {"name": "2096f1e974ad982fe7d35eeaac1d2817", "fusion_lat": 0.0, "type": "electric_bike", "lat": 38.84349816666667, "is_reserved": 0, "is_disabled": 0, "fusion_lon": 0.0, "bike_id": "2096f1e974ad982fe7d35eeaac1d2817", "lon": -77.06403716666667, "rental_uris": {"ios": "https://dc.lft.to/lastmile_qr_scan", "android": "https://dc.lft.to/lastmile_qr_scan"}}, {"name": "5b97c1593b3f312dd32cff83073d034d", "fusion_lat": 0.0, "type": "electric_scooter", "lat": 38.902597166666666, "is_reserved": 0, "is_disabled": 0, "fusion_lon": 0.0, "bike_id": "5b97c1593b3f312dd32cff83073d034d", "lon": -77.02679033333334, "rental_uris": {"ios": "https://dc.lft.to/lastmile_qr_scan", "android": "https://dc.lft.to/lastmile_qr_scan"}}, {"name": "184be41bf427cf1ccaff73ce12c1f3ed", "fusion_lat": 0.0, "type": "electric_bike", "lat": 39.10566083333333, "is_reserved": 0, "is_disabled": 0, "fusion_lon": 0.0, "bike_id": "184be41bf427cf1ccaff73ce12c1f3ed", "lon": -77.15266166666666, "rental_uris": {"ios": "https://dc.lft.to/lastmile_qr_scan", "android": "https://dc.lft.to/lastmile_qr_scan"}}, {"name": "4e389316ed305da2362f9966612a0fbf", "fusion_lat": 0.0, "type": "electric_scooter", "lat": 38.919316, "is_reserved": 0, "is_disabled": 0, "fusion_lon": 0.0, "bike_id": "4e389316ed305da2362f9966612a0fbf", "lon": -77.044943, "rental_uris": {"ios": "https://dc.lft.to/lastmile_qr_scan", "android": "https://dc.lft.to/lastmile_qr_scan"}}, {"name": "74fa960159f520f70ecdb624011e54b2", "fusion_lat": 0.0, "type": "electric_bike", "lat": 38.8866525, "is_reserved": 0, "is_disabled": 0, "fusion_lon": 0.0, "bike_id": "74fa960159f520f70ecdb624011e54b2", "lon": -77.1622795, "rental_uris": {"ios": "https://dc.lft.to/lastmile_qr_scan", "android": "https://dc.lft.to/lastmile_qr_scan"}}, {"name": "0be663caf434e3ac8b632c2896567e16", "fusion_lat": 0.0, "type": "electric_scooter", "lat": 38.876508333333334, "is_reserved": 0, "is_disabled": 0, "fusion_lon": 0.0, "bike_id": "0be663caf434e3ac8b632c2896567e16", "lon": -76.9650535, "rental_uris": {"ios": "https://dc.lft.to/lastmile_qr_scan", "android": "https://dc.lft.to/lastmile_qr_scan"}}, {"name": "bd532744655b9c756ca763aa1238e53a", "fusion_lat": 0.0, "type": "electric_scooter", "lat": 38.909744, "is_reserved": 0, "is_disabled": 0, "fusion_lon": 0.0, "bike_id": "bd532744655b9c756ca763aa1238e53a", "lon": -77.03667266666666, "rental_uris": {"ios": "https://dc.lft.to/lastmile_qr_scan", "android": "https://dc.lft.to/lastmile_qr_scan"}}, {"name": "0b9e18274dbe2c005b631b1baeb4f599", "fusion_lat": 0.0, "type": "electric_scooter", "lat": 38.897329166666665, "is_reserved": 0, "is_disabled": 0, "fusion_lon": 0.0, "bike_id": "0b9e18274dbe2c005b631b1baeb4f599", "lon": -77.046419, "rental_uris": {"ios": "https://dc.lft.to/lastmile_qr_scan", "android": "https://dc.lft.to/lastmile_qr_scan"}}, {"name": "98447f59c96a7f115fe42170379352d9", "fusion_lat": 0.0, "type": "electric_scooter", "lat": 38.911921166666666, "is_reserved": 0, "is_disabled": 0, "fusion_lon": 0.0, "bike_id": "98447f59c96a7f115fe42170379352d9", "lon": -77.04497366666666, "rental_uris": {"ios": "https://dc.lft.to/lastmile_qr_scan", "android": "https://dc.lft.to/lastmile_qr_scan"}}, {"name": "c8a5fcd0f0269bf8450aff44553fcb1f", "fusion_lat": 0.0, "type": "electric_scooter", "lat": 38.905575, "is_reserved": 0, "is_disabled": 0, "fusion_lon": 0.0, "bike_id": "c8a5fcd0f0269bf8450aff44553fcb1f", "lon": -77.02965566666667, "rental_uris": {"ios": "https://dc.lft.to/lastmile_qr_scan", "android": "https://dc.lft.to/lastmile_qr_scan"}}, {"name": "08d407e2196e4ff5b015c754c92236b3", "fusion_lat": 0.0, "type": "electric_bike", "lat": 38.95543383333333, "is_reserved": 0, "is_disabled": 0, "fusion_lon": 0.0, "bike_id": "08d407e2196e4ff5b015c754c92236b3", "lon": -77.01617083333333, "rental_uris": {"ios": "https://dc.lft.to/lastmile_qr_scan", "android": "https://dc.lft.to/lastmile_qr_scan"}}, {"name": "d45d5dab856fccba9efb5ff99dce5d21", "fusion_lat": 0.0, "type": "electric_scooter", "lat": 38.89535516666667, "is_reserved": 0, "is_disabled": 0, "fusion_lon": 0.0, "bike_id": "d45d5dab856fccba9efb5ff99dce5d21", "lon": -76.94935283333334, "rental_uris": {"ios": "https://dc.lft.to/lastmile_qr_scan", "android": "https://dc.lft.to/lastmile_qr_scan"}}, {"name": "56115702a87edafeae64be6ec3301aa1", "fusion_lat": 0.0, "type": "electric_scooter", "lat": 38.8960585, "is_reserved": 0, "is_disabled": 0, "fusion_lon": 0.0, "bike_id": "56115702a87edafeae64be6ec3301aa1", "lon": -77.04115366666667, "rental_uris": {"ios": "https://dc.lft.to/lastmile_qr_scan", "android": "https://dc.lft.to/lastmile_qr_scan"}}, {"name": "9d60f9c6bb10cd4ae97074b456d1ffb3", "fusion_lat": 0.0, "type": "electric_bike", "lat": 39.052034166666665, "is_reserved": 0, "is_disabled": 0, "fusion_lon": 0.0, "bike_id": "9d60f9c6bb10cd4ae97074b456d1ffb3", "lon": -77.1090955, "rental_uris": {"ios": "https://dc.lft.to/lastmile_qr_scan", "android": "https://dc.lft.to/lastmile_qr_scan"}}, {"name": "2f157539dbe2b46226ba3d572e97c632", "fusion_lat": 0.0, "type": "electric_scooter", "lat": 38.92361916666667, "is_reserved": 0, "is_disabled": 0, "fusion_lon": 0.0, "bike_id": "2f157539dbe2b46226ba3d572e97c632", "lon": -77.01909783333333, "rental_uris": {"ios": "https://dc.lft.to/lastmile_qr_scan", "android": "https://dc.lft.to/lastmile_qr_scan"}}, {"name": "819cf1f40fe6a80508f05e79a32fa2ec", "fusion_lat": 0.0, "type": "electric_bike", "lat": 38.841555166666666, "is_reserved": 0, "is_disabled": 0, "fusion_lon": 0.0, "bike_id": "819cf1f40fe6a80508f05e79a32fa2ec", "lon": -77.0889315, "rental_uris": {"ios": "https://dc.lft.to/lastmile_qr_scan", "android": "https://dc.lft.to/lastmile_qr_scan"}}, {"name": "8dccec3222aa761091954491a32bd2f1", "fusion_lat": 0.0, "type": "electric_scooter", "lat": 38.9014085, "is_reserved": 0, "is_disabled": 0, "fusion_lon": 0.0, "bike_id": "8dccec3222aa761091954491a32bd2f1", "lon": -76.991222, "rental_uris": {"ios": "https://dc.lft.to/lastmile_qr_scan", "android": "https://dc.lft.to/lastmile_qr_scan"}}, {"name": "f8ea0470d529d118f913a3595fb42008", "fusion_lat": 0.0, "type": "electric_scooter", "lat": 38.879404666666666, "is_reserved": 0, "is_disabled": 0, "fusion_lon": 0.0, "bike_id": "f8ea0470d529d118f913a3595fb42008", "lon": -77.0081275, "rental_uris": {"ios": "https://dc.lft.to/lastmile_qr_scan", "android": "https://dc.lft.to/lastmile_qr_scan"}}, {"name": "cdc76bf663bf4a31bc7480c2dfb80786", "fusion_lat": 0.0, "type": "electric_scooter", "lat": 38.85809, "is_reserved": 0, "is_disabled": 0, "fusion_lon": 0.0, "bike_id": "cdc76bf663bf4a31bc7480c2dfb80786", "lon": -76.98651916666667, "rental_uris": {"ios": "https://dc.lft.to/lastmile_qr_scan", "android": "https://dc.lft.to/lastmile_qr_scan"}}, {"name": "ec5ba40aedd98385972b7a4d6899f1e0", "fusion_lat": 0.0, "type": "electric_scooter", "lat": 38.9005555, "is_reserved": 0, "is_disabled": 0, "fusion_lon": 0.0, "bike_id": "ec5ba40aedd98385972b7a4d6899f1e0", "lon": -77.01387366666667, "rental_uris": {"ios": "https://dc.lft.to/lastmile_qr_scan", "android": "https://dc.lft.to/lastmile_qr_scan"}}, {"name": "a52a56077aa60d1870b3234c52fc10f2", "fusion_lat": 0.0, "type": "electric_scooter", "lat": 38.89520616666667, "is_reserved": 0, "is_disabled": 0, "fusion_lon": 0.0, "bike_id": "a52a56077aa60d1870b3234c52fc10f2", "lon": -77.024235, "rental_uris": {"ios": "https://dc.lft.to/lastmile_qr_scan", "android": "https://dc.lft.to/lastmile_qr_scan"}}, {"name": "776ee47fb27f482ab495877f076504a6", "fusion_lat": 0.0, "type": "electric_scooter", "lat": 38.90722133333333, "is_reserved": 0, "is_disabled": 0, "fusion_lon": 0.0, "bike_id": "776ee47fb27f482ab495877f076504a6", "lon": -77.03356733333334, "rental_uris": {"ios": "https://dc.lft.to/lastmile_qr_scan", "android": "https://dc.lft.to/lastmile_qr_scan"}}, {"name": "6440b1bc721c0b3a65e142c03501d7ea", "fusion_lat": 0.0, "type": "electric_scooter", "lat": 38.93107116666667, "is_reserved": 0, "is_disabled": 0, "fusion_lon": 0.0, "bike_id": "6440b1bc721c0b3a65e142c03501d7ea", "lon": -77.023986, "rental_uris": {"ios": "https://dc.lft.to/lastmile_qr_scan", "android": "https://dc.lft.to/lastmile_qr_scan"}}, {"name": "a4fa6266302acf2d22a049262e789dfc", "fusion_lat": 0.0, "type": "electric_bike", "lat": 38.89767833333333, "is_reserved": 0, "is_disabled": 0, "fusion_lon": 0.0, "bike_id": "a4fa6266302acf2d22a049262e789dfc", "lon": -76.90434416666666, "rental_uris": {"ios": "https://dc.lft.to/lastmile_qr_scan", "android": "https://dc.lft.to/lastmile_qr_scan"}}, {"name": "f4d624d461c7817dbf134fc37416807b", "fusion_lat": 0.0, "type": "electric_scooter", "lat": 38.90728716666667, "is_reserved": 0, "is_disabled": 0, "fusion_lon": 0.0, "bike_id": "f4d624d461c7817dbf134fc37416807b", "lon": -77.01131866666667, "rental_uris": {"ios": "https://dc.lft.to/lastmile_qr_scan", "android": "https://dc.lft.to/lastmile_qr_scan"}}, {"name": "c778a24f597cfd629824e180bf3f5204", "fusion_lat": 0.0, "type": "electric_scooter", "lat": 38.938974333333334, "is_reserved": 0, "is_disabled": 0, "fusion_lon": 0.0, "bike_id": "c778a24f597cfd629824e180bf3f5204", "lon": -77.03280683333334, "rental_uris": {"ios": "https://dc.lft.to/lastmile_qr_scan", "android": "https://dc.lft.to/lastmile_qr_scan"}}, {"name": "bc186954bb3b27cd508b7e9518ab9fa1", "fusion_lat": 0.0, "type": "electric_scooter", "lat": 38.93569333333333, "is_reserved": 0, "is_disabled": 0, "fusion_lon": 0.0, "bike_id": "bc186954bb3b27cd508b7e9518ab9fa1", "lon": -77.02139083333333, "rental_uris": {"ios": "https://dc.lft.to/lastmile_qr_scan", "android": "https://dc.lft.to/lastmile_qr_scan"}}, {"name": "eea9f5a3cb7e06d3aecf10c3a81ed818", "fusion_lat": 0.0, "type": "electric_scooter", "lat": 38.9024465, "is_reserved": 0, "is_disabled": 0, "fusion_lon": 0.0, "bike_id": "eea9f5a3cb7e06d3aecf10c3a81ed818", "lon": -76.99940133333334, "rental_uris": {"ios": "https://dc.lft.to/lastmile_qr_scan", "android": "https://dc.lft.to/lastmile_qr_scan"}}, {"name": "5b122a7ef59f3cf96be7e8d0713244fc", "fusion_lat": 0.0, "type": "electric_scooter", "lat": 38.935730666666664, "is_reserved": 0, "is_disabled": 0, "fusion_lon": 0.0, "bike_id": "5b122a7ef59f3cf96be7e8d0713244fc", "lon": -77.021182, "rental_uris": {"ios": "https://dc.lft.to/lastmile_qr_scan", "android": "https://dc.lft.to/lastmile_qr_scan"}}, {"name": "d37da8ae7aa9a44cc699ca1afb953771", "fusion_lat": 0.0, "type": "electric_scooter", "lat": 38.89841033333333, "is_reserved": 0, "is_disabled": 0, "fusion_lon": 0.0, "bike_id": "d37da8ae7aa9a44cc699ca1afb953771", "lon": -77.02931666666667, "rental_uris": {"ios": "https://dc.lft.to/lastmile_qr_scan", "android": "https://dc.lft.to/lastmile_qr_scan"}}, {"name": "fcd7dd40a00102b5aa2b27cbded29ac6", "fusion_lat": 0.0, "type": "electric_bike", "lat": 38.993555666666666, "is_reserved": 0, "is_disabled": 0, "fusion_lon": 0.0, "bike_id": "fcd7dd40a00102b5aa2b27cbded29ac6", "lon": -77.02682766666666, "rental_uris": {"ios": "https://dc.lft.to/lastmile_qr_scan", "android": "https://dc.lft.to/lastmile_qr_scan"}}, {"name": "65c887f4b2eed3fd6d5af6f7058d83a9", "fusion_lat": 0.0, "type": "electric_scooter", "lat": 38.911827833333334, "is_reserved": 0, "is_disabled": 0, "fusion_lon": 0.0, "bike_id": "65c887f4b2eed3fd6d5af6f7058d83a9", "lon": -77.0415455, "rental_uris": {"ios": "https://dc.lft.to/lastmile_qr_scan", "android": "https://dc.lft.to/lastmile_qr_scan"}}, {"name": "5f2bfe33bb2c82bf57ad297c916dee65", "fusion_lat": 0.0, "type": "electric_scooter", "lat": 38.929338, "is_reserved": 0, "is_disabled": 0, "fusion_lon": 0.0, "bike_id": "5f2bfe33bb2c82bf57ad297c916dee65", "lon": -77.03214516666667, "rental_uris": {"ios": "https://dc.lft.to/lastmile_qr_scan", "android": "https://dc.lft.to/lastmile_qr_scan"}}, {"name": "1f02912e68a2968537ee8eae1e80cbb7", "fusion_lat": 0.0, "type": "electric_scooter", "lat": 38.91808, "is_reserved": 0, "is_disabled": 0, "fusion_lon": 0.0, "bike_id": "1f02912e68a2968537ee8eae1e80cbb7", "lon": -77.01018516666667, "rental_uris": {"ios": "https://dc.lft.to/lastmile_qr_scan", "android": "https://dc.lft.to/lastmile_qr_scan"}}, {"name": "9315a960b536fb7f02286aeb339e5b42", "fusion_lat": 0.0, "type": "electric_scooter", "lat": 38.91419883333333, "is_reserved": 0, "is_disabled": 0, "fusion_lon": 0.0, "bike_id": "9315a960b536fb7f02286aeb339e5b42", "lon": -77.008897, "rental_uris": {"ios": "https://dc.lft.to/lastmile_qr_scan", "android": "https://dc.lft.to/lastmile_qr_scan"}}, {"name": "4c1a332e094fa5aec796d40ce93ef077", "fusion_lat": 0.0, "type": "electric_scooter", "lat": 38.876516, "is_reserved": 0, "is_disabled": 0, "fusion_lon": 0.0, "bike_id": "4c1a332e094fa5aec796d40ce93ef077", "lon": -77.00731366666666, "rental_uris": {"ios": "https://dc.lft.to/lastmile_qr_scan", "android": "https://dc.lft.to/lastmile_qr_scan"}}, {"name": "248b2454c4e35bbe9c4323e80c9e30de", "fusion_lat": 0.0, "type": "electric_scooter", "lat": 38.90332383333333, "is_reserved": 0, "is_disabled": 0, "fusion_lon": 0.0, "bike_id": "248b2454c4e35bbe9c4323e80c9e30de", "lon": -77.03451033333333, "rental_uris": {"ios": "https://dc.lft.to/lastmile_qr_scan", "android": "https://dc.lft.to/lastmile_qr_scan"}}, {"name": "024bd21ee42015aa28e0f320ad19b1ab", "fusion_lat": 0.0, "type": "electric_scooter", "lat": 38.91251283333333, "is_reserved": 0, "is_disabled": 0, "fusion_lon": 0.0, "bike_id": "024bd21ee42015aa28e0f320ad19b1ab", "lon": -77.08162616666667, "rental_uris": {"ios": "https://dc.lft.to/lastmile_qr_scan", "android": "https://dc.lft.to/lastmile_qr_scan"}}, {"name": "eae64bcef636b1e5c35905ca0fb87fba", "fusion_lat": 0.0, "type": "electric_scooter", "lat": 38.88067016666667, "is_reserved": 0, "is_disabled": 0, "fusion_lon": 0.0, "bike_id": "eae64bcef636b1e5c35905ca0fb87fba", "lon": -76.935321, "rental_uris": {"ios": "https://dc.lft.to/lastmile_qr_scan", "android": "https://dc.lft.to/lastmile_qr_scan"}}, {"name": "a2b79809bfd5da0116db252aa41e4260", "fusion_lat": 0.0, "type": "electric_bike", "lat": 38.92009183333333, "is_reserved": 0, "is_disabled": 0, "fusion_lon": 0.0, "bike_id": "a2b79809bfd5da0116db252aa41e4260", "lon": -76.97491983333333, "rental_uris": {"ios": "https://dc.lft.to/lastmile_qr_scan", "android": "https://dc.lft.to/lastmile_qr_scan"}}, {"name": "1b93ddc837aff2d3d69ce9f264b66740", "fusion_lat": 0.0, "type": "electric_scooter", "lat": 38.8958685, "is_reserved": 0, "is_disabled": 0, "fusion_lon": 0.0, "bike_id": "1b93ddc837aff2d3d69ce9f264b66740", "lon": -76.9371325, "rental_uris": {"ios": "https://dc.lft.to/lastmile_qr_scan", "android": "https://dc.lft.to/lastmile_qr_scan"}}, {"name": "baea6c43b0a16fd64fdd3cc93a971b10", "fusion_lat": 0.0, "type": "electric_scooter", "lat": 38.871973833333335, "is_reserved": 0, "is_disabled": 0, "fusion_lon": 0.0, "bike_id": "baea6c43b0a16fd64fdd3cc93a971b10", "lon": -77.00925383333333, "rental_uris": {"ios": "https://dc.lft.to/lastmile_qr_scan", "android": "https://dc.lft.to/lastmile_qr_scan"}}, {"name": "94e538a9b65d378fcf0571babd732b40", "fusion_lat": 0.0, "type": "electric_scooter", "lat": 38.906729166666665, "is_reserved": 0, "is_disabled": 0, "fusion_lon": 0.0, "bike_id": "94e538a9b65d378fcf0571babd732b40", "lon": -77.02072733333334, "rental_uris": {"ios": "https://dc.lft.to/lastmile_qr_scan", "android": "https://dc.lft.to/lastmile_qr_scan"}}, {"name": "427370cf096413fd76fc15962a345c8a", "fusion_lat": 0.0, "type": "electric_scooter", "lat": 38.856183333333334, "is_reserved": 0, "is_disabled": 0, "fusion_lon": 0.0, "bike_id": "427370cf096413fd76fc15962a345c8a", "lon": -76.9801965, "rental_uris": {"ios": "https://dc.lft.to/lastmile_qr_scan", "android": "https://dc.lft.to/lastmile_qr_scan"}}, {"name": "465e2cc22de5f8633d71d5cc69154fdf", "fusion_lat": 0.0, "type": "electric_scooter", "lat": 38.90446933333333, "is_reserved": 0, "is_disabled": 0, "fusion_lon": 0.0, "bike_id": "465e2cc22de5f8633d71d5cc69154fdf", "lon": -76.99626883333333, "rental_uris": {"ios": "https://dc.lft.to/lastmile_qr_scan", "android": "https://dc.lft.to/lastmile_qr_scan"}}, {"name": "a653c424d625eeb5bf903784ad58d281", "fusion_lat": 0.0, "type": "electric_scooter", "lat": 38.876568666666664, "is_reserved": 0, "is_disabled": 0, "fusion_lon": 0.0, "bike_id": "a653c424d625eeb5bf903784ad58d281", "lon": -77.00359, "rental_uris": {"ios": "https://dc.lft.to/lastmile_qr_scan", "android": "https://dc.lft.to/lastmile_qr_scan"}}, {"name": "d15fc1363ff274d31b61b866cd97fac0", "fusion_lat": 0.0, "type": "electric_scooter", "lat": 38.884953, "is_reserved": 0, "is_disabled": 0, "fusion_lon": 0.0, "bike_id": "d15fc1363ff274d31b61b866cd97fac0", "lon": -77.02190483333334, "rental_uris": {"ios": "https://dc.lft.to/lastmile_qr_scan", "android": "https://dc.lft.to/lastmile_qr_scan"}}, {"name": "11c51018f57323697f09c00888aa48a2", "fusion_lat": 0.0, "type": "electric_scooter", "lat": 38.912702, "is_reserved": 0, "is_disabled": 0, "fusion_lon": 0.0, "bike_id": "11c51018f57323697f09c00888aa48a2", "lon": -77.060889, "rental_uris": {"ios": "https://dc.lft.to/lastmile_qr_scan", "android": "https://dc.lft.to/lastmile_qr_scan"}}, {"name": "3bd67f333cd7e3416921cb05904e55d0", "fusion_lat": 0.0, "type": "electric_scooter", "lat": 38.89799766666667, "is_reserved": 0, "is_disabled": 0, "fusion_lon": 0.0, "bike_id": "3bd67f333cd7e3416921cb05904e55d0", "lon": -77.02811483333333, "rental_uris": {"ios": "https://dc.lft.to/lastmile_qr_scan", "android": "https://dc.lft.to/lastmile_qr_scan"}}, {"name": "4a9bad4ea1751edd0b8cda17c33fbf62", "fusion_lat": 0.0, "type": "electric_scooter", "lat": 38.87572216666667, "is_reserved": 0, "is_disabled": 0, "fusion_lon": 0.0, "bike_id": "4a9bad4ea1751edd0b8cda17c33fbf62", "lon": -77.0059355, "rental_uris": {"ios": "https://dc.lft.to/lastmile_qr_scan", "android": "https://dc.lft.to/lastmile_qr_scan"}}, {"name": "aea45c4395d9ea68a57e308135e1a2a1", "fusion_lat": 0.0, "type": "electric_scooter", "lat": 38.907154, "is_reserved": 0, "is_disabled": 0, "fusion_lon": 0.0, "bike_id": "aea45c4395d9ea68a57e308135e1a2a1", "lon": -77.01509616666667, "rental_uris": {"ios": "https://dc.lft.to/lastmile_qr_scan", "android": "https://dc.lft.to/lastmile_qr_scan"}}, {"name": "04c50b9204c9e376797900505f3e5e41", "fusion_lat": 0.0, "type": "electric_scooter", "lat": 38.8929185, "is_reserved": 0, "is_disabled": 0, "fusion_lon": 0.0, "bike_id": "04c50b9204c9e376797900505f3e5e41", "lon": -77.03186916666667, "rental_uris": {"ios": "https://dc.lft.to/lastmile_qr_scan", "android": "https://dc.lft.to/lastmile_qr_scan"}}, {"name": "480e458010082739d18741a30c11a7c0", "fusion_lat": 0.0, "type": "electric_scooter", "lat": 38.92869816666666, "is_reserved": 0, "is_disabled": 0, "fusion_lon": 0.0, "bike_id": "480e458010082739d18741a30c11a7c0", "lon": -77.01369183333334, "rental_uris": {"ios": "https://dc.lft.to/lastmile_qr_scan", "android": "https://dc.lft.to/lastmile_qr_scan"}}, {"name": "50ecb3b00d2120d3fdef72a600c5421c", "fusion_lat": 0.0, "type": "electric_scooter", "lat": 38.918868, "is_reserved": 0, "is_disabled": 0, "fusion_lon": 0.0, "bike_id": "50ecb3b00d2120d3fdef72a600c5421c", "lon": -77.03485133333334, "rental_uris": {"ios": "https://dc.lft.to/lastmile_qr_scan", "android": "https://dc.lft.to/lastmile_qr_scan"}}, {"name": "dac6eb2b366185114ab4c48563bea14c", "fusion_lat": 0.0, "type": "electric_bike", "lat": 38.94551666666667, "is_reserved": 0, "is_disabled": 0, "fusion_lon": 0.0, "bike_id": "dac6eb2b366185114ab4c48563bea14c", "lon": -76.89536583333333, "rental_uris": {"ios": "https://dc.lft.to/lastmile_qr_scan", "android": "https://dc.lft.to/lastmile_qr_scan"}}, {"name": "407881fb5583f7330de6818b8ab511c3", "fusion_lat": 0.0, "type": "electric_scooter", "lat": 38.9312665, "is_reserved": 0, "is_disabled": 0, "fusion_lon": 0.0, "bike_id": "407881fb5583f7330de6818b8ab511c3", "lon": -77.03601533333334, "rental_uris": {"ios": "https://dc.lft.to/lastmile_qr_scan", "android": "https://dc.lft.to/lastmile_qr_scan"}}, {"name": "6250d8a4c1219dacff230ef29e46b648", "fusion_lat": 0.0, "type": "electric_scooter", "lat": 38.88394666666667, "is_reserved": 0, "is_disabled": 0, "fusion_lon": 0.0, "bike_id": "6250d8a4c1219dacff230ef29e46b648", "lon": -76.930456, "rental_uris": {"ios": "https://dc.lft.to/lastmile_qr_scan", "android": "https://dc.lft.to/lastmile_qr_scan"}}, {"name": "5eac344cd137fcc6cde5507511042c4f", "fusion_lat": 0.0, "type": "electric_scooter", "lat": 38.940220833333335, "is_reserved": 0, "is_disabled": 0, "fusion_lon": 0.0, "bike_id": "5eac344cd137fcc6cde5507511042c4f", "lon": -77.02958833333334, "rental_uris": {"ios": "https://dc.lft.to/lastmile_qr_scan", "android": "https://dc.lft.to/lastmile_qr_scan"}}, {"name": "e3875dafd8c63bb44d53715a5bd7f177", "fusion_lat": 0.0, "type": "electric_scooter", "lat": 38.90809516666667, "is_reserved": 0, "is_disabled": 0, "fusion_lon": 0.0, "bike_id": "e3875dafd8c63bb44d53715a5bd7f177", "lon": -77.02604466666666, "rental_uris": {"ios": "https://dc.lft.to/lastmile_qr_scan", "android": "https://dc.lft.to/lastmile_qr_scan"}}, {"name": "a35e8908368feb2eea226979f584ac5c", "fusion_lat": 0.0, "type": "electric_scooter", "lat": 38.939703, "is_reserved": 0, "is_disabled": 0, "fusion_lon": 0.0, "bike_id": "a35e8908368feb2eea226979f584ac5c", "lon": -77.01916, "rental_uris": {"ios": "https://dc.lft.to/lastmile_qr_scan", "android": "https://dc.lft.to/lastmile_qr_scan"}}, {"name": "e3ecdc63c55155dd63dcc6fd9465912b", "fusion_lat": 0.0, "type": "electric_scooter", "lat": 38.900990166666666, "is_reserved": 0, "is_disabled": 0, "fusion_lon": 0.0, "bike_id": "e3ecdc63c55155dd63dcc6fd9465912b", "lon": -77.04653266666666, "rental_uris": {"ios": "https://dc.lft.to/lastmile_qr_scan", "android": "https://dc.lft.to/lastmile_qr_scan"}}, {"name": "81c8bb024902d9805452809adcaad687", "fusion_lat": 0.0, "type": "electric_scooter", "lat": 38.910597833333334, "is_reserved": 0, "is_disabled": 0, "fusion_lon": 0.0, "bike_id": "81c8bb024902d9805452809adcaad687", "lon": -77.04291416666666, "rental_uris": {"ios": "https://dc.lft.to/lastmile_qr_scan", "android": "https://dc.lft.to/lastmile_qr_scan"}}, {"name": "6dce81deb34c62e4ac9ec9694b9955e3", "fusion_lat": 0.0, "type": "electric_scooter", "lat": 38.90252433333333, "is_reserved": 0, "is_disabled": 0, "fusion_lon": 0.0, "bike_id": "6dce81deb34c62e4ac9ec9694b9955e3", "lon": -77.0435375, "rental_uris": {"ios": "https://dc.lft.to/lastmile_qr_scan", "android": "https://dc.lft.to/lastmile_qr_scan"}}, {"name": "1f7950978dce4d1afb463bd1d9de3283", "fusion_lat": 0.0, "type": "electric_scooter", "lat": 38.89483933333333, "is_reserved": 0, "is_disabled": 0, "fusion_lon": 0.0, "bike_id": "1f7950978dce4d1afb463bd1d9de3283", "lon": -76.94871816666667, "rental_uris": {"ios": "https://dc.lft.to/lastmile_qr_scan", "android": "https://dc.lft.to/lastmile_qr_scan"}}, {"name": "1caf15664942411395f018080c197e6c", "fusion_lat": 0.0, "type": "electric_bike", "lat": 38.97327166666667, "is_reserved": 0, "is_disabled": 0, "fusion_lon": 0.0, "bike_id": "1caf15664942411395f018080c197e6c", "lon": -77.0214985, "rental_uris": {"ios": "https://dc.lft.to/lastmile_qr_scan", "android": "https://dc.lft.to/lastmile_qr_scan"}}, {"name": "32ced9be23313d10bb0c1afe52d53bce", "fusion_lat": 0.0, "type": "electric_scooter", "lat": 38.91810016666667, "is_reserved": 0, "is_disabled": 0, "fusion_lon": 0.0, "bike_id": "32ced9be23313d10bb0c1afe52d53bce", "lon": -77.024914, "rental_uris": {"ios": "https://dc.lft.to/lastmile_qr_scan", "android": "https://dc.lft.to/lastmile_qr_scan"}}, {"name": "30ceb54ca888eadb5e856acc74a07c03", "fusion_lat": 0.0, "type": "electric_scooter", "lat": 38.911588333333334, "is_reserved": 0, "is_disabled": 0, "fusion_lon": 0.0, "bike_id": "30ceb54ca888eadb5e856acc74a07c03", "lon": -77.03204933333333, "rental_uris": {"ios": "https://dc.lft.to/lastmile_qr_scan", "android": "https://dc.lft.to/lastmile_qr_scan"}}, {"name": "7b8e4468e76d03fa0c93076fd58332dc", "fusion_lat": 0.0, "type": "electric_scooter", "lat": 38.895210666666664, "is_reserved": 0, "is_disabled": 0, "fusion_lon": 0.0, "bike_id": "7b8e4468e76d03fa0c93076fd58332dc", "lon": -76.99207083333333, "rental_uris": {"ios": "https://dc.lft.to/lastmile_qr_scan", "android": "https://dc.lft.to/lastmile_qr_scan"}}, {"name": "063a66563177ca1b9d95ed42d3e84330", "fusion_lat": 0.0, "type": "electric_scooter", "lat": 38.902619333333334, "is_reserved": 0, "is_disabled": 0, "fusion_lon": 0.0, "bike_id": "063a66563177ca1b9d95ed42d3e84330", "lon": -77.026787, "rental_uris": {"ios": "https://dc.lft.to/lastmile_qr_scan", "android": "https://dc.lft.to/lastmile_qr_scan"}}, {"name": "3bb953e6ca854430f2ac4c1c734e544b", "fusion_lat": 0.0, "type": "electric_scooter", "lat": 38.902437166666665, "is_reserved": 0, "is_disabled": 0, "fusion_lon": 0.0, "bike_id": "3bb953e6ca854430f2ac4c1c734e544b", "lon": -77.0179755, "rental_uris": {"ios": "https://dc.lft.to/lastmile_qr_scan", "android": "https://dc.lft.to/lastmile_qr_scan"}}, {"name": "b03fb4c58c3f223bae273f872c2a8d24", "fusion_lat": 0.0, "type": "electric_scooter", "lat": 38.900178, "is_reserved": 0, "is_disabled": 0, "fusion_lon": 0.0, "bike_id": "b03fb4c58c3f223bae273f872c2a8d24", "lon": -77.001845, "rental_uris": {"ios": "https://dc.lft.to/lastmile_qr_scan", "android": "https://dc.lft.to/lastmile_qr_scan"}}, {"name": "26b873cf67d4de2aa1112d2693b8d49c", "fusion_lat": 0.0, "type": "electric_scooter", "lat": 38.903357, "is_reserved": 0, "is_disabled": 0, "fusion_lon": 0.0, "bike_id": "26b873cf67d4de2aa1112d2693b8d49c", "lon": -77.05442733333334, "rental_uris": {"ios": "https://dc.lft.to/lastmile_qr_scan", "android": "https://dc.lft.to/lastmile_qr_scan"}}, {"name": "56cc424a685f5b0a41ce2d44318a1112", "fusion_lat": 0.0, "type": "electric_scooter", "lat": 38.92813116666667, "is_reserved": 0, "is_disabled": 0, "fusion_lon": 0.0, "bike_id": "56cc424a685f5b0a41ce2d44318a1112", "lon": -77.0363505, "rental_uris": {"ios": "https://dc.lft.to/lastmile_qr_scan", "android": "https://dc.lft.to/lastmile_qr_scan"}}, {"name": "107be8addc94095245d4733feb02e37f", "fusion_lat": 0.0, "type": "electric_scooter", "lat": 38.91127633333333, "is_reserved": 0, "is_disabled": 0, "fusion_lon": 0.0, "bike_id": "107be8addc94095245d4733feb02e37f", "lon": -77.02198466666667, "rental_uris": {"ios": "https://dc.lft.to/lastmile_qr_scan", "android": "https://dc.lft.to/lastmile_qr_scan"}}, {"name": "fd3306e9939e5f4a3ceca9ad873d1cb9", "fusion_lat": 0.0, "type": "electric_scooter", "lat": 38.87864866666666, "is_reserved": 0, "is_disabled": 0, "fusion_lon": 0.0, "bike_id": "fd3306e9939e5f4a3ceca9ad873d1cb9", "lon": -76.96525933333334, "rental_uris": {"ios": "https://dc.lft.to/lastmile_qr_scan", "android": "https://dc.lft.to/lastmile_qr_scan"}}, {"name": "5180452d715c361ae058e6658287a7ea", "fusion_lat": 0.0, "type": "electric_scooter", "lat": 38.901379666666664, "is_reserved": 0, "is_disabled": 0, "fusion_lon": 0.0, "bike_id": "5180452d715c361ae058e6658287a7ea", "lon": -76.999934, "rental_uris": {"ios": "https://dc.lft.to/lastmile_qr_scan", "android": "https://dc.lft.to/lastmile_qr_scan"}}, {"name": "2fc0e719efacc8a4c4ec62888f0fa70d", "fusion_lat": 0.0, "type": "electric_scooter", "lat": 38.9233395, "is_reserved": 0, "is_disabled": 0, "fusion_lon": 0.0, "bike_id": "2fc0e719efacc8a4c4ec62888f0fa70d", "lon": -77.0195185, "rental_uris": {"ios": "https://dc.lft.to/lastmile_qr_scan", "android": "https://dc.lft.to/lastmile_qr_scan"}}, {"name": "89606ec3d1c52ed58a661104a9cb4d7a", "fusion_lat": 0.0, "type": "electric_scooter", "lat": 38.90050166666666, "is_reserved": 0, "is_disabled": 0, "fusion_lon": 0.0, "bike_id": "89606ec3d1c52ed58a661104a9cb4d7a", "lon": -77.00067616666666, "rental_uris": {"ios": "https://dc.lft.to/lastmile_qr_scan", "android": "https://dc.lft.to/lastmile_qr_scan"}}, {"name": "2a786097cc5dbf385b770a3f254337d7", "fusion_lat": 0.0, "type": "electric_scooter", "lat": 38.909536833333334, "is_reserved": 0, "is_disabled": 0, "fusion_lon": 0.0, "bike_id": "2a786097cc5dbf385b770a3f254337d7", "lon": -77.02378283333333, "rental_uris": {"ios": "https://dc.lft.to/lastmile_qr_scan", "android": "https://dc.lft.to/lastmile_qr_scan"}}, {"name": "30133ebcc5102340b1f31c7fe283d88d", "fusion_lat": 0.0, "type": "electric_scooter", "lat": 38.899476, "is_reserved": 0, "is_disabled": 0, "fusion_lon": 0.0, "bike_id": "30133ebcc5102340b1f31c7fe283d88d", "lon": -77.05484233333334, "rental_uris": {"ios": "https://dc.lft.to/lastmile_qr_scan", "android": "https://dc.lft.to/lastmile_qr_scan"}}, {"name": "5551a73f8df7cec17ff0ea6fc0c1bf95", "fusion_lat": 0.0, "type": "electric_scooter", "lat": 38.887401833333335, "is_reserved": 0, "is_disabled": 0, "fusion_lon": 0.0, "bike_id": "5551a73f8df7cec17ff0ea6fc0c1bf95", "lon": -77.03214733333333, "rental_uris": {"ios": "https://dc.lft.to/lastmile_qr_scan", "android": "https://dc.lft.to/lastmile_qr_scan"}}, {"name": "faf8ee448e21284f235a93759c25d7e0", "fusion_lat": 0.0, "type": "electric_scooter", "lat": 38.91680916666667, "is_reserved": 0, "is_disabled": 0, "fusion_lon": 0.0, "bike_id": "faf8ee448e21284f235a93759c25d7e0", "lon": -77.028981, "rental_uris": {"ios": "https://dc.lft.to/lastmile_qr_scan", "android": "https://dc.lft.to/lastmile_qr_scan"}}, {"name": "50c82c11710a0ce24239e60f6abe5639", "fusion_lat": 0.0, "type": "electric_scooter", "lat": 38.88350666666667, "is_reserved": 0, "is_disabled": 0, "fusion_lon": 0.0, "bike_id": "50c82c11710a0ce24239e60f6abe5639", "lon": -76.99618516666666, "rental_uris": {"ios": "https://dc.lft.to/lastmile_qr_scan", "android": "https://dc.lft.to/lastmile_qr_scan"}}, {"name": "966f55bd7624932bd31919936a78c6e9", "fusion_lat": 0.0, "type": "electric_scooter", "lat": 38.9091605, "is_reserved": 0, "is_disabled": 0, "fusion_lon": 0.0, "bike_id": "966f55bd7624932bd31919936a78c6e9", "lon": -77.06423566666666, "rental_uris": {"ios": "https://dc.lft.to/lastmile_qr_scan", "android": "https://dc.lft.to/lastmile_qr_scan"}}, {"name": "49f099d513dfbb8c766479b573107563", "fusion_lat": 0.0, "type": "electric_scooter", "lat": 38.92337666666667, "is_reserved": 0, "is_disabled": 0, "fusion_lon": 0.0, "bike_id": "49f099d513dfbb8c766479b573107563", "lon": -77.04188583333334, "rental_uris": {"ios": "https://dc.lft.to/lastmile_qr_scan", "android": "https://dc.lft.to/lastmile_qr_scan"}}, {"name": "417d061e0d94afebeabce5a93ec5f496", "fusion_lat": 0.0, "type": "electric_scooter", "lat": 38.8805655, "is_reserved": 0, "is_disabled": 0, "fusion_lon": 0.0, "bike_id": "417d061e0d94afebeabce5a93ec5f496", "lon": -77.00519916666667, "rental_uris": {"ios": "https://dc.lft.to/lastmile_qr_scan", "android": "https://dc.lft.to/lastmile_qr_scan"}}, {"name": "52bc34a7ae3d698030834b597907722a", "fusion_lat": 0.0, "type": "electric_scooter", "lat": 38.901330333333334, "is_reserved": 0, "is_disabled": 0, "fusion_lon": 0.0, "bike_id": "52bc34a7ae3d698030834b597907722a", "lon": -77.04214816666666, "rental_uris": {"ios": "https://dc.lft.to/lastmile_qr_scan", "android": "https://dc.lft.to/lastmile_qr_scan"}}, {"name": "7b221539092a24f0b26bcdcdb897be17", "fusion_lat": 0.0, "type": "electric_scooter", "lat": 38.90502266666667, "is_reserved": 0, "is_disabled": 0, "fusion_lon": 0.0, "bike_id": "7b221539092a24f0b26bcdcdb897be17", "lon": -77.06534116666667, "rental_uris": {"ios": "https://dc.lft.to/lastmile_qr_scan", "android": "https://dc.lft.to/lastmile_qr_scan"}}, {"name": "96ab4ea102acc87452b399deebec2920", "fusion_lat": 0.0, "type": "electric_scooter", "lat": 38.904772333333334, "is_reserved": 0, "is_disabled": 0, "fusion_lon": 0.0, "bike_id": "96ab4ea102acc87452b399deebec2920", "lon": -77.03553833333334, "rental_uris": {"ios": "https://dc.lft.to/lastmile_qr_scan", "android": "https://dc.lft.to/lastmile_qr_scan"}}, {"name": "3ca665f599ba0f677dde98eaa7ff5a11", "fusion_lat": 0.0, "type": "electric_scooter", "lat": 38.9095485, "is_reserved": 0, "is_disabled": 0, "fusion_lon": 0.0, "bike_id": "3ca665f599ba0f677dde98eaa7ff5a11", "lon": -77.03199833333333, "rental_uris": {"ios": "https://dc.lft.to/lastmile_qr_scan", "android": "https://dc.lft.to/lastmile_qr_scan"}}, {"name": "db6accc85c0d502733e1218a9fdf0004", "fusion_lat": 0.0, "type": "electric_scooter", "lat": 38.9293375, "is_reserved": 0, "is_disabled": 0, "fusion_lon": 0.0, "bike_id": "db6accc85c0d502733e1218a9fdf0004", "lon": -77.03632466666667, "rental_uris": {"ios": "https://dc.lft.to/lastmile_qr_scan", "android": "https://dc.lft.to/lastmile_qr_scan"}}, {"name": "3d3dc5f45509af088b7c0897ebc63479", "fusion_lat": 0.0, "type": "electric_scooter", "lat": 38.93605766666667, "is_reserved": 0, "is_disabled": 0, "fusion_lon": 0.0, "bike_id": "3d3dc5f45509af088b7c0897ebc63479", "lon": -77.058594, "rental_uris": {"ios": "https://dc.lft.to/lastmile_qr_scan", "android": "https://dc.lft.to/lastmile_qr_scan"}}, {"name": "a3f338ec8a419db3b0e707f37c3c64f8", "fusion_lat": 0.0, "type": "electric_scooter", "lat": 38.932117833333336, "is_reserved": 0, "is_disabled": 0, "fusion_lon": 0.0, "bike_id": "a3f338ec8a419db3b0e707f37c3c64f8", "lon": -77.03659816666666, "rental_uris": {"ios": "https://dc.lft.to/lastmile_qr_scan", "android": "https://dc.lft.to/lastmile_qr_scan"}}, {"name": "123e8d5be92915e9408275dff3692cab", "fusion_lat": 0.0, "type": "electric_scooter", "lat": 38.95911383333333, "is_reserved": 0, "is_disabled": 0, "fusion_lon": 0.0, "bike_id": "123e8d5be92915e9408275dff3692cab", "lon": -77.080779, "rental_uris": {"ios": "https://dc.lft.to/lastmile_qr_scan", "android": "https://dc.lft.to/lastmile_qr_scan"}}, {"name": "f73d74d3af533c48793c717619abdc61", "fusion_lat": 0.0, "type": "electric_scooter", "lat": 38.94701233333333, "is_reserved": 0, "is_disabled": 0, "fusion_lon": 0.0, "bike_id": "f73d74d3af533c48793c717619abdc61", "lon": -77.01938966666667, "rental_uris": {"ios": "https://dc.lft.to/lastmile_qr_scan", "android": "https://dc.lft.to/lastmile_qr_scan"}}, {"name": "22a5590868d085706074d3f7206fdce5", "fusion_lat": 0.0, "type": "electric_bike", "lat": 38.80790016666667, "is_reserved": 0, "is_disabled": 0, "fusion_lon": 0.0, "bike_id": "22a5590868d085706074d3f7206fdce5", "lon": -77.1296645, "rental_uris": {"ios": "https://dc.lft.to/lastmile_qr_scan", "android": "https://dc.lft.to/lastmile_qr_scan"}}, {"name": "3570c4effc77ddb6c41c3698eed5b6cc", "fusion_lat": 0.0, "type": "electric_scooter", "lat": 38.87749066666667, "is_reserved": 0, "is_disabled": 0, "fusion_lon": 0.0, "bike_id": "3570c4effc77ddb6c41c3698eed5b6cc", "lon": -77.00743933333334, "rental_uris": {"ios": "https://dc.lft.to/lastmile_qr_scan", "android": "https://dc.lft.to/lastmile_qr_scan"}}, {"name": "2b2fe7f75c88b00437e1e9ad14f64228", "fusion_lat": 0.0, "type": "electric_bike", "lat": 38.90855333333333, "is_reserved": 0, "is_disabled": 0, "fusion_lon": 0.0, "bike_id": "2b2fe7f75c88b00437e1e9ad14f64228", "lon": -77.04924333333334, "rental_uris": {"ios": "https://dc.lft.to/lastmile_qr_scan", "android": "https://dc.lft.to/lastmile_qr_scan"}}, {"name": "f0b39a90e6ec682a88456ee868010d7e", "fusion_lat": 0.0, "type": "electric_scooter", "lat": 38.900071833333335, "is_reserved": 0, "is_disabled": 0, "fusion_lon": 0.0, "bike_id": "f0b39a90e6ec682a88456ee868010d7e", "lon": -76.99031816666667, "rental_uris": {"ios": "https://dc.lft.to/lastmile_qr_scan", "android": "https://dc.lft.to/lastmile_qr_scan"}}, {"name": "cae3953a49717a7a1082cbe7904e492f", "fusion_lat": 0.0, "type": "electric_scooter", "lat": 38.91119533333333, "is_reserved": 0, "is_disabled": 0, "fusion_lon": 0.0, "bike_id": "cae3953a49717a7a1082cbe7904e492f", "lon": -77.04600116666667, "rental_uris": {"ios": "https://dc.lft.to/lastmile_qr_scan", "android": "https://dc.lft.to/lastmile_qr_scan"}}, {"name": "06cd1363be076853ef12d4f13c22e6c0", "fusion_lat": 0.0, "type": "electric_scooter", "lat": 38.9234715, "is_reserved": 0, "is_disabled": 0, "fusion_lon": 0.0, "bike_id": "06cd1363be076853ef12d4f13c22e6c0", "lon": -77.05439633333333, "rental_uris": {"ios": "https://dc.lft.to/lastmile_qr_scan", "android": "https://dc.lft.to/lastmile_qr_scan"}}, {"name": "96c0e87d722a16550dfea6ec2a2dba48", "fusion_lat": 0.0, "type": "electric_scooter", "lat": 38.87804083333333, "is_reserved": 0, "is_disabled": 0, "fusion_lon": 0.0, "bike_id": "96c0e87d722a16550dfea6ec2a2dba48", "lon": -77.00740166666667, "rental_uris": {"ios": "https://dc.lft.to/lastmile_qr_scan", "android": "https://dc.lft.to/lastmile_qr_scan"}}, {"name": "3f80308f144a0fbb4e595b7837ea5978", "fusion_lat": 0.0, "type": "electric_bike", "lat": 39.00376033333333, "is_reserved": 0, "is_disabled": 0, "fusion_lon": 0.0, "bike_id": "3f80308f144a0fbb4e595b7837ea5978", "lon": -77.01297166666667, "rental_uris": {"ios": "https://dc.lft.to/lastmile_qr_scan", "android": "https://dc.lft.to/lastmile_qr_scan"}}, {"name": "7a91b817302e8901725a05648f61ba60", "fusion_lat": 0.0, "type": "electric_scooter", "lat": 38.9565385, "is_reserved": 0, "is_disabled": 0, "fusion_lon": 0.0, "bike_id": "7a91b817302e8901725a05648f61ba60", "lon": -77.03286583333333, "rental_uris": {"ios": "https://dc.lft.to/lastmile_qr_scan", "android": "https://dc.lft.to/lastmile_qr_scan"}}, {"name": "fd92ad68079dc7711740706fb0fb3b87", "fusion_lat": 0.0, "type": "electric_scooter", "lat": 38.92100633333333, "is_reserved": 0, "is_disabled": 0, "fusion_lon": 0.0, "bike_id": "fd92ad68079dc7711740706fb0fb3b87", "lon": -76.99190416666667, "rental_uris": {"ios": "https://dc.lft.to/lastmile_qr_scan", "android": "https://dc.lft.to/lastmile_qr_scan"}}, {"name": "422c58ca752aa5738d71b23c591bbdc2", "fusion_lat": 0.0, "type": "electric_scooter", "lat": 38.89839166666667, "is_reserved": 0, "is_disabled": 0, "fusion_lon": 0.0, "bike_id": "422c58ca752aa5738d71b23c591bbdc2", "lon": -77.02919166666666, "rental_uris": {"ios": "https://dc.lft.to/lastmile_qr_scan", "android": "https://dc.lft.to/lastmile_qr_scan"}}, {"name": "82ac03dcc141c7e602197114b9f4d656", "fusion_lat": 0.0, "type": "electric_scooter", "lat": 38.924858666666665, "is_reserved": 0, "is_disabled": 0, "fusion_lon": 0.0, "bike_id": "82ac03dcc141c7e602197114b9f4d656", "lon": -77.0521765, "rental_uris": {"ios": "https://dc.lft.to/lastmile_qr_scan", "android": "https://dc.lft.to/lastmile_qr_scan"}}, {"name": "4669ff0381dc941ef2b3469d04c09176", "fusion_lat": 0.0, "type": "electric_bike", "lat": 38.9732445, "is_reserved": 0, "is_disabled": 0, "fusion_lon": 0.0, "bike_id": "4669ff0381dc941ef2b3469d04c09176", "lon": -77.0214575, "rental_uris": {"ios": "https://dc.lft.to/lastmile_qr_scan", "android": "https://dc.lft.to/lastmile_qr_scan"}}, {"name": "054bcfbf72c3aa5e9f17fc818cfc75c6", "fusion_lat": 0.0, "type": "electric_scooter", "lat": 38.9180985, "is_reserved": 0, "is_disabled": 0, "fusion_lon": 0.0, "bike_id": "054bcfbf72c3aa5e9f17fc818cfc75c6", "lon": -77.02814116666667, "rental_uris": {"ios": "https://dc.lft.to/lastmile_qr_scan", "android": "https://dc.lft.to/lastmile_qr_scan"}}, {"name": "36d3c6f14f8be08a0bd07a28a58d5b42", "fusion_lat": 0.0, "type": "electric_bike", "lat": 38.838618333333336, "is_reserved": 0, "is_disabled": 0, "fusion_lon": 0.0, "bike_id": "36d3c6f14f8be08a0bd07a28a58d5b42", "lon": -77.08866183333333, "rental_uris": {"ios": "https://dc.lft.to/lastmile_qr_scan", "android": "https://dc.lft.to/lastmile_qr_scan"}}, {"name": "2cadb78eda43515a65c0ba22fb14e46e", "fusion_lat": 0.0, "type": "electric_scooter", "lat": 38.9032565, "is_reserved": 0, "is_disabled": 0, "fusion_lon": 0.0, "bike_id": "2cadb78eda43515a65c0ba22fb14e46e", "lon": -77.03850966666667, "rental_uris": {"ios": "https://dc.lft.to/lastmile_qr_scan", "android": "https://dc.lft.to/lastmile_qr_scan"}}, {"name": "1f0cfc76f69327d61aebb41a8065ea92", "fusion_lat": 0.0, "type": "electric_scooter", "lat": 38.93099816666667, "is_reserved": 0, "is_disabled": 0, "fusion_lon": 0.0, "bike_id": "1f0cfc76f69327d61aebb41a8065ea92", "lon": -77.0240375, "rental_uris": {"ios": "https://dc.lft.to/lastmile_qr_scan", "android": "https://dc.lft.to/lastmile_qr_scan"}}, {"name": "57398babdbbb062a37e153da2316c92c", "fusion_lat": 0.0, "type": "electric_scooter", "lat": 38.8892895, "is_reserved": 0, "is_disabled": 0, "fusion_lon": 0.0, "bike_id": "57398babdbbb062a37e153da2316c92c", "lon": -76.94776966666667, "rental_uris": {"ios": "https://dc.lft.to/lastmile_qr_scan", "android": "https://dc.lft.to/lastmile_qr_scan"}}, {"name": "36cc85f1fbd12545e2a7ffb613dea484", "fusion_lat": 0.0, "type": "electric_scooter", "lat": 38.901421666666664, "is_reserved": 0, "is_disabled": 0, "fusion_lon": 0.0, "bike_id": "36cc85f1fbd12545e2a7ffb613dea484", "lon": -76.99971083333334, "rental_uris": {"ios": "https://dc.lft.to/lastmile_qr_scan", "android": "https://dc.lft.to/lastmile_qr_scan"}}, {"name": "b694fc0b5ad3271a08c33649b3a22585", "fusion_lat": 0.0, "type": "electric_scooter", "lat": 38.93435916666667, "is_reserved": 0, "is_disabled": 0, "fusion_lon": 0.0, "bike_id": "b694fc0b5ad3271a08c33649b3a22585", "lon": -77.0399795, "rental_uris": {"ios": "https://dc.lft.to/lastmile_qr_scan", "android": "https://dc.lft.to/lastmile_qr_scan"}}, {"name": "e132d1e063097749710fcb6666f469e9", "fusion_lat": 0.0, "type": "electric_bike", "lat": 38.90290916666667, "is_reserved": 0, "is_disabled": 0, "fusion_lon": 0.0, "bike_id": "e132d1e063097749710fcb6666f469e9", "lon": -76.980842, "rental_uris": {"ios": "https://dc.lft.to/lastmile_qr_scan", "android": "https://dc.lft.to/lastmile_qr_scan"}}, {"name": "318adb12f53f1a2a6552301a5e60e5ab", "fusion_lat": 0.0, "type": "electric_scooter", "lat": 38.9310305, "is_reserved": 0, "is_disabled": 0, "fusion_lon": 0.0, "bike_id": "318adb12f53f1a2a6552301a5e60e5ab", "lon": -77.02506833333334, "rental_uris": {"ios": "https://dc.lft.to/lastmile_qr_scan", "android": "https://dc.lft.to/lastmile_qr_scan"}}, {"name": "f5ac43f5954cd2231f9939154e5a7449", "fusion_lat": 0.0, "type": "electric_scooter", "lat": 38.90517533333333, "is_reserved": 0, "is_disabled": 0, "fusion_lon": 0.0, "bike_id": "f5ac43f5954cd2231f9939154e5a7449", "lon": -77.06467133333334, "rental_uris": {"ios": "https://dc.lft.to/lastmile_qr_scan", "android": "https://dc.lft.to/lastmile_qr_scan"}}, {"name": "0c6991425b5c76647249b6f322c5bd08", "fusion_lat": 0.0, "type": "electric_scooter", "lat": 38.8924675, "is_reserved": 0, "is_disabled": 0, "fusion_lon": 0.0, "bike_id": "0c6991425b5c76647249b6f322c5bd08", "lon": -77.03377733333333, "rental_uris": {"ios": "https://dc.lft.to/lastmile_qr_scan", "android": "https://dc.lft.to/lastmile_qr_scan"}}, {"name": "3b082bad8811ec8cabd7521d6b0ac83c", "fusion_lat": 0.0, "type": "electric_scooter", "lat": 38.9181205, "is_reserved": 0, "is_disabled": 0, "fusion_lon": 0.0, "bike_id": "3b082bad8811ec8cabd7521d6b0ac83c", "lon": -77.04626, "rental_uris": {"ios": "https://dc.lft.to/lastmile_qr_scan", "android": "https://dc.lft.to/lastmile_qr_scan"}}, {"name": "879912f267b83d5abe0d453a2038d4fa", "fusion_lat": 0.0, "type": "electric_scooter", "lat": 38.921873, "is_reserved": 0, "is_disabled": 0, "fusion_lon": 0.0, "bike_id": "879912f267b83d5abe0d453a2038d4fa", "lon": -77.04286766666667, "rental_uris": {"ios": "https://dc.lft.to/lastmile_qr_scan", "android": "https://dc.lft.to/lastmile_qr_scan"}}, {"name": "b0f62e8512b222d818e435878b8327f9", "fusion_lat": 0.0, "type": "electric_scooter", "lat": 38.93185116666667, "is_reserved": 0, "is_disabled": 0, "fusion_lon": 0.0, "bike_id": "b0f62e8512b222d818e435878b8327f9", "lon": -77.03450033333333, "rental_uris": {"ios": "https://dc.lft.to/lastmile_qr_scan", "android": "https://dc.lft.to/lastmile_qr_scan"}}, {"name": "975d7c0a89471e62e586f3157ed48ce4", "fusion_lat": 0.0, "type": "electric_scooter", "lat": 38.90573966666667, "is_reserved": 0, "is_disabled": 0, "fusion_lon": 0.0, "bike_id": "975d7c0a89471e62e586f3157ed48ce4", "lon": -77.04552133333334, "rental_uris": {"ios": "https://dc.lft.to/lastmile_qr_scan", "android": "https://dc.lft.to/lastmile_qr_scan"}}, {"name": "a959b7ca0d36bad11009a1439618dcda", "fusion_lat": 0.0, "type": "electric_scooter", "lat": 38.907391833333335, "is_reserved": 0, "is_disabled": 0, "fusion_lon": 0.0, "bike_id": "a959b7ca0d36bad11009a1439618dcda", "lon": -77.02691383333334, "rental_uris": {"ios": "https://dc.lft.to/lastmile_qr_scan", "android": "https://dc.lft.to/lastmile_qr_scan"}}, {"name": "3bfbdb89297621e6d4cadfdb89e54066", "fusion_lat": 0.0, "type": "electric_scooter", "lat": 38.919450499999996, "is_reserved": 0, "is_disabled": 0, "fusion_lon": 0.0, "bike_id": "3bfbdb89297621e6d4cadfdb89e54066", "lon": -77.02381383333334, "rental_uris": {"ios": "https://dc.lft.to/lastmile_qr_scan", "android": "https://dc.lft.to/lastmile_qr_scan"}}, {"name": "cb0e818655cb1a45fc3f1627524937da", "fusion_lat": 0.0, "type": "electric_scooter", "lat": 38.89985383333333, "is_reserved": 0, "is_disabled": 0, "fusion_lon": 0.0, "bike_id": "cb0e818655cb1a45fc3f1627524937da", "lon": -77.01932166666667, "rental_uris": {"ios": "https://dc.lft.to/lastmile_qr_scan", "android": "https://dc.lft.to/lastmile_qr_scan"}}, {"name": "72cb79d8d04c7d3799202c66212f355c", "fusion_lat": 0.0, "type": "electric_scooter", "lat": 38.897869666666665, "is_reserved": 0, "is_disabled": 0, "fusion_lon": 0.0, "bike_id": "72cb79d8d04c7d3799202c66212f355c", "lon": -77.03164416666667, "rental_uris": {"ios": "https://dc.lft.to/lastmile_qr_scan", "android": "https://dc.lft.to/lastmile_qr_scan"}}, {"name": "a817142eb54816effa345192cc5eeeab", "fusion_lat": 0.0, "type": "electric_scooter", "lat": 38.9195995, "is_reserved": 0, "is_disabled": 0, "fusion_lon": 0.0, "bike_id": "a817142eb54816effa345192cc5eeeab", "lon": -77.01478016666667, "rental_uris": {"ios": "https://dc.lft.to/lastmile_qr_scan", "android": "https://dc.lft.to/lastmile_qr_scan"}}, {"name": "55e0e70ed74600aeddca9b7080af4786", "fusion_lat": 0.0, "type": "electric_scooter", "lat": 38.9027075, "is_reserved": 0, "is_disabled": 0, "fusion_lon": 0.0, "bike_id": "55e0e70ed74600aeddca9b7080af4786", "lon": -77.03667016666667, "rental_uris": {"ios": "https://dc.lft.to/lastmile_qr_scan", "android": "https://dc.lft.to/lastmile_qr_scan"}}, {"name": "cfee2913e3dba42e8d9492d2220a68d6", "fusion_lat": 0.0, "type": "electric_scooter", "lat": 38.88363316666667, "is_reserved": 0, "is_disabled": 0, "fusion_lon": 0.0, "bike_id": "cfee2913e3dba42e8d9492d2220a68d6", "lon": -77.031717, "rental_uris": {"ios": "https://dc.lft.to/lastmile_qr_scan", "android": "https://dc.lft.to/lastmile_qr_scan"}}, {"name": "26a9b57513d1707901c3e27e404a18c1", "fusion_lat": 0.0, "type": "electric_scooter", "lat": 38.90976366666666, "is_reserved": 0, "is_disabled": 0, "fusion_lon": 0.0, "bike_id": "26a9b57513d1707901c3e27e404a18c1", "lon": -77.046153, "rental_uris": {"ios": "https://dc.lft.to/lastmile_qr_scan", "android": "https://dc.lft.to/lastmile_qr_scan"}}, {"name": "63bf1de11170e71cd6a4387f9d3abb67", "fusion_lat": 0.0, "type": "electric_scooter", "lat": 38.89975416666667, "is_reserved": 0, "is_disabled": 0, "fusion_lon": 0.0, "bike_id": "63bf1de11170e71cd6a4387f9d3abb67", "lon": -77.01599683333333, "rental_uris": {"ios": "https://dc.lft.to/lastmile_qr_scan", "android": "https://dc.lft.to/lastmile_qr_scan"}}, {"name": "6d299fb721d7dd7d1f2bf4df5b21c87e", "fusion_lat": 0.0, "type": "electric_scooter", "lat": 38.930208, "is_reserved": 0, "is_disabled": 0, "fusion_lon": 0.0, "bike_id": "6d299fb721d7dd7d1f2bf4df5b21c87e", "lon": -77.0380145, "rental_uris": {"ios": "https://dc.lft.to/lastmile_qr_scan", "android": "https://dc.lft.to/lastmile_qr_scan"}}, {"name": "05848565c3e21f5ee414bf380accca3a", "fusion_lat": 0.0, "type": "electric_bike", "lat": 38.881198499999996, "is_reserved": 0, "is_disabled": 0, "fusion_lon": 0.0, "bike_id": "05848565c3e21f5ee414bf380accca3a", "lon": -77.01667883333333, "rental_uris": {"ios": "https://dc.lft.to/lastmile_qr_scan", "android": "https://dc.lft.to/lastmile_qr_scan"}}, {"name": "ae5de7c71255bf4559b548ef219a716e", "fusion_lat": 0.0, "type": "electric_bike", "lat": 38.89350816666666, "is_reserved": 0, "is_disabled": 0, "fusion_lon": 0.0, "bike_id": "ae5de7c71255bf4559b548ef219a716e", "lon": -77.187429, "rental_uris": {"ios": "https://dc.lft.to/lastmile_qr_scan", "android": "https://dc.lft.to/lastmile_qr_scan"}}, {"name": "b90532378846220f102a0236091e32bb", "fusion_lat": 0.0, "type": "electric_bike", "lat": 38.966245, "is_reserved": 0, "is_disabled": 0, "fusion_lon": 0.0, "bike_id": "b90532378846220f102a0236091e32bb", "lon": -76.9766805, "rental_uris": {"ios": "https://dc.lft.to/lastmile_qr_scan", "android": "https://dc.lft.to/lastmile_qr_scan"}}, {"name": "422da8b0162fa7e5d69f8103b756cee4", "fusion_lat": 0.0, "type": "electric_scooter", "lat": 38.912561, "is_reserved": 0, "is_disabled": 0, "fusion_lon": 0.0, "bike_id": "422da8b0162fa7e5d69f8103b756cee4", "lon": -77.00955633333334, "rental_uris": {"ios": "https://dc.lft.to/lastmile_qr_scan", "android": "https://dc.lft.to/lastmile_qr_scan"}}, {"name": "659effa29c3372c1e17e2277c4098724", "fusion_lat": 0.0, "type": "electric_scooter", "lat": 38.93453983333333, "is_reserved": 0, "is_disabled": 0, "fusion_lon": 0.0, "bike_id": "659effa29c3372c1e17e2277c4098724", "lon": -77.03099883333333, "rental_uris": {"ios": "https://dc.lft.to/lastmile_qr_scan", "android": "https://dc.lft.to/lastmile_qr_scan"}}, {"name": "01e64473b01a71c24aa32ba62567a805", "fusion_lat": 0.0, "type": "electric_scooter", "lat": 38.9074335, "is_reserved": 0, "is_disabled": 0, "fusion_lon": 0.0, "bike_id": "01e64473b01a71c24aa32ba62567a805", "lon": -77.03204283333334, "rental_uris": {"ios": "https://dc.lft.to/lastmile_qr_scan", "android": "https://dc.lft.to/lastmile_qr_scan"}}, {"name": "695d655441496648a581a4bc69065b6b", "fusion_lat": 0.0, "type": "electric_scooter", "lat": 38.9193475, "is_reserved": 0, "is_disabled": 0, "fusion_lon": 0.0, "bike_id": "695d655441496648a581a4bc69065b6b", "lon": -77.04541866666666, "rental_uris": {"ios": "https://dc.lft.to/lastmile_qr_scan", "android": "https://dc.lft.to/lastmile_qr_scan"}}, {"name": "d4aa713760da968a85e0bd604a54b09a", "fusion_lat": 0.0, "type": "electric_scooter", "lat": 38.920754, "is_reserved": 0, "is_disabled": 0, "fusion_lon": 0.0, "bike_id": "d4aa713760da968a85e0bd604a54b09a", "lon": -77.0440065, "rental_uris": {"ios": "https://dc.lft.to/lastmile_qr_scan", "android": "https://dc.lft.to/lastmile_qr_scan"}}, {"name": "c73a857def7184a1ba4abe3ee81864e3", "fusion_lat": 0.0, "type": "electric_scooter", "lat": 38.86073666666667, "is_reserved": 0, "is_disabled": 0, "fusion_lon": 0.0, "bike_id": "c73a857def7184a1ba4abe3ee81864e3", "lon": -76.9674855, "rental_uris": {"ios": "https://dc.lft.to/lastmile_qr_scan", "android": "https://dc.lft.to/lastmile_qr_scan"}}, {"name": "127d0f429994d3c1c38ad20bcbe8b216", "fusion_lat": 0.0, "type": "electric_scooter", "lat": 38.906694, "is_reserved": 0, "is_disabled": 0, "fusion_lon": 0.0, "bike_id": "127d0f429994d3c1c38ad20bcbe8b216", "lon": -77.02708616666666, "rental_uris": {"ios": "https://dc.lft.to/lastmile_qr_scan", "android": "https://dc.lft.to/lastmile_qr_scan"}}, {"name": "8dd6cb82a58faecc2dc6f42006536438", "fusion_lat": 0.0, "type": "electric_scooter", "lat": 38.933632833333334, "is_reserved": 0, "is_disabled": 0, "fusion_lon": 0.0, "bike_id": "8dd6cb82a58faecc2dc6f42006536438", "lon": -77.03447633333333, "rental_uris": {"ios": "https://dc.lft.to/lastmile_qr_scan", "android": "https://dc.lft.to/lastmile_qr_scan"}}, {"name": "4fa140be58d4e213916f31e401dc768b", "fusion_lat": 0.0, "type": "electric_scooter", "lat": 38.914036833333334, "is_reserved": 0, "is_disabled": 0, "fusion_lon": 0.0, "bike_id": "4fa140be58d4e213916f31e401dc768b", "lon": -77.01220066666667, "rental_uris": {"ios": "https://dc.lft.to/lastmile_qr_scan", "android": "https://dc.lft.to/lastmile_qr_scan"}}, {"name": "ead069e0dcbd8c05da14557d9f4143b4", "fusion_lat": 0.0, "type": "electric_bike", "lat": 38.94076966666667, "is_reserved": 0, "is_disabled": 0, "fusion_lon": 0.0, "bike_id": "ead069e0dcbd8c05da14557d9f4143b4", "lon": -77.03818783333334, "rental_uris": {"ios": "https://dc.lft.to/lastmile_qr_scan", "android": "https://dc.lft.to/lastmile_qr_scan"}}, {"name": "4e93c8a87307cf47623f94c1c452d9b8", "fusion_lat": 0.0, "type": "electric_scooter", "lat": 38.91693083333333, "is_reserved": 0, "is_disabled": 0, "fusion_lon": 0.0, "bike_id": "4e93c8a87307cf47623f94c1c452d9b8", "lon": -77.04335883333333, "rental_uris": {"ios": "https://dc.lft.to/lastmile_qr_scan", "android": "https://dc.lft.to/lastmile_qr_scan"}}, {"name": "996ccbc0f4af0e812feba9bab6df77a5", "fusion_lat": 0.0, "type": "electric_scooter", "lat": 38.8860265, "is_reserved": 0, "is_disabled": 0, "fusion_lon": 0.0, "bike_id": "996ccbc0f4af0e812feba9bab6df77a5", "lon": -77.021939, "rental_uris": {"ios": "https://dc.lft.to/lastmile_qr_scan", "android": "https://dc.lft.to/lastmile_qr_scan"}}, {"name": "bb770995b6266e7611af60915ca2c894", "fusion_lat": 0.0, "type": "electric_scooter", "lat": 38.90125183333333, "is_reserved": 0, "is_disabled": 0, "fusion_lon": 0.0, "bike_id": "bb770995b6266e7611af60915ca2c894", "lon": -77.05007366666666, "rental_uris": {"ios": "https://dc.lft.to/lastmile_qr_scan", "android": "https://dc.lft.to/lastmile_qr_scan"}}, {"name": "67ddee168316d1ca37cd72fead266503", "fusion_lat": 0.0, "type": "electric_scooter", "lat": 38.934775333333334, "is_reserved": 0, "is_disabled": 0, "fusion_lon": 0.0, "bike_id": "67ddee168316d1ca37cd72fead266503", "lon": -77.07272216666667, "rental_uris": {"ios": "https://dc.lft.to/lastmile_qr_scan", "android": "https://dc.lft.to/lastmile_qr_scan"}}, {"name": "6ba1b65404718db0923eb1e9b87ae6d0", "fusion_lat": 0.0, "type": "electric_scooter", "lat": 38.899988, "is_reserved": 0, "is_disabled": 0, "fusion_lon": 0.0, "bike_id": "6ba1b65404718db0923eb1e9b87ae6d0", "lon": -77.02946, "rental_uris": {"ios": "https://dc.lft.to/lastmile_qr_scan", "android": "https://dc.lft.to/lastmile_qr_scan"}}, {"name": "7a2acdb52b95d9761fc8d69d48e3d84d", "fusion_lat": 0.0, "type": "electric_scooter", "lat": 38.904359166666666, "is_reserved": 0, "is_disabled": 0, "fusion_lon": 0.0, "bike_id": "7a2acdb52b95d9761fc8d69d48e3d84d", "lon": -77.05331016666666, "rental_uris": {"ios": "https://dc.lft.to/lastmile_qr_scan", "android": "https://dc.lft.to/lastmile_qr_scan"}}, {"name": "02474cd3413ef760b8362d20b79e0993", "fusion_lat": 0.0, "type": "electric_scooter", "lat": 38.89782533333333, "is_reserved": 0, "is_disabled": 0, "fusion_lon": 0.0, "bike_id": "02474cd3413ef760b8362d20b79e0993", "lon": -77.0257915, "rental_uris": {"ios": "https://dc.lft.to/lastmile_qr_scan", "android": "https://dc.lft.to/lastmile_qr_scan"}}, {"name": "80074c5728248d3bb073c546af288a07", "fusion_lat": 0.0, "type": "electric_scooter", "lat": 38.912578333333336, "is_reserved": 0, "is_disabled": 0, "fusion_lon": 0.0, "bike_id": "80074c5728248d3bb073c546af288a07", "lon": -77.03864066666667, "rental_uris": {"ios": "https://dc.lft.to/lastmile_qr_scan", "android": "https://dc.lft.to/lastmile_qr_scan"}}, {"name": "23c40eeb3f3aee12fe01e453a0cd4bea", "fusion_lat": 0.0, "type": "electric_scooter", "lat": 38.9310495, "is_reserved": 0, "is_disabled": 0, "fusion_lon": 0.0, "bike_id": "23c40eeb3f3aee12fe01e453a0cd4bea", "lon": -77.0351415, "rental_uris": {"ios": "https://dc.lft.to/lastmile_qr_scan", "android": "https://dc.lft.to/lastmile_qr_scan"}}, {"name": "48a7477f9671ecf6488d278300404cc1", "fusion_lat": 0.0, "type": "electric_scooter", "lat": 38.913422, "is_reserved": 0, "is_disabled": 0, "fusion_lon": 0.0, "bike_id": "48a7477f9671ecf6488d278300404cc1", "lon": -77.04226116666666, "rental_uris": {"ios": "https://dc.lft.to/lastmile_qr_scan", "android": "https://dc.lft.to/lastmile_qr_scan"}}, {"name": "181f7b27580c68f87ddf30e38f493559", "fusion_lat": 0.0, "type": "electric_scooter", "lat": 38.8850455, "is_reserved": 0, "is_disabled": 0, "fusion_lon": 0.0, "bike_id": "181f7b27580c68f87ddf30e38f493559", "lon": -77.00570783333333, "rental_uris": {"ios": "https://dc.lft.to/lastmile_qr_scan", "android": "https://dc.lft.to/lastmile_qr_scan"}}, {"name": "8e59492aa6770e408b0a915740fed6a9", "fusion_lat": 0.0, "type": "electric_scooter", "lat": 38.91124033333333, "is_reserved": 0, "is_disabled": 0, "fusion_lon": 0.0, "bike_id": "8e59492aa6770e408b0a915740fed6a9", "lon": -77.047736, "rental_uris": {"ios": "https://dc.lft.to/lastmile_qr_scan", "android": "https://dc.lft.to/lastmile_qr_scan"}}, {"name": "da229e428fecf7ee876eec0d3ef2f7de", "fusion_lat": 0.0, "type": "electric_scooter", "lat": 38.895535333333335, "is_reserved": 0, "is_disabled": 0, "fusion_lon": 0.0, "bike_id": "da229e428fecf7ee876eec0d3ef2f7de", "lon": -76.94873933333334, "rental_uris": {"ios": "https://dc.lft.to/lastmile_qr_scan", "android": "https://dc.lft.to/lastmile_qr_scan"}}, {"name": "2d09a1aefa299df4a79d4c5eef69a958", "fusion_lat": 0.0, "type": "electric_scooter", "lat": 38.9270765, "is_reserved": 0, "is_disabled": 0, "fusion_lon": 0.0, "bike_id": "2d09a1aefa299df4a79d4c5eef69a958", "lon": -77.0373125, "rental_uris": {"ios": "https://dc.lft.to/lastmile_qr_scan", "android": "https://dc.lft.to/lastmile_qr_scan"}}, {"name": "5632dc23274324d3136670e63bddcae3", "fusion_lat": 0.0, "type": "electric_scooter", "lat": 38.911903333333335, "is_reserved": 0, "is_disabled": 0, "fusion_lon": 0.0, "bike_id": "5632dc23274324d3136670e63bddcae3", "lon": -77.03250733333333, "rental_uris": {"ios": "https://dc.lft.to/lastmile_qr_scan", "android": "https://dc.lft.to/lastmile_qr_scan"}}, {"name": "d7770756c10a03b4916c78ffed5832c3", "fusion_lat": 0.0, "type": "electric_scooter", "lat": 38.902440166666665, "is_reserved": 0, "is_disabled": 0, "fusion_lon": 0.0, "bike_id": "d7770756c10a03b4916c78ffed5832c3", "lon": -77.00201916666667, "rental_uris": {"ios": "https://dc.lft.to/lastmile_qr_scan", "android": "https://dc.lft.to/lastmile_qr_scan"}}, {"name": "52fc92d69056963e0c3a697d98a01c02", "fusion_lat": 0.0, "type": "electric_scooter", "lat": 38.899721, "is_reserved": 0, "is_disabled": 0, "fusion_lon": 0.0, "bike_id": "52fc92d69056963e0c3a697d98a01c02", "lon": -77.021697, "rental_uris": {"ios": "https://dc.lft.to/lastmile_qr_scan", "android": "https://dc.lft.to/lastmile_qr_scan"}}, {"name": "92f26261d8c36984b56668c9da324d89", "fusion_lat": 0.0, "type": "electric_scooter", "lat": 38.9359835, "is_reserved": 0, "is_disabled": 0, "fusion_lon": 0.0, "bike_id": "92f26261d8c36984b56668c9da324d89", "lon": -77.05591616666666, "rental_uris": {"ios": "https://dc.lft.to/lastmile_qr_scan", "android": "https://dc.lft.to/lastmile_qr_scan"}}, {"name": "80258ddca1b599e7d538f857e87bd31e", "fusion_lat": 0.0, "type": "electric_scooter", "lat": 38.90862533333333, "is_reserved": 0, "is_disabled": 0, "fusion_lon": 0.0, "bike_id": "80258ddca1b599e7d538f857e87bd31e", "lon": -77.08598266666667, "rental_uris": {"ios": "https://dc.lft.to/lastmile_qr_scan", "android": "https://dc.lft.to/lastmile_qr_scan"}}, {"name": "b76f752ac9d32b0df5a7d6ca69a75f5a", "fusion_lat": 0.0, "type": "electric_scooter", "lat": 38.93888283333333, "is_reserved": 0, "is_disabled": 0, "fusion_lon": 0.0, "bike_id": "b76f752ac9d32b0df5a7d6ca69a75f5a", "lon": -77.02467033333333, "rental_uris": {"ios": "https://dc.lft.to/lastmile_qr_scan", "android": "https://dc.lft.to/lastmile_qr_scan"}}, {"name": "258996e5df72ea81dace386bd253571a", "fusion_lat": 0.0, "type": "electric_scooter", "lat": 38.9053605, "is_reserved": 0, "is_disabled": 0, "fusion_lon": 0.0, "bike_id": "258996e5df72ea81dace386bd253571a", "lon": -77.02216233333333, "rental_uris": {"ios": "https://dc.lft.to/lastmile_qr_scan", "android": "https://dc.lft.to/lastmile_qr_scan"}}, {"name": "24d8c856bbd2cc46823d5edac2bf8f4f", "fusion_lat": 0.0, "type": "electric_scooter", "lat": 38.924649, "is_reserved": 0, "is_disabled": 0, "fusion_lon": 0.0, "bike_id": "24d8c856bbd2cc46823d5edac2bf8f4f", "lon": -77.05231416666666, "rental_uris": {"ios": "https://dc.lft.to/lastmile_qr_scan", "android": "https://dc.lft.to/lastmile_qr_scan"}}, {"name": "b1e611b799b79ad096000327ccedef8a", "fusion_lat": 0.0, "type": "electric_bike", "lat": 38.856186666666666, "is_reserved": 0, "is_disabled": 0, "fusion_lon": 0.0, "bike_id": "b1e611b799b79ad096000327ccedef8a", "lon": -77.085429, "rental_uris": {"ios": "https://dc.lft.to/lastmile_qr_scan", "android": "https://dc.lft.to/lastmile_qr_scan"}}, {"name": "11e0e3a2f2c658f4abc0d9457cd62bb4", "fusion_lat": 0.0, "type": "electric_scooter", "lat": 38.90855766666667, "is_reserved": 0, "is_disabled": 0, "fusion_lon": 0.0, "bike_id": "11e0e3a2f2c658f4abc0d9457cd62bb4", "lon": -76.99798816666667, "rental_uris": {"ios": "https://dc.lft.to/lastmile_qr_scan", "android": "https://dc.lft.to/lastmile_qr_scan"}}, {"name": "1a4eb7e40a252d546c1abf218c4d51b0", "fusion_lat": 0.0, "type": "electric_scooter", "lat": 38.8665845, "is_reserved": 0, "is_disabled": 0, "fusion_lon": 0.0, "bike_id": "1a4eb7e40a252d546c1abf218c4d51b0", "lon": -76.98885516666667, "rental_uris": {"ios": "https://dc.lft.to/lastmile_qr_scan", "android": "https://dc.lft.to/lastmile_qr_scan"}}, {"name": "c3f153bee8efdeac1e7c31ad749959c9", "fusion_lat": 0.0, "type": "electric_scooter", "lat": 38.90391233333333, "is_reserved": 0, "is_disabled": 0, "fusion_lon": 0.0, "bike_id": "c3f153bee8efdeac1e7c31ad749959c9", "lon": -77.00582466666667, "rental_uris": {"ios": "https://dc.lft.to/lastmile_qr_scan", "android": "https://dc.lft.to/lastmile_qr_scan"}}, {"name": "9ddf09f5212c00a271947e74d4b80576", "fusion_lat": 0.0, "type": "electric_scooter", "lat": 38.89239766666667, "is_reserved": 0, "is_disabled": 0, "fusion_lon": 0.0, "bike_id": "9ddf09f5212c00a271947e74d4b80576", "lon": -77.03193083333333, "rental_uris": {"ios": "https://dc.lft.to/lastmile_qr_scan", "android": "https://dc.lft.to/lastmile_qr_scan"}}, {"name": "3ccaf4e674f31fbcf1d93952f94e5dff", "fusion_lat": 0.0, "type": "electric_scooter", "lat": 38.92592533333333, "is_reserved": 0, "is_disabled": 0, "fusion_lon": 0.0, "bike_id": "3ccaf4e674f31fbcf1d93952f94e5dff", "lon": -77.0260215, "rental_uris": {"ios": "https://dc.lft.to/lastmile_qr_scan", "android": "https://dc.lft.to/lastmile_qr_scan"}}, {"name": "d513deabd9b0b377009c16da2bf1e442", "fusion_lat": 0.0, "type": "electric_scooter", "lat": 38.9047795, "is_reserved": 0, "is_disabled": 0, "fusion_lon": 0.0, "bike_id": "d513deabd9b0b377009c16da2bf1e442", "lon": -76.98885116666666, "rental_uris": {"ios": "https://dc.lft.to/lastmile_qr_scan", "android": "https://dc.lft.to/lastmile_qr_scan"}}, {"name": "a407f70571cc5fd915c4845f3a6a37de", "fusion_lat": 0.0, "type": "electric_scooter", "lat": 38.899228666666666, "is_reserved": 0, "is_disabled": 0, "fusion_lon": 0.0, "bike_id": "a407f70571cc5fd915c4845f3a6a37de", "lon": -77.01878716666667, "rental_uris": {"ios": "https://dc.lft.to/lastmile_qr_scan", "android": "https://dc.lft.to/lastmile_qr_scan"}}, {"name": "9b33d398db6b5d4f71739f540945a121", "fusion_lat": 0.0, "type": "electric_scooter", "lat": 38.931278, "is_reserved": 0, "is_disabled": 0, "fusion_lon": 0.0, "bike_id": "9b33d398db6b5d4f71739f540945a121", "lon": -77.03605316666666, "rental_uris": {"ios": "https://dc.lft.to/lastmile_qr_scan", "android": "https://dc.lft.to/lastmile_qr_scan"}}, {"name": "c937a28b49ae2b9f42b6815bc9d9f2d9", "fusion_lat": 0.0, "type": "electric_bike", "lat": 38.87761233333333, "is_reserved": 0, "is_disabled": 0, "fusion_lon": 0.0, "bike_id": "c937a28b49ae2b9f42b6815bc9d9f2d9", "lon": -77.00680166666666, "rental_uris": {"ios": "https://dc.lft.to/lastmile_qr_scan", "android": "https://dc.lft.to/lastmile_qr_scan"}}, {"name": "a45647fcf2603805921c6a469c98372c", "fusion_lat": 0.0, "type": "electric_scooter", "lat": 38.89710216666667, "is_reserved": 0, "is_disabled": 0, "fusion_lon": 0.0, "bike_id": "a45647fcf2603805921c6a469c98372c", "lon": -77.0084335, "rental_uris": {"ios": "https://dc.lft.to/lastmile_qr_scan", "android": "https://dc.lft.to/lastmile_qr_scan"}}, {"name": "dcb2f28b204412b7b184c437862c300a", "fusion_lat": 0.0, "type": "electric_scooter", "lat": 38.91258366666667, "is_reserved": 0, "is_disabled": 0, "fusion_lon": 0.0, "bike_id": "dcb2f28b204412b7b184c437862c300a", "lon": -77.03865666666667, "rental_uris": {"ios": "https://dc.lft.to/lastmile_qr_scan", "android": "https://dc.lft.to/lastmile_qr_scan"}}, {"name": "f6a05bacf77687859b10cd344a56f696", "fusion_lat": 0.0, "type": "electric_scooter", "lat": 38.9032755, "is_reserved": 0, "is_disabled": 0, "fusion_lon": 0.0, "bike_id": "f6a05bacf77687859b10cd344a56f696", "lon": -77.03661633333333, "rental_uris": {"ios": "https://dc.lft.to/lastmile_qr_scan", "android": "https://dc.lft.to/lastmile_qr_scan"}}, {"name": "a39150c3b164291b9fd8a34754bc306e", "fusion_lat": 0.0, "type": "electric_scooter", "lat": 38.875815, "is_reserved": 0, "is_disabled": 0, "fusion_lon": 0.0, "bike_id": "a39150c3b164291b9fd8a34754bc306e", "lon": -77.01062833333333, "rental_uris": {"ios": "https://dc.lft.to/lastmile_qr_scan", "android": "https://dc.lft.to/lastmile_qr_scan"}}, {"name": "b4c600f3e6712ab4660752f83faeb0ee", "fusion_lat": 0.0, "type": "electric_scooter", "lat": 38.90399933333333, "is_reserved": 0, "is_disabled": 0, "fusion_lon": 0.0, "bike_id": "b4c600f3e6712ab4660752f83faeb0ee", "lon": -77.024849, "rental_uris": {"ios": "https://dc.lft.to/lastmile_qr_scan", "android": "https://dc.lft.to/lastmile_qr_scan"}}, {"name": "292412e1b74856bde7a1aeb25e85c340", "fusion_lat": 0.0, "type": "electric_scooter", "lat": 38.936688333333336, "is_reserved": 0, "is_disabled": 0, "fusion_lon": 0.0, "bike_id": "292412e1b74856bde7a1aeb25e85c340", "lon": -77.036356, "rental_uris": {"ios": "https://dc.lft.to/lastmile_qr_scan", "android": "https://dc.lft.to/lastmile_qr_scan"}}, {"name": "fa4919f6b4d96f560312c518b6ac97d8", "fusion_lat": 0.0, "type": "electric_scooter", "lat": 38.91770566666667, "is_reserved": 0, "is_disabled": 0, "fusion_lon": 0.0, "bike_id": "fa4919f6b4d96f560312c518b6ac97d8", "lon": -77.096717, "rental_uris": {"ios": "https://dc.lft.to/lastmile_qr_scan", "android": "https://dc.lft.to/lastmile_qr_scan"}}, {"name": "a3eec46932469d3d2f0137b48ae2289c", "fusion_lat": 0.0, "type": "electric_scooter", "lat": 38.92260266666667, "is_reserved": 0, "is_disabled": 0, "fusion_lon": 0.0, "bike_id": "a3eec46932469d3d2f0137b48ae2289c", "lon": -77.073267, "rental_uris": {"ios": "https://dc.lft.to/lastmile_qr_scan", "android": "https://dc.lft.to/lastmile_qr_scan"}}, {"name": "e94eb11788f8c76db3a6bd5544a0171b", "fusion_lat": 0.0, "type": "electric_scooter", "lat": 38.92515383333333, "is_reserved": 0, "is_disabled": 0, "fusion_lon": 0.0, "bike_id": "e94eb11788f8c76db3a6bd5544a0171b", "lon": -77.001721, "rental_uris": {"ios": "https://dc.lft.to/lastmile_qr_scan", "android": "https://dc.lft.to/lastmile_qr_scan"}}, {"name": "0192bf9343d4d08ae63350ccd779fd0b", "fusion_lat": 0.0, "type": "electric_scooter", "lat": 38.896076, "is_reserved": 0, "is_disabled": 0, "fusion_lon": 0.0, "bike_id": "0192bf9343d4d08ae63350ccd779fd0b", "lon": -77.02670833333333, "rental_uris": {"ios": "https://dc.lft.to/lastmile_qr_scan", "android": "https://dc.lft.to/lastmile_qr_scan"}}, {"name": "34b17d2c90c3e1dd2b724016382d461e", "fusion_lat": 0.0, "type": "electric_scooter", "lat": 38.895091666666666, "is_reserved": 0, "is_disabled": 0, "fusion_lon": 0.0, "bike_id": "34b17d2c90c3e1dd2b724016382d461e", "lon": -77.01132633333333, "rental_uris": {"ios": "https://dc.lft.to/lastmile_qr_scan", "android": "https://dc.lft.to/lastmile_qr_scan"}}, {"name": "7b88cb93e3cb7ce134dae9ebf43be233", "fusion_lat": 0.0, "type": "electric_scooter", "lat": 38.91109466666666, "is_reserved": 0, "is_disabled": 0, "fusion_lon": 0.0, "bike_id": "7b88cb93e3cb7ce134dae9ebf43be233", "lon": -77.02462383333334, "rental_uris": {"ios": "https://dc.lft.to/lastmile_qr_scan", "android": "https://dc.lft.to/lastmile_qr_scan"}}, {"name": "1b7a8235735976dce23800caed3cc86d", "fusion_lat": 0.0, "type": "electric_scooter", "lat": 38.90693733333333, "is_reserved": 0, "is_disabled": 0, "fusion_lon": 0.0, "bike_id": "1b7a8235735976dce23800caed3cc86d", "lon": -77.04612566666667, "rental_uris": {"ios": "https://dc.lft.to/lastmile_qr_scan", "android": "https://dc.lft.to/lastmile_qr_scan"}}, {"name": "2ae8edac16a35d5b16f44d405b641df7", "fusion_lat": 0.0, "type": "electric_scooter", "lat": 38.895522166666666, "is_reserved": 0, "is_disabled": 0, "fusion_lon": 0.0, "bike_id": "2ae8edac16a35d5b16f44d405b641df7", "lon": -76.9487635, "rental_uris": {"ios": "https://dc.lft.to/lastmile_qr_scan", "android": "https://dc.lft.to/lastmile_qr_scan"}}, {"name": "423943f0e57deb7979e4d3f1ff9eee50", "fusion_lat": 0.0, "type": "electric_scooter", "lat": 38.928814333333335, "is_reserved": 0, "is_disabled": 0, "fusion_lon": 0.0, "bike_id": "423943f0e57deb7979e4d3f1ff9eee50", "lon": -77.033203, "rental_uris": {"ios": "https://dc.lft.to/lastmile_qr_scan", "android": "https://dc.lft.to/lastmile_qr_scan"}}, {"name": "91a070ffa0741336517e2ab945249fed", "fusion_lat": 0.0, "type": "electric_scooter", "lat": 38.896146, "is_reserved": 0, "is_disabled": 0, "fusion_lon": 0.0, "bike_id": "91a070ffa0741336517e2ab945249fed", "lon": -77.04463133333333, "rental_uris": {"ios": "https://dc.lft.to/lastmile_qr_scan", "android": "https://dc.lft.to/lastmile_qr_scan"}}, {"name": "763c74d1aac8d216923b9a27be3d125a", "fusion_lat": 0.0, "type": "electric_scooter", "lat": 38.86656883333333, "is_reserved": 0, "is_disabled": 0, "fusion_lon": 0.0, "bike_id": "763c74d1aac8d216923b9a27be3d125a", "lon": -76.98884783333334, "rental_uris": {"ios": "https://dc.lft.to/lastmile_qr_scan", "android": "https://dc.lft.to/lastmile_qr_scan"}}, {"name": "e4f6a007fedd0cc29b7a831c31cde0c3", "fusion_lat": 0.0, "type": "electric_scooter", "lat": 38.9169565, "is_reserved": 0, "is_disabled": 0, "fusion_lon": 0.0, "bike_id": "e4f6a007fedd0cc29b7a831c31cde0c3", "lon": -77.018763, "rental_uris": {"ios": "https://dc.lft.to/lastmile_qr_scan", "android": "https://dc.lft.to/lastmile_qr_scan"}}, {"name": "fbdc6f725eb1059a189d2e58834d4218", "fusion_lat": 0.0, "type": "electric_scooter", "lat": 38.91289883333334, "is_reserved": 0, "is_disabled": 0, "fusion_lon": 0.0, "bike_id": "fbdc6f725eb1059a189d2e58834d4218", "lon": -76.9373895, "rental_uris": {"ios": "https://dc.lft.to/lastmile_qr_scan", "android": "https://dc.lft.to/lastmile_qr_scan"}}, {"name": "e777e005b1d8e30663633b5fa8e795c6", "fusion_lat": 0.0, "type": "electric_scooter", "lat": 38.93950666666667, "is_reserved": 0, "is_disabled": 0, "fusion_lon": 0.0, "bike_id": "e777e005b1d8e30663633b5fa8e795c6", "lon": -77.07258433333334, "rental_uris": {"ios": "https://dc.lft.to/lastmile_qr_scan", "android": "https://dc.lft.to/lastmile_qr_scan"}}, {"name": "f117d42283cee55efce4b8a86f668d46", "fusion_lat": 0.0, "type": "electric_scooter", "lat": 38.93610116666667, "is_reserved": 0, "is_disabled": 0, "fusion_lon": 0.0, "bike_id": "f117d42283cee55efce4b8a86f668d46", "lon": -77.058627, "rental_uris": {"ios": "https://dc.lft.to/lastmile_qr_scan", "android": "https://dc.lft.to/lastmile_qr_scan"}},