{"data": {"bikes": [{"name": "b628918d507a63bbad5e4061888f66d4", "is_reserved": 0, "type": "electric_bike", "rental_uris": {"ios": "https://dc.lft.to/lastmile_qr_scan", "android": "https://dc.lft.to/lastmile_qr_scan"}, "lat": 38.86170633333333, "lon": -77.1314615, "bike_id": "b628918d507a63bbad5e4061888f66d4", "fusion_lat": 0.0, "is_disabled": 0, "fusion_lon": 0.0}, {"name": "907345763bca2c1ca69d02aa44e6e1b9", "is_reserved": 0, "type": "electric_scooter", "rental_uris": {"ios": "https://dc.lft.to/lastmile_qr_scan", "android": "https://dc.lft.to/lastmile_qr_scan"}, "lat": 38.90323766666667, "lon": -77.05176533333334, "bike_id": "907345763bca2c1ca69d02aa44e6e1b9", "fusion_lat": 0.0, "is_disabled": 0, "fusion_lon": 0.0}, {"name": "bd1b1829bc2309bdf73427bc925766e9", "is_reserved": 0, "type": "electric_scooter", "rental_uris": {"ios": "https://dc.lft.to/lastmile_qr_scan", "android": "https://dc.lft.to/lastmile_qr_scan"}, "lat": 38.89473433333333, "lon": -77.03119866666667, "bike_id": "bd1b1829bc2309bdf73427bc925766e9", "fusion_lat": 0.0, "is_disabled": 0, "fusion_lon": 0.0}, {"name": "b4a14069f34b327e0ca82d11e9fb6199", "is_reserved": 0, "type": "electric_scooter", "rental_uris": {"ios": "https://dc.lft.to/lastmile_qr_scan", "android": "https://dc.lft.to/lastmile_qr_scan"}, "lat": 38.90379766666667, "lon": -77.0513235, "bike_id": "b4a14069f34b327e0ca82d11e9fb6199", "fusion_lat": 0.0, "is_disabled": 0, "fusion_lon": 0.0}, {"name": "146c06cd062c03d19aa34373120484c7", "is_reserved": 0, "type": "electric_scooter", "rental_uris": {"ios": "https://dc.lft.to/lastmile_qr_scan", "android": "https://dc.lft.to/lastmile_qr_scan"}, "lat": 38.92553233333334, "lon": -77.0330605, "bike_id": "146c06cd062c03d19aa34373120484c7", "fusion_lat": 0.0, "is_disabled": 0, "fusion_lon": 0.0}, {"name": "c0b9d728c6fd1a04f42b37c3f3b4083a", "is_reserved": 0, "type": "electric_scooter", "rental_uris": {"ios": "https://dc.lft.to/lastmile_qr_scan", "android": "https://dc.lft.to/lastmile_qr_scan"}, "lat": 38.9366095, "lon": -77.05504833333333, "bike_id": "c0b9d728c6fd1a04f42b37c3f3b4083a", "fusion_lat": 0.0, "is_disabled": 0, "fusion_lon": 0.0}, {"name": "f22989f12b2cbe8f66703c320849dbcf", "is_reserved": 0, "type": "electric_scooter", "rental_uris": {"ios": "https://dc.lft.to/lastmile_qr_scan", "android": "https://dc.lft.to/lastmile_qr_scan"}, "lat": 38.91557683333333, "lon": -77.0317205, "bike_id": "f22989f12b2cbe8f66703c320849dbcf", "fusion_lat": 0.0, "is_disabled": 0, "fusion_lon": 0.0}, {"name": "113576a006a109fd7fd30b2a3211393b", "is_reserved": 0, "type": "electric_bike", "rental_uris": {"ios": "https://dc.lft.to/lastmile_qr_scan", "android": "https://dc.lft.to/lastmile_qr_scan"}, "lat": 38.917917, "lon": -76.97186333333333, "bike_id": "113576a006a109fd7fd30b2a3211393b", "fusion_lat": 0.0, "is_disabled": 0, "fusion_lon": 0.0}, {"name": "23ae6f565eccc6cdac741a0e20c2b91e", "is_reserved": 0, "type": "electric_scooter", "rental_uris": {"ios": "https://dc.lft.to/lastmile_qr_scan", "android": "https://dc.lft.to/lastmile_qr_scan"}, "lat": 38.924575833333336, "lon": -76.9991415, "bike_id": "23ae6f565eccc6cdac741a0e20c2b91e", "fusion_lat": 0.0, "is_disabled": 0, "fusion_lon": 0.0}, {"name": "04340e3d748358bacdd65ca45a6456c8", "is_reserved": 0, "type": "electric_scooter", "rental_uris": {"ios": "https://dc.lft.to/lastmile_qr_scan", "android": "https://dc.lft.to/lastmile_qr_scan"}, "lat": 38.90387316666666, "lon": -77.05147116666667, "bike_id": "04340e3d748358bacdd65ca45a6456c8", "fusion_lat": 0.0, "is_disabled": 0, "fusion_lon": 0.0}, {"name": "2b55de22b6a3165a71bf4db63da166da", "is_reserved": 0, "type": "electric_scooter", "rental_uris": {"ios": "https://dc.lft.to/lastmile_qr_scan", "android": "https://dc.lft.to/lastmile_qr_scan"}, "lat": 38.929111, "lon": -77.07410033333333, "bike_id": "2b55de22b6a3165a71bf4db63da166da", "fusion_lat": 0.0, "is_disabled": 0, "fusion_lon": 0.0}, {"name": "2bccd3c67728894c787590a1fe1de5a4", "is_reserved": 0, "type": "electric_scooter", "rental_uris": {"ios": "https://dc.lft.to/lastmile_qr_scan", "android": "https://dc.lft.to/lastmile_qr_scan"}, "lat": 38.88109716666666, "lon": -77.04296916666667, "bike_id": "2bccd3c67728894c787590a1fe1de5a4", "fusion_lat": 0.0, "is_disabled": 0, "fusion_lon": 0.0}, {"name": "26eccc270f5deee67766ec7cb742f54a", "is_reserved": 0, "type": "electric_scooter", "rental_uris": {"ios": "https://dc.lft.to/lastmile_qr_scan", "android": "https://dc.lft.to/lastmile_qr_scan"}, "lat": 38.89915933333333, "lon": -76.93373183333334, "bike_id": "26eccc270f5deee67766ec7cb742f54a", "fusion_lat": 0.0, "is_disabled": 0, "fusion_lon": 0.0}, {"name": "37816517a2464ccdf773068acd13eaec", "is_reserved": 0, "type": "electric_scooter", "rental_uris": {"ios": "https://dc.lft.to/lastmile_qr_scan", "android": "https://dc.lft.to/lastmile_qr_scan"}, "lat": 38.9018565, "lon": -77.04332833333333, "bike_id": "37816517a2464ccdf773068acd13eaec", "fusion_lat": 0.0, "is_disabled": 0, "fusion_lon": 0.0}, {"name": "175883f2d8362f89fe0b6c00673e4dc4", "is_reserved": 0, "type": "electric_scooter", "rental_uris": {"ios": "https://dc.lft.to/lastmile_qr_scan", "android": "https://dc.lft.to/lastmile_qr_scan"}, "lat": 38.89632433333333, "lon": -77.02140183333333, "bike_id": "175883f2d8362f89fe0b6c00673e4dc4", "fusion_lat": 0.0, "is_disabled": 0, "fusion_lon": 0.0}, {"name": "ab8cce13fa534271decb5b1744a3bb70", "is_reserved": 0, "type": "electric_scooter", "rental_uris": {"ios": "https://dc.lft.to/lastmile_qr_scan", "android": "https://dc.lft.to/lastmile_qr_scan"}, "lat": 38.92307433333333, "lon": -77.04280116666666, "bike_id": "ab8cce13fa534271decb5b1744a3bb70", "fusion_lat": 0.0, "is_disabled": 0, "fusion_lon": 0.0}, {"name": "b0d2285fda45a881a3bea99c4aee180b", "is_reserved": 0, "type": "electric_scooter", "rental_uris": {"ios": "https://dc.lft.to/lastmile_qr_scan", "android": "https://dc.lft.to/lastmile_qr_scan"}, "lat": 38.89628316666666, "lon": -77.02215283333334, "bike_id": "b0d2285fda45a881a3bea99c4aee180b", "fusion_lat": 0.0, "is_disabled": 0, "fusion_lon": 0.0}, {"name": "acec7dd19b397026e6bef88533d0dad9", "is_reserved": 0, "type": "electric_scooter", "rental_uris": {"ios": "https://dc.lft.to/lastmile_qr_scan", "android": "https://dc.lft.to/lastmile_qr_scan"}, "lat": 38.917695333333334, "lon": -77.04095666666667, "bike_id": "acec7dd19b397026e6bef88533d0dad9", "fusion_lat": 0.0, "is_disabled": 0, "fusion_lon": 0.0}, {"name": "0766cc795cd053646ee73b18f91b5e73", "is_reserved": 0, "type": "electric_scooter", "rental_uris": {"ios": "https://dc.lft.to/lastmile_qr_scan", "android": "https://dc.lft.to/lastmile_qr_scan"}, "lat": 38.88637833333333, "lon": -77.003133, "bike_id": "0766cc795cd053646ee73b18f91b5e73", "fusion_lat": 0.0, "is_disabled": 0, "fusion_lon": 0.0}, {"name": "30fdc8b6adcf6407d675905d65d78f39", "is_reserved": 0, "type": "electric_scooter", "rental_uris": {"ios": "https://dc.lft.to/lastmile_qr_scan", "android": "https://dc.lft.to/lastmile_qr_scan"}, "lat": 38.89526333333333, "lon": -77.04928333333334, "bike_id": "30fdc8b6adcf6407d675905d65d78f39", "fusion_lat": 0.0, "is_disabled": 0, "fusion_lon": 0.0}, {"name": "96fe72b252e559970399f08f1a33cc1b", "is_reserved": 0, "type": "electric_scooter", "rental_uris": {"ios": "https://dc.lft.to/lastmile_qr_scan", "android": "https://dc.lft.to/lastmile_qr_scan"}, "lat": 38.87189933333333, "lon": -77.011452, "bike_id": "96fe72b252e559970399f08f1a33cc1b", "fusion_lat": 0.0, "is_disabled": 0, "fusion_lon": 0.0}, {"name": "71ce51139fa76b25f6bedaf13a000d6f", "is_reserved": 0, "type": "electric_scooter", "rental_uris": {"ios": "https://dc.lft.to/lastmile_qr_scan", "android": "https://dc.lft.to/lastmile_qr_scan"}, "lat": 38.87480266666667, "lon": -77.00483033333333, "bike_id": "71ce51139fa76b25f6bedaf13a000d6f", "fusion_lat": 0.0, "is_disabled": 0, "fusion_lon": 0.0}, {"name": "251e790da96b140d4b91d0d3d8bbd811", "is_reserved": 0, "type": "electric_scooter", "rental_uris": {"ios": "https://dc.lft.to/lastmile_qr_scan", "android": "https://dc.lft.to/lastmile_qr_scan"}, "lat": 38.89226333333333, "lon": -77.04331266666667, "bike_id": "251e790da96b140d4b91d0d3d8bbd811", "fusion_lat": 0.0, "is_disabled": 0, "fusion_lon": 0.0}, {"name": "bfbac5df70ff3f6ad31acc3f59aed22e", "is_reserved": 0, "type": "electric_bike", "rental_uris": {"ios": "https://dc.lft.to/lastmile_qr_scan", "android": "https://dc.lft.to/lastmile_qr_scan"}, "lat": 38.9210885, "lon": -76.98098366666666, "bike_id": "bfbac5df70ff3f6ad31acc3f59aed22e", "fusion_lat": 0.0, "is_disabled": 0, "fusion_lon": 0.0}, {"name": "6677818d2b413a048b689147756a128b", "is_reserved": 0, "type": "electric_scooter", "rental_uris": {"ios": "https://dc.lft.to/lastmile_qr_scan", "android": "https://dc.lft.to/lastmile_qr_scan"}, "lat": 38.94628516666667, "lon": -77.03264466666667, "bike_id": "6677818d2b413a048b689147756a128b", "fusion_lat": 0.0, "is_disabled": 0, "fusion_lon": 0.0}, {"name": "8458e26764be77639937ec312673fed1", "is_reserved": 0, "type": "electric_scooter", "rental_uris": {"ios": "https://dc.lft.to/lastmile_qr_scan", "android": "https://dc.lft.to/lastmile_qr_scan"}, "lat": 38.916948833333336, "lon": -77.03696766666667, "bike_id": "8458e26764be77639937ec312673fed1", "fusion_lat": 0.0, "is_disabled": 0, "fusion_lon": 0.0}, {"name": "d405e87d1f93aa09846c74c4c19564e0", "is_reserved": 0, "type": "electric_scooter", "rental_uris": {"ios": "https://dc.lft.to/lastmile_qr_scan", "android": "https://dc.lft.to/lastmile_qr_scan"}, "lat": 38.88590516666667, "lon": -77.0176555, "bike_id": "d405e87d1f93aa09846c74c4c19564e0", "fusion_lat": 0.0, "is_disabled": 0, "fusion_lon": 0.0}, {"name": "7ffc8e3b6d0f90b5da17b80abaabf706", "is_reserved": 0, "type": "electric_scooter", "rental_uris": {"ios": "https://dc.lft.to/lastmile_qr_scan", "android": "https://dc.lft.to/lastmile_qr_scan"}, "lat": 38.9040875, "lon": -77.03102116666666, "bike_id": "7ffc8e3b6d0f90b5da17b80abaabf706", "fusion_lat": 0.0, "is_disabled": 0, "fusion_lon": 0.0}, {"name": "932e9d5f46be4db48e3b457f89e40c2b", "is_reserved": 0, "type": "electric_scooter", "rental_uris": {"ios": "https://dc.lft.to/lastmile_qr_scan", "android": "https://dc.lft.to/lastmile_qr_scan"}, "lat": 38.921578, "lon": -77.0347585, "bike_id": "932e9d5f46be4db48e3b457f89e40c2b", "fusion_lat": 0.0, "is_disabled": 0, "fusion_lon": 0.0}, {"name": "fa1e50648c66b7d7389b72e5cdc975e0", "is_reserved": 0, "type": "electric_scooter", "rental_uris": {"ios": "https://dc.lft.to/lastmile_qr_scan", "android": "https://dc.lft.to/lastmile_qr_scan"}, "lat": 38.90372133333334, "lon": -77.065953, "bike_id": "fa1e50648c66b7d7389b72e5cdc975e0", "fusion_lat": 0.0, "is_disabled": 0, "fusion_lon": 0.0}, {"name": "083f7f3ae1841931d84b72faa94548c1", "is_reserved": 0, "type": "electric_bike", "rental_uris": {"ios": "https://dc.lft.to/lastmile_qr_scan", "android": "https://dc.lft.to/lastmile_qr_scan"}, "lat": 38.96540066666667, "lon": -77.03427366666666, "bike_id": "083f7f3ae1841931d84b72faa94548c1", "fusion_lat": 0.0, "is_disabled": 0, "fusion_lon": 0.0}, {"name": "72561396646ca53ed86367fc0b0a8095", "is_reserved": 0, "type": "electric_scooter", "rental_uris": {"ios": "https://dc.lft.to/lastmile_qr_scan", "android": "https://dc.lft.to/lastmile_qr_scan"}, "lat": 38.948274, "lon": -76.99903633333334, "bike_id": "72561396646ca53ed86367fc0b0a8095", "fusion_lat": 0.0, "is_disabled": 0, "fusion_lon": 0.0}, {"name": "8ebe602b8529b80c819b0ccf9b2b23ef", "is_reserved": 0, "type": "electric_scooter", "rental_uris": {"ios": "https://dc.lft.to/lastmile_qr_scan", "android": "https://dc.lft.to/lastmile_qr_scan"}, "lat": 38.948075833333334, "lon": -77.07909783333334, "bike_id": "8ebe602b8529b80c819b0ccf9b2b23ef", "fusion_lat": 0.0, "is_disabled": 0, "fusion_lon": 0.0}, {"name": "efbb3056fc26292f19adceed85b47e23", "is_reserved": 0, "type": "electric_scooter", "rental_uris": {"ios": "https://dc.lft.to/lastmile_qr_scan", "android": "https://dc.lft.to/lastmile_qr_scan"}, "lat": 38.90368, "lon": -77.03432416666666, "bike_id": "efbb3056fc26292f19adceed85b47e23", "fusion_lat": 0.0, "is_disabled": 0, "fusion_lon": 0.0}, {"name": "3c1b7e4adcd526cd127796013822d24b", "is_reserved": 0, "type": "electric_scooter", "rental_uris": {"ios": "https://dc.lft.to/lastmile_qr_scan", "android": "https://dc.lft.to/lastmile_qr_scan"}, "lat": 38.9148985, "lon": -77.04157666666667, "bike_id": "3c1b7e4adcd526cd127796013822d24b", "fusion_lat": 0.0, "is_disabled": 0, "fusion_lon": 0.0}, {"name": "07b5742e27b71c2cdd6e4ea4bba2597b", "is_reserved": 0, "type": "electric_scooter", "rental_uris": {"ios": "https://dc.lft.to/lastmile_qr_scan", "android": "https://dc.lft.to/lastmile_qr_scan"}, "lat": 38.95253483333333, "lon": -77.00701633333334, "bike_id": "07b5742e27b71c2cdd6e4ea4bba2597b", "fusion_lat": 0.0, "is_disabled": 0, "fusion_lon": 0.0}, {"name": "8a2a22a62f8a8ca421da5b078ce4985b", "is_reserved": 0, "type": "electric_scooter", "rental_uris": {"ios": "https://dc.lft.to/lastmile_qr_scan", "android": "https://dc.lft.to/lastmile_qr_scan"}, "lat": 38.90143666666667, "lon": -77.03323716666667, "bike_id": "8a2a22a62f8a8ca421da5b078ce4985b", "fusion_lat": 0.0, "is_disabled": 0, "fusion_lon": 0.0}, {"name": "2c87d3b6ba2f48e92e2a9d8a14bae350", "is_reserved": 0, "type": "electric_scooter", "rental_uris": {"ios": "https://dc.lft.to/lastmile_qr_scan", "android": "https://dc.lft.to/lastmile_qr_scan"}, "lat": 38.915579666666666, "lon": -77.02173116666667, "bike_id": "2c87d3b6ba2f48e92e2a9d8a14bae350", "fusion_lat": 0.0, "is_disabled": 0, "fusion_lon": 0.0}, {"name": "dd152f62b07938fbd2a598df1b247df1", "is_reserved": 0, "type": "electric_scooter", "rental_uris": {"ios": "https://dc.lft.to/lastmile_qr_scan", "android": "https://dc.lft.to/lastmile_qr_scan"}, "lat": 38.927284, "lon": -77.03667833333333, "bike_id": "dd152f62b07938fbd2a598df1b247df1", "fusion_lat": 0.0, "is_disabled": 0, "fusion_lon": 0.0}, {"name": "14794386ad3d2fbc88058794f3177b49", "is_reserved": 0, "type": "electric_scooter", "rental_uris": {"ios": "https://dc.lft.to/lastmile_qr_scan", "android": "https://dc.lft.to/lastmile_qr_scan"}, "lat": 38.924643, "lon": -77.02709716666666, "bike_id": "14794386ad3d2fbc88058794f3177b49", "fusion_lat": 0.0, "is_disabled": 0, "fusion_lon": 0.0}, {"name": "eeb12169efff3662387041c109c7349d", "is_reserved": 0, "type": "electric_bike", "rental_uris": {"ios": "https://dc.lft.to/lastmile_qr_scan", "android": "https://dc.lft.to/lastmile_qr_scan"}, "lat": 38.9375625, "lon": -76.99037383333334, "bike_id": "eeb12169efff3662387041c109c7349d", "fusion_lat": 0.0, "is_disabled": 0, "fusion_lon": 0.0}, {"name": "993563264eb75ee61a285e95ada0eb51", "is_reserved": 0, "type": "electric_scooter", "rental_uris": {"ios": "https://dc.lft.to/lastmile_qr_scan", "android": "https://dc.lft.to/lastmile_qr_scan"}, "lat": 38.928270499999996, "lon": -77.01389066666667, "bike_id": "993563264eb75ee61a285e95ada0eb51", "fusion_lat": 0.0, "is_disabled": 0, "fusion_lon": 0.0}, {"name": "816f4a3ea3bad5765787ffbb02940bed", "is_reserved": 0, "type": "electric_scooter", "rental_uris": {"ios": "https://dc.lft.to/lastmile_qr_scan", "android": "https://dc.lft.to/lastmile_qr_scan"}, "lat": 38.892430833333336, "lon": -77.01510633333334, "bike_id": "816f4a3ea3bad5765787ffbb02940bed", "fusion_lat": 0.0, "is_disabled": 0, "fusion_lon": 0.0}, {"name": "b7dc4bd79ac70b142bf3ae71bc887280", "is_reserved": 0, "type": "electric_scooter", "rental_uris": {"ios": "https://dc.lft.to/lastmile_qr_scan", "android": "https://dc.lft.to/lastmile_qr_scan"}, "lat": 38.902354333333335, "lon": -77.00201166666666, "bike_id": "b7dc4bd79ac70b142bf3ae71bc887280", "fusion_lat": 0.0, "is_disabled": 0, "fusion_lon": 0.0}, {"name": "8c32fea37595223bbc45a46865658b0b", "is_reserved": 0, "type": "electric_scooter", "rental_uris": {"ios": "https://dc.lft.to/lastmile_qr_scan", "android": "https://dc.lft.to/lastmile_qr_scan"}, "lat": 38.928837333333334, "lon": -77.03352433333333, "bike_id": "8c32fea37595223bbc45a46865658b0b", "fusion_lat": 0.0, "is_disabled": 0, "fusion_lon": 0.0}, {"name": "a93c162c7108bb524445e689934ee681", "is_reserved": 0, "type": "electric_bike", "rental_uris": {"ios": "https://dc.lft.to/lastmile_qr_scan", "android": "https://dc.lft.to/lastmile_qr_scan"}, "lat": 38.952032833333334, "lon": -77.08135933333334, "bike_id": "a93c162c7108bb524445e689934ee681", "fusion_lat": 0.0, "is_disabled": 0, "fusion_lon": 0.0}, {"name": "f12440edddf03b8a3f54c634789a7ed9", "is_reserved": 0, "type": "electric_scooter", "rental_uris": {"ios": "https://dc.lft.to/lastmile_qr_scan", "android": "https://dc.lft.to/lastmile_qr_scan"}, "lat": 38.90719166666667, "lon": -77.05136283333333, "bike_id": "f12440edddf03b8a3f54c634789a7ed9", "fusion_lat": 0.0, "is_disabled": 0, "fusion_lon": 0.0}, {"name": "55ff50b53c9ad4820ba1e5177ccf4374", "is_reserved": 0, "type": "electric_bike", "rental_uris": {"ios": "https://dc.lft.to/lastmile_qr_scan", "android": "https://dc.lft.to/lastmile_qr_scan"}, "lat": 38.901223333333334, "lon": -77.05799316666666, "bike_id": "55ff50b53c9ad4820ba1e5177ccf4374", "fusion_lat": 0.0, "is_disabled": 0, "fusion_lon": 0.0}, {"name": "91a197d62498e5a666978841b440c404", "is_reserved": 0, "type": "electric_scooter", "rental_uris": {"ios": "https://dc.lft.to/lastmile_qr_scan", "android": "https://dc.lft.to/lastmile_qr_scan"}, "lat": 38.92608533333333, "lon": -77.02167133333333, "bike_id": "91a197d62498e5a666978841b440c404", "fusion_lat": 0.0, "is_disabled": 0, "fusion_lon": 0.0}, {"name": "ddac25c571fa33fdf625171270b8c760", "is_reserved": 0, "type": "electric_scooter", "rental_uris": {"ios": "https://dc.lft.to/lastmile_qr_scan", "android": "https://dc.lft.to/lastmile_qr_scan"}, "lat": 38.895736166666666, "lon": -77.03214083333333, "bike_id": "ddac25c571fa33fdf625171270b8c760", "fusion_lat": 0.0, "is_disabled": 0, "fusion_lon": 0.0}, {"name": "05a91d7af5e6dad0a635ad465c5b36da", "is_reserved": 0, "type": "electric_scooter", "rental_uris": {"ios": "https://dc.lft.to/lastmile_qr_scan", "android": "https://dc.lft.to/lastmile_qr_scan"}, "lat": 38.925468, "lon": -77.03784666666667, "bike_id": "05a91d7af5e6dad0a635ad465c5b36da", "fusion_lat": 0.0, "is_disabled": 0, "fusion_lon": 0.0}, {"name": "9190ade83701221da4814d98a8edb4a3", "is_reserved": 0, "type": "electric_scooter", "rental_uris": {"ios": "https://dc.lft.to/lastmile_qr_scan", "android": "https://dc.lft.to/lastmile_qr_scan"}, "lat": 38.933013333333335, "lon": -77.028058, "bike_id": "9190ade83701221da4814d98a8edb4a3", "fusion_lat": 0.0, "is_disabled": 0, "fusion_lon": 0.0}, {"name": "16dbf65900eec29f205e34448db0f9a8", "is_reserved": 0, "type": "electric_scooter", "rental_uris": {"ios": "https://dc.lft.to/lastmile_qr_scan", "android": "https://dc.lft.to/lastmile_qr_scan"}, "lat": 38.90414216666667, "lon": -76.97333783333333, "bike_id": "16dbf65900eec29f205e34448db0f9a8", "fusion_lat": 0.0, "is_disabled": 0, "fusion_lon": 0.0}, {"name": "690bdbe916c300d915d0afe711f9ad0d", "is_reserved": 0, "type": "electric_scooter", "rental_uris": {"ios": "https://dc.lft.to/lastmile_qr_scan", "android": "https://dc.lft.to/lastmile_qr_scan"}, "lat": 38.9418675, "lon": -77.0249185, "bike_id": "690bdbe916c300d915d0afe711f9ad0d", "fusion_lat": 0.0, "is_disabled": 0, "fusion_lon": 0.0}, {"name": "1b33ca1db87889af53c630cfea0f1cfe", "is_reserved": 0, "type": "electric_scooter", "rental_uris": {"ios": "https://dc.lft.to/lastmile_qr_scan", "android": "https://dc.lft.to/lastmile_qr_scan"}, "lat": 38.84797666666667, "lon": -76.96712083333334, "bike_id": "1b33ca1db87889af53c630cfea0f1cfe", "fusion_lat": 0.0, "is_disabled": 0, "fusion_lon": 0.0}, {"name": "1a59febef51ca91cd50f17c26f83e62e", "is_reserved": 0, "type": "electric_scooter", "rental_uris": {"ios": "https://dc.lft.to/lastmile_qr_scan", "android": "https://dc.lft.to/lastmile_qr_scan"}, "lat": 38.926770833333336, "lon": -77.007781, "bike_id": "1a59febef51ca91cd50f17c26f83e62e", "fusion_lat": 0.0, "is_disabled": 0, "fusion_lon": 0.0}, {"name": "10646a794e2267cde83eb0b6d86c61ab", "is_reserved": 0, "type": "electric_scooter", "rental_uris": {"ios": "https://dc.lft.to/lastmile_qr_scan", "android": "https://dc.lft.to/lastmile_qr_scan"}, "lat": 38.9054065, "lon": -77.0221485, "bike_id": "10646a794e2267cde83eb0b6d86c61ab", "fusion_lat": 0.0, "is_disabled": 0, "fusion_lon": 0.0}, {"name": "62192e5026bcfc894b3c89fe57daad0e", "is_reserved": 0, "type": "electric_bike", "rental_uris": {"ios": "https://dc.lft.to/lastmile_qr_scan", "android": "https://dc.lft.to/lastmile_qr_scan"}, "lat": 38.96621733333333, "lon": -76.944229, "bike_id": "62192e5026bcfc894b3c89fe57daad0e", "fusion_lat": 0.0, "is_disabled": 0, "fusion_lon": 0.0}, {"name": "8abaf78473ab64ab2975f285b613302e", "is_reserved": 0, "type": "electric_scooter", "rental_uris": {"ios": "https://dc.lft.to/lastmile_qr_scan", "android": "https://dc.lft.to/lastmile_qr_scan"}, "lat": 38.902441333333336, "lon": -77.04607983333334, "bike_id": "8abaf78473ab64ab2975f285b613302e", "fusion_lat": 0.0, "is_disabled": 0, "fusion_lon": 0.0}, {"name": "223a05714cfbe99b5c895ca97d94746c", "is_reserved": 0, "type": "electric_scooter", "rental_uris": {"ios": "https://dc.lft.to/lastmile_qr_scan", "android": "https://dc.lft.to/lastmile_qr_scan"}, "lat": 38.9353135, "lon": -77.02350016666666, "bike_id": "223a05714cfbe99b5c895ca97d94746c", "fusion_lat": 0.0, "is_disabled": 0, "fusion_lon": 0.0}, {"name": "90dde670c2ad0724d5666b3cba0b36a5", "is_reserved": 0, "type": "electric_scooter", "rental_uris": {"ios": "https://dc.lft.to/lastmile_qr_scan", "android": "https://dc.lft.to/lastmile_qr_scan"}, "lat": 38.90512983333333, "lon": -77.041553, "bike_id": "90dde670c2ad0724d5666b3cba0b36a5", "fusion_lat": 0.0, "is_disabled": 0, "fusion_lon": 0.0}, {"name": "a63b93c87b7f40dfdeba22f43d08e964", "is_reserved": 0, "type": "electric_scooter", "rental_uris": {"ios": "https://dc.lft.to/lastmile_qr_scan", "android": "https://dc.lft.to/lastmile_qr_scan"}, "lat": 38.9035745, "lon": -77.011046, "bike_id": "a63b93c87b7f40dfdeba22f43d08e964", "fusion_lat": 0.0, "is_disabled": 0, "fusion_lon": 0.0}, {"name": "e37a54d9fc93ef76d4caf05a1f72d89f", "is_reserved": 0, "type": "electric_scooter", "rental_uris": {"ios": "https://dc.lft.to/lastmile_qr_scan", "android": "https://dc.lft.to/lastmile_qr_scan"}, "lat": 38.916940833333335, "lon": -77.00503233333333, "bike_id": "e37a54d9fc93ef76d4caf05a1f72d89f", "fusion_lat": 0.0, "is_disabled": 0, "fusion_lon": 0.0}, {"name": "9bbfe7f260e49f0e25bc941d2de7b54a", "is_reserved": 0, "type": "electric_scooter", "rental_uris": {"ios": "https://dc.lft.to/lastmile_qr_scan", "android": "https://dc.lft.to/lastmile_qr_scan"}, "lat": 38.91698433333333, "lon": -77.04601566666666, "bike_id": "9bbfe7f260e49f0e25bc941d2de7b54a", "fusion_lat": 0.0, "is_disabled": 0, "fusion_lon": 0.0}, {"name": "d0ca10598afdc4cfba989132fd2c06c8", "is_reserved": 0, "type": "electric_scooter", "rental_uris": {"ios": "https://dc.lft.to/lastmile_qr_scan", "android": "https://dc.lft.to/lastmile_qr_scan"}, "lat": 38.901599166666664, "lon": -77.02947866666666, "bike_id": "d0ca10598afdc4cfba989132fd2c06c8", "fusion_lat": 0.0, "is_disabled": 0, "fusion_lon": 0.0}, {"name": "70c5c876a286d36e99a6a9a8be73b21b", "is_reserved": 0, "type": "electric_scooter", "rental_uris": {"ios": "https://dc.lft.to/lastmile_qr_scan", "android": "https://dc.lft.to/lastmile_qr_scan"}, "lat": 38.910931833333336, "lon": -77.0318525, "bike_id": "70c5c876a286d36e99a6a9a8be73b21b", "fusion_lat": 0.0, "is_disabled": 0, "fusion_lon": 0.0}, {"name": "5c2e70563afacef534d81779d89455da", "is_reserved": 0, "type": "electric_scooter", "rental_uris": {"ios": "https://dc.lft.to/lastmile_qr_scan", "android": "https://dc.lft.to/lastmile_qr_scan"}, "lat": 38.9001405, "lon": -77.04658283333333, "bike_id": "5c2e70563afacef534d81779d89455da", "fusion_lat": 0.0, "is_disabled": 0, "fusion_lon": 0.0}, {"name": "045f732264374493c55fb69e265b6ec3", "is_reserved": 0, "type": "electric_scooter", "rental_uris": {"ios": "https://dc.lft.to/lastmile_qr_scan", "android": "https://dc.lft.to/lastmile_qr_scan"}, "lat": 38.9246975, "lon": -77.027128, "bike_id": "045f732264374493c55fb69e265b6ec3", "fusion_lat": 0.0, "is_disabled": 0, "fusion_lon": 0.0}, {"name": "995dc368362b3986096d3182c01b7e57", "is_reserved": 0, "type": "electric_scooter", "rental_uris": {"ios": "https://dc.lft.to/lastmile_qr_scan", "android": "https://dc.lft.to/lastmile_qr_scan"}, "lat": 38.9044295, "lon": -77.06272466666667, "bike_id": "995dc368362b3986096d3182c01b7e57", "fusion_lat": 0.0, "is_disabled": 0, "fusion_lon": 0.0}, {"name": "f86c5178334772624145cc42232a2307", "is_reserved": 0, "type": "electric_scooter", "rental_uris": {"ios": "https://dc.lft.to/lastmile_qr_scan", "android": "https://dc.lft.to/lastmile_qr_scan"}, "lat": 38.900374, "lon": -77.03525233333333, "bike_id": "f86c5178334772624145cc42232a2307", "fusion_lat": 0.0, "is_disabled": 0, "fusion_lon": 0.0}, {"name": "453b2716b2af7f10213dea44b3ec4b2b", "is_reserved": 0, "type": "electric_scooter", "rental_uris": {"ios": "https://dc.lft.to/lastmile_qr_scan", "android": "https://dc.lft.to/lastmile_qr_scan"}, "lat": 38.926131833333336, "lon": -77.021667, "bike_id": "453b2716b2af7f10213dea44b3ec4b2b", "fusion_lat": 0.0, "is_disabled": 0, "fusion_lon": 0.0}, {"name": "75735ebd1d25352a7121dde8f41714bd", "is_reserved": 0, "type": "electric_scooter", "rental_uris": {"ios": "https://dc.lft.to/lastmile_qr_scan", "android": "https://dc.lft.to/lastmile_qr_scan"}, "lat": 38.90034, "lon": -76.98828766666666, "bike_id": "75735ebd1d25352a7121dde8f41714bd", "fusion_lat": 0.0, "is_disabled": 0, "fusion_lon": 0.0}, {"name": "f399c9c6b1fc22e5ad9668c22d88ff9a", "is_reserved": 0, "type": "electric_scooter", "rental_uris": {"ios": "https://dc.lft.to/lastmile_qr_scan", "android": "https://dc.lft.to/lastmile_qr_scan"}, "lat": 38.905708, "lon": -76.97630666666667, "bike_id": "f399c9c6b1fc22e5ad9668c22d88ff9a", "fusion_lat": 0.0, "is_disabled": 0, "fusion_lon": 0.0}, {"name": "b8289043a41e06cb890a93fc89b51243", "is_reserved": 0, "type": "electric_scooter", "rental_uris": {"ios": "https://dc.lft.to/lastmile_qr_scan", "android": "https://dc.lft.to/lastmile_qr_scan"}, "lat": 38.910335333333336, "lon": -76.9855165, "bike_id": "b8289043a41e06cb890a93fc89b51243", "fusion_lat": 0.0, "is_disabled": 0, "fusion_lon": 0.0}, {"name": "e14b10eb0535919b0e3000fb7bb5efcf", "is_reserved": 0, "type": "electric_scooter", "rental_uris": {"ios": "https://dc.lft.to/lastmile_qr_scan", "android": "https://dc.lft.to/lastmile_qr_scan"}, "lat": 38.91769, "lon": -77.02281366666666, "bike_id": "e14b10eb0535919b0e3000fb7bb5efcf", "fusion_lat": 0.0, "is_disabled": 0, "fusion_lon": 0.0}, {"name": "1c0a9bd2e122616dff20b0d5b05aa4ff", "is_reserved": 0, "type": "electric_scooter", "rental_uris": {"ios": "https://dc.lft.to/lastmile_qr_scan", "android": "https://dc.lft.to/lastmile_qr_scan"}, "lat": 38.92886266666667, "lon": -77.033199, "bike_id": "1c0a9bd2e122616dff20b0d5b05aa4ff", "fusion_lat": 0.0, "is_disabled": 0, "fusion_lon": 0.0}, {"name": "5691d1490758d7120c015803bdd9356b", "is_reserved": 0, "type": "electric_scooter", "rental_uris": {"ios": "https://dc.lft.to/lastmile_qr_scan", "android": "https://dc.lft.to/lastmile_qr_scan"}, "lat": 38.91705283333334, "lon": -77.03274133333333, "bike_id": "5691d1490758d7120c015803bdd9356b", "fusion_lat": 0.0, "is_disabled": 0, "fusion_lon": 0.0}, {"name": "68c26d904d220bc18904709b1a4f83d1", "is_reserved": 0, "type": "electric_scooter", "rental_uris": {"ios": "https://dc.lft.to/lastmile_qr_scan", "android": "https://dc.lft.to/lastmile_qr_scan"}, "lat": 38.9028305, "lon": -77.03433233333334, "bike_id": "68c26d904d220bc18904709b1a4f83d1", "fusion_lat": 0.0, "is_disabled": 0, "fusion_lon": 0.0}, {"name": "619a6f1f783b306665f01f5e145ced92", "is_reserved": 0, "type": "electric_scooter", "rental_uris": {"ios": "https://dc.lft.to/lastmile_qr_scan", "android": "https://dc.lft.to/lastmile_qr_scan"}, "lat": 38.956176, "lon": -77.03311, "bike_id": "619a6f1f783b306665f01f5e145ced92", "fusion_lat": 0.0, "is_disabled": 0, "fusion_lon": 0.0}, {"name": "3e6d62f1e65a15dec5bc9314f8f2a211", "is_reserved": 0, "type": "electric_scooter", "rental_uris": {"ios": "https://dc.lft.to/lastmile_qr_scan", "android": "https://dc.lft.to/lastmile_qr_scan"}, "lat": 38.8984635, "lon": -76.9463825, "bike_id": "3e6d62f1e65a15dec5bc9314f8f2a211", "fusion_lat": 0.0, "is_disabled": 0, "fusion_lon": 0.0}, {"name": "5047999c8b9d401ba0eebb9c465b1c60", "is_reserved": 0, "type": "electric_scooter", "rental_uris": {"ios": "https://dc.lft.to/lastmile_qr_scan", "android": "https://dc.lft.to/lastmile_qr_scan"}, "lat": 38.865296666666666, "lon": -76.98609033333334, "bike_id": "5047999c8b9d401ba0eebb9c465b1c60", "fusion_lat": 0.0, "is_disabled": 0, "fusion_lon": 0.0}, {"name": "d09cd43c2eac37a9ae8a4b2c00213b1c", "is_reserved": 0, "type": "electric_scooter", "rental_uris": {"ios": "https://dc.lft.to/lastmile_qr_scan", "android": "https://dc.lft.to/lastmile_qr_scan"}, "lat": 38.92255183333333, "lon": -77.03408533333334, "bike_id": "d09cd43c2eac37a9ae8a4b2c00213b1c", "fusion_lat": 0.0, "is_disabled": 0, "fusion_lon": 0.0}, {"name": "101ff9fae9062d2dc9eb0b45c28d8bd3", "is_reserved": 0, "type": "electric_scooter", "rental_uris": {"ios": "https://dc.lft.to/lastmile_qr_scan", "android": "https://dc.lft.to/lastmile_qr_scan"}, "lat": 38.894694666666666, "lon": -77.0749475, "bike_id": "101ff9fae9062d2dc9eb0b45c28d8bd3", "fusion_lat": 0.0, "is_disabled": 0, "fusion_lon": 0.0}, {"name": "522076d4978aae3a3851f0224d1fbf22", "is_reserved": 0, "type": "electric_scooter", "rental_uris": {"ios": "https://dc.lft.to/lastmile_qr_scan", "android": "https://dc.lft.to/lastmile_qr_scan"}, "lat": 38.911021166666664, "lon": -77.044443, "bike_id": "522076d4978aae3a3851f0224d1fbf22", "fusion_lat": 0.0, "is_disabled": 0, "fusion_lon": 0.0}, {"name": "ca34a0a92c87d8fa1429b5d4a4711e31", "is_reserved": 0, "type": "electric_bike", "rental_uris": {"ios": "https://dc.lft.to/lastmile_qr_scan", "android": "https://dc.lft.to/lastmile_qr_scan"}, "lat": 39.0563805, "lon": -77.12528416666666, "bike_id": "ca34a0a92c87d8fa1429b5d4a4711e31", "fusion_lat": 0.0, "is_disabled": 0, "fusion_lon": 0.0}, {"name": "0308ee4f97d373b927d65b5f74312567", "is_reserved": 0, "type": "electric_scooter", "rental_uris": {"ios": "https://dc.lft.to/lastmile_qr_scan", "android": "https://dc.lft.to/lastmile_qr_scan"}, "lat": 38.8961275, "lon": -77.00926233333334, "bike_id": "0308ee4f97d373b927d65b5f74312567", "fusion_lat": 0.0, "is_disabled": 0, "fusion_lon": 0.0}, {"name": "05334ddffbb467cc13692bf2d4af7078", "is_reserved": 0, "type": "electric_scooter", "rental_uris": {"ios": "https://dc.lft.to/lastmile_qr_scan", "android": "https://dc.lft.to/lastmile_qr_scan"}, "lat": 38.907540833333336, "lon": -76.99925583333334, "bike_id": "05334ddffbb467cc13692bf2d4af7078", "fusion_lat": 0.0, "is_disabled": 0, "fusion_lon": 0.0}, {"name": "93603f02b10a4078fa8f162edbddce34", "is_reserved": 0, "type": "electric_scooter", "rental_uris": {"ios": "https://dc.lft.to/lastmile_qr_scan", "android": "https://dc.lft.to/lastmile_qr_scan"}, "lat": 38.915600833333336, "lon": -77.05325433333333, "bike_id": "93603f02b10a4078fa8f162edbddce34", "fusion_lat": 0.0, "is_disabled": 0, "fusion_lon": 0.0}, {"name": "a5c60735f4543a99a3f7fb830fd40a83", "is_reserved": 0, "type": "electric_scooter", "rental_uris": {"ios": "https://dc.lft.to/lastmile_qr_scan", "android": "https://dc.lft.to/lastmile_qr_scan"}, "lat": 38.897287666666664, "lon": -76.99515233333334, "bike_id": "a5c60735f4543a99a3f7fb830fd40a83", "fusion_lat": 0.0, "is_disabled": 0, "fusion_lon": 0.0}, {"name": "59acfd83819076df515a65300cce6e5d", "is_reserved": 0, "type": "electric_scooter", "rental_uris": {"ios": "https://dc.lft.to/lastmile_qr_scan", "android": "https://dc.lft.to/lastmile_qr_scan"}, "lat": 38.9204335, "lon": -77.0300255, "bike_id": "59acfd83819076df515a65300cce6e5d", "fusion_lat": 0.0, "is_disabled": 0, "fusion_lon": 0.0}, {"name": "00ec283f987ff48ff2596b4a6bd6030b", "is_reserved": 0, "type": "electric_scooter", "rental_uris": {"ios": "https://dc.lft.to/lastmile_qr_scan", "android": "https://dc.lft.to/lastmile_qr_scan"}, "lat": 38.88406166666667, "lon": -77.01537066666667, "bike_id": "00ec283f987ff48ff2596b4a6bd6030b", "fusion_lat": 0.0, "is_disabled": 0, "fusion_lon": 0.0}, {"name": "fd91278f889914fa307f2d176fdffe65", "is_reserved": 0, "type": "electric_bike", "rental_uris": {"ios": "https://dc.lft.to/lastmile_qr_scan", "android": "https://dc.lft.to/lastmile_qr_scan"}, "lat": 38.868282666666666, "lon": -76.9803225, "bike_id": "fd91278f889914fa307f2d176fdffe65", "fusion_lat": 0.0, "is_disabled": 0, "fusion_lon": 0.0}, {"name": "5957e06ec870fea8d6def38b5cccef13", "is_reserved": 0, "type": "electric_scooter", "rental_uris": {"ios": "https://dc.lft.to/lastmile_qr_scan", "android": "https://dc.lft.to/lastmile_qr_scan"}, "lat": 38.882601, "lon": -76.99509816666666, "bike_id": "5957e06ec870fea8d6def38b5cccef13", "fusion_lat": 0.0, "is_disabled": 0, "fusion_lon": 0.0}, {"name": "d7303bf3dcb650dd2f31e6a9f48c2837", "is_reserved": 0, "type": "electric_scooter", "rental_uris": {"ios": "https://dc.lft.to/lastmile_qr_scan", "android": "https://dc.lft.to/lastmile_qr_scan"}, "lat": 38.8922495, "lon": -77.04333616666666, "bike_id": "d7303bf3dcb650dd2f31e6a9f48c2837", "fusion_lat": 0.0, "is_disabled": 0, "fusion_lon": 0.0}, {"name": "522574a251a05ea07fd6b920421e29a3", "is_reserved": 0, "type": "electric_bike", "rental_uris": {"ios": "https://dc.lft.to/lastmile_qr_scan", "android": "https://dc.lft.to/lastmile_qr_scan"}, "lat": 38.840821166666665, "lon": -77.076926, "bike_id": "522574a251a05ea07fd6b920421e29a3", "fusion_lat": 0.0, "is_disabled": 0, "fusion_lon": 0.0}, {"name": "3f80c5a38e244d054a1603ed06ee0658", "is_reserved": 0, "type": "electric_scooter", "rental_uris": {"ios": "https://dc.lft.to/lastmile_qr_scan", "android": "https://dc.lft.to/lastmile_qr_scan"}, "lat": 38.90231716666667, "lon": -77.04341883333333, "bike_id": "3f80c5a38e244d054a1603ed06ee0658", "fusion_lat": 0.0, "is_disabled": 0, "fusion_lon": 0.0}, {"name": "96039e2020385d471d35b245f18158ef", "is_reserved": 0, "type": "electric_scooter", "rental_uris": {"ios": "https://dc.lft.to/lastmile_qr_scan", "android": "https://dc.lft.to/lastmile_qr_scan"}, "lat": 38.9173175, "lon": -77.04176683333333, "bike_id": "96039e2020385d471d35b245f18158ef", "fusion_lat": 0.0, "is_disabled": 0, "fusion_lon": 0.0}, {"name": "e0a78e95e63d5e8ba847917df10da814", "is_reserved": 0, "type": "electric_scooter", "rental_uris": {"ios": "https://dc.lft.to/lastmile_qr_scan", "android": "https://dc.lft.to/lastmile_qr_scan"}, "lat": 38.90323766666667, "lon": -77.0433415, "bike_id": "e0a78e95e63d5e8ba847917df10da814", "fusion_lat": 0.0, "is_disabled": 0, "fusion_lon": 0.0}, {"name": "e0672103b8fea0149153e6fa404cce1b", "is_reserved": 0, "type": "electric_scooter", "rental_uris": {"ios": "https://dc.lft.to/lastmile_qr_scan", "android": "https://dc.lft.to/lastmile_qr_scan"}, "lat": 38.91921, "lon": -77.03190283333333, "bike_id": "e0672103b8fea0149153e6fa404cce1b", "fusion_lat": 0.0, "is_disabled": 0, "fusion_lon": 0.0}, {"name": "e173216949e0a1924760a4c88482dd90", "is_reserved": 0, "type": "electric_scooter", "rental_uris": {"ios": "https://dc.lft.to/lastmile_qr_scan", "android": "https://dc.lft.to/lastmile_qr_scan"}, "lat": 38.92619766666667, "lon": -77.041952, "bike_id": "e173216949e0a1924760a4c88482dd90", "fusion_lat": 0.0, "is_disabled": 0, "fusion_lon": 0.0}, {"name": "0e2b1eb6eab5e3d0106b46281170766a", "is_reserved": 0, "type": "electric_scooter", "rental_uris": {"ios": "https://dc.lft.to/lastmile_qr_scan", "android": "https://dc.lft.to/lastmile_qr_scan"}, "lat": 38.916951, "lon": -77.0320405, "bike_id": "0e2b1eb6eab5e3d0106b46281170766a", "fusion_lat": 0.0, "is_disabled": 0, "fusion_lon": 0.0}, {"name": "d5d59bcf63d081d8b1a6a4398b40958a", "is_reserved": 0, "type": "electric_scooter", "rental_uris": {"ios": "https://dc.lft.to/lastmile_qr_scan", "android": "https://dc.lft.to/lastmile_qr_scan"}, "lat": 38.9076035, "lon": -77.000964, "bike_id": "d5d59bcf63d081d8b1a6a4398b40958a", "fusion_lat": 0.0, "is_disabled": 0, "fusion_lon": 0.0}, {"name": "ae7e72edd6991d5826cfb0c55ed07d07", "is_reserved": 0, "type": "electric_scooter", "rental_uris": {"ios": "https://dc.lft.to/lastmile_qr_scan", "android": "https://dc.lft.to/lastmile_qr_scan"}, "lat": 38.89917233333333, "lon": -76.93369283333334, "bike_id": "ae7e72edd6991d5826cfb0c55ed07d07", "fusion_lat": 0.0, "is_disabled": 0, "fusion_lon": 0.0}, {"name": "8d10da6a1abfc3c9588882e46ef174c6", "is_reserved": 0, "type": "electric_scooter", "rental_uris": {"ios": "https://dc.lft.to/lastmile_qr_scan", "android": "https://dc.lft.to/lastmile_qr_scan"}, "lat": 38.898450833333335, "lon": -76.946355, "bike_id": "8d10da6a1abfc3c9588882e46ef174c6", "fusion_lat": 0.0, "is_disabled": 0, "fusion_lon": 0.0}, {"name": "3c0d4ec88a194c7314e91f26bd7ce203", "is_reserved": 0, "type": "electric_scooter", "rental_uris": {"ios": "https://dc.lft.to/lastmile_qr_scan", "android": "https://dc.lft.to/lastmile_qr_scan"}, "lat": 38.9227755, "lon": -77.02191616666667, "bike_id": "3c0d4ec88a194c7314e91f26bd7ce203", "fusion_lat": 0.0, "is_disabled": 0, "fusion_lon": 0.0}, {"name": "c7df89525d33b3794412efba601450dc", "is_reserved": 0, "type": "electric_scooter", "rental_uris": {"ios": "https://dc.lft.to/lastmile_qr_scan", "android": "https://dc.lft.to/lastmile_qr_scan"}, "lat": 38.900252333333334, "lon": -77.00211166666666, "bike_id": "c7df89525d33b3794412efba601450dc", "fusion_lat": 0.0, "is_disabled": 0, "fusion_lon": 0.0}, {"name": "26adc75adb49fa8eb5950609fae87811", "is_reserved": 0, "type": "electric_scooter", "rental_uris": {"ios": "https://dc.lft.to/lastmile_qr_scan", "android": "https://dc.lft.to/lastmile_qr_scan"}, "lat": 38.9079745, "lon": -77.03666333333334, "bike_id": "26adc75adb49fa8eb5950609fae87811", "fusion_lat": 0.0, "is_disabled": 0, "fusion_lon": 0.0}, {"name": "fc981bce402af77c97a1c4bb80b044ab", "is_reserved": 0, "type": "electric_scooter", "rental_uris": {"ios": "https://dc.lft.to/lastmile_qr_scan", "android": "https://dc.lft.to/lastmile_qr_scan"}, "lat": 38.9246725, "lon": -77.07866666666666, "bike_id": "fc981bce402af77c97a1c4bb80b044ab", "fusion_lat": 0.0, "is_disabled": 0, "fusion_lon": 0.0}, {"name": "2d92cedc11abd96b4d096bc3e7c5373f", "is_reserved": 0, "type": "electric_scooter", "rental_uris": {"ios": "https://dc.lft.to/lastmile_qr_scan", "android": "https://dc.lft.to/lastmile_qr_scan"}, "lat": 38.909818333333334, "lon": -77.03189683333333, "bike_id": "2d92cedc11abd96b4d096bc3e7c5373f", "fusion_lat": 0.0, "is_disabled": 0, "fusion_lon": 0.0}, {"name": "ba86ec3b3db44d12102020053114df54", "is_reserved": 0, "type": "electric_scooter", "rental_uris": {"ios": "https://dc.lft.to/lastmile_qr_scan", "android": "https://dc.lft.to/lastmile_qr_scan"}, "lat": 38.89408233333333, "lon": -76.91113516666667, "bike_id": "ba86ec3b3db44d12102020053114df54", "fusion_lat": 0.0, "is_disabled": 0, "fusion_lon": 0.0}, {"name": "f1e6c25ecacc410ce2ad4970ee3fc480", "is_reserved": 0, "type": "electric_scooter", "rental_uris": {"ios": "https://dc.lft.to/lastmile_qr_scan", "android": "https://dc.lft.to/lastmile_qr_scan"}, "lat": 38.928801, "lon": -77.03222083333333, "bike_id": "f1e6c25ecacc410ce2ad4970ee3fc480", "fusion_lat": 0.0, "is_disabled": 0, "fusion_lon": 0.0}, {"name": "fec018b94697f674341eb7ace245cea5", "is_reserved": 0, "type": "electric_scooter", "rental_uris": {"ios": "https://dc.lft.to/lastmile_qr_scan", "android": "https://dc.lft.to/lastmile_qr_scan"}, "lat": 38.934055666666666, "lon": -77.03777, "bike_id": "fec018b94697f674341eb7ace245cea5", "fusion_lat": 0.0, "is_disabled": 0, "fusion_lon": 0.0}, {"name": "e6a2eabab12da4978fe27f4e5648d303", "is_reserved": 0, "type": "electric_scooter", "rental_uris": {"ios": "https://dc.lft.to/lastmile_qr_scan", "android": "https://dc.lft.to/lastmile_qr_scan"}, "lat": 38.887465166666665, "lon": -76.99848833333333, "bike_id": "e6a2eabab12da4978fe27f4e5648d303", "fusion_lat": 0.0, "is_disabled": 0, "fusion_lon": 0.0}, {"name": "006ab8bba32a0b01cd0591a92c77a4df", "is_reserved": 0, "type": "electric_scooter", "rental_uris": {"ios": "https://dc.lft.to/lastmile_qr_scan", "android": "https://dc.lft.to/lastmile_qr_scan"}, "lat": 38.90169183333333, "lon": -76.97820366666667, "bike_id": "006ab8bba32a0b01cd0591a92c77a4df", "fusion_lat": 0.0, "is_disabled": 0, "fusion_lon": 0.0}, {"name": "02bad841f12b79269af96fad38bb4f77", "is_reserved": 0, "type": "electric_scooter", "rental_uris": {"ios": "https://dc.lft.to/lastmile_qr_scan", "android": "https://dc.lft.to/lastmile_qr_scan"}, "lat": 38.902393833333335, "lon": -77.05417983333334, "bike_id": "02bad841f12b79269af96fad38bb4f77", "fusion_lat": 0.0, "is_disabled": 0, "fusion_lon": 0.0}, {"name": "70f993c88c315adc06c531d2e91d504e", "is_reserved": 0, "type": "electric_bike", "rental_uris": {"ios": "https://dc.lft.to/lastmile_qr_scan", "android": "https://dc.lft.to/lastmile_qr_scan"}, "lat": 38.881349166666666, "lon": -76.9809175, "bike_id": "70f993c88c315adc06c531d2e91d504e", "fusion_lat": 0.0, "is_disabled": 0, "fusion_lon": 0.0}, {"name": "7fc1efd4fd01c5b216c705b89373cc1c", "is_reserved": 0, "type": "electric_scooter", "rental_uris": {"ios": "https://dc.lft.to/lastmile_qr_scan", "android": "https://dc.lft.to/lastmile_qr_scan"}, "lat": 38.9306065, "lon": -77.02331016666666, "bike_id": "7fc1efd4fd01c5b216c705b89373cc1c", "fusion_lat": 0.0, "is_disabled": 0, "fusion_lon": 0.0}, {"name": "c729c20d745ddb1304e39ae158ff0a43", "is_reserved": 0, "type": "electric_scooter", "rental_uris": {"ios": "https://dc.lft.to/lastmile_qr_scan", "android": "https://dc.lft.to/lastmile_qr_scan"}, "lat": 38.917803666666664, "lon": -76.97319016666667, "bike_id": "c729c20d745ddb1304e39ae158ff0a43", "fusion_lat": 0.0, "is_disabled": 0, "fusion_lon": 0.0}, {"name": "3c24cca1910cddb4c74eecb5230addc8", "is_reserved": 0, "type": "electric_scooter", "rental_uris": {"ios": "https://dc.lft.to/lastmile_qr_scan", "android": "https://dc.lft.to/lastmile_qr_scan"}, "lat": 38.90020883333333, "lon": -77.00674366666667, "bike_id": "3c24cca1910cddb4c74eecb5230addc8", "fusion_lat": 0.0, "is_disabled": 0, "fusion_lon": 0.0}, {"name": "4b57609eddc72f89de56e5015557091a", "is_reserved": 0, "type": "electric_scooter", "rental_uris": {"ios": "https://dc.lft.to/lastmile_qr_scan", "android": "https://dc.lft.to/lastmile_qr_scan"}, "lat": 38.9031255, "lon": -77.043149, "bike_id": "4b57609eddc72f89de56e5015557091a", "fusion_lat": 0.0, "is_disabled": 0, "fusion_lon": 0.0}, {"name": "6249807a3032060a521535224fa684fb", "is_reserved": 0, "type": "electric_bike", "rental_uris": {"ios": "https://dc.lft.to/lastmile_qr_scan", "android": "https://dc.lft.to/lastmile_qr_scan"}, "lat": 38.904188833333336, "lon": -77.007637, "bike_id": "6249807a3032060a521535224fa684fb", "fusion_lat": 0.0, "is_disabled": 0, "fusion_lon": 0.0}, {"name": "cc2cb74bae061e8c67e9923b34c9f223", "is_reserved": 0, "type": "electric_scooter", "rental_uris": {"ios": "https://dc.lft.to/lastmile_qr_scan", "android": "https://dc.lft.to/lastmile_qr_scan"}, "lat": 38.88642733333333, "lon": -77.022063, "bike_id": "cc2cb74bae061e8c67e9923b34c9f223", "fusion_lat": 0.0, "is_disabled": 0, "fusion_lon": 0.0}, {"name": "54fb0e542899ef5bd755f1003d3f1927", "is_reserved": 0, "type": "electric_scooter", "rental_uris": {"ios": "https://dc.lft.to/lastmile_qr_scan", "android": "https://dc.lft.to/lastmile_qr_scan"}, "lat": 38.9027045, "lon": -77.03839366666666, "bike_id": "54fb0e542899ef5bd755f1003d3f1927", "fusion_lat": 0.0, "is_disabled": 0, "fusion_lon": 0.0}, {"name": "9b2eda418edb2954fb7e76df3ffa624b", "is_reserved": 0, "type": "electric_bike", "rental_uris": {"ios": "https://dc.lft.to/lastmile_qr_scan", "android": "https://dc.lft.to/lastmile_qr_scan"}, "lat": 38.8444125, "lon": -77.08588566666667, "bike_id": "9b2eda418edb2954fb7e76df3ffa624b", "fusion_lat": 0.0, "is_disabled": 0, "fusion_lon": 0.0}, {"name": "c1aa0a4186164cb5cb3de713e90f54e6", "is_reserved": 0, "type": "electric_scooter", "rental_uris": {"ios": "https://dc.lft.to/lastmile_qr_scan", "android": "https://dc.lft.to/lastmile_qr_scan"}, "lat": 38.91526, "lon": -76.98482833333334, "bike_id": "c1aa0a4186164cb5cb3de713e90f54e6", "fusion_lat": 0.0, "is_disabled": 0, "fusion_lon": 0.0}, {"name": "c68a208b4e2d7c9a79b4f5e9e417ee85", "is_reserved": 0, "type": "electric_scooter", "rental_uris": {"ios": "https://dc.lft.to/lastmile_qr_scan", "android": "https://dc.lft.to/lastmile_qr_scan"}, "lat": 38.921548, "lon": -77.034824, "bike_id": "c68a208b4e2d7c9a79b4f5e9e417ee85", "fusion_lat": 0.0, "is_disabled": 0, "fusion_lon": 0.0}, {"name": "799557308d930e85b6e40e171b661a9d", "is_reserved": 0, "type": "electric_scooter", "rental_uris": {"ios": "https://dc.lft.to/lastmile_qr_scan", "android": "https://dc.lft.to/lastmile_qr_scan"}, "lat": 38.91936416666667, "lon": -77.03433266666667, "bike_id": "799557308d930e85b6e40e171b661a9d", "fusion_lat": 0.0, "is_disabled": 0, "fusion_lon": 0.0}, {"name": "6c036e00c1339c53fc5fee6e384ded54", "is_reserved": 0, "type": "electric_scooter", "rental_uris": {"ios": "https://dc.lft.to/lastmile_qr_scan", "android": "https://dc.lft.to/lastmile_qr_scan"}, "lat": 38.93393116666667, "lon": -77.0574605, "bike_id": "6c036e00c1339c53fc5fee6e384ded54", "fusion_lat": 0.0, "is_disabled": 0, "fusion_lon": 0.0}, {"name": "7bcdf66a65a162cb96622fd42580669e", "is_reserved": 0, "type": "electric_bike", "rental_uris": {"ios": "https://dc.lft.to/lastmile_qr_scan", "android": "https://dc.lft.to/lastmile_qr_scan"}, "lat": 38.94904016666667, "lon": -76.97239966666666, "bike_id": "7bcdf66a65a162cb96622fd42580669e", "fusion_lat": 0.0, "is_disabled": 0, "fusion_lon": 0.0}, {"name": "fdccd6df27f4f3e41254286bcb263daa", "is_reserved": 0, "type": "electric_scooter", "rental_uris": {"ios": "https://dc.lft.to/lastmile_qr_scan", "android": "https://dc.lft.to/lastmile_qr_scan"}, "lat": 38.92333516666667, "lon": -77.04304366666666, "bike_id": "fdccd6df27f4f3e41254286bcb263daa", "fusion_lat": 0.0, "is_disabled": 0, "fusion_lon": 0.0}, {"name": "3a12b8b9b6704729c0297012c5028f84", "is_reserved": 0, "type": "electric_scooter", "rental_uris": {"ios": "https://dc.lft.to/lastmile_qr_scan", "android": "https://dc.lft.to/lastmile_qr_scan"}, "lat": 38.89390066666667, "lon": -76.95019233333333, "bike_id": "3a12b8b9b6704729c0297012c5028f84", "fusion_lat": 0.0, "is_disabled": 0, "fusion_lon": 0.0}, {"name": "9328a88b25419e87e412975864ef5e65", "is_reserved": 0, "type": "electric_scooter", "rental_uris": {"ios": "https://dc.lft.to/lastmile_qr_scan", "android": "https://dc.lft.to/lastmile_qr_scan"}, "lat": 38.8961965, "lon": -77.02209433333333, "bike_id": "9328a88b25419e87e412975864ef5e65", "fusion_lat": 0.0, "is_disabled": 0, "fusion_lon": 0.0}, {"name": "3ad82cce31e3750ee55894304a078e0b", "is_reserved": 0, "type": "electric_scooter", "rental_uris": {"ios": "https://dc.lft.to/lastmile_qr_scan", "android": "https://dc.lft.to/lastmile_qr_scan"}, "lat": 38.90425416666667, "lon": -77.03438933333334, "bike_id": "3ad82cce31e3750ee55894304a078e0b", "fusion_lat": 0.0, "is_disabled": 0, "fusion_lon": 0.0}, {"name": "2b3afe81e4a1d271ebd79290747bef9a", "is_reserved": 0, "type": "electric_scooter", "rental_uris": {"ios": "https://dc.lft.to/lastmile_qr_scan", "android": "https://dc.lft.to/lastmile_qr_scan"}, "lat": 38.928305, "lon": -77.0544085, "bike_id": "2b3afe81e4a1d271ebd79290747bef9a", "fusion_lat": 0.0, "is_disabled": 0, "fusion_lon": 0.0}, {"name": "2ae79bfc30e04dbf88d3b8531c552093", "is_reserved": 0, "type": "electric_scooter", "rental_uris": {"ios": "https://dc.lft.to/lastmile_qr_scan", "android": "https://dc.lft.to/lastmile_qr_scan"}, "lat": 38.94503866666667, "lon": -77.03868283333334, "bike_id": "2ae79bfc30e04dbf88d3b8531c552093", "fusion_lat": 0.0, "is_disabled": 0, "fusion_lon": 0.0}, {"name": "b8eb3219d2582f22379c98fedbd5e118", "is_reserved": 0, "type": "electric_scooter", "rental_uris": {"ios": "https://dc.lft.to/lastmile_qr_scan", "android": "https://dc.lft.to/lastmile_qr_scan"}, "lat": 38.863636, "lon": -76.99063866666667, "bike_id": "b8eb3219d2582f22379c98fedbd5e118", "fusion_lat": 0.0, "is_disabled": 0, "fusion_lon": 0.0}, {"name": "0a59b30ecce9eb172c02fe26124fe1e7", "is_reserved": 0, "type": "electric_scooter", "rental_uris": {"ios": "https://dc.lft.to/lastmile_qr_scan", "android": "https://dc.lft.to/lastmile_qr_scan"}, "lat": 38.8670115, "lon": -76.98709833333334, "bike_id": "0a59b30ecce9eb172c02fe26124fe1e7", "fusion_lat": 0.0, "is_disabled": 0, "fusion_lon": 0.0}, {"name": "11113a6c5205dfe61b9d4bb4907885a2", "is_reserved": 0, "type": "electric_scooter", "rental_uris": {"ios": "https://dc.lft.to/lastmile_qr_scan", "android": "https://dc.lft.to/lastmile_qr_scan"}, "lat": 38.907805333333336, "lon": -76.997143, "bike_id": "11113a6c5205dfe61b9d4bb4907885a2", "fusion_lat": 0.0, "is_disabled": 0, "fusion_lon": 0.0}, {"name": "831ddb9490c8cdf16fddcc0a76ccb49c", "is_reserved": 0, "type": "electric_scooter", "rental_uris": {"ios": "https://dc.lft.to/lastmile_qr_scan", "android": "https://dc.lft.to/lastmile_qr_scan"}, "lat": 38.92815566666667, "lon": -77.05398283333334, "bike_id": "831ddb9490c8cdf16fddcc0a76ccb49c", "fusion_lat": 0.0, "is_disabled": 0, "fusion_lon": 0.0}, {"name": "d6c9d1004fb6b33ada07050664b8e06a", "is_reserved": 0, "type": "electric_scooter", "rental_uris": {"ios": "https://dc.lft.to/lastmile_qr_scan", "android": "https://dc.lft.to/lastmile_qr_scan"}, "lat": 38.91545166666667, "lon": -77.01190716666666, "bike_id": "d6c9d1004fb6b33ada07050664b8e06a", "fusion_lat": 0.0, "is_disabled": 0, "fusion_lon": 0.0}, {"name": "f0d8e759641c0c11bc1864aff645a70f", "is_reserved": 0, "type": "electric_scooter", "rental_uris": {"ios": "https://dc.lft.to/lastmile_qr_scan", "android": "https://dc.lft.to/lastmile_qr_scan"}, "lat": 38.88589833333333, "lon": -77.017647, "bike_id": "f0d8e759641c0c11bc1864aff645a70f", "fusion_lat": 0.0, "is_disabled": 0, "fusion_lon": 0.0}, {"name": "554f171175cfe4a92abc39d1e972fc0a", "is_reserved": 0, "type": "electric_scooter", "rental_uris": {"ios": "https://dc.lft.to/lastmile_qr_scan", "android": "https://dc.lft.to/lastmile_qr_scan"}, "lat": 38.895541, "lon": -76.94881183333334, "bike_id": "554f171175cfe4a92abc39d1e972fc0a", "fusion_lat": 0.0, "is_disabled": 0, "fusion_lon": 0.0}, {"name": "608834a9d5f5606fb3e9050bf48530a2", "is_reserved": 0, "type": "electric_scooter", "rental_uris": {"ios": "https://dc.lft.to/lastmile_qr_scan", "android": "https://dc.lft.to/lastmile_qr_scan"}, "lat": 38.91494483333334, "lon": -77.0186315, "bike_id": "608834a9d5f5606fb3e9050bf48530a2", "fusion_lat": 0.0, "is_disabled": 0, "fusion_lon": 0.0}, {"name": "adfbd2c44b9a852dd63ad6426f091af4", "is_reserved": 0, "type": "electric_scooter", "rental_uris": {"ios": "https://dc.lft.to/lastmile_qr_scan", "android": "https://dc.lft.to/lastmile_qr_scan"}, "lat": 38.90512366666667, "lon": -77.04345266666667, "bike_id": "adfbd2c44b9a852dd63ad6426f091af4", "fusion_lat": 0.0, "is_disabled": 0, "fusion_lon": 0.0}, {"name": "9820bcf41d3e3707b372fcd55da03cd4", "is_reserved": 0, "type": "electric_scooter", "rental_uris": {"ios": "https://dc.lft.to/lastmile_qr_scan", "android": "https://dc.lft.to/lastmile_qr_scan"}, "lat": 38.91006, "lon": -77.04497166666667, "bike_id": "9820bcf41d3e3707b372fcd55da03cd4", "fusion_lat": 0.0, "is_disabled": 0, "fusion_lon": 0.0}, {"name": "3b8ee77b366554aec2a0fdd9d8c3486f", "is_reserved": 0, "type": "electric_scooter", "rental_uris": {"ios": "https://dc.lft.to/lastmile_qr_scan", "android": "https://dc.lft.to/lastmile_qr_scan"}, "lat": 38.9182585, "lon": -77.0588535, "bike_id": "3b8ee77b366554aec2a0fdd9d8c3486f", "fusion_lat": 0.0, "is_disabled": 0, "fusion_lon": 0.0}, {"name": "9581ed673ec508a9b11e0e4cc896f876", "is_reserved": 0, "type": "electric_scooter", "rental_uris": {"ios": "https://dc.lft.to/lastmile_qr_scan", "android": "https://dc.lft.to/lastmile_qr_scan"}, "lat": 38.902448666666665, "lon": -77.05340333333334, "bike_id": "9581ed673ec508a9b11e0e4cc896f876", "fusion_lat": 0.0, "is_disabled": 0, "fusion_lon": 0.0}, {"name": "fdacd573c377452eb80c9bb98b54177a", "is_reserved": 0, "type": "electric_scooter", "rental_uris": {"ios": "https://dc.lft.to/lastmile_qr_scan", "android": "https://dc.lft.to/lastmile_qr_scan"}, "lat": 38.919392, "lon": -77.0249345, "bike_id": "fdacd573c377452eb80c9bb98b54177a", "fusion_lat": 0.0, "is_disabled": 0, "fusion_lon": 0.0}, {"name": "80e4043246be4dd69684cacac262dda3", "is_reserved": 0, "type": "electric_scooter", "rental_uris": {"ios": "https://dc.lft.to/lastmile_qr_scan", "android": "https://dc.lft.to/lastmile_qr_scan"}, "lat": 38.90538183333334, "lon": -77.02170683333334, "bike_id": "80e4043246be4dd69684cacac262dda3", "fusion_lat": 0.0, "is_disabled": 0, "fusion_lon": 0.0}, {"name": "8ef8a6ed8257052115022d2dbf48cc94", "is_reserved": 0, "type": "electric_scooter", "rental_uris": {"ios": "https://dc.lft.to/lastmile_qr_scan", "android": "https://dc.lft.to/lastmile_qr_scan"}, "lat": 38.866992333333336, "lon": -76.98400933333333, "bike_id": "8ef8a6ed8257052115022d2dbf48cc94", "fusion_lat": 0.0, "is_disabled": 0, "fusion_lon": 0.0}, {"name": "403ee8938d205290861181dc6ab74ee2", "is_reserved": 0, "type": "electric_scooter", "rental_uris": {"ios": "https://dc.lft.to/lastmile_qr_scan", "android": "https://dc.lft.to/lastmile_qr_scan"}, "lat": 38.915561, "lon": -77.03325216666667, "bike_id": "403ee8938d205290861181dc6ab74ee2", "fusion_lat": 0.0, "is_disabled": 0, "fusion_lon": 0.0}, {"name": "080b4897e1bf2bd970212165987c3b82", "is_reserved": 0, "type": "electric_bike", "rental_uris": {"ios": "https://dc.lft.to/lastmile_qr_scan", "android": "https://dc.lft.to/lastmile_qr_scan"}, "lat": 38.99605316666667, "lon": -77.07797166666667, "bike_id": "080b4897e1bf2bd970212165987c3b82", "fusion_lat": 0.0, "is_disabled": 0, "fusion_lon": 0.0}, {"name": "523739203fc02b154ad2044f848c07a9", "is_reserved": 0, "type": "electric_bike", "rental_uris": {"ios": "https://dc.lft.to/lastmile_qr_scan", "android": "https://dc.lft.to/lastmile_qr_scan"}, "lat": 38.87374483333333, "lon": -77.11803083333334, "bike_id": "523739203fc02b154ad2044f848c07a9", "fusion_lat": 0.0, "is_disabled": 0, "fusion_lon": 0.0}, {"name": "e1e63cf93df855d2aa8969a76c079472", "is_reserved": 0, "type": "electric_bike", "rental_uris": {"ios": "https://dc.lft.to/lastmile_qr_scan", "android": "https://dc.lft.to/lastmile_qr_scan"}, "lat": 38.97791333333333, "lon": -77.09111883333334, "bike_id": "e1e63cf93df855d2aa8969a76c079472", "fusion_lat": 0.0, "is_disabled": 0, "fusion_lon": 0.0}, {"name": "638f3f0cb7f7949acd183838771d6c02", "is_reserved": 0, "type": "electric_scooter", "rental_uris": {"ios": "https://dc.lft.to/lastmile_qr_scan", "android": "https://dc.lft.to/lastmile_qr_scan"}, "lat": 38.900173333333335, "lon": -76.9992735, "bike_id": "638f3f0cb7f7949acd183838771d6c02", "fusion_lat": 0.0, "is_disabled": 0, "fusion_lon": 0.0}, {"name": "b4c7c51f3e516795f50abc78651cc34d", "is_reserved": 0, "type": "electric_scooter", "rental_uris": {"ios": "https://dc.lft.to/lastmile_qr_scan", "android": "https://dc.lft.to/lastmile_qr_scan"}, "lat": 38.880886333333336, "lon": -76.98533983333333, "bike_id": "b4c7c51f3e516795f50abc78651cc34d", "fusion_lat": 0.0, "is_disabled": 0, "fusion_lon": 0.0}, {"name": "15ba8a768913aa6bd530811850ebe27a", "is_reserved": 0, "type": "electric_scooter", "rental_uris": {"ios": "https://dc.lft.to/lastmile_qr_scan", "android": "https://dc.lft.to/lastmile_qr_scan"}, "lat": 38.90240216666667, "lon": -77.0020515, "bike_id": "15ba8a768913aa6bd530811850ebe27a", "fusion_lat": 0.0, "is_disabled": 0, "fusion_lon": 0.0}, {"name": "571e5044c4b4fce5a926a44dfc51dea4", "is_reserved": 0, "type": "electric_scooter", "rental_uris": {"ios": "https://dc.lft.to/lastmile_qr_scan", "android": "https://dc.lft.to/lastmile_qr_scan"}, "lat": 38.909600166666664, "lon": -77.02281216666667, "bike_id": "571e5044c4b4fce5a926a44dfc51dea4", "fusion_lat": 0.0, "is_disabled": 0, "fusion_lon": 0.0}, {"name": "0a3182bb4fbe6f67294b3f5cbf1a53af", "is_reserved": 0, "type": "electric_scooter", "rental_uris": {"ios": "https://dc.lft.to/lastmile_qr_scan", "android": "https://dc.lft.to/lastmile_qr_scan"}, "lat": 38.890139833333336, "lon": -76.93737866666666, "bike_id": "0a3182bb4fbe6f67294b3f5cbf1a53af", "fusion_lat": 0.0, "is_disabled": 0, "fusion_lon": 0.0}, {"name": "bc67cca282eb58e358cbb842051359f8", "is_reserved": 0, "type": "electric_scooter", "rental_uris": {"ios": "https://dc.lft.to/lastmile_qr_scan", "android": "https://dc.lft.to/lastmile_qr_scan"}, "lat": 38.910288666666666, "lon": -76.99728233333333, "bike_id": "bc67cca282eb58e358cbb842051359f8", "fusion_lat": 0.0, "is_disabled": 0, "fusion_lon": 0.0}, {"name": "3005ce8fb2598c8bb25856b64000244f", "is_reserved": 0, "type": "electric_scooter", "rental_uris": {"ios": "https://dc.lft.to/lastmile_qr_scan", "android": "https://dc.lft.to/lastmile_qr_scan"}, "lat": 38.91594966666667, "lon": -77.01132516666667, "bike_id": "3005ce8fb2598c8bb25856b64000244f", "fusion_lat": 0.0, "is_disabled": 0, "fusion_lon": 0.0}, {"name": "8fff94b0f25a079ccfd9612c25229293", "is_reserved": 0, "type": "electric_scooter", "rental_uris": {"ios": "https://dc.lft.to/lastmile_qr_scan", "android": "https://dc.lft.to/lastmile_qr_scan"}, "lat": 38.91684266666667, "lon": -77.0229155, "bike_id": "8fff94b0f25a079ccfd9612c25229293", "fusion_lat": 0.0, "is_disabled": 0, "fusion_lon": 0.0}, {"name": "2f2f69f3c27d84c3f0e2805fb44151eb", "is_reserved": 0, "type": "electric_scooter", "rental_uris": {"ios": "https://dc.lft.to/lastmile_qr_scan", "android": "https://dc.lft.to/lastmile_qr_scan"}, "lat": 38.934544833333334, "lon": -77.02976516666666, "bike_id": "2f2f69f3c27d84c3f0e2805fb44151eb", "fusion_lat": 0.0, "is_disabled": 0, "fusion_lon": 0.0}, {"name": "b3e9ab92eb9107c80b5f3093bfb2e468", "is_reserved": 0, "type": "electric_scooter", "rental_uris": {"ios": "https://dc.lft.to/lastmile_qr_scan", "android": "https://dc.lft.to/lastmile_qr_scan"}, "lat": 38.9112535, "lon": -77.04039433333334, "bike_id": "b3e9ab92eb9107c80b5f3093bfb2e468", "fusion_lat": 0.0, "is_disabled": 0, "fusion_lon": 0.0}, {"name": "4860df84bc4f0bcb6a17032483afe054", "is_reserved": 0, "type": "electric_scooter", "rental_uris": {"ios": "https://dc.lft.to/lastmile_qr_scan", "android": "https://dc.lft.to/lastmile_qr_scan"}, "lat": 38.91702466666667, "lon": -77.033536, "bike_id": "4860df84bc4f0bcb6a17032483afe054", "fusion_lat": 0.0, "is_disabled": 0, "fusion_lon": 0.0}, {"name": "7953a57f273613d0c6398a52fca3625a", "is_reserved": 0, "type": "electric_bike", "rental_uris": {"ios": "https://dc.lft.to/lastmile_qr_scan", "android": "https://dc.lft.to/lastmile_qr_scan"}, "lat": 38.95355166666667, "lon": -76.98093583333333, "bike_id": "7953a57f273613d0c6398a52fca3625a", "fusion_lat": 0.0, "is_disabled": 0, "fusion_lon": 0.0}, {"name": "32f12d093b9f4e5c1bf4e7d66ef4f0f3", "is_reserved": 0, "type": "electric_scooter", "rental_uris": {"ios": "https://dc.lft.to/lastmile_qr_scan", "android": "https://dc.lft.to/lastmile_qr_scan"}, "lat": 38.876152833333336, "lon": -76.931316, "bike_id": "32f12d093b9f4e5c1bf4e7d66ef4f0f3", "fusion_lat": 0.0, "is_disabled": 0, "fusion_lon": 0.0}, {"name": "1661dcb39d7bed33f3680b1dd25feb5b", "is_reserved": 0, "type": "electric_scooter", "rental_uris": {"ios": "https://dc.lft.to/lastmile_qr_scan", "android": "https://dc.lft.to/lastmile_qr_scan"}, "lat": 38.92667, "lon": -76.99545783333333, "bike_id": "1661dcb39d7bed33f3680b1dd25feb5b", "fusion_lat": 0.0, "is_disabled": 0, "fusion_lon": 0.0}, {"name": "5d144d4c4bf5f2a403695ac61539b919", "is_reserved": 0, "type": "electric_scooter", "rental_uris": {"ios": "https://dc.lft.to/lastmile_qr_scan", "android": "https://dc.lft.to/lastmile_qr_scan"}, "lat": 38.91519016666667, "lon": -77.01980333333333, "bike_id": "5d144d4c4bf5f2a403695ac61539b919", "fusion_lat": 0.0, "is_disabled": 0, "fusion_lon": 0.0}, {"name": "63c8d768c1676b2a1fbc0739ca73e830", "is_reserved": 0, "type": "electric_scooter", "rental_uris": {"ios": "https://dc.lft.to/lastmile_qr_scan", "android": "https://dc.lft.to/lastmile_qr_scan"}, "lat": 38.91819483333333, "lon": -77.036731, "bike_id": "63c8d768c1676b2a1fbc0739ca73e830", "fusion_lat": 0.0, "is_disabled": 0, "fusion_lon": 0.0}, {"name": "e4c5350251effec61dc03c3d6f13b92e", "is_reserved": 0, "type": "electric_scooter", "rental_uris": {"ios": "https://dc.lft.to/lastmile_qr_scan", "android": "https://dc.lft.to/lastmile_qr_scan"}, "lat": 38.9422715, "lon": -77.0255025, "bike_id": "e4c5350251effec61dc03c3d6f13b92e", "fusion_lat": 0.0, "is_disabled": 0, "fusion_lon": 0.0}, {"name": "1f53db852a4618c816b03b42b99fca0e", "is_reserved": 0, "type": "electric_scooter", "rental_uris": {"ios": "https://dc.lft.to/lastmile_qr_scan", "android": "https://dc.lft.to/lastmile_qr_scan"}, "lat": 38.9096455, "lon": -77.01445016666666, "bike_id": "1f53db852a4618c816b03b42b99fca0e", "fusion_lat": 0.0, "is_disabled": 0, "fusion_lon": 0.0}, {"name": "d34222f2e3a78ecbadf51e5b64a6eace", "is_reserved": 0, "type": "electric_scooter", "rental_uris": {"ios": "https://dc.lft.to/lastmile_qr_scan", "android": "https://dc.lft.to/lastmile_qr_scan"}, "lat": 38.89846266666667, "lon": -77.03962416666667, "bike_id": "d34222f2e3a78ecbadf51e5b64a6eace", "fusion_lat": 0.0, "is_disabled": 0, "fusion_lon": 0.0}, {"name": "9453beaf8722f9b671aa6224bcf05a71", "is_reserved": 0, "type": "electric_scooter", "rental_uris": {"ios": "https://dc.lft.to/lastmile_qr_scan", "android": "https://dc.lft.to/lastmile_qr_scan"}, "lat": 38.874980666666666, "lon": -77.00080233333334, "bike_id": "9453beaf8722f9b671aa6224bcf05a71", "fusion_lat": 0.0, "is_disabled": 0, "fusion_lon": 0.0}, {"name": "a7fe475b070f8f0520b8a35709e9297a", "is_reserved": 0, "type": "electric_bike", "rental_uris": {"ios": "https://dc.lft.to/lastmile_qr_scan", "android": "https://dc.lft.to/lastmile_qr_scan"}, "lat": 38.850406666666665, "lon": -77.0978755, "bike_id": "a7fe475b070f8f0520b8a35709e9297a", "fusion_lat": 0.0, "is_disabled": 0, "fusion_lon": 0.0}, {"name": "cb8c008d112c3595fed7d749ff1f0cf2", "is_reserved": 0, "type": "electric_scooter", "rental_uris": {"ios": "https://dc.lft.to/lastmile_qr_scan", "android": "https://dc.lft.to/lastmile_qr_scan"}, "lat": 38.9232345, "lon": -77.03914516666667, "bike_id": "cb8c008d112c3595fed7d749ff1f0cf2", "fusion_lat": 0.0, "is_disabled": 0, "fusion_lon": 0.0}, {"name": "401e792348f6b30003acc11938c1fd65", "is_reserved": 0, "type": "electric_scooter", "rental_uris": {"ios": "https://dc.lft.to/lastmile_qr_scan", "android": "https://dc.lft.to/lastmile_qr_scan"}, "lat": 38.8983705, "lon": -77.0486155, "bike_id": "401e792348f6b30003acc11938c1fd65", "fusion_lat": 0.0, "is_disabled": 0, "fusion_lon": 0.0}, {"name": "edf9b0d4da3380abaadc1725590c09e3", "is_reserved": 0, "type": "electric_scooter", "rental_uris": {"ios": "https://dc.lft.to/lastmile_qr_scan", "android": "https://dc.lft.to/lastmile_qr_scan"}, "lat": 38.915857333333335, "lon": -77.04701316666667, "bike_id": "edf9b0d4da3380abaadc1725590c09e3", "fusion_lat": 0.0, "is_disabled": 0, "fusion_lon": 0.0}, {"name": "ef2e12a7c31c142b75d5fad18411f32b", "is_reserved": 0, "type": "electric_scooter", "rental_uris": {"ios": "https://dc.lft.to/lastmile_qr_scan", "android": "https://dc.lft.to/lastmile_qr_scan"}, "lat": 38.932773833333336, "lon": -77.034948, "bike_id": "ef2e12a7c31c142b75d5fad18411f32b", "fusion_lat": 0.0, "is_disabled": 0, "fusion_lon": 0.0}, {"name": "bba424bdc70d8add52db96100e48fd5c", "is_reserved": 0, "type": "electric_scooter", "rental_uris": {"ios": "https://dc.lft.to/lastmile_qr_scan", "android": "https://dc.lft.to/lastmile_qr_scan"}, "lat": 38.896569666666664, "lon": -77.02629166666667, "bike_id": "bba424bdc70d8add52db96100e48fd5c", "fusion_lat": 0.0, "is_disabled": 0, "fusion_lon": 0.0}, {"name": "4df8258e8845d9a464cbe57563cfee8a", "is_reserved": 0, "type": "electric_scooter", "rental_uris": {"ios": "https://dc.lft.to/lastmile_qr_scan", "android": "https://dc.lft.to/lastmile_qr_scan"}, "lat": 38.862613833333334, "lon": -76.995492, "bike_id": "4df8258e8845d9a464cbe57563cfee8a", "fusion_lat": 0.0, "is_disabled": 0, "fusion_lon": 0.0}, {"name": "9ef0ff70d308cb1adff9c8be160ad428", "is_reserved": 0, "type": "electric_scooter", "rental_uris": {"ios": "https://dc.lft.to/lastmile_qr_scan", "android": "https://dc.lft.to/lastmile_qr_scan"}, "lat": 38.88707433333333, "lon": -77.01368966666666, "bike_id": "9ef0ff70d308cb1adff9c8be160ad428", "fusion_lat": 0.0, "is_disabled": 0, "fusion_lon": 0.0}, {"name": "79036f1e004a11e07e3e1432ba1ac33a", "is_reserved": 0, "type": "electric_scooter", "rental_uris": {"ios": "https://dc.lft.to/lastmile_qr_scan", "android": "https://dc.lft.to/lastmile_qr_scan"}, "lat": 38.9272645, "lon": -77.02288166666666, "bike_id": "79036f1e004a11e07e3e1432ba1ac33a", "fusion_lat": 0.0, "is_disabled": 0, "fusion_lon": 0.0}, {"name": "fd8ef3a2a6eb9f9f1b68b8bd806b889d", "is_reserved": 0, "type": "electric_scooter", "rental_uris": {"ios": "https://dc.lft.to/lastmile_qr_scan", "android": "https://dc.lft.to/lastmile_qr_scan"}, "lat": 38.88451833333333, "lon": -76.95100833333333, "bike_id": "fd8ef3a2a6eb9f9f1b68b8bd806b889d", "fusion_lat": 0.0, "is_disabled": 0, "fusion_lon": 0.0}, {"name": "080978d1e2f76f04660f4cfc396713a6", "is_reserved": 0, "type": "electric_scooter", "rental_uris": {"ios": "https://dc.lft.to/lastmile_qr_scan", "android": "https://dc.lft.to/lastmile_qr_scan"}, "lat": 38.92018616666667, "lon": -77.01816716666667, "bike_id": "080978d1e2f76f04660f4cfc396713a6", "fusion_lat": 0.0, "is_disabled": 0, "fusion_lon": 0.0}, {"name": "9ca4c24b66cf01035082b95d15e606b4", "is_reserved": 0, "type": "electric_scooter", "rental_uris": {"ios": "https://dc.lft.to/lastmile_qr_scan", "android": "https://dc.lft.to/lastmile_qr_scan"}, "lat": 38.90795933333333, "lon": -77.04349666666667, "bike_id": "9ca4c24b66cf01035082b95d15e606b4", "fusion_lat": 0.0, "is_disabled": 0, "fusion_lon": 0.0}, {"name": "e283d9a3671eb5126c22483101044970", "is_reserved": 0, "type": "electric_scooter", "rental_uris": {"ios": "https://dc.lft.to/lastmile_qr_scan", "android": "https://dc.lft.to/lastmile_qr_scan"}, "lat": 38.912544833333335, "lon": -77.03829283333333, "bike_id": "e283d9a3671eb5126c22483101044970", "fusion_lat": 0.0, "is_disabled": 0, "fusion_lon": 0.0}, {"name": "a582591ef9ec79d1a69323268ef23983", "is_reserved": 0, "type": "electric_scooter", "rental_uris": {"ios": "https://dc.lft.to/lastmile_qr_scan", "android": "https://dc.lft.to/lastmile_qr_scan"}, "lat": 38.92176833333333, "lon": -77.04224383333333, "bike_id": "a582591ef9ec79d1a69323268ef23983", "fusion_lat": 0.0, "is_disabled": 0, "fusion_lon": 0.0}, {"name": "6c306e24456d686d68db35eaf1cddf7f", "is_reserved": 0, "type": "electric_scooter", "rental_uris": {"ios": "https://dc.lft.to/lastmile_qr_scan", "android": "https://dc.lft.to/lastmile_qr_scan"}, "lat": 38.923476, "lon": -77.03506383333334, "bike_id": "6c306e24456d686d68db35eaf1cddf7f", "fusion_lat": 0.0, "is_disabled": 0, "fusion_lon": 0.0}, {"name": "58b2ec99793f787d1506c2865077c905", "is_reserved": 0, "type": "electric_bike", "rental_uris": {"ios": "https://dc.lft.to/lastmile_qr_scan", "android": "https://dc.lft.to/lastmile_qr_scan"}, "lat": 38.870993, "lon": -77.0120885, "bike_id": "58b2ec99793f787d1506c2865077c905", "fusion_lat": 0.0, "is_disabled": 0, "fusion_lon": 0.0}, {"name": "2db642b13c4bfcafef694db069c19bd9", "is_reserved": 0, "type": "electric_bike", "rental_uris": {"ios": "https://dc.lft.to/lastmile_qr_scan", "android": "https://dc.lft.to/lastmile_qr_scan"}, "lat": 38.841034, "lon": -77.08942916666666, "bike_id": "2db642b13c4bfcafef694db069c19bd9", "fusion_lat": 0.0, "is_disabled": 0, "fusion_lon": 0.0}, {"name": "de05f1723e5f4d9ae2e6730776802349", "is_reserved": 0, "type": "electric_scooter", "rental_uris": {"ios": "https://dc.lft.to/lastmile_qr_scan", "android": "https://dc.lft.to/lastmile_qr_scan"}, "lat": 38.920028333333335, "lon": -77.0240545, "bike_id": "de05f1723e5f4d9ae2e6730776802349", "fusion_lat": 0.0, "is_disabled": 0, "fusion_lon": 0.0}, {"name": "f6b6a409c12f93d7127b186bee20c499", "is_reserved": 0, "type": "electric_scooter", "rental_uris": {"ios": "https://dc.lft.to/lastmile_qr_scan", "android": "https://dc.lft.to/lastmile_qr_scan"}, "lat": 38.90050316666667, "lon": -77.00067516666667, "bike_id": "f6b6a409c12f93d7127b186bee20c499", "fusion_lat": 0.0, "is_disabled": 0, "fusion_lon": 0.0}, {"name": "1386c2c3f59f1168510197aadca4e3c1", "is_reserved": 0, "type": "electric_scooter", "rental_uris": {"ios": "https://dc.lft.to/lastmile_qr_scan", "android": "https://dc.lft.to/lastmile_qr_scan"}, "lat": 38.899213833333334, "lon": -76.93363933333333, "bike_id": "1386c2c3f59f1168510197aadca4e3c1", "fusion_lat": 0.0, "is_disabled": 0, "fusion_lon": 0.0}, {"name": "73293b06246dc7d24a9e076e4740478a", "is_reserved": 0, "type": "electric_scooter", "rental_uris": {"ios": "https://dc.lft.to/lastmile_qr_scan", "android": "https://dc.lft.to/lastmile_qr_scan"}, "lat": 38.90985333333333, "lon": -77.032592, "bike_id": "73293b06246dc7d24a9e076e4740478a", "fusion_lat": 0.0, "is_disabled": 0, "fusion_lon": 0.0}, {"name": "5dda814d7e0a77edf2bc31cbb33a8eb5", "is_reserved": 0, "type": "electric_scooter", "rental_uris": {"ios": "https://dc.lft.to/lastmile_qr_scan", "android": "https://dc.lft.to/lastmile_qr_scan"}, "lat": 38.89528816666667, "lon": -77.03204183333334, "bike_id": "5dda814d7e0a77edf2bc31cbb33a8eb5", "fusion_lat": 0.0, "is_disabled": 0, "fusion_lon": 0.0}, {"name": "6591e7391f838f6a8befbe8e69e62503", "is_reserved": 0, "type": "electric_scooter", "rental_uris": {"ios": "https://dc.lft.to/lastmile_qr_scan", "android": "https://dc.lft.to/lastmile_qr_scan"}, "lat": 38.86261416666667, "lon": -76.9954895, "bike_id": "6591e7391f838f6a8befbe8e69e62503", "fusion_lat": 0.0, "is_disabled": 0, "fusion_lon": 0.0}, {"name": "2c6a8094428aa14c88f464a9c520f662", "is_reserved": 0, "type": "electric_bike", "rental_uris": {"ios": "https://dc.lft.to/lastmile_qr_scan", "android": "https://dc.lft.to/lastmile_qr_scan"}, "lat": 38.95123016666667, "lon": -76.969289, "bike_id": "2c6a8094428aa14c88f464a9c520f662", "fusion_lat": 0.0, "is_disabled": 0, "fusion_lon": 0.0}, {"name": "b058a9056eb67bc80e1b15f99ce264ac", "is_reserved": 0, "type": "electric_bike", "rental_uris": {"ios": "https://dc.lft.to/lastmile_qr_scan", "android": "https://dc.lft.to/lastmile_qr_scan"}, "lat": 38.91016916666667, "lon": -77.22807, "bike_id": "b058a9056eb67bc80e1b15f99ce264ac", "fusion_lat": 0.0, "is_disabled": 0, "fusion_lon": 0.0}, {"name": "3671f937ef8cb2760510aaa1e45d1e7c", "is_reserved": 0, "type": "electric_bike", "rental_uris": {"ios": "https://dc.lft.to/lastmile_qr_scan", "android": "https://dc.lft.to/lastmile_qr_scan"}, "lat": 38.838128166666664, "lon": -77.095253, "bike_id": "3671f937ef8cb2760510aaa1e45d1e7c", "fusion_lat": 0.0, "is_disabled": 0, "fusion_lon": 0.0}, {"name": "f4337737b5116bbe8118f376ea4d7ee2", "is_reserved": 0, "type": "electric_scooter", "rental_uris": {"ios": "https://dc.lft.to/lastmile_qr_scan", "android": "https://dc.lft.to/lastmile_qr_scan"}, "lat": 38.903632, "lon": -77.04337833333334, "bike_id": "f4337737b5116bbe8118f376ea4d7ee2", "fusion_lat": 0.0, "is_disabled": 0, "fusion_lon": 0.0}, {"name": "d644d767a343f1c69466d81cef515abf", "is_reserved": 0, "type": "electric_scooter", "rental_uris": {"ios": "https://dc.lft.to/lastmile_qr_scan", "android": "https://dc.lft.to/lastmile_qr_scan"}, "lat": 38.905737333333335, "lon": -77.04292433333333, "bike_id": "d644d767a343f1c69466d81cef515abf", "fusion_lat": 0.0, "is_disabled": 0, "fusion_lon": 0.0}, {"name": "155d7eb7a2595a05ad3e93d37f9329ab", "is_reserved": 0, "type": "electric_scooter", "rental_uris": {"ios": "https://dc.lft.to/lastmile_qr_scan", "android": "https://dc.lft.to/lastmile_qr_scan"}, "lat": 38.9749855, "lon": -77.016985, "bike_id": "155d7eb7a2595a05ad3e93d37f9329ab", "fusion_lat": 0.0, "is_disabled": 0, "fusion_lon": 0.0}, {"name": "d2ac3298c205629d7e386611d66ce822", "is_reserved": 0, "type": "electric_scooter", "rental_uris": {"ios": "https://dc.lft.to/lastmile_qr_scan", "android": "https://dc.lft.to/lastmile_qr_scan"}, "lat": 38.910516333333334, "lon": -77.0409165, "bike_id": "d2ac3298c205629d7e386611d66ce822", "fusion_lat": 0.0, "is_disabled": 0, "fusion_lon": 0.0}, {"name": "c0022395c19646c2597f4a1cd89488e4", "is_reserved": 0, "type": "electric_scooter", "rental_uris": {"ios": "https://dc.lft.to/lastmile_qr_scan", "android": "https://dc.lft.to/lastmile_qr_scan"}, "lat": 38.8907435, "lon": -76.98830483333333, "bike_id": "c0022395c19646c2597f4a1cd89488e4", "fusion_lat": 0.0, "is_disabled": 0, "fusion_lon": 0.0}, {"name": "309183bfe719429e2417204336686653", "is_reserved": 0, "type": "electric_scooter", "rental_uris": {"ios": "https://dc.lft.to/lastmile_qr_scan", "android": "https://dc.lft.to/lastmile_qr_scan"}, "lat": 38.9209245, "lon": -77.02422433333334, "bike_id": "309183bfe719429e2417204336686653", "fusion_lat": 0.0, "is_disabled": 0, "fusion_lon": 0.0}, {"name": "2fafc4531488c2924268188c73a37a96", "is_reserved": 0, "type": "electric_scooter", "rental_uris": {"ios": "https://dc.lft.to/lastmile_qr_scan", "android": "https://dc.lft.to/lastmile_qr_scan"}, "lat": 38.9110865, "lon": -77.04830316666667, "bike_id": "2fafc4531488c2924268188c73a37a96", "fusion_lat": 0.0, "is_disabled": 0, "fusion_lon": 0.0}, {"name": "c2d763f01c17e6df511e7cf60cceb558", "is_reserved": 0, "type": "electric_scooter", "rental_uris": {"ios": "https://dc.lft.to/lastmile_qr_scan", "android": "https://dc.lft.to/lastmile_qr_scan"}, "lat": 38.8950245, "lon": -77.0111485, "bike_id": "c2d763f01c17e6df511e7cf60cceb558", "fusion_lat": 0.0, "is_disabled": 0, "fusion_lon": 0.0}, {"name": "db8ac34459622b44c394386cb2a518cb", "is_reserved": 0, "type": "electric_scooter", "rental_uris": {"ios": "https://dc.lft.to/lastmile_qr_scan", "android": "https://dc.lft.to/lastmile_qr_scan"}, "lat": 38.912623833333335, "lon": -77.040003, "bike_id": "db8ac34459622b44c394386cb2a518cb", "fusion_lat": 0.0, "is_disabled": 0, "fusion_lon": 0.0}, {"name": "609807a6924d91a256e942ccebb6dff9", "is_reserved": 0, "type": "electric_scooter", "rental_uris": {"ios": "https://dc.lft.to/lastmile_qr_scan", "android": "https://dc.lft.to/lastmile_qr_scan"}, "lat": 38.915529666666664, "lon": -77.0297475, "bike_id": "609807a6924d91a256e942ccebb6dff9", "fusion_lat": 0.0, "is_disabled": 0, "fusion_lon": 0.0}, {"name": "849c1d72702f9343f992ca2767e593c0", "is_reserved": 0, "type": "electric_scooter", "rental_uris": {"ios": "https://dc.lft.to/lastmile_qr_scan", "android": "https://dc.lft.to/lastmile_qr_scan"}, "lat": 38.90089416666667, "lon": -77.05067383333333, "bike_id": "849c1d72702f9343f992ca2767e593c0", "fusion_lat": 0.0, "is_disabled": 0, "fusion_lon": 0.0}, {"name": "799ad68c3a8840a9335751aaf38151d0", "is_reserved": 0, "type": "electric_scooter", "rental_uris": {"ios": "https://dc.lft.to/lastmile_qr_scan", "android": "https://dc.lft.to/lastmile_qr_scan"}, "lat": 38.957242666666666, "lon": -77.00237683333333, "bike_id": "799ad68c3a8840a9335751aaf38151d0", "fusion_lat": 0.0, "is_disabled": 0, "fusion_lon": 0.0}, {"name": "ff21314020d5539bb30a578ec8b56c5e", "is_reserved": 0, "type": "electric_scooter", "rental_uris": {"ios": "https://dc.lft.to/lastmile_qr_scan", "android": "https://dc.lft.to/lastmile_qr_scan"}, "lat": 38.914281, "lon": -77.032112, "bike_id": "ff21314020d5539bb30a578ec8b56c5e", "fusion_lat": 0.0, "is_disabled": 0, "fusion_lon": 0.0}, {"name": "445c4fce49275feeb6abe68d91061095", "is_reserved": 0, "type": "electric_scooter", "rental_uris": {"ios": "https://dc.lft.to/lastmile_qr_scan", "android": "https://dc.lft.to/lastmile_qr_scan"}, "lat": 38.92112916666667, "lon": -76.994103, "bike_id": "445c4fce49275feeb6abe68d91061095", "fusion_lat": 0.0, "is_disabled": 0, "fusion_lon": 0.0}, {"name": "37f05d7452a57cc402ab3a3259040e6d", "is_reserved": 0, "type": "electric_scooter", "rental_uris": {"ios": "https://dc.lft.to/lastmile_qr_scan", "android": "https://dc.lft.to/lastmile_qr_scan"}, "lat": 38.8808245, "lon": -77.0256915, "bike_id": "37f05d7452a57cc402ab3a3259040e6d", "fusion_lat": 0.0, "is_disabled": 0, "fusion_lon": 0.0}, {"name": "16e2026ed35926c3d7d3d973185e0fcf", "is_reserved": 0, "type": "electric_scooter", "rental_uris": {"ios": "https://dc.lft.to/lastmile_qr_scan", "android": "https://dc.lft.to/lastmile_qr_scan"}, "lat": 38.966291, "lon": -77.019989, "bike_id": "16e2026ed35926c3d7d3d973185e0fcf", "fusion_lat": 0.0, "is_disabled": 0, "fusion_lon": 0.0}, {"name": "4e0c19bc58cbec54b51e77ea146b0908", "is_reserved": 0, "type": "electric_scooter", "rental_uris": {"ios": "https://dc.lft.to/lastmile_qr_scan", "android": "https://dc.lft.to/lastmile_qr_scan"}, "lat": 38.86349233333333, "lon": -76.97910516666667, "bike_id": "4e0c19bc58cbec54b51e77ea146b0908", "fusion_lat": 0.0, "is_disabled": 0, "fusion_lon": 0.0}, {"name": "42008c4fe5009919e96adc9900d51385", "is_reserved": 0, "type": "electric_scooter", "rental_uris": {"ios": "https://dc.lft.to/lastmile_qr_scan", "android": "https://dc.lft.to/lastmile_qr_scan"}, "lat": 38.90286183333333, "lon": -76.9819975, "bike_id": "42008c4fe5009919e96adc9900d51385", "fusion_lat": 0.0, "is_disabled": 0, "fusion_lon": 0.0}, {"name": "163d81ec7c8df8adc05afbcfd7bce827", "is_reserved": 0, "type": "electric_scooter", "rental_uris": {"ios": "https://dc.lft.to/lastmile_qr_scan", "android": "https://dc.lft.to/lastmile_qr_scan"}, "lat": 38.896693166666665, "lon": -77.03225866666666, "bike_id": "163d81ec7c8df8adc05afbcfd7bce827", "fusion_lat": 0.0, "is_disabled": 0, "fusion_lon": 0.0}, {"name": "9591f4575b5717cf58b9b8bd4eff4b6b", "is_reserved": 0, "type": "electric_scooter", "rental_uris": {"ios": "https://dc.lft.to/lastmile_qr_scan", "android": "https://dc.lft.to/lastmile_qr_scan"}, "lat": 38.88119866666667, "lon": -77.00053716666666, "bike_id": "9591f4575b5717cf58b9b8bd4eff4b6b", "fusion_lat": 0.0, "is_disabled": 0, "fusion_lon": 0.0}, {"name": "bc07dc0a252daf7ca8269deb362f27e7", "is_reserved": 0, "type": "electric_scooter", "rental_uris": {"ios": "https://dc.lft.to/lastmile_qr_scan", "android": "https://dc.lft.to/lastmile_qr_scan"}, "lat": 38.900340166666666, "lon": -77.005513, "bike_id": "bc07dc0a252daf7ca8269deb362f27e7", "fusion_lat": 0.0, "is_disabled": 0, "fusion_lon": 0.0}, {"name": "1c2a4a5a528c437dc776fa511b1ab4be", "is_reserved": 0, "type": "electric_scooter", "rental_uris": {"ios": "https://dc.lft.to/lastmile_qr_scan", "android": "https://dc.lft.to/lastmile_qr_scan"}, "lat": 38.89908783333333, "lon": -76.93354266666667, "bike_id": "1c2a4a5a528c437dc776fa511b1ab4be", "fusion_lat": 0.0, "is_disabled": 0, "fusion_lon": 0.0}, {"name": "f2806c5a0310086582bafbe2f406779b", "is_reserved": 0, "type": "electric_scooter", "rental_uris": {"ios": "https://dc.lft.to/lastmile_qr_scan", "android": "https://dc.lft.to/lastmile_qr_scan"}, "lat": 38.9227295, "lon": -77.019836, "bike_id": "f2806c5a0310086582bafbe2f406779b", "fusion_lat": 0.0, "is_disabled": 0, "fusion_lon": 0.0}, {"name": "2dbceab87b0599a68e77f94372bc1ec9", "is_reserved": 0, "type": "electric_scooter", "rental_uris": {"ios": "https://dc.lft.to/lastmile_qr_scan", "android": "https://dc.lft.to/lastmile_qr_scan"}, "lat": 38.95429583333333, "lon": -77.02764933333333, "bike_id": "2dbceab87b0599a68e77f94372bc1ec9", "fusion_lat": 0.0, "is_disabled": 0, "fusion_lon": 0.0}, {"name": "0a0a214916ee1e05fad9cdcb04a72f06", "is_reserved": 0, "type": "electric_scooter", "rental_uris": {"ios": "https://dc.lft.to/lastmile_qr_scan", "android": "https://dc.lft.to/lastmile_qr_scan"}, "lat": 38.91592766666667, "lon": -77.01214716666667, "bike_id": "0a0a214916ee1e05fad9cdcb04a72f06", "fusion_lat": 0.0, "is_disabled": 0, "fusion_lon": 0.0}, {"name": "e035f054803a2c2609acda8cb190a565", "is_reserved": 0, "type": "electric_scooter", "rental_uris": {"ios": "https://dc.lft.to/lastmile_qr_scan", "android": "https://dc.lft.to/lastmile_qr_scan"}, "lat": 38.91837916666667, "lon": -77.04030683333333, "bike_id": "e035f054803a2c2609acda8cb190a565", "fusion_lat": 0.0, "is_disabled": 0, "fusion_lon": 0.0}, {"name": "32ec2d80980fa6ee191d90a99aa270b8", "is_reserved": 0, "type": "electric_scooter", "rental_uris": {"ios": "https://dc.lft.to/lastmile_qr_scan", "android": "https://dc.lft.to/lastmile_qr_scan"}, "lat": 38.9047795, "lon": -77.04883216666667, "bike_id": "32ec2d80980fa6ee191d90a99aa270b8", "fusion_lat": 0.0, "is_disabled": 0, "fusion_lon": 0.0}, {"name": "3e394c5e8339f0a55e5ade207bf451ae", "is_reserved": 0, "type": "electric_scooter", "rental_uris": {"ios": "https://dc.lft.to/lastmile_qr_scan", "android": "https://dc.lft.to/lastmile_qr_scan"}, "lat": 38.91761066666667, "lon": -77.03937966666666, "bike_id": "3e394c5e8339f0a55e5ade207bf451ae", "fusion_lat": 0.0, "is_disabled": 0, "fusion_lon": 0.0}, {"name": "081422cbd340d5c3238807daf1f5a984", "is_reserved": 0, "type": "electric_scooter", "rental_uris": {"ios": "https://dc.lft.to/lastmile_qr_scan", "android": "https://dc.lft.to/lastmile_qr_scan"}, "lat": 38.91722516666667, "lon": -77.04398683333334, "bike_id": "081422cbd340d5c3238807daf1f5a984", "fusion_lat": 0.0, "is_disabled": 0, "fusion_lon": 0.0}, {"name": "dbb8a419309aae6e49f109ed9713f3b4", "is_reserved": 0, "type": "electric_scooter", "rental_uris": {"ios": "https://dc.lft.to/lastmile_qr_scan", "android": "https://dc.lft.to/lastmile_qr_scan"}, "lat": 38.918419666666665, "lon": -77.01204833333334, "bike_id": "dbb8a419309aae6e49f109ed9713f3b4", "fusion_lat": 0.0, "is_disabled": 0, "fusion_lon": 0.0}, {"name": "cf03781ea33c30dc213921b265dd3968", "is_reserved": 0, "type": "electric_scooter", "rental_uris": {"ios": "https://dc.lft.to/lastmile_qr_scan", "android": "https://dc.lft.to/lastmile_qr_scan"}, "lat": 38.916939, "lon": -77.02887433333333, "bike_id": "cf03781ea33c30dc213921b265dd3968", "fusion_lat": 0.0, "is_disabled": 0, "fusion_lon": 0.0}, {"name": "25cf2fd4de501144d99e8df4b93fae9c", "is_reserved": 0, "type": "electric_scooter", "rental_uris": {"ios": "https://dc.lft.to/lastmile_qr_scan", "android": "https://dc.lft.to/lastmile_qr_scan"}, "lat": 38.90373733333333, "lon": -77.04332583333333, "bike_id": "25cf2fd4de501144d99e8df4b93fae9c", "fusion_lat": 0.0, "is_disabled": 0, "fusion_lon": 0.0}, {"name": "0a1bd4e81eb4baa8055fead60d27e6a7", "is_reserved": 0, "type": "electric_scooter", "rental_uris": {"ios": "https://dc.lft.to/lastmile_qr_scan", "android": "https://dc.lft.to/lastmile_qr_scan"}, "lat": 38.93360033333333, "lon": -77.041288, "bike_id": "0a1bd4e81eb4baa8055fead60d27e6a7", "fusion_lat": 0.0, "is_disabled": 0, "fusion_lon": 0.0}, {"name": "38d48d8b65e3862fa8d782d52826a884", "is_reserved": 0, "type": "electric_scooter", "rental_uris": {"ios": "https://dc.lft.to/lastmile_qr_scan", "android": "https://dc.lft.to/lastmile_qr_scan"}, "lat": 38.87714283333333, "lon": -76.963662, "bike_id": "38d48d8b65e3862fa8d782d52826a884", "fusion_lat": 0.0, "is_disabled": 0, "fusion_lon": 0.0}, {"name": "bf5ee8c277b25ed846f84c6530c2899a", "is_reserved": 0, "type": "electric_bike", "rental_uris": {"ios": "https://dc.lft.to/lastmile_qr_scan", "android": "https://dc.lft.to/lastmile_qr_scan"}, "lat": 38.919162666666665, "lon": -77.03207133333333, "bike_id": "bf5ee8c277b25ed846f84c6530c2899a", "fusion_lat": 0.0, "is_disabled": 0, "fusion_lon": 0.0}, {"name": "1e124c7dd5ad864e6fb38d315d3c46f7", "is_reserved": 0, "type": "electric_scooter", "rental_uris": {"ios": "https://dc.lft.to/lastmile_qr_scan", "android": "https://dc.lft.to/lastmile_qr_scan"}, "lat": 38.90109733333333, "lon": -77.048749, "bike_id": "1e124c7dd5ad864e6fb38d315d3c46f7", "fusion_lat": 0.0, "is_disabled": 0, "fusion_lon": 0.0}, {"name": "917b3150bab3ddd5720125a5a0b161ea", "is_reserved": 0, "type": "electric_scooter", "rental_uris": {"ios": "https://dc.lft.to/lastmile_qr_scan", "android": "https://dc.lft.to/lastmile_qr_scan"}, "lat": 38.92864316666667, "lon": -77.02952466666666, "bike_id": "917b3150bab3ddd5720125a5a0b161ea", "fusion_lat": 0.0, "is_disabled": 0, "fusion_lon": 0.0}, {"name": "2d7cca7e474f0563f366875246acbb06", "is_reserved": 0, "type": "electric_scooter", "rental_uris": {"ios": "https://dc.lft.to/lastmile_qr_scan", "android": "https://dc.lft.to/lastmile_qr_scan"}, "lat": 38.88704533333333, "lon": -77.01363, "bike_id": "2d7cca7e474f0563f366875246acbb06", "fusion_lat": 0.0, "is_disabled": 0, "fusion_lon": 0.0}, {"name": "12e1695b202dfd3c7ce705821e8f5d98", "is_reserved": 0, "type": "electric_scooter", "rental_uris": {"ios": "https://dc.lft.to/lastmile_qr_scan", "android": "https://dc.lft.to/lastmile_qr_scan"}, "lat": 38.9038635, "lon": -77.04337283333334, "bike_id": "12e1695b202dfd3c7ce705821e8f5d98", "fusion_lat": 0.0, "is_disabled": 0, "fusion_lon": 0.0}, {"name": "fb95b90512829ab96bc5294d9c3d86dd", "is_reserved": 0, "type": "electric_scooter", "rental_uris": {"ios": "https://dc.lft.to/lastmile_qr_scan", "android": "https://dc.lft.to/lastmile_qr_scan"}, "lat": 38.905719166666664, "lon": -77.03999233333333, "bike_id": "fb95b90512829ab96bc5294d9c3d86dd", "fusion_lat": 0.0, "is_disabled": 0, "fusion_lon": 0.0}, {"name": "be435dc0dc5e7a4d8110087c8ae8d534", "is_reserved": 0, "type": "electric_scooter", "rental_uris": {"ios": "https://dc.lft.to/lastmile_qr_scan", "android": "https://dc.lft.to/lastmile_qr_scan"}, "lat": 38.92440116666667, "lon": -77.05208866666666, "bike_id": "be435dc0dc5e7a4d8110087c8ae8d534", "fusion_lat": 0.0, "is_disabled": 0, "fusion_lon": 0.0}, {"name": "036ae46cb160a732cb9b18b6c3e1a0cc", "is_reserved": 0, "type": "electric_scooter", "rental_uris": {"ios": "https://dc.lft.to/lastmile_qr_scan", "android": "https://dc.lft.to/lastmile_qr_scan"}, "lat": 38.92406283333333, "lon": -77.02057633333334, "bike_id": "036ae46cb160a732cb9b18b6c3e1a0cc", "fusion_lat": 0.0, "is_disabled": 0, "fusion_lon": 0.0}, {"name": "a339746a780db53f537290cacf5f686d", "is_reserved": 0, "type": "electric_scooter", "rental_uris": {"ios": "https://dc.lft.to/lastmile_qr_scan", "android": "https://dc.lft.to/lastmile_qr_scan"}, "lat": 38.892402, "lon": -77.02616366666666, "bike_id": "a339746a780db53f537290cacf5f686d", "fusion_lat": 0.0, "is_disabled": 0, "fusion_lon": 0.0}, {"name": "1db4817e629fc975f5e4e4dd9cb0941b", "is_reserved": 0, "type": "electric_scooter", "rental_uris": {"ios": "https://dc.lft.to/lastmile_qr_scan", "android": "https://dc.lft.to/lastmile_qr_scan"}, "lat": 38.9182955, "lon": -77.012157, "bike_id": "1db4817e629fc975f5e4e4dd9cb0941b", "fusion_lat": 0.0, "is_disabled": 0, "fusion_lon": 0.0}, {"name": "e9faed52ff489d2c77b481a4f0b6a3d8", "is_reserved": 0, "type": "electric_scooter", "rental_uris": {"ios": "https://dc.lft.to/lastmile_qr_scan", "android": "https://dc.lft.to/lastmile_qr_scan"}, "lat": 38.909541833333336, "lon": -77.04726833333334, "bike_id": "e9faed52ff489d2c77b481a4f0b6a3d8", "fusion_lat": 0.0, "is_disabled": 0, "fusion_lon": 0.0}, {"name": "5af0e98709000555b60bfa74da82cf3a", "is_reserved": 0, "type": "electric_scooter", "rental_uris": {"ios": "https://dc.lft.to/lastmile_qr_scan", "android": "https://dc.lft.to/lastmile_qr_scan"}, "lat": 38.86202766666667, "lon": -76.99131933333334, "bike_id": "5af0e98709000555b60bfa74da82cf3a", "fusion_lat": 0.0, "is_disabled": 0, "fusion_lon": 0.0}, {"name": "42eaa0acc23cfb7dfe21ffbb6b3d6944", "is_reserved": 0, "type": "electric_scooter", "rental_uris": {"ios": "https://dc.lft.to/lastmile_qr_scan", "android": "https://dc.lft.to/lastmile_qr_scan"}, "lat": 38.898357833333336, "lon": -77.02887383333334, "bike_id": "42eaa0acc23cfb7dfe21ffbb6b3d6944", "fusion_lat": 0.0, "is_disabled": 0, "fusion_lon": 0.0}, {"name": "c4b64d121db93c5636fb536615e052e8", "is_reserved": 0, "type": "electric_scooter", "rental_uris": {"ios": "https://dc.lft.to/lastmile_qr_scan", "android": "https://dc.lft.to/lastmile_qr_scan"}, "lat": 38.927987, "lon": -77.02299983333333, "bike_id": "c4b64d121db93c5636fb536615e052e8", "fusion_lat": 0.0, "is_disabled": 0, "fusion_lon": 0.0}, {"name": "a3d0ae197f3c173883be7b8a3ce72ba3", "is_reserved": 0, "type": "electric_scooter", "rental_uris": {"ios": "https://dc.lft.to/lastmile_qr_scan", "android": "https://dc.lft.to/lastmile_qr_scan"}, "lat": 38.94185216666666, "lon": -77.02491066666667, "bike_id": "a3d0ae197f3c173883be7b8a3ce72ba3", "fusion_lat": 0.0, "is_disabled": 0, "fusion_lon": 0.0}, {"name": "54e0f25d260b57be0e142f3235e506b8", "is_reserved": 0, "type": "electric_scooter", "rental_uris": {"ios": "https://dc.lft.to/lastmile_qr_scan", "android": "https://dc.lft.to/lastmile_qr_scan"}, "lat": 38.900391666666664, "lon": -76.98828533333334, "bike_id": "54e0f25d260b57be0e142f3235e506b8", "fusion_lat": 0.0, "is_disabled": 0, "fusion_lon": 0.0}, {"name": "89b6882275da5dd42a01fb53bf835232", "is_reserved": 0, "type": "electric_scooter", "rental_uris": {"ios": "https://dc.lft.to/lastmile_qr_scan", "android": "https://dc.lft.to/lastmile_qr_scan"}, "lat": 38.89292283333333, "lon": -77.04186066666666, "bike_id": "89b6882275da5dd42a01fb53bf835232", "fusion_lat": 0.0, "is_disabled": 0, "fusion_lon": 0.0}, {"name": "c41ee3390f42fcf27a358519c8352405", "is_reserved": 0, "type": "electric_scooter", "rental_uris": {"ios": "https://dc.lft.to/lastmile_qr_scan", "android": "https://dc.lft.to/lastmile_qr_scan"}, "lat": 38.9051375, "lon": -77.05148883333334, "bike_id": "c41ee3390f42fcf27a358519c8352405", "fusion_lat": 0.0, "is_disabled": 0, "fusion_lon": 0.0}, {"name": "5ae50ea45c9c2f1e0010bca2f8da8fa3", "is_reserved": 0, "type": "electric_scooter", "rental_uris": {"ios": "https://dc.lft.to/lastmile_qr_scan", "android": "https://dc.lft.to/lastmile_qr_scan"}, "lat": 38.87267533333333, "lon": -77.017521, "bike_id": "5ae50ea45c9c2f1e0010bca2f8da8fa3", "fusion_lat": 0.0, "is_disabled": 0, "fusion_lon": 0.0}, {"name": "bd77439e3e6d54867a656d3310016b0e", "is_reserved": 0, "type": "electric_scooter", "rental_uris": {"ios": "https://dc.lft.to/lastmile_qr_scan", "android": "https://dc.lft.to/lastmile_qr_scan"}, "lat": 38.90454366666667, "lon": -77.02695433333334, "bike_id": "bd77439e3e6d54867a656d3310016b0e", "fusion_lat": 0.0, "is_disabled": 0, "fusion_lon": 0.0}, {"name": "b940452649c4bcc0c318bd5dbdeb9776", "is_reserved": 0, "type": "electric_scooter", "rental_uris": {"ios": "https://dc.lft.to/lastmile_qr_scan", "android": "https://dc.lft.to/lastmile_qr_scan"}, "lat": 38.908426666666664, "lon": -76.997578, "bike_id": "b940452649c4bcc0c318bd5dbdeb9776", "fusion_lat": 0.0, "is_disabled": 0, "fusion_lon": 0.0}, {"name": "84b9e9453905d0dd05e6ec8eab7faef0", "is_reserved": 0, "type": "electric_scooter", "rental_uris": {"ios": "https://dc.lft.to/lastmile_qr_scan", "android": "https://dc.lft.to/lastmile_qr_scan"}, "lat": 38.90405833333333, "lon": -76.981135, "bike_id": "84b9e9453905d0dd05e6ec8eab7faef0", "fusion_lat": 0.0, "is_disabled": 0, "fusion_lon": 0.0}, {"name": "88069b9ce78e69152d1ce4eb1f725a1f", "is_reserved": 0, "type": "electric_scooter", "rental_uris": {"ios": "https://dc.lft.to/lastmile_qr_scan", "android": "https://dc.lft.to/lastmile_qr_scan"}, "lat": 38.93914933333333, "lon": -77.06054916666666, "bike_id": "88069b9ce78e69152d1ce4eb1f725a1f", "fusion_lat": 0.0, "is_disabled": 0, "fusion_lon": 0.0}, {"name": "56dac434e2390b55f50c355e6aa4914d", "is_reserved": 0, "type": "electric_scooter", "rental_uris": {"ios": "https://dc.lft.to/lastmile_qr_scan", "android": "https://dc.lft.to/lastmile_qr_scan"}, "lat": 38.90823983333333, "lon": -77.0703255, "bike_id": "56dac434e2390b55f50c355e6aa4914d", "fusion_lat": 0.0, "is_disabled": 0, "fusion_lon": 0.0}, {"name": "9fb81e7baa4b047dc8bc6a069828dfc5", "is_reserved": 0, "type": "electric_scooter", "rental_uris": {"ios": "https://dc.lft.to/lastmile_qr_scan", "android": "https://dc.lft.to/lastmile_qr_scan"}, "lat": 38.93261283333333, "lon": -77.03876733333334, "bike_id": "9fb81e7baa4b047dc8bc6a069828dfc5", "fusion_lat": 0.0, "is_disabled": 0, "fusion_lon": 0.0}, {"name": "db68d3db4d84149907ff7da6ba28f8e3", "is_reserved": 0, "type": "electric_scooter", "rental_uris": {"ios": "https://dc.lft.to/lastmile_qr_scan", "android": "https://dc.lft.to/lastmile_qr_scan"}, "lat": 38.924533833333335, "lon": -77.040264, "bike_id": "db68d3db4d84149907ff7da6ba28f8e3", "fusion_lat": 0.0, "is_disabled": 0, "fusion_lon": 0.0}, {"name": "c11bb91fb21620425d6e17d305efdd20", "is_reserved": 0, "type": "electric_scooter", "rental_uris": {"ios": "https://dc.lft.to/lastmile_qr_scan", "android": "https://dc.lft.to/lastmile_qr_scan"}, "lat": 38.875070666666666, "lon": -77.01762816666667, "bike_id": "c11bb91fb21620425d6e17d305efdd20", "fusion_lat": 0.0, "is_disabled": 0, "fusion_lon": 0.0}, {"name": "1d62e61243cf0c3274ef5b2d64bdf606", "is_reserved": 0, "type": "electric_scooter", "rental_uris": {"ios": "https://dc.lft.to/lastmile_qr_scan", "android": "https://dc.lft.to/lastmile_qr_scan"}, "lat": 38.940942, "lon": -77.061335, "bike_id": "1d62e61243cf0c3274ef5b2d64bdf606", "fusion_lat": 0.0, "is_disabled": 0, "fusion_lon": 0.0}, {"name": "4cbb82ad2568ea990182e84ed195c366", "is_reserved": 0, "type": "electric_scooter", "rental_uris": {"ios": "https://dc.lft.to/lastmile_qr_scan", "android": "https://dc.lft.to/lastmile_qr_scan"}, "lat": 38.88115, "lon": -77.02650183333333, "bike_id": "4cbb82ad2568ea990182e84ed195c366", "fusion_lat": 0.0, "is_disabled": 0, "fusion_lon": 0.0}, {"name": "114ec6b780db316661002cf41c73b600", "is_reserved": 0, "type": "electric_scooter", "rental_uris": {"ios": "https://dc.lft.to/lastmile_qr_scan", "android": "https://dc.lft.to/lastmile_qr_scan"}, "lat": 38.92362266666667, "lon": -77.051187, "bike_id": "114ec6b780db316661002cf41c73b600", "fusion_lat": 0.0, "is_disabled": 0, "fusion_lon": 0.0}, {"name": "1fef0754f76ebd30574f38d2b0aa9836", "is_reserved": 0, "type": "electric_scooter", "rental_uris": {"ios": "https://dc.lft.to/lastmile_qr_scan", "android": "https://dc.lft.to/lastmile_qr_scan"}, "lat": 38.94190066666667, "lon": -77.023708, "bike_id": "1fef0754f76ebd30574f38d2b0aa9836", "fusion_lat": 0.0, "is_disabled": 0, "fusion_lon": 0.0}, {"name": "732375ae5be95ab85222b474c8592c96", "is_reserved": 0, "type": "electric_scooter", "rental_uris": {"ios": "https://dc.lft.to/lastmile_qr_scan", "android": "https://dc.lft.to/lastmile_qr_scan"}, "lat": 38.9182205, "lon": -77.03444316666666, "bike_id": "732375ae5be95ab85222b474c8592c96", "fusion_lat": 0.0, "is_disabled": 0, "fusion_lon": 0.0}, {"name": "4420f57ee9080bc9cd519ff04248feda", "is_reserved": 0, "type": "electric_scooter", "rental_uris": {"ios": "https://dc.lft.to/lastmile_qr_scan", "android": "https://dc.lft.to/lastmile_qr_scan"}, "lat": 38.883429666666665, "lon": -77.01618766666667, "bike_id": "4420f57ee9080bc9cd519ff04248feda", "fusion_lat": 0.0, "is_disabled": 0, "fusion_lon": 0.0}, {"name": "b60efafa49f8c96589e4cece2d672c6f", "is_reserved": 0, "type": "electric_scooter", "rental_uris": {"ios": "https://dc.lft.to/lastmile_qr_scan", "android": "https://dc.lft.to/lastmile_qr_scan"}, "lat": 38.90827266666667, "lon": -77.03674866666667, "bike_id": "b60efafa49f8c96589e4cece2d672c6f", "fusion_lat": 0.0, "is_disabled": 0, "fusion_lon": 0.0}, {"name": "c249799121a66868c136db6895a9d4b5", "is_reserved": 0, "type": "electric_scooter", "rental_uris": {"ios": "https://dc.lft.to/lastmile_qr_scan", "android": "https://dc.lft.to/lastmile_qr_scan"}, "lat": 38.909591666666664, "lon": -77.0228405, "bike_id": "c249799121a66868c136db6895a9d4b5", "fusion_lat": 0.0, "is_disabled": 0, "fusion_lon": 0.0}, {"name": "07001a05810fe42bfaf1b1986ccdbb04", "is_reserved": 0, "type": "electric_scooter", "rental_uris": {"ios": "https://dc.lft.to/lastmile_qr_scan", "android": "https://dc.lft.to/lastmile_qr_scan"}, "lat": 38.905971, "lon": -77.03982583333334, "bike_id": "07001a05810fe42bfaf1b1986ccdbb04", "fusion_lat": 0.0, "is_disabled": 0, "fusion_lon": 0.0}, {"name": "045a93aab16f50c3ccf01814fa9183ce", "is_reserved": 0, "type": "electric_scooter", "rental_uris": {"ios": "https://dc.lft.to/lastmile_qr_scan", "android": "https://dc.lft.to/lastmile_qr_scan"}, "lat": 38.93647966666666, "lon": -77.0367585, "bike_id": "045a93aab16f50c3ccf01814fa9183ce", "fusion_lat": 0.0, "is_disabled": 0, "fusion_lon": 0.0}, {"name": "5780a0deee2d846f4b1bd3ac70e9df91", "is_reserved": 0, "type": "electric_scooter", "rental_uris": {"ios": "https://dc.lft.to/lastmile_qr_scan", "android": "https://dc.lft.to/lastmile_qr_scan"}, "lat": 38.9246415, "lon": -77.00232216666667, "bike_id": "5780a0deee2d846f4b1bd3ac70e9df91", "fusion_lat": 0.0, "is_disabled": 0, "fusion_lon": 0.0}, {"name": "e29b48111cd33e7a9d6e1fed869e7f8e", "is_reserved": 0, "type": "electric_scooter", "rental_uris": {"ios": "https://dc.lft.to/lastmile_qr_scan", "android": "https://dc.lft.to/lastmile_qr_scan"}, "lat": 38.90366733333333, "lon": -77.026925, "bike_id": "e29b48111cd33e7a9d6e1fed869e7f8e", "fusion_lat": 0.0, "is_disabled": 0, "fusion_lon": 0.0}, {"name": "2b5fffabd49b026ed0d810cc9e660980", "is_reserved": 0, "type": "electric_scooter", "rental_uris": {"ios": "https://dc.lft.to/lastmile_qr_scan", "android": "https://dc.lft.to/lastmile_qr_scan"}, "lat": 38.91666633333333, "lon": -77.03462633333334, "bike_id": "2b5fffabd49b026ed0d810cc9e660980", "fusion_lat": 0.0, "is_disabled": 0, "fusion_lon": 0.0}, {"name": "ef6e763be10b72ba780843fecfac9713", "is_reserved": 0, "type": "electric_scooter", "rental_uris": {"ios": "https://dc.lft.to/lastmile_qr_scan", "android": "https://dc.lft.to/lastmile_qr_scan"}, "lat": 38.909590333333334, "lon": -77.02283416666667, "bike_id": "ef6e763be10b72ba780843fecfac9713", "fusion_lat": 0.0, "is_disabled": 0, "fusion_lon": 0.0}, {"name": "aa94d776553e710087b886e7ac643142", "is_reserved": 0, "type": "electric_scooter", "rental_uris": {"ios": "https://dc.lft.to/lastmile_qr_scan", "android": "https://dc.lft.to/lastmile_qr_scan"}, "lat": 38.92133316666666, "lon": -77.02513166666667, "bike_id": "aa94d776553e710087b886e7ac643142", "fusion_lat": 0.0, "is_disabled": 0, "fusion_lon": 0.0}, {"name": "a4d1169354a5181f48486f13312c70ca", "is_reserved": 0, "type": "electric_bike", "rental_uris": {"ios": "https://dc.lft.to/lastmile_qr_scan", "android": "https://dc.lft.to/lastmile_qr_scan"}, "lat": 38.83178183333333, "lon": -77.06698933333334, "bike_id": "a4d1169354a5181f48486f13312c70ca", "fusion_lat": 0.0, "is_disabled": 0, "fusion_lon": 0.0}, {"name": "a8c0893047a21952d250fe542b87bfa6", "is_reserved": 0, "type": "electric_scooter", "rental_uris": {"ios": "https://dc.lft.to/lastmile_qr_scan", "android": "https://dc.lft.to/lastmile_qr_scan"}, "lat": 38.92658566666667, "lon": -77.03314633333333, "bike_id": "a8c0893047a21952d250fe542b87bfa6", "fusion_lat": 0.0, "is_disabled": 0, "fusion_lon": 0.0}, {"name": "4d19b26674df5ee1984cc0de476c288b", "is_reserved": 0, "type": "electric_scooter", "rental_uris": {"ios": "https://dc.lft.to/lastmile_qr_scan", "android": "https://dc.lft.to/lastmile_qr_scan"}, "lat": 38.924888833333334, "lon": -77.035009, "bike_id": "4d19b26674df5ee1984cc0de476c288b", "fusion_lat": 0.0, "is_disabled": 0, "fusion_lon": 0.0}, {"name": "232b2cffe080e4c51aa59372510f7822", "is_reserved": 0, "type": "electric_scooter", "rental_uris": {"ios": "https://dc.lft.to/lastmile_qr_scan", "android": "https://dc.lft.to/lastmile_qr_scan"}, "lat": 38.89399483333333, "lon": -77.0219565, "bike_id": "232b2cffe080e4c51aa59372510f7822", "fusion_lat": 0.0, "is_disabled": 0, "fusion_lon": 0.0}, {"name": "54f8106ee4e8befbd3f442e807414da9", "is_reserved": 0, "type": "electric_scooter", "rental_uris": {"ios": "https://dc.lft.to/lastmile_qr_scan", "android": "https://dc.lft.to/lastmile_qr_scan"}, "lat": 38.890968, "lon": -76.91867083333334, "bike_id": "54f8106ee4e8befbd3f442e807414da9", "fusion_lat": 0.0, "is_disabled": 0, "fusion_lon": 0.0}, {"name": "bc12504b439e3654a4c152ed3ec95b1c", "is_reserved": 0, "type": "electric_scooter", "rental_uris": {"ios": "https://dc.lft.to/lastmile_qr_scan", "android": "https://dc.lft.to/lastmile_qr_scan"}, "lat": 38.900265166666664, "lon": -77.00687033333334, "bike_id": "bc12504b439e3654a4c152ed3ec95b1c", "fusion_lat": 0.0, "is_disabled": 0, "fusion_lon": 0.0},