{"data": {"bikes": [{"fusion_lat": 0.0, "lon": -76.9887835, "is_reserved": 0, "bike_id": "d208d5462a2dcf406cf75682d51f1907", "fusion_lon": 0.0, "rental_uris": {"android": "https://dc.lft.to/lastmile_qr_scan", "ios": "https://dc.lft.to/lastmile_qr_scan"}, "name": "d208d5462a2dcf406cf75682d51f1907", "type": "electric_scooter", "lat": 38.86641816666667, "is_disabled": 0}, {"fusion_lat": 0.0, "lon": -77.01297733333334, "is_reserved": 0, "bike_id": "74d707d2339d546a49eddf366a8a7cf8", "fusion_lon": 0.0, "rental_uris": {"android": "https://dc.lft.to/lastmile_qr_scan", "ios": "https://dc.lft.to/lastmile_qr_scan"}, "name": "74d707d2339d546a49eddf366a8a7cf8", "type": "electric_scooter", "lat": 38.89464733333333, "is_disabled": 0}, {"fusion_lat": 0.0, "lon": -77.04866033333333, "is_reserved": 0, "bike_id": "93a7aba2c97fe7f34fa793c3884eff0b", "fusion_lon": 0.0, "rental_uris": {"android": "https://dc.lft.to/lastmile_qr_scan", "ios": "https://dc.lft.to/lastmile_qr_scan"}, "name": "93a7aba2c97fe7f34fa793c3884eff0b", "type": "electric_scooter", "lat": 38.89267516666666, "is_disabled": 0}, {"fusion_lat": 0.0, "lon": -77.04144933333333, "is_reserved": 0, "bike_id": "92c2bb966deab3017f0a34f2bb48cba7", "fusion_lon": 0.0, "rental_uris": {"android": "https://dc.lft.to/lastmile_qr_scan", "ios": "https://dc.lft.to/lastmile_qr_scan"}, "name": "92c2bb966deab3017f0a34f2bb48cba7", "type": "electric_scooter", "lat": 38.90581933333333, "is_disabled": 0}, {"fusion_lat": 0.0, "lon": -77.019652, "is_reserved": 0, "bike_id": "dd3743d3c6d863240570441f71b815fa", "fusion_lon": 0.0, "rental_uris": {"android": "https://dc.lft.to/lastmile_qr_scan", "ios": "https://dc.lft.to/lastmile_qr_scan"}, "name": "dd3743d3c6d863240570441f71b815fa", "type": "electric_scooter", "lat": 38.9565305, "is_disabled": 0}, {"fusion_lat": 0.0, "lon": -77.02717066666666, "is_reserved": 0, "bike_id": "2f8ff66cd1e8dba7d7447161ad20d0f0", "fusion_lon": 0.0, "rental_uris": {"android": "https://dc.lft.to/lastmile_qr_scan", "ios": "https://dc.lft.to/lastmile_qr_scan"}, "name": "2f8ff66cd1e8dba7d7447161ad20d0f0", "type": "electric_scooter", "lat": 38.9181305, "is_disabled": 0}, {"fusion_lat": 0.0, "lon": -77.04615333333334, "is_reserved": 0, "bike_id": "6a8deed0fb9360b4259e198dcd407918", "fusion_lon": 0.0, "rental_uris": {"android": "https://dc.lft.to/lastmile_qr_scan", "ios": "https://dc.lft.to/lastmile_qr_scan"}, "name": "6a8deed0fb9360b4259e198dcd407918", "type": "electric_scooter", "lat": 38.9233105, "is_disabled": 0}, {"fusion_lat": 0.0, "lon": -77.00892466666667, "is_reserved": 0, "bike_id": "173158d0f110b4876d413baa14b74efd", "fusion_lon": 0.0, "rental_uris": {"android": "https://dc.lft.to/lastmile_qr_scan", "ios": "https://dc.lft.to/lastmile_qr_scan"}, "name": "173158d0f110b4876d413baa14b74efd", "type": "electric_scooter", "lat": 38.9681695, "is_disabled": 0}, {"fusion_lat": 0.0, "lon": -77.0220195, "is_reserved": 0, "bike_id": "926e4e5fd2eb1d22a51ef23d03cf9c83", "fusion_lon": 0.0, "rental_uris": {"android": "https://dc.lft.to/lastmile_qr_scan", "ios": "https://dc.lft.to/lastmile_qr_scan"}, "name": "926e4e5fd2eb1d22a51ef23d03cf9c83", "type": "electric_scooter", "lat": 38.916127, "is_disabled": 0}, {"fusion_lat": 0.0, "lon": -77.13905633333333, "is_reserved": 0, "bike_id": "750aadaaf489c1883614eda860789f67", "fusion_lon": 0.0, "rental_uris": {"android": "https://dc.lft.to/lastmile_qr_scan", "ios": "https://dc.lft.to/lastmile_qr_scan"}, "name": "750aadaaf489c1883614eda860789f67", "type": "electric_bike", "lat": 38.8967615, "is_disabled": 0}, {"fusion_lat": 0.0, "lon": -77.04518883333333, "is_reserved": 0, "bike_id": "8ca5d6166c3bc0ae9895a99164eca938", "fusion_lon": 0.0, "rental_uris": {"android": "https://dc.lft.to/lastmile_qr_scan", "ios": "https://dc.lft.to/lastmile_qr_scan"}, "name": "8ca5d6166c3bc0ae9895a99164eca938", "type": "electric_scooter", "lat": 38.923136666666664, "is_disabled": 0}, {"fusion_lat": 0.0, "lon": -77.01531183333333, "is_reserved": 0, "bike_id": "e2331fd303fca50255920656ddc222f4", "fusion_lon": 0.0, "rental_uris": {"android": "https://dc.lft.to/lastmile_qr_scan", "ios": "https://dc.lft.to/lastmile_qr_scan"}, "name": "e2331fd303fca50255920656ddc222f4", "type": "electric_scooter", "lat": 38.88737666666667, "is_disabled": 0}, {"fusion_lat": 0.0, "lon": -77.0346, "is_reserved": 0, "bike_id": "6e420966a6be8ad77e1741b208499677", "fusion_lon": 0.0, "rental_uris": {"android": "https://dc.lft.to/lastmile_qr_scan", "ios": "https://dc.lft.to/lastmile_qr_scan"}, "name": "6e420966a6be8ad77e1741b208499677", "type": "electric_scooter", "lat": 38.906298166666666, "is_disabled": 0}, {"fusion_lat": 0.0, "lon": -77.11573983333334, "is_reserved": 0, "bike_id": "48927d23f6a6be6195f59074cad0df05", "fusion_lon": 0.0, "rental_uris": {"android": "https://dc.lft.to/lastmile_qr_scan", "ios": "https://dc.lft.to/lastmile_qr_scan"}, "name": "48927d23f6a6be6195f59074cad0df05", "type": "electric_bike", "lat": 38.99344116666666, "is_disabled": 0}, {"fusion_lat": 0.0, "lon": -77.04421866666667, "is_reserved": 0, "bike_id": "f3175cc6032907f6248b51c3fdd8005b", "fusion_lon": 0.0, "rental_uris": {"android": "https://dc.lft.to/lastmile_qr_scan", "ios": "https://dc.lft.to/lastmile_qr_scan"}, "name": "f3175cc6032907f6248b51c3fdd8005b", "type": "electric_scooter", "lat": 38.921197666666664, "is_disabled": 0}, {"fusion_lat": 0.0, "lon": -77.02437733333333, "is_reserved": 0, "bike_id": "de279efc06c39d1e1cd98414095a3361", "fusion_lon": 0.0, "rental_uris": {"android": "https://dc.lft.to/lastmile_qr_scan", "ios": "https://dc.lft.to/lastmile_qr_scan"}, "name": "de279efc06c39d1e1cd98414095a3361", "type": "electric_scooter", "lat": 38.916918833333334, "is_disabled": 0}, {"fusion_lat": 0.0, "lon": -77.0050165, "is_reserved": 0, "bike_id": "f5bf56c6aafb120a61f640abb9ee5dcc", "fusion_lon": 0.0, "rental_uris": {"android": "https://dc.lft.to/lastmile_qr_scan", "ios": "https://dc.lft.to/lastmile_qr_scan"}, "name": "f5bf56c6aafb120a61f640abb9ee5dcc", "type": "electric_scooter", "lat": 38.87186483333333, "is_disabled": 0}, {"fusion_lat": 0.0, "lon": -77.05009933333334, "is_reserved": 0, "bike_id": "445cfc8764f167060aa989c0e79a224e", "fusion_lon": 0.0, "rental_uris": {"android": "https://dc.lft.to/lastmile_qr_scan", "ios": "https://dc.lft.to/lastmile_qr_scan"}, "name": "445cfc8764f167060aa989c0e79a224e", "type": "electric_scooter", "lat": 38.905114833333336, "is_disabled": 0}, {"fusion_lat": 0.0, "lon": -77.05488633333333, "is_reserved": 0, "bike_id": "131a315c80e407439fd17b79aa55192f", "fusion_lon": 0.0, "rental_uris": {"android": "https://dc.lft.to/lastmile_qr_scan", "ios": "https://dc.lft.to/lastmile_qr_scan"}, "name": "131a315c80e407439fd17b79aa55192f", "type": "electric_scooter", "lat": 38.893838333333335, "is_disabled": 0}, {"fusion_lat": 0.0, "lon": -77.0631985, "is_reserved": 0, "bike_id": "0a5341bce98dd215c12265c2bbdd5e1b", "fusion_lon": 0.0, "rental_uris": {"android": "https://dc.lft.to/lastmile_qr_scan", "ios": "https://dc.lft.to/lastmile_qr_scan"}, "name": "0a5341bce98dd215c12265c2bbdd5e1b", "type": "electric_scooter", "lat": 38.94412666666667, "is_disabled": 0}, {"fusion_lat": 0.0, "lon": -77.05010666666666, "is_reserved": 0, "bike_id": "9dd11a7eb1d8c9dff0ef57bc84e7d4ba", "fusion_lon": 0.0, "rental_uris": {"android": "https://dc.lft.to/lastmile_qr_scan", "ios": "https://dc.lft.to/lastmile_qr_scan"}, "name": "9dd11a7eb1d8c9dff0ef57bc84e7d4ba", "type": "electric_scooter", "lat": 38.90550533333333, "is_disabled": 0}, {"fusion_lat": 0.0, "lon": -77.0385, "is_reserved": 0, "bike_id": "107269ae0533abdd80a7e5dedb49d4cb", "fusion_lon": 0.0, "rental_uris": {"android": "https://dc.lft.to/lastmile_qr_scan", "ios": "https://dc.lft.to/lastmile_qr_scan"}, "name": "107269ae0533abdd80a7e5dedb49d4cb", "type": "electric_scooter", "lat": 38.9216525, "is_disabled": 0}, {"fusion_lat": 0.0, "lon": -77.05925366666666, "is_reserved": 0, "bike_id": "3057fd05a6b468a75f5c70a84e2a8ef9", "fusion_lon": 0.0, "rental_uris": {"android": "https://dc.lft.to/lastmile_qr_scan", "ios": "https://dc.lft.to/lastmile_qr_scan"}, "name": "3057fd05a6b468a75f5c70a84e2a8ef9", "type": "electric_scooter", "lat": 38.9015715, "is_disabled": 0}, {"fusion_lat": 0.0, "lon": -77.01991116666666, "is_reserved": 0, "bike_id": "d6fdd62227361d29473407ca485cacdc", "fusion_lon": 0.0, "rental_uris": {"android": "https://dc.lft.to/lastmile_qr_scan", "ios": "https://dc.lft.to/lastmile_qr_scan"}, "name": "d6fdd62227361d29473407ca485cacdc", "type": "electric_scooter", "lat": 38.8858575, "is_disabled": 0}, {"fusion_lat": 0.0, "lon": -77.04882083333334, "is_reserved": 0, "bike_id": "08ed6531dae2975f84f0337dbe29d0d2", "fusion_lon": 0.0, "rental_uris": {"android": "https://dc.lft.to/lastmile_qr_scan", "ios": "https://dc.lft.to/lastmile_qr_scan"}, "name": "08ed6531dae2975f84f0337dbe29d0d2", "type": "electric_scooter", "lat": 38.906725333333334, "is_disabled": 0}, {"fusion_lat": 0.0, "lon": -76.9871335, "is_reserved": 0, "bike_id": "cb16fdf4ee728180227a335c9fe0b384", "fusion_lon": 0.0, "rental_uris": {"android": "https://dc.lft.to/lastmile_qr_scan", "ios": "https://dc.lft.to/lastmile_qr_scan"}, "name": "cb16fdf4ee728180227a335c9fe0b384", "type": "electric_scooter", "lat": 38.86626316666667, "is_disabled": 0}, {"fusion_lat": 0.0, "lon": -76.95407366666667, "is_reserved": 0, "bike_id": "d29ec63d3162db48fea6e3fb6267c3a4", "fusion_lon": 0.0, "rental_uris": {"android": "https://dc.lft.to/lastmile_qr_scan", "ios": "https://dc.lft.to/lastmile_qr_scan"}, "name": "d29ec63d3162db48fea6e3fb6267c3a4", "type": "electric_scooter", "lat": 38.88466483333333, "is_disabled": 0}, {"fusion_lat": 0.0, "lon": -77.0272125, "is_reserved": 0, "bike_id": "7e0dfaefb728b83f5a611c5b5f77ab48", "fusion_lon": 0.0, "rental_uris": {"android": "https://dc.lft.to/lastmile_qr_scan", "ios": "https://dc.lft.to/lastmile_qr_scan"}, "name": "7e0dfaefb728b83f5a611c5b5f77ab48", "type": "electric_scooter", "lat": 38.90669616666667, "is_disabled": 0}, {"fusion_lat": 0.0, "lon": -76.98538433333333, "is_reserved": 0, "bike_id": "9454c4d8b30c73f642f8fc31cf4a1c63", "fusion_lon": 0.0, "rental_uris": {"android": "https://dc.lft.to/lastmile_qr_scan", "ios": "https://dc.lft.to/lastmile_qr_scan"}, "name": "9454c4d8b30c73f642f8fc31cf4a1c63", "type": "electric_scooter", "lat": 38.91026266666667, "is_disabled": 0}, {"fusion_lat": 0.0, "lon": -77.03975316666667, "is_reserved": 0, "bike_id": "ee97e12efde7ec666989a82cacc6c3b1", "fusion_lon": 0.0, "rental_uris": {"android": "https://dc.lft.to/lastmile_qr_scan", "ios": "https://dc.lft.to/lastmile_qr_scan"}, "name": "ee97e12efde7ec666989a82cacc6c3b1", "type": "electric_scooter", "lat": 38.892194833333335, "is_disabled": 0}, {"fusion_lat": 0.0, "lon": -77.06091183333334, "is_reserved": 0, "bike_id": "97661f98a9fec96515b36ad03eaa3c52", "fusion_lon": 0.0, "rental_uris": {"android": "https://dc.lft.to/lastmile_qr_scan", "ios": "https://dc.lft.to/lastmile_qr_scan"}, "name": "97661f98a9fec96515b36ad03eaa3c52", "type": "electric_scooter", "lat": 38.91170183333333, "is_disabled": 0}, {"fusion_lat": 0.0, "lon": -76.996341, "is_reserved": 0, "bike_id": "b35d2d7a663d19e8ef944a6335fc7358", "fusion_lon": 0.0, "rental_uris": {"android": "https://dc.lft.to/lastmile_qr_scan", "ios": "https://dc.lft.to/lastmile_qr_scan"}, "name": "b35d2d7a663d19e8ef944a6335fc7358", "type": "electric_scooter", "lat": 38.9001575, "is_disabled": 0}, {"fusion_lat": 0.0, "lon": -77.0222415, "is_reserved": 0, "bike_id": "83ad4e6acf88bf6978279250b73754ba", "fusion_lon": 0.0, "rental_uris": {"android": "https://dc.lft.to/lastmile_qr_scan", "ios": "https://dc.lft.to/lastmile_qr_scan"}, "name": "83ad4e6acf88bf6978279250b73754ba", "type": "electric_scooter", "lat": 38.8921475, "is_disabled": 0}, {"fusion_lat": 0.0, "lon": -77.03203583333334, "is_reserved": 0, "bike_id": "5c1ff9292b727a4e1e19d352b7fac1b8", "fusion_lon": 0.0, "rental_uris": {"android": "https://dc.lft.to/lastmile_qr_scan", "ios": "https://dc.lft.to/lastmile_qr_scan"}, "name": "5c1ff9292b727a4e1e19d352b7fac1b8", "type": "electric_scooter", "lat": 38.923475, "is_disabled": 0}, {"fusion_lat": 0.0, "lon": -77.03516433333333, "is_reserved": 0, "bike_id": "8f6492ca6cbc055376b7e54e00b3b6bb", "fusion_lon": 0.0, "rental_uris": {"android": "https://dc.lft.to/lastmile_qr_scan", "ios": "https://dc.lft.to/lastmile_qr_scan"}, "name": "8f6492ca6cbc055376b7e54e00b3b6bb", "type": "electric_scooter", "lat": 38.96626966666667, "is_disabled": 0}, {"fusion_lat": 0.0, "lon": -77.02204866666666, "is_reserved": 0, "bike_id": "da99f9df54dbce0ef10efec021799ad4", "fusion_lon": 0.0, "rental_uris": {"android": "https://dc.lft.to/lastmile_qr_scan", "ios": "https://dc.lft.to/lastmile_qr_scan"}, "name": "da99f9df54dbce0ef10efec021799ad4", "type": "electric_scooter", "lat": 38.87891, "is_disabled": 0}, {"fusion_lat": 0.0, "lon": -77.03185783333333, "is_reserved": 0, "bike_id": "c20bae596e7b90d9bb04fc50afa3ddfc", "fusion_lon": 0.0, "rental_uris": {"android": "https://dc.lft.to/lastmile_qr_scan", "ios": "https://dc.lft.to/lastmile_qr_scan"}, "name": "c20bae596e7b90d9bb04fc50afa3ddfc", "type": "electric_scooter", "lat": 38.91044383333333, "is_disabled": 0}, {"fusion_lat": 0.0, "lon": -77.12730683333334, "is_reserved": 0, "bike_id": "fe9af16323aa36be6793e605ebd5eaa1", "fusion_lon": 0.0, "rental_uris": {"android": "https://dc.lft.to/lastmile_qr_scan", "ios": "https://dc.lft.to/lastmile_qr_scan"}, "name": "fe9af16323aa36be6793e605ebd5eaa1", "type": "electric_bike", "lat": 38.895627, "is_disabled": 0}, {"fusion_lat": 0.0, "lon": -77.03638466666666, "is_reserved": 0, "bike_id": "49ebf2c91601ed29752b471b6b1d1de4", "fusion_lon": 0.0, "rental_uris": {"android": "https://dc.lft.to/lastmile_qr_scan", "ios": "https://dc.lft.to/lastmile_qr_scan"}, "name": "49ebf2c91601ed29752b471b6b1d1de4", "type": "electric_scooter", "lat": 38.927438333333335, "is_disabled": 0}, {"fusion_lat": 0.0, "lon": -77.03724266666667, "is_reserved": 0, "bike_id": "775e268596ea4e05aa62497e0291dcaa", "fusion_lon": 0.0, "rental_uris": {"android": "https://dc.lft.to/lastmile_qr_scan", "ios": "https://dc.lft.to/lastmile_qr_scan"}, "name": "775e268596ea4e05aa62497e0291dcaa", "type": "electric_scooter", "lat": 38.91691183333333, "is_disabled": 0}, {"fusion_lat": 0.0, "lon": -76.9887535, "is_reserved": 0, "bike_id": "2d6226ed4a5f698fdbaf94bdc9721e1c", "fusion_lon": 0.0, "rental_uris": {"android": "https://dc.lft.to/lastmile_qr_scan", "ios": "https://dc.lft.to/lastmile_qr_scan"}, "name": "2d6226ed4a5f698fdbaf94bdc9721e1c", "type": "electric_scooter", "lat": 38.90022866666666, "is_disabled": 0}, {"fusion_lat": 0.0, "lon": -76.99901283333334, "is_reserved": 0, "bike_id": "8df77ab4a14f2dc20474492ef7c52505", "fusion_lon": 0.0, "rental_uris": {"android": "https://dc.lft.to/lastmile_qr_scan", "ios": "https://dc.lft.to/lastmile_qr_scan"}, "name": "8df77ab4a14f2dc20474492ef7c52505", "type": "electric_scooter", "lat": 38.94815066666666, "is_disabled": 0}, {"fusion_lat": 0.0, "lon": -77.03160566666666, "is_reserved": 0, "bike_id": "4c68508afa4341eb5a9d1744c594f164", "fusion_lon": 0.0, "rental_uris": {"android": "https://dc.lft.to/lastmile_qr_scan", "ios": "https://dc.lft.to/lastmile_qr_scan"}, "name": "4c68508afa4341eb5a9d1744c594f164", "type": "electric_scooter", "lat": 38.930570833333334, "is_disabled": 0}, {"fusion_lat": 0.0, "lon": -77.139279, "is_reserved": 0, "bike_id": "8f9e2c09bb689294af4b2cc222643ab8", "fusion_lon": 0.0, "rental_uris": {"android": "https://dc.lft.to/lastmile_qr_scan", "ios": "https://dc.lft.to/lastmile_qr_scan"}, "name": "8f9e2c09bb689294af4b2cc222643ab8", "type": "electric_bike", "lat": 38.872997833333336, "is_disabled": 0}, {"fusion_lat": 0.0, "lon": -76.93079833333333, "is_reserved": 0, "bike_id": "dac7708f4bbde1e7f2d17f365b260f57", "fusion_lon": 0.0, "rental_uris": {"android": "https://dc.lft.to/lastmile_qr_scan", "ios": "https://dc.lft.to/lastmile_qr_scan"}, "name": "dac7708f4bbde1e7f2d17f365b260f57", "type": "electric_scooter", "lat": 38.901681333333336, "is_disabled": 0}, {"fusion_lat": 0.0, "lon": -77.03869983333334, "is_reserved": 0, "bike_id": "78fc65f6de1b25032126016b54966ec7", "fusion_lon": 0.0, "rental_uris": {"android": "https://dc.lft.to/lastmile_qr_scan", "ios": "https://dc.lft.to/lastmile_qr_scan"}, "name": "78fc65f6de1b25032126016b54966ec7", "type": "electric_scooter", "lat": 38.910341833333334, "is_disabled": 0}, {"fusion_lat": 0.0, "lon": -76.99549033333334, "is_reserved": 0, "bike_id": "4adfa44fa172a6900a9f51c2753a76f6", "fusion_lon": 0.0, "rental_uris": {"android": "https://dc.lft.to/lastmile_qr_scan", "ios": "https://dc.lft.to/lastmile_qr_scan"}, "name": "4adfa44fa172a6900a9f51c2753a76f6", "type": "electric_scooter", "lat": 38.862615, "is_disabled": 0}, {"fusion_lat": 0.0, "lon": -77.0426075, "is_reserved": 0, "bike_id": "879f181ffdc429051b67ad9e7652abd9", "fusion_lon": 0.0, "rental_uris": {"android": "https://dc.lft.to/lastmile_qr_scan", "ios": "https://dc.lft.to/lastmile_qr_scan"}, "name": "879f181ffdc429051b67ad9e7652abd9", "type": "electric_scooter", "lat": 38.92233733333333, "is_disabled": 0}, {"fusion_lat": 0.0, "lon": -77.02883033333333, "is_reserved": 0, "bike_id": "d244413c39111579f4c387df8f295c00", "fusion_lon": 0.0, "rental_uris": {"android": "https://dc.lft.to/lastmile_qr_scan", "ios": "https://dc.lft.to/lastmile_qr_scan"}, "name": "d244413c39111579f4c387df8f295c00", "type": "electric_scooter", "lat": 38.917240166666666, "is_disabled": 0}, {"fusion_lat": 0.0, "lon": -77.03305483333334, "is_reserved": 0, "bike_id": "19d48305e85821c024d3fd64806c5ac3", "fusion_lon": 0.0, "rental_uris": {"android": "https://dc.lft.to/lastmile_qr_scan", "ios": "https://dc.lft.to/lastmile_qr_scan"}, "name": "19d48305e85821c024d3fd64806c5ac3", "type": "electric_bike", "lat": 38.926223, "is_disabled": 0}, {"fusion_lat": 0.0, "lon": -77.0436395, "is_reserved": 0, "bike_id": "b4e425172ba898240c5ddcffbd2a1f1e", "fusion_lon": 0.0, "rental_uris": {"android": "https://dc.lft.to/lastmile_qr_scan", "ios": "https://dc.lft.to/lastmile_qr_scan"}, "name": "b4e425172ba898240c5ddcffbd2a1f1e", "type": "electric_scooter", "lat": 38.90763483333333, "is_disabled": 0}, {"fusion_lat": 0.0, "lon": -77.02824916666667, "is_reserved": 0, "bike_id": "c79e682be8181c61c7ae4701ecbb0297", "fusion_lon": 0.0, "rental_uris": {"android": "https://dc.lft.to/lastmile_qr_scan", "ios": "https://dc.lft.to/lastmile_qr_scan"}, "name": "c79e682be8181c61c7ae4701ecbb0297", "type": "electric_scooter", "lat": 38.960805666666666, "is_disabled": 0}, {"fusion_lat": 0.0, "lon": -77.01220033333334, "is_reserved": 0, "bike_id": "aa21c61d42113b4c48b638c25fd2a56f", "fusion_lon": 0.0, "rental_uris": {"android": "https://dc.lft.to/lastmile_qr_scan", "ios": "https://dc.lft.to/lastmile_qr_scan"}, "name": "aa21c61d42113b4c48b638c25fd2a56f", "type": "electric_scooter", "lat": 38.91518116666667, "is_disabled": 0}, {"fusion_lat": 0.0, "lon": -77.12955683333334, "is_reserved": 0, "bike_id": "5956bf2b729d440d1aa6672154e816cd", "fusion_lon": 0.0, "rental_uris": {"android": "https://dc.lft.to/lastmile_qr_scan", "ios": "https://dc.lft.to/lastmile_qr_scan"}, "name": "5956bf2b729d440d1aa6672154e816cd", "type": "electric_bike", "lat": 38.852192, "is_disabled": 0}, {"fusion_lat": 0.0, "lon": -77.04405966666667, "is_reserved": 0, "bike_id": "ec0f52c985a03214d6c09da86b8914ee", "fusion_lon": 0.0, "rental_uris": {"android": "https://dc.lft.to/lastmile_qr_scan", "ios": "https://dc.lft.to/lastmile_qr_scan"}, "name": "ec0f52c985a03214d6c09da86b8914ee", "type": "electric_scooter", "lat": 38.92025483333333, "is_disabled": 0}, {"fusion_lat": 0.0, "lon": -76.9980365, "is_reserved": 0, "bike_id": "ff38de7deb6b5f5dcb377e37545f4754", "fusion_lon": 0.0, "rental_uris": {"android": "https://dc.lft.to/lastmile_qr_scan", "ios": "https://dc.lft.to/lastmile_qr_scan"}, "name": "ff38de7deb6b5f5dcb377e37545f4754", "type": "electric_scooter", "lat": 38.90849016666667, "is_disabled": 0}, {"fusion_lat": 0.0, "lon": -76.983706, "is_reserved": 0, "bike_id": "b30d16819a0d6e161b81487139d0a1d4", "fusion_lon": 0.0, "rental_uris": {"android": "https://dc.lft.to/lastmile_qr_scan", "ios": "https://dc.lft.to/lastmile_qr_scan"}, "name": "b30d16819a0d6e161b81487139d0a1d4", "type": "electric_scooter", "lat": 38.9154185, "is_disabled": 0}, {"fusion_lat": 0.0, "lon": -77.05307566666667, "is_reserved": 0, "bike_id": "7cc77981ac4bdea03ec2206a9cd5f2bd", "fusion_lon": 0.0, "rental_uris": {"android": "https://dc.lft.to/lastmile_qr_scan", "ios": "https://dc.lft.to/lastmile_qr_scan"}, "name": "7cc77981ac4bdea03ec2206a9cd5f2bd", "type": "electric_scooter", "lat": 38.898533, "is_disabled": 0}, {"fusion_lat": 0.0, "lon": -76.98561366666667, "is_reserved": 0, "bike_id": "7d3957ec1d6cd2045581757106f110f8", "fusion_lon": 0.0, "rental_uris": {"android": "https://dc.lft.to/lastmile_qr_scan", "ios": "https://dc.lft.to/lastmile_qr_scan"}, "name": "7d3957ec1d6cd2045581757106f110f8", "type": "electric_scooter", "lat": 38.910334666666664, "is_disabled": 0}, {"fusion_lat": 0.0, "lon": -77.00753583333334, "is_reserved": 0, "bike_id": "732e2af72986b53dd8dfab0c36f1c947", "fusion_lon": 0.0, "rental_uris": {"android": "https://dc.lft.to/lastmile_qr_scan", "ios": "https://dc.lft.to/lastmile_qr_scan"}, "name": "732e2af72986b53dd8dfab0c36f1c947", "type": "electric_scooter", "lat": 38.92673766666667, "is_disabled": 0}, {"fusion_lat": 0.0, "lon": -77.07623166666667, "is_reserved": 0, "bike_id": "3bc8d6eb2cbcdfefe68cc59e0f3e04a3", "fusion_lon": 0.0, "rental_uris": {"android": "https://dc.lft.to/lastmile_qr_scan", "ios": "https://dc.lft.to/lastmile_qr_scan"}, "name": "3bc8d6eb2cbcdfefe68cc59e0f3e04a3", "type": "electric_scooter", "lat": 38.912692, "is_disabled": 0}, {"fusion_lat": 0.0, "lon": -77.04367566666667, "is_reserved": 0, "bike_id": "8e21e0b004cc79042975a502ddeb126c", "fusion_lon": 0.0, "rental_uris": {"android": "https://dc.lft.to/lastmile_qr_scan", "ios": "https://dc.lft.to/lastmile_qr_scan"}, "name": "8e21e0b004cc79042975a502ddeb126c", "type": "electric_scooter", "lat": 38.898580333333335, "is_disabled": 0}, {"fusion_lat": 0.0, "lon": -76.9855015, "is_reserved": 0, "bike_id": "1209ca4fe453d682f9378970cdf26b06", "fusion_lon": 0.0, "rental_uris": {"android": "https://dc.lft.to/lastmile_qr_scan", "ios": "https://dc.lft.to/lastmile_qr_scan"}, "name": "1209ca4fe453d682f9378970cdf26b06", "type": "electric_scooter", "lat": 38.910291, "is_disabled": 0}, {"fusion_lat": 0.0, "lon": -77.03163466666666, "is_reserved": 0, "bike_id": "90d4f8445eb3755202398af13bac3d17", "fusion_lon": 0.0, "rental_uris": {"android": "https://dc.lft.to/lastmile_qr_scan", "ios": "https://dc.lft.to/lastmile_qr_scan"}, "name": "90d4f8445eb3755202398af13bac3d17", "type": "electric_scooter", "lat": 38.9236065, "is_disabled": 0}, {"fusion_lat": 0.0, "lon": -77.04473916666667, "is_reserved": 0, "bike_id": "9adb3f60136f561f6936353f72187871", "fusion_lon": 0.0, "rental_uris": {"android": "https://dc.lft.to/lastmile_qr_scan", "ios": "https://dc.lft.to/lastmile_qr_scan"}, "name": "9adb3f60136f561f6936353f72187871", "type": "electric_scooter", "lat": 38.921381833333335, "is_disabled": 0}, {"fusion_lat": 0.0, "lon": -76.98764566666667, "is_reserved": 0, "bike_id": "afb01144e14505893cf89440df06caed", "fusion_lon": 0.0, "rental_uris": {"android": "https://dc.lft.to/lastmile_qr_scan", "ios": "https://dc.lft.to/lastmile_qr_scan"}, "name": "afb01144e14505893cf89440df06caed", "type": "electric_bike", "lat": 38.857684166666665, "is_disabled": 0}, {"fusion_lat": 0.0, "lon": -77.06016283333334, "is_reserved": 0, "bike_id": "74ff7956ac334b17024a8b4381b7a34a", "fusion_lon": 0.0, "rental_uris": {"android": "https://dc.lft.to/lastmile_qr_scan", "ios": "https://dc.lft.to/lastmile_qr_scan"}, "name": "74ff7956ac334b17024a8b4381b7a34a", "type": "electric_scooter", "lat": 38.901926, "is_disabled": 0}, {"fusion_lat": 0.0, "lon": -77.00449483333334, "is_reserved": 0, "bike_id": "08f9a151fd1fe9aae0ea9988e511a02a", "fusion_lon": 0.0, "rental_uris": {"android": "https://dc.lft.to/lastmile_qr_scan", "ios": "https://dc.lft.to/lastmile_qr_scan"}, "name": "08f9a151fd1fe9aae0ea9988e511a02a", "type": "electric_scooter", "lat": 38.9207705, "is_disabled": 0}, {"fusion_lat": 0.0, "lon": -77.0395765, "is_reserved": 0, "bike_id": "6680da7f8dc6fd646c7c026f9cd65ca8", "fusion_lon": 0.0, "rental_uris": {"android": "https://dc.lft.to/lastmile_qr_scan", "ios": "https://dc.lft.to/lastmile_qr_scan"}, "name": "6680da7f8dc6fd646c7c026f9cd65ca8", "type": "electric_scooter", "lat": 38.931493333333336, "is_disabled": 0}, {"fusion_lat": 0.0, "lon": -77.03719016666666, "is_reserved": 0, "bike_id": "37f07fbc9c0bbaa7e0e10c6af31e1588", "fusion_lon": 0.0, "rental_uris": {"android": "https://dc.lft.to/lastmile_qr_scan", "ios": "https://dc.lft.to/lastmile_qr_scan"}, "name": "37f07fbc9c0bbaa7e0e10c6af31e1588", "type": "electric_scooter", "lat": 38.91690466666667, "is_disabled": 0}, {"fusion_lat": 0.0, "lon": -76.98829, "is_reserved": 0, "bike_id": "bf01e4b01b2edcb48f9321c4447c3efd", "fusion_lon": 0.0, "rental_uris": {"android": "https://dc.lft.to/lastmile_qr_scan", "ios": "https://dc.lft.to/lastmile_qr_scan"}, "name": "bf01e4b01b2edcb48f9321c4447c3efd", "type": "electric_scooter", "lat": 38.90042033333334, "is_disabled": 0}, {"fusion_lat": 0.0, "lon": -77.046974, "is_reserved": 0, "bike_id": "228e3f6feb696d3e8fb3a2e574b593a5", "fusion_lon": 0.0, "rental_uris": {"android": "https://dc.lft.to/lastmile_qr_scan", "ios": "https://dc.lft.to/lastmile_qr_scan"}, "name": "228e3f6feb696d3e8fb3a2e574b593a5", "type": "electric_scooter", "lat": 38.9024285, "is_disabled": 0}, {"fusion_lat": 0.0, "lon": -76.93719283333333, "is_reserved": 0, "bike_id": "62a9e20bc9d4ef4f5bd21896856be65f", "fusion_lon": 0.0, "rental_uris": {"android": "https://dc.lft.to/lastmile_qr_scan", "ios": "https://dc.lft.to/lastmile_qr_scan"}, "name": "62a9e20bc9d4ef4f5bd21896856be65f", "type": "electric_scooter", "lat": 38.8896125, "is_disabled": 0}, {"fusion_lat": 0.0, "lon": -77.0331265, "is_reserved": 0, "bike_id": "c04addb18585a4902819806abee28fc4", "fusion_lon": 0.0, "rental_uris": {"android": "https://dc.lft.to/lastmile_qr_scan", "ios": "https://dc.lft.to/lastmile_qr_scan"}, "name": "c04addb18585a4902819806abee28fc4", "type": "electric_scooter", "lat": 38.928827166666665, "is_disabled": 0}, {"fusion_lat": 0.0, "lon": -77.00437783333334, "is_reserved": 0, "bike_id": "8c4eb44559dff1ce04908cdda8a4dc9f", "fusion_lon": 0.0, "rental_uris": {"android": "https://dc.lft.to/lastmile_qr_scan", "ios": "https://dc.lft.to/lastmile_qr_scan"}, "name": "8c4eb44559dff1ce04908cdda8a4dc9f", "type": "electric_scooter", "lat": 38.876740166666664, "is_disabled": 0}, {"fusion_lat": 0.0, "lon": -77.0269525, "is_reserved": 0, "bike_id": "5d1a57d7821de1a0c625d13411caf74f", "fusion_lon": 0.0, "rental_uris": {"android": "https://dc.lft.to/lastmile_qr_scan", "ios": "https://dc.lft.to/lastmile_qr_scan"}, "name": "5d1a57d7821de1a0c625d13411caf74f", "type": "electric_scooter", "lat": 38.9113415, "is_disabled": 0}, {"fusion_lat": 0.0, "lon": -77.01816783333334, "is_reserved": 0, "bike_id": "19a527782034a19ed05902a3d9d5b268", "fusion_lon": 0.0, "rental_uris": {"android": "https://dc.lft.to/lastmile_qr_scan", "ios": "https://dc.lft.to/lastmile_qr_scan"}, "name": "19a527782034a19ed05902a3d9d5b268", "type": "electric_scooter", "lat": 38.923696, "is_disabled": 0}, {"fusion_lat": 0.0, "lon": -77.033694, "is_reserved": 0, "bike_id": "af0480fcddb8360d370f3cc774b2d248", "fusion_lon": 0.0, "rental_uris": {"android": "https://dc.lft.to/lastmile_qr_scan", "ios": "https://dc.lft.to/lastmile_qr_scan"}, "name": "af0480fcddb8360d370f3cc774b2d248", "type": "electric_scooter", "lat": 38.90976966666667, "is_disabled": 0}, {"fusion_lat": 0.0, "lon": -77.032263, "is_reserved": 0, "bike_id": "057a8cfe3d5c50b7c5f1b9e5d3ea8fa4", "fusion_lon": 0.0, "rental_uris": {"android": "https://dc.lft.to/lastmile_qr_scan", "ios": "https://dc.lft.to/lastmile_qr_scan"}, "name": "057a8cfe3d5c50b7c5f1b9e5d3ea8fa4", "type": "electric_scooter", "lat": 38.92861, "is_disabled": 0}, {"fusion_lat": 0.0, "lon": -77.02394416666667, "is_reserved": 0, "bike_id": "a25d1f62c0d3f2238f6563df8a288957", "fusion_lon": 0.0, "rental_uris": {"android": "https://dc.lft.to/lastmile_qr_scan", "ios": "https://dc.lft.to/lastmile_qr_scan"}, "name": "a25d1f62c0d3f2238f6563df8a288957", "type": "electric_scooter", "lat": 38.90708166666667, "is_disabled": 0}, {"fusion_lat": 0.0, "lon": -77.05108916666667, "is_reserved": 0, "bike_id": "398f5f4768b2039b8bb4201f400ae829", "fusion_lon": 0.0, "rental_uris": {"android": "https://dc.lft.to/lastmile_qr_scan", "ios": "https://dc.lft.to/lastmile_qr_scan"}, "name": "398f5f4768b2039b8bb4201f400ae829", "type": "electric_scooter", "lat": 38.8976895, "is_disabled": 0}, {"fusion_lat": 0.0, "lon": -77.0351775, "is_reserved": 0, "bike_id": "2e9d63368db5597da60671163ea40e14", "fusion_lon": 0.0, "rental_uris": {"android": "https://dc.lft.to/lastmile_qr_scan", "ios": "https://dc.lft.to/lastmile_qr_scan"}, "name": "2e9d63368db5597da60671163ea40e14", "type": "electric_bike", "lat": 38.962021166666666, "is_disabled": 0}, {"fusion_lat": 0.0, "lon": -77.02935716666667, "is_reserved": 0, "bike_id": "d7882f8ac8905702b8553ea68e5c2ad0", "fusion_lon": 0.0, "rental_uris": {"android": "https://dc.lft.to/lastmile_qr_scan", "ios": "https://dc.lft.to/lastmile_qr_scan"}, "name": "d7882f8ac8905702b8553ea68e5c2ad0", "type": "electric_scooter", "lat": 38.932469166666664, "is_disabled": 0}, {"fusion_lat": 0.0, "lon": -76.9846345, "is_reserved": 0, "bike_id": "6bf2a46afa872535eea9876098633048", "fusion_lon": 0.0, "rental_uris": {"android": "https://dc.lft.to/lastmile_qr_scan", "ios": "https://dc.lft.to/lastmile_qr_scan"}, "name": "6bf2a46afa872535eea9876098633048", "type": "electric_scooter", "lat": 38.9001505, "is_disabled": 0}, {"fusion_lat": 0.0, "lon": -77.04538316666667, "is_reserved": 0, "bike_id": "7086252c46a11450bcbe909cbf6b25b1", "fusion_lon": 0.0, "rental_uris": {"android": "https://dc.lft.to/lastmile_qr_scan", "ios": "https://dc.lft.to/lastmile_qr_scan"}, "name": "7086252c46a11450bcbe909cbf6b25b1", "type": "electric_scooter", "lat": 38.909606, "is_disabled": 0}, {"fusion_lat": 0.0, "lon": -77.006004, "is_reserved": 0, "bike_id": "4e6561da1188fd64baedf0ab43447719", "fusion_lon": 0.0, "rental_uris": {"android": "https://dc.lft.to/lastmile_qr_scan", "ios": "https://dc.lft.to/lastmile_qr_scan"}, "name": "4e6561da1188fd64baedf0ab43447719", "type": "electric_scooter", "lat": 38.875487666666665, "is_disabled": 0}, {"fusion_lat": 0.0, "lon": -77.01997983333334, "is_reserved": 0, "bike_id": "9442e2ea2def18532c10c0ddd97d2527", "fusion_lon": 0.0, "rental_uris": {"android": "https://dc.lft.to/lastmile_qr_scan", "ios": "https://dc.lft.to/lastmile_qr_scan"}, "name": "9442e2ea2def18532c10c0ddd97d2527", "type": "electric_scooter", "lat": 38.914890666666665, "is_disabled": 0}, {"fusion_lat": 0.0, "lon": -77.07265383333333, "is_reserved": 0, "bike_id": "477b827eb5a349d05450111274a5cbb4", "fusion_lon": 0.0, "rental_uris": {"android": "https://dc.lft.to/lastmile_qr_scan", "ios": "https://dc.lft.to/lastmile_qr_scan"}, "name": "477b827eb5a349d05450111274a5cbb4", "type": "electric_scooter", "lat": 38.93337666666667, "is_disabled": 0}, {"fusion_lat": 0.0, "lon": -77.000658, "is_reserved": 0, "bike_id": "aaf445739873b823bc21e05f8316504d", "fusion_lon": 0.0, "rental_uris": {"android": "https://dc.lft.to/lastmile_qr_scan", "ios": "https://dc.lft.to/lastmile_qr_scan"}, "name": "aaf445739873b823bc21e05f8316504d", "type": "electric_scooter", "lat": 38.900478666666665, "is_disabled": 0}, {"fusion_lat": 0.0, "lon": -77.04408533333333, "is_reserved": 0, "bike_id": "217b4522631f22e1a159648c43af9952", "fusion_lon": 0.0, "rental_uris": {"android": "https://dc.lft.to/lastmile_qr_scan", "ios": "https://dc.lft.to/lastmile_qr_scan"}, "name": "217b4522631f22e1a159648c43af9952", "type": "electric_scooter", "lat": 38.91355316666667, "is_disabled": 0}, {"fusion_lat": 0.0, "lon": -77.07275983333334, "is_reserved": 0, "bike_id": "04cb83c4a4be7e0d8d27081e44468e9f", "fusion_lon": 0.0, "rental_uris": {"android": "https://dc.lft.to/lastmile_qr_scan", "ios": "https://dc.lft.to/lastmile_qr_scan"}, "name": "04cb83c4a4be7e0d8d27081e44468e9f", "type": "electric_scooter", "lat": 38.93482683333333, "is_disabled": 0}, {"fusion_lat": 0.0, "lon": -77.10595833333333, "is_reserved": 0, "bike_id": "3eb7f58c8a033527fb92371717bbbcde", "fusion_lon": 0.0, "rental_uris": {"android": "https://dc.lft.to/lastmile_qr_scan", "ios": "https://dc.lft.to/lastmile_qr_scan"}, "name": "3eb7f58c8a033527fb92371717bbbcde", "type": "electric_bike", "lat": 38.90362666666667, "is_disabled": 0}, {"fusion_lat": 0.0, "lon": -77.03173016666666, "is_reserved": 0, "bike_id": "674dd476e431f7cdd3453462b1dd26d7", "fusion_lon": 0.0, "rental_uris": {"android": "https://dc.lft.to/lastmile_qr_scan", "ios": "https://dc.lft.to/lastmile_qr_scan"}, "name": "674dd476e431f7cdd3453462b1dd26d7", "type": "electric_scooter", "lat": 38.915518, "is_disabled": 0}, {"fusion_lat": 0.0, "lon": -77.02696733333333, "is_reserved": 0, "bike_id": "3b56544f4f0d568bf026b58e4dc4d2d0", "fusion_lon": 0.0, "rental_uris": {"android": "https://dc.lft.to/lastmile_qr_scan", "ios": "https://dc.lft.to/lastmile_qr_scan"}, "name": "3b56544f4f0d568bf026b58e4dc4d2d0", "type": "electric_scooter", "lat": 38.94885816666667, "is_disabled": 0}, {"fusion_lat": 0.0, "lon": -77.017997, "is_reserved": 0, "bike_id": "a1779d8d3ee6b2b1c6b43faf3c56dc3d", "fusion_lon": 0.0, "rental_uris": {"android": "https://dc.lft.to/lastmile_qr_scan", "ios": "https://dc.lft.to/lastmile_qr_scan"}, "name": "a1779d8d3ee6b2b1c6b43faf3c56dc3d", "type": "electric_scooter", "lat": 38.892989666666665, "is_disabled": 0}, {"fusion_lat": 0.0, "lon": -77.08596466666667, "is_reserved": 0, "bike_id": "0d714bbed31b296086f0db4e27e9e718", "fusion_lon": 0.0, "rental_uris": {"android": "https://dc.lft.to/lastmile_qr_scan", "ios": "https://dc.lft.to/lastmile_qr_scan"}, "name": "0d714bbed31b296086f0db4e27e9e718", "type": "electric_scooter", "lat": 38.90862583333333, "is_disabled": 0}, {"fusion_lat": 0.0, "lon": -77.03170466666667, "is_reserved": 0, "bike_id": "f489a8057704f797982b3ce4b86e41ad", "fusion_lon": 0.0, "rental_uris": {"android": "https://dc.lft.to/lastmile_qr_scan", "ios": "https://dc.lft.to/lastmile_qr_scan"}, "name": "f489a8057704f797982b3ce4b86e41ad", "type": "electric_scooter", "lat": 38.88408, "is_disabled": 0}, {"fusion_lat": 0.0, "lon": -76.98537083333333, "is_reserved": 0, "bike_id": "8c71b09fb3a4b0d24e7d87e8e4523f0c", "fusion_lon": 0.0, "rental_uris": {"android": "https://dc.lft.to/lastmile_qr_scan", "ios": "https://dc.lft.to/lastmile_qr_scan"}, "name": "8c71b09fb3a4b0d24e7d87e8e4523f0c", "type": "electric_scooter", "lat": 38.9102705, "is_disabled": 0}, {"fusion_lat": 0.0, "lon": -76.950202, "is_reserved": 0, "bike_id": "174ff6fb266b94f75e655b2b89912433", "fusion_lon": 0.0, "rental_uris": {"android": "https://dc.lft.to/lastmile_qr_scan", "ios": "https://dc.lft.to/lastmile_qr_scan"}, "name": "174ff6fb266b94f75e655b2b89912433", "type": "electric_scooter", "lat": 38.893857833333335, "is_disabled": 0}, {"fusion_lat": 0.0, "lon": -77.04621983333334, "is_reserved": 0, "bike_id": "7a20f65412ac86d6bf056104afa62fd3", "fusion_lon": 0.0, "rental_uris": {"android": "https://dc.lft.to/lastmile_qr_scan", "ios": "https://dc.lft.to/lastmile_qr_scan"}, "name": "7a20f65412ac86d6bf056104afa62fd3", "type": "electric_scooter", "lat": 38.91635383333333, "is_disabled": 0}, {"fusion_lat": 0.0, "lon": -76.99701316666666, "is_reserved": 0, "bike_id": "9d895daccf7bf7d3bff1573bdcd56ffd", "fusion_lon": 0.0, "rental_uris": {"android": "https://dc.lft.to/lastmile_qr_scan", "ios": "https://dc.lft.to/lastmile_qr_scan"}, "name": "9d895daccf7bf7d3bff1573bdcd56ffd", "type": "electric_scooter", "lat": 38.9083485, "is_disabled": 0}, {"fusion_lat": 0.0, "lon": -76.96467266666667, "is_reserved": 0, "bike_id": "41da1444d3a9a3375300cd2d23305163", "fusion_lon": 0.0, "rental_uris": {"android": "https://dc.lft.to/lastmile_qr_scan", "ios": "https://dc.lft.to/lastmile_qr_scan"}, "name": "41da1444d3a9a3375300cd2d23305163", "type": "electric_scooter", "lat": 38.934459, "is_disabled": 0}, {"fusion_lat": 0.0, "lon": -77.0254115, "is_reserved": 0, "bike_id": "40ce6b60e6c0c2c2af5749962d34ef1d", "fusion_lon": 0.0, "rental_uris": {"android": "https://dc.lft.to/lastmile_qr_scan", "ios": "https://dc.lft.to/lastmile_qr_scan"}, "name": "40ce6b60e6c0c2c2af5749962d34ef1d", "type": "electric_scooter", "lat": 38.952565166666666, "is_disabled": 0}, {"fusion_lat": 0.0, "lon": -76.99693916666666, "is_reserved": 0, "bike_id": "88d46f77f72f42babc67e89ce939a0c4", "fusion_lon": 0.0, "rental_uris": {"android": "https://dc.lft.to/lastmile_qr_scan", "ios": "https://dc.lft.to/lastmile_qr_scan"}, "name": "88d46f77f72f42babc67e89ce939a0c4", "type": "electric_scooter", "lat": 38.9083245, "is_disabled": 0}, {"fusion_lat": 0.0, "lon": -76.987439, "is_reserved": 0, "bike_id": "ce8a911ebf1ae3bcc7047125773c38c2", "fusion_lon": 0.0, "rental_uris": {"android": "https://dc.lft.to/lastmile_qr_scan", "ios": "https://dc.lft.to/lastmile_qr_scan"}, "name": "ce8a911ebf1ae3bcc7047125773c38c2", "type": "electric_scooter", "lat": 38.8446295, "is_disabled": 0}, {"fusion_lat": 0.0, "lon": -77.02679733333333, "is_reserved": 0, "bike_id": "74f147f4d859b28e8b6fd52885321958", "fusion_lon": 0.0, "rental_uris": {"android": "https://dc.lft.to/lastmile_qr_scan", "ios": "https://dc.lft.to/lastmile_qr_scan"}, "name": "74f147f4d859b28e8b6fd52885321958", "type": "electric_scooter", "lat": 38.927761333333336, "is_disabled": 0}, {"fusion_lat": 0.0, "lon": -77.03772083333334, "is_reserved": 0, "bike_id": "17a2147e8b38a1571e99f60a105ec3d3", "fusion_lon": 0.0, "rental_uris": {"android": "https://dc.lft.to/lastmile_qr_scan", "ios": "https://dc.lft.to/lastmile_qr_scan"}, "name": "17a2147e8b38a1571e99f60a105ec3d3", "type": "electric_scooter", "lat": 38.916852, "is_disabled": 0}, {"fusion_lat": 0.0, "lon": -77.02383766666667, "is_reserved": 0, "bike_id": "b1b1818eb241f1fb2ddb42cd4dbef870", "fusion_lon": 0.0, "rental_uris": {"android": "https://dc.lft.to/lastmile_qr_scan", "ios": "https://dc.lft.to/lastmile_qr_scan"}, "name": "b1b1818eb241f1fb2ddb42cd4dbef870", "type": "electric_scooter", "lat": 38.91958483333333, "is_disabled": 0}, {"fusion_lat": 0.0, "lon": -76.99209616666667, "is_reserved": 0, "bike_id": "bb90e10363cc183ae6440c2646d4907e", "fusion_lon": 0.0, "rental_uris": {"android": "https://dc.lft.to/lastmile_qr_scan", "ios": "https://dc.lft.to/lastmile_qr_scan"}, "name": "bb90e10363cc183ae6440c2646d4907e", "type": "electric_scooter", "lat": 38.89521, "is_disabled": 0}, {"fusion_lat": 0.0, "lon": -77.0288605, "is_reserved": 0, "bike_id": "adee591219c005c1fe2893de0be90401", "fusion_lon": 0.0, "rental_uris": {"android": "https://dc.lft.to/lastmile_qr_scan", "ios": "https://dc.lft.to/lastmile_qr_scan"}, "name": "adee591219c005c1fe2893de0be90401", "type": "electric_scooter", "lat": 38.91330683333333, "is_disabled": 0}, {"fusion_lat": 0.0, "lon": -77.07270616666666, "is_reserved": 0, "bike_id": "53d0be18e7e66b1772e3adc4e241a2cd", "fusion_lon": 0.0, "rental_uris": {"android": "https://dc.lft.to/lastmile_qr_scan", "ios": "https://dc.lft.to/lastmile_qr_scan"}, "name": "53d0be18e7e66b1772e3adc4e241a2cd", "type": "electric_scooter", "lat": 38.934746, "is_disabled": 0}, {"fusion_lat": 0.0, "lon": -77.02322366666667, "is_reserved": 0, "bike_id": "9113b59256cbef718f85fad18c437587", "fusion_lon": 0.0, "rental_uris": {"android": "https://dc.lft.to/lastmile_qr_scan", "ios": "https://dc.lft.to/lastmile_qr_scan"}, "name": "9113b59256cbef718f85fad18c437587", "type": "electric_scooter", "lat": 38.930526666666665, "is_disabled": 0}, {"fusion_lat": 0.0, "lon": -77.00217, "is_reserved": 0, "bike_id": "d9f7bf0b2e87e52294c6c0c5a7e8062b", "fusion_lon": 0.0, "rental_uris": {"android": "https://dc.lft.to/lastmile_qr_scan", "ios": "https://dc.lft.to/lastmile_qr_scan"}, "name": "d9f7bf0b2e87e52294c6c0c5a7e8062b", "type": "electric_scooter", "lat": 38.91182166666667, "is_disabled": 0}, {"fusion_lat": 0.0, "lon": -77.10600383333333, "is_reserved": 0, "bike_id": "669d167a7b7f020f6fa1a09272cda2f8", "fusion_lon": 0.0, "rental_uris": {"android": "https://dc.lft.to/lastmile_qr_scan", "ios": "https://dc.lft.to/lastmile_qr_scan"}, "name": "669d167a7b7f020f6fa1a09272cda2f8", "type": "electric_bike", "lat": 38.9289585, "is_disabled": 0}, {"fusion_lat": 0.0, "lon": -77.04103733333334, "is_reserved": 0, "bike_id": "b0e617beb7871dc6a7a7721572c4cb8b", "fusion_lon": 0.0, "rental_uris": {"android": "https://dc.lft.to/lastmile_qr_scan", "ios": "https://dc.lft.to/lastmile_qr_scan"}, "name": "b0e617beb7871dc6a7a7721572c4cb8b", "type": "electric_scooter", "lat": 38.917204166666664, "is_disabled": 0}, {"fusion_lat": 0.0, "lon": -77.01753533333333, "is_reserved": 0, "bike_id": "094fdedcfc8ba05d3930089695c9f28a", "fusion_lon": 0.0, "rental_uris": {"android": "https://dc.lft.to/lastmile_qr_scan", "ios": "https://dc.lft.to/lastmile_qr_scan"}, "name": "094fdedcfc8ba05d3930089695c9f28a", "type": "electric_scooter", "lat": 38.9191985, "is_disabled": 0}, {"fusion_lat": 0.0, "lon": -77.03484166666667, "is_reserved": 0, "bike_id": "ddce7b52349b702ac3a708328b0d6e83", "fusion_lon": 0.0, "rental_uris": {"android": "https://dc.lft.to/lastmile_qr_scan", "ios": "https://dc.lft.to/lastmile_qr_scan"}, "name": "ddce7b52349b702ac3a708328b0d6e83", "type": "electric_scooter", "lat": 38.92334983333333, "is_disabled": 0}, {"fusion_lat": 0.0, "lon": -77.036592, "is_reserved": 0, "bike_id": "f12b635119d58a8c1c3c4a25bd3dd7f8", "fusion_lon": 0.0, "rental_uris": {"android": "https://dc.lft.to/lastmile_qr_scan", "ios": "https://dc.lft.to/lastmile_qr_scan"}, "name": "f12b635119d58a8c1c3c4a25bd3dd7f8", "type": "electric_scooter", "lat": 38.902785, "is_disabled": 0}, {"fusion_lat": 0.0, "lon": -76.9861495, "is_reserved": 0, "bike_id": "35d13e750cb6709b6d8bb42018302fb2", "fusion_lon": 0.0, "rental_uris": {"android": "https://dc.lft.to/lastmile_qr_scan", "ios": "https://dc.lft.to/lastmile_qr_scan"}, "name": "35d13e750cb6709b6d8bb42018302fb2", "type": "electric_scooter", "lat": 38.860775833333335, "is_disabled": 0}, {"fusion_lat": 0.0, "lon": -76.96154033333333, "is_reserved": 0, "bike_id": "83322ff17a2cbdb715b202164ed0bcbe", "fusion_lon": 0.0, "rental_uris": {"android": "https://dc.lft.to/lastmile_qr_scan", "ios": "https://dc.lft.to/lastmile_qr_scan"}, "name": "83322ff17a2cbdb715b202164ed0bcbe", "type": "electric_scooter", "lat": 38.88361066666667, "is_disabled": 0}, {"fusion_lat": 0.0, "lon": -77.03201283333334, "is_reserved": 0, "bike_id": "bf01004244ab937d645b553a4b1217c2", "fusion_lon": 0.0, "rental_uris": {"android": "https://dc.lft.to/lastmile_qr_scan", "ios": "https://dc.lft.to/lastmile_qr_scan"}, "name": "bf01004244ab937d645b553a4b1217c2", "type": "electric_scooter", "lat": 38.916338833333334, "is_disabled": 0}, {"fusion_lat": 0.0, "lon": -76.9853725, "is_reserved": 0, "bike_id": "98c6117493d396f249700c0a0a034524", "fusion_lon": 0.0, "rental_uris": {"android": "https://dc.lft.to/lastmile_qr_scan", "ios": "https://dc.lft.to/lastmile_qr_scan"}, "name": "98c6117493d396f249700c0a0a034524", "type": "electric_scooter", "lat": 38.9102485, "is_disabled": 0}, {"fusion_lat": 0.0, "lon": -77.02196216666667, "is_reserved": 0, "bike_id": "9be3790262fb92cf34b12c65734d622f", "fusion_lon": 0.0, "rental_uris": {"android": "https://dc.lft.to/lastmile_qr_scan", "ios": "https://dc.lft.to/lastmile_qr_scan"}, "name": "9be3790262fb92cf34b12c65734d622f", "type": "electric_scooter", "lat": 38.910837, "is_disabled": 0}, {"fusion_lat": 0.0, "lon": -76.99776666666666, "is_reserved": 0, "bike_id": "afbf013a5af70e8eaf511adca882d4b5", "fusion_lon": 0.0, "rental_uris": {"android": "https://dc.lft.to/lastmile_qr_scan", "ios": "https://dc.lft.to/lastmile_qr_scan"}, "name": "afbf013a5af70e8eaf511adca882d4b5", "type": "electric_scooter", "lat": 38.844225333333334, "is_disabled": 0}, {"fusion_lat": 0.0, "lon": -77.02117016666666, "is_reserved": 0, "bike_id": "1bd8f92845fd2c274626ee1071a49a90", "fusion_lon": 0.0, "rental_uris": {"android": "https://dc.lft.to/lastmile_qr_scan", "ios": "https://dc.lft.to/lastmile_qr_scan"}, "name": "1bd8f92845fd2c274626ee1071a49a90", "type": "electric_scooter", "lat": 38.923373833333336, "is_disabled": 0}, {"fusion_lat": 0.0, "lon": -77.04500516666667, "is_reserved": 0, "bike_id": "98aa029a578b80b9dccdb227caf86d27", "fusion_lon": 0.0, "rental_uris": {"android": "https://dc.lft.to/lastmile_qr_scan", "ios": "https://dc.lft.to/lastmile_qr_scan"}, "name": "98aa029a578b80b9dccdb227caf86d27", "type": "electric_scooter", "lat": 38.914164166666666, "is_disabled": 0}, {"fusion_lat": 0.0, "lon": -77.04314666666667, "is_reserved": 0, "bike_id": "c4ebd2816f838644f4a96071e6bd23ee", "fusion_lon": 0.0, "rental_uris": {"android": "https://dc.lft.to/lastmile_qr_scan", "ios": "https://dc.lft.to/lastmile_qr_scan"}, "name": "c4ebd2816f838644f4a96071e6bd23ee", "type": "electric_scooter", "lat": 38.926556, "is_disabled": 0}, {"fusion_lat": 0.0, "lon": -76.99765733333334, "is_reserved": 0, "bike_id": "e307fc7d08fdf1ee1092161f43f540ac", "fusion_lon": 0.0, "rental_uris": {"android": "https://dc.lft.to/lastmile_qr_scan", "ios": "https://dc.lft.to/lastmile_qr_scan"}, "name": "e307fc7d08fdf1ee1092161f43f540ac", "type": "electric_bike", "lat": 38.95318116666667, "is_disabled": 0}, {"fusion_lat": 0.0, "lon": -77.0295295, "is_reserved": 0, "bike_id": "b63ea873f5e207bacc431f831d0e02d5", "fusion_lon": 0.0, "rental_uris": {"android": "https://dc.lft.to/lastmile_qr_scan", "ios": "https://dc.lft.to/lastmile_qr_scan"}, "name": "b63ea873f5e207bacc431f831d0e02d5", "type": "electric_scooter", "lat": 38.89925516666667, "is_disabled": 0}, {"fusion_lat": 0.0, "lon": -77.03171583333334, "is_reserved": 0, "bike_id": "23091b311fe6935e3232401f49a4959d", "fusion_lon": 0.0, "rental_uris": {"android": "https://dc.lft.to/lastmile_qr_scan", "ios": "https://dc.lft.to/lastmile_qr_scan"}, "name": "23091b311fe6935e3232401f49a4959d", "type": "electric_scooter", "lat": 38.9088245, "is_disabled": 0}, {"fusion_lat": 0.0, "lon": -77.03595533333333, "is_reserved": 0, "bike_id": "13fc4b2e2933c7820a64124dcc58eae7", "fusion_lon": 0.0, "rental_uris": {"android": "https://dc.lft.to/lastmile_qr_scan", "ios": "https://dc.lft.to/lastmile_qr_scan"}, "name": "13fc4b2e2933c7820a64124dcc58eae7", "type": "electric_scooter", "lat": 38.917500833333335, "is_disabled": 0}, {"fusion_lat": 0.0, "lon": -77.051861, "is_reserved": 0, "bike_id": "d38ad195019b95fd521a5c2a9b550180", "fusion_lon": 0.0, "rental_uris": {"android": "https://dc.lft.to/lastmile_qr_scan", "ios": "https://dc.lft.to/lastmile_qr_scan"}, "name": "d38ad195019b95fd521a5c2a9b550180", "type": "electric_scooter", "lat": 38.923739, "is_disabled": 0}, {"fusion_lat": 0.0, "lon": -76.99945516666666, "is_reserved": 0, "bike_id": "03ada21e65996642640d8d358c3abe30", "fusion_lon": 0.0, "rental_uris": {"android": "https://dc.lft.to/lastmile_qr_scan", "ios": "https://dc.lft.to/lastmile_qr_scan"}, "name": "03ada21e65996642640d8d358c3abe30", "type": "electric_scooter", "lat": 38.89638516666667, "is_disabled": 0}, {"fusion_lat": 0.0, "lon": -76.98885783333333, "is_reserved": 0, "bike_id": "6061c5eba18d9df61fab7706ae97b394", "fusion_lon": 0.0, "rental_uris": {"android": "https://dc.lft.to/lastmile_qr_scan", "ios": "https://dc.lft.to/lastmile_qr_scan"}, "name": "6061c5eba18d9df61fab7706ae97b394", "type": "electric_scooter", "lat": 38.86647466666667, "is_disabled": 0}, {"fusion_lat": 0.0, "lon": -77.072403, "is_reserved": 0, "bike_id": "497b1ac84aeb6cbb2811922c348726e9", "fusion_lon": 0.0, "rental_uris": {"android": "https://dc.lft.to/lastmile_qr_scan", "ios": "https://dc.lft.to/lastmile_qr_scan"}, "name": "497b1ac84aeb6cbb2811922c348726e9", "type": "electric_scooter", "lat": 38.93252916666667, "is_disabled": 0}, {"fusion_lat": 0.0, "lon": -77.004033, "is_reserved": 0, "bike_id": "194b85b04655f094376f989eaebebf39", "fusion_lon": 0.0, "rental_uris": {"android": "https://dc.lft.to/lastmile_qr_scan", "ios": "https://dc.lft.to/lastmile_qr_scan"}, "name": "194b85b04655f094376f989eaebebf39", "type": "electric_bike", "lat": 38.836100333333334, "is_disabled": 0}, {"fusion_lat": 0.0, "lon": -77.02996883333333, "is_reserved": 0, "bike_id": "8296ad7fca77a6775712affc3a2cdc4e", "fusion_lon": 0.0, "rental_uris": {"android": "https://dc.lft.to/lastmile_qr_scan", "ios": "https://dc.lft.to/lastmile_qr_scan"}, "name": "8296ad7fca77a6775712affc3a2cdc4e", "type": "electric_scooter", "lat": 38.926769, "is_disabled": 0}, {"fusion_lat": 0.0, "lon": -77.05905216666666, "is_reserved": 0, "bike_id": "a2f25ccb3d1372c290f4a9de75d8dac4", "fusion_lon": 0.0, "rental_uris": {"android": "https://dc.lft.to/lastmile_qr_scan", "ios": "https://dc.lft.to/lastmile_qr_scan"}, "name": "a2f25ccb3d1372c290f4a9de75d8dac4", "type": "electric_scooter", "lat": 38.902277833333336, "is_disabled": 0}, {"fusion_lat": 0.0, "lon": -77.001895, "is_reserved": 0, "bike_id": "a22f17208fe384fc7beed14f53665f5f", "fusion_lon": 0.0, "rental_uris": {"android": "https://dc.lft.to/lastmile_qr_scan", "ios": "https://dc.lft.to/lastmile_qr_scan"}, "name": "a22f17208fe384fc7beed14f53665f5f", "type": "electric_scooter", "lat": 38.89447916666667, "is_disabled": 0}, {"fusion_lat": 0.0, "lon": -77.0254265, "is_reserved": 0, "bike_id": "c26362271974a5b8578dff2bef070899", "fusion_lon": 0.0, "rental_uris": {"android": "https://dc.lft.to/lastmile_qr_scan", "ios": "https://dc.lft.to/lastmile_qr_scan"}, "name": "c26362271974a5b8578dff2bef070899", "type": "electric_scooter", "lat": 38.92401666666667, "is_disabled": 0}, {"fusion_lat": 0.0, "lon": -77.03224216666666, "is_reserved": 0, "bike_id": "8d1e22cbea8ad390d515c9369fe6b47d", "fusion_lon": 0.0, "rental_uris": {"android": "https://dc.lft.to/lastmile_qr_scan", "ios": "https://dc.lft.to/lastmile_qr_scan"}, "name": "8d1e22cbea8ad390d515c9369fe6b47d", "type": "electric_scooter", "lat": 38.92863216666667, "is_disabled": 0}, {"fusion_lat": 0.0, "lon": -76.981944, "is_reserved": 0, "bike_id": "049e9795932130dd6f0f3bdb76e549df", "fusion_lon": 0.0, "rental_uris": {"android": "https://dc.lft.to/lastmile_qr_scan", "ios": "https://dc.lft.to/lastmile_qr_scan"}, "name": "049e9795932130dd6f0f3bdb76e549df", "type": "electric_scooter", "lat": 38.902792833333336, "is_disabled": 0}, {"fusion_lat": 0.0, "lon": -77.03216966666666, "is_reserved": 0, "bike_id": "64b6d250302868b5403f9d8ec68c4a5d", "fusion_lon": 0.0, "rental_uris": {"android": "https://dc.lft.to/lastmile_qr_scan", "ios": "https://dc.lft.to/lastmile_qr_scan"}, "name": "64b6d250302868b5403f9d8ec68c4a5d", "type": "electric_scooter", "lat": 38.92980333333333, "is_disabled": 0}, {"fusion_lat": 0.0, "lon": -77.04302133333333, "is_reserved": 0, "bike_id": "b780e2da1a89b42ee1757827771b61d2", "fusion_lon": 0.0, "rental_uris": {"android": "https://dc.lft.to/lastmile_qr_scan", "ios": "https://dc.lft.to/lastmile_qr_scan"}, "name": "b780e2da1a89b42ee1757827771b61d2", "type": "electric_scooter", "lat": 38.9233555, "is_disabled": 0}, {"fusion_lat": 0.0, "lon": -77.005424, "is_reserved": 0, "bike_id": "d7db1b013e77cadbef796a6320342037", "fusion_lon": 0.0, "rental_uris": {"android": "https://dc.lft.to/lastmile_qr_scan", "ios": "https://dc.lft.to/lastmile_qr_scan"}, "name": "d7db1b013e77cadbef796a6320342037", "type": "electric_scooter", "lat": 38.87456133333333, "is_disabled": 0}, {"fusion_lat": 0.0, "lon": -76.98302966666667, "is_reserved": 0, "bike_id": "784efd8bc628fe56b55d31493f7aa84c", "fusion_lon": 0.0, "rental_uris": {"android": "https://dc.lft.to/lastmile_qr_scan", "ios": "https://dc.lft.to/lastmile_qr_scan"}, "name": "784efd8bc628fe56b55d31493f7aa84c", "type": "electric_scooter", "lat": 38.90522083333333, "is_disabled": 0}, {"fusion_lat": 0.0, "lon": -77.03601183333333, "is_reserved": 0, "bike_id": "8d3acaa1e640f2f5fbd5e2e0aab99cdb", "fusion_lon": 0.0, "rental_uris": {"android": "https://dc.lft.to/lastmile_qr_scan", "ios": "https://dc.lft.to/lastmile_qr_scan"}, "name": "8d3acaa1e640f2f5fbd5e2e0aab99cdb", "type": "electric_scooter", "lat": 38.93940633333333, "is_disabled": 0}, {"fusion_lat": 0.0, "lon": -77.03854083333333, "is_reserved": 0, "bike_id": "dedb2395b7a033c684726b3d1890da44", "fusion_lon": 0.0, "rental_uris": {"android": "https://dc.lft.to/lastmile_qr_scan", "ios": "https://dc.lft.to/lastmile_qr_scan"}, "name": "dedb2395b7a033c684726b3d1890da44", "type": "electric_scooter", "lat": 38.93200483333333, "is_disabled": 0}, {"fusion_lat": 0.0, "lon": -77.03087433333333, "is_reserved": 0, "bike_id": "f1de73c2e1729beb0c0497d6deac1b18", "fusion_lon": 0.0, "rental_uris": {"android": "https://dc.lft.to/lastmile_qr_scan", "ios": "https://dc.lft.to/lastmile_qr_scan"}, "name": "f1de73c2e1729beb0c0497d6deac1b18", "type": "electric_scooter", "lat": 38.92729, "is_disabled": 0}, {"fusion_lat": 0.0, "lon": -77.0325915, "is_reserved": 0, "bike_id": "c45ffc758ebc8950a6b3cc982711b90f", "fusion_lon": 0.0, "rental_uris": {"android": "https://dc.lft.to/lastmile_qr_scan", "ios": "https://dc.lft.to/lastmile_qr_scan"}, "name": "c45ffc758ebc8950a6b3cc982711b90f", "type": "electric_scooter", "lat": 38.9041885, "is_disabled": 0}, {"fusion_lat": 0.0, "lon": -77.02397816666667, "is_reserved": 0, "bike_id": "2201d6f71c38b3ff7b25edf31d2dccd1", "fusion_lon": 0.0, "rental_uris": {"android": "https://dc.lft.to/lastmile_qr_scan", "ios": "https://dc.lft.to/lastmile_qr_scan"}, "name": "2201d6f71c38b3ff7b25edf31d2dccd1", "type": "electric_scooter", "lat": 38.937080333333334, "is_disabled": 0}, {"fusion_lat": 0.0, "lon": -77.031682, "is_reserved": 0, "bike_id": "ef492b892b774f472301e822f67e3575", "fusion_lon": 0.0, "rental_uris": {"android": "https://dc.lft.to/lastmile_qr_scan", "ios": "https://dc.lft.to/lastmile_qr_scan"}, "name": "ef492b892b774f472301e822f67e3575", "type": "electric_scooter", "lat": 38.897718166666664, "is_disabled": 0}, {"fusion_lat": 0.0, "lon": -77.012525, "is_reserved": 0, "bike_id": "c0eaa16486de591d2459f943827afced", "fusion_lon": 0.0, "rental_uris": {"android": "https://dc.lft.to/lastmile_qr_scan", "ios": "https://dc.lft.to/lastmile_qr_scan"}, "name": "c0eaa16486de591d2459f943827afced", "type": "electric_scooter", "lat": 38.89237083333333, "is_disabled": 0}, {"fusion_lat": 0.0, "lon": -77.03376583333333, "is_reserved": 0, "bike_id": "e81b15a616eeaf202b4421f2014d919f", "fusion_lon": 0.0, "rental_uris": {"android": "https://dc.lft.to/lastmile_qr_scan", "ios": "https://dc.lft.to/lastmile_qr_scan"}, "name": "e81b15a616eeaf202b4421f2014d919f", "type": "electric_scooter", "lat": 38.89224866666667, "is_disabled": 0}, {"fusion_lat": 0.0, "lon": -76.9186755, "is_reserved": 0, "bike_id": "470c0e1e390e95e7c1fd10ced17d919f", "fusion_lon": 0.0, "rental_uris": {"android": "https://dc.lft.to/lastmile_qr_scan", "ios": "https://dc.lft.to/lastmile_qr_scan"}, "name": "470c0e1e390e95e7c1fd10ced17d919f", "type": "electric_scooter", "lat": 38.890949, "is_disabled": 0}, {"fusion_lat": 0.0, "lon": -77.00203966666666, "is_reserved": 0, "bike_id": "d499841d2425b7e335dee48b397442ca", "fusion_lon": 0.0, "rental_uris": {"android": "https://dc.lft.to/lastmile_qr_scan", "ios": "https://dc.lft.to/lastmile_qr_scan"}, "name": "d499841d2425b7e335dee48b397442ca", "type": "electric_scooter", "lat": 38.924577666666664, "is_disabled": 0}, {"fusion_lat": 0.0, "lon": -77.0071325, "is_reserved": 0, "bike_id": "530f397d7d0dffb2e4843f010ed3992d", "fusion_lon": 0.0, "rental_uris": {"android": "https://dc.lft.to/lastmile_qr_scan", "ios": "https://dc.lft.to/lastmile_qr_scan"}, "name": "530f397d7d0dffb2e4843f010ed3992d", "type": "electric_scooter", "lat": 38.900233166666666, "is_disabled": 0}, {"fusion_lat": 0.0, "lon": -77.08042333333333, "is_reserved": 0, "bike_id": "fd739ab2528203f95d56a7edfd75a06a", "fusion_lon": 0.0, "rental_uris": {"android": "https://dc.lft.to/lastmile_qr_scan", "ios": "https://dc.lft.to/lastmile_qr_scan"}, "name": "fd739ab2528203f95d56a7edfd75a06a", "type": "electric_scooter", "lat": 38.949563833333336, "is_disabled": 0}, {"fusion_lat": 0.0, "lon": -77.03496783333334, "is_reserved": 0, "bike_id": "40a48653e5dbffa0223653eca4713bc6", "fusion_lon": 0.0, "rental_uris": {"android": "https://dc.lft.to/lastmile_qr_scan", "ios": "https://dc.lft.to/lastmile_qr_scan"}, "name": "40a48653e5dbffa0223653eca4713bc6", "type": "electric_scooter", "lat": 38.92474, "is_disabled": 0}, {"fusion_lat": 0.0, "lon": -77.03954766666666, "is_reserved": 0, "bike_id": "bfabf142e2566e7c53a223d87301841a", "fusion_lon": 0.0, "rental_uris": {"android": "https://dc.lft.to/lastmile_qr_scan", "ios": "https://dc.lft.to/lastmile_qr_scan"}, "name": "bfabf142e2566e7c53a223d87301841a", "type": "electric_scooter", "lat": 38.89242316666667, "is_disabled": 0}, {"fusion_lat": 0.0, "lon": -76.94577116666666, "is_reserved": 0, "bike_id": "36b8b973cbd6b1a3ffeba71fcf9d1235", "fusion_lon": 0.0, "rental_uris": {"android": "https://dc.lft.to/lastmile_qr_scan", "ios": "https://dc.lft.to/lastmile_qr_scan"}, "name": "36b8b973cbd6b1a3ffeba71fcf9d1235", "type": "electric_bike", "lat": 38.93742833333334, "is_disabled": 0}, {"fusion_lat": 0.0, "lon": -77.03462966666666, "is_reserved": 0, "bike_id": "a967f1ab326f5f26298cabb73b633d6c", "fusion_lon": 0.0, "rental_uris": {"android": "https://dc.lft.to/lastmile_qr_scan", "ios": "https://dc.lft.to/lastmile_qr_scan"}, "name": "a967f1ab326f5f26298cabb73b633d6c", "type": "electric_scooter", "lat": 38.916605833333335, "is_disabled": 0}, {"fusion_lat": 0.0, "lon": -77.03272533333333, "is_reserved": 0, "bike_id": "a967dd93f8e3343f9fa284f75ca2cb60", "fusion_lon": 0.0, "rental_uris": {"android": "https://dc.lft.to/lastmile_qr_scan", "ios": "https://dc.lft.to/lastmile_qr_scan"}, "name": "a967dd93f8e3343f9fa284f75ca2cb60", "type": "electric_scooter", "lat": 38.92933566666667, "is_disabled": 0}, {"fusion_lat": 0.0, "lon": -77.03280433333333, "is_reserved": 0, "bike_id": "fdcd59e279347d7914c8b1b54f553f29", "fusion_lon": 0.0, "rental_uris": {"android": "https://dc.lft.to/lastmile_qr_scan", "ios": "https://dc.lft.to/lastmile_qr_scan"}, "name": "fdcd59e279347d7914c8b1b54f553f29", "type": "electric_scooter", "lat": 38.91038916666667, "is_disabled": 0}, {"fusion_lat": 0.0, "lon": -77.03241616666666, "is_reserved": 0, "bike_id": "b5997fb84831da8654f0cc4be7b194a1", "fusion_lon": 0.0, "rental_uris": {"android": "https://dc.lft.to/lastmile_qr_scan", "ios": "https://dc.lft.to/lastmile_qr_scan"}, "name": "b5997fb84831da8654f0cc4be7b194a1", "type": "electric_scooter", "lat": 38.961581833333334, "is_disabled": 0}, {"fusion_lat": 0.0, "lon": -77.02279333333334, "is_reserved": 0, "bike_id": "dd622d1507334b553ebdcbfd55c83dca", "fusion_lon": 0.0, "rental_uris": {"android": "https://dc.lft.to/lastmile_qr_scan", "ios": "https://dc.lft.to/lastmile_qr_scan"}, "name": "dd622d1507334b553ebdcbfd55c83dca", "type": "electric_scooter", "lat": 38.87839316666667, "is_disabled": 0}, {"fusion_lat": 0.0, "lon": -76.985346, "is_reserved": 0, "bike_id": "10a0bdd559198cc81dc332f534c1cce0", "fusion_lon": 0.0, "rental_uris": {"android": "https://dc.lft.to/lastmile_qr_scan", "ios": "https://dc.lft.to/lastmile_qr_scan"}, "name": "10a0bdd559198cc81dc332f534c1cce0", "type": "electric_scooter", "lat": 38.85363783333333, "is_disabled": 0}, {"fusion_lat": 0.0, "lon": -77.04621016666667, "is_reserved": 0, "bike_id": "82fa54ed646de0efd6bce8ab3cf23fe4", "fusion_lon": 0.0, "rental_uris": {"android": "https://dc.lft.to/lastmile_qr_scan", "ios": "https://dc.lft.to/lastmile_qr_scan"}, "name": "82fa54ed646de0efd6bce8ab3cf23fe4", "type": "electric_scooter", "lat": 38.92313033333333, "is_disabled": 0}, {"fusion_lat": 0.0, "lon": -77.04326116666667, "is_reserved": 0, "bike_id": "9b667d0b09d47af6dd572f4f89a0f17d", "fusion_lon": 0.0, "rental_uris": {"android": "https://dc.lft.to/lastmile_qr_scan", "ios": "https://dc.lft.to/lastmile_qr_scan"}, "name": "9b667d0b09d47af6dd572f4f89a0f17d", "type": "electric_scooter", "lat": 38.89225183333333, "is_disabled": 0}, {"fusion_lat": 0.0, "lon": -76.98122466666666, "is_reserved": 0, "bike_id": "5108e34aa1622a2c6a9cb5b1fff95769", "fusion_lon": 0.0, "rental_uris": {"android": "https://dc.lft.to/lastmile_qr_scan", "ios": "https://dc.lft.to/lastmile_qr_scan"}, "name": "5108e34aa1622a2c6a9cb5b1fff95769", "type": "electric_bike", "lat": 38.914595, "is_disabled": 0}, {"fusion_lat": 0.0, "lon": -77.02796783333334, "is_reserved": 0, "bike_id": "d76e765f64a7233d7d234c4db2e4f3b0", "fusion_lon": 0.0, "rental_uris": {"android": "https://dc.lft.to/lastmile_qr_scan", "ios": "https://dc.lft.to/lastmile_qr_scan"}, "name": "d76e765f64a7233d7d234c4db2e4f3b0", "type": "electric_scooter", "lat": 38.91219866666667, "is_disabled": 0}, {"fusion_lat": 0.0, "lon": -77.0319955, "is_reserved": 0, "bike_id": "0da35e88b0a2bfc121fcbfab2dae994c", "fusion_lon": 0.0, "rental_uris": {"android": "https://dc.lft.to/lastmile_qr_scan", "ios": "https://dc.lft.to/lastmile_qr_scan"}, "name": "0da35e88b0a2bfc121fcbfab2dae994c", "type": "electric_scooter", "lat": 38.909454, "is_disabled": 0}, {"fusion_lat": 0.0, "lon": -77.04563783333333, "is_reserved": 0, "bike_id": "2597063147e1a6fdebe7451035251a26", "fusion_lon": 0.0, "rental_uris": {"android": "https://dc.lft.to/lastmile_qr_scan", "ios": "https://dc.lft.to/lastmile_qr_scan"}, "name": "2597063147e1a6fdebe7451035251a26", "type": "electric_bike", "lat": 38.92133366666667, "is_disabled": 0}, {"fusion_lat": 0.0, "lon": -77.0213255, "is_reserved": 0, "bike_id": "b55a9548880feaebb20f685375ccdcd0", "fusion_lon": 0.0, "rental_uris": {"android": "https://dc.lft.to/lastmile_qr_scan", "ios": "https://dc.lft.to/lastmile_qr_scan"}, "name": "b55a9548880feaebb20f685375ccdcd0", "type": "electric_scooter", "lat": 38.924162, "is_disabled": 0}, {"fusion_lat": 0.0, "lon": -77.04482783333333, "is_reserved": 0, "bike_id": "86b522e39114326a9c6a0bab83caa69f", "fusion_lon": 0.0, "rental_uris": {"android": "https://dc.lft.to/lastmile_qr_scan", "ios": "https://dc.lft.to/lastmile_qr_scan"}, "name": "86b522e39114326a9c6a0bab83caa69f", "type": "electric_scooter", "lat": 38.92422, "is_disabled": 0}, {"fusion_lat": 0.0, "lon": -76.937574, "is_reserved": 0, "bike_id": "d118b9160ac258cade5f2d05dabae386", "fusion_lon": 0.0, "rental_uris": {"android": "https://dc.lft.to/lastmile_qr_scan", "ios": "https://dc.lft.to/lastmile_qr_scan"}, "name": "d118b9160ac258cade5f2d05dabae386", "type": "electric_scooter", "lat": 38.89040083333333, "is_disabled": 0}, {"fusion_lat": 0.0, "lon": -77.02873833333334, "is_reserved": 0, "bike_id": "b5768e9dfe47fc3419fdf19cd611a4f0", "fusion_lon": 0.0, "rental_uris": {"android": "https://dc.lft.to/lastmile_qr_scan", "ios": "https://dc.lft.to/lastmile_qr_scan"}, "name": "b5768e9dfe47fc3419fdf19cd611a4f0", "type": "electric_scooter", "lat": 38.91686083333333, "is_disabled": 0}, {"fusion_lat": 0.0, "lon": -77.2332065, "is_reserved": 0, "bike_id": "ed17b2a8d4168c422e949a6b225e7f5b", "fusion_lon": 0.0, "rental_uris": {"android": "https://dc.lft.to/lastmile_qr_scan", "ios": "https://dc.lft.to/lastmile_qr_scan"}, "name": "ed17b2a8d4168c422e949a6b225e7f5b", "type": "electric_bike", "lat": 38.872833, "is_disabled": 0}, {"fusion_lat": 0.0, "lon": -77.0089395, "is_reserved": 0, "bike_id": "32aa83d07f3122f529d3f2f6daab66b6", "fusion_lon": 0.0, "rental_uris": {"android": "https://dc.lft.to/lastmile_qr_scan", "ios": "https://dc.lft.to/lastmile_qr_scan"}, "name": "32aa83d07f3122f529d3f2f6daab66b6", "type": "electric_scooter", "lat": 38.922732, "is_disabled": 0}, {"fusion_lat": 0.0, "lon": -77.04313466666666, "is_reserved": 0, "bike_id": "bdf5e274bc53ebe34f6a5128f400e42e", "fusion_lon": 0.0, "rental_uris": {"android": "https://dc.lft.to/lastmile_qr_scan", "ios": "https://dc.lft.to/lastmile_qr_scan"}, "name": "bdf5e274bc53ebe34f6a5128f400e42e", "type": "electric_scooter", "lat": 38.9188105, "is_disabled": 0}, {"fusion_lat": 0.0, "lon": -76.9926795, "is_reserved": 0, "bike_id": "3046e440fbd35b882e12d4ba8ef2dbea", "fusion_lon": 0.0, "rental_uris": {"android": "https://dc.lft.to/lastmile_qr_scan", "ios": "https://dc.lft.to/lastmile_qr_scan"}, "name": "3046e440fbd35b882e12d4ba8ef2dbea", "type": "electric_scooter", "lat": 38.88617333333333, "is_disabled": 0}, {"fusion_lat": 0.0, "lon": -77.04485316666667, "is_reserved": 0, "bike_id": "b56886cf672197255d1d2c144ed65df0", "fusion_lon": 0.0, "rental_uris": {"android": "https://dc.lft.to/lastmile_qr_scan", "ios": "https://dc.lft.to/lastmile_qr_scan"}, "name": "b56886cf672197255d1d2c144ed65df0", "type": "electric_scooter", "lat": 38.924041, "is_disabled": 0}, {"fusion_lat": 0.0, "lon": -77.0352785, "is_reserved": 0, "bike_id": "87f43e8fbd27c725699ddd981be9e3e6", "fusion_lon": 0.0, "rental_uris": {"android": "https://dc.lft.to/lastmile_qr_scan", "ios": "https://dc.lft.to/lastmile_qr_scan"}, "name": "87f43e8fbd27c725699ddd981be9e3e6", "type": "electric_scooter", "lat": 38.923182, "is_disabled": 0}, {"fusion_lat": 0.0, "lon": -77.03955433333333, "is_reserved": 0, "bike_id": "3c51d69311f93949f2c523582f505990", "fusion_lon": 0.0, "rental_uris": {"android": "https://dc.lft.to/lastmile_qr_scan", "ios": "https://dc.lft.to/lastmile_qr_scan"}, "name": "3c51d69311f93949f2c523582f505990", "type": "electric_scooter", "lat": 38.892411833333334, "is_disabled": 0}, {"fusion_lat": 0.0, "lon": -77.0558345, "is_reserved": 0, "bike_id": "ed21d4d79381317d46b903be2aeadfc4", "fusion_lon": 0.0, "rental_uris": {"android": "https://dc.lft.to/lastmile_qr_scan", "ios": "https://dc.lft.to/lastmile_qr_scan"}, "name": "ed21d4d79381317d46b903be2aeadfc4", "type": "electric_scooter", "lat": 38.93615783333333, "is_disabled": 0}, {"fusion_lat": 0.0, "lon": -77.017206, "is_reserved": 0, "bike_id": "bdff513f99322453a99adb5e9c3f2629", "fusion_lon": 0.0, "rental_uris": {"android": "https://dc.lft.to/lastmile_qr_scan", "ios": "https://dc.lft.to/lastmile_qr_scan"}, "name": "bdff513f99322453a99adb5e9c3f2629", "type": "electric_scooter", "lat": 38.9148035, "is_disabled": 0}, {"fusion_lat": 0.0, "lon": -77.0125265, "is_reserved": 0, "bike_id": "236649c165d78d162189cd46d4eaaab9", "fusion_lon": 0.0, "rental_uris": {"android": "https://dc.lft.to/lastmile_qr_scan", "ios": "https://dc.lft.to/lastmile_qr_scan"}, "name": "236649c165d78d162189cd46d4eaaab9", "type": "electric_scooter", "lat": 38.8305205, "is_disabled": 0}, {"fusion_lat": 0.0, "lon": -77.02836066666667, "is_reserved": 0, "bike_id": "fdb3f80f224644e118e099d7e5e00159", "fusion_lon": 0.0, "rental_uris": {"android": "https://dc.lft.to/lastmile_qr_scan", "ios": "https://dc.lft.to/lastmile_qr_scan"}, "name": "fdb3f80f224644e118e099d7e5e00159", "type": "electric_scooter", "lat": 38.931892500000004, "is_disabled": 0}, {"fusion_lat": 0.0, "lon": -77.00603433333333, "is_reserved": 0, "bike_id": "6bf3b82d64fbfc760fb1f58ff06bcf70", "fusion_lon": 0.0, "rental_uris": {"android": "https://dc.lft.to/lastmile_qr_scan", "ios": "https://dc.lft.to/lastmile_qr_scan"}, "name": "6bf3b82d64fbfc760fb1f58ff06bcf70", "type": "electric_bike", "lat": 38.8980275, "is_disabled": 0}, {"fusion_lat": 0.0, "lon": -77.10915683333333, "is_reserved": 0, "bike_id": "1a5c1f67883cc71f76758b80e91fc4b7", "fusion_lon": 0.0, "rental_uris": {"android": "https://dc.lft.to/lastmile_qr_scan", "ios": "https://dc.lft.to/lastmile_qr_scan"}, "name": "1a5c1f67883cc71f76758b80e91fc4b7", "type": "electric_bike", "lat": 39.05201133333333, "is_disabled": 0}, {"fusion_lat": 0.0, "lon": -77.031743, "is_reserved": 0, "bike_id": "a6fe486e7a9d7f4ba555e1636ebbec50", "fusion_lon": 0.0, "rental_uris": {"android": "https://dc.lft.to/lastmile_qr_scan", "ios": "https://dc.lft.to/lastmile_qr_scan"}, "name": "a6fe486e7a9d7f4ba555e1636ebbec50", "type": "electric_scooter", "lat": 38.91697533333333, "is_disabled": 0}, {"fusion_lat": 0.0, "lon": -77.032746, "is_reserved": 0, "bike_id": "ba8be9b95e8efc6edc7f3523d3a628fd", "fusion_lon": 0.0, "rental_uris": {"android": "https://dc.lft.to/lastmile_qr_scan", "ios": "https://dc.lft.to/lastmile_qr_scan"}, "name": "ba8be9b95e8efc6edc7f3523d3a628fd", "type": "electric_scooter", "lat": 38.9288905, "is_disabled": 0}, {"fusion_lat": 0.0, "lon": -77.04174566666667, "is_reserved": 0, "bike_id": "5cb6142dc91c96f6d6556ed9347c6fb2", "fusion_lon": 0.0, "rental_uris": {"android": "https://dc.lft.to/lastmile_qr_scan", "ios": "https://dc.lft.to/lastmile_qr_scan"}, "name": "5cb6142dc91c96f6d6556ed9347c6fb2", "type": "electric_scooter", "lat": 38.9254865, "is_disabled": 0}, {"fusion_lat": 0.0, "lon": -77.03219816666666, "is_reserved": 0, "bike_id": "0450076d4781ff4aed33ca45daee513f", "fusion_lon": 0.0, "rental_uris": {"android": "https://dc.lft.to/lastmile_qr_scan", "ios": "https://dc.lft.to/lastmile_qr_scan"}, "name": "0450076d4781ff4aed33ca45daee513f", "type": "electric_scooter", "lat": 38.925261666666664, "is_disabled": 0}, {"fusion_lat": 0.0, "lon": -77.01417483333333, "is_reserved": 0, "bike_id": "72bef8f9169306e9a06ceafa20bc4077", "fusion_lon": 0.0, "rental_uris": {"android": "https://dc.lft.to/lastmile_qr_scan", "ios": "https://dc.lft.to/lastmile_qr_scan"}, "name": "72bef8f9169306e9a06ceafa20bc4077", "type": "electric_scooter", "lat": 38.928538833333334, "is_disabled": 0}, {"fusion_lat": 0.0, "lon": -77.05954366666667, "is_reserved": 0, "bike_id": "7b5268ba14f531d1883ca361bc8a3b22", "fusion_lon": 0.0, "rental_uris": {"android": "https://dc.lft.to/lastmile_qr_scan", "ios": "https://dc.lft.to/lastmile_qr_scan"}, "name": "7b5268ba14f531d1883ca361bc8a3b22", "type": "electric_scooter", "lat": 38.905314833333335, "is_disabled": 0}, {"fusion_lat": 0.0, "lon": -77.03408216666666, "is_reserved": 0, "bike_id": "2e065c2d77d05da5d83b3454967df114", "fusion_lon": 0.0, "rental_uris": {"android": "https://dc.lft.to/lastmile_qr_scan", "ios": "https://dc.lft.to/lastmile_qr_scan"}, "name": "2e065c2d77d05da5d83b3454967df114", "type": "electric_scooter", "lat": 38.90967783333333, "is_disabled": 0}, {"fusion_lat": 0.0, "lon": -77.0197135, "is_reserved": 0, "bike_id": "098c3c095d664f67407af5b6107fda4b", "fusion_lon": 0.0, "rental_uris": {"android": "https://dc.lft.to/lastmile_qr_scan", "ios": "https://dc.lft.to/lastmile_qr_scan"}, "name": "098c3c095d664f67407af5b6107fda4b", "type": "electric_scooter", "lat": 38.9232415, "is_disabled": 0}, {"fusion_lat": 0.0, "lon": -77.04300533333333, "is_reserved": 0, "bike_id": "930fd546684bf370eb591e974ea296ab", "fusion_lon": 0.0, "rental_uris": {"android": "https://dc.lft.to/lastmile_qr_scan", "ios": "https://dc.lft.to/lastmile_qr_scan"}, "name": "930fd546684bf370eb591e974ea296ab", "type": "electric_scooter", "lat": 38.923032, "is_disabled": 0}, {"fusion_lat": 0.0, "lon": -76.99762516666667, "is_reserved": 0, "bike_id": "45182c3a83e86fdbfb148c2a6780fbcc", "fusion_lon": 0.0, "rental_uris": {"android": "https://dc.lft.to/lastmile_qr_scan", "ios": "https://dc.lft.to/lastmile_qr_scan"}, "name": "45182c3a83e86fdbfb148c2a6780fbcc", "type": "electric_scooter", "lat": 38.9219975, "is_disabled": 0}, {"fusion_lat": 0.0, "lon": -76.9300095, "is_reserved": 0, "bike_id": "d975564bcd2e3ac4fa040e0cc476ff5d", "fusion_lon": 0.0, "rental_uris": {"android": "https://dc.lft.to/lastmile_qr_scan", "ios": "https://dc.lft.to/lastmile_qr_scan"}, "name": "d975564bcd2e3ac4fa040e0cc476ff5d", "type": "electric_scooter", "lat": 38.90183866666667, "is_disabled": 0}, {"fusion_lat": 0.0, "lon": -77.04670483333334, "is_reserved": 0, "bike_id": "e8fd6d625f1d27d7a47c6d026fcecd08", "fusion_lon": 0.0, "rental_uris": {"android": "https://dc.lft.to/lastmile_qr_scan", "ios": "https://dc.lft.to/lastmile_qr_scan"}, "name": "e8fd6d625f1d27d7a47c6d026fcecd08", "type": "electric_scooter", "lat": 38.9034275, "is_disabled": 0}, {"fusion_lat": 0.0, "lon": -77.04878883333333, "is_reserved": 0, "bike_id": "73240b1e5165aac84403cb43e3b0f7a3", "fusion_lon": 0.0, "rental_uris": {"android": "https://dc.lft.to/lastmile_qr_scan", "ios": "https://dc.lft.to/lastmile_qr_scan"}, "name": "73240b1e5165aac84403cb43e3b0f7a3", "type": "electric_scooter", "lat": 38.91560966666667, "is_disabled": 0}, {"fusion_lat": 0.0, "lon": -77.0403965, "is_reserved": 0, "bike_id": "362c0e18206dd43490b7a00083aea427", "fusion_lon": 0.0, "rental_uris": {"android": "https://dc.lft.to/lastmile_qr_scan", "ios": "https://dc.lft.to/lastmile_qr_scan"}, "name": "362c0e18206dd43490b7a00083aea427", "type": "electric_scooter", "lat": 38.918591, "is_disabled": 0}, {"fusion_lat": 0.0, "lon": -76.98676366666666, "is_reserved": 0, "bike_id": "927ab739259744350d4482cda5281e14", "fusion_lon": 0.0, "rental_uris": {"android": "https://dc.lft.to/lastmile_qr_scan", "ios": "https://dc.lft.to/lastmile_qr_scan"}, "name": "927ab739259744350d4482cda5281e14", "type": "electric_scooter", "lat": 38.90969716666667, "is_disabled": 0}, {"fusion_lat": 0.0, "lon": -77.01976416666666, "is_reserved": 0, "bike_id": "5c0f3a03937037790d35227a97a0b30b", "fusion_lon": 0.0, "rental_uris": {"android": "https://dc.lft.to/lastmile_qr_scan", "ios": "https://dc.lft.to/lastmile_qr_scan"}, "name": "5c0f3a03937037790d35227a97a0b30b", "type": "electric_scooter", "lat": 38.92241333333333, "is_disabled": 0}, {"fusion_lat": 0.0, "lon": -77.01211533333333, "is_reserved": 0, "bike_id": "22ee6983969c8f2255838e87546f5e65", "fusion_lon": 0.0, "rental_uris": {"android": "https://dc.lft.to/lastmile_qr_scan", "ios": "https://dc.lft.to/lastmile_qr_scan"}, "name": "22ee6983969c8f2255838e87546f5e65", "type": "electric_scooter", "lat": 38.91831716666667, "is_disabled": 0}, {"fusion_lat": 0.0, "lon": -77.08065633333334, "is_reserved": 0, "bike_id": "b07c33f99f86bb0bbf3c8595611ec5aa", "fusion_lon": 0.0, "rental_uris": {"android": "https://dc.lft.to/lastmile_qr_scan", "ios": "https://dc.lft.to/lastmile_qr_scan"}, "name": "b07c33f99f86bb0bbf3c8595611ec5aa", "type": "electric_bike", "lat": 39.052800833333336, "is_disabled": 0}, {"fusion_lat": 0.0, "lon": -77.023117, "is_reserved": 0, "bike_id": "391346e0061ca97f35c0e36017b4d0a1", "fusion_lon": 0.0, "rental_uris": {"android": "https://dc.lft.to/lastmile_qr_scan", "ios": "https://dc.lft.to/lastmile_qr_scan"}, "name": "391346e0061ca97f35c0e36017b4d0a1", "type": "electric_scooter", "lat": 38.896028, "is_disabled": 0}, {"fusion_lat": 0.0, "lon": -77.03428366666667, "is_reserved": 0, "bike_id": "6af4ede2a5e3937cb82c4b50814426f2", "fusion_lon": 0.0, "rental_uris": {"android": "https://dc.lft.to/lastmile_qr_scan", "ios": "https://dc.lft.to/lastmile_qr_scan"}, "name": "6af4ede2a5e3937cb82c4b50814426f2", "type": "electric_bike", "lat": 38.96619916666667, "is_disabled": 0}, {"fusion_lat": 0.0, "lon": -77.05811466666667, "is_reserved": 0, "bike_id": "d5add734b07fa8da9d845e2b37b0cf7f", "fusion_lon": 0.0, "rental_uris": {"android": "https://dc.lft.to/lastmile_qr_scan", "ios": "https://dc.lft.to/lastmile_qr_scan"}, "name": "d5add734b07fa8da9d845e2b37b0cf7f", "type": "electric_scooter", "lat": 38.9350895, "is_disabled": 0}, {"fusion_lat": 0.0, "lon": -77.00684283333334, "is_reserved": 0, "bike_id": "cffbd66f2d691e9b00e5b37d1e28d553", "fusion_lon": 0.0, "rental_uris": {"android": "https://dc.lft.to/lastmile_qr_scan", "ios": "https://dc.lft.to/lastmile_qr_scan"}, "name": "cffbd66f2d691e9b00e5b37d1e28d553", "type": "electric_scooter", "lat": 38.90006833333333, "is_disabled": 0}, {"fusion_lat": 0.0, "lon": -77.027247, "is_reserved": 0, "bike_id": "b5c16abe90b526d02d6ca7962568f5e5", "fusion_lon": 0.0, "rental_uris": {"android": "https://dc.lft.to/lastmile_qr_scan", "ios": "https://dc.lft.to/lastmile_qr_scan"}, "name": "b5c16abe90b526d02d6ca7962568f5e5", "type": "electric_scooter", "lat": 38.91813466666667, "is_disabled": 0}, {"fusion_lat": 0.0, "lon": -77.04191066666667, "is_reserved": 0, "bike_id": "c4fe2d97398e690b36d3878b9257ecbe", "fusion_lon": 0.0, "rental_uris": {"android": "https://dc.lft.to/lastmile_qr_scan", "ios": "https://dc.lft.to/lastmile_qr_scan"}, "name": "c4fe2d97398e690b36d3878b9257ecbe", "type": "electric_scooter", "lat": 38.906497333333334, "is_disabled": 0}, {"fusion_lat": 0.0, "lon": -76.9741995, "is_reserved": 0, "bike_id": "a5316c51e4667ab23dc65ba98a9c2642", "fusion_lon": 0.0, "rental_uris": {"android": "https://dc.lft.to/lastmile_qr_scan", "ios": "https://dc.lft.to/lastmile_qr_scan"}, "name": "a5316c51e4667ab23dc65ba98a9c2642", "type": "electric_scooter", "lat": 38.9044645, "is_disabled": 0}, {"fusion_lat": 0.0, "lon": -76.97480383333334, "is_reserved": 0, "bike_id": "e65a340035e42aed0949cebf671b70ee", "fusion_lon": 0.0, "rental_uris": {"android": "https://dc.lft.to/lastmile_qr_scan", "ios": "https://dc.lft.to/lastmile_qr_scan"}, "name": "e65a340035e42aed0949cebf671b70ee", "type": "electric_scooter", "lat": 38.903498166666665, "is_disabled": 0}, {"fusion_lat": 0.0, "lon": -77.028986, "is_reserved": 0, "bike_id": "6e2b50634d7e9d9d9f482c95f4e9760c", "fusion_lon": 0.0, "rental_uris": {"android": "https://dc.lft.to/lastmile_qr_scan", "ios": "https://dc.lft.to/lastmile_qr_scan"}, "name": "6e2b50634d7e9d9d9f482c95f4e9760c", "type": "electric_scooter", "lat": 39.0375495, "is_disabled": 0}, {"fusion_lat": 0.0, "lon": -77.02334883333333, "is_reserved": 0, "bike_id": "36ad9824b702d4a1680892f81f65d8ae", "fusion_lon": 0.0, "rental_uris": {"android": "https://dc.lft.to/lastmile_qr_scan", "ios": "https://dc.lft.to/lastmile_qr_scan"}, "name": "36ad9824b702d4a1680892f81f65d8ae", "type": "electric_scooter", "lat": 38.92475833333334, "is_disabled": 0}, {"fusion_lat": 0.0, "lon": -77.03475616666667, "is_reserved": 0, "bike_id": "fdc369d64eeed0dc6e475ec58b78fb71", "fusion_lon": 0.0, "rental_uris": {"android": "https://dc.lft.to/lastmile_qr_scan", "ios": "https://dc.lft.to/lastmile_qr_scan"}, "name": "fdc369d64eeed0dc6e475ec58b78fb71", "type": "electric_scooter", "lat": 38.92536616666667, "is_disabled": 0}, {"fusion_lat": 0.0, "lon": -77.05114733333333, "is_reserved": 0, "bike_id": "a06679d819eae65390d2d3ae871b382d", "fusion_lon": 0.0, "rental_uris": {"android": "https://dc.lft.to/lastmile_qr_scan", "ios": "https://dc.lft.to/lastmile_qr_scan"}, "name": "a06679d819eae65390d2d3ae871b382d", "type": "electric_scooter", "lat": 38.923420166666666, "is_disabled": 0}, {"fusion_lat": 0.0, "lon": -77.04437866666666, "is_reserved": 0, "bike_id": "cdbf7d7a1378311d1510a0cd6e0cd690", "fusion_lon": 0.0, "rental_uris": {"android": "https://dc.lft.to/lastmile_qr_scan", "ios": "https://dc.lft.to/lastmile_qr_scan"}, "name": "cdbf7d7a1378311d1510a0cd6e0cd690", "type": "electric_scooter", "lat": 38.918771166666666, "is_disabled": 0}, {"fusion_lat": 0.0, "lon": -77.0246715, "is_reserved": 0, "bike_id": "14fb1cbcbf0a2708bc49fd93ad9f65fe", "fusion_lon": 0.0, "rental_uris": {"android": "https://dc.lft.to/lastmile_qr_scan", "ios": "https://dc.lft.to/lastmile_qr_scan"}, "name": "14fb1cbcbf0a2708bc49fd93ad9f65fe", "type": "electric_scooter", "lat": 38.89709666666667, "is_disabled": 0}, {"fusion_lat": 0.0, "lon": -76.93266666666666, "is_reserved": 0, "bike_id": "5cdf4a7cab57722af1643c8f986d55a8", "fusion_lon": 0.0, "rental_uris": {"android": "https://dc.lft.to/lastmile_qr_scan", "ios": "https://dc.lft.to/lastmile_qr_scan"}, "name": "5cdf4a7cab57722af1643c8f986d55a8", "type": "electric_scooter", "lat": 38.898937333333336, "is_disabled": 0}, {"fusion_lat": 0.0, "lon": -77.02201966666667, "is_reserved": 0, "bike_id": "bf1e65f5bbb6b6de9c8efefaa5b04876", "fusion_lon": 0.0, "rental_uris": {"android": "https://dc.lft.to/lastmile_qr_scan", "ios": "https://dc.lft.to/lastmile_qr_scan"}, "name": "bf1e65f5bbb6b6de9c8efefaa5b04876", "type": "electric_scooter", "lat": 38.9095115, "is_disabled": 0}, {"fusion_lat": 0.0, "lon": -77.00617316666667, "is_reserved": 0, "bike_id": "66107d8e58365e541da810676ed706d2", "fusion_lon": 0.0, "rental_uris": {"android": "https://dc.lft.to/lastmile_qr_scan", "ios": "https://dc.lft.to/lastmile_qr_scan"}, "name": "66107d8e58365e541da810676ed706d2", "type": "electric_scooter", "lat": 38.90849566666667, "is_disabled": 0}, {"fusion_lat": 0.0, "lon": -77.045002, "is_reserved": 0, "bike_id": "09ccb7f18b3df11bc9be2a5d90526f2e", "fusion_lon": 0.0, "rental_uris": {"android": "https://dc.lft.to/lastmile_qr_scan", "ios": "https://dc.lft.to/lastmile_qr_scan"}, "name": "09ccb7f18b3df11bc9be2a5d90526f2e", "type": "electric_scooter", "lat": 38.90555783333333, "is_disabled": 0}, {"fusion_lat": 0.0, "lon": -77.03690516666667, "is_reserved": 0, "bike_id": "4f037e5b26a91ecaa0f984ea8e751e15", "fusion_lon": 0.0, "rental_uris": {"android": "https://dc.lft.to/lastmile_qr_scan", "ios": "https://dc.lft.to/lastmile_qr_scan"}, "name": "4f037e5b26a91ecaa0f984ea8e751e15", "type": "electric_scooter", "lat": 38.910415, "is_disabled": 0}, {"fusion_lat": 0.0, "lon": -77.06737466666667, "is_reserved": 0, "bike_id": "432345a478265d07fcb7da12b144c86a", "fusion_lon": 0.0, "rental_uris": {"android": "https://dc.lft.to/lastmile_qr_scan", "ios": "https://dc.lft.to/lastmile_qr_scan"}, "name": "432345a478265d07fcb7da12b144c86a", "type": "electric_scooter", "lat": 38.90686083333333, "is_disabled": 0}, {"fusion_lat": 0.0, "lon": -77.04507266666667, "is_reserved": 0, "bike_id": "ecd61517c7e1db93db46538dd2733cc2", "fusion_lon": 0.0, "rental_uris": {"android": "https://dc.lft.to/lastmile_qr_scan", "ios": "https://dc.lft.to/lastmile_qr_scan"}, "name": "ecd61517c7e1db93db46538dd2733cc2", "type": "electric_scooter", "lat": 38.89217933333333, "is_disabled": 0}, {"fusion_lat": 0.0, "lon": -77.048284, "is_reserved": 0, "bike_id": "4a3ea44c48e0b5414c50bce5399ea431", "fusion_lon": 0.0, "rental_uris": {"android": "https://dc.lft.to/lastmile_qr_scan", "ios": "https://dc.lft.to/lastmile_qr_scan"}, "name": "4a3ea44c48e0b5414c50bce5399ea431", "type": "electric_scooter", "lat": 38.90471016666667, "is_disabled": 0}, {"fusion_lat": 0.0, "lon": -77.0390785, "is_reserved": 0, "bike_id": "45666b27ac6b3496a1d492d327adaac8", "fusion_lon": 0.0, "rental_uris": {"android": "https://dc.lft.to/lastmile_qr_scan", "ios": "https://dc.lft.to/lastmile_qr_scan"}, "name": "45666b27ac6b3496a1d492d327adaac8", "type": "electric_scooter", "lat": 38.91828433333333, "is_disabled": 0}, {"fusion_lat": 0.0, "lon": -77.03210916666667, "is_reserved": 0, "bike_id": "e07f1f22ce51977d0384e4139894aeac", "fusion_lon": 0.0, "rental_uris": {"android": "https://dc.lft.to/lastmile_qr_scan", "ios": "https://dc.lft.to/lastmile_qr_scan"}, "name": "e07f1f22ce51977d0384e4139894aeac", "type": "electric_scooter", "lat": 38.908227, "is_disabled": 0}, {"fusion_lat": 0.0, "lon": -77.02685683333333, "is_reserved": 0, "bike_id": "6614044b802fe712d645d4a2606ec9b2", "fusion_lon": 0.0, "rental_uris": {"android": "https://dc.lft.to/lastmile_qr_scan", "ios": "https://dc.lft.to/lastmile_qr_scan"}, "name": "6614044b802fe712d645d4a2606ec9b2", "type": "electric_scooter", "lat": 38.912643833333334, "is_disabled": 0}, {"fusion_lat": 0.0, "lon": -77.020905, "is_reserved": 0, "bike_id": "703f885d3a50247a5d9a88add4d1b8e7", "fusion_lon": 0.0, "rental_uris": {"android": "https://dc.lft.to/lastmile_qr_scan", "ios": "https://dc.lft.to/lastmile_qr_scan"}, "name": "703f885d3a50247a5d9a88add4d1b8e7", "type": "electric_scooter", "lat": 38.921982666666665, "is_disabled": 0}, {"fusion_lat": 0.0, "lon": -76.996458, "is_reserved": 0, "bike_id": "e8226f2d33beade3a3a13d5d02bbf0a7", "fusion_lon": 0.0, "rental_uris": {"android": "https://dc.lft.to/lastmile_qr_scan", "ios": "https://dc.lft.to/lastmile_qr_scan"}, "name": "e8226f2d33beade3a3a13d5d02bbf0a7", "type": "electric_bike", "lat": 38.98827216666667, "is_disabled": 0}, {"fusion_lat": 0.0, "lon": -77.02832783333334, "is_reserved": 0, "bike_id": "ba341eb3ab8c0ef84596c5c18d0fe12c", "fusion_lon": 0.0, "rental_uris": {"android": "https://dc.lft.to/lastmile_qr_scan", "ios": "https://dc.lft.to/lastmile_qr_scan"}, "name": "ba341eb3ab8c0ef84596c5c18d0fe12c", "type": "electric_scooter", "lat": 38.93175333333333, "is_disabled": 0}, {"fusion_lat": 0.0, "lon": -76.983649, "is_reserved": 0, "bike_id": "f8d07032fa5345ea9603c12441ba3d34", "fusion_lon": 0.0, "rental_uris": {"android": "https://dc.lft.to/lastmile_qr_scan", "ios": "https://dc.lft.to/lastmile_qr_scan"}, "name": "f8d07032fa5345ea9603c12441ba3d34", "type": "electric_scooter", "lat": 38.91544533333333, "is_disabled": 0}, {"fusion_lat": 0.0, "lon": -76.99033616666667, "is_reserved": 0, "bike_id": "ef33651b2d7caffb3eb4bea73b63e999", "fusion_lon": 0.0, "rental_uris": {"android": "https://dc.lft.to/lastmile_qr_scan", "ios": "https://dc.lft.to/lastmile_qr_scan"}, "name": "ef33651b2d7caffb3eb4bea73b63e999", "type": "electric_bike", "lat": 38.937556666666666, "is_disabled": 0}, {"fusion_lat": 0.0, "lon": -77.015131, "is_reserved": 0, "bike_id": "5d03712b5d1b77235dd279b92d5473c2", "fusion_lon": 0.0, "rental_uris": {"android": "https://dc.lft.to/lastmile_qr_scan", "ios": "https://dc.lft.to/lastmile_qr_scan"}, "name": "5d03712b5d1b77235dd279b92d5473c2", "type": "electric_scooter", "lat": 38.89241083333334, "is_disabled": 0}, {"fusion_lat": 0.0, "lon": -77.03670683333333, "is_reserved": 0, "bike_id": "e31599ce712f952e5061d03b8a98f9f5", "fusion_lon": 0.0, "rental_uris": {"android": "https://dc.lft.to/lastmile_qr_scan", "ios": "https://dc.lft.to/lastmile_qr_scan"}, "name": "e31599ce712f952e5061d03b8a98f9f5", "type": "electric_scooter", "lat": 38.92720716666667, "is_disabled": 0}, {"fusion_lat": 0.0, "lon": -77.01760066666667, "is_reserved": 0, "bike_id": "a551e211d20dae1819045fd67867ab96", "fusion_lon": 0.0, "rental_uris": {"android": "https://dc.lft.to/lastmile_qr_scan", "ios": "https://dc.lft.to/lastmile_qr_scan"}, "name": "a551e211d20dae1819045fd67867ab96", "type": "electric_scooter", "lat": 38.885867166666664, "is_disabled": 0}, {"fusion_lat": 0.0, "lon": -77.0660675, "is_reserved": 0, "bike_id": "4e9681018b5ed9dd321a9d761ae95246", "fusion_lon": 0.0, "rental_uris": {"android": "https://dc.lft.to/lastmile_qr_scan", "ios": "https://dc.lft.to/lastmile_qr_scan"}, "name": "4e9681018b5ed9dd321a9d761ae95246", "type": "electric_scooter", "lat": 38.90377266666667, "is_disabled": 0}, {"fusion_lat": 0.0, "lon": -77.02712916666667, "is_reserved": 0, "bike_id": "7845cf0596887ee0761280bb5dcda253", "fusion_lon": 0.0, "rental_uris": {"android": "https://dc.lft.to/lastmile_qr_scan", "ios": "https://dc.lft.to/lastmile_qr_scan"}, "name": "7845cf0596887ee0761280bb5dcda253", "type": "electric_scooter", "lat": 38.9245785, "is_disabled": 0}, {"fusion_lat": 0.0, "lon": -77.03947533333333, "is_reserved": 0, "bike_id": "0861a534dbb7dafe85a918a08992ed3e", "fusion_lon": 0.0, "rental_uris": {"android": "https://dc.lft.to/lastmile_qr_scan", "ios": "https://dc.lft.to/lastmile_qr_scan"}, "name": "0861a534dbb7dafe85a918a08992ed3e", "type": "electric_scooter", "lat": 38.90724866666667, "is_disabled": 0}, {"fusion_lat": 0.0, "lon": -77.02234466666667, "is_reserved": 0, "bike_id": "0577d3e0e769f97c86874e0fc9383953", "fusion_lon": 0.0, "rental_uris": {"android": "https://dc.lft.to/lastmile_qr_scan", "ios": "https://dc.lft.to/lastmile_qr_scan"}, "name": "0577d3e0e769f97c86874e0fc9383953", "type": "electric_scooter", "lat": 38.922274, "is_disabled": 0}, {"fusion_lat": 0.0, "lon": -76.99906083333333, "is_reserved": 0, "bike_id": "6acb4d824893e7e3759ec1e9b2614cfc", "fusion_lon": 0.0, "rental_uris": {"android": "https://dc.lft.to/lastmile_qr_scan", "ios": "https://dc.lft.to/lastmile_qr_scan"}, "name": "6acb4d824893e7e3759ec1e9b2614cfc", "type": "electric_scooter", "lat": 38.94821816666666, "is_disabled": 0}, {"fusion_lat": 0.0, "lon": -77.07905616666666, "is_reserved": 0, "bike_id": "87f78931956751cba9e20f0336ad81fc", "fusion_lon": 0.0, "rental_uris": {"android": "https://dc.lft.to/lastmile_qr_scan", "ios": "https://dc.lft.to/lastmile_qr_scan"}, "name": "87f78931956751cba9e20f0336ad81fc", "type": "electric_scooter", "lat": 38.9480185, "is_disabled": 0}, {"fusion_lat": 0.0, "lon": -77.030801, "is_reserved": 0, "bike_id": "07d90a6ad5af1773537e9c016d1edb5b", "fusion_lon": 0.0, "rental_uris": {"android": "https://dc.lft.to/lastmile_qr_scan", "ios": "https://dc.lft.to/lastmile_qr_scan"}, "name": "07d90a6ad5af1773537e9c016d1edb5b", "type": "electric_scooter", "lat": 38.90414216666667, "is_disabled": 0}, {"fusion_lat": 0.0, "lon": -77.044593, "is_reserved": 0, "bike_id": "b09d72474e2881aa5eaf696e507d70be", "fusion_lon": 0.0, "rental_uris": {"android": "https://dc.lft.to/lastmile_qr_scan", "ios": "https://dc.lft.to/lastmile_qr_scan"}, "name": "b09d72474e2881aa5eaf696e507d70be", "type": "electric_scooter", "lat": 38.91268, "is_disabled": 0}, {"fusion_lat": 0.0, "lon": -77.03332616666667, "is_reserved": 0, "bike_id": "46a3317b6067fde0c61ddd9486f98dd8", "fusion_lon": 0.0, "rental_uris": {"android": "https://dc.lft.to/lastmile_qr_scan", "ios": "https://dc.lft.to/lastmile_qr_scan"}, "name": "46a3317b6067fde0c61ddd9486f98dd8", "type": "electric_scooter", "lat": 38.9014255, "is_disabled": 0}, {"fusion_lat": 0.0, "lon": -77.0069595, "is_reserved": 0, "bike_id": "2ea64c8f49ad4e4f0d0c7ce88feedd32", "fusion_lon": 0.0, "rental_uris": {"android": "https://dc.lft.to/lastmile_qr_scan", "ios": "https://dc.lft.to/lastmile_qr_scan"}, "name": "2ea64c8f49ad4e4f0d0c7ce88feedd32", "type": "electric_scooter", "lat": 38.952475666666665, "is_disabled": 0}, {"fusion_lat": 0.0, "lon": -77.03433366666667, "is_reserved": 0, "bike_id": "3a11a8adf4af6e9d3a6a0313a97a58bd", "fusion_lon": 0.0, "rental_uris": {"android": "https://dc.lft.to/lastmile_qr_scan", "ios": "https://dc.lft.to/lastmile_qr_scan"}, "name": "3a11a8adf4af6e9d3a6a0313a97a58bd", "type": "electric_bike", "lat": 38.96533683333333, "is_disabled": 0}, {"fusion_lat": 0.0, "lon": -77.04354833333333, "is_reserved": 0, "bike_id": "cecc9f051c9cbd2d2019e251d18e02e6", "fusion_lon": 0.0, "rental_uris": {"android": "https://dc.lft.to/lastmile_qr_scan", "ios": "https://dc.lft.to/lastmile_qr_scan"}, "name": "cecc9f051c9cbd2d2019e251d18e02e6", "type": "electric_scooter", "lat": 38.9040555, "is_disabled": 0}, {"fusion_lat": 0.0, "lon": -77.01410883333334, "is_reserved": 0, "bike_id": "5e4caa4f33cc65579f41e4adc1da76f3", "fusion_lon": 0.0, "rental_uris": {"android": "https://dc.lft.to/lastmile_qr_scan", "ios": "https://dc.lft.to/lastmile_qr_scan"}, "name": "5e4caa4f33cc65579f41e4adc1da76f3", "type": "electric_scooter", "lat": 38.92878966666667, "is_disabled": 0}, {"fusion_lat": 0.0, "lon": -77.00051483333333, "is_reserved": 0, "bike_id": "d133896d27b240964015354910ce314c", "fusion_lon": 0.0, "rental_uris": {"android": "https://dc.lft.to/lastmile_qr_scan", "ios": "https://dc.lft.to/lastmile_qr_scan"}, "name": "d133896d27b240964015354910ce314c", "type": "electric_scooter", "lat": 38.898353, "is_disabled": 0}, {"fusion_lat": 0.0, "lon": -77.033794, "is_reserved": 0, "bike_id": "97222c5b35fde78ed42654e70d4fc385", "fusion_lon": 0.0, "rental_uris": {"android": "https://dc.lft.to/lastmile_qr_scan", "ios": "https://dc.lft.to/lastmile_qr_scan"}, "name": "97222c5b35fde78ed42654e70d4fc385", "type": "electric_scooter", "lat": 38.92530933333333, "is_disabled": 0}, {"fusion_lat": 0.0, "lon": -77.05206283333334, "is_reserved": 0, "bike_id": "1c49b0ad1213a780be76216a0d7fb6f7", "fusion_lon": 0.0, "rental_uris": {"android": "https://dc.lft.to/lastmile_qr_scan", "ios": "https://dc.lft.to/lastmile_qr_scan"}, "name": "1c49b0ad1213a780be76216a0d7fb6f7", "type": "electric_scooter", "lat": 38.92469783333333, "is_disabled": 0}, {"fusion_lat": 0.0, "lon": -77.04214316666666, "is_reserved": 0, "bike_id": "9d51fc41978c8bffe0370b7036aff962", "fusion_lon": 0.0, "rental_uris": {"android": "https://dc.lft.to/lastmile_qr_scan", "ios": "https://dc.lft.to/lastmile_qr_scan"}, "name": "9d51fc41978c8bffe0370b7036aff962", "type": "electric_scooter", "lat": 38.92315966666666, "is_disabled": 0}, {"fusion_lat": 0.0, "lon": -77.03204783333334, "is_reserved": 0, "bike_id": "998bff0f8744881362c5ebbbb2859c7d", "fusion_lon": 0.0, "rental_uris": {"android": "https://dc.lft.to/lastmile_qr_scan", "ios": "https://dc.lft.to/lastmile_qr_scan"}, "name": "998bff0f8744881362c5ebbbb2859c7d", "type": "electric_scooter", "lat": 38.912887, "is_disabled": 0}, {"fusion_lat": 0.0, "lon": -77.07433066666667, "is_reserved": 0, "bike_id": "9c1930069e46480553b295a5940e6d25", "fusion_lon": 0.0, "rental_uris": {"android": "https://dc.lft.to/lastmile_qr_scan", "ios": "https://dc.lft.to/lastmile_qr_scan"}, "name": "9c1930069e46480553b295a5940e6d25", "type": "electric_bike", "lat": 38.9994425, "is_disabled": 0}, {"fusion_lat": 0.0, "lon": -77.00767, "is_reserved": 0, "bike_id": "d237c281cb9e3acfa3f68005170e9a6a", "fusion_lon": 0.0, "rental_uris": {"android": "https://dc.lft.to/lastmile_qr_scan", "ios": "https://dc.lft.to/lastmile_qr_scan"}, "name": "d237c281cb9e3acfa3f68005170e9a6a", "type": "electric_scooter", "lat": 38.825989666666665, "is_disabled": 0}, {"fusion_lat": 0.0, "lon": -77.02436616666667, "is_reserved": 0, "bike_id": "e64ad0398a7b073b3ed149cd9ea1f8f3", "fusion_lon": 0.0, "rental_uris": {"android": "https://dc.lft.to/lastmile_qr_scan", "ios": "https://dc.lft.to/lastmile_qr_scan"}, "name": "e64ad0398a7b073b3ed149cd9ea1f8f3", "type": "electric_scooter", "lat": 38.92724616666667, "is_disabled": 0}, {"fusion_lat": 0.0, "lon": -77.03797783333333, "is_reserved": 0, "bike_id": "ff0306381290eacf4798687a01fcef7a", "fusion_lon": 0.0, "rental_uris": {"android": "https://dc.lft.to/lastmile_qr_scan", "ios": "https://dc.lft.to/lastmile_qr_scan"}, "name": "ff0306381290eacf4798687a01fcef7a", "type": "electric_scooter", "lat": 38.9103055, "is_disabled": 0}, {"fusion_lat": 0.0, "lon": -76.98716716666667, "is_reserved": 0, "bike_id": "91015fcb4114561291847c32224a5d3f", "fusion_lon": 0.0, "rental_uris": {"android": "https://dc.lft.to/lastmile_qr_scan", "ios": "https://dc.lft.to/lastmile_qr_scan"}, "name": "91015fcb4114561291847c32224a5d3f", "type": "electric_scooter", "lat": 38.86623, "is_disabled": 0}, {"fusion_lat": 0.0, "lon": -77.02316933333333, "is_reserved": 0, "bike_id": "b1ffcf6c3c0f42e0c90345ae636c9ec9", "fusion_lon": 0.0, "rental_uris": {"android": "https://dc.lft.to/lastmile_qr_scan", "ios": "https://dc.lft.to/lastmile_qr_scan"}, "name": "b1ffcf6c3c0f42e0c90345ae636c9ec9", "type": "electric_scooter", "lat": 38.90874516666667, "is_disabled": 0}, {"fusion_lat": 0.0, "lon": -77.015335, "is_reserved": 0, "bike_id": "17d51bd544a8393003d8695ee2eb1a1c", "fusion_lon": 0.0, "rental_uris": {"android": "https://dc.lft.to/lastmile_qr_scan", "ios": "https://dc.lft.to/lastmile_qr_scan"}, "name": "17d51bd544a8393003d8695ee2eb1a1c", "type": "electric_scooter", "lat": 38.886455166666664, "is_disabled": 0}, {"fusion_lat": 0.0, "lon": -76.99153383333334, "is_reserved": 0, "bike_id": "57d5b85eb110f947a4b1639518cc6daf", "fusion_lon": 0.0, "rental_uris": {"android": "https://dc.lft.to/lastmile_qr_scan", "ios": "https://dc.lft.to/lastmile_qr_scan"}, "name": "57d5b85eb110f947a4b1639518cc6daf", "type": "electric_scooter", "lat": 38.86324483333333, "is_disabled": 0}, {"fusion_lat": 0.0, "lon": -77.03595066666666, "is_reserved": 0, "bike_id": "562af68b0aa7e2a5fd8cf43fe9d488f0", "fusion_lon": 0.0, "rental_uris": {"android": "https://dc.lft.to/lastmile_qr_scan", "ios": "https://dc.lft.to/lastmile_qr_scan"}, "name": "562af68b0aa7e2a5fd8cf43fe9d488f0", "type": "electric_scooter", "lat": 38.936711, "is_disabled": 0}, {"fusion_lat": 0.0, "lon": -77.02428133333333, "is_reserved": 0, "bike_id": "77b7df8dc703dd578cea4a1015b1afc3", "fusion_lon": 0.0, "rental_uris": {"android": "https://dc.lft.to/lastmile_qr_scan", "ios": "https://dc.lft.to/lastmile_qr_scan"}, "name": "77b7df8dc703dd578cea4a1015b1afc3", "type": "electric_scooter", "lat": 38.89726233333333, "is_disabled": 0}, {"fusion_lat": 0.0, "lon": -77.0198145, "is_reserved": 0, "bike_id": "2f8ce8ad087075257110e4b1f320af42", "fusion_lon": 0.0, "rental_uris": {"android": "https://dc.lft.to/lastmile_qr_scan", "ios": "https://dc.lft.to/lastmile_qr_scan"}, "name": "2f8ce8ad087075257110e4b1f320af42", "type": "electric_scooter", "lat": 38.88720816666667, "is_disabled": 0}, {"fusion_lat": 0.0, "lon": -77.04456766666667, "is_reserved": 0, "bike_id": "2231136a0c2a4ab0b712c8059f4e1f8f", "fusion_lon": 0.0, "rental_uris": {"android": "https://dc.lft.to/lastmile_qr_scan", "ios": "https://dc.lft.to/lastmile_qr_scan"}, "name": "2231136a0c2a4ab0b712c8059f4e1f8f", "type": "electric_scooter", "lat": 38.9239745, "is_disabled": 0}, {"fusion_lat": 0.0, "lon": -77.02720333333333, "is_reserved": 0, "bike_id": "c3d8db7478dade83770fa67daa58454b", "fusion_lon": 0.0, "rental_uris": {"android": "https://dc.lft.to/lastmile_qr_scan", "ios": "https://dc.lft.to/lastmile_qr_scan"}, "name": "c3d8db7478dade83770fa67daa58454b", "type": "electric_scooter", "lat": 38.9110415, "is_disabled": 0}, {"fusion_lat": 0.0, "lon": -77.04624066666666, "is_reserved": 0, "bike_id": "069278a355c2627dac80817e02819856", "fusion_lon": 0.0, "rental_uris": {"android": "https://dc.lft.to/lastmile_qr_scan", "ios": "https://dc.lft.to/lastmile_qr_scan"}, "name": "069278a355c2627dac80817e02819856", "type": "electric_scooter", "lat": 38.92320133333333, "is_disabled": 0}, {"fusion_lat": 0.0, "lon": -77.03327366666667, "is_reserved": 0, "bike_id": "8d0c1e64b52384ff51f7d63f961774ae", "fusion_lon": 0.0, "rental_uris": {"android": "https://dc.lft.to/lastmile_qr_scan", "ios": "https://dc.lft.to/lastmile_qr_scan"}, "name": "8d0c1e64b52384ff51f7d63f961774ae", "type": "electric_scooter", "lat": 38.900011666666664, "is_disabled": 0}, {"fusion_lat": 0.0, "lon": -77.031896, "is_reserved": 0, "bike_id": "292b89b0237bb2238ebb1851e8561b7b", "fusion_lon": 0.0, "rental_uris": {"android": "https://dc.lft.to/lastmile_qr_scan", "ios": "https://dc.lft.to/lastmile_qr_scan"}, "name": "292b89b0237bb2238ebb1851e8561b7b", "type": "electric_scooter", "lat": 38.91567766666667, "is_disabled": 0}, {"fusion_lat": 0.0, "lon": -77.03440866666666, "is_reserved": 0, "bike_id": "aa87fdf8b9633aee297b077481dbac7a", "fusion_lon": 0.0, "rental_uris": {"android": "https://dc.lft.to/lastmile_qr_scan", "ios": "https://dc.lft.to/lastmile_qr_scan"}, "name": "aa87fdf8b9633aee297b077481dbac7a", "type": "electric_scooter", "lat": 38.916901, "is_disabled": 0}, {"fusion_lat": 0.0, "lon": -77.05414066666667, "is_reserved": 0, "bike_id": "2c3ee7f90dd7c05d2ac617c5cb410274", "fusion_lon": 0.0, "rental_uris": {"android": "https://dc.lft.to/lastmile_qr_scan", "ios": "https://dc.lft.to/lastmile_qr_scan"}, "name": "2c3ee7f90dd7c05d2ac617c5cb410274", "type": "electric_scooter", "lat": 38.92784566666667, "is_disabled": 0}, {"fusion_lat": 0.0, "lon": -77.05933666666667, "is_reserved": 0, "bike_id": "5120189231c32e7e6badaf4871766b57", "fusion_lon": 0.0, "rental_uris": {"android": "https://dc.lft.to/lastmile_qr_scan", "ios": "https://dc.lft.to/lastmile_qr_scan"}, "name": "5120189231c32e7e6badaf4871766b57", "type": "electric_scooter", "lat": 38.94300783333333, "is_disabled": 0}, {"fusion_lat": 0.0, "lon": -76.984935, "is_reserved": 0, "bike_id": "d11724cacb9847e5023f01a18d7f6bec", "fusion_lon": 0.0, "rental_uris": {"android": "https://dc.lft.to/lastmile_qr_scan", "ios": "https://dc.lft.to/lastmile_qr_scan"}, "name": "d11724cacb9847e5023f01a18d7f6bec", "type": "electric_scooter", "lat": 38.9151055, "is_disabled": 0}, {"fusion_lat": 0.0, "lon": -77.03439233333333, "is_reserved": 0, "bike_id": "a33277a4364002430a1717a494363316", "fusion_lon": 0.0, "rental_uris": {"android": "https://dc.lft.to/lastmile_qr_scan", "ios": "https://dc.lft.to/lastmile_qr_scan"}, "name": "a33277a4364002430a1717a494363316", "type": "electric_scooter", "lat": 38.910104, "is_disabled": 0}, {"fusion_lat": 0.0, "lon": -77.00675333333334, "is_reserved": 0, "bike_id": "13bd84e2cb07c90113fd0b9f2ae349a0", "fusion_lon": 0.0, "rental_uris": {"android": "https://dc.lft.to/lastmile_qr_scan", "ios": "https://dc.lft.to/lastmile_qr_scan"}, "name": "13bd84e2cb07c90113fd0b9f2ae349a0", "type": "electric_scooter", "lat": 38.90004533333333, "is_disabled": 0}, {"fusion_lat": 0.0, "lon": -77.02227983333333, "is_reserved": 0, "bike_id": "6a5dd71b5d10dc09334594b9e7fcfaac", "fusion_lon": 0.0, "rental_uris": {"android": "https://dc.lft.to/lastmile_qr_scan", "ios": "https://dc.lft.to/lastmile_qr_scan"}, "name": "6a5dd71b5d10dc09334594b9e7fcfaac", "type": "electric_scooter", "lat": 38.8874285, "is_disabled": 0},