{"data": {"bikes": [{"name": "2643442971ad19b3fbcd2ce6605c398d", "lon": -77.06026116666666, "lat": 38.90178683333333, "type": "electric_scooter", "fusion_lon": 0.0, "is_reserved": 0, "bike_id": "2643442971ad19b3fbcd2ce6605c398d", "fusion_lat": 0.0, "is_disabled": 0, "rental_uris": {"ios": "https://dc.lft.to/lastmile_qr_scan", "android": "https://dc.lft.to/lastmile_qr_scan"}}, {"name": "57720f3e9a08635f27bbc970477159cf", "lon": -77.03668433333333, "lat": 38.92726483333333, "type": "electric_scooter", "fusion_lon": 0.0, "is_reserved": 0, "bike_id": "57720f3e9a08635f27bbc970477159cf", "fusion_lat": 0.0, "is_disabled": 0, "rental_uris": {"ios": "https://dc.lft.to/lastmile_qr_scan", "android": "https://dc.lft.to/lastmile_qr_scan"}}, {"name": "f2cbfb804ea43bb6990296e4a3dbe72c", "lon": -77.04345, "lat": 38.906563166666665, "type": "electric_scooter", "fusion_lon": 0.0, "is_reserved": 0, "bike_id": "f2cbfb804ea43bb6990296e4a3dbe72c", "fusion_lat": 0.0, "is_disabled": 0, "rental_uris": {"ios": "https://dc.lft.to/lastmile_qr_scan", "android": "https://dc.lft.to/lastmile_qr_scan"}}, {"name": "faad9010cef63ee35a90ec81d4034165", "lon": -76.98710783333334, "lat": 38.90067283333333, "type": "electric_scooter", "fusion_lon": 0.0, "is_reserved": 0, "bike_id": "faad9010cef63ee35a90ec81d4034165", "fusion_lat": 0.0, "is_disabled": 0, "rental_uris": {"ios": "https://dc.lft.to/lastmile_qr_scan", "android": "https://dc.lft.to/lastmile_qr_scan"}}, {"name": "666665043eb183c10b2bbf9e80a6ea7c", "lon": -77.0271775, "lat": 38.92459933333333, "type": "electric_scooter", "fusion_lon": 0.0, "is_reserved": 0, "bike_id": "666665043eb183c10b2bbf9e80a6ea7c", "fusion_lat": 0.0, "is_disabled": 0, "rental_uris": {"ios": "https://dc.lft.to/lastmile_qr_scan", "android": "https://dc.lft.to/lastmile_qr_scan"}}, {"name": "97651d9843701d472d3021fba745dfe6", "lon": -77.01410733333333, "lat": 38.92851533333334, "type": "electric_scooter", "fusion_lon": 0.0, "is_reserved": 0, "bike_id": "97651d9843701d472d3021fba745dfe6", "fusion_lat": 0.0, "is_disabled": 0, "rental_uris": {"ios": "https://dc.lft.to/lastmile_qr_scan", "android": "https://dc.lft.to/lastmile_qr_scan"}}, {"name": "12af4e40138cfe7c67547d0a9e3aafac", "lon": -77.04018733333334, "lat": 38.918434500000004, "type": "electric_scooter", "fusion_lon": 0.0, "is_reserved": 0, "bike_id": "12af4e40138cfe7c67547d0a9e3aafac", "fusion_lat": 0.0, "is_disabled": 0, "rental_uris": {"ios": "https://dc.lft.to/lastmile_qr_scan", "android": "https://dc.lft.to/lastmile_qr_scan"}}, {"name": "4d85b6d0f58e923cd122d33592d5ba9f", "lon": -77.03075933333334, "lat": 38.904369833333334, "type": "electric_scooter", "fusion_lon": 0.0, "is_reserved": 0, "bike_id": "4d85b6d0f58e923cd122d33592d5ba9f", "fusion_lat": 0.0, "is_disabled": 0, "rental_uris": {"ios": "https://dc.lft.to/lastmile_qr_scan", "android": "https://dc.lft.to/lastmile_qr_scan"}}, {"name": "369848c1d24d13c573f7e93b3ba9785a", "lon": -77.07906816666667, "lat": 38.948067, "type": "electric_scooter", "fusion_lon": 0.0, "is_reserved": 0, "bike_id": "369848c1d24d13c573f7e93b3ba9785a", "fusion_lat": 0.0, "is_disabled": 0, "rental_uris": {"ios": "https://dc.lft.to/lastmile_qr_scan", "android": "https://dc.lft.to/lastmile_qr_scan"}}, {"name": "805704a86136ebe45beefd87c07bd666", "lon": -76.999024, "lat": 38.94825983333333, "type": "electric_scooter", "fusion_lon": 0.0, "is_reserved": 0, "bike_id": "805704a86136ebe45beefd87c07bd666", "fusion_lat": 0.0, "is_disabled": 0, "rental_uris": {"ios": "https://dc.lft.to/lastmile_qr_scan", "android": "https://dc.lft.to/lastmile_qr_scan"}}, {"name": "39754f6317261c0f6fd069643933a0e1", "lon": -77.02718933333334, "lat": 38.90683833333333, "type": "electric_scooter", "fusion_lon": 0.0, "is_reserved": 0, "bike_id": "39754f6317261c0f6fd069643933a0e1", "fusion_lat": 0.0, "is_disabled": 0, "rental_uris": {"ios": "https://dc.lft.to/lastmile_qr_scan", "android": "https://dc.lft.to/lastmile_qr_scan"}}, {"name": "e91bc3c06af888a850305b4dde76ca5d", "lon": -76.98690433333333, "lat": 38.94472, "type": "electric_bike", "fusion_lon": 0.0, "is_reserved": 0, "bike_id": "e91bc3c06af888a850305b4dde76ca5d", "fusion_lat": 0.0, "is_disabled": 0, "rental_uris": {"ios": "https://dc.lft.to/lastmile_qr_scan", "android": "https://dc.lft.to/lastmile_qr_scan"}}, {"name": "7d63ec4b78fa3db9110f4bfadfc6090f", "lon": -77.00244233333333, "lat": 38.957226166666665, "type": "electric_scooter", "fusion_lon": 0.0, "is_reserved": 0, "bike_id": "7d63ec4b78fa3db9110f4bfadfc6090f", "fusion_lat": 0.0, "is_disabled": 0, "rental_uris": {"ios": "https://dc.lft.to/lastmile_qr_scan", "android": "https://dc.lft.to/lastmile_qr_scan"}}, {"name": "69af7cb66d2777d0bc4ff2e82af01fc7", "lon": -76.99680783333334, "lat": 38.924911333333334, "type": "electric_bike", "fusion_lon": 0.0, "is_reserved": 0, "bike_id": "69af7cb66d2777d0bc4ff2e82af01fc7", "fusion_lat": 0.0, "is_disabled": 0, "rental_uris": {"ios": "https://dc.lft.to/lastmile_qr_scan", "android": "https://dc.lft.to/lastmile_qr_scan"}}, {"name": "8bff613be0a13d2fa1a8accc56b44e3d", "lon": -76.94970533333333, "lat": 38.904883833333336, "type": "electric_scooter", "fusion_lon": 0.0, "is_reserved": 0, "bike_id": "8bff613be0a13d2fa1a8accc56b44e3d", "fusion_lat": 0.0, "is_disabled": 0, "rental_uris": {"ios": "https://dc.lft.to/lastmile_qr_scan", "android": "https://dc.lft.to/lastmile_qr_scan"}}, {"name": "770f5a58df19cd628778594c39584126", "lon": -77.050554, "lat": 38.92418, "type": "electric_scooter", "fusion_lon": 0.0, "is_reserved": 0, "bike_id": "770f5a58df19cd628778594c39584126", "fusion_lat": 0.0, "is_disabled": 0, "rental_uris": {"ios": "https://dc.lft.to/lastmile_qr_scan", "android": "https://dc.lft.to/lastmile_qr_scan"}}, {"name": "6dd93284c231487a33115bffd3b8992c", "lon": -77.04432216666666, "lat": 38.921199, "type": "electric_scooter", "fusion_lon": 0.0, "is_reserved": 0, "bike_id": "6dd93284c231487a33115bffd3b8992c", "fusion_lat": 0.0, "is_disabled": 0, "rental_uris": {"ios": "https://dc.lft.to/lastmile_qr_scan", "android": "https://dc.lft.to/lastmile_qr_scan"}}, {"name": "8d0f3b226304a4d42a35fc209efbb4c7", "lon": -77.03839366666666, "lat": 38.907174166666664, "type": "electric_scooter", "fusion_lon": 0.0, "is_reserved": 0, "bike_id": "8d0f3b226304a4d42a35fc209efbb4c7", "fusion_lat": 0.0, "is_disabled": 0, "rental_uris": {"ios": "https://dc.lft.to/lastmile_qr_scan", "android": "https://dc.lft.to/lastmile_qr_scan"}}, {"name": "9a67e248d102e53cb035325e232a6ca5", "lon": -77.01642316666667, "lat": 38.879216666666665, "type": "electric_scooter", "fusion_lon": 0.0, "is_reserved": 0, "bike_id": "9a67e248d102e53cb035325e232a6ca5", "fusion_lat": 0.0, "is_disabled": 0, "rental_uris": {"ios": "https://dc.lft.to/lastmile_qr_scan", "android": "https://dc.lft.to/lastmile_qr_scan"}}, {"name": "c516d30986b3f53698103a7568d0d530", "lon": -76.97595266666667, "lat": 38.903292666666665, "type": "electric_bike", "fusion_lon": 0.0, "is_reserved": 0, "bike_id": "c516d30986b3f53698103a7568d0d530", "fusion_lat": 0.0, "is_disabled": 0, "rental_uris": {"ios": "https://dc.lft.to/lastmile_qr_scan", "android": "https://dc.lft.to/lastmile_qr_scan"}}, {"name": "6d0f3b20e34daf96ab71537c01ef133e", "lon": -76.9511255, "lat": 38.88777283333334, "type": "electric_scooter", "fusion_lon": 0.0, "is_reserved": 0, "bike_id": "6d0f3b20e34daf96ab71537c01ef133e", "fusion_lat": 0.0, "is_disabled": 0, "rental_uris": {"ios": "https://dc.lft.to/lastmile_qr_scan", "android": "https://dc.lft.to/lastmile_qr_scan"}}, {"name": "d2d4ad7416c9fa8bb47d7af265d0abab", "lon": -77.03824916666667, "lat": 38.918167333333336, "type": "electric_scooter", "fusion_lon": 0.0, "is_reserved": 0, "bike_id": "d2d4ad7416c9fa8bb47d7af265d0abab", "fusion_lat": 0.0, "is_disabled": 0, "rental_uris": {"ios": "https://dc.lft.to/lastmile_qr_scan", "android": "https://dc.lft.to/lastmile_qr_scan"}}, {"name": "7c85493f77b7ceea27758a004b4b0450", "lon": -77.03802283333333, "lat": 38.930534333333334, "type": "electric_scooter", "fusion_lon": 0.0, "is_reserved": 0, "bike_id": "7c85493f77b7ceea27758a004b4b0450", "fusion_lat": 0.0, "is_disabled": 0, "rental_uris": {"ios": "https://dc.lft.to/lastmile_qr_scan", "android": "https://dc.lft.to/lastmile_qr_scan"}}, {"name": "0f38ff7c442603b95758747a8e3216f1", "lon": -77.031292, "lat": 38.914895666666666, "type": "electric_scooter", "fusion_lon": 0.0, "is_reserved": 0, "bike_id": "0f38ff7c442603b95758747a8e3216f1", "fusion_lat": 0.0, "is_disabled": 0, "rental_uris": {"ios": "https://dc.lft.to/lastmile_qr_scan", "android": "https://dc.lft.to/lastmile_qr_scan"}}, {"name": "b4877a3b49f4ce93e06cd43f8fd65e1b", "lon": -77.02709333333334, "lat": 38.9181655, "type": "electric_scooter", "fusion_lon": 0.0, "is_reserved": 0, "bike_id": "b4877a3b49f4ce93e06cd43f8fd65e1b", "fusion_lat": 0.0, "is_disabled": 0, "rental_uris": {"ios": "https://dc.lft.to/lastmile_qr_scan", "android": "https://dc.lft.to/lastmile_qr_scan"}}, {"name": "b1c664dad7e031a681e317c7b7c40564", "lon": -77.03018266666666, "lat": 38.897449, "type": "electric_scooter", "fusion_lon": 0.0, "is_reserved": 0, "bike_id": "b1c664dad7e031a681e317c7b7c40564", "fusion_lat": 0.0, "is_disabled": 0, "rental_uris": {"ios": "https://dc.lft.to/lastmile_qr_scan", "android": "https://dc.lft.to/lastmile_qr_scan"}}, {"name": "d9313497f8c29a38b5541881c0eb8c61", "lon": -77.04414016666666, "lat": 38.921277, "type": "electric_scooter", "fusion_lon": 0.0, "is_reserved": 0, "bike_id": "d9313497f8c29a38b5541881c0eb8c61", "fusion_lat": 0.0, "is_disabled": 0, "rental_uris": {"ios": "https://dc.lft.to/lastmile_qr_scan", "android": "https://dc.lft.to/lastmile_qr_scan"}}, {"name": "d0beb194263cd21e96b84f5ae1956ac9", "lon": -77.04076533333334, "lat": 38.925377, "type": "electric_scooter", "fusion_lon": 0.0, "is_reserved": 0, "bike_id": "d0beb194263cd21e96b84f5ae1956ac9", "fusion_lat": 0.0, "is_disabled": 0, "rental_uris": {"ios": "https://dc.lft.to/lastmile_qr_scan", "android": "https://dc.lft.to/lastmile_qr_scan"}}, {"name": "5444485ab89f5351dfa0205a44e7d875", "lon": -77.04870583333333, "lat": 38.892704, "type": "electric_scooter", "fusion_lon": 0.0, "is_reserved": 0, "bike_id": "5444485ab89f5351dfa0205a44e7d875", "fusion_lat": 0.0, "is_disabled": 0, "rental_uris": {"ios": "https://dc.lft.to/lastmile_qr_scan", "android": "https://dc.lft.to/lastmile_qr_scan"}}, {"name": "f631b6732cbdc5aa73abe6db649040a4", "lon": -77.0283905, "lat": 38.965086166666666, "type": "electric_bike", "fusion_lon": 0.0, "is_reserved": 0, "bike_id": "f631b6732cbdc5aa73abe6db649040a4", "fusion_lat": 0.0, "is_disabled": 0, "rental_uris": {"ios": "https://dc.lft.to/lastmile_qr_scan", "android": "https://dc.lft.to/lastmile_qr_scan"}}, {"name": "a60fc96d9f6d1b95298d3ca53b514301", "lon": -77.04612483333334, "lat": 38.923313, "type": "electric_scooter", "fusion_lon": 0.0, "is_reserved": 0, "bike_id": "a60fc96d9f6d1b95298d3ca53b514301", "fusion_lat": 0.0, "is_disabled": 0, "rental_uris": {"ios": "https://dc.lft.to/lastmile_qr_scan", "android": "https://dc.lft.to/lastmile_qr_scan"}}, {"name": "f0df9865e33b80a6bdedf02810377610", "lon": -76.98891016666667, "lat": 38.86663466666667, "type": "electric_scooter", "fusion_lon": 0.0, "is_reserved": 0, "bike_id": "f0df9865e33b80a6bdedf02810377610", "fusion_lat": 0.0, "is_disabled": 0, "rental_uris": {"ios": "https://dc.lft.to/lastmile_qr_scan", "android": "https://dc.lft.to/lastmile_qr_scan"}}, {"name": "372652ae3e768ff2c9aa81d28c071cd6", "lon": -77.04935183333333, "lat": 38.90995266666667, "type": "electric_scooter", "fusion_lon": 0.0, "is_reserved": 0, "bike_id": "372652ae3e768ff2c9aa81d28c071cd6", "fusion_lat": 0.0, "is_disabled": 0, "rental_uris": {"ios": "https://dc.lft.to/lastmile_qr_scan", "android": "https://dc.lft.to/lastmile_qr_scan"}}, {"name": "e81c1bdd615e0aff7967c40ae5d084db", "lon": -77.046593, "lat": 38.913607, "type": "electric_scooter", "fusion_lon": 0.0, "is_reserved": 0, "bike_id": "e81c1bdd615e0aff7967c40ae5d084db", "fusion_lat": 0.0, "is_disabled": 0, "rental_uris": {"ios": "https://dc.lft.to/lastmile_qr_scan", "android": "https://dc.lft.to/lastmile_qr_scan"}}, {"name": "9cd64480ddecc0078d0fe2118a19d7af", "lon": -77.11565766666666, "lat": 38.99330333333333, "type": "electric_bike", "fusion_lon": 0.0, "is_reserved": 0, "bike_id": "9cd64480ddecc0078d0fe2118a19d7af", "fusion_lat": 0.0, "is_disabled": 0, "rental_uris": {"ios": "https://dc.lft.to/lastmile_qr_scan", "android": "https://dc.lft.to/lastmile_qr_scan"}}, {"name": "07f2add334e088b0250577f66afd9008", "lon": -77.01967133333333, "lat": 38.95652466666667, "type": "electric_scooter", "fusion_lon": 0.0, "is_reserved": 0, "bike_id": "07f2add334e088b0250577f66afd9008", "fusion_lat": 0.0, "is_disabled": 0, "rental_uris": {"ios": "https://dc.lft.to/lastmile_qr_scan", "android": "https://dc.lft.to/lastmile_qr_scan"}}, {"name": "b52ac9c9e49fb5b3d2d5b537ea823165", "lon": -77.01301166666667, "lat": 38.89491183333333, "type": "electric_scooter", "fusion_lon": 0.0, "is_reserved": 0, "bike_id": "b52ac9c9e49fb5b3d2d5b537ea823165", "fusion_lat": 0.0, "is_disabled": 0, "rental_uris": {"ios": "https://dc.lft.to/lastmile_qr_scan", "android": "https://dc.lft.to/lastmile_qr_scan"}}, {"name": "d3b1d17314f37aae8cf16a549e6fadf0", "lon": -77.02904883333333, "lat": 38.917046, "type": "electric_scooter", "fusion_lon": 0.0, "is_reserved": 0, "bike_id": "d3b1d17314f37aae8cf16a549e6fadf0", "fusion_lat": 0.0, "is_disabled": 0, "rental_uris": {"ios": "https://dc.lft.to/lastmile_qr_scan", "android": "https://dc.lft.to/lastmile_qr_scan"}}, {"name": "bf270b182a689ce281902927acb18c72", "lon": -77.02947516666667, "lat": 38.90510066666667, "type": "electric_scooter", "fusion_lon": 0.0, "is_reserved": 0, "bike_id": "bf270b182a689ce281902927acb18c72", "fusion_lat": 0.0, "is_disabled": 0, "rental_uris": {"ios": "https://dc.lft.to/lastmile_qr_scan", "android": "https://dc.lft.to/lastmile_qr_scan"}}, {"name": "e41b77f14e14d31a955c5ef35cf1b91f", "lon": -77.027246, "lat": 38.915664, "type": "electric_scooter", "fusion_lon": 0.0, "is_reserved": 0, "bike_id": "e41b77f14e14d31a955c5ef35cf1b91f", "fusion_lat": 0.0, "is_disabled": 0, "rental_uris": {"ios": "https://dc.lft.to/lastmile_qr_scan", "android": "https://dc.lft.to/lastmile_qr_scan"}}, {"name": "f68bf3ed1ddaa7926128c9951e3db0d8", "lon": -76.99451983333333, "lat": 38.908237166666666, "type": "electric_scooter", "fusion_lon": 0.0, "is_reserved": 0, "bike_id": "f68bf3ed1ddaa7926128c9951e3db0d8", "fusion_lat": 0.0, "is_disabled": 0, "rental_uris": {"ios": "https://dc.lft.to/lastmile_qr_scan", "android": "https://dc.lft.to/lastmile_qr_scan"}}, {"name": "5da2e5353fc25b2f947a43b0b56b4cb7", "lon": -77.03032833333333, "lat": 38.93108183333333, "type": "electric_scooter", "fusion_lon": 0.0, "is_reserved": 0, "bike_id": "5da2e5353fc25b2f947a43b0b56b4cb7", "fusion_lat": 0.0, "is_disabled": 0, "rental_uris": {"ios": "https://dc.lft.to/lastmile_qr_scan", "android": "https://dc.lft.to/lastmile_qr_scan"}}, {"name": "5a72acf88aa4f36d77b59e6b3de05594", "lon": -76.98155066666666, "lat": 38.922655666666664, "type": "electric_bike", "fusion_lon": 0.0, "is_reserved": 0, "bike_id": "5a72acf88aa4f36d77b59e6b3de05594", "fusion_lat": 0.0, "is_disabled": 0, "rental_uris": {"ios": "https://dc.lft.to/lastmile_qr_scan", "android": "https://dc.lft.to/lastmile_qr_scan"}}, {"name": "46edd149c8032f10ea6b3900551c98d3", "lon": -76.99803733333333, "lat": 38.90847983333333, "type": "electric_scooter", "fusion_lon": 0.0, "is_reserved": 0, "bike_id": "46edd149c8032f10ea6b3900551c98d3", "fusion_lat": 0.0, "is_disabled": 0, "rental_uris": {"ios": "https://dc.lft.to/lastmile_qr_scan", "android": "https://dc.lft.to/lastmile_qr_scan"}}, {"name": "a469e023278da27eccc2dd537742341e", "lon": -77.03995866666666, "lat": 38.9141605, "type": "electric_scooter", "fusion_lon": 0.0, "is_reserved": 0, "bike_id": "a469e023278da27eccc2dd537742341e", "fusion_lat": 0.0, "is_disabled": 0, "rental_uris": {"ios": "https://dc.lft.to/lastmile_qr_scan", "android": "https://dc.lft.to/lastmile_qr_scan"}}, {"name": "31f926f7ced89187d019fa5957372ac0", "lon": -77.03019083333334, "lat": 38.90493016666667, "type": "electric_scooter", "fusion_lon": 0.0, "is_reserved": 0, "bike_id": "31f926f7ced89187d019fa5957372ac0", "fusion_lat": 0.0, "is_disabled": 0, "rental_uris": {"ios": "https://dc.lft.to/lastmile_qr_scan", "android": "https://dc.lft.to/lastmile_qr_scan"}}, {"name": "c16782b5a493614efc5168c90f1b5367", "lon": -77.043387, "lat": 38.89521166666667, "type": "electric_scooter", "fusion_lon": 0.0, "is_reserved": 0, "bike_id": "c16782b5a493614efc5168c90f1b5367", "fusion_lat": 0.0, "is_disabled": 0, "rental_uris": {"ios": "https://dc.lft.to/lastmile_qr_scan", "android": "https://dc.lft.to/lastmile_qr_scan"}}, {"name": "12405bed60a116977bc59896a2ff6a30", "lon": -77.0492855, "lat": 39.029345166666666, "type": "electric_bike", "fusion_lon": 0.0, "is_reserved": 0, "bike_id": "12405bed60a116977bc59896a2ff6a30", "fusion_lat": 0.0, "is_disabled": 0, "rental_uris": {"ios": "https://dc.lft.to/lastmile_qr_scan", "android": "https://dc.lft.to/lastmile_qr_scan"}}, {"name": "cd24971169d06ebcdd7fc186402191a2", "lon": -77.04420116666667, "lat": 38.9213115, "type": "electric_scooter", "fusion_lon": 0.0, "is_reserved": 0, "bike_id": "cd24971169d06ebcdd7fc186402191a2", "fusion_lat": 0.0, "is_disabled": 0, "rental_uris": {"ios": "https://dc.lft.to/lastmile_qr_scan", "android": "https://dc.lft.to/lastmile_qr_scan"}}, {"name": "d58c5b8fd2b491a80190bc0ec267ec0b", "lon": -77.04393016666667, "lat": 38.898417, "type": "electric_scooter", "fusion_lon": 0.0, "is_reserved": 0, "bike_id": "d58c5b8fd2b491a80190bc0ec267ec0b", "fusion_lat": 0.0, "is_disabled": 0, "rental_uris": {"ios": "https://dc.lft.to/lastmile_qr_scan", "android": "https://dc.lft.to/lastmile_qr_scan"}}, {"name": "752edc56788c2e9a85b5ab12cc6e3b48", "lon": -77.00807183333333, "lat": 38.94806833333333, "type": "electric_bike", "fusion_lon": 0.0, "is_reserved": 0, "bike_id": "752edc56788c2e9a85b5ab12cc6e3b48", "fusion_lat": 0.0, "is_disabled": 0, "rental_uris": {"ios": "https://dc.lft.to/lastmile_qr_scan", "android": "https://dc.lft.to/lastmile_qr_scan"}}, {"name": "9f334a001fca9f6c09c06f0006a327b2", "lon": -76.98367416666666, "lat": 38.922250166666664, "type": "electric_bike", "fusion_lon": 0.0, "is_reserved": 0, "bike_id": "9f334a001fca9f6c09c06f0006a327b2", "fusion_lat": 0.0, "is_disabled": 0, "rental_uris": {"ios": "https://dc.lft.to/lastmile_qr_scan", "android": "https://dc.lft.to/lastmile_qr_scan"}}, {"name": "846d53ca07a706966d4ffcad085b9654", "lon": -77.04373583333333, "lat": 38.90748833333333, "type": "electric_scooter", "fusion_lon": 0.0, "is_reserved": 0, "bike_id": "846d53ca07a706966d4ffcad085b9654", "fusion_lat": 0.0, "is_disabled": 0, "rental_uris": {"ios": "https://dc.lft.to/lastmile_qr_scan", "android": "https://dc.lft.to/lastmile_qr_scan"}}, {"name": "2ccf455bb5dd648b0f20cea3603e0c96", "lon": -77.032215, "lat": 38.92770466666666, "type": "electric_bike", "fusion_lon": 0.0, "is_reserved": 0, "bike_id": "2ccf455bb5dd648b0f20cea3603e0c96", "fusion_lat": 0.0, "is_disabled": 0, "rental_uris": {"ios": "https://dc.lft.to/lastmile_qr_scan", "android": "https://dc.lft.to/lastmile_qr_scan"}}, {"name": "275f999869b1594b528f6a055a22c427", "lon": -77.129658, "lat": 38.852192, "type": "electric_bike", "fusion_lon": 0.0, "is_reserved": 0, "bike_id": "275f999869b1594b528f6a055a22c427", "fusion_lat": 0.0, "is_disabled": 0, "rental_uris": {"ios": "https://dc.lft.to/lastmile_qr_scan", "android": "https://dc.lft.to/lastmile_qr_scan"}}, {"name": "3e78b1e7100f21625721b7d34bdc544e", "lon": -77.01218683333333, "lat": 38.864212, "type": "electric_scooter", "fusion_lon": 0.0, "is_reserved": 0, "bike_id": "3e78b1e7100f21625721b7d34bdc544e", "fusion_lat": 0.0, "is_disabled": 0, "rental_uris": {"ios": "https://dc.lft.to/lastmile_qr_scan", "android": "https://dc.lft.to/lastmile_qr_scan"}}, {"name": "286f6be0b4419549e8068a3f76ffc96f", "lon": -77.07804866666666, "lat": 38.924625166666665, "type": "electric_scooter", "fusion_lon": 0.0, "is_reserved": 0, "bike_id": "286f6be0b4419549e8068a3f76ffc96f", "fusion_lat": 0.0, "is_disabled": 0, "rental_uris": {"ios": "https://dc.lft.to/lastmile_qr_scan", "android": "https://dc.lft.to/lastmile_qr_scan"}}, {"name": "5741740c264bc3a51ef0bc9d45e6cfc1", "lon": -77.04143416666666, "lat": 38.9026425, "type": "electric_scooter", "fusion_lon": 0.0, "is_reserved": 0, "bike_id": "5741740c264bc3a51ef0bc9d45e6cfc1", "fusion_lat": 0.0, "is_disabled": 0, "rental_uris": {"ios": "https://dc.lft.to/lastmile_qr_scan", "android": "https://dc.lft.to/lastmile_qr_scan"}}, {"name": "50ead2e6e55228f9f5aab64f4d0793d3", "lon": -77.02816583333333, "lat": 38.960724166666665, "type": "electric_scooter", "fusion_lon": 0.0, "is_reserved": 0, "bike_id": "50ead2e6e55228f9f5aab64f4d0793d3", "fusion_lat": 0.0, "is_disabled": 0, "rental_uris": {"ios": "https://dc.lft.to/lastmile_qr_scan", "android": "https://dc.lft.to/lastmile_qr_scan"}}, {"name": "69385860b6776d01c8d744dd8430a97d", "lon": -77.08938833333333, "lat": 38.862611666666666, "type": "electric_bike", "fusion_lon": 0.0, "is_reserved": 0, "bike_id": "69385860b6776d01c8d744dd8430a97d", "fusion_lat": 0.0, "is_disabled": 0, "rental_uris": {"ios": "https://dc.lft.to/lastmile_qr_scan", "android": "https://dc.lft.to/lastmile_qr_scan"}}, {"name": "36c90cbebfaa1dc97157091ad5a9b675", "lon": -77.02567933333333, "lat": 38.90422433333333, "type": "electric_scooter", "fusion_lon": 0.0, "is_reserved": 0, "bike_id": "36c90cbebfaa1dc97157091ad5a9b675", "fusion_lat": 0.0, "is_disabled": 0, "rental_uris": {"ios": "https://dc.lft.to/lastmile_qr_scan", "android": "https://dc.lft.to/lastmile_qr_scan"}}, {"name": "5dcda1ab2781a113048e4507d50c5e16", "lon": -76.97062233333334, "lat": 38.919920833333336, "type": "electric_scooter", "fusion_lon": 0.0, "is_reserved": 0, "bike_id": "5dcda1ab2781a113048e4507d50c5e16", "fusion_lat": 0.0, "is_disabled": 0, "rental_uris": {"ios": "https://dc.lft.to/lastmile_qr_scan", "android": "https://dc.lft.to/lastmile_qr_scan"}}, {"name": "b39b6fc6932398d44a43d5ca7e8cdd88", "lon": -77.0375675, "lat": 38.92905866666667, "type": "electric_scooter", "fusion_lon": 0.0, "is_reserved": 0, "bike_id": "b39b6fc6932398d44a43d5ca7e8cdd88", "fusion_lat": 0.0, "is_disabled": 0, "rental_uris": {"ios": "https://dc.lft.to/lastmile_qr_scan", "android": "https://dc.lft.to/lastmile_qr_scan"}}, {"name": "4546a10cbd4d0e4b82c631fa4054b3f3", "lon": -76.983603, "lat": 38.915468833333335, "type": "electric_scooter", "fusion_lon": 0.0, "is_reserved": 0, "bike_id": "4546a10cbd4d0e4b82c631fa4054b3f3", "fusion_lat": 0.0, "is_disabled": 0, "rental_uris": {"ios": "https://dc.lft.to/lastmile_qr_scan", "android": "https://dc.lft.to/lastmile_qr_scan"}}, {"name": "63f365b7783ac2b7e4ae3a69b592c556", "lon": -77.0075705, "lat": 38.9267495, "type": "electric_scooter", "fusion_lon": 0.0, "is_reserved": 0, "bike_id": "63f365b7783ac2b7e4ae3a69b592c556", "fusion_lat": 0.0, "is_disabled": 0, "rental_uris": {"ios": "https://dc.lft.to/lastmile_qr_scan", "android": "https://dc.lft.to/lastmile_qr_scan"}}, {"name": "bb680b17449525334b22e80ffefa88ea", "lon": -77.00580666666667, "lat": 38.905598833333336, "type": "electric_scooter", "fusion_lon": 0.0, "is_reserved": 0, "bike_id": "bb680b17449525334b22e80ffefa88ea", "fusion_lat": 0.0, "is_disabled": 0, "rental_uris": {"ios": "https://dc.lft.to/lastmile_qr_scan", "android": "https://dc.lft.to/lastmile_qr_scan"}}, {"name": "77580802d575f13004534c1782755d40", "lon": -77.01209683333333, "lat": 38.895341333333334, "type": "electric_scooter", "fusion_lon": 0.0, "is_reserved": 0, "bike_id": "77580802d575f13004534c1782755d40", "fusion_lat": 0.0, "is_disabled": 0, "rental_uris": {"ios": "https://dc.lft.to/lastmile_qr_scan", "android": "https://dc.lft.to/lastmile_qr_scan"}}, {"name": "64fbeefb30f23d591b69a8868b825fb8", "lon": -77.053065, "lat": 38.89851633333333, "type": "electric_scooter", "fusion_lon": 0.0, "is_reserved": 0, "bike_id": "64fbeefb30f23d591b69a8868b825fb8", "fusion_lat": 0.0, "is_disabled": 0, "rental_uris": {"ios": "https://dc.lft.to/lastmile_qr_scan", "android": "https://dc.lft.to/lastmile_qr_scan"}}, {"name": "fc1b97565ea4ff0df217c299c1cbfdc0", "lon": -76.99708183333334, "lat": 38.908384833333336, "type": "electric_scooter", "fusion_lon": 0.0, "is_reserved": 0, "bike_id": "fc1b97565ea4ff0df217c299c1cbfdc0", "fusion_lat": 0.0, "is_disabled": 0, "rental_uris": {"ios": "https://dc.lft.to/lastmile_qr_scan", "android": "https://dc.lft.to/lastmile_qr_scan"}}, {"name": "eeee1c4d90281d5dff8f054be42a0463", "lon": -77.04403883333333, "lat": 38.920283166666664, "type": "electric_scooter", "fusion_lon": 0.0, "is_reserved": 0, "bike_id": "eeee1c4d90281d5dff8f054be42a0463", "fusion_lat": 0.0, "is_disabled": 0, "rental_uris": {"ios": "https://dc.lft.to/lastmile_qr_scan", "android": "https://dc.lft.to/lastmile_qr_scan"}}, {"name": "a2c943b5d81e11d8212a1f4744659d08", "lon": -77.01753983333333, "lat": 38.872699, "type": "electric_scooter", "fusion_lon": 0.0, "is_reserved": 0, "bike_id": "a2c943b5d81e11d8212a1f4744659d08", "fusion_lat": 0.0, "is_disabled": 0, "rental_uris": {"ios": "https://dc.lft.to/lastmile_qr_scan", "android": "https://dc.lft.to/lastmile_qr_scan"}}, {"name": "f33e8f2bdf72e445663cb0efcdd590fc", "lon": -77.05121233333334, "lat": 38.923612, "type": "electric_scooter", "fusion_lon": 0.0, "is_reserved": 0, "bike_id": "f33e8f2bdf72e445663cb0efcdd590fc", "fusion_lat": 0.0, "is_disabled": 0, "rental_uris": {"ios": "https://dc.lft.to/lastmile_qr_scan", "android": "https://dc.lft.to/lastmile_qr_scan"}}, {"name": "16131ee1c60fc1d4c9d548b4a233225f", "lon": -77.01762116666667, "lat": 38.87723016666666, "type": "electric_scooter", "fusion_lon": 0.0, "is_reserved": 0, "bike_id": "16131ee1c60fc1d4c9d548b4a233225f", "fusion_lat": 0.0, "is_disabled": 0, "rental_uris": {"ios": "https://dc.lft.to/lastmile_qr_scan", "android": "https://dc.lft.to/lastmile_qr_scan"}}, {"name": "df38a2f32e618014345472a8266b717c", "lon": -77.02457183333334, "lat": 38.91803083333333, "type": "electric_scooter", "fusion_lon": 0.0, "is_reserved": 0, "bike_id": "df38a2f32e618014345472a8266b717c", "fusion_lat": 0.0, "is_disabled": 0, "rental_uris": {"ios": "https://dc.lft.to/lastmile_qr_scan", "android": "https://dc.lft.to/lastmile_qr_scan"}}, {"name": "dd61371e21e86c3bfbe2cbd35764496a", "lon": -77.04926733333333, "lat": 38.81348583333333, "type": "electric_bike", "fusion_lon": 0.0, "is_reserved": 0, "bike_id": "dd61371e21e86c3bfbe2cbd35764496a", "fusion_lat": 0.0, "is_disabled": 0, "rental_uris": {"ios": "https://dc.lft.to/lastmile_qr_scan", "android": "https://dc.lft.to/lastmile_qr_scan"}}, {"name": "f4a4d7315b64068749c5d4dad98a8acd", "lon": -77.01779266666667, "lat": 38.8749045, "type": "electric_scooter", "fusion_lon": 0.0, "is_reserved": 0, "bike_id": "f4a4d7315b64068749c5d4dad98a8acd", "fusion_lat": 0.0, "is_disabled": 0, "rental_uris": {"ios": "https://dc.lft.to/lastmile_qr_scan", "android": "https://dc.lft.to/lastmile_qr_scan"}}, {"name": "7668d37f6aab490aef71d242c8b26625", "lon": -77.00197983333334, "lat": 38.90247566666667, "type": "electric_scooter", "fusion_lon": 0.0, "is_reserved": 0, "bike_id": "7668d37f6aab490aef71d242c8b26625", "fusion_lat": 0.0, "is_disabled": 0, "rental_uris": {"ios": "https://dc.lft.to/lastmile_qr_scan", "android": "https://dc.lft.to/lastmile_qr_scan"}}, {"name": "fca01eb31b5153337a5307dbc16add98", "lon": -77.088232, "lat": 38.90973433333333, "type": "electric_bike", "fusion_lon": 0.0, "is_reserved": 0, "bike_id": "fca01eb31b5153337a5307dbc16add98", "fusion_lat": 0.0, "is_disabled": 0, "rental_uris": {"ios": "https://dc.lft.to/lastmile_qr_scan", "android": "https://dc.lft.to/lastmile_qr_scan"}}, {"name": "8948a24b43d6a31221202e1be6826958", "lon": -77.06417966666666, "lat": 38.94555883333334, "type": "electric_scooter", "fusion_lon": 0.0, "is_reserved": 0, "bike_id": "8948a24b43d6a31221202e1be6826958", "fusion_lat": 0.0, "is_disabled": 0, "rental_uris": {"ios": "https://dc.lft.to/lastmile_qr_scan", "android": "https://dc.lft.to/lastmile_qr_scan"}}, {"name": "c0f5b3ed910621bdd5310979b4663e35", "lon": -77.01843666666667, "lat": 38.90412966666667, "type": "electric_scooter", "fusion_lon": 0.0, "is_reserved": 0, "bike_id": "c0f5b3ed910621bdd5310979b4663e35", "fusion_lat": 0.0, "is_disabled": 0, "rental_uris": {"ios": "https://dc.lft.to/lastmile_qr_scan", "android": "https://dc.lft.to/lastmile_qr_scan"}}, {"name": "6eb74bcdd82f0c4816488b9f97243908", "lon": -77.0363685, "lat": 38.92337066666666, "type": "electric_scooter", "fusion_lon": 0.0, "is_reserved": 0, "bike_id": "6eb74bcdd82f0c4816488b9f97243908", "fusion_lat": 0.0, "is_disabled": 0, "rental_uris": {"ios": "https://dc.lft.to/lastmile_qr_scan", "android": "https://dc.lft.to/lastmile_qr_scan"}}, {"name": "b30f1a849f1c83452dd89479eb74353f", "lon": -77.02393833333333, "lat": 38.896257, "type": "electric_scooter", "fusion_lon": 0.0, "is_reserved": 0, "bike_id": "b30f1a849f1c83452dd89479eb74353f", "fusion_lat": 0.0, "is_disabled": 0, "rental_uris": {"ios": "https://dc.lft.to/lastmile_qr_scan", "android": "https://dc.lft.to/lastmile_qr_scan"}}, {"name": "a32b48f42c903d21331f1e93ba4da63f", "lon": -77.02984766666667, "lat": 38.934475166666665, "type": "electric_scooter", "fusion_lon": 0.0, "is_reserved": 0, "bike_id": "a32b48f42c903d21331f1e93ba4da63f", "fusion_lat": 0.0, "is_disabled": 0, "rental_uris": {"ios": "https://dc.lft.to/lastmile_qr_scan", "android": "https://dc.lft.to/lastmile_qr_scan"}}, {"name": "bf3853d10ebbc314dc0e10dd25aee3f4", "lon": -77.03444933333333, "lat": 38.930881666666664, "type": "electric_scooter", "fusion_lon": 0.0, "is_reserved": 0, "bike_id": "bf3853d10ebbc314dc0e10dd25aee3f4", "fusion_lat": 0.0, "is_disabled": 0, "rental_uris": {"ios": "https://dc.lft.to/lastmile_qr_scan", "android": "https://dc.lft.to/lastmile_qr_scan"}}, {"name": "6ad5c36c049152920abadaf575898a80", "lon": -77.04491616666667, "lat": 38.913314166666666, "type": "electric_scooter", "fusion_lon": 0.0, "is_reserved": 0, "bike_id": "6ad5c36c049152920abadaf575898a80", "fusion_lat": 0.0, "is_disabled": 0, "rental_uris": {"ios": "https://dc.lft.to/lastmile_qr_scan", "android": "https://dc.lft.to/lastmile_qr_scan"}}, {"name": "094cdc00b41bfe1d885adbd1784c0b83", "lon": -76.977005, "lat": 38.949140666666665, "type": "electric_bike", "fusion_lon": 0.0, "is_reserved": 0, "bike_id": "094cdc00b41bfe1d885adbd1784c0b83", "fusion_lat": 0.0, "is_disabled": 0, "rental_uris": {"ios": "https://dc.lft.to/lastmile_qr_scan", "android": "https://dc.lft.to/lastmile_qr_scan"}}, {"name": "9fd359704ae1fbe2b95825b8565feebe", "lon": -77.017593, "lat": 38.87729683333333, "type": "electric_scooter", "fusion_lon": 0.0, "is_reserved": 0, "bike_id": "9fd359704ae1fbe2b95825b8565feebe", "fusion_lat": 0.0, "is_disabled": 0, "rental_uris": {"ios": "https://dc.lft.to/lastmile_qr_scan", "android": "https://dc.lft.to/lastmile_qr_scan"}}, {"name": "484be5c51f087882d24192d7fa19e498", "lon": -76.95141016666666, "lat": 38.890359, "type": "electric_scooter", "fusion_lon": 0.0, "is_reserved": 0, "bike_id": "484be5c51f087882d24192d7fa19e498", "fusion_lat": 0.0, "is_disabled": 0, "rental_uris": {"ios": "https://dc.lft.to/lastmile_qr_scan", "android": "https://dc.lft.to/lastmile_qr_scan"}}, {"name": "6a12fc8e39458cbafa6380d42e14430a", "lon": -77.01701266666667, "lat": 38.975063666666664, "type": "electric_scooter", "fusion_lon": 0.0, "is_reserved": 0, "bike_id": "6a12fc8e39458cbafa6380d42e14430a", "fusion_lat": 0.0, "is_disabled": 0, "rental_uris": {"ios": "https://dc.lft.to/lastmile_qr_scan", "android": "https://dc.lft.to/lastmile_qr_scan"}}, {"name": "71d8152a0dd5bc1e56c26569af91eef2", "lon": -77.0218235, "lat": 38.901496, "type": "electric_scooter", "fusion_lon": 0.0, "is_reserved": 0, "bike_id": "71d8152a0dd5bc1e56c26569af91eef2", "fusion_lat": 0.0, "is_disabled": 0, "rental_uris": {"ios": "https://dc.lft.to/lastmile_qr_scan", "android": "https://dc.lft.to/lastmile_qr_scan"}}, {"name": "b384a2eb97a51857778180e9e3cee407", "lon": -77.007477, "lat": 38.92673633333333, "type": "electric_scooter", "fusion_lon": 0.0, "is_reserved": 0, "bike_id": "b384a2eb97a51857778180e9e3cee407", "fusion_lat": 0.0, "is_disabled": 0, "rental_uris": {"ios": "https://dc.lft.to/lastmile_qr_scan", "android": "https://dc.lft.to/lastmile_qr_scan"}}, {"name": "56252f564bb82a898b48ce4ee3f0daea", "lon": -77.03280416666666, "lat": 38.900102, "type": "electric_scooter", "fusion_lon": 0.0, "is_reserved": 0, "bike_id": "56252f564bb82a898b48ce4ee3f0daea", "fusion_lat": 0.0, "is_disabled": 0, "rental_uris": {"ios": "https://dc.lft.to/lastmile_qr_scan", "android": "https://dc.lft.to/lastmile_qr_scan"}}, {"name": "a516bfd116b14388a1d1b285e59585a7", "lon": -77.0397185, "lat": 38.91191883333333, "type": "electric_scooter", "fusion_lon": 0.0, "is_reserved": 0, "bike_id": "a516bfd116b14388a1d1b285e59585a7", "fusion_lat": 0.0, "is_disabled": 0, "rental_uris": {"ios": "https://dc.lft.to/lastmile_qr_scan", "android": "https://dc.lft.to/lastmile_qr_scan"}}, {"name": "c18a71ec0202812ac5951b93f29e28f0", "lon": -77.04670683333333, "lat": 38.905589666666664, "type": "electric_scooter", "fusion_lon": 0.0, "is_reserved": 0, "bike_id": "c18a71ec0202812ac5951b93f29e28f0", "fusion_lat": 0.0, "is_disabled": 0, "rental_uris": {"ios": "https://dc.lft.to/lastmile_qr_scan", "android": "https://dc.lft.to/lastmile_qr_scan"}}, {"name": "31ed421eb699c3688be6e1298606cedc", "lon": -77.0249785, "lat": 38.92066666666667, "type": "electric_scooter", "fusion_lon": 0.0, "is_reserved": 0, "bike_id": "31ed421eb699c3688be6e1298606cedc", "fusion_lat": 0.0, "is_disabled": 0, "rental_uris": {"ios": "https://dc.lft.to/lastmile_qr_scan", "android": "https://dc.lft.to/lastmile_qr_scan"}}, {"name": "96b776e757bf8fdf57ab9a6105e725a9", "lon": -76.88367166666667, "lat": 38.9983255, "type": "electric_bike", "fusion_lon": 0.0, "is_reserved": 0, "bike_id": "96b776e757bf8fdf57ab9a6105e725a9", "fusion_lat": 0.0, "is_disabled": 0, "rental_uris": {"ios": "https://dc.lft.to/lastmile_qr_scan", "android": "https://dc.lft.to/lastmile_qr_scan"}}, {"name": "1d82bfacf675a5df0a5f7d786cf04ae1", "lon": -77.0294915, "lat": 38.9050155, "type": "electric_scooter", "fusion_lon": 0.0, "is_reserved": 0, "bike_id": "1d82bfacf675a5df0a5f7d786cf04ae1", "fusion_lat": 0.0, "is_disabled": 0, "rental_uris": {"ios": "https://dc.lft.to/lastmile_qr_scan", "android": "https://dc.lft.to/lastmile_qr_scan"}}, {"name": "5cbc6563c47df1851fa840b93756633d", "lon": -77.0450025, "lat": 38.909452, "type": "electric_scooter", "fusion_lon": 0.0, "is_reserved": 0, "bike_id": "5cbc6563c47df1851fa840b93756633d", "fusion_lat": 0.0, "is_disabled": 0, "rental_uris": {"ios": "https://dc.lft.to/lastmile_qr_scan", "android": "https://dc.lft.to/lastmile_qr_scan"}}, {"name": "33740e6a29d5151f49dc49b73e2b6ec4", "lon": -77.02627433333333, "lat": 38.962285333333334, "type": "electric_bike", "fusion_lon": 0.0, "is_reserved": 0, "bike_id": "33740e6a29d5151f49dc49b73e2b6ec4", "fusion_lat": 0.0, "is_disabled": 0, "rental_uris": {"ios": "https://dc.lft.to/lastmile_qr_scan", "android": "https://dc.lft.to/lastmile_qr_scan"}}, {"name": "4afba58cea8206d0c8cdce4b22243a9c", "lon": -77.02981933333334, "lat": 38.89568533333333, "type": "electric_scooter", "fusion_lon": 0.0, "is_reserved": 0, "bike_id": "4afba58cea8206d0c8cdce4b22243a9c", "fusion_lat": 0.0, "is_disabled": 0, "rental_uris": {"ios": "https://dc.lft.to/lastmile_qr_scan", "android": "https://dc.lft.to/lastmile_qr_scan"}}, {"name": "1da8bab1b3610fda75f7b41656c0aead", "lon": -77.03317316666667, "lat": 38.9264855, "type": "electric_scooter", "fusion_lon": 0.0, "is_reserved": 0, "bike_id": "1da8bab1b3610fda75f7b41656c0aead", "fusion_lat": 0.0, "is_disabled": 0, "rental_uris": {"ios": "https://dc.lft.to/lastmile_qr_scan", "android": "https://dc.lft.to/lastmile_qr_scan"}}, {"name": "6490740f7d38374fe7f2f8d5935fcdbe", "lon": -77.36097166666667, "lat": 38.93961316666667, "type": "electric_bike", "fusion_lon": 0.0, "is_reserved": 0, "bike_id": "6490740f7d38374fe7f2f8d5935fcdbe", "fusion_lat": 0.0, "is_disabled": 0, "rental_uris": {"ios": "https://dc.lft.to/lastmile_qr_scan", "android": "https://dc.lft.to/lastmile_qr_scan"}}, {"name": "021ba759a2d45124f2b033df43e2806b", "lon": -77.05144783333333, "lat": 38.90534516666666, "type": "electric_scooter", "fusion_lon": 0.0, "is_reserved": 0, "bike_id": "021ba759a2d45124f2b033df43e2806b", "fusion_lat": 0.0, "is_disabled": 0, "rental_uris": {"ios": "https://dc.lft.to/lastmile_qr_scan", "android": "https://dc.lft.to/lastmile_qr_scan"}}, {"name": "ad41b9ff54e5e082c38204427d37f257", "lon": -77.08196783333334, "lat": 38.85564266666667, "type": "electric_bike", "fusion_lon": 0.0, "is_reserved": 0, "bike_id": "ad41b9ff54e5e082c38204427d37f257", "fusion_lat": 0.0, "is_disabled": 0, "rental_uris": {"ios": "https://dc.lft.to/lastmile_qr_scan", "android": "https://dc.lft.to/lastmile_qr_scan"}}, {"name": "7eb09d478ceb84d277227ef87396a8c3", "lon": -77.023044, "lat": 38.917863, "type": "electric_scooter", "fusion_lon": 0.0, "is_reserved": 0, "bike_id": "7eb09d478ceb84d277227ef87396a8c3", "fusion_lat": 0.0, "is_disabled": 0, "rental_uris": {"ios": "https://dc.lft.to/lastmile_qr_scan", "android": "https://dc.lft.to/lastmile_qr_scan"}}, {"name": "6316e2ffea6fd4094e71ebc39f9cba9b", "lon": -76.95185316666667, "lat": 38.907381, "type": "electric_scooter", "fusion_lon": 0.0, "is_reserved": 0, "bike_id": "6316e2ffea6fd4094e71ebc39f9cba9b", "fusion_lat": 0.0, "is_disabled": 0, "rental_uris": {"ios": "https://dc.lft.to/lastmile_qr_scan", "android": "https://dc.lft.to/lastmile_qr_scan"}}, {"name": "a85d3f4bde91277b902f03bd8862a9cf", "lon": -76.988294, "lat": 38.900426, "type": "electric_scooter", "fusion_lon": 0.0, "is_reserved": 0, "bike_id": "a85d3f4bde91277b902f03bd8862a9cf", "fusion_lat": 0.0, "is_disabled": 0, "rental_uris": {"ios": "https://dc.lft.to/lastmile_qr_scan", "android": "https://dc.lft.to/lastmile_qr_scan"}}, {"name": "cb3111395abcd6f6296f30bba424ad21", "lon": -76.99605883333334, "lat": 38.885741833333334, "type": "electric_scooter", "fusion_lon": 0.0, "is_reserved": 0, "bike_id": "cb3111395abcd6f6296f30bba424ad21", "fusion_lat": 0.0, "is_disabled": 0, "rental_uris": {"ios": "https://dc.lft.to/lastmile_qr_scan", "android": "https://dc.lft.to/lastmile_qr_scan"}}, {"name": "a08996c594e56bf7efecff75c4fc14af", "lon": -77.00344716666666, "lat": 38.887001833333336, "type": "electric_scooter", "fusion_lon": 0.0, "is_reserved": 0, "bike_id": "a08996c594e56bf7efecff75c4fc14af", "fusion_lat": 0.0, "is_disabled": 0, "rental_uris": {"ios": "https://dc.lft.to/lastmile_qr_scan", "android": "https://dc.lft.to/lastmile_qr_scan"}}, {"name": "a1c6f0b1a92e2cb6effeb8974cd944ba", "lon": -76.989778, "lat": 38.8651415, "type": "electric_scooter", "fusion_lon": 0.0, "is_reserved": 0, "bike_id": "a1c6f0b1a92e2cb6effeb8974cd944ba", "fusion_lat": 0.0, "is_disabled": 0, "rental_uris": {"ios": "https://dc.lft.to/lastmile_qr_scan", "android": "https://dc.lft.to/lastmile_qr_scan"}}, {"name": "a45ab5dba937cb5d8331ffec4abbe90e", "lon": -76.99803616666667, "lat": 38.9002585, "type": "electric_scooter", "fusion_lon": 0.0, "is_reserved": 0, "bike_id": "a45ab5dba937cb5d8331ffec4abbe90e", "fusion_lat": 0.0, "is_disabled": 0, "rental_uris": {"ios": "https://dc.lft.to/lastmile_qr_scan", "android": "https://dc.lft.to/lastmile_qr_scan"}}, {"name": "51d9c16619dfe50848c79faed1e5e1b1", "lon": -77.03586266666667, "lat": 38.912664166666666, "type": "electric_scooter", "fusion_lon": 0.0, "is_reserved": 0, "bike_id": "51d9c16619dfe50848c79faed1e5e1b1", "fusion_lat": 0.0, "is_disabled": 0, "rental_uris": {"ios": "https://dc.lft.to/lastmile_qr_scan", "android": "https://dc.lft.to/lastmile_qr_scan"}}, {"name": "23dee35c9f9f23528be34c5d53432b38", "lon": -76.977925, "lat": 38.88861566666667, "type": "electric_bike", "fusion_lon": 0.0, "is_reserved": 0, "bike_id": "23dee35c9f9f23528be34c5d53432b38", "fusion_lat": 0.0, "is_disabled": 0, "rental_uris": {"ios": "https://dc.lft.to/lastmile_qr_scan", "android": "https://dc.lft.to/lastmile_qr_scan"}}, {"name": "b7736fda93011844774ab39af49c8d05", "lon": -77.023655, "lat": 38.9251215, "type": "electric_scooter", "fusion_lon": 0.0, "is_reserved": 0, "bike_id": "b7736fda93011844774ab39af49c8d05", "fusion_lat": 0.0, "is_disabled": 0, "rental_uris": {"ios": "https://dc.lft.to/lastmile_qr_scan", "android": "https://dc.lft.to/lastmile_qr_scan"}}, {"name": "f816233a2e63b7ce9c993526883ee476", "lon": -77.0013485, "lat": 38.90516083333333, "type": "electric_scooter", "fusion_lon": 0.0, "is_reserved": 0, "bike_id": "f816233a2e63b7ce9c993526883ee476", "fusion_lat": 0.0, "is_disabled": 0, "rental_uris": {"ios": "https://dc.lft.to/lastmile_qr_scan", "android": "https://dc.lft.to/lastmile_qr_scan"}}, {"name": "98ec792f6e8a2f45f4324c93e26c0c34", "lon": -77.023794, "lat": 38.929091166666666, "type": "electric_bike", "fusion_lon": 0.0, "is_reserved": 0, "bike_id": "98ec792f6e8a2f45f4324c93e26c0c34", "fusion_lat": 0.0, "is_disabled": 0, "rental_uris": {"ios": "https://dc.lft.to/lastmile_qr_scan", "android": "https://dc.lft.to/lastmile_qr_scan"}}, {"name": "6116b3e04dd46f7357635ebf82bf906f", "lon": -77.0402075, "lat": 38.904032, "type": "electric_scooter", "fusion_lon": 0.0, "is_reserved": 0, "bike_id": "6116b3e04dd46f7357635ebf82bf906f", "fusion_lat": 0.0, "is_disabled": 0, "rental_uris": {"ios": "https://dc.lft.to/lastmile_qr_scan", "android": "https://dc.lft.to/lastmile_qr_scan"}}, {"name": "049669d1d2ac878ea99855c2a8771fa7", "lon": -77.03655433333333, "lat": 38.912483333333334, "type": "electric_scooter", "fusion_lon": 0.0, "is_reserved": 0, "bike_id": "049669d1d2ac878ea99855c2a8771fa7", "fusion_lat": 0.0, "is_disabled": 0, "rental_uris": {"ios": "https://dc.lft.to/lastmile_qr_scan", "android": "https://dc.lft.to/lastmile_qr_scan"}}, {"name": "1f3b6773242fec03de93e0c1e6dcaea4", "lon": -77.00865433333334, "lat": 38.87945066666666, "type": "electric_scooter", "fusion_lon": 0.0, "is_reserved": 0, "bike_id": "1f3b6773242fec03de93e0c1e6dcaea4", "fusion_lat": 0.0, "is_disabled": 0, "rental_uris": {"ios": "https://dc.lft.to/lastmile_qr_scan", "android": "https://dc.lft.to/lastmile_qr_scan"}}, {"name": "d1770d576d50f57fb183eaf311745044", "lon": -76.980988, "lat": 38.92102516666667, "type": "electric_bike", "fusion_lon": 0.0, "is_reserved": 0, "bike_id": "d1770d576d50f57fb183eaf311745044", "fusion_lat": 0.0, "is_disabled": 0, "rental_uris": {"ios": "https://dc.lft.to/lastmile_qr_scan", "android": "https://dc.lft.to/lastmile_qr_scan"}}, {"name": "3675e5efa2718334034b67e17d92b511", "lon": -77.04022133333333, "lat": 38.922494, "type": "electric_scooter", "fusion_lon": 0.0, "is_reserved": 0, "bike_id": "3675e5efa2718334034b67e17d92b511", "fusion_lat": 0.0, "is_disabled": 0, "rental_uris": {"ios": "https://dc.lft.to/lastmile_qr_scan", "android": "https://dc.lft.to/lastmile_qr_scan"}}, {"name": "a1f9c3f314e78f48c212dbb4ffd55aae", "lon": -77.04343383333334, "lat": 38.902106833333335, "type": "electric_scooter", "fusion_lon": 0.0, "is_reserved": 0, "bike_id": "a1f9c3f314e78f48c212dbb4ffd55aae", "fusion_lat": 0.0, "is_disabled": 0, "rental_uris": {"ios": "https://dc.lft.to/lastmile_qr_scan", "android": "https://dc.lft.to/lastmile_qr_scan"}}, {"name": "1a5fb02a97583e3c7dfbf5775d314059", "lon": -76.90977466666666, "lat": 38.85435183333333, "type": "electric_bike", "fusion_lon": 0.0, "is_reserved": 0, "bike_id": "1a5fb02a97583e3c7dfbf5775d314059", "fusion_lat": 0.0, "is_disabled": 0, "rental_uris": {"ios": "https://dc.lft.to/lastmile_qr_scan", "android": "https://dc.lft.to/lastmile_qr_scan"}}, {"name": "f9cd441158e5e09098fb1296b5951c1d", "lon": -77.02590516666666, "lat": 38.905019333333335, "type": "electric_scooter", "fusion_lon": 0.0, "is_reserved": 0, "bike_id": "f9cd441158e5e09098fb1296b5951c1d", "fusion_lat": 0.0, "is_disabled": 0, "rental_uris": {"ios": "https://dc.lft.to/lastmile_qr_scan", "android": "https://dc.lft.to/lastmile_qr_scan"}}, {"name": "d74098d78ec108ecf4dd15edac6f54f3", "lon": -77.004815, "lat": 38.8747645, "type": "electric_scooter", "fusion_lon": 0.0, "is_reserved": 0, "bike_id": "d74098d78ec108ecf4dd15edac6f54f3", "fusion_lat": 0.0, "is_disabled": 0, "rental_uris": {"ios": "https://dc.lft.to/lastmile_qr_scan", "android": "https://dc.lft.to/lastmile_qr_scan"}}, {"name": "87fbb464afb9061f0f6d37325172878d", "lon": -77.03265933333333, "lat": 38.94628016666667, "type": "electric_scooter", "fusion_lon": 0.0, "is_reserved": 0, "bike_id": "87fbb464afb9061f0f6d37325172878d", "fusion_lat": 0.0, "is_disabled": 0, "rental_uris": {"ios": "https://dc.lft.to/lastmile_qr_scan", "android": "https://dc.lft.to/lastmile_qr_scan"}}, {"name": "3808b6bbec638ec9db3ebfbeee8ac2c5", "lon": -77.02816266666666, "lat": 38.91692, "type": "electric_scooter", "fusion_lon": 0.0, "is_reserved": 0, "bike_id": "3808b6bbec638ec9db3ebfbeee8ac2c5", "fusion_lat": 0.0, "is_disabled": 0, "rental_uris": {"ios": "https://dc.lft.to/lastmile_qr_scan", "android": "https://dc.lft.to/lastmile_qr_scan"}}, {"name": "7e123bcde7ca22627358470b70eae8ae", "lon": -77.02284716666666, "lat": 38.89496466666667, "type": "electric_scooter", "fusion_lon": 0.0, "is_reserved": 0, "bike_id": "7e123bcde7ca22627358470b70eae8ae", "fusion_lat": 0.0, "is_disabled": 0, "rental_uris": {"ios": "https://dc.lft.to/lastmile_qr_scan", "android": "https://dc.lft.to/lastmile_qr_scan"}}, {"name": "1ba84a012d6810a44bc6894545c3ca0b", "lon": -77.02178466666666, "lat": 38.902052833333336, "type": "electric_scooter", "fusion_lon": 0.0, "is_reserved": 0, "bike_id": "1ba84a012d6810a44bc6894545c3ca0b", "fusion_lat": 0.0, "is_disabled": 0, "rental_uris": {"ios": "https://dc.lft.to/lastmile_qr_scan", "android": "https://dc.lft.to/lastmile_qr_scan"}}, {"name": "dc6166c9108bd488517e3bc23edfb142", "lon": -77.01509616666667, "lat": 38.910532833333335, "type": "electric_scooter", "fusion_lon": 0.0, "is_reserved": 0, "bike_id": "dc6166c9108bd488517e3bc23edfb142", "fusion_lat": 0.0, "is_disabled": 0, "rental_uris": {"ios": "https://dc.lft.to/lastmile_qr_scan", "android": "https://dc.lft.to/lastmile_qr_scan"}}, {"name": "40a827ff6a1c7dad55bf10a89248fa6c", "lon": -77.04332833333333, "lat": 38.892216833333336, "type": "electric_scooter", "fusion_lon": 0.0, "is_reserved": 0, "bike_id": "40a827ff6a1c7dad55bf10a89248fa6c", "fusion_lat": 0.0, "is_disabled": 0, "rental_uris": {"ios": "https://dc.lft.to/lastmile_qr_scan", "android": "https://dc.lft.to/lastmile_qr_scan"}}, {"name": "780fb7afed14f1cdb5933ba26a5b447b", "lon": -77.04101933333334, "lat": 38.9177655, "type": "electric_scooter", "fusion_lon": 0.0, "is_reserved": 0, "bike_id": "780fb7afed14f1cdb5933ba26a5b447b", "fusion_lat": 0.0, "is_disabled": 0, "rental_uris": {"ios": "https://dc.lft.to/lastmile_qr_scan", "android": "https://dc.lft.to/lastmile_qr_scan"}}, {"name": "9c88c3f1b098e9ba4b84a0d84e9a6c95", "lon": -76.9980125, "lat": 38.910767166666666, "type": "electric_scooter", "fusion_lon": 0.0, "is_reserved": 0, "bike_id": "9c88c3f1b098e9ba4b84a0d84e9a6c95", "fusion_lat": 0.0, "is_disabled": 0, "rental_uris": {"ios": "https://dc.lft.to/lastmile_qr_scan", "android": "https://dc.lft.to/lastmile_qr_scan"}}, {"name": "83af1de9de759feb54371e884efd6cf3", "lon": -77.00197733333333, "lat": 38.9024095, "type": "electric_scooter", "fusion_lon": 0.0, "is_reserved": 0, "bike_id": "83af1de9de759feb54371e884efd6cf3", "fusion_lat": 0.0, "is_disabled": 0, "rental_uris": {"ios": "https://dc.lft.to/lastmile_qr_scan", "android": "https://dc.lft.to/lastmile_qr_scan"}}, {"name": "ac350f76fb05ae1eb05a6989daca95ac", "lon": -77.0363675, "lat": 38.9067655, "type": "electric_scooter", "fusion_lon": 0.0, "is_reserved": 0, "bike_id": "ac350f76fb05ae1eb05a6989daca95ac", "fusion_lat": 0.0, "is_disabled": 0, "rental_uris": {"ios": "https://dc.lft.to/lastmile_qr_scan", "android": "https://dc.lft.to/lastmile_qr_scan"}}, {"name": "086e4ec349e3c907f6fc8363e24356f9", "lon": -77.045627, "lat": 38.924156333333336, "type": "electric_scooter", "fusion_lon": 0.0, "is_reserved": 0, "bike_id": "086e4ec349e3c907f6fc8363e24356f9", "fusion_lat": 0.0, "is_disabled": 0, "rental_uris": {"ios": "https://dc.lft.to/lastmile_qr_scan", "android": "https://dc.lft.to/lastmile_qr_scan"}}, {"name": "444dc346c837ef323a63e789859fd3fd", "lon": -77.04109283333334, "lat": 38.910583333333335, "type": "electric_scooter", "fusion_lon": 0.0, "is_reserved": 0, "bike_id": "444dc346c837ef323a63e789859fd3fd", "fusion_lat": 0.0, "is_disabled": 0, "rental_uris": {"ios": "https://dc.lft.to/lastmile_qr_scan", "android": "https://dc.lft.to/lastmile_qr_scan"}}, {"name": "1baae7c624852e578e7b30232ada8b41", "lon": -77.02329166666667, "lat": 38.92081183333333, "type": "electric_scooter", "fusion_lon": 0.0, "is_reserved": 0, "bike_id": "1baae7c624852e578e7b30232ada8b41", "fusion_lat": 0.0, "is_disabled": 0, "rental_uris": {"ios": "https://dc.lft.to/lastmile_qr_scan", "android": "https://dc.lft.to/lastmile_qr_scan"}}, {"name": "2c556c914c5a452e51930ea3b7fb211b", "lon": -77.01413933333333, "lat": 38.90646366666667, "type": "electric_scooter", "fusion_lon": 0.0, "is_reserved": 0, "bike_id": "2c556c914c5a452e51930ea3b7fb211b", "fusion_lat": 0.0, "is_disabled": 0, "rental_uris": {"ios": "https://dc.lft.to/lastmile_qr_scan", "android": "https://dc.lft.to/lastmile_qr_scan"}}, {"name": "2a170781dd689940a044c6c85436100e", "lon": -77.01741533333333, "lat": 38.90367583333333, "type": "electric_scooter", "fusion_lon": 0.0, "is_reserved": 0, "bike_id": "2a170781dd689940a044c6c85436100e", "fusion_lat": 0.0, "is_disabled": 0, "rental_uris": {"ios": "https://dc.lft.to/lastmile_qr_scan", "android": "https://dc.lft.to/lastmile_qr_scan"}}, {"name": "f76817f132f83ef71c00fb33c011a6c1", "lon": -77.033988, "lat": 38.928735, "type": "electric_scooter", "fusion_lon": 0.0, "is_reserved": 0, "bike_id": "f76817f132f83ef71c00fb33c011a6c1", "fusion_lat": 0.0, "is_disabled": 0, "rental_uris": {"ios": "https://dc.lft.to/lastmile_qr_scan", "android": "https://dc.lft.to/lastmile_qr_scan"}}, {"name": "68c3e5d72ff8dd5a1f2e9fe0c261ca8e", "lon": -77.09525283333333, "lat": 38.838126, "type": "electric_bike", "fusion_lon": 0.0, "is_reserved": 0, "bike_id": "68c3e5d72ff8dd5a1f2e9fe0c261ca8e", "fusion_lat": 0.0, "is_disabled": 0, "rental_uris": {"ios": "https://dc.lft.to/lastmile_qr_scan", "android": "https://dc.lft.to/lastmile_qr_scan"}}, {"name": "a2e95c09993ed5c45887c95739b35a0a", "lon": -77.0110135, "lat": 38.895031333333336, "type": "electric_scooter", "fusion_lon": 0.0, "is_reserved": 0, "bike_id": "a2e95c09993ed5c45887c95739b35a0a", "fusion_lat": 0.0, "is_disabled": 0, "rental_uris": {"ios": "https://dc.lft.to/lastmile_qr_scan", "android": "https://dc.lft.to/lastmile_qr_scan"}}, {"name": "26e36171e2cb190b8c5247ee999c14b8", "lon": -77.0023985, "lat": 38.957156833333336, "type": "electric_scooter", "fusion_lon": 0.0, "is_reserved": 0, "bike_id": "26e36171e2cb190b8c5247ee999c14b8", "fusion_lat": 0.0, "is_disabled": 0, "rental_uris": {"ios": "https://dc.lft.to/lastmile_qr_scan", "android": "https://dc.lft.to/lastmile_qr_scan"}}, {"name": "0f5c8826519c24f5d2a646160478224b", "lon": -77.04008416666667, "lat": 38.9126645, "type": "electric_scooter", "fusion_lon": 0.0, "is_reserved": 0, "bike_id": "0f5c8826519c24f5d2a646160478224b", "fusion_lat": 0.0, "is_disabled": 0, "rental_uris": {"ios": "https://dc.lft.to/lastmile_qr_scan", "android": "https://dc.lft.to/lastmile_qr_scan"}}, {"name": "c42748c27b4e5767a838f10f292d95d1", "lon": -77.038553, "lat": 38.91548216666666, "type": "electric_scooter", "fusion_lon": 0.0, "is_reserved": 0, "bike_id": "c42748c27b4e5767a838f10f292d95d1", "fusion_lat": 0.0, "is_disabled": 0, "rental_uris": {"ios": "https://dc.lft.to/lastmile_qr_scan", "android": "https://dc.lft.to/lastmile_qr_scan"}}, {"name": "a16ca9a236e30c57fd63f2ce343b740f", "lon": -77.038612, "lat": 38.90784266666667, "type": "electric_scooter", "fusion_lon": 0.0, "is_reserved": 0, "bike_id": "a16ca9a236e30c57fd63f2ce343b740f", "fusion_lat": 0.0, "is_disabled": 0, "rental_uris": {"ios": "https://dc.lft.to/lastmile_qr_scan", "android": "https://dc.lft.to/lastmile_qr_scan"}}, {"name": "9d9ed0ce13ad8476afb39cb6fc8ee278", "lon": -77.03206333333333, "lat": 38.9142075, "type": "electric_scooter", "fusion_lon": 0.0, "is_reserved": 0, "bike_id": "9d9ed0ce13ad8476afb39cb6fc8ee278", "fusion_lat": 0.0, "is_disabled": 0, "rental_uris": {"ios": "https://dc.lft.to/lastmile_qr_scan", "android": "https://dc.lft.to/lastmile_qr_scan"}}, {"name": "7e1dc1a48ee9420f961031d11347f435", "lon": -77.03093766666667, "lat": 38.92853133333333, "type": "electric_scooter", "fusion_lon": 0.0, "is_reserved": 0, "bike_id": "7e1dc1a48ee9420f961031d11347f435", "fusion_lat": 0.0, "is_disabled": 0, "rental_uris": {"ios": "https://dc.lft.to/lastmile_qr_scan", "android": "https://dc.lft.to/lastmile_qr_scan"}}, {"name": "343df0872b3256fff1864a445a99a9f3", "lon": -76.97558133333334, "lat": 38.92456833333333, "type": "electric_bike", "fusion_lon": 0.0, "is_reserved": 0, "bike_id": "343df0872b3256fff1864a445a99a9f3", "fusion_lat": 0.0, "is_disabled": 0, "rental_uris": {"ios": "https://dc.lft.to/lastmile_qr_scan", "android": "https://dc.lft.to/lastmile_qr_scan"}}, {"name": "d51a4bd8999c99723dcba6b1ae31e7a4", "lon": -77.02500066666667, "lat": 38.906367333333336, "type": "electric_scooter", "fusion_lon": 0.0, "is_reserved": 0, "bike_id": "d51a4bd8999c99723dcba6b1ae31e7a4", "fusion_lat": 0.0, "is_disabled": 0, "rental_uris": {"ios": "https://dc.lft.to/lastmile_qr_scan", "android": "https://dc.lft.to/lastmile_qr_scan"}}, {"name": "1e7f075f3ab435d002375821cc7f3849", "lon": -76.99626683333334, "lat": 38.9003815, "type": "electric_scooter", "fusion_lon": 0.0, "is_reserved": 0, "bike_id": "1e7f075f3ab435d002375821cc7f3849", "fusion_lat": 0.0, "is_disabled": 0, "rental_uris": {"ios": "https://dc.lft.to/lastmile_qr_scan", "android": "https://dc.lft.to/lastmile_qr_scan"}}, {"name": "5d6bb26fdbd0f960d9f0f00d10663df1", "lon": -77.04831933333334, "lat": 38.911040666666665, "type": "electric_scooter", "fusion_lon": 0.0, "is_reserved": 0, "bike_id": "5d6bb26fdbd0f960d9f0f00d10663df1", "fusion_lat": 0.0, "is_disabled": 0, "rental_uris": {"ios": "https://dc.lft.to/lastmile_qr_scan", "android": "https://dc.lft.to/lastmile_qr_scan"}}, {"name": "0e02bea5f8a846dbb5fbfa69d910d7c4", "lon": -77.042862, "lat": 38.905573833333335, "type": "electric_scooter", "fusion_lon": 0.0, "is_reserved": 0, "bike_id": "0e02bea5f8a846dbb5fbfa69d910d7c4", "fusion_lat": 0.0, "is_disabled": 0, "rental_uris": {"ios": "https://dc.lft.to/lastmile_qr_scan", "android": "https://dc.lft.to/lastmile_qr_scan"}}, {"name": "3f6ed69b6e6087590ffa0565698efd28", "lon": -77.22801066666666, "lat": 38.910157, "type": "electric_bike", "fusion_lon": 0.0, "is_reserved": 0, "bike_id": "3f6ed69b6e6087590ffa0565698efd28", "fusion_lat": 0.0, "is_disabled": 0, "rental_uris": {"ios": "https://dc.lft.to/lastmile_qr_scan", "android": "https://dc.lft.to/lastmile_qr_scan"}}, {"name": "d5699fcc62cb4564928d9e29c84af8c9", "lon": -77.05127216666666, "lat": 38.905847, "type": "electric_scooter", "fusion_lon": 0.0, "is_reserved": 0, "bike_id": "d5699fcc62cb4564928d9e29c84af8c9", "fusion_lat": 0.0, "is_disabled": 0, "rental_uris": {"ios": "https://dc.lft.to/lastmile_qr_scan", "android": "https://dc.lft.to/lastmile_qr_scan"}}, {"name": "e7fff02f5fed1a52121ecfb4060a0106", "lon": -77.032601, "lat": 38.94269883333333, "type": "electric_scooter", "fusion_lon": 0.0, "is_reserved": 0, "bike_id": "e7fff02f5fed1a52121ecfb4060a0106", "fusion_lat": 0.0, "is_disabled": 0, "rental_uris": {"ios": "https://dc.lft.to/lastmile_qr_scan", "android": "https://dc.lft.to/lastmile_qr_scan"}}, {"name": "2553b3cc2ba8675a720b16a23d2ddb20", "lon": -76.9937815, "lat": 38.971858833333336, "type": "electric_bike", "fusion_lon": 0.0, "is_reserved": 0, "bike_id": "2553b3cc2ba8675a720b16a23d2ddb20", "fusion_lat": 0.0, "is_disabled": 0, "rental_uris": {"ios": "https://dc.lft.to/lastmile_qr_scan", "android": "https://dc.lft.to/lastmile_qr_scan"}}, {"name": "3ccb8f73a3427e04255549d0a0d9f494", "lon": -77.05211516666667, "lat": 38.92485116666667, "type": "electric_scooter", "fusion_lon": 0.0, "is_reserved": 0, "bike_id": "3ccb8f73a3427e04255549d0a0d9f494", "fusion_lat": 0.0, "is_disabled": 0, "rental_uris": {"ios": "https://dc.lft.to/lastmile_qr_scan", "android": "https://dc.lft.to/lastmile_qr_scan"}}, {"name": "6b29329d46222e14319001d48d790c22", "lon": -77.02374366666666, "lat": 38.94506066666667, "type": "electric_bike", "fusion_lon": 0.0, "is_reserved": 0, "bike_id": "6b29329d46222e14319001d48d790c22", "fusion_lat": 0.0, "is_disabled": 0, "rental_uris": {"ios": "https://dc.lft.to/lastmile_qr_scan", "android": "https://dc.lft.to/lastmile_qr_scan"}}, {"name": "2ec1e5d710522c2385ce8986550a6621", "lon": -76.97162616666667, "lat": 38.85467216666667, "type": "electric_scooter", "fusion_lon": 0.0, "is_reserved": 0, "bike_id": "2ec1e5d710522c2385ce8986550a6621", "fusion_lat": 0.0, "is_disabled": 0, "rental_uris": {"ios": "https://dc.lft.to/lastmile_qr_scan", "android": "https://dc.lft.to/lastmile_qr_scan"}}, {"name": "7fc2f4d6746662c4e43badf6012eb2ac", "lon": -77.01865333333333, "lat": 38.973678, "type": "electric_scooter", "fusion_lon": 0.0, "is_reserved": 0, "bike_id": "7fc2f4d6746662c4e43badf6012eb2ac", "fusion_lat": 0.0, "is_disabled": 0, "rental_uris": {"ios": "https://dc.lft.to/lastmile_qr_scan", "android": "https://dc.lft.to/lastmile_qr_scan"}}, {"name": "8dfe82cfa7edd3e7cc1e2697e0d8ec3f", "lon": -77.07333116666666, "lat": 38.92610533333333, "type": "electric_scooter", "fusion_lon": 0.0, "is_reserved": 0, "bike_id": "8dfe82cfa7edd3e7cc1e2697e0d8ec3f", "fusion_lat": 0.0, "is_disabled": 0, "rental_uris": {"ios": "https://dc.lft.to/lastmile_qr_scan", "android": "https://dc.lft.to/lastmile_qr_scan"}}, {"name": "4dc277e876cf14683aebda1cae8eeb0a", "lon": -77.024911, "lat": 38.93753816666667, "type": "electric_scooter", "fusion_lon": 0.0, "is_reserved": 0, "bike_id": "4dc277e876cf14683aebda1cae8eeb0a", "fusion_lat": 0.0, "is_disabled": 0, "rental_uris": {"ios": "https://dc.lft.to/lastmile_qr_scan", "android": "https://dc.lft.to/lastmile_qr_scan"}}, {"name": "3b6c4429b6952428ebde5dd4041bab07", "lon": -77.00382066666667, "lat": 38.83609916666666, "type": "electric_bike", "fusion_lon": 0.0, "is_reserved": 0, "bike_id": "3b6c4429b6952428ebde5dd4041bab07", "fusion_lat": 0.0, "is_disabled": 0, "rental_uris": {"ios": "https://dc.lft.to/lastmile_qr_scan", "android": "https://dc.lft.to/lastmile_qr_scan"}}, {"name": "57e33d1749748da093557fb51bb91593", "lon": -77.0140675, "lat": 38.881237666666664, "type": "electric_scooter", "fusion_lon": 0.0, "is_reserved": 0, "bike_id": "57e33d1749748da093557fb51bb91593", "fusion_lat": 0.0, "is_disabled": 0, "rental_uris": {"ios": "https://dc.lft.to/lastmile_qr_scan", "android": "https://dc.lft.to/lastmile_qr_scan"}}, {"name": "d60ed451fbea24fc842a44d96eb6fdc2", "lon": -77.01436016666666, "lat": 38.91963583333333, "type": "electric_scooter", "fusion_lon": 0.0, "is_reserved": 0, "bike_id": "d60ed451fbea24fc842a44d96eb6fdc2", "fusion_lat": 0.0, "is_disabled": 0, "rental_uris": {"ios": "https://dc.lft.to/lastmile_qr_scan", "android": "https://dc.lft.to/lastmile_qr_scan"}}, {"name": "2dea2af46be04b953b26f8872f3a65a5", "lon": -77.04137616666667, "lat": 38.930685, "type": "electric_scooter", "fusion_lon": 0.0, "is_reserved": 0, "bike_id": "2dea2af46be04b953b26f8872f3a65a5", "fusion_lat": 0.0, "is_disabled": 0, "rental_uris": {"ios": "https://dc.lft.to/lastmile_qr_scan", "android": "https://dc.lft.to/lastmile_qr_scan"}}, {"name": "016d8f72c09617ac02fb8a79e4a82320", "lon": -77.04623233333334, "lat": 38.91924083333333, "type": "electric_scooter", "fusion_lon": 0.0, "is_reserved": 0, "bike_id": "016d8f72c09617ac02fb8a79e4a82320", "fusion_lat": 0.0, "is_disabled": 0, "rental_uris": {"ios": "https://dc.lft.to/lastmile_qr_scan", "android": "https://dc.lft.to/lastmile_qr_scan"}}, {"name": "2cd57a4c081d573ed3195e0c671a38d9", "lon": -77.0232175, "lat": 38.9072545, "type": "electric_scooter", "fusion_lon": 0.0, "is_reserved": 0, "bike_id": "2cd57a4c081d573ed3195e0c671a38d9", "fusion_lat": 0.0, "is_disabled": 0, "rental_uris": {"ios": "https://dc.lft.to/lastmile_qr_scan", "android": "https://dc.lft.to/lastmile_qr_scan"}}, {"name": "66f97e3b4cf090dfcfcb8ca2e77632bb", "lon": -76.98212816666667, "lat": 38.902007, "type": "electric_scooter", "fusion_lon": 0.0, "is_reserved": 0, "bike_id": "66f97e3b4cf090dfcfcb8ca2e77632bb", "fusion_lat": 0.0, "is_disabled": 0, "rental_uris": {"ios": "https://dc.lft.to/lastmile_qr_scan", "android": "https://dc.lft.to/lastmile_qr_scan"}}, {"name": "e2595f51cb5cb0bb41cfc04862f40292", "lon": -77.02557266666666, "lat": 38.9247985, "type": "electric_scooter", "fusion_lon": 0.0, "is_reserved": 0, "bike_id": "e2595f51cb5cb0bb41cfc04862f40292", "fusion_lat": 0.0, "is_disabled": 0, "rental_uris": {"ios": "https://dc.lft.to/lastmile_qr_scan", "android": "https://dc.lft.to/lastmile_qr_scan"}}, {"name": "368ea1ba3d4668d09d34987cff73f1d7", "lon": -77.02511833333334, "lat": 38.93098533333333, "type": "electric_scooter", "fusion_lon": 0.0, "is_reserved": 0, "bike_id": "368ea1ba3d4668d09d34987cff73f1d7", "fusion_lat": 0.0, "is_disabled": 0, "rental_uris": {"ios": "https://dc.lft.to/lastmile_qr_scan", "android": "https://dc.lft.to/lastmile_qr_scan"}}, {"name": "cafe7b7ea41ae262d7805d3ecd8db1bc", "lon": -77.032157, "lat": 38.89221416666667, "type": "electric_scooter", "fusion_lon": 0.0, "is_reserved": 0, "bike_id": "cafe7b7ea41ae262d7805d3ecd8db1bc", "fusion_lat": 0.0, "is_disabled": 0, "rental_uris": {"ios": "https://dc.lft.to/lastmile_qr_scan", "android": "https://dc.lft.to/lastmile_qr_scan"}}, {"name": "912861728b0236a7ee1a5e641caf524e", "lon": -76.9961935, "lat": 38.8863, "type": "electric_scooter", "fusion_lon": 0.0, "is_reserved": 0, "bike_id": "912861728b0236a7ee1a5e641caf524e", "fusion_lat": 0.0, "is_disabled": 0, "rental_uris": {"ios": "https://dc.lft.to/lastmile_qr_scan", "android": "https://dc.lft.to/lastmile_qr_scan"}}, {"name": "1d98186a36507bac6d7694ed0d2a24b0", "lon": -77.02552283333333, "lat": 38.92473783333333, "type": "electric_scooter", "fusion_lon": 0.0, "is_reserved": 0, "bike_id": "1d98186a36507bac6d7694ed0d2a24b0", "fusion_lat": 0.0, "is_disabled": 0, "rental_uris": {"ios": "https://dc.lft.to/lastmile_qr_scan", "android": "https://dc.lft.to/lastmile_qr_scan"}}, {"name": "5ce083d1588f51a4b404fcb668a52624", "lon": -76.98301766666667, "lat": 38.905274, "type": "electric_scooter", "fusion_lon": 0.0, "is_reserved": 0, "bike_id": "5ce083d1588f51a4b404fcb668a52624", "fusion_lat": 0.0, "is_disabled": 0, "rental_uris": {"ios": "https://dc.lft.to/lastmile_qr_scan", "android": "https://dc.lft.to/lastmile_qr_scan"}}, {"name": "1443d3e47e53f998cb436ae110f725b8", "lon": -77.0367575, "lat": 38.93648666666667, "type": "electric_scooter", "fusion_lon": 0.0, "is_reserved": 0, "bike_id": "1443d3e47e53f998cb436ae110f725b8", "fusion_lat": 0.0, "is_disabled": 0, "rental_uris": {"ios": "https://dc.lft.to/lastmile_qr_scan", "android": "https://dc.lft.to/lastmile_qr_scan"}}, {"name": "8d6d197e4590b54abe3d32754b21f162", "lon": -77.0257895, "lat": 38.920295833333334, "type": "electric_scooter", "fusion_lon": 0.0, "is_reserved": 0, "bike_id": "8d6d197e4590b54abe3d32754b21f162", "fusion_lat": 0.0, "is_disabled": 0, "rental_uris": {"ios": "https://dc.lft.to/lastmile_qr_scan", "android": "https://dc.lft.to/lastmile_qr_scan"}}, {"name": "6734b71130728b52bd6ece8902fa6b5e", "lon": -77.03834516666667, "lat": 38.911206666666665, "type": "electric_scooter", "fusion_lon": 0.0, "is_reserved": 0, "bike_id": "6734b71130728b52bd6ece8902fa6b5e", "fusion_lat": 0.0, "is_disabled": 0, "rental_uris": {"ios": "https://dc.lft.to/lastmile_qr_scan", "android": "https://dc.lft.to/lastmile_qr_scan"}}, {"name": "1a933bda5fb6593d1ab78de7386533bd", "lon": -77.0217255, "lat": 38.9055775, "type": "electric_scooter", "fusion_lon": 0.0, "is_reserved": 0, "bike_id": "1a933bda5fb6593d1ab78de7386533bd", "fusion_lat": 0.0, "is_disabled": 0, "rental_uris": {"ios": "https://dc.lft.to/lastmile_qr_scan", "android": "https://dc.lft.to/lastmile_qr_scan"}}, {"name": "f1b8e0eab4b3fe48ec28e7ced1e4b943", "lon": -77.0182015, "lat": 38.92038083333333, "type": "electric_scooter", "fusion_lon": 0.0, "is_reserved": 0, "bike_id": "f1b8e0eab4b3fe48ec28e7ced1e4b943", "fusion_lat": 0.0, "is_disabled": 0, "rental_uris": {"ios": "https://dc.lft.to/lastmile_qr_scan", "android": "https://dc.lft.to/lastmile_qr_scan"}}, {"name": "2182bf971346340d1120caaee7e5bdd5", "lon": -76.99517433333334, "lat": 38.883706333333336, "type": "electric_scooter", "fusion_lon": 0.0, "is_reserved": 0, "bike_id": "2182bf971346340d1120caaee7e5bdd5", "fusion_lat": 0.0, "is_disabled": 0, "rental_uris": {"ios": "https://dc.lft.to/lastmile_qr_scan", "android": "https://dc.lft.to/lastmile_qr_scan"}}, {"name": "a7573a0d596dbb70143e336fbee67c59", "lon": -77.04005483333333, "lat": 38.9256895, "type": "electric_scooter", "fusion_lon": 0.0, "is_reserved": 0, "bike_id": "a7573a0d596dbb70143e336fbee67c59", "fusion_lat": 0.0, "is_disabled": 0, "rental_uris": {"ios": "https://dc.lft.to/lastmile_qr_scan", "android": "https://dc.lft.to/lastmile_qr_scan"}}, {"name": "8795e159126d6be64048ab7dc805b9e4", "lon": -77.0150545, "lat": 38.87646483333333, "type": "electric_bike", "fusion_lon": 0.0, "is_reserved": 0, "bike_id": "8795e159126d6be64048ab7dc805b9e4", "fusion_lat": 0.0, "is_disabled": 0, "rental_uris": {"ios": "https://dc.lft.to/lastmile_qr_scan", "android": "https://dc.lft.to/lastmile_qr_scan"}}, {"name": "d49979234bb6a8e5dec76ede6c9aa36a", "lon": -77.02653333333333, "lat": 38.892205, "type": "electric_scooter", "fusion_lon": 0.0, "is_reserved": 0, "bike_id": "d49979234bb6a8e5dec76ede6c9aa36a", "fusion_lat": 0.0, "is_disabled": 0, "rental_uris": {"ios": "https://dc.lft.to/lastmile_qr_scan", "android": "https://dc.lft.to/lastmile_qr_scan"}}, {"name": "7d38c06026c03d4753bd70e58a7ca40c", "lon": -76.98883833333333, "lat": 38.8665845, "type": "electric_scooter", "fusion_lon": 0.0, "is_reserved": 0, "bike_id": "7d38c06026c03d4753bd70e58a7ca40c", "fusion_lat": 0.0, "is_disabled": 0, "rental_uris": {"ios": "https://dc.lft.to/lastmile_qr_scan", "android": "https://dc.lft.to/lastmile_qr_scan"}}, {"name": "3e956ed4e441f9f5538db8df0d9f4a8a", "lon": -76.98064116666667, "lat": 38.95702283333333, "type": "electric_bike", "fusion_lon": 0.0, "is_reserved": 0, "bike_id": "3e956ed4e441f9f5538db8df0d9f4a8a", "fusion_lat": 0.0, "is_disabled": 0, "rental_uris": {"ios": "https://dc.lft.to/lastmile_qr_scan", "android": "https://dc.lft.to/lastmile_qr_scan"}}, {"name": "b33a4af959dc90a9a87e965fe7e62cb9", "lon": -77.0251295, "lat": 38.9055925, "type": "electric_scooter", "fusion_lon": 0.0, "is_reserved": 0, "bike_id": "b33a4af959dc90a9a87e965fe7e62cb9", "fusion_lat": 0.0, "is_disabled": 0, "rental_uris": {"ios": "https://dc.lft.to/lastmile_qr_scan", "android": "https://dc.lft.to/lastmile_qr_scan"}}, {"name": "9570992c23e8d20c8d7b6a6429899a9a", "lon": -77.0347915, "lat": 38.91712066666667, "type": "electric_scooter", "fusion_lon": 0.0, "is_reserved": 0, "bike_id": "9570992c23e8d20c8d7b6a6429899a9a", "fusion_lat": 0.0, "is_disabled": 0, "rental_uris": {"ios": "https://dc.lft.to/lastmile_qr_scan", "android": "https://dc.lft.to/lastmile_qr_scan"}}, {"name": "db0a4d7a1832235cb68141bfbc4b883f", "lon": -77.0408595, "lat": 38.923883000000004, "type": "electric_scooter", "fusion_lon": 0.0, "is_reserved": 0, "bike_id": "db0a4d7a1832235cb68141bfbc4b883f", "fusion_lat": 0.0, "is_disabled": 0, "rental_uris": {"ios": "https://dc.lft.to/lastmile_qr_scan", "android": "https://dc.lft.to/lastmile_qr_scan"}}, {"name": "dc618e636dc01e14adae42395259d1d3", "lon": -77.16091633333333, "lat": 38.88683966666667, "type": "electric_bike", "fusion_lon": 0.0, "is_reserved": 0, "bike_id": "dc618e636dc01e14adae42395259d1d3", "fusion_lat": 0.0, "is_disabled": 0, "rental_uris": {"ios": "https://dc.lft.to/lastmile_qr_scan", "android": "https://dc.lft.to/lastmile_qr_scan"}}, {"name": "638b178e174e44d604295fe55b886e96", "lon": -77.07915316666667, "lat": 38.8022625, "type": "electric_bike", "fusion_lon": 0.0, "is_reserved": 0, "bike_id": "638b178e174e44d604295fe55b886e96", "fusion_lat": 0.0, "is_disabled": 0, "rental_uris": {"ios": "https://dc.lft.to/lastmile_qr_scan", "android": "https://dc.lft.to/lastmile_qr_scan"}}, {"name": "12063da398d6aaa0628f41daebe6a4da", "lon": -77.011343, "lat": 38.89523166666667, "type": "electric_scooter", "fusion_lon": 0.0, "is_reserved": 0, "bike_id": "12063da398d6aaa0628f41daebe6a4da", "fusion_lat": 0.0, "is_disabled": 0, "rental_uris": {"ios": "https://dc.lft.to/lastmile_qr_scan", "android": "https://dc.lft.to/lastmile_qr_scan"}}, {"name": "8228da2eedb80b3590895f91c5a41799", "lon": -77.03594183333334, "lat": 38.91623116666667, "type": "electric_scooter", "fusion_lon": 0.0, "is_reserved": 0, "bike_id": "8228da2eedb80b3590895f91c5a41799", "fusion_lat": 0.0, "is_disabled": 0, "rental_uris": {"ios": "https://dc.lft.to/lastmile_qr_scan", "android": "https://dc.lft.to/lastmile_qr_scan"}}, {"name": "a0a6c9fb2b7edca60c5a9a6e4521fd97", "lon": -77.034019, "lat": 38.931275666666664, "type": "electric_scooter", "fusion_lon": 0.0, "is_reserved": 0, "bike_id": "a0a6c9fb2b7edca60c5a9a6e4521fd97", "fusion_lat": 0.0, "is_disabled": 0, "rental_uris": {"ios": "https://dc.lft.to/lastmile_qr_scan", "android": "https://dc.lft.to/lastmile_qr_scan"}}, {"name": "34cd780cc95635a3f00eed58566c9428", "lon": -77.04208766666666, "lat": 38.911191, "type": "electric_scooter", "fusion_lon": 0.0, "is_reserved": 0, "bike_id": "34cd780cc95635a3f00eed58566c9428", "fusion_lat": 0.0, "is_disabled": 0, "rental_uris": {"ios": "https://dc.lft.to/lastmile_qr_scan", "android": "https://dc.lft.to/lastmile_qr_scan"}}, {"name": "127366e2503f77f9711dd086a44c6926", "lon": -77.00562416666666, "lat": 38.885043333333336, "type": "electric_scooter", "fusion_lon": 0.0, "is_reserved": 0, "bike_id": "127366e2503f77f9711dd086a44c6926", "fusion_lat": 0.0, "is_disabled": 0, "rental_uris": {"ios": "https://dc.lft.to/lastmile_qr_scan", "android": "https://dc.lft.to/lastmile_qr_scan"}}, {"name": "12fda0f8c721c0dd89b6382df31ed5b3", "lon": -77.0382865, "lat": 38.911226, "type": "electric_scooter", "fusion_lon": 0.0, "is_reserved": 0, "bike_id": "12fda0f8c721c0dd89b6382df31ed5b3", "fusion_lat": 0.0, "is_disabled": 0, "rental_uris": {"ios": "https://dc.lft.to/lastmile_qr_scan", "android": "https://dc.lft.to/lastmile_qr_scan"}}, {"name": "c55dcb3fcca144f9722cc8819b601f9a", "lon": -77.027397, "lat": 38.92769166666667, "type": "electric_scooter", "fusion_lon": 0.0, "is_reserved": 0, "bike_id": "c55dcb3fcca144f9722cc8819b601f9a", "fusion_lat": 0.0, "is_disabled": 0, "rental_uris": {"ios": "https://dc.lft.to/lastmile_qr_scan", "android": "https://dc.lft.to/lastmile_qr_scan"}}, {"name": "eecb590cf6a422c6bc69f0d0801152fd", "lon": -77.01131416666666, "lat": 38.88036866666667, "type": "electric_scooter", "fusion_lon": 0.0, "is_reserved": 0, "bike_id": "eecb590cf6a422c6bc69f0d0801152fd", "fusion_lat": 0.0, "is_disabled": 0, "rental_uris": {"ios": "https://dc.lft.to/lastmile_qr_scan", "android": "https://dc.lft.to/lastmile_qr_scan"}}, {"name": "0c1464ab4307c5d01f9aaa3b1d2652f3", "lon": -77.05061866666667, "lat": 38.90067966666667, "type": "electric_scooter", "fusion_lon": 0.0, "is_reserved": 0, "bike_id": "0c1464ab4307c5d01f9aaa3b1d2652f3", "fusion_lat": 0.0, "is_disabled": 0, "rental_uris": {"ios": "https://dc.lft.to/lastmile_qr_scan", "android": "https://dc.lft.to/lastmile_qr_scan"}}, {"name": "e25e3cdd4afaf81005a94f5a45aa0512", "lon": -77.03990866666666, "lat": 38.9176065, "type": "electric_scooter", "fusion_lon": 0.0, "is_reserved": 0, "bike_id": "e25e3cdd4afaf81005a94f5a45aa0512", "fusion_lat": 0.0, "is_disabled": 0, "rental_uris": {"ios": "https://dc.lft.to/lastmile_qr_scan", "android": "https://dc.lft.to/lastmile_qr_scan"}}, {"name": "221667564596455edbdaf5b769aa7ab1", "lon": -77.03269666666667, "lat": 38.93724816666667, "type": "electric_scooter", "fusion_lon": 0.0, "is_reserved": 0, "bike_id": "221667564596455edbdaf5b769aa7ab1", "fusion_lat": 0.0, "is_disabled": 0, "rental_uris": {"ios": "https://dc.lft.to/lastmile_qr_scan", "android": "https://dc.lft.to/lastmile_qr_scan"}}, {"name": "8a6b6b0b4396343b17d6cfaacbb00861", "lon": -76.98664166666667, "lat": 38.90249416666666, "type": "electric_scooter", "fusion_lon": 0.0, "is_reserved": 0, "bike_id": "8a6b6b0b4396343b17d6cfaacbb00861", "fusion_lat": 0.0, "is_disabled": 0, "rental_uris": {"ios": "https://dc.lft.to/lastmile_qr_scan", "android": "https://dc.lft.to/lastmile_qr_scan"}}, {"name": "255569c23d17f3b8c96742f3e89ce5b5", "lon": -77.00060683333334, "lat": 38.8766645, "type": "electric_scooter", "fusion_lon": 0.0, "is_reserved": 0, "bike_id": "255569c23d17f3b8c96742f3e89ce5b5", "fusion_lat": 0.0, "is_disabled": 0, "rental_uris": {"ios": "https://dc.lft.to/lastmile_qr_scan", "android": "https://dc.lft.to/lastmile_qr_scan"}}, {"name": "d16fa11ef82d38c3721d05df2ff67973", "lon": -77.0080125, "lat": 38.89713283333333, "type": "electric_scooter", "fusion_lon": 0.0, "is_reserved": 0, "bike_id": "d16fa11ef82d38c3721d05df2ff67973", "fusion_lat": 0.0, "is_disabled": 0, "rental_uris": {"ios": "https://dc.lft.to/lastmile_qr_scan", "android": "https://dc.lft.to/lastmile_qr_scan"}}, {"name": "b0701685e5315e11ef20f058313db40a", "lon": -77.13469583333334, "lat": 38.853517333333336, "type": "electric_bike", "fusion_lon": 0.0, "is_reserved": 0, "bike_id": "b0701685e5315e11ef20f058313db40a", "fusion_lat": 0.0, "is_disabled": 0, "rental_uris": {"ios": "https://dc.lft.to/lastmile_qr_scan", "android": "https://dc.lft.to/lastmile_qr_scan"}}, {"name": "f505589cd15bfe2220afdd8726f3a1d8", "lon": -77.027201, "lat": 38.906825, "type": "electric_scooter", "fusion_lon": 0.0, "is_reserved": 0, "bike_id": "f505589cd15bfe2220afdd8726f3a1d8", "fusion_lat": 0.0, "is_disabled": 0, "rental_uris": {"ios": "https://dc.lft.to/lastmile_qr_scan", "android": "https://dc.lft.to/lastmile_qr_scan"}}, {"name": "7e921b7eb81a527f1ac457ee3b13f853", "lon": -76.9929515, "lat": 38.934769833333334, "type": "electric_scooter", "fusion_lon": 0.0, "is_reserved": 0, "bike_id": "7e921b7eb81a527f1ac457ee3b13f853", "fusion_lat": 0.0, "is_disabled": 0, "rental_uris": {"ios": "https://dc.lft.to/lastmile_qr_scan", "android": "https://dc.lft.to/lastmile_qr_scan"}}, {"name": "5d56230f3d6c4aeeb6bcfcef87b88cf9", "lon": -77.030774, "lat": 38.89751166666667, "type": "electric_scooter", "fusion_lon": 0.0, "is_reserved": 0, "bike_id": "5d56230f3d6c4aeeb6bcfcef87b88cf9", "fusion_lat": 0.0, "is_disabled": 0, "rental_uris": {"ios": "https://dc.lft.to/lastmile_qr_scan", "android": "https://dc.lft.to/lastmile_qr_scan"}}, {"name": "9c8f851849eac3295319864c9b82c0cd", "lon": -77.03536166666666, "lat": 38.923219, "type": "electric_scooter", "fusion_lon": 0.0, "is_reserved": 0, "bike_id": "9c8f851849eac3295319864c9b82c0cd", "fusion_lat": 0.0, "is_disabled": 0, "rental_uris": {"ios": "https://dc.lft.to/lastmile_qr_scan", "android": "https://dc.lft.to/lastmile_qr_scan"}}, {"name": "512321bcfd82b1d2c4b97493efe82284", "lon": -77.03216166666667, "lat": 38.91426283333333, "type": "electric_scooter", "fusion_lon": 0.0, "is_reserved": 0, "bike_id": "512321bcfd82b1d2c4b97493efe82284", "fusion_lat": 0.0, "is_disabled": 0, "rental_uris": {"ios": "https://dc.lft.to/lastmile_qr_scan", "android": "https://dc.lft.to/lastmile_qr_scan"}}, {"name": "1ba7c936ebf41907e1f23a28e9052621", "lon": -77.10910733333333, "lat": 39.0520635, "type": "electric_bike", "fusion_lon": 0.0, "is_reserved": 0, "bike_id": "1ba7c936ebf41907e1f23a28e9052621", "fusion_lat": 0.0, "is_disabled": 0, "rental_uris": {"ios": "https://dc.lft.to/lastmile_qr_scan", "android": "https://dc.lft.to/lastmile_qr_scan"}}, {"name": "cd41a9d47c4b9c4e9a5d79cbe1f74a35", "lon": -76.972964, "lat": 38.90322616666667, "type": "electric_scooter", "fusion_lon": 0.0, "is_reserved": 0, "bike_id": "cd41a9d47c4b9c4e9a5d79cbe1f74a35", "fusion_lat": 0.0, "is_disabled": 0, "rental_uris": {"ios": "https://dc.lft.to/lastmile_qr_scan", "android": "https://dc.lft.to/lastmile_qr_scan"}}, {"name": "f98fdf6aa4bc7bc34f1948cde196c95c", "lon": -77.02465083333334, "lat": 38.9193565, "type": "electric_bike", "fusion_lon": 0.0, "is_reserved": 0, "bike_id": "f98fdf6aa4bc7bc34f1948cde196c95c", "fusion_lat": 0.0, "is_disabled": 0, "rental_uris": {"ios": "https://dc.lft.to/lastmile_qr_scan", "android": "https://dc.lft.to/lastmile_qr_scan"}}, {"name": "ff94b1bbcef4309e2fcf53c54797e83e", "lon": -77.04281133333333, "lat": 38.914178, "type": "electric_scooter", "fusion_lon": 0.0, "is_reserved": 0, "bike_id": "ff94b1bbcef4309e2fcf53c54797e83e", "fusion_lat": 0.0, "is_disabled": 0, "rental_uris": {"ios": "https://dc.lft.to/lastmile_qr_scan", "android": "https://dc.lft.to/lastmile_qr_scan"}}, {"name": "329e491602863819346da142e4884a6f", "lon": -77.02429883333333, "lat": 38.91911066666667, "type": "electric_bike", "fusion_lon": 0.0, "is_reserved": 0, "bike_id": "329e491602863819346da142e4884a6f", "fusion_lat": 0.0, "is_disabled": 0, "rental_uris": {"ios": "https://dc.lft.to/lastmile_qr_scan", "android": "https://dc.lft.to/lastmile_qr_scan"}}, {"name": "37ec00547b4248b75926ab2b9cc61bcc", "lon": -77.04864883333333, "lat": 38.909553333333335, "type": "electric_scooter", "fusion_lon": 0.0, "is_reserved": 0, "bike_id": "37ec00547b4248b75926ab2b9cc61bcc", "fusion_lat": 0.0, "is_disabled": 0, "rental_uris": {"ios": "https://dc.lft.to/lastmile_qr_scan", "android": "https://dc.lft.to/lastmile_qr_scan"}}, {"name": "d346771ef48e023c3a0675f49d3cf2de", "lon": -77.01801683333333, "lat": 38.919877, "type": "electric_scooter", "fusion_lon": 0.0, "is_reserved": 0, "bike_id": "d346771ef48e023c3a0675f49d3cf2de", "fusion_lat": 0.0, "is_disabled": 0, "rental_uris": {"ios": "https://dc.lft.to/lastmile_qr_scan", "android": "https://dc.lft.to/lastmile_qr_scan"}}, {"name": "16cb5454a6e63e51f95a86f98ab94a5f", "lon": -77.034973, "lat": 38.905840833333336, "type": "electric_scooter", "fusion_lon": 0.0, "is_reserved": 0, "bike_id": "16cb5454a6e63e51f95a86f98ab94a5f", "fusion_lat": 0.0, "is_disabled": 0, "rental_uris": {"ios": "https://dc.lft.to/lastmile_qr_scan", "android": "https://dc.lft.to/lastmile_qr_scan"}}, {"name": "3826572d8aa3077c4171b8f2c5a10c51", "lon": -77.024059, "lat": 38.90958333333333, "type": "electric_scooter", "fusion_lon": 0.0, "is_reserved": 0, "bike_id": "3826572d8aa3077c4171b8f2c5a10c51", "fusion_lat": 0.0, "is_disabled": 0, "rental_uris": {"ios": "https://dc.lft.to/lastmile_qr_scan", "android": "https://dc.lft.to/lastmile_qr_scan"}}, {"name": "afec6434feb7a4495acaa31332270efc", "lon": -77.03285766666667, "lat": 38.956385833333336, "type": "electric_scooter", "fusion_lon": 0.0, "is_reserved": 0, "bike_id": "afec6434feb7a4495acaa31332270efc", "fusion_lat": 0.0, "is_disabled": 0, "rental_uris": {"ios": "https://dc.lft.to/lastmile_qr_scan", "android": "https://dc.lft.to/lastmile_qr_scan"}}, {"name": "2f24757d37a58e8700b68deed96e3b92", "lon": -76.93002283333334, "lat": 38.901842333333335, "type": "electric_scooter", "fusion_lon": 0.0, "is_reserved": 0, "bike_id": "2f24757d37a58e8700b68deed96e3b92", "fusion_lat": 0.0, "is_disabled": 0, "rental_uris": {"ios": "https://dc.lft.to/lastmile_qr_scan", "android": "https://dc.lft.to/lastmile_qr_scan"}}, {"name": "94bf787bd3bc224fc7fadaa9da33b8bd", "lon": -77.04675583333334, "lat": 38.906755, "type": "electric_scooter", "fusion_lon": 0.0, "is_reserved": 0, "bike_id": "94bf787bd3bc224fc7fadaa9da33b8bd", "fusion_lat": 0.0, "is_disabled": 0, "rental_uris": {"ios": "https://dc.lft.to/lastmile_qr_scan", "android": "https://dc.lft.to/lastmile_qr_scan"}}, {"name": "d974578fc4a540d3175f6e25eda8e855", "lon": -77.0062755, "lat": 38.832677833333335, "type": "electric_scooter", "fusion_lon": 0.0, "is_reserved": 0, "bike_id": "d974578fc4a540d3175f6e25eda8e855", "fusion_lat": 0.0, "is_disabled": 0, "rental_uris": {"ios": "https://dc.lft.to/lastmile_qr_scan", "android": "https://dc.lft.to/lastmile_qr_scan"}}, {"name": "a759ae6a3b5414f942e89333c1270622", "lon": -77.07303833333333, "lat": 38.92159516666667, "type": "electric_scooter", "fusion_lon": 0.0, "is_reserved": 0, "bike_id": "a759ae6a3b5414f942e89333c1270622", "fusion_lat": 0.0, "is_disabled": 0, "rental_uris": {"ios": "https://dc.lft.to/lastmile_qr_scan", "android": "https://dc.lft.to/lastmile_qr_scan"}}, {"name": "c93c8f427fa0aa8fa270184581ca770e", "lon": -77.074768, "lat": 38.920608, "type": "electric_bike", "fusion_lon": 0.0, "is_reserved": 0, "bike_id": "c93c8f427fa0aa8fa270184581ca770e", "fusion_lat": 0.0, "is_disabled": 0, "rental_uris": {"ios": "https://dc.lft.to/lastmile_qr_scan", "android": "https://dc.lft.to/lastmile_qr_scan"}}, {"name": "54eb5eb9b4053fe74db532f2c12cee36", "lon": -77.02616983333333, "lat": 38.89677966666667, "type": "electric_scooter", "fusion_lon": 0.0, "is_reserved": 0, "bike_id": "54eb5eb9b4053fe74db532f2c12cee36", "fusion_lat": 0.0, "is_disabled": 0, "rental_uris": {"ios": "https://dc.lft.to/lastmile_qr_scan", "android": "https://dc.lft.to/lastmile_qr_scan"}}, {"name": "d43fc7c88ce4781f3e71042459158a25", "lon": -76.94633083333333, "lat": 38.89840383333333, "type": "electric_scooter", "fusion_lon": 0.0, "is_reserved": 0, "bike_id": "d43fc7c88ce4781f3e71042459158a25", "fusion_lat": 0.0, "is_disabled": 0, "rental_uris": {"ios": "https://dc.lft.to/lastmile_qr_scan", "android": "https://dc.lft.to/lastmile_qr_scan"}}, {"name": "f381545570b5b52356071a71b5c43a09", "lon": -77.033828, "lat": 38.921647, "type": "electric_scooter", "fusion_lon": 0.0, "is_reserved": 0, "bike_id": "f381545570b5b52356071a71b5c43a09", "fusion_lat": 0.0, "is_disabled": 0, "rental_uris": {"ios": "https://dc.lft.to/lastmile_qr_scan", "android": "https://dc.lft.to/lastmile_qr_scan"}}, {"name": "f7f9b14093d11f8e5c6f7482d0efd406", "lon": -77.04675016666667, "lat": 38.895069166666666, "type": "electric_scooter", "fusion_lon": 0.0, "is_reserved": 0, "bike_id": "f7f9b14093d11f8e5c6f7482d0efd406", "fusion_lat": 0.0, "is_disabled": 0, "rental_uris": {"ios": "https://dc.lft.to/lastmile_qr_scan", "android": "https://dc.lft.to/lastmile_qr_scan"}}, {"name": "0a33847032e5b9d1ca5f7c26640b8919", "lon": -76.98403183333333, "lat": 38.866952, "type": "electric_scooter", "fusion_lon": 0.0, "is_reserved": 0, "bike_id": "0a33847032e5b9d1ca5f7c26640b8919", "fusion_lat": 0.0, "is_disabled": 0, "rental_uris": {"ios": "https://dc.lft.to/lastmile_qr_scan", "android": "https://dc.lft.to/lastmile_qr_scan"}}, {"name": "bcff447137461b6412f20470e5794869", "lon": -77.04041033333333, "lat": 38.904376666666664, "type": "electric_scooter", "fusion_lon": 0.0, "is_reserved": 0, "bike_id": "bcff447137461b6412f20470e5794869", "fusion_lat": 0.0, "is_disabled": 0, "rental_uris": {"ios": "https://dc.lft.to/lastmile_qr_scan", "android": "https://dc.lft.to/lastmile_qr_scan"}}, {"name": "eada9302116419c133b0045861edf43c", "lon": -77.024996, "lat": 38.9304545, "type": "electric_scooter", "fusion_lon": 0.0, "is_reserved": 0, "bike_id": "eada9302116419c133b0045861edf43c", "fusion_lat": 0.0, "is_disabled": 0, "rental_uris": {"ios": "https://dc.lft.to/lastmile_qr_scan", "android": "https://dc.lft.to/lastmile_qr_scan"}}, {"name": "765500899de75facfc47fe249dc7ba55", "lon": -77.028432, "lat": 38.93276216666667, "type": "electric_scooter", "fusion_lon": 0.0, "is_reserved": 0, "bike_id": "765500899de75facfc47fe249dc7ba55", "fusion_lat": 0.0, "is_disabled": 0, "rental_uris": {"ios": "https://dc.lft.to/lastmile_qr_scan", "android": "https://dc.lft.to/lastmile_qr_scan"}}, {"name": "99a8ffb1602ca0003369ff4c8c13eb3d", "lon": -76.936115, "lat": 38.886731833333336, "type": "electric_scooter", "fusion_lon": 0.0, "is_reserved": 0, "bike_id": "99a8ffb1602ca0003369ff4c8c13eb3d", "fusion_lat": 0.0, "is_disabled": 0, "rental_uris": {"ios": "https://dc.lft.to/lastmile_qr_scan", "android": "https://dc.lft.to/lastmile_qr_scan"}}, {"name": "cb2c7656acc041bf4238cbb097525040", "lon": -77.03790233333334, "lat": 38.9321845, "type": "electric_scooter", "fusion_lon": 0.0, "is_reserved": 0, "bike_id": "cb2c7656acc041bf4238cbb097525040", "fusion_lat": 0.0, "is_disabled": 0, "rental_uris": {"ios": "https://dc.lft.to/lastmile_qr_scan", "android": "https://dc.lft.to/lastmile_qr_scan"}}, {"name": "fa7985264fac3ebfdd7218674f87abb8", "lon": -77.00036383333334, "lat": 38.924567333333336, "type": "electric_scooter", "fusion_lon": 0.0, "is_reserved": 0, "bike_id": "fa7985264fac3ebfdd7218674f87abb8", "fusion_lat": 0.0, "is_disabled": 0, "rental_uris": {"ios": "https://dc.lft.to/lastmile_qr_scan", "android": "https://dc.lft.to/lastmile_qr_scan"}}, {"name": "0874bced5f9ca05546439c3e65b71bf3", "lon": -77.04554483333334, "lat": 38.924213333333334, "type": "electric_scooter", "fusion_lon": 0.0, "is_reserved": 0, "bike_id": "0874bced5f9ca05546439c3e65b71bf3", "fusion_lat": 0.0, "is_disabled": 0, "rental_uris": {"ios": "https://dc.lft.to/lastmile_qr_scan", "android": "https://dc.lft.to/lastmile_qr_scan"}}, {"name": "ae7d320a2657868c549c30ea34882612", "lon": -77.0434675, "lat": 38.902161166666666, "type": "electric_scooter", "fusion_lon": 0.0, "is_reserved": 0, "bike_id": "ae7d320a2657868c549c30ea34882612", "fusion_lat": 0.0, "is_disabled": 0, "rental_uris": {"ios": "https://dc.lft.to/lastmile_qr_scan", "android": "https://dc.lft.to/lastmile_qr_scan"}}, {"name": "bf35acd123a692a9534f87af4e0eee7f", "lon": -77.0385585, "lat": 38.916163833333336, "type": "electric_scooter", "fusion_lon": 0.0, "is_reserved": 0, "bike_id": "bf35acd123a692a9534f87af4e0eee7f", "fusion_lat": 0.0, "is_disabled": 0, "rental_uris": {"ios": "https://dc.lft.to/lastmile_qr_scan", "android": "https://dc.lft.to/lastmile_qr_scan"}}, {"name": "c7304e7da862acc0222721e5f18d0ddb", "lon": -76.99698433333333, "lat": 38.83865433333333, "type": "electric_bike", "fusion_lon": 0.0, "is_reserved": 0, "bike_id": "c7304e7da862acc0222721e5f18d0ddb", "fusion_lat": 0.0, "is_disabled": 0, "rental_uris": {"ios": "https://dc.lft.to/lastmile_qr_scan", "android": "https://dc.lft.to/lastmile_qr_scan"}}, {"name": "719c30e695d835efb260296cb880bbbc", "lon": -77.03252033333334, "lat": 38.918209, "type": "electric_scooter", "fusion_lon": 0.0, "is_reserved": 0, "bike_id": "719c30e695d835efb260296cb880bbbc", "fusion_lat": 0.0, "is_disabled": 0, "rental_uris": {"ios": "https://dc.lft.to/lastmile_qr_scan", "android": "https://dc.lft.to/lastmile_qr_scan"}}, {"name": "4ecf05aa1b2e5564a489eb43392df126", "lon": -77.02589116666667, "lat": 38.89418233333333, "type": "electric_scooter", "fusion_lon": 0.0, "is_reserved": 0, "bike_id": "4ecf05aa1b2e5564a489eb43392df126", "fusion_lat": 0.0, "is_disabled": 0, "rental_uris": {"ios": "https://dc.lft.to/lastmile_qr_scan", "android": "https://dc.lft.to/lastmile_qr_scan"}}, {"name": "e7f94af571014893d39b6a3e69010a45", "lon": -77.02064116666666, "lat": 38.92186183333333, "type": "electric_scooter", "fusion_lon": 0.0, "is_reserved": 0, "bike_id": "e7f94af571014893d39b6a3e69010a45", "fusion_lat": 0.0, "is_disabled": 0, "rental_uris": {"ios": "https://dc.lft.to/lastmile_qr_scan", "android": "https://dc.lft.to/lastmile_qr_scan"}}, {"name": "f1d2416727de3c3c49b99822bd27bea0", "lon": -76.95961966666667, "lat": 38.890023, "type": "electric_scooter", "fusion_lon": 0.0, "is_reserved": 0, "bike_id": "f1d2416727de3c3c49b99822bd27bea0", "fusion_lat": 0.0, "is_disabled": 0, "rental_uris": {"ios": "https://dc.lft.to/lastmile_qr_scan", "android": "https://dc.lft.to/lastmile_qr_scan"}}, {"name": "94a9c2b0814bac87951517a3ea65e948", "lon": -77.02174066666667, "lat": 38.89476066666667, "type": "electric_scooter", "fusion_lon": 0.0, "is_reserved": 0, "bike_id": "94a9c2b0814bac87951517a3ea65e948", "fusion_lat": 0.0, "is_disabled": 0, "rental_uris": {"ios": "https://dc.lft.to/lastmile_qr_scan", "android": "https://dc.lft.to/lastmile_qr_scan"}}, {"name": "390e2b8910d2f4f4658c75de56dab4b7", "lon": -77.04601983333333, "lat": 38.9169185, "type": "electric_scooter", "fusion_lon": 0.0, "is_reserved": 0, "bike_id": "390e2b8910d2f4f4658c75de56dab4b7", "fusion_lat": 0.0, "is_disabled": 0, "rental_uris": {"ios": "https://dc.lft.to/lastmile_qr_scan", "android": "https://dc.lft.to/lastmile_qr_scan"}}, {"name": "c9d454d57267e6dd9ab1b034a74000d1", "lon": -77.03861216666667, "lat": 38.90831633333333, "type": "electric_scooter", "fusion_lon": 0.0, "is_reserved": 0, "bike_id": "c9d454d57267e6dd9ab1b034a74000d1", "fusion_lat": 0.0, "is_disabled": 0, "rental_uris": {"ios": "https://dc.lft.to/lastmile_qr_scan", "android": "https://dc.lft.to/lastmile_qr_scan"}}, {"name": "7a50c05c0731e007bc49acdec5ef2bdc", "lon": -77.03271233333334, "lat": 38.90718783333333, "type": "electric_scooter", "fusion_lon": 0.0, "is_reserved": 0, "bike_id": "7a50c05c0731e007bc49acdec5ef2bdc", "fusion_lat": 0.0, "is_disabled": 0, "rental_uris": {"ios": "https://dc.lft.to/lastmile_qr_scan", "android": "https://dc.lft.to/lastmile_qr_scan"}}, {"name": "ef816df7bf1c5892ed2e27f53d5be997", "lon": -77.03895816666666, "lat": 38.92198116666667, "type": "electric_scooter", "fusion_lon": 0.0, "is_reserved": 0, "bike_id": "ef816df7bf1c5892ed2e27f53d5be997", "fusion_lat": 0.0, "is_disabled": 0, "rental_uris": {"ios": "https://dc.lft.to/lastmile_qr_scan", "android": "https://dc.lft.to/lastmile_qr_scan"}}, {"name": "d87c14da61e1a5b1596a426a60831cc9", "lon": -76.9884505, "lat": 38.842772, "type": "electric_bike", "fusion_lon": 0.0, "is_reserved": 0, "bike_id": "d87c14da61e1a5b1596a426a60831cc9", "fusion_lat": 0.0, "is_disabled": 0, "rental_uris": {"ios": "https://dc.lft.to/lastmile_qr_scan", "android": "https://dc.lft.to/lastmile_qr_scan"}}, {"name": "01ea9a2dbc9b7c4a5497f21a1cd419c0", "lon": -77.03841916666667, "lat": 38.9167925, "type": "electric_scooter", "fusion_lon": 0.0, "is_reserved": 0, "bike_id": "01ea9a2dbc9b7c4a5497f21a1cd419c0", "fusion_lat": 0.0, "is_disabled": 0, "rental_uris": {"ios": "https://dc.lft.to/lastmile_qr_scan", "android": "https://dc.lft.to/lastmile_qr_scan"}}, {"name": "3fd7b08bfaab4e945e9bba9d5f5e1bd3", "lon": -77.02678383333334, "lat": 38.8974935, "type": "electric_scooter", "fusion_lon": 0.0, "is_reserved": 0, "bike_id": "3fd7b08bfaab4e945e9bba9d5f5e1bd3", "fusion_lat": 0.0, "is_disabled": 0, "rental_uris": {"ios": "https://dc.lft.to/lastmile_qr_scan", "android": "https://dc.lft.to/lastmile_qr_scan"}}, {"name": "454c52a421af59cf94caa0adea1a0fb8", "lon": -77.03659183333333, "lat": 38.93627516666667, "type": "electric_scooter", "fusion_lon": 0.0, "is_reserved": 0, "bike_id": "454c52a421af59cf94caa0adea1a0fb8", "fusion_lat": 0.0, "is_disabled": 0, "rental_uris": {"ios": "https://dc.lft.to/lastmile_qr_scan", "android": "https://dc.lft.to/lastmile_qr_scan"}}, {"name": "43cd89558815152c125e2bf2c82162ba", "lon": -77.02229833333334, "lat": 38.89219166666667, "type": "electric_scooter", "fusion_lon": 0.0, "is_reserved": 0, "bike_id": "43cd89558815152c125e2bf2c82162ba", "fusion_lat": 0.0, "is_disabled": 0, "rental_uris": {"ios": "https://dc.lft.to/lastmile_qr_scan", "android": "https://dc.lft.to/lastmile_qr_scan"}}, {"name": "c223794d7344c8aa80aecb9be1ce2908", "lon": -76.99064183333333, "lat": 38.898090833333335, "type": "electric_bike", "fusion_lon": 0.0, "is_reserved": 0, "bike_id": "c223794d7344c8aa80aecb9be1ce2908", "fusion_lat": 0.0, "is_disabled": 0, "rental_uris": {"ios": "https://dc.lft.to/lastmile_qr_scan", "android": "https://dc.lft.to/lastmile_qr_scan"}}, {"name": "f10b46015cc3206698eb5c3e7591ea1d", "lon": -77.05267, "lat": 38.93939983333333, "type": "electric_scooter", "fusion_lon": 0.0, "is_reserved": 0, "bike_id": "f10b46015cc3206698eb5c3e7591ea1d", "fusion_lat": 0.0, "is_disabled": 0, "rental_uris": {"ios": "https://dc.lft.to/lastmile_qr_scan", "android": "https://dc.lft.to/lastmile_qr_scan"}}, {"name": "267f91a642231a1569bd8464f0cc5768", "lon": -77.01169966666667, "lat": 38.91563333333333, "type": "electric_scooter", "fusion_lon": 0.0, "is_reserved": 0, "bike_id": "267f91a642231a1569bd8464f0cc5768", "fusion_lat": 0.0, "is_disabled": 0, "rental_uris": {"ios": "https://dc.lft.to/lastmile_qr_scan", "android": "https://dc.lft.to/lastmile_qr_scan"}}, {"name": "f1ba97735fe40eecdfbb4b0c1cd514ee", "lon": -77.07823483333334, "lat": 38.936391666666665, "type": "electric_bike", "fusion_lon": 0.0, "is_reserved": 0, "bike_id": "f1ba97735fe40eecdfbb4b0c1cd514ee", "fusion_lat": 0.0, "is_disabled": 0, "rental_uris": {"ios": "https://dc.lft.to/lastmile_qr_scan", "android": "https://dc.lft.to/lastmile_qr_scan"}}, {"name": "828ec5ce325b41f2491d6eb4a65d2276", "lon": -77.17840633333333, "lat": 39.088565, "type": "electric_bike", "fusion_lon": 0.0, "is_reserved": 0, "bike_id": "828ec5ce325b41f2491d6eb4a65d2276", "fusion_lat": 0.0, "is_disabled": 0, "rental_uris": {"ios": "https://dc.lft.to/lastmile_qr_scan", "android": "https://dc.lft.to/lastmile_qr_scan"}}, {"name": "37d03132071823a4a9fc88ab3de1a2bf", "lon": -77.03265766666667, "lat": 38.93261583333334, "type": "electric_scooter", "fusion_lon": 0.0, "is_reserved": 0, "bike_id": "37d03132071823a4a9fc88ab3de1a2bf", "fusion_lat": 0.0, "is_disabled": 0, "rental_uris": {"ios": "https://dc.lft.to/lastmile_qr_scan", "android": "https://dc.lft.to/lastmile_qr_scan"}}, {"name": "3f58ff969474166c08bcb06f0ced6c96", "lon": -77.08636416666667, "lat": 38.881841666666666, "type": "electric_bike", "fusion_lon": 0.0, "is_reserved": 0, "bike_id": "3f58ff969474166c08bcb06f0ced6c96", "fusion_lat": 0.0, "is_disabled": 0, "rental_uris": {"ios": "https://dc.lft.to/lastmile_qr_scan", "android": "https://dc.lft.to/lastmile_qr_scan"}}, {"name": "9db96176614881f0ad733eecd272af33", "lon": -77.00972066666667, "lat": 38.907901833333334, "type": "electric_scooter", "fusion_lon": 0.0, "is_reserved": 0, "bike_id": "9db96176614881f0ad733eecd272af33", "fusion_lat": 0.0, "is_disabled": 0, "rental_uris": {"ios": "https://dc.lft.to/lastmile_qr_scan", "android": "https://dc.lft.to/lastmile_qr_scan"}}, {"name": "56283a8684bca99de382c9ef95fe99cb", "lon": -77.01975766666666, "lat": 38.9027695, "type": "electric_scooter", "fusion_lon": 0.0, "is_reserved": 0, "bike_id": "56283a8684bca99de382c9ef95fe99cb", "fusion_lat": 0.0, "is_disabled": 0, "rental_uris": {"ios": "https://dc.lft.to/lastmile_qr_scan", "android": "https://dc.lft.to/lastmile_qr_scan"}}, {"name": "589bd8e1daa976def21cf3270ef666b0", "lon": -77.02696333333333, "lat": 38.9068485, "type": "electric_scooter", "fusion_lon": 0.0, "is_reserved": 0, "bike_id": "589bd8e1daa976def21cf3270ef666b0", "fusion_lat": 0.0, "is_disabled": 0, "rental_uris": {"ios": "https://dc.lft.to/lastmile_qr_scan", "android": "https://dc.lft.to/lastmile_qr_scan"}}, {"name": "b74d7aed4efa4e361b6d9a431071c37a", "lon": -76.9916405, "lat": 38.89799, "type": "electric_scooter", "fusion_lon": 0.0, "is_reserved": 0, "bike_id": "b74d7aed4efa4e361b6d9a431071c37a", "fusion_lat": 0.0, "is_disabled": 0, "rental_uris": {"ios": "https://dc.lft.to/lastmile_qr_scan", "android": "https://dc.lft.to/lastmile_qr_scan"}}, {"name": "dea7f265852e5d7d8a57d33c0b2aba60", "lon": -77.04191183333333, "lat": 38.916853833333334, "type": "electric_scooter", "fusion_lon": 0.0, "is_reserved": 0, "bike_id": "dea7f265852e5d7d8a57d33c0b2aba60", "fusion_lat": 0.0, "is_disabled": 0, "rental_uris": {"ios": "https://dc.lft.to/lastmile_qr_scan", "android": "https://dc.lft.to/lastmile_qr_scan"}}, {"name": "5b15ac4ceb1764c5782374e7a2c58cce", "lon": -76.9653185, "lat": 38.874817666666665, "type": "electric_bike", "fusion_lon": 0.0, "is_reserved": 0, "bike_id": "5b15ac4ceb1764c5782374e7a2c58cce", "fusion_lat": 0.0, "is_disabled": 0, "rental_uris": {"ios": "https://dc.lft.to/lastmile_qr_scan", "android": "https://dc.lft.to/lastmile_qr_scan"}}, {"name": "21ae33ad5ec8318a7f552ba514cdddca", "lon": -77.0345845, "lat": 38.90568483333333, "type": "electric_scooter", "fusion_lon": 0.0, "is_reserved": 0, "bike_id": "21ae33ad5ec8318a7f552ba514cdddca", "fusion_lat": 0.0, "is_disabled": 0, "rental_uris": {"ios": "https://dc.lft.to/lastmile_qr_scan", "android": "https://dc.lft.to/lastmile_qr_scan"}}, {"name": "8f1847e59cb2f71a9efc92f77c435cd5", "lon": -76.95646266666667, "lat": 38.89557583333333, "type": "electric_scooter", "fusion_lon": 0.0, "is_reserved": 0, "bike_id": "8f1847e59cb2f71a9efc92f77c435cd5", "fusion_lat": 0.0, "is_disabled": 0, "rental_uris": {"ios": "https://dc.lft.to/lastmile_qr_scan", "android": "https://dc.lft.to/lastmile_qr_scan"}}, {"name": "d495487978bcf6f4941f012ce57a5e56", "lon": -77.22215816666667, "lat": 38.928544, "type": "electric_bike", "fusion_lon": 0.0, "is_reserved": 0, "bike_id": "d495487978bcf6f4941f012ce57a5e56", "fusion_lat": 0.0, "is_disabled": 0, "rental_uris": {"ios": "https://dc.lft.to/lastmile_qr_scan", "android": "https://dc.lft.to/lastmile_qr_scan"}}, {"name": "b66c324600531f0085c3ce6618ce3a85", "lon": -77.03121016666667, "lat": 38.91567383333334, "type": "electric_scooter", "fusion_lon": 0.0, "is_reserved": 0, "bike_id": "b66c324600531f0085c3ce6618ce3a85", "fusion_lat": 0.0, "is_disabled": 0, "rental_uris": {"ios": "https://dc.lft.to/lastmile_qr_scan", "android": "https://dc.lft.to/lastmile_qr_scan"}}, {"name": "3383b41e8820a37d27a37c0fd4ea8966", "lon": -77.05108583333333, "lat": 38.90182216666667, "type": "electric_scooter", "fusion_lon": 0.0, "is_reserved": 0, "bike_id": "3383b41e8820a37d27a37c0fd4ea8966", "fusion_lat": 0.0, "is_disabled": 0, "rental_uris": {"ios": "https://dc.lft.to/lastmile_qr_scan", "android": "https://dc.lft.to/lastmile_qr_scan"}}, {"name": "14b3edb56e6b2c031aef91eba39cc363", "lon": -77.0291335, "lat": 38.93336266666667, "type": "electric_scooter", "fusion_lon": 0.0, "is_reserved": 0, "bike_id": "14b3edb56e6b2c031aef91eba39cc363", "fusion_lat": 0.0, "is_disabled": 0, "rental_uris": {"ios": "https://dc.lft.to/lastmile_qr_scan", "android": "https://dc.lft.to/lastmile_qr_scan"}}, {"name": "cc740d78cec70ecc11956296454928c7", "lon": -77.01185016666666, "lat": 38.903190333333335, "type": "electric_scooter", "fusion_lon": 0.0, "is_reserved": 0, "bike_id": "cc740d78cec70ecc11956296454928c7", "fusion_lat": 0.0, "is_disabled": 0, "rental_uris": {"ios": "https://dc.lft.to/lastmile_qr_scan", "android": "https://dc.lft.to/lastmile_qr_scan"}}, {"name": "c7c1ac34be5c5372aeef199381ab1c82", "lon": -77.10603366666666, "lat": 38.92891083333333, "type": "electric_bike", "fusion_lon": 0.0, "is_reserved": 0, "bike_id": "c7c1ac34be5c5372aeef199381ab1c82", "fusion_lat": 0.0, "is_disabled": 0, "rental_uris": {"ios": "https://dc.lft.to/lastmile_qr_scan", "android": "https://dc.lft.to/lastmile_qr_scan"}}, {"name": "e8dc81590c8519f058eb81d3167d0819", "lon": -77.00775316666666, "lat": 38.905749166666666, "type": "electric_scooter", "fusion_lon": 0.0, "is_reserved": 0, "bike_id": "e8dc81590c8519f058eb81d3167d0819", "fusion_lat": 0.0, "is_disabled": 0, "rental_uris": {"ios": "https://dc.lft.to/lastmile_qr_scan", "android": "https://dc.lft.to/lastmile_qr_scan"}}, {"name": "0e909eed807ee24b3d9fa940768d1696", "lon": -77.02922333333333, "lat": 38.929793333333336, "type": "electric_scooter", "fusion_lon": 0.0, "is_reserved": 0, "bike_id": "0e909eed807ee24b3d9fa940768d1696", "fusion_lat": 0.0, "is_disabled": 0, "rental_uris": {"ios": "https://dc.lft.to/lastmile_qr_scan", "android": "https://dc.lft.to/lastmile_qr_scan"}}, {"name": "040e40c16281c0aa0cb68c0f769795a7", "lon": -76.988767, "lat": 38.89034066666667, "type": "electric_scooter", "fusion_lon": 0.0, "is_reserved": 0, "bike_id": "040e40c16281c0aa0cb68c0f769795a7", "fusion_lat": 0.0, "is_disabled": 0, "rental_uris": {"ios": "https://dc.lft.to/lastmile_qr_scan", "android": "https://dc.lft.to/lastmile_qr_scan"}}, {"name": "b0de814b3ccd0cc61048e0c94affc848", "lon": -77.04863966666667, "lat": 38.9152925, "type": "electric_scooter", "fusion_lon": 0.0, "is_reserved": 0, "bike_id": "b0de814b3ccd0cc61048e0c94affc848", "fusion_lat": 0.0, "is_disabled": 0, "rental_uris": {"ios": "https://dc.lft.to/lastmile_qr_scan", "android": "https://dc.lft.to/lastmile_qr_scan"}},