{"data": {"bikes": [{"rental_uris": {"ios": "https://dc.lft.to/lastmile_qr_scan", "android": "https://dc.lft.to/lastmile_qr_scan"}, "type": "electric_bike", "name": "2556d02d866ce79dc714f88fe497f18d", "is_reserved": 0, "lon": -77.10862666666667, "is_disabled": 0, "fusion_lat": 0.0, "lat": 38.935815, "bike_id": "2556d02d866ce79dc714f88fe497f18d", "fusion_lon": 0.0}, {"rental_uris": {"ios": "https://dc.lft.to/lastmile_qr_scan", "android": "https://dc.lft.to/lastmile_qr_scan"}, "type": "electric_scooter", "name": "c8e9ac9e238b0ab482fa9893e13762dc", "is_reserved": 0, "lon": -76.97612833333334, "is_disabled": 0, "fusion_lat": 0.0, "lat": 38.8729995, "bike_id": "c8e9ac9e238b0ab482fa9893e13762dc", "fusion_lon": 0.0}, {"rental_uris": {"ios": "https://dc.lft.to/lastmile_qr_scan", "android": "https://dc.lft.to/lastmile_qr_scan"}, "type": "electric_bike", "name": "46339f525411809b294070467c0cba3d", "is_reserved": 0, "lon": -76.98290633333333, "is_disabled": 0, "fusion_lat": 0.0, "lat": 38.846794833333334, "bike_id": "46339f525411809b294070467c0cba3d", "fusion_lon": 0.0}, {"rental_uris": {"ios": "https://dc.lft.to/lastmile_qr_scan", "android": "https://dc.lft.to/lastmile_qr_scan"}, "type": "electric_scooter", "name": "c466727ce4629a00a490f40e421c21d0", "is_reserved": 0, "lon": -77.045362, "is_disabled": 0, "fusion_lat": 0.0, "lat": 38.9327445, "bike_id": "c466727ce4629a00a490f40e421c21d0", "fusion_lon": 0.0}, {"rental_uris": {"ios": "https://dc.lft.to/lastmile_qr_scan", "android": "https://dc.lft.to/lastmile_qr_scan"}, "type": "electric_scooter", "name": "36fe9ce08a1103582e32ae241c55bd81", "is_reserved": 0, "lon": -77.0223765, "is_disabled": 0, "fusion_lat": 0.0, "lat": 38.878201833333335, "bike_id": "36fe9ce08a1103582e32ae241c55bd81", "fusion_lon": 0.0}, {"rental_uris": {"ios": "https://dc.lft.to/lastmile_qr_scan", "android": "https://dc.lft.to/lastmile_qr_scan"}, "type": "electric_bike", "name": "5aeac4fb317fe37762b7364579fe62f9", "is_reserved": 0, "lon": -76.97569566666667, "is_disabled": 0, "fusion_lat": 0.0, "lat": 38.89946, "bike_id": "5aeac4fb317fe37762b7364579fe62f9", "fusion_lon": 0.0}, {"rental_uris": {"ios": "https://dc.lft.to/lastmile_qr_scan", "android": "https://dc.lft.to/lastmile_qr_scan"}, "type": "electric_scooter", "name": "a4bdb2efc6e62c10b0f2c0da6b95340d", "is_reserved": 0, "lon": -77.02513066666667, "is_disabled": 0, "fusion_lat": 0.0, "lat": 38.916905166666666, "bike_id": "a4bdb2efc6e62c10b0f2c0da6b95340d", "fusion_lon": 0.0}, {"rental_uris": {"ios": "https://dc.lft.to/lastmile_qr_scan", "android": "https://dc.lft.to/lastmile_qr_scan"}, "type": "electric_bike", "name": "6d98ed5f164c5621f72bc036debc7d2d", "is_reserved": 0, "lon": -77.0203245, "is_disabled": 0, "fusion_lat": 0.0, "lat": 38.96560383333333, "bike_id": "6d98ed5f164c5621f72bc036debc7d2d", "fusion_lon": 0.0}, {"rental_uris": {"ios": "https://dc.lft.to/lastmile_qr_scan", "android": "https://dc.lft.to/lastmile_qr_scan"}, "type": "electric_scooter", "name": "641f8ef6cba925d078afc0b76a5a2aa9", "is_reserved": 0, "lon": -77.025985, "is_disabled": 0, "fusion_lat": 0.0, "lat": 38.904884333333335, "bike_id": "641f8ef6cba925d078afc0b76a5a2aa9", "fusion_lon": 0.0}, {"rental_uris": {"ios": "https://dc.lft.to/lastmile_qr_scan", "android": "https://dc.lft.to/lastmile_qr_scan"}, "type": "electric_scooter", "name": "91ddefbdff034e089acd3dd6fb4e9274", "is_reserved": 0, "lon": -77.048863, "is_disabled": 0, "fusion_lat": 0.0, "lat": 38.9064125, "bike_id": "91ddefbdff034e089acd3dd6fb4e9274", "fusion_lon": 0.0}, {"rental_uris": {"ios": "https://dc.lft.to/lastmile_qr_scan", "android": "https://dc.lft.to/lastmile_qr_scan"}, "type": "electric_scooter", "name": "4eb1dfa207d3451c157f2fdcb2311f53", "is_reserved": 0, "lon": -77.04681183333334, "is_disabled": 0, "fusion_lat": 0.0, "lat": 38.914029, "bike_id": "4eb1dfa207d3451c157f2fdcb2311f53", "fusion_lon": 0.0}, {"rental_uris": {"ios": "https://dc.lft.to/lastmile_qr_scan", "android": "https://dc.lft.to/lastmile_qr_scan"}, "type": "electric_scooter", "name": "164437ff4c634be1d997c07575054656", "is_reserved": 0, "lon": -77.04333416666667, "is_disabled": 0, "fusion_lat": 0.0, "lat": 38.8922175, "bike_id": "164437ff4c634be1d997c07575054656", "fusion_lon": 0.0}, {"rental_uris": {"ios": "https://dc.lft.to/lastmile_qr_scan", "android": "https://dc.lft.to/lastmile_qr_scan"}, "type": "electric_scooter", "name": "e1a63d0d3f774bc78c2187dcdd9defe1", "is_reserved": 0, "lon": -77.02430183333334, "is_disabled": 0, "fusion_lat": 0.0, "lat": 38.923216, "bike_id": "e1a63d0d3f774bc78c2187dcdd9defe1", "fusion_lon": 0.0}, {"rental_uris": {"ios": "https://dc.lft.to/lastmile_qr_scan", "android": "https://dc.lft.to/lastmile_qr_scan"}, "type": "electric_scooter", "name": "77f2c73bbc0c8da52994d212def07a19", "is_reserved": 0, "lon": -76.97978966666666, "is_disabled": 0, "fusion_lat": 0.0, "lat": 38.8973585, "bike_id": "77f2c73bbc0c8da52994d212def07a19", "fusion_lon": 0.0}, {"rental_uris": {"ios": "https://dc.lft.to/lastmile_qr_scan", "android": "https://dc.lft.to/lastmile_qr_scan"}, "type": "electric_scooter", "name": "8dc5bea2e8c3e90174f8aaa0b83a8532", "is_reserved": 0, "lon": -77.03655116666667, "is_disabled": 0, "fusion_lat": 0.0, "lat": 38.913334666666664, "bike_id": "8dc5bea2e8c3e90174f8aaa0b83a8532", "fusion_lon": 0.0}, {"rental_uris": {"ios": "https://dc.lft.to/lastmile_qr_scan", "android": "https://dc.lft.to/lastmile_qr_scan"}, "type": "electric_bike", "name": "730c23a37b9961de5bff2add716744de", "is_reserved": 0, "lon": -76.90739683333334, "is_disabled": 0, "fusion_lat": 0.0, "lat": 38.89619033333334, "bike_id": "730c23a37b9961de5bff2add716744de", "fusion_lon": 0.0}, {"rental_uris": {"ios": "https://dc.lft.to/lastmile_qr_scan", "android": "https://dc.lft.to/lastmile_qr_scan"}, "type": "electric_scooter", "name": "c7e842a2b4ef3e31df70346b71b60551", "is_reserved": 0, "lon": -77.03180783333333, "is_disabled": 0, "fusion_lat": 0.0, "lat": 38.9094815, "bike_id": "c7e842a2b4ef3e31df70346b71b60551", "fusion_lon": 0.0}, {"rental_uris": {"ios": "https://dc.lft.to/lastmile_qr_scan", "android": "https://dc.lft.to/lastmile_qr_scan"}, "type": "electric_scooter", "name": "e94c438f3eb0f3927e6b2bddae0174dc", "is_reserved": 0, "lon": -77.0325035, "is_disabled": 0, "fusion_lat": 0.0, "lat": 38.899488833333336, "bike_id": "e94c438f3eb0f3927e6b2bddae0174dc", "fusion_lon": 0.0}, {"rental_uris": {"ios": "https://dc.lft.to/lastmile_qr_scan", "android": "https://dc.lft.to/lastmile_qr_scan"}, "type": "electric_scooter", "name": "c984912082f9062bcb45c1de2349c28d", "is_reserved": 0, "lon": -77.04567766666666, "is_disabled": 0, "fusion_lat": 0.0, "lat": 38.91406033333333, "bike_id": "c984912082f9062bcb45c1de2349c28d", "fusion_lon": 0.0}, {"rental_uris": {"ios": "https://dc.lft.to/lastmile_qr_scan", "android": "https://dc.lft.to/lastmile_qr_scan"}, "type": "electric_bike", "name": "e3b631a0e7024d9aac699495369d7701", "is_reserved": 0, "lon": -76.99496566666667, "is_disabled": 0, "fusion_lat": 0.0, "lat": 38.86218616666667, "bike_id": "e3b631a0e7024d9aac699495369d7701", "fusion_lon": 0.0}, {"rental_uris": {"ios": "https://dc.lft.to/lastmile_qr_scan", "android": "https://dc.lft.to/lastmile_qr_scan"}, "type": "electric_scooter", "name": "0b0107673313911d922369974095fe9b", "is_reserved": 0, "lon": -77.0269905, "is_disabled": 0, "fusion_lat": 0.0, "lat": 38.935746, "bike_id": "0b0107673313911d922369974095fe9b", "fusion_lon": 0.0}, {"rental_uris": {"ios": "https://dc.lft.to/lastmile_qr_scan", "android": "https://dc.lft.to/lastmile_qr_scan"}, "type": "electric_scooter", "name": "a2cb0c069689b90fe5645bbcd536de1a", "is_reserved": 0, "lon": -77.057909, "is_disabled": 0, "fusion_lat": 0.0, "lat": 38.9347665, "bike_id": "a2cb0c069689b90fe5645bbcd536de1a", "fusion_lon": 0.0}, {"rental_uris": {"ios": "https://dc.lft.to/lastmile_qr_scan", "android": "https://dc.lft.to/lastmile_qr_scan"}, "type": "electric_scooter", "name": "9a2ada5b6d356e770a115a5b7f3fd274", "is_reserved": 0, "lon": -77.016233, "is_disabled": 0, "fusion_lat": 0.0, "lat": 38.906574, "bike_id": "9a2ada5b6d356e770a115a5b7f3fd274", "fusion_lon": 0.0}, {"rental_uris": {"ios": "https://dc.lft.to/lastmile_qr_scan", "android": "https://dc.lft.to/lastmile_qr_scan"}, "type": "electric_scooter", "name": "7dd5faae090b7748f9243a8519af361a", "is_reserved": 0, "lon": -77.018228, "is_disabled": 0, "fusion_lat": 0.0, "lat": 38.92223216666667, "bike_id": "7dd5faae090b7748f9243a8519af361a", "fusion_lon": 0.0}, {"rental_uris": {"ios": "https://dc.lft.to/lastmile_qr_scan", "android": "https://dc.lft.to/lastmile_qr_scan"}, "type": "electric_scooter", "name": "2cfa31bf44050b419ef599b59473d4b7", "is_reserved": 0, "lon": -77.02275, "is_disabled": 0, "fusion_lat": 0.0, "lat": 38.9241905, "bike_id": "2cfa31bf44050b419ef599b59473d4b7", "fusion_lon": 0.0}, {"rental_uris": {"ios": "https://dc.lft.to/lastmile_qr_scan", "android": "https://dc.lft.to/lastmile_qr_scan"}, "type": "electric_scooter", "name": "91a7fdc5822d3148c2ed5c550f6fde53", "is_reserved": 0, "lon": -77.07252066666666, "is_disabled": 0, "fusion_lat": 0.0, "lat": 38.933225, "bike_id": "91a7fdc5822d3148c2ed5c550f6fde53", "fusion_lon": 0.0}, {"rental_uris": {"ios": "https://dc.lft.to/lastmile_qr_scan", "android": "https://dc.lft.to/lastmile_qr_scan"}, "type": "electric_scooter", "name": "f3eb8d92957f21def3140d3eb40a2a6b", "is_reserved": 0, "lon": -77.033888, "is_disabled": 0, "fusion_lat": 0.0, "lat": 38.9026475, "bike_id": "f3eb8d92957f21def3140d3eb40a2a6b", "fusion_lon": 0.0}, {"rental_uris": {"ios": "https://dc.lft.to/lastmile_qr_scan", "android": "https://dc.lft.to/lastmile_qr_scan"}, "type": "electric_scooter", "name": "cd49c02a31e78c818d343305299f2259", "is_reserved": 0, "lon": -77.02220283333334, "is_disabled": 0, "fusion_lat": 0.0, "lat": 38.920895333333334, "bike_id": "cd49c02a31e78c818d343305299f2259", "fusion_lon": 0.0}, {"rental_uris": {"ios": "https://dc.lft.to/lastmile_qr_scan", "android": "https://dc.lft.to/lastmile_qr_scan"}, "type": "electric_scooter", "name": "8d6fda0a60013cfda4d92f9504deab7a", "is_reserved": 0, "lon": -77.02396183333333, "is_disabled": 0, "fusion_lat": 0.0, "lat": 38.919593, "bike_id": "8d6fda0a60013cfda4d92f9504deab7a", "fusion_lon": 0.0}, {"rental_uris": {"ios": "https://dc.lft.to/lastmile_qr_scan", "android": "https://dc.lft.to/lastmile_qr_scan"}, "type": "electric_scooter", "name": "1b35bbebc07da5a8b435c66adecffce5", "is_reserved": 0, "lon": -77.03399966666667, "is_disabled": 0, "fusion_lat": 0.0, "lat": 38.935426666666665, "bike_id": "1b35bbebc07da5a8b435c66adecffce5", "fusion_lon": 0.0}, {"rental_uris": {"ios": "https://dc.lft.to/lastmile_qr_scan", "android": "https://dc.lft.to/lastmile_qr_scan"}, "type": "electric_scooter", "name": "59f5164f8b7f70075fb4c86ff9f81404", "is_reserved": 0, "lon": -76.977973, "is_disabled": 0, "fusion_lat": 0.0, "lat": 38.903153, "bike_id": "59f5164f8b7f70075fb4c86ff9f81404", "fusion_lon": 0.0}, {"rental_uris": {"ios": "https://dc.lft.to/lastmile_qr_scan", "android": "https://dc.lft.to/lastmile_qr_scan"}, "type": "electric_scooter", "name": "1412fde24b6c67a2e940484961828942", "is_reserved": 0, "lon": -76.99010783333334, "is_disabled": 0, "fusion_lat": 0.0, "lat": 38.899991, "bike_id": "1412fde24b6c67a2e940484961828942", "fusion_lon": 0.0}, {"rental_uris": {"ios": "https://dc.lft.to/lastmile_qr_scan", "android": "https://dc.lft.to/lastmile_qr_scan"}, "type": "electric_scooter", "name": "3eaef1bcb4802551b84e454afa4e4d0d", "is_reserved": 0, "lon": -77.03543833333333, "is_disabled": 0, "fusion_lat": 0.0, "lat": 38.9362095, "bike_id": "3eaef1bcb4802551b84e454afa4e4d0d", "fusion_lon": 0.0}, {"rental_uris": {"ios": "https://dc.lft.to/lastmile_qr_scan", "android": "https://dc.lft.to/lastmile_qr_scan"}, "type": "electric_scooter", "name": "718548dc58b1647bb4397b520820357e", "is_reserved": 0, "lon": -77.04505033333334, "is_disabled": 0, "fusion_lat": 0.0, "lat": 38.919333333333334, "bike_id": "718548dc58b1647bb4397b520820357e", "fusion_lon": 0.0}, {"rental_uris": {"ios": "https://dc.lft.to/lastmile_qr_scan", "android": "https://dc.lft.to/lastmile_qr_scan"}, "type": "electric_scooter", "name": "83d867049bbea77421f5e37ae02dd959", "is_reserved": 0, "lon": -77.02304033333333, "is_disabled": 0, "fusion_lat": 0.0, "lat": 38.91398383333333, "bike_id": "83d867049bbea77421f5e37ae02dd959", "fusion_lon": 0.0}, {"rental_uris": {"ios": "https://dc.lft.to/lastmile_qr_scan", "android": "https://dc.lft.to/lastmile_qr_scan"}, "type": "electric_scooter", "name": "7fa806da9370508899d834ca37bb07de", "is_reserved": 0, "lon": -77.02551966666667, "is_disabled": 0, "fusion_lat": 0.0, "lat": 38.930947, "bike_id": "7fa806da9370508899d834ca37bb07de", "fusion_lon": 0.0}, {"rental_uris": {"ios": "https://dc.lft.to/lastmile_qr_scan", "android": "https://dc.lft.to/lastmile_qr_scan"}, "type": "electric_scooter", "name": "3937df9f3f488aa38e97dddc133558c3", "is_reserved": 0, "lon": -77.01430066666667, "is_disabled": 0, "fusion_lat": 0.0, "lat": 38.91463016666667, "bike_id": "3937df9f3f488aa38e97dddc133558c3", "fusion_lon": 0.0}, {"rental_uris": {"ios": "https://dc.lft.to/lastmile_qr_scan", "android": "https://dc.lft.to/lastmile_qr_scan"}, "type": "electric_scooter", "name": "f6389c1284a3d9984f0bb4fcd53ae75d", "is_reserved": 0, "lon": -77.03228133333333, "is_disabled": 0, "fusion_lat": 0.0, "lat": 38.92870283333333, "bike_id": "f6389c1284a3d9984f0bb4fcd53ae75d", "fusion_lon": 0.0}, {"rental_uris": {"ios": "https://dc.lft.to/lastmile_qr_scan", "android": "https://dc.lft.to/lastmile_qr_scan"}, "type": "electric_scooter", "name": "948b92b6a27183993f252a1f96431129", "is_reserved": 0, "lon": -76.99839183333333, "is_disabled": 0, "fusion_lat": 0.0, "lat": 38.891873833333335, "bike_id": "948b92b6a27183993f252a1f96431129", "fusion_lon": 0.0}, {"rental_uris": {"ios": "https://dc.lft.to/lastmile_qr_scan", "android": "https://dc.lft.to/lastmile_qr_scan"}, "type": "electric_scooter", "name": "4466e811249e00981387adfe064e716a", "is_reserved": 0, "lon": -77.03500716666667, "is_disabled": 0, "fusion_lat": 0.0, "lat": 38.93457083333333, "bike_id": "4466e811249e00981387adfe064e716a", "fusion_lon": 0.0}, {"rental_uris": {"ios": "https://dc.lft.to/lastmile_qr_scan", "android": "https://dc.lft.to/lastmile_qr_scan"}, "type": "electric_scooter", "name": "800a7c6c69d2476f758be14a1bf7041b", "is_reserved": 0, "lon": -77.03958933333334, "is_disabled": 0, "fusion_lat": 0.0, "lat": 38.8924075, "bike_id": "800a7c6c69d2476f758be14a1bf7041b", "fusion_lon": 0.0}, {"rental_uris": {"ios": "https://dc.lft.to/lastmile_qr_scan", "android": "https://dc.lft.to/lastmile_qr_scan"}, "type": "electric_scooter", "name": "61f84be5d38a50afc2928c3d651f088b", "is_reserved": 0, "lon": -77.039935, "is_disabled": 0, "fusion_lat": 0.0, "lat": 38.90299666666667, "bike_id": "61f84be5d38a50afc2928c3d651f088b", "fusion_lon": 0.0}, {"rental_uris": {"ios": "https://dc.lft.to/lastmile_qr_scan", "android": "https://dc.lft.to/lastmile_qr_scan"}, "type": "electric_scooter", "name": "3275d8a4d2a0884cf7d0f452231f5704", "is_reserved": 0, "lon": -76.99229333333334, "is_disabled": 0, "fusion_lat": 0.0, "lat": 38.887481666666666, "bike_id": "3275d8a4d2a0884cf7d0f452231f5704", "fusion_lon": 0.0}, {"rental_uris": {"ios": "https://dc.lft.to/lastmile_qr_scan", "android": "https://dc.lft.to/lastmile_qr_scan"}, "type": "electric_scooter", "name": "ff44ff585d206ec7045e31931f98c10f", "is_reserved": 0, "lon": -77.02197816666667, "is_disabled": 0, "fusion_lat": 0.0, "lat": 38.9101165, "bike_id": "ff44ff585d206ec7045e31931f98c10f", "fusion_lon": 0.0}, {"rental_uris": {"ios": "https://dc.lft.to/lastmile_qr_scan", "android": "https://dc.lft.to/lastmile_qr_scan"}, "type": "electric_scooter", "name": "1b0577a4ae06ec865dc7a90877fbe6ad", "is_reserved": 0, "lon": -77.03359316666666, "is_disabled": 0, "fusion_lat": 0.0, "lat": 38.92888683333334, "bike_id": "1b0577a4ae06ec865dc7a90877fbe6ad", "fusion_lon": 0.0}, {"rental_uris": {"ios": "https://dc.lft.to/lastmile_qr_scan", "android": "https://dc.lft.to/lastmile_qr_scan"}, "type": "electric_scooter", "name": "57d78500ef869c4ea09ed198cf484372", "is_reserved": 0, "lon": -77.0132905, "is_disabled": 0, "fusion_lat": 0.0, "lat": 38.91252333333333, "bike_id": "57d78500ef869c4ea09ed198cf484372", "fusion_lon": 0.0}, {"rental_uris": {"ios": "https://dc.lft.to/lastmile_qr_scan", "android": "https://dc.lft.to/lastmile_qr_scan"}, "type": "electric_scooter", "name": "f21d52f213704af0ce051de9fb72724c", "is_reserved": 0, "lon": -77.031751, "is_disabled": 0, "fusion_lat": 0.0, "lat": 38.8873485, "bike_id": "f21d52f213704af0ce051de9fb72724c", "fusion_lon": 0.0}, {"rental_uris": {"ios": "https://dc.lft.to/lastmile_qr_scan", "android": "https://dc.lft.to/lastmile_qr_scan"}, "type": "electric_scooter", "name": "2bbe6837b153995f8cd68453b58d52c6", "is_reserved": 0, "lon": -77.02472933333334, "is_disabled": 0, "fusion_lat": 0.0, "lat": 38.93952733333333, "bike_id": "2bbe6837b153995f8cd68453b58d52c6", "fusion_lon": 0.0}, {"rental_uris": {"ios": "https://dc.lft.to/lastmile_qr_scan", "android": "https://dc.lft.to/lastmile_qr_scan"}, "type": "electric_scooter", "name": "52d25abab9c8b11da2c277902d08bc09", "is_reserved": 0, "lon": -77.00771233333333, "is_disabled": 0, "fusion_lat": 0.0, "lat": 38.90739766666667, "bike_id": "52d25abab9c8b11da2c277902d08bc09", "fusion_lon": 0.0}, {"rental_uris": {"ios": "https://dc.lft.to/lastmile_qr_scan", "android": "https://dc.lft.to/lastmile_qr_scan"}, "type": "electric_scooter", "name": "d4b998297305fd052be9dfe3f9c776cd", "is_reserved": 0, "lon": -76.97958033333333, "is_disabled": 0, "fusion_lat": 0.0, "lat": 38.8961465, "bike_id": "d4b998297305fd052be9dfe3f9c776cd", "fusion_lon": 0.0}, {"rental_uris": {"ios": "https://dc.lft.to/lastmile_qr_scan", "android": "https://dc.lft.to/lastmile_qr_scan"}, "type": "electric_scooter", "name": "1bf168f4fa8d273a41afa1d25aae0baa", "is_reserved": 0, "lon": -77.05617, "is_disabled": 0, "fusion_lat": 0.0, "lat": 38.90691833333333, "bike_id": "1bf168f4fa8d273a41afa1d25aae0baa", "fusion_lon": 0.0}, {"rental_uris": {"ios": "https://dc.lft.to/lastmile_qr_scan", "android": "https://dc.lft.to/lastmile_qr_scan"}, "type": "electric_bike", "name": "27931ef8d526256a5082ae50da821271", "is_reserved": 0, "lon": -76.9073605, "is_disabled": 0, "fusion_lat": 0.0, "lat": 38.89617716666667, "bike_id": "27931ef8d526256a5082ae50da821271", "fusion_lon": 0.0}, {"rental_uris": {"ios": "https://dc.lft.to/lastmile_qr_scan", "android": "https://dc.lft.to/lastmile_qr_scan"}, "type": "electric_scooter", "name": "57eb410a24e35fb1b9f2de3efd0bc72c", "is_reserved": 0, "lon": -77.0269055, "is_disabled": 0, "fusion_lat": 0.0, "lat": 38.949808166666664, "bike_id": "57eb410a24e35fb1b9f2de3efd0bc72c", "fusion_lon": 0.0}, {"rental_uris": {"ios": "https://dc.lft.to/lastmile_qr_scan", "android": "https://dc.lft.to/lastmile_qr_scan"}, "type": "electric_scooter", "name": "ed9e616b2d18888c72c31ec77f301228", "is_reserved": 0, "lon": -77.013051, "is_disabled": 0, "fusion_lat": 0.0, "lat": 38.901852166666664, "bike_id": "ed9e616b2d18888c72c31ec77f301228", "fusion_lon": 0.0}, {"rental_uris": {"ios": "https://dc.lft.to/lastmile_qr_scan", "android": "https://dc.lft.to/lastmile_qr_scan"}, "type": "electric_scooter", "name": "5f94acf7661483c45c94c976281f5c0f", "is_reserved": 0, "lon": -77.01798033333333, "is_disabled": 0, "fusion_lat": 0.0, "lat": 38.91986166666667, "bike_id": "5f94acf7661483c45c94c976281f5c0f", "fusion_lon": 0.0}, {"rental_uris": {"ios": "https://dc.lft.to/lastmile_qr_scan", "android": "https://dc.lft.to/lastmile_qr_scan"}, "type": "electric_bike", "name": "025bbd296e7725aa28fc62d122e04e50", "is_reserved": 0, "lon": -76.98686833333333, "is_disabled": 0, "fusion_lat": 0.0, "lat": 38.9447335, "bike_id": "025bbd296e7725aa28fc62d122e04e50", "fusion_lon": 0.0}, {"rental_uris": {"ios": "https://dc.lft.to/lastmile_qr_scan", "android": "https://dc.lft.to/lastmile_qr_scan"}, "type": "electric_scooter", "name": "b9c0e8bc768039909150e2ed2ae6a6a7", "is_reserved": 0, "lon": -77.03790233333334, "is_disabled": 0, "fusion_lat": 0.0, "lat": 38.915396, "bike_id": "b9c0e8bc768039909150e2ed2ae6a6a7", "fusion_lon": 0.0}, {"rental_uris": {"ios": "https://dc.lft.to/lastmile_qr_scan", "android": "https://dc.lft.to/lastmile_qr_scan"}, "type": "electric_scooter", "name": "ca4ddaacb2bef259dccacb858a6b57eb", "is_reserved": 0, "lon": -77.03216383333333, "is_disabled": 0, "fusion_lat": 0.0, "lat": 38.89625083333333, "bike_id": "ca4ddaacb2bef259dccacb858a6b57eb", "fusion_lon": 0.0}, {"rental_uris": {"ios": "https://dc.lft.to/lastmile_qr_scan", "android": "https://dc.lft.to/lastmile_qr_scan"}, "type": "electric_scooter", "name": "2f5501897b07c6217e88c65826c45e15", "is_reserved": 0, "lon": -77.01586133333333, "is_disabled": 0, "fusion_lat": 0.0, "lat": 38.87654783333333, "bike_id": "2f5501897b07c6217e88c65826c45e15", "fusion_lon": 0.0}, {"rental_uris": {"ios": "https://dc.lft.to/lastmile_qr_scan", "android": "https://dc.lft.to/lastmile_qr_scan"}, "type": "electric_scooter", "name": "74292992ccc6813e08dee6a5aab04f6e", "is_reserved": 0, "lon": -77.051424, "is_disabled": 0, "fusion_lat": 0.0, "lat": 38.904369, "bike_id": "74292992ccc6813e08dee6a5aab04f6e", "fusion_lon": 0.0}, {"rental_uris": {"ios": "https://dc.lft.to/lastmile_qr_scan", "android": "https://dc.lft.to/lastmile_qr_scan"}, "type": "electric_scooter", "name": "65e1fa2eb68d1ed7015e2e852348a686", "is_reserved": 0, "lon": -77.0366825, "is_disabled": 0, "fusion_lat": 0.0, "lat": 38.921432, "bike_id": "65e1fa2eb68d1ed7015e2e852348a686", "fusion_lon": 0.0}, {"rental_uris": {"ios": "https://dc.lft.to/lastmile_qr_scan", "android": "https://dc.lft.to/lastmile_qr_scan"}, "type": "electric_scooter", "name": "0cfc21a509b11452bf75960fc9530955", "is_reserved": 0, "lon": -77.03339483333333, "is_disabled": 0, "fusion_lat": 0.0, "lat": 38.9286205, "bike_id": "0cfc21a509b11452bf75960fc9530955", "fusion_lon": 0.0}, {"rental_uris": {"ios": "https://dc.lft.to/lastmile_qr_scan", "android": "https://dc.lft.to/lastmile_qr_scan"}, "type": "electric_scooter", "name": "8926d3a153e7bde74f511e57f5ac78e0", "is_reserved": 0, "lon": -76.9994345, "is_disabled": 0, "fusion_lat": 0.0, "lat": 38.90058033333333, "bike_id": "8926d3a153e7bde74f511e57f5ac78e0", "fusion_lon": 0.0}, {"rental_uris": {"ios": "https://dc.lft.to/lastmile_qr_scan", "android": "https://dc.lft.to/lastmile_qr_scan"}, "type": "electric_scooter", "name": "0acf1a9f1728bd7cca59def86e1bb776", "is_reserved": 0, "lon": -77.01316733333333, "is_disabled": 0, "fusion_lat": 0.0, "lat": 38.92031983333333, "bike_id": "0acf1a9f1728bd7cca59def86e1bb776", "fusion_lon": 0.0}, {"rental_uris": {"ios": "https://dc.lft.to/lastmile_qr_scan", "android": "https://dc.lft.to/lastmile_qr_scan"}, "type": "electric_scooter", "name": "2da7966abd5ff92ff39ad1b82bf9c465", "is_reserved": 0, "lon": -77.05004316666667, "is_disabled": 0, "fusion_lat": 0.0, "lat": 38.892315833333335, "bike_id": "2da7966abd5ff92ff39ad1b82bf9c465", "fusion_lon": 0.0}, {"rental_uris": {"ios": "https://dc.lft.to/lastmile_qr_scan", "android": "https://dc.lft.to/lastmile_qr_scan"}, "type": "electric_bike", "name": "8885a9e9dd8facf490bd94e7d19ad6b9", "is_reserved": 0, "lon": -76.94153916666667, "is_disabled": 0, "fusion_lat": 0.0, "lat": 38.890215, "bike_id": "8885a9e9dd8facf490bd94e7d19ad6b9", "fusion_lon": 0.0}, {"rental_uris": {"ios": "https://dc.lft.to/lastmile_qr_scan", "android": "https://dc.lft.to/lastmile_qr_scan"}, "type": "electric_scooter", "name": "3a09388abca75fba0c3c837c5ce2662e", "is_reserved": 0, "lon": -77.0333745, "is_disabled": 0, "fusion_lat": 0.0, "lat": 38.925506166666665, "bike_id": "3a09388abca75fba0c3c837c5ce2662e", "fusion_lon": 0.0}, {"rental_uris": {"ios": "https://dc.lft.to/lastmile_qr_scan", "android": "https://dc.lft.to/lastmile_qr_scan"}, "type": "electric_scooter", "name": "9e943bdeb92aa61c8d92ce5120f819cd", "is_reserved": 0, "lon": -76.99045533333333, "is_disabled": 0, "fusion_lat": 0.0, "lat": 38.8637765, "bike_id": "9e943bdeb92aa61c8d92ce5120f819cd", "fusion_lon": 0.0}, {"rental_uris": {"ios": "https://dc.lft.to/lastmile_qr_scan", "android": "https://dc.lft.to/lastmile_qr_scan"}, "type": "electric_scooter", "name": "0f38b368b41e44ecad7138e99713e84d", "is_reserved": 0, "lon": -77.0701035, "is_disabled": 0, "fusion_lat": 0.0, "lat": 38.893292, "bike_id": "0f38b368b41e44ecad7138e99713e84d", "fusion_lon": 0.0}, {"rental_uris": {"ios": "https://dc.lft.to/lastmile_qr_scan", "android": "https://dc.lft.to/lastmile_qr_scan"}, "type": "electric_bike", "name": "c904c076f7c0d53be5001b05c224deeb", "is_reserved": 0, "lon": -76.94534116666667, "is_disabled": 0, "fusion_lat": 0.0, "lat": 38.867568, "bike_id": "c904c076f7c0d53be5001b05c224deeb", "fusion_lon": 0.0}, {"rental_uris": {"ios": "https://dc.lft.to/lastmile_qr_scan", "android": "https://dc.lft.to/lastmile_qr_scan"}, "type": "electric_scooter", "name": "9134ca33630f6abd782a911fff29e282", "is_reserved": 0, "lon": -77.02669933333334, "is_disabled": 0, "fusion_lat": 0.0, "lat": 38.902585333333334, "bike_id": "9134ca33630f6abd782a911fff29e282", "fusion_lon": 0.0}, {"rental_uris": {"ios": "https://dc.lft.to/lastmile_qr_scan", "android": "https://dc.lft.to/lastmile_qr_scan"}, "type": "electric_scooter", "name": "d87fa8f51f8cec331b740dc7a07422de", "is_reserved": 0, "lon": -77.0752065, "is_disabled": 0, "fusion_lat": 0.0, "lat": 38.939491833333335, "bike_id": "d87fa8f51f8cec331b740dc7a07422de", "fusion_lon": 0.0}, {"rental_uris": {"ios": "https://dc.lft.to/lastmile_qr_scan", "android": "https://dc.lft.to/lastmile_qr_scan"}, "type": "electric_scooter", "name": "ab855ca3009caf572122d2cce8efbcf7", "is_reserved": 0, "lon": -77.04527866666666, "is_disabled": 0, "fusion_lat": 0.0, "lat": 38.8994945, "bike_id": "ab855ca3009caf572122d2cce8efbcf7", "fusion_lon": 0.0}, {"rental_uris": {"ios": "https://dc.lft.to/lastmile_qr_scan", "android": "https://dc.lft.to/lastmile_qr_scan"}, "type": "electric_scooter", "name": "a5825ea5bda9fbb7f89c0f49a9f12ae6", "is_reserved": 0, "lon": -77.00595383333334, "is_disabled": 0, "fusion_lat": 0.0, "lat": 38.87544333333334, "bike_id": "a5825ea5bda9fbb7f89c0f49a9f12ae6", "fusion_lon": 0.0}, {"rental_uris": {"ios": "https://dc.lft.to/lastmile_qr_scan", "android": "https://dc.lft.to/lastmile_qr_scan"}, "type": "electric_scooter", "name": "131f6ede4d712cc3320230420bb41359", "is_reserved": 0, "lon": -77.036116, "is_disabled": 0, "fusion_lat": 0.0, "lat": 38.928458166666665, "bike_id": "131f6ede4d712cc3320230420bb41359", "fusion_lon": 0.0}, {"rental_uris": {"ios": "https://dc.lft.to/lastmile_qr_scan", "android": "https://dc.lft.to/lastmile_qr_scan"}, "type": "electric_scooter", "name": "a33d9bcbe03d050db6f7cb4969d5ccc6", "is_reserved": 0, "lon": -76.99530933333334, "is_disabled": 0, "fusion_lat": 0.0, "lat": 38.862682, "bike_id": "a33d9bcbe03d050db6f7cb4969d5ccc6", "fusion_lon": 0.0}, {"rental_uris": {"ios": "https://dc.lft.to/lastmile_qr_scan", "android": "https://dc.lft.to/lastmile_qr_scan"}, "type": "electric_scooter", "name": "f4afcffab8bb5d9b4d5fef45dca3211e", "is_reserved": 0, "lon": -77.03478716666666, "is_disabled": 0, "fusion_lat": 0.0, "lat": 38.907300666666664, "bike_id": "f4afcffab8bb5d9b4d5fef45dca3211e", "fusion_lon": 0.0}, {"rental_uris": {"ios": "https://dc.lft.to/lastmile_qr_scan", "android": "https://dc.lft.to/lastmile_qr_scan"}, "type": "electric_scooter", "name": "b8f25fdcdec9973b4091aefa739b51ed", "is_reserved": 0, "lon": -76.985214, "is_disabled": 0, "fusion_lat": 0.0, "lat": 38.860035833333335, "bike_id": "b8f25fdcdec9973b4091aefa739b51ed", "fusion_lon": 0.0}, {"rental_uris": {"ios": "https://dc.lft.to/lastmile_qr_scan", "android": "https://dc.lft.to/lastmile_qr_scan"}, "type": "electric_scooter", "name": "59c730abf0adbef5f25d9eb1b93aef35", "is_reserved": 0, "lon": -77.02746116666667, "is_disabled": 0, "fusion_lat": 0.0, "lat": 38.9660875, "bike_id": "59c730abf0adbef5f25d9eb1b93aef35", "fusion_lon": 0.0}, {"rental_uris": {"ios": "https://dc.lft.to/lastmile_qr_scan", "android": "https://dc.lft.to/lastmile_qr_scan"}, "type": "electric_scooter", "name": "d87da4512e51c3a5cfc7b6ae348f216b", "is_reserved": 0, "lon": -77.03476333333333, "is_disabled": 0, "fusion_lat": 0.0, "lat": 38.907248, "bike_id": "d87da4512e51c3a5cfc7b6ae348f216b", "fusion_lon": 0.0}, {"rental_uris": {"ios": "https://dc.lft.to/lastmile_qr_scan", "android": "https://dc.lft.to/lastmile_qr_scan"}, "type": "electric_bike", "name": "863e00f597795d5f970b18aab91d6796", "is_reserved": 0, "lon": -77.0663355, "is_disabled": 0, "fusion_lat": 0.0, "lat": 38.949602166666665, "bike_id": "863e00f597795d5f970b18aab91d6796", "fusion_lon": 0.0}, {"rental_uris": {"ios": "https://dc.lft.to/lastmile_qr_scan", "android": "https://dc.lft.to/lastmile_qr_scan"}, "type": "electric_scooter", "name": "342dea6e2305e29c61d7c089a56ba2ef", "is_reserved": 0, "lon": -76.96507, "is_disabled": 0, "fusion_lat": 0.0, "lat": 38.8764885, "bike_id": "342dea6e2305e29c61d7c089a56ba2ef", "fusion_lon": 0.0}, {"rental_uris": {"ios": "https://dc.lft.to/lastmile_qr_scan", "android": "https://dc.lft.to/lastmile_qr_scan"}, "type": "electric_scooter", "name": "720ed5e92b6a7d80df712cd593580210", "is_reserved": 0, "lon": -77.02199833333333, "is_disabled": 0, "fusion_lat": 0.0, "lat": 38.9136945, "bike_id": "720ed5e92b6a7d80df712cd593580210", "fusion_lon": 0.0}, {"rental_uris": {"ios": "https://dc.lft.to/lastmile_qr_scan", "android": "https://dc.lft.to/lastmile_qr_scan"}, "type": "electric_scooter", "name": "8af46ef733d15829af69cf2892ec470f", "is_reserved": 0, "lon": -76.9543545, "is_disabled": 0, "fusion_lat": 0.0, "lat": 38.8907885, "bike_id": "8af46ef733d15829af69cf2892ec470f", "fusion_lon": 0.0}, {"rental_uris": {"ios": "https://dc.lft.to/lastmile_qr_scan", "android": "https://dc.lft.to/lastmile_qr_scan"}, "type": "electric_scooter", "name": "fc110f094ae4f466fee4af707b1f8235", "is_reserved": 0, "lon": -77.04341233333334, "is_disabled": 0, "fusion_lat": 0.0, "lat": 38.90719383333333, "bike_id": "fc110f094ae4f466fee4af707b1f8235", "fusion_lon": 0.0}, {"rental_uris": {"ios": "https://dc.lft.to/lastmile_qr_scan", "android": "https://dc.lft.to/lastmile_qr_scan"}, "type": "electric_scooter", "name": "669b1d59f87076309541b4038d575de0", "is_reserved": 0, "lon": -77.04593933333334, "is_disabled": 0, "fusion_lat": 0.0, "lat": 38.9142265, "bike_id": "669b1d59f87076309541b4038d575de0", "fusion_lon": 0.0}, {"rental_uris": {"ios": "https://dc.lft.to/lastmile_qr_scan", "android": "https://dc.lft.to/lastmile_qr_scan"}, "type": "electric_scooter", "name": "c0bdda3d69a6b5da462be9d74939a380", "is_reserved": 0, "lon": -77.02758816666666, "is_disabled": 0, "fusion_lat": 0.0, "lat": 38.91211633333333, "bike_id": "c0bdda3d69a6b5da462be9d74939a380", "fusion_lon": 0.0}, {"rental_uris": {"ios": "https://dc.lft.to/lastmile_qr_scan", "android": "https://dc.lft.to/lastmile_qr_scan"}, "type": "electric_scooter", "name": "19a57e5e49c956fd75ecfa304a3ec1f2", "is_reserved": 0, "lon": -77.02816816666666, "is_disabled": 0, "fusion_lat": 0.0, "lat": 38.90616833333333, "bike_id": "19a57e5e49c956fd75ecfa304a3ec1f2", "fusion_lon": 0.0}, {"rental_uris": {"ios": "https://dc.lft.to/lastmile_qr_scan", "android": "https://dc.lft.to/lastmile_qr_scan"}, "type": "electric_scooter", "name": "ce8ea3d71673b60e91a005ad093d8233", "is_reserved": 0, "lon": -77.0456665, "is_disabled": 0, "fusion_lat": 0.0, "lat": 38.91776466666666, "bike_id": "ce8ea3d71673b60e91a005ad093d8233", "fusion_lon": 0.0}, {"rental_uris": {"ios": "https://dc.lft.to/lastmile_qr_scan", "android": "https://dc.lft.to/lastmile_qr_scan"}, "type": "electric_scooter", "name": "1471e7b1936d344e31f1b4f79c362992", "is_reserved": 0, "lon": -77.020241, "is_disabled": 0, "fusion_lat": 0.0, "lat": 38.936416666666666, "bike_id": "1471e7b1936d344e31f1b4f79c362992", "fusion_lon": 0.0}, {"rental_uris": {"ios": "https://dc.lft.to/lastmile_qr_scan", "android": "https://dc.lft.to/lastmile_qr_scan"}, "type": "electric_scooter", "name": "e087d915fc3394b22e38ed9c566859bb", "is_reserved": 0, "lon": -77.04508066666666, "is_disabled": 0, "fusion_lat": 0.0, "lat": 38.903759, "bike_id": "e087d915fc3394b22e38ed9c566859bb", "fusion_lon": 0.0}, {"rental_uris": {"ios": "https://dc.lft.to/lastmile_qr_scan", "android": "https://dc.lft.to/lastmile_qr_scan"}, "type": "electric_bike", "name": "3e381fa8817bf70781d8f53d1eaa78a4", "is_reserved": 0, "lon": -76.98684266666666, "is_disabled": 0, "fusion_lat": 0.0, "lat": 38.94471083333333, "bike_id": "3e381fa8817bf70781d8f53d1eaa78a4", "fusion_lon": 0.0}, {"rental_uris": {"ios": "https://dc.lft.to/lastmile_qr_scan", "android": "https://dc.lft.to/lastmile_qr_scan"}, "type": "electric_scooter", "name": "4b56fe823d89fc8ffd2d55b5284bd36d", "is_reserved": 0, "lon": -77.04615433333333, "is_disabled": 0, "fusion_lat": 0.0, "lat": 38.90241616666667, "bike_id": "4b56fe823d89fc8ffd2d55b5284bd36d", "fusion_lon": 0.0}, {"rental_uris": {"ios": "https://dc.lft.to/lastmile_qr_scan", "android": "https://dc.lft.to/lastmile_qr_scan"}, "type": "electric_bike", "name": "fbcb8bbfc8338a47db957e3231cc2393", "is_reserved": 0, "lon": -76.936676, "is_disabled": 0, "fusion_lat": 0.0, "lat": 38.894549833333336, "bike_id": "fbcb8bbfc8338a47db957e3231cc2393", "fusion_lon": 0.0}, {"rental_uris": {"ios": "https://dc.lft.to/lastmile_qr_scan", "android": "https://dc.lft.to/lastmile_qr_scan"}, "type": "electric_scooter", "name": "4dbaa751851b7ced756e2b95280dbc6d", "is_reserved": 0, "lon": -77.02781333333333, "is_disabled": 0, "fusion_lat": 0.0, "lat": 38.962455166666665, "bike_id": "4dbaa751851b7ced756e2b95280dbc6d", "fusion_lon": 0.0}, {"rental_uris": {"ios": "https://dc.lft.to/lastmile_qr_scan", "android": "https://dc.lft.to/lastmile_qr_scan"}, "type": "electric_scooter", "name": "e1e9edd8483a13efda09436dfb60512a", "is_reserved": 0, "lon": -77.01204333333334, "is_disabled": 0, "fusion_lat": 0.0, "lat": 38.911940666666666, "bike_id": "e1e9edd8483a13efda09436dfb60512a", "fusion_lon": 0.0}, {"rental_uris": {"ios": "https://dc.lft.to/lastmile_qr_scan", "android": "https://dc.lft.to/lastmile_qr_scan"}, "type": "electric_scooter", "name": "b6533854f924d812dfd78e987a4b3a1c", "is_reserved": 0, "lon": -77.015838, "is_disabled": 0, "fusion_lat": 0.0, "lat": 38.916784, "bike_id": "b6533854f924d812dfd78e987a4b3a1c", "fusion_lon": 0.0}, {"rental_uris": {"ios": "https://dc.lft.to/lastmile_qr_scan", "android": "https://dc.lft.to/lastmile_qr_scan"}, "type": "electric_scooter", "name": "ea8b453a291ef461e91f9f41a979593c", "is_reserved": 0, "lon": -76.985145, "is_disabled": 0, "fusion_lat": 0.0, "lat": 38.879884833333335, "bike_id": "ea8b453a291ef461e91f9f41a979593c", "fusion_lon": 0.0}, {"rental_uris": {"ios": "https://dc.lft.to/lastmile_qr_scan", "android": "https://dc.lft.to/lastmile_qr_scan"}, "type": "electric_bike", "name": "53c68fbc79d2055104c11783ab0f455d", "is_reserved": 0, "lon": -76.96265083333333, "is_disabled": 0, "fusion_lat": 0.0, "lat": 38.967889666666665, "bike_id": "53c68fbc79d2055104c11783ab0f455d", "fusion_lon": 0.0}, {"rental_uris": {"ios": "https://dc.lft.to/lastmile_qr_scan", "android": "https://dc.lft.to/lastmile_qr_scan"}, "type": "electric_scooter", "name": "5ec2f99923a26d54deeb6f08eacb1409", "is_reserved": 0, "lon": -77.01210666666667, "is_disabled": 0, "fusion_lat": 0.0, "lat": 38.921152666666664, "bike_id": "5ec2f99923a26d54deeb6f08eacb1409", "fusion_lon": 0.0}, {"rental_uris": {"ios": "https://dc.lft.to/lastmile_qr_scan", "android": "https://dc.lft.to/lastmile_qr_scan"}, "type": "electric_scooter", "name": "fad714393be979b221cdf141498e5630", "is_reserved": 0, "lon": -77.00262766666667, "is_disabled": 0, "fusion_lat": 0.0, "lat": 38.90869883333333, "bike_id": "fad714393be979b221cdf141498e5630", "fusion_lon": 0.0}, {"rental_uris": {"ios": "https://dc.lft.to/lastmile_qr_scan", "android": "https://dc.lft.to/lastmile_qr_scan"}, "type": "electric_scooter", "name": "f42a0270d25f987885e804cea72c1168", "is_reserved": 0, "lon": -77.03603166666667, "is_disabled": 0, "fusion_lat": 0.0, "lat": 38.9075475, "bike_id": "f42a0270d25f987885e804cea72c1168", "fusion_lon": 0.0}, {"rental_uris": {"ios": "https://dc.lft.to/lastmile_qr_scan", "android": "https://dc.lft.to/lastmile_qr_scan"}, "type": "electric_scooter", "name": "be0e91171e1f4badbdeef204a9f74f29", "is_reserved": 0, "lon": -77.03147683333333, "is_disabled": 0, "fusion_lat": 0.0, "lat": 38.88743616666667, "bike_id": "be0e91171e1f4badbdeef204a9f74f29", "fusion_lon": 0.0}, {"rental_uris": {"ios": "https://dc.lft.to/lastmile_qr_scan", "android": "https://dc.lft.to/lastmile_qr_scan"}, "type": "electric_scooter", "name": "05f1712d2c8d8cca72293f83099c098a", "is_reserved": 0, "lon": -77.02530033333333, "is_disabled": 0, "fusion_lat": 0.0, "lat": 38.945303333333335, "bike_id": "05f1712d2c8d8cca72293f83099c098a", "fusion_lon": 0.0}, {"rental_uris": {"ios": "https://dc.lft.to/lastmile_qr_scan", "android": "https://dc.lft.to/lastmile_qr_scan"}, "type": "electric_scooter", "name": "945be25f1e4771c59c2b7c0d852ca2c7", "is_reserved": 0, "lon": -77.0178025, "is_disabled": 0, "fusion_lat": 0.0, "lat": 38.874693, "bike_id": "945be25f1e4771c59c2b7c0d852ca2c7", "fusion_lon": 0.0}, {"rental_uris": {"ios": "https://dc.lft.to/lastmile_qr_scan", "android": "https://dc.lft.to/lastmile_qr_scan"}, "type": "electric_bike", "name": "805129cab96602d900f0b959a63be158", "is_reserved": 0, "lon": -76.9957195, "is_disabled": 0, "fusion_lat": 0.0, "lat": 38.831554, "bike_id": "805129cab96602d900f0b959a63be158", "fusion_lon": 0.0}, {"rental_uris": {"ios": "https://dc.lft.to/lastmile_qr_scan", "android": "https://dc.lft.to/lastmile_qr_scan"}, "type": "electric_scooter", "name": "dab70e28bc347ea3707bc8bcc2593225", "is_reserved": 0, "lon": -76.99717716666666, "is_disabled": 0, "fusion_lat": 0.0, "lat": 38.8974115, "bike_id": "dab70e28bc347ea3707bc8bcc2593225", "fusion_lon": 0.0}, {"rental_uris": {"ios": "https://dc.lft.to/lastmile_qr_scan", "android": "https://dc.lft.to/lastmile_qr_scan"}, "type": "electric_scooter", "name": "c5e54f023a327a61e4dfb53297dbe48b", "is_reserved": 0, "lon": -76.99662, "is_disabled": 0, "fusion_lat": 0.0, "lat": 38.892336666666665, "bike_id": "c5e54f023a327a61e4dfb53297dbe48b", "fusion_lon": 0.0}, {"rental_uris": {"ios": "https://dc.lft.to/lastmile_qr_scan", "android": "https://dc.lft.to/lastmile_qr_scan"}, "type": "electric_bike", "name": "dc44af8bf0d1c51fd8d514a0c7ebd421", "is_reserved": 0, "lon": -77.23411866666666, "is_disabled": 0, "fusion_lat": 0.0, "lat": 38.875764333333336, "bike_id": "dc44af8bf0d1c51fd8d514a0c7ebd421", "fusion_lon": 0.0}, {"rental_uris": {"ios": "https://dc.lft.to/lastmile_qr_scan", "android": "https://dc.lft.to/lastmile_qr_scan"}, "type": "electric_scooter", "name": "8b9aa48c9c8d7faf5b2a4933f7b7c255", "is_reserved": 0, "lon": -77.0464905, "is_disabled": 0, "fusion_lat": 0.0, "lat": 38.89735866666667, "bike_id": "8b9aa48c9c8d7faf5b2a4933f7b7c255", "fusion_lon": 0.0}, {"rental_uris": {"ios": "https://dc.lft.to/lastmile_qr_scan", "android": "https://dc.lft.to/lastmile_qr_scan"}, "type": "electric_scooter", "name": "badbe77b8edfd933bca62527dfc9acb9", "is_reserved": 0, "lon": -77.000628, "is_disabled": 0, "fusion_lat": 0.0, "lat": 38.96134333333333, "bike_id": "badbe77b8edfd933bca62527dfc9acb9", "fusion_lon": 0.0}, {"rental_uris": {"ios": "https://dc.lft.to/lastmile_qr_scan", "android": "https://dc.lft.to/lastmile_qr_scan"}, "type": "electric_scooter", "name": "449c175a2677c85e36627df4c0e8210d", "is_reserved": 0, "lon": -76.97626816666667, "is_disabled": 0, "fusion_lat": 0.0, "lat": 38.9057045, "bike_id": "449c175a2677c85e36627df4c0e8210d", "fusion_lon": 0.0}, {"rental_uris": {"ios": "https://dc.lft.to/lastmile_qr_scan", "android": "https://dc.lft.to/lastmile_qr_scan"}, "type": "electric_scooter", "name": "2a788a3f6a75fae7da13d9516f11f409", "is_reserved": 0, "lon": -77.034906, "is_disabled": 0, "fusion_lat": 0.0, "lat": 38.93274566666667, "bike_id": "2a788a3f6a75fae7da13d9516f11f409", "fusion_lon": 0.0}, {"rental_uris": {"ios": "https://dc.lft.to/lastmile_qr_scan", "android": "https://dc.lft.to/lastmile_qr_scan"}, "type": "electric_scooter", "name": "aae72a1b20a388235b5baa962af633e2", "is_reserved": 0, "lon": -77.05520516666667, "is_disabled": 0, "fusion_lat": 0.0, "lat": 38.897239666666664, "bike_id": "aae72a1b20a388235b5baa962af633e2", "fusion_lon": 0.0}, {"rental_uris": {"ios": "https://dc.lft.to/lastmile_qr_scan", "android": "https://dc.lft.to/lastmile_qr_scan"}, "type": "electric_scooter", "name": "45a8c33d622a423e5c5944ea3d5f8fe3", "is_reserved": 0, "lon": -77.02963616666666, "is_disabled": 0, "fusion_lat": 0.0, "lat": 38.92260116666667, "bike_id": "45a8c33d622a423e5c5944ea3d5f8fe3", "fusion_lon": 0.0}, {"rental_uris": {"ios": "https://dc.lft.to/lastmile_qr_scan", "android": "https://dc.lft.to/lastmile_qr_scan"}, "type": "electric_scooter", "name": "fb841ef5533993e6ea1d6196fb348250", "is_reserved": 0, "lon": -76.9894465, "is_disabled": 0, "fusion_lat": 0.0, "lat": 38.90397166666666, "bike_id": "fb841ef5533993e6ea1d6196fb348250", "fusion_lon": 0.0}, {"rental_uris": {"ios": "https://dc.lft.to/lastmile_qr_scan", "android": "https://dc.lft.to/lastmile_qr_scan"}, "type": "electric_scooter", "name": "88721a1f33cafb367883f148c420c307", "is_reserved": 0, "lon": -77.02394683333333, "is_disabled": 0, "fusion_lat": 0.0, "lat": 38.916175833333334, "bike_id": "88721a1f33cafb367883f148c420c307", "fusion_lon": 0.0}, {"rental_uris": {"ios": "https://dc.lft.to/lastmile_qr_scan", "android": "https://dc.lft.to/lastmile_qr_scan"}, "type": "electric_scooter", "name": "568ec5dcc3b525a08ba1287083f77779", "is_reserved": 0, "lon": -77.04135716666667, "is_disabled": 0, "fusion_lat": 0.0, "lat": 38.9037965, "bike_id": "568ec5dcc3b525a08ba1287083f77779", "fusion_lon": 0.0}, {"rental_uris": {"ios": "https://dc.lft.to/lastmile_qr_scan", "android": "https://dc.lft.to/lastmile_qr_scan"}, "type": "electric_scooter", "name": "bb9fa035fddacd771f5cb00138394a08", "is_reserved": 0, "lon": -77.0486585, "is_disabled": 0, "fusion_lat": 0.0, "lat": 38.9046545, "bike_id": "bb9fa035fddacd771f5cb00138394a08", "fusion_lon": 0.0}, {"rental_uris": {"ios": "https://dc.lft.to/lastmile_qr_scan", "android": "https://dc.lft.to/lastmile_qr_scan"}, "type": "electric_scooter", "name": "7f36b872bf6a11c4b1e01565df35e47a", "is_reserved": 0, "lon": -77.04946516666666, "is_disabled": 0, "fusion_lat": 0.0, "lat": 38.9202135, "bike_id": "7f36b872bf6a11c4b1e01565df35e47a", "fusion_lon": 0.0}, {"rental_uris": {"ios": "https://dc.lft.to/lastmile_qr_scan", "android": "https://dc.lft.to/lastmile_qr_scan"}, "type": "electric_scooter", "name": "4ddd2ae06eccdea77f178c4d91ad1539", "is_reserved": 0, "lon": -77.03984083333333, "is_disabled": 0, "fusion_lat": 0.0, "lat": 38.92461866666667, "bike_id": "4ddd2ae06eccdea77f178c4d91ad1539", "fusion_lon": 0.0}, {"rental_uris": {"ios": "https://dc.lft.to/lastmile_qr_scan", "android": "https://dc.lft.to/lastmile_qr_scan"}, "type": "electric_scooter", "name": "6e4a99490f28a849cbc625a26acd0c20", "is_reserved": 0, "lon": -76.98377033333334, "is_disabled": 0, "fusion_lat": 0.0, "lat": 38.86691283333333, "bike_id": "6e4a99490f28a849cbc625a26acd0c20", "fusion_lon": 0.0}, {"rental_uris": {"ios": "https://dc.lft.to/lastmile_qr_scan", "android": "https://dc.lft.to/lastmile_qr_scan"}, "type": "electric_scooter", "name": "0e9f330b3c64129d5363a39d06a9a800", "is_reserved": 0, "lon": -77.03272666666666, "is_disabled": 0, "fusion_lat": 0.0, "lat": 38.932632166666664, "bike_id": "0e9f330b3c64129d5363a39d06a9a800", "fusion_lon": 0.0}, {"rental_uris": {"ios": "https://dc.lft.to/lastmile_qr_scan", "android": "https://dc.lft.to/lastmile_qr_scan"}, "type": "electric_scooter", "name": "cb17dcf8a0710ab128e9ddcb9296a98d", "is_reserved": 0, "lon": -77.03028533333334, "is_disabled": 0, "fusion_lat": 0.0, "lat": 38.922481833333336, "bike_id": "cb17dcf8a0710ab128e9ddcb9296a98d", "fusion_lon": 0.0}, {"rental_uris": {"ios": "https://dc.lft.to/lastmile_qr_scan", "android": "https://dc.lft.to/lastmile_qr_scan"}, "type": "electric_bike", "name": "e4450cc85becccde07f4d47832daa59e", "is_reserved": 0, "lon": -76.97010833333333, "is_disabled": 0, "fusion_lat": 0.0, "lat": 38.86368866666667, "bike_id": "e4450cc85becccde07f4d47832daa59e", "fusion_lon": 0.0}, {"rental_uris": {"ios": "https://dc.lft.to/lastmile_qr_scan", "android": "https://dc.lft.to/lastmile_qr_scan"}, "type": "electric_bike", "name": "9c4e06597e9b46453f4a41c0d34ec1bd", "is_reserved": 0, "lon": -77.08141716666667, "is_disabled": 0, "fusion_lat": 0.0, "lat": 38.82295883333333, "bike_id": "9c4e06597e9b46453f4a41c0d34ec1bd", "fusion_lon": 0.0}, {"rental_uris": {"ios": "https://dc.lft.to/lastmile_qr_scan", "android": "https://dc.lft.to/lastmile_qr_scan"}, "type": "electric_scooter", "name": "356667fdca2871510c78c6179c6fd504", "is_reserved": 0, "lon": -77.04476016666666, "is_disabled": 0, "fusion_lat": 0.0, "lat": 38.918515666666664, "bike_id": "356667fdca2871510c78c6179c6fd504", "fusion_lon": 0.0}, {"rental_uris": {"ios": "https://dc.lft.to/lastmile_qr_scan", "android": "https://dc.lft.to/lastmile_qr_scan"}, "type": "electric_bike", "name": "2eef5648132031c8a329ed751c34af61", "is_reserved": 0, "lon": -76.96321483333334, "is_disabled": 0, "fusion_lat": 0.0, "lat": 38.938941, "bike_id": "2eef5648132031c8a329ed751c34af61", "fusion_lon": 0.0}, {"rental_uris": {"ios": "https://dc.lft.to/lastmile_qr_scan", "android": "https://dc.lft.to/lastmile_qr_scan"}, "type": "electric_scooter", "name": "6b699f46049aed885529fd3e271be842", "is_reserved": 0, "lon": -77.04255583333334, "is_disabled": 0, "fusion_lat": 0.0, "lat": 38.92060816666667, "bike_id": "6b699f46049aed885529fd3e271be842", "fusion_lon": 0.0}, {"rental_uris": {"ios": "https://dc.lft.to/lastmile_qr_scan", "android": "https://dc.lft.to/lastmile_qr_scan"}, "type": "electric_scooter", "name": "20b2c8c510fdf2713041e02b57db3fce", "is_reserved": 0, "lon": -77.03630833333334, "is_disabled": 0, "fusion_lat": 0.0, "lat": 38.948182333333335, "bike_id": "20b2c8c510fdf2713041e02b57db3fce", "fusion_lon": 0.0}, {"rental_uris": {"ios": "https://dc.lft.to/lastmile_qr_scan", "android": "https://dc.lft.to/lastmile_qr_scan"}, "type": "electric_scooter", "name": "81b65436af00cb033632879669eb44fa", "is_reserved": 0, "lon": -77.0395725, "is_disabled": 0, "fusion_lat": 0.0, "lat": 38.892491, "bike_id": "81b65436af00cb033632879669eb44fa", "fusion_lon": 0.0}, {"rental_uris": {"ios": "https://dc.lft.to/lastmile_qr_scan", "android": "https://dc.lft.to/lastmile_qr_scan"}, "type": "electric_scooter", "name": "7858d5392727dd92f5e398daef1c6b68", "is_reserved": 0, "lon": -77.03783366666667, "is_disabled": 0, "fusion_lat": 0.0, "lat": 38.912678666666665, "bike_id": "7858d5392727dd92f5e398daef1c6b68", "fusion_lon": 0.0}, {"rental_uris": {"ios": "https://dc.lft.to/lastmile_qr_scan", "android": "https://dc.lft.to/lastmile_qr_scan"}, "type": "electric_scooter", "name": "a7ad7c6971699debbe385eec11908f62", "is_reserved": 0, "lon": -77.02729383333333, "is_disabled": 0, "fusion_lat": 0.0, "lat": 38.93400233333333, "bike_id": "a7ad7c6971699debbe385eec11908f62", "fusion_lon": 0.0}, {"rental_uris": {"ios": "https://dc.lft.to/lastmile_qr_scan", "android": "https://dc.lft.to/lastmile_qr_scan"}, "type": "electric_scooter", "name": "bd940b445d712a96f200774593530d64", "is_reserved": 0, "lon": -77.07862783333333, "is_disabled": 0, "fusion_lat": 0.0, "lat": 38.931458, "bike_id": "bd940b445d712a96f200774593530d64", "fusion_lon": 0.0}, {"rental_uris": {"ios": "https://dc.lft.to/lastmile_qr_scan", "android": "https://dc.lft.to/lastmile_qr_scan"}, "type": "electric_scooter", "name": "aa5243ab7161ab3eef83a1a852112c54", "is_reserved": 0, "lon": -77.00067166666666, "is_disabled": 0, "fusion_lat": 0.0, "lat": 38.919108, "bike_id": "aa5243ab7161ab3eef83a1a852112c54", "fusion_lon": 0.0}, {"rental_uris": {"ios": "https://dc.lft.to/lastmile_qr_scan", "android": "https://dc.lft.to/lastmile_qr_scan"}, "type": "electric_scooter", "name": "1afac118873265f046476ef6559d4627", "is_reserved": 0, "lon": -77.03993483333333, "is_disabled": 0, "fusion_lat": 0.0, "lat": 38.9418295, "bike_id": "1afac118873265f046476ef6559d4627", "fusion_lon": 0.0}, {"rental_uris": {"ios": "https://dc.lft.to/lastmile_qr_scan", "android": "https://dc.lft.to/lastmile_qr_scan"}, "type": "electric_scooter", "name": "429b63ef5c756263adeaff09791e51c0", "is_reserved": 0, "lon": -77.00957166666667, "is_disabled": 0, "fusion_lat": 0.0, "lat": 38.89779266666667, "bike_id": "429b63ef5c756263adeaff09791e51c0", "fusion_lon": 0.0}, {"rental_uris": {"ios": "https://dc.lft.to/lastmile_qr_scan", "android": "https://dc.lft.to/lastmile_qr_scan"}, "type": "electric_scooter", "name": "cb44dcd0aa71fe138ece1aeb76075b95", "is_reserved": 0, "lon": -77.0468205, "is_disabled": 0, "fusion_lat": 0.0, "lat": 38.89221916666666, "bike_id": "cb44dcd0aa71fe138ece1aeb76075b95", "fusion_lon": 0.0}, {"rental_uris": {"ios": "https://dc.lft.to/lastmile_qr_scan", "android": "https://dc.lft.to/lastmile_qr_scan"}, "type": "electric_scooter", "name": "20374eaea301c564134e6bf53778c405", "is_reserved": 0, "lon": -77.04671866666666, "is_disabled": 0, "fusion_lat": 0.0, "lat": 38.89280566666667, "bike_id": "20374eaea301c564134e6bf53778c405", "fusion_lon": 0.0}, {"rental_uris": {"ios": "https://dc.lft.to/lastmile_qr_scan", "android": "https://dc.lft.to/lastmile_qr_scan"}, "type": "electric_scooter", "name": "bf6543a8fb6a59ade9912ab9830133ab", "is_reserved": 0, "lon": -77.034398, "is_disabled": 0, "fusion_lat": 0.0, "lat": 38.918001333333336, "bike_id": "bf6543a8fb6a59ade9912ab9830133ab", "fusion_lon": 0.0}, {"rental_uris": {"ios": "https://dc.lft.to/lastmile_qr_scan", "android": "https://dc.lft.to/lastmile_qr_scan"}, "type": "electric_scooter", "name": "d7235a1b4b29ae120f6001ed6baac88d", "is_reserved": 0, "lon": -77.03959483333334, "is_disabled": 0, "fusion_lat": 0.0, "lat": 38.89243283333333, "bike_id": "d7235a1b4b29ae120f6001ed6baac88d", "fusion_lon": 0.0}, {"rental_uris": {"ios": "https://dc.lft.to/lastmile_qr_scan", "android": "https://dc.lft.to/lastmile_qr_scan"}, "type": "electric_scooter", "name": "9954ce89e060653cea8e8160c1a3ca11", "is_reserved": 0, "lon": -77.02938533333334, "is_disabled": 0, "fusion_lat": 0.0, "lat": 38.9072615, "bike_id": "9954ce89e060653cea8e8160c1a3ca11", "fusion_lon": 0.0}, {"rental_uris": {"ios": "https://dc.lft.to/lastmile_qr_scan", "android": "https://dc.lft.to/lastmile_qr_scan"}, "type": "electric_scooter", "name": "90638e6c499aaa1e892ba786fc159d74", "is_reserved": 0, "lon": -77.044778, "is_disabled": 0, "fusion_lat": 0.0, "lat": 38.92287983333333, "bike_id": "90638e6c499aaa1e892ba786fc159d74", "fusion_lon": 0.0}, {"rental_uris": {"ios": "https://dc.lft.to/lastmile_qr_scan", "android": "https://dc.lft.to/lastmile_qr_scan"}, "type": "electric_bike", "name": "6696c45e8bf6e5a519d28e364526bc58", "is_reserved": 0, "lon": -77.05515916666667, "is_disabled": 0, "fusion_lat": 0.0, "lat": 38.9440945, "bike_id": "6696c45e8bf6e5a519d28e364526bc58", "fusion_lon": 0.0}, {"rental_uris": {"ios": "https://dc.lft.to/lastmile_qr_scan", "android": "https://dc.lft.to/lastmile_qr_scan"}, "type": "electric_scooter", "name": "c4fa770a2dc0cc1b8d29392ab373caf0", "is_reserved": 0, "lon": -77.066055, "is_disabled": 0, "fusion_lat": 0.0, "lat": 38.91114, "bike_id": "c4fa770a2dc0cc1b8d29392ab373caf0", "fusion_lon": 0.0}, {"rental_uris": {"ios": "https://dc.lft.to/lastmile_qr_scan", "android": "https://dc.lft.to/lastmile_qr_scan"}, "type": "electric_scooter", "name": "4031dc2c09d8e1a6293950f852a5155f", "is_reserved": 0, "lon": -77.0278035, "is_disabled": 0, "fusion_lat": 0.0, "lat": 38.96244933333333, "bike_id": "4031dc2c09d8e1a6293950f852a5155f", "fusion_lon": 0.0}, {"rental_uris": {"ios": "https://dc.lft.to/lastmile_qr_scan", "android": "https://dc.lft.to/lastmile_qr_scan"}, "type": "electric_scooter", "name": "b9e4885a5b839d298a3543dcafa7293d", "is_reserved": 0, "lon": -77.00383, "is_disabled": 0, "fusion_lat": 0.0, "lat": 38.94063966666667, "bike_id": "b9e4885a5b839d298a3543dcafa7293d", "fusion_lon": 0.0}, {"rental_uris": {"ios": "https://dc.lft.to/lastmile_qr_scan", "android": "https://dc.lft.to/lastmile_qr_scan"}, "type": "electric_scooter", "name": "6f2f4cb3b37c7520fad88cbf7dc1e0cb", "is_reserved": 0, "lon": -77.051208, "is_disabled": 0, "fusion_lat": 0.0, "lat": 38.925287833333336, "bike_id": "6f2f4cb3b37c7520fad88cbf7dc1e0cb", "fusion_lon": 0.0}, {"rental_uris": {"ios": "https://dc.lft.to/lastmile_qr_scan", "android": "https://dc.lft.to/lastmile_qr_scan"}, "type": "electric_bike", "name": "6e0b7f6e2db9bfb57d659af80edec112", "is_reserved": 0, "lon": -76.99921066666667, "is_disabled": 0, "fusion_lat": 0.0, "lat": 38.9946835, "bike_id": "6e0b7f6e2db9bfb57d659af80edec112", "fusion_lon": 0.0}, {"rental_uris": {"ios": "https://dc.lft.to/lastmile_qr_scan", "android": "https://dc.lft.to/lastmile_qr_scan"}, "type": "electric_scooter", "name": "e0872ffed469b6e4831da28edf4a848d", "is_reserved": 0, "lon": -77.032337, "is_disabled": 0, "fusion_lat": 0.0, "lat": 38.90727166666667, "bike_id": "e0872ffed469b6e4831da28edf4a848d", "fusion_lon": 0.0}, {"rental_uris": {"ios": "https://dc.lft.to/lastmile_qr_scan", "android": "https://dc.lft.to/lastmile_qr_scan"}, "type": "electric_scooter", "name": "a7772773e8212237d6aff1e3210cf049", "is_reserved": 0, "lon": -77.07937983333333, "is_disabled": 0, "fusion_lat": 0.0, "lat": 38.919223, "bike_id": "a7772773e8212237d6aff1e3210cf049", "fusion_lon": 0.0}, {"rental_uris": {"ios": "https://dc.lft.to/lastmile_qr_scan", "android": "https://dc.lft.to/lastmile_qr_scan"}, "type": "electric_scooter", "name": "65c4a6cd810b1ed644dd40f6e163501f", "is_reserved": 0, "lon": -77.02181733333333, "is_disabled": 0, "fusion_lat": 0.0, "lat": 38.89904516666667, "bike_id": "65c4a6cd810b1ed644dd40f6e163501f", "fusion_lon": 0.0}, {"rental_uris": {"ios": "https://dc.lft.to/lastmile_qr_scan", "android": "https://dc.lft.to/lastmile_qr_scan"}, "type": "electric_scooter", "name": "052dafd6325f73a829ebb568a88296a5", "is_reserved": 0, "lon": -76.98885233333333, "is_disabled": 0, "fusion_lat": 0.0, "lat": 38.899497, "bike_id": "052dafd6325f73a829ebb568a88296a5", "fusion_lon": 0.0}, {"rental_uris": {"ios": "https://dc.lft.to/lastmile_qr_scan", "android": "https://dc.lft.to/lastmile_qr_scan"}, "type": "electric_scooter", "name": "df478f98101be5c50fd0fcc567d60071", "is_reserved": 0, "lon": -76.99102166666667, "is_disabled": 0, "fusion_lat": 0.0, "lat": 38.857319, "bike_id": "df478f98101be5c50fd0fcc567d60071", "fusion_lon": 0.0}, {"rental_uris": {"ios": "https://dc.lft.to/lastmile_qr_scan", "android": "https://dc.lft.to/lastmile_qr_scan"}, "type": "electric_scooter", "name": "7cc861da97aa07ecf5c7b90f78677d14", "is_reserved": 0, "lon": -77.017674, "is_disabled": 0, "fusion_lat": 0.0, "lat": 38.920520833333335, "bike_id": "7cc861da97aa07ecf5c7b90f78677d14", "fusion_lon": 0.0}, {"rental_uris": {"ios": "https://dc.lft.to/lastmile_qr_scan", "android": "https://dc.lft.to/lastmile_qr_scan"}, "type": "electric_scooter", "name": "6fc214c48c02908deb71130ec06c7528", "is_reserved": 0, "lon": -77.02912083333334, "is_disabled": 0, "fusion_lat": 0.0, "lat": 38.9333175, "bike_id": "6fc214c48c02908deb71130ec06c7528", "fusion_lon": 0.0}, {"rental_uris": {"ios": "https://dc.lft.to/lastmile_qr_scan", "android": "https://dc.lft.to/lastmile_qr_scan"}, "type": "electric_scooter", "name": "4ce770c43ff3acbc58a1b1307f9eda64", "is_reserved": 0, "lon": -77.04180716666667, "is_disabled": 0, "fusion_lat": 0.0, "lat": 38.91121016666666, "bike_id": "4ce770c43ff3acbc58a1b1307f9eda64", "fusion_lon": 0.0}, {"rental_uris": {"ios": "https://dc.lft.to/lastmile_qr_scan", "android": "https://dc.lft.to/lastmile_qr_scan"}, "type": "electric_scooter", "name": "fe33f58884805cfa857f08ce033c7ae6", "is_reserved": 0, "lon": -77.00867283333334, "is_disabled": 0, "fusion_lat": 0.0, "lat": 38.897481666666664, "bike_id": "fe33f58884805cfa857f08ce033c7ae6", "fusion_lon": 0.0}, {"rental_uris": {"ios": "https://dc.lft.to/lastmile_qr_scan", "android": "https://dc.lft.to/lastmile_qr_scan"}, "type": "electric_scooter", "name": "d9a4b09579c8a8dac812e5c8cda2bdc5", "is_reserved": 0, "lon": -77.01575466666667, "is_disabled": 0, "fusion_lat": 0.0, "lat": 38.91681166666667, "bike_id": "d9a4b09579c8a8dac812e5c8cda2bdc5", "fusion_lon": 0.0}, {"rental_uris": {"ios": "https://dc.lft.to/lastmile_qr_scan", "android": "https://dc.lft.to/lastmile_qr_scan"}, "type": "electric_scooter", "name": "3b306476003655137bb7ca021d7bdd4c", "is_reserved": 0, "lon": -77.04307583333333, "is_disabled": 0, "fusion_lat": 0.0, "lat": 38.92066666666667, "bike_id": "3b306476003655137bb7ca021d7bdd4c", "fusion_lon": 0.0}, {"rental_uris": {"ios": "https://dc.lft.to/lastmile_qr_scan", "android": "https://dc.lft.to/lastmile_qr_scan"}, "type": "electric_bike", "name": "66be60b342285944e234aa64e24baad9", "is_reserved": 0, "lon": -76.9945775, "is_disabled": 0, "fusion_lat": 0.0, "lat": 38.9406565, "bike_id": "66be60b342285944e234aa64e24baad9", "fusion_lon": 0.0}, {"rental_uris": {"ios": "https://dc.lft.to/lastmile_qr_scan", "android": "https://dc.lft.to/lastmile_qr_scan"}, "type": "electric_scooter", "name": "da6460a1b5876ee51830ebd4aeb4cd07", "is_reserved": 0, "lon": -77.03942833333333, "is_disabled": 0, "fusion_lat": 0.0, "lat": 38.9011305, "bike_id": "da6460a1b5876ee51830ebd4aeb4cd07", "fusion_lon": 0.0}, {"rental_uris": {"ios": "https://dc.lft.to/lastmile_qr_scan", "android": "https://dc.lft.to/lastmile_qr_scan"}, "type": "electric_scooter", "name": "e6f86a47ffe71ee9271f9631de77c2d3", "is_reserved": 0, "lon": -76.99436816666666, "is_disabled": 0, "fusion_lat": 0.0, "lat": 38.941798166666665, "bike_id": "e6f86a47ffe71ee9271f9631de77c2d3", "fusion_lon": 0.0}, {"rental_uris": {"ios": "https://dc.lft.to/lastmile_qr_scan", "android": "https://dc.lft.to/lastmile_qr_scan"}, "type": "electric_scooter", "name": "c252b51977af065de067a3b998d3cd3e", "is_reserved": 0, "lon": -77.02321533333334, "is_disabled": 0, "fusion_lat": 0.0, "lat": 38.933826333333336, "bike_id": "c252b51977af065de067a3b998d3cd3e", "fusion_lon": 0.0}, {"rental_uris": {"ios": "https://dc.lft.to/lastmile_qr_scan", "android": "https://dc.lft.to/lastmile_qr_scan"}, "type": "electric_scooter", "name": "6ae36a580d4abd5fd8210eeb4dfa0ee3", "is_reserved": 0, "lon": -77.05001333333334, "is_disabled": 0, "fusion_lat": 0.0, "lat": 38.896719, "bike_id": "6ae36a580d4abd5fd8210eeb4dfa0ee3", "fusion_lon": 0.0}, {"rental_uris": {"ios": "https://dc.lft.to/lastmile_qr_scan", "android": "https://dc.lft.to/lastmile_qr_scan"}, "type": "electric_scooter", "name": "19f556b2b4ff49836a1aea52fd6695af", "is_reserved": 0, "lon": -77.02719133333333, "is_disabled": 0, "fusion_lat": 0.0, "lat": 38.934998666666665, "bike_id": "19f556b2b4ff49836a1aea52fd6695af", "fusion_lon": 0.0}, {"rental_uris": {"ios": "https://dc.lft.to/lastmile_qr_scan", "android": "https://dc.lft.to/lastmile_qr_scan"}, "type": "electric_scooter", "name": "9f32dad4ba81b647de09becaae39dadd", "is_reserved": 0, "lon": -77.02715916666666, "is_disabled": 0, "fusion_lat": 0.0, "lat": 38.92225, "bike_id": "9f32dad4ba81b647de09becaae39dadd", "fusion_lon": 0.0}, {"rental_uris": {"ios": "https://dc.lft.to/lastmile_qr_scan", "android": "https://dc.lft.to/lastmile_qr_scan"}, "type": "electric_scooter", "name": "59e7b1025e65ce57d0630405fbc5100a", "is_reserved": 0, "lon": -76.99511966666667, "is_disabled": 0, "fusion_lat": 0.0, "lat": 38.91238933333333, "bike_id": "59e7b1025e65ce57d0630405fbc5100a", "fusion_lon": 0.0}, {"rental_uris": {"ios": "https://dc.lft.to/lastmile_qr_scan", "android": "https://dc.lft.to/lastmile_qr_scan"}, "type": "electric_scooter", "name": "67df6cc227e5c4408248fa1b76696e83", "is_reserved": 0, "lon": -77.031785, "is_disabled": 0, "fusion_lat": 0.0, "lat": 38.907315833333335, "bike_id": "67df6cc227e5c4408248fa1b76696e83", "fusion_lon": 0.0}, {"rental_uris": {"ios": "https://dc.lft.to/lastmile_qr_scan", "android": "https://dc.lft.to/lastmile_qr_scan"}, "type": "electric_scooter", "name": "5e21e4e5b2fd90aefb14d7dd0262fdf8", "is_reserved": 0, "lon": -77.04294783333333, "is_disabled": 0, "fusion_lat": 0.0, "lat": 38.906505333333335, "bike_id": "5e21e4e5b2fd90aefb14d7dd0262fdf8", "fusion_lon": 0.0}, {"rental_uris": {"ios": "https://dc.lft.to/lastmile_qr_scan", "android": "https://dc.lft.to/lastmile_qr_scan"}, "type": "electric_scooter", "name": "94c3a6eb6c097b0ed045d115deac7bfa", "is_reserved": 0, "lon": -77.02681816666667, "is_disabled": 0, "fusion_lat": 0.0, "lat": 38.9247155, "bike_id": "94c3a6eb6c097b0ed045d115deac7bfa", "fusion_lon": 0.0}, {"rental_uris": {"ios": "https://dc.lft.to/lastmile_qr_scan", "android": "https://dc.lft.to/lastmile_qr_scan"}, "type": "electric_scooter", "name": "711f110f868ae8d321d6afbbde3a0f44", "is_reserved": 0, "lon": -77.0320805, "is_disabled": 0, "fusion_lat": 0.0, "lat": 38.91507266666667, "bike_id": "711f110f868ae8d321d6afbbde3a0f44", "fusion_lon": 0.0}, {"rental_uris": {"ios": "https://dc.lft.to/lastmile_qr_scan", "android": "https://dc.lft.to/lastmile_qr_scan"}, "type": "electric_scooter", "name": "ba24d4186f8bbce865b36f0296fd2a73", "is_reserved": 0, "lon": -77.05168583333334, "is_disabled": 0, "fusion_lat": 0.0, "lat": 38.924094333333336, "bike_id": "ba24d4186f8bbce865b36f0296fd2a73", "fusion_lon": 0.0}, {"rental_uris": {"ios": "https://dc.lft.to/lastmile_qr_scan", "android": "https://dc.lft.to/lastmile_qr_scan"}, "type": "electric_bike", "name": "f00f69ef7901df76f3fa5d821bec717a", "is_reserved": 0, "lon": -76.96153683333333, "is_disabled": 0, "fusion_lat": 0.0, "lat": 38.85616133333333, "bike_id": "f00f69ef7901df76f3fa5d821bec717a", "fusion_lon": 0.0}, {"rental_uris": {"ios": "https://dc.lft.to/lastmile_qr_scan", "android": "https://dc.lft.to/lastmile_qr_scan"}, "type": "electric_scooter", "name": "b122667b312096ae3757103750da1e1c", "is_reserved": 0, "lon": -77.02267583333334, "is_disabled": 0, "fusion_lat": 0.0, "lat": 38.9273845, "bike_id": "b122667b312096ae3757103750da1e1c", "fusion_lon": 0.0}, {"rental_uris": {"ios": "https://dc.lft.to/lastmile_qr_scan", "android": "https://dc.lft.to/lastmile_qr_scan"}, "type": "electric_scooter", "name": "862de181d02162c8c4bcd7eefc18b067", "is_reserved": 0, "lon": -77.04983383333334, "is_disabled": 0, "fusion_lat": 0.0, "lat": 38.90553033333333, "bike_id": "862de181d02162c8c4bcd7eefc18b067", "fusion_lon": 0.0}, {"rental_uris": {"ios": "https://dc.lft.to/lastmile_qr_scan", "android": "https://dc.lft.to/lastmile_qr_scan"}, "type": "electric_bike", "name": "21e006ec4a57a6d43d50814ecf1ab229", "is_reserved": 0, "lon": -76.97532966666667, "is_disabled": 0, "fusion_lat": 0.0, "lat": 38.903280333333335, "bike_id": "21e006ec4a57a6d43d50814ecf1ab229", "fusion_lon": 0.0}, {"rental_uris": {"ios": "https://dc.lft.to/lastmile_qr_scan", "android": "https://dc.lft.to/lastmile_qr_scan"}, "type": "electric_scooter", "name": "429bf3e6fd04a4361a963fa6e6874ef4", "is_reserved": 0, "lon": -77.03084666666666, "is_disabled": 0, "fusion_lat": 0.0, "lat": 38.938775166666666, "bike_id": "429bf3e6fd04a4361a963fa6e6874ef4", "fusion_lon": 0.0}, {"rental_uris": {"ios": "https://dc.lft.to/lastmile_qr_scan", "android": "https://dc.lft.to/lastmile_qr_scan"}, "type": "electric_scooter", "name": "cbf7f8a4ab3821df8ede6716e44befcd", "is_reserved": 0, "lon": -77.03143266666666, "is_disabled": 0, "fusion_lat": 0.0, "lat": 38.9126645, "bike_id": "cbf7f8a4ab3821df8ede6716e44befcd", "fusion_lon": 0.0}, {"rental_uris": {"ios": "https://dc.lft.to/lastmile_qr_scan", "android": "https://dc.lft.to/lastmile_qr_scan"}, "type": "electric_scooter", "name": "00a1f6f168446621795397dce6ab2a2e", "is_reserved": 0, "lon": -76.9973435, "is_disabled": 0, "fusion_lat": 0.0, "lat": 38.900345333333334, "bike_id": "00a1f6f168446621795397dce6ab2a2e", "fusion_lon": 0.0}, {"rental_uris": {"ios": "https://dc.lft.to/lastmile_qr_scan", "android": "https://dc.lft.to/lastmile_qr_scan"}, "type": "electric_scooter", "name": "f2cf1c1a3558acc45f6ced2272849cf6", "is_reserved": 0, "lon": -77.07717383333333, "is_disabled": 0, "fusion_lat": 0.0, "lat": 38.9428895, "bike_id": "f2cf1c1a3558acc45f6ced2272849cf6", "fusion_lon": 0.0}, {"rental_uris": {"ios": "https://dc.lft.to/lastmile_qr_scan", "android": "https://dc.lft.to/lastmile_qr_scan"}, "type": "electric_scooter", "name": "fa4c29ed082efb23abd315e29be262d9", "is_reserved": 0, "lon": -77.02211866666667, "is_disabled": 0, "fusion_lat": 0.0, "lat": 38.8874065, "bike_id": "fa4c29ed082efb23abd315e29be262d9", "fusion_lon": 0.0}, {"rental_uris": {"ios": "https://dc.lft.to/lastmile_qr_scan", "android": "https://dc.lft.to/lastmile_qr_scan"}, "type": "electric_scooter", "name": "21ad4aa95765b5015240aa93593d192a", "is_reserved": 0, "lon": -77.04858616666667, "is_disabled": 0, "fusion_lat": 0.0, "lat": 38.899018833333336, "bike_id": "21ad4aa95765b5015240aa93593d192a", "fusion_lon": 0.0}, {"rental_uris": {"ios": "https://dc.lft.to/lastmile_qr_scan", "android": "https://dc.lft.to/lastmile_qr_scan"}, "type": "electric_scooter", "name": "4d14cd7271629b2c033e51c8ab77ee60", "is_reserved": 0, "lon": -77.0182175, "is_disabled": 0, "fusion_lat": 0.0, "lat": 38.911112, "bike_id": "4d14cd7271629b2c033e51c8ab77ee60", "fusion_lon": 0.0}, {"rental_uris": {"ios": "https://dc.lft.to/lastmile_qr_scan", "android": "https://dc.lft.to/lastmile_qr_scan"}, "type": "electric_bike", "name": "a50a71bd83ec63e6834b7e3a3a7e45a9", "is_reserved": 0, "lon": -76.97422116666667, "is_disabled": 0, "fusion_lat": 0.0, "lat": 38.93236616666667, "bike_id": "a50a71bd83ec63e6834b7e3a3a7e45a9", "fusion_lon": 0.0}, {"rental_uris": {"ios": "https://dc.lft.to/lastmile_qr_scan", "android": "https://dc.lft.to/lastmile_qr_scan"}, "type": "electric_scooter", "name": "60e9f4075120085205e3c63b317f3143", "is_reserved": 0, "lon": -77.03438083333333, "is_disabled": 0, "fusion_lat": 0.0, "lat": 38.934382666666664, "bike_id": "60e9f4075120085205e3c63b317f3143", "fusion_lon": 0.0}, {"rental_uris": {"ios": "https://dc.lft.to/lastmile_qr_scan", "android": "https://dc.lft.to/lastmile_qr_scan"}, "type": "electric_scooter", "name": "f1425c3f4cf3adb185d141c2240c9800", "is_reserved": 0, "lon": -77.0568765, "is_disabled": 0, "fusion_lat": 0.0, "lat": 38.933888333333336, "bike_id": "f1425c3f4cf3adb185d141c2240c9800", "fusion_lon": 0.0}, {"rental_uris": {"ios": "https://dc.lft.to/lastmile_qr_scan", "android": "https://dc.lft.to/lastmile_qr_scan"}, "type": "electric_scooter", "name": "e080a9031ad1d07a7682af8f3ea95b9c", "is_reserved": 0, "lon": -76.99390883333334, "is_disabled": 0, "fusion_lat": 0.0, "lat": 38.910146, "bike_id": "e080a9031ad1d07a7682af8f3ea95b9c", "fusion_lon": 0.0}, {"rental_uris": {"ios": "https://dc.lft.to/lastmile_qr_scan", "android": "https://dc.lft.to/lastmile_qr_scan"}, "type": "electric_scooter", "name": "d4cf12c8e8ebf2fb170ad9f12c20aeae", "is_reserved": 0, "lon": -77.026247, "is_disabled": 0, "fusion_lat": 0.0, "lat": 38.892218166666666, "bike_id": "d4cf12c8e8ebf2fb170ad9f12c20aeae", "fusion_lon": 0.0}, {"rental_uris": {"ios": "https://dc.lft.to/lastmile_qr_scan", "android": "https://dc.lft.to/lastmile_qr_scan"}, "type": "electric_scooter", "name": "2c98da721c665d4fe6349126c5430ea0", "is_reserved": 0, "lon": -77.033411, "is_disabled": 0, "fusion_lat": 0.0, "lat": 38.914027833333336, "bike_id": "2c98da721c665d4fe6349126c5430ea0", "fusion_lon": 0.0}, {"rental_uris": {"ios": "https://dc.lft.to/lastmile_qr_scan", "android": "https://dc.lft.to/lastmile_qr_scan"}, "type": "electric_scooter", "name": "f41619ac39fd0ac8b1f555da9f68ee3e", "is_reserved": 0, "lon": -77.04278483333333, "is_disabled": 0, "fusion_lat": 0.0, "lat": 38.917843, "bike_id": "f41619ac39fd0ac8b1f555da9f68ee3e", "fusion_lon": 0.0}, {"rental_uris": {"ios": "https://dc.lft.to/lastmile_qr_scan", "android": "https://dc.lft.to/lastmile_qr_scan"}, "type": "electric_scooter", "name": "3a15eb26e1c8f36e3118e01c81626240", "is_reserved": 0, "lon": -77.01220133333334, "is_disabled": 0, "fusion_lat": 0.0, "lat": 38.916799166666664, "bike_id": "3a15eb26e1c8f36e3118e01c81626240", "fusion_lon": 0.0}, {"rental_uris": {"ios": "https://dc.lft.to/lastmile_qr_scan", "android": "https://dc.lft.to/lastmile_qr_scan"}, "type": "electric_scooter", "name": "777b13bf738296b2701ac0f54936c51d", "is_reserved": 0, "lon": -76.92632066666667, "is_disabled": 0, "fusion_lat": 0.0, "lat": 38.89960933333333, "bike_id": "777b13bf738296b2701ac0f54936c51d", "fusion_lon": 0.0}, {"rental_uris": {"ios": "https://dc.lft.to/lastmile_qr_scan", "android": "https://dc.lft.to/lastmile_qr_scan"}, "type": "electric_scooter", "name": "ee5bd434553d578948a60b30551b37b6", "is_reserved": 0, "lon": -76.98212183333334, "is_disabled": 0, "fusion_lat": 0.0, "lat": 38.895455166666665, "bike_id": "ee5bd434553d578948a60b30551b37b6", "fusion_lon": 0.0}, {"rental_uris": {"ios": "https://dc.lft.to/lastmile_qr_scan", "android": "https://dc.lft.to/lastmile_qr_scan"}, "type": "electric_scooter", "name": "d9d09f8630edd6fcc05bb26ef2291d80", "is_reserved": 0, "lon": -77.002019, "is_disabled": 0, "fusion_lat": 0.0, "lat": 38.91198583333333, "bike_id": "d9d09f8630edd6fcc05bb26ef2291d80", "fusion_lon": 0.0}, {"rental_uris": {"ios": "https://dc.lft.to/lastmile_qr_scan", "android": "https://dc.lft.to/lastmile_qr_scan"}, "type": "electric_scooter", "name": "1eb317f043130888430a87c77ab95bf7", "is_reserved": 0, "lon": -77.0386775, "is_disabled": 0, "fusion_lat": 0.0, "lat": 38.911170166666665, "bike_id": "1eb317f043130888430a87c77ab95bf7", "fusion_lon": 0.0}, {"rental_uris": {"ios": "https://dc.lft.to/lastmile_qr_scan", "android": "https://dc.lft.to/lastmile_qr_scan"}, "type": "electric_scooter", "name": "47d77d8d0e1771cfbc80a325454caf47", "is_reserved": 0, "lon": -77.08166266666667, "is_disabled": 0, "fusion_lat": 0.0, "lat": 38.919556666666665, "bike_id": "47d77d8d0e1771cfbc80a325454caf47", "fusion_lon": 0.0}, {"rental_uris": {"ios": "https://dc.lft.to/lastmile_qr_scan", "android": "https://dc.lft.to/lastmile_qr_scan"}, "type": "electric_scooter", "name": "24d887b24812913aa0f1736f6dee82c8", "is_reserved": 0, "lon": -77.03353066666666, "is_disabled": 0, "fusion_lat": 0.0, "lat": 38.954771, "bike_id": "24d887b24812913aa0f1736f6dee82c8", "fusion_lon": 0.0}, {"rental_uris": {"ios": "https://dc.lft.to/lastmile_qr_scan", "android": "https://dc.lft.to/lastmile_qr_scan"}, "type": "electric_scooter", "name": "b51208aabe9cd6e787b0de7ebf123d95", "is_reserved": 0, "lon": -77.05302583333334, "is_disabled": 0, "fusion_lat": 0.0, "lat": 38.90068866666667, "bike_id": "b51208aabe9cd6e787b0de7ebf123d95", "fusion_lon": 0.0}, {"rental_uris": {"ios": "https://dc.lft.to/lastmile_qr_scan", "android": "https://dc.lft.to/lastmile_qr_scan"}, "type": "electric_bike", "name": "bfd9859a67c4f72401866bc8ec536e9a", "is_reserved": 0, "lon": -77.02012783333333, "is_disabled": 0, "fusion_lat": 0.0, "lat": 38.964426, "bike_id": "bfd9859a67c4f72401866bc8ec536e9a", "fusion_lon": 0.0}, {"rental_uris": {"ios": "https://dc.lft.to/lastmile_qr_scan", "android": "https://dc.lft.to/lastmile_qr_scan"}, "type": "electric_scooter", "name": "62bbbeb6fa72598d65877fc17996d5fa", "is_reserved": 0, "lon": -77.03659783333333, "is_disabled": 0, "fusion_lat": 0.0, "lat": 38.92286266666667, "bike_id": "62bbbeb6fa72598d65877fc17996d5fa", "fusion_lon": 0.0}, {"rental_uris": {"ios": "https://dc.lft.to/lastmile_qr_scan", "android": "https://dc.lft.to/lastmile_qr_scan"}, "type": "electric_scooter", "name": "7892021494738c771f7943af3e6d9c70", "is_reserved": 0, "lon": -77.02044533333333, "is_disabled": 0, "fusion_lat": 0.0, "lat": 38.92245116666667, "bike_id": "7892021494738c771f7943af3e6d9c70", "fusion_lon": 0.0}, {"rental_uris": {"ios": "https://dc.lft.to/lastmile_qr_scan", "android": "https://dc.lft.to/lastmile_qr_scan"}, "type": "electric_scooter", "name": "ceb834fa15eb00a5cfa506aaba666927", "is_reserved": 0, "lon": -77.00100283333333, "is_disabled": 0, "fusion_lat": 0.0, "lat": 38.88123916666667, "bike_id": "ceb834fa15eb00a5cfa506aaba666927", "fusion_lon": 0.0}, {"rental_uris": {"ios": "https://dc.lft.to/lastmile_qr_scan", "android": "https://dc.lft.to/lastmile_qr_scan"}, "type": "electric_scooter", "name": "3b25fd7d313a5df003ac3d637993bd0a", "is_reserved": 0, "lon": -77.02000833333334, "is_disabled": 0, "fusion_lat": 0.0, "lat": 38.89929083333333, "bike_id": "3b25fd7d313a5df003ac3d637993bd0a", "fusion_lon": 0.0}, {"rental_uris": {"ios": "https://dc.lft.to/lastmile_qr_scan", "android": "https://dc.lft.to/lastmile_qr_scan"}, "type": "electric_scooter", "name": "45f217694fa80de677f182c520c3b4ea", "is_reserved": 0, "lon": -77.01855183333333, "is_disabled": 0, "fusion_lat": 0.0, "lat": 38.948897333333335, "bike_id": "45f217694fa80de677f182c520c3b4ea", "fusion_lon": 0.0}, {"rental_uris": {"ios": "https://dc.lft.to/lastmile_qr_scan", "android": "https://dc.lft.to/lastmile_qr_scan"}, "type": "electric_bike", "name": "9efa22914a17b06721cea827bbb16f01", "is_reserved": 0, "lon": -77.07952216666666, "is_disabled": 0, "fusion_lat": 0.0, "lat": 38.84902666666667, "bike_id": "9efa22914a17b06721cea827bbb16f01", "fusion_lon": 0.0}, {"rental_uris": {"ios": "https://dc.lft.to/lastmile_qr_scan", "android": "https://dc.lft.to/lastmile_qr_scan"}, "type": "electric_scooter", "name": "ddbcc603f8d4027dcfbc93c8589901d4", "is_reserved": 0, "lon": -77.0233145, "is_disabled": 0, "fusion_lat": 0.0, "lat": 38.922974333333336, "bike_id": "ddbcc603f8d4027dcfbc93c8589901d4", "fusion_lon": 0.0}, {"rental_uris": {"ios": "https://dc.lft.to/lastmile_qr_scan", "android": "https://dc.lft.to/lastmile_qr_scan"}, "type": "electric_scooter", "name": "a7aa8fd60c33da26ed6b1a2a9bffe8f8", "is_reserved": 0, "lon": -77.03044116666666, "is_disabled": 0, "fusion_lat": 0.0, "lat": 38.8840575, "bike_id": "a7aa8fd60c33da26ed6b1a2a9bffe8f8", "fusion_lon": 0.0}, {"rental_uris": {"ios": "https://dc.lft.to/lastmile_qr_scan", "android": "https://dc.lft.to/lastmile_qr_scan"}, "type": "electric_scooter", "name": "4f6e9a1b35dad0353c171ad2068df736", "is_reserved": 0, "lon": -77.04214783333333, "is_disabled": 0, "fusion_lat": 0.0, "lat": 38.92129416666667, "bike_id": "4f6e9a1b35dad0353c171ad2068df736", "fusion_lon": 0.0}, {"rental_uris": {"ios": "https://dc.lft.to/lastmile_qr_scan", "android": "https://dc.lft.to/lastmile_qr_scan"}, "type": "electric_scooter", "name": "a1c1d7b246e192c11617d35c8b815731", "is_reserved": 0, "lon": -76.9826285, "is_disabled": 0, "fusion_lat": 0.0, "lat": 38.86626233333333, "bike_id": "a1c1d7b246e192c11617d35c8b815731", "fusion_lon": 0.0}, {"rental_uris": {"ios": "https://dc.lft.to/lastmile_qr_scan", "android": "https://dc.lft.to/lastmile_qr_scan"}, "type": "electric_scooter", "name": "6ff50d03757e87f9814187c2eb2131de", "is_reserved": 0, "lon": -76.994381, "is_disabled": 0, "fusion_lat": 0.0, "lat": 38.95924083333333, "bike_id": "6ff50d03757e87f9814187c2eb2131de", "fusion_lon": 0.0}, {"rental_uris": {"ios": "https://dc.lft.to/lastmile_qr_scan", "android": "https://dc.lft.to/lastmile_qr_scan"}, "type": "electric_bike", "name": "0052b393f09bb1c909dc96c6dad8a5c7", "is_reserved": 0, "lon": -77.035382, "is_disabled": 0, "fusion_lat": 0.0, "lat": 38.9237965, "bike_id": "0052b393f09bb1c909dc96c6dad8a5c7", "fusion_lon": 0.0}, {"rental_uris": {"ios": "https://dc.lft.to/lastmile_qr_scan", "android": "https://dc.lft.to/lastmile_qr_scan"}, "type": "electric_scooter", "name": "0e5a09c1a022169092b1c4cdf06f423a", "is_reserved": 0, "lon": -77.01866816666667, "is_disabled": 0, "fusion_lat": 0.0, "lat": 38.951558666666664, "bike_id": "0e5a09c1a022169092b1c4cdf06f423a", "fusion_lon": 0.0}, {"rental_uris": {"ios": "https://dc.lft.to/lastmile_qr_scan", "android": "https://dc.lft.to/lastmile_qr_scan"}, "type": "electric_scooter", "name": "a3b155c8d33a15ac4f06980c6dc5b9c3", "is_reserved": 0, "lon": -77.02310683333333, "is_disabled": 0, "fusion_lat": 0.0, "lat": 38.9613135, "bike_id": "a3b155c8d33a15ac4f06980c6dc5b9c3", "fusion_lon": 0.0}, {"rental_uris": {"ios": "https://dc.lft.to/lastmile_qr_scan", "android": "https://dc.lft.to/lastmile_qr_scan"}, "type": "electric_scooter", "name": "c6beca586d4d64292e5682f8f4c35693", "is_reserved": 0, "lon": -77.044266, "is_disabled": 0, "fusion_lat": 0.0, "lat": 38.89738533333333, "bike_id": "c6beca586d4d64292e5682f8f4c35693", "fusion_lon": 0.0}, {"rental_uris": {"ios": "https://dc.lft.to/lastmile_qr_scan", "android": "https://dc.lft.to/lastmile_qr_scan"}, "type": "electric_scooter", "name": "d62fa0204d8c142f8947211564ec14ec", "is_reserved": 0, "lon": -76.97204683333334, "is_disabled": 0, "fusion_lat": 0.0, "lat": 38.924564833333335, "bike_id": "d62fa0204d8c142f8947211564ec14ec", "fusion_lon": 0.0}, {"rental_uris": {"ios": "https://dc.lft.to/lastmile_qr_scan", "android": "https://dc.lft.to/lastmile_qr_scan"}, "type": "electric_scooter", "name": "fd9c456b1d3c3423110647573a35762b", "is_reserved": 0, "lon": -77.04045766666667, "is_disabled": 0, "fusion_lat": 0.0, "lat": 38.93013116666667, "bike_id": "fd9c456b1d3c3423110647573a35762b", "fusion_lon": 0.0}, {"rental_uris": {"ios": "https://dc.lft.to/lastmile_qr_scan", "android": "https://dc.lft.to/lastmile_qr_scan"}, "type": "electric_scooter", "name": "fad2861ec33ab145ee13c31654d67090", "is_reserved": 0, "lon": -77.00426666666667, "is_disabled": 0, "fusion_lat": 0.0, "lat": 38.88511716666667, "bike_id": "fad2861ec33ab145ee13c31654d67090", "fusion_lon": 0.0}, {"rental_uris": {"ios": "https://dc.lft.to/lastmile_qr_scan", "android": "https://dc.lft.to/lastmile_qr_scan"}, "type": "electric_scooter", "name": "d1a2fb93dd59c96ade7f8c927e84673a", "is_reserved": 0, "lon": -77.02271116666667, "is_disabled": 0, "fusion_lat": 0.0, "lat": 38.924716, "bike_id": "d1a2fb93dd59c96ade7f8c927e84673a", "fusion_lon": 0.0}, {"rental_uris": {"ios": "https://dc.lft.to/lastmile_qr_scan", "android": "https://dc.lft.to/lastmile_qr_scan"}, "type": "electric_scooter", "name": "c7ce7dd0341c35ede2d4f6e0962b187b", "is_reserved": 0, "lon": -77.03779483333334, "is_disabled": 0, "fusion_lat": 0.0, "lat": 38.915743666666664, "bike_id": "c7ce7dd0341c35ede2d4f6e0962b187b", "fusion_lon": 0.0}, {"rental_uris": {"ios": "https://dc.lft.to/lastmile_qr_scan", "android": "https://dc.lft.to/lastmile_qr_scan"}, "type": "electric_scooter", "name": "717aebf2e1f978a91f040d4fb247ef33", "is_reserved": 0, "lon": -76.9928235, "is_disabled": 0, "fusion_lat": 0.0, "lat": 38.883086, "bike_id": "717aebf2e1f978a91f040d4fb247ef33", "fusion_lon": 0.0}, {"rental_uris": {"ios": "https://dc.lft.to/lastmile_qr_scan", "android": "https://dc.lft.to/lastmile_qr_scan"}, "type": "electric_scooter", "name": "95d4b4737cb3e872eb45865307b807c4", "is_reserved": 0, "lon": -77.04152116666667, "is_disabled": 0, "fusion_lat": 0.0, "lat": 38.90563933333333, "bike_id": "95d4b4737cb3e872eb45865307b807c4", "fusion_lon": 0.0}, {"rental_uris": {"ios": "https://dc.lft.to/lastmile_qr_scan", "android": "https://dc.lft.to/lastmile_qr_scan"}, "type": "electric_scooter", "name": "52f2cc8de1bd9bd57fdad13d95dca68d", "is_reserved": 0, "lon": -77.0254715, "is_disabled": 0, "fusion_lat": 0.0, "lat": 38.951711333333336, "bike_id": "52f2cc8de1bd9bd57fdad13d95dca68d", "fusion_lon": 0.0}, {"rental_uris": {"ios": "https://dc.lft.to/lastmile_qr_scan", "android": "https://dc.lft.to/lastmile_qr_scan"}, "type": "electric_scooter", "name": "0db040b3d4c96e52cc351c286cb239d8", "is_reserved": 0, "lon": -77.04504983333334, "is_disabled": 0, "fusion_lat": 0.0, "lat": 38.91414416666667, "bike_id": "0db040b3d4c96e52cc351c286cb239d8", "fusion_lon": 0.0}, {"rental_uris": {"ios": "https://dc.lft.to/lastmile_qr_scan", "android": "https://dc.lft.to/lastmile_qr_scan"}, "type": "electric_scooter", "name": "7b39b1925babc65dd58cf7bd1ebb9fd0", "is_reserved": 0, "lon": -77.03475166666666, "is_disabled": 0, "fusion_lat": 0.0, "lat": 38.90725033333333, "bike_id": "7b39b1925babc65dd58cf7bd1ebb9fd0", "fusion_lon": 0.0}, {"rental_uris": {"ios": "https://dc.lft.to/lastmile_qr_scan", "android": "https://dc.lft.to/lastmile_qr_scan"}, "type": "electric_scooter", "name": "13c3705a7c5c8fff9c4df84dd5673331", "is_reserved": 0, "lon": -77.04874366666667, "is_disabled": 0, "fusion_lat": 0.0, "lat": 38.9102095, "bike_id": "13c3705a7c5c8fff9c4df84dd5673331", "fusion_lon": 0.0}, {"rental_uris": {"ios": "https://dc.lft.to/lastmile_qr_scan", "android": "https://dc.lft.to/lastmile_qr_scan"}, "type": "electric_scooter", "name": "c908fdfd349f06853cd4c28361b8dd21", "is_reserved": 0, "lon": -77.0222785, "is_disabled": 0, "fusion_lat": 0.0, "lat": 38.924705333333335, "bike_id": "c908fdfd349f06853cd4c28361b8dd21", "fusion_lon": 0.0}, {"rental_uris": {"ios": "https://dc.lft.to/lastmile_qr_scan", "android": "https://dc.lft.to/lastmile_qr_scan"}, "type": "electric_scooter", "name": "1e0b5b5703091fe9340522e45d811969", "is_reserved": 0, "lon": -77.04052616666667, "is_disabled": 0, "fusion_lat": 0.0, "lat": 38.930088, "bike_id": "1e0b5b5703091fe9340522e45d811969", "fusion_lon": 0.0}, {"rental_uris": {"ios": "https://dc.lft.to/lastmile_qr_scan", "android": "https://dc.lft.to/lastmile_qr_scan"}, "type": "electric_scooter", "name": "d9079d8ba3ac0c29d1a41ac865368723", "is_reserved": 0, "lon": -77.02475883333334, "is_disabled": 0, "fusion_lat": 0.0, "lat": 38.89731166666667, "bike_id": "d9079d8ba3ac0c29d1a41ac865368723", "fusion_lon": 0.0}, {"rental_uris": {"ios": "https://dc.lft.to/lastmile_qr_scan", "android": "https://dc.lft.to/lastmile_qr_scan"}, "type": "electric_scooter", "name": "62519747e490a0fe8b4247c2645c6109", "is_reserved": 0, "lon": -76.99509216666667, "is_disabled": 0, "fusion_lat": 0.0, "lat": 38.903266, "bike_id": "62519747e490a0fe8b4247c2645c6109", "fusion_lon": 0.0}, {"rental_uris": {"ios": "https://dc.lft.to/lastmile_qr_scan", "android": "https://dc.lft.to/lastmile_qr_scan"}, "type": "electric_scooter", "name": "76558c82c7d1c40d3d782b75eea9502c", "is_reserved": 0, "lon": -76.93425816666667, "is_disabled": 0, "fusion_lat": 0.0, "lat": 38.89914383333333, "bike_id": "76558c82c7d1c40d3d782b75eea9502c", "fusion_lon": 0.0}, {"rental_uris": {"ios": "https://dc.lft.to/lastmile_qr_scan", "android": "https://dc.lft.to/lastmile_qr_scan"}, "type": "electric_scooter", "name": "d239b30544447dc5c8f3c7b47dae776f", "is_reserved": 0, "lon": -76.99495266666666, "is_disabled": 0, "fusion_lat": 0.0, "lat": 38.86220383333333, "bike_id": "d239b30544447dc5c8f3c7b47dae776f", "fusion_lon": 0.0}, {"rental_uris": {"ios": "https://dc.lft.to/lastmile_qr_scan", "android": "https://dc.lft.to/lastmile_qr_scan"}, "type": "electric_scooter", "name": "02325096f022496ab9753c51d52cb7a9", "is_reserved": 0, "lon": -76.99908, "is_disabled": 0, "fusion_lat": 0.0, "lat": 38.9245595, "bike_id": "02325096f022496ab9753c51d52cb7a9", "fusion_lon": 0.0}, {"rental_uris": {"ios": "https://dc.lft.to/lastmile_qr_scan", "android": "https://dc.lft.to/lastmile_qr_scan"}, "type": "electric_scooter", "name": "c11f95496e541343ba9d73973d5b087b", "is_reserved": 0, "lon": -77.01861016666666, "is_disabled": 0, "fusion_lat": 0.0, "lat": 38.89466016666667, "bike_id": "c11f95496e541343ba9d73973d5b087b", "fusion_lon": 0.0}, {"rental_uris": {"ios": "https://dc.lft.to/lastmile_qr_scan", "android": "https://dc.lft.to/lastmile_qr_scan"}, "type": "electric_scooter", "name": "cfd42bc5cf3265bf9934b1aedc68b4ef", "is_reserved": 0, "lon": -76.99846566666666, "is_disabled": 0, "fusion_lat": 0.0, "lat": 38.92344333333333, "bike_id": "cfd42bc5cf3265bf9934b1aedc68b4ef", "fusion_lon": 0.0}, {"rental_uris": {"ios": "https://dc.lft.to/lastmile_qr_scan", "android": "https://dc.lft.to/lastmile_qr_scan"}, "type": "electric_bike", "name": "70e22610c6e4f1ab7c3e02c1fbfb6494", "is_reserved": 0, "lon": -77.0076165, "is_disabled": 0, "fusion_lat": 0.0, "lat": 38.99783633333333, "bike_id": "70e22610c6e4f1ab7c3e02c1fbfb6494", "fusion_lon": 0.0}, {"rental_uris": {"ios": "https://dc.lft.to/lastmile_qr_scan", "android": "https://dc.lft.to/lastmile_qr_scan"}, "type": "electric_scooter", "name": "364df095c990357a3e47b7c5e2160594", "is_reserved": 0, "lon": -77.010387, "is_disabled": 0, "fusion_lat": 0.0, "lat": 38.91107183333333, "bike_id": "364df095c990357a3e47b7c5e2160594", "fusion_lon": 0.0}, {"rental_uris": {"ios": "https://dc.lft.to/lastmile_qr_scan", "android": "https://dc.lft.to/lastmile_qr_scan"}, "type": "electric_scooter", "name": "5aa13d318ef1d7c39ce4efb19f46abc2", "is_reserved": 0, "lon": -77.00196283333334, "is_disabled": 0, "fusion_lat": 0.0, "lat": 38.892921333333334, "bike_id": "5aa13d318ef1d7c39ce4efb19f46abc2", "fusion_lon": 0.0}, {"rental_uris": {"ios": "https://dc.lft.to/lastmile_qr_scan", "android": "https://dc.lft.to/lastmile_qr_scan"}, "type": "electric_scooter", "name": "b15481a50ac12e442df3149c72963340", "is_reserved": 0, "lon": -77.04234116666667, "is_disabled": 0, "fusion_lat": 0.0, "lat": 38.90581483333333, "bike_id": "b15481a50ac12e442df3149c72963340", "fusion_lon": 0.0}, {"rental_uris": {"ios": "https://dc.lft.to/lastmile_qr_scan", "android": "https://dc.lft.to/lastmile_qr_scan"}, "type": "electric_scooter", "name": "929576f8da1df36a0d8cf20acf97b60f", "is_reserved": 0, "lon": -77.02821033333333, "is_disabled": 0, "fusion_lat": 0.0, "lat": 38.89976733333334, "bike_id": "929576f8da1df36a0d8cf20acf97b60f", "fusion_lon": 0.0}, {"rental_uris": {"ios": "https://dc.lft.to/lastmile_qr_scan", "android": "https://dc.lft.to/lastmile_qr_scan"}, "type": "electric_scooter", "name": "ba1b81ac2451d99d8283c18472e73bd5", "is_reserved": 0, "lon": -77.031759, "is_disabled": 0, "fusion_lat": 0.0, "lat": 38.920260666666664, "bike_id": "ba1b81ac2451d99d8283c18472e73bd5", "fusion_lon": 0.0}, {"rental_uris": {"ios": "https://dc.lft.to/lastmile_qr_scan", "android": "https://dc.lft.to/lastmile_qr_scan"}, "type": "electric_scooter", "name": "04ddefa1fae28e50c8ff555ff274d83f", "is_reserved": 0, "lon": -77.03377733333333, "is_disabled": 0, "fusion_lat": 0.0, "lat": 38.899195666666664, "bike_id": "04ddefa1fae28e50c8ff555ff274d83f", "fusion_lon": 0.0}, {"rental_uris": {"ios": "https://dc.lft.to/lastmile_qr_scan", "android": "https://dc.lft.to/lastmile_qr_scan"}, "type": "electric_scooter", "name": "05d0224d192afd65eaace1d01b8d87a2", "is_reserved": 0, "lon": -77.03905833333333, "is_disabled": 0, "fusion_lat": 0.0, "lat": 38.91263216666667, "bike_id": "05d0224d192afd65eaace1d01b8d87a2", "fusion_lon": 0.0}, {"rental_uris": {"ios": "https://dc.lft.to/lastmile_qr_scan", "android": "https://dc.lft.to/lastmile_qr_scan"}, "type": "electric_scooter", "name": "d5d1a5ff3d646272354a7c2781165e4a", "is_reserved": 0, "lon": -77.02707333333333, "is_disabled": 0, "fusion_lat": 0.0, "lat": 38.904506833333336, "bike_id": "d5d1a5ff3d646272354a7c2781165e4a", "fusion_lon": 0.0}, {"rental_uris": {"ios": "https://dc.lft.to/lastmile_qr_scan", "android": "https://dc.lft.to/lastmile_qr_scan"}, "type": "electric_scooter", "name": "7d655b0ee9016dafdf3b6dfc715ea543", "is_reserved": 0, "lon": -77.04550916666666, "is_disabled": 0, "fusion_lat": 0.0, "lat": 38.93387833333333, "bike_id": "7d655b0ee9016dafdf3b6dfc715ea543", "fusion_lon": 0.0}, {"rental_uris": {"ios": "https://dc.lft.to/lastmile_qr_scan", "android": "https://dc.lft.to/lastmile_qr_scan"}, "type": "electric_scooter", "name": "798c7a0d642c987266121ae8d4a425d4", "is_reserved": 0, "lon": -77.04464616666667, "is_disabled": 0, "fusion_lat": 0.0, "lat": 38.914339166666664, "bike_id": "798c7a0d642c987266121ae8d4a425d4", "fusion_lon": 0.0}, {"rental_uris": {"ios": "https://dc.lft.to/lastmile_qr_scan", "android": "https://dc.lft.to/lastmile_qr_scan"}, "type": "electric_scooter", "name": "cb7d4726e1704cb915a8917892abc627", "is_reserved": 0, "lon": -77.01986633333334, "is_disabled": 0, "fusion_lat": 0.0, "lat": 38.88722716666667, "bike_id": "cb7d4726e1704cb915a8917892abc627", "fusion_lon": 0.0}, {"rental_uris": {"ios": "https://dc.lft.to/lastmile_qr_scan", "android": "https://dc.lft.to/lastmile_qr_scan"}, "type": "electric_scooter", "name": "c2366305c995c592f3f9a5333d5086ad", "is_reserved": 0, "lon": -77.035459, "is_disabled": 0, "fusion_lat": 0.0, "lat": 38.9187245, "bike_id": "c2366305c995c592f3f9a5333d5086ad", "fusion_lon": 0.0}, {"rental_uris": {"ios": "https://dc.lft.to/lastmile_qr_scan", "android": "https://dc.lft.to/lastmile_qr_scan"}, "type": "electric_scooter", "name": "907ae42587f7e62fb2f42391f81bc73b", "is_reserved": 0, "lon": -77.05600233333334, "is_disabled": 0, "fusion_lat": 0.0, "lat": 38.9369415, "bike_id": "907ae42587f7e62fb2f42391f81bc73b", "fusion_lon": 0.0}, {"rental_uris": {"ios": "https://dc.lft.to/lastmile_qr_scan", "android": "https://dc.lft.to/lastmile_qr_scan"}, "type": "electric_scooter", "name": "b1c6eb8d5c8857d47c8ec5a337e089b4", "is_reserved": 0, "lon": -77.00759483333333, "is_disabled": 0, "fusion_lat": 0.0, "lat": 38.92675166666667, "bike_id": "b1c6eb8d5c8857d47c8ec5a337e089b4", "fusion_lon": 0.0}, {"rental_uris": {"ios": "https://dc.lft.to/lastmile_qr_scan", "android": "https://dc.lft.to/lastmile_qr_scan"}, "type": "electric_scooter", "name": "4c37993cbf3ac49193401c557e86d2fd", "is_reserved": 0, "lon": -77.03659716666667, "is_disabled": 0, "fusion_lat": 0.0, "lat": 38.91763316666667, "bike_id": "4c37993cbf3ac49193401c557e86d2fd", "fusion_lon": 0.0}, {"rental_uris": {"ios": "https://dc.lft.to/lastmile_qr_scan", "android": "https://dc.lft.to/lastmile_qr_scan"}, "type": "electric_bike", "name": "07a1c8c6a8988d5a2e46b947350b5051", "is_reserved": 0, "lon": -76.97344366666667, "is_disabled": 0, "fusion_lat": 0.0, "lat": 38.89723433333333, "bike_id": "07a1c8c6a8988d5a2e46b947350b5051", "fusion_lon": 0.0}, {"rental_uris": {"ios": "https://dc.lft.to/lastmile_qr_scan", "android": "https://dc.lft.to/lastmile_qr_scan"}, "type": "electric_scooter", "name": "689e6037632d60824404e7dc9cdf42de", "is_reserved": 0, "lon": -77.00460266666667, "is_disabled": 0, "fusion_lat": 0.0, "lat": 38.92077716666667, "bike_id": "689e6037632d60824404e7dc9cdf42de", "fusion_lon": 0.0}, {"rental_uris": {"ios": "https://dc.lft.to/lastmile_qr_scan", "android": "https://dc.lft.to/lastmile_qr_scan"}, "type": "electric_scooter", "name": "568c2dd8bf0015ba417dbd9efdac6b26", "is_reserved": 0, "lon": -77.04506533333333, "is_disabled": 0, "fusion_lat": 0.0, "lat": 38.89250833333333, "bike_id": "568c2dd8bf0015ba417dbd9efdac6b26", "fusion_lon": 0.0}, {"rental_uris": {"ios": "https://dc.lft.to/lastmile_qr_scan", "android": "https://dc.lft.to/lastmile_qr_scan"}, "type": "electric_scooter", "name": "a460166f7116b292b52c33e45dfe1398", "is_reserved": 0, "lon": -77.0353745, "is_disabled": 0, "fusion_lat": 0.0, "lat": 38.9047375, "bike_id": "a460166f7116b292b52c33e45dfe1398", "fusion_lon": 0.0}, {"rental_uris": {"ios": "https://dc.lft.to/lastmile_qr_scan", "android": "https://dc.lft.to/lastmile_qr_scan"}, "type": "electric_scooter", "name": "8a3d40d0fd39814f5819a696c1265b06", "is_reserved": 0, "lon": -77.03837966666667, "is_disabled": 0, "fusion_lat": 0.0, "lat": 38.91075333333333, "bike_id": "8a3d40d0fd39814f5819a696c1265b06", "fusion_lon": 0.0}, {"rental_uris": {"ios": "https://dc.lft.to/lastmile_qr_scan", "android": "https://dc.lft.to/lastmile_qr_scan"}, "type": "electric_scooter", "name": "e28f2677316664c5042b6145223c62a5", "is_reserved": 0, "lon": -77.01765333333333, "is_disabled": 0, "fusion_lat": 0.0, "lat": 38.883219, "bike_id": "e28f2677316664c5042b6145223c62a5", "fusion_lon": 0.0}, {"rental_uris": {"ios": "https://dc.lft.to/lastmile_qr_scan", "android": "https://dc.lft.to/lastmile_qr_scan"}, "type": "electric_scooter", "name": "eee9f7bb80b60206db317559ae307e26", "is_reserved": 0, "lon": -77.0593385, "is_disabled": 0, "fusion_lat": 0.0, "lat": 38.943048833333336, "bike_id": "eee9f7bb80b60206db317559ae307e26", "fusion_lon": 0.0}, {"rental_uris": {"ios": "https://dc.lft.to/lastmile_qr_scan", "android": "https://dc.lft.to/lastmile_qr_scan"}, "type": "electric_scooter", "name": "44e2440b60741a2efb8abeb4d598954b", "is_reserved": 0, "lon": -77.00714833333333, "is_disabled": 0, "fusion_lat": 0.0, "lat": 38.88487383333333, "bike_id": "44e2440b60741a2efb8abeb4d598954b", "fusion_lon": 0.0}, {"rental_uris": {"ios": "https://dc.lft.to/lastmile_qr_scan", "android": "https://dc.lft.to/lastmile_qr_scan"}, "type": "electric_scooter", "name": "1846c406e621d561fecd6f71edb7d085", "is_reserved": 0, "lon": -77.03888066666667, "is_disabled": 0, "fusion_lat": 0.0, "lat": 38.933714, "bike_id": "1846c406e621d561fecd6f71edb7d085", "fusion_lon": 0.0}, {"rental_uris": {"ios": "https://dc.lft.to/lastmile_qr_scan", "android": "https://dc.lft.to/lastmile_qr_scan"}, "type": "electric_scooter", "name": "5175cfbea6592c0074ea08855440200c", "is_reserved": 0, "lon": -77.0108405, "is_disabled": 0, "fusion_lat": 0.0, "lat": 38.903302833333335, "bike_id": "5175cfbea6592c0074ea08855440200c", "fusion_lon": 0.0}, {"rental_uris": {"ios": "https://dc.lft.to/lastmile_qr_scan", "android": "https://dc.lft.to/lastmile_qr_scan"}, "type": "electric_bike", "name": "242e4932106ff37da3234545c51cb496", "is_reserved": 0, "lon": -77.02292416666667, "is_disabled": 0, "fusion_lat": 0.0, "lat": 38.92706966666667, "bike_id": "242e4932106ff37da3234545c51cb496", "fusion_lon": 0.0}, {"rental_uris": {"ios": "https://dc.lft.to/lastmile_qr_scan", "android": "https://dc.lft.to/lastmile_qr_scan"}, "type": "electric_bike", "name": "26d0b30057f4f8b54dbc9f76ade10b6e", "is_reserved": 0, "lon": -76.997973, "is_disabled": 0, "fusion_lat": 0.0, "lat": 38.88123133333333, "bike_id": "26d0b30057f4f8b54dbc9f76ade10b6e", "fusion_lon": 0.0}, {"rental_uris": {"ios": "https://dc.lft.to/lastmile_qr_scan", "android": "https://dc.lft.to/lastmile_qr_scan"}, "type": "electric_scooter", "name": "a4ec640f8c86283e1b479102d1bd2793", "is_reserved": 0, "lon": -77.04996483333333, "is_disabled": 0, "fusion_lat": 0.0, "lat": 38.904711666666664, "bike_id": "a4ec640f8c86283e1b479102d1bd2793", "fusion_lon": 0.0}, {"rental_uris": {"ios": "https://dc.lft.to/lastmile_qr_scan", "android": "https://dc.lft.to/lastmile_qr_scan"}, "type": "electric_scooter", "name": "c6f8ec18ad50732410e3861f432057a8", "is_reserved": 0, "lon": -76.98374766666667, "is_disabled": 0, "fusion_lat": 0.0, "lat": 38.86034566666667, "bike_id": "c6f8ec18ad50732410e3861f432057a8", "fusion_lon": 0.0}, {"rental_uris": {"ios": "https://dc.lft.to/lastmile_qr_scan", "android": "https://dc.lft.to/lastmile_qr_scan"}, "type": "electric_scooter", "name": "e05bac36ef94e9de6780d834620fbe89", "is_reserved": 0, "lon": -77.022868, "is_disabled": 0, "fusion_lat": 0.0, "lat": 38.9208225, "bike_id": "e05bac36ef94e9de6780d834620fbe89", "fusion_lon": 0.0}, {"rental_uris": {"ios": "https://dc.lft.to/lastmile_qr_scan", "android": "https://dc.lft.to/lastmile_qr_scan"}, "type": "electric_scooter", "name": "8cf592f6a593436a39b906d5da3ccc39", "is_reserved": 0, "lon": -77.03560483333334, "is_disabled": 0, "fusion_lat": 0.0, "lat": 38.90463616666667, "bike_id": "8cf592f6a593436a39b906d5da3ccc39", "fusion_lon": 0.0}, {"rental_uris": {"ios": "https://dc.lft.to/lastmile_qr_scan", "android": "https://dc.lft.to/lastmile_qr_scan"}, "type": "electric_scooter", "name": "48118f4d57f6588968e49c77464c5235", "is_reserved": 0, "lon": -77.04794166666667, "is_disabled": 0, "fusion_lat": 0.0, "lat": 38.89772683333333, "bike_id": "48118f4d57f6588968e49c77464c5235", "fusion_lon": 0.0}, {"rental_uris": {"ios": "https://dc.lft.to/lastmile_qr_scan", "android": "https://dc.lft.to/lastmile_qr_scan"}, "type": "electric_scooter", "name": "dc4f48e533981dec78c691df2f7d982c", "is_reserved": 0, "lon": -77.02246866666667, "is_disabled": 0, "fusion_lat": 0.0, "lat": 38.9267595, "bike_id": "dc4f48e533981dec78c691df2f7d982c", "fusion_lon": 0.0}, {"rental_uris": {"ios": "https://dc.lft.to/lastmile_qr_scan", "android": "https://dc.lft.to/lastmile_qr_scan"}, "type": "electric_scooter", "name": "8e3d9356aa0348455a004fbaead28d75", "is_reserved": 0, "lon": -77.01533483333333, "is_disabled": 0, "fusion_lat": 0.0, "lat": 38.879548, "bike_id": "8e3d9356aa0348455a004fbaead28d75", "fusion_lon": 0.0}, {"rental_uris": {"ios": "https://dc.lft.to/lastmile_qr_scan", "android": "https://dc.lft.to/lastmile_qr_scan"}, "type": "electric_scooter", "name": "85862c20f82231d8726244e5b916fcb6", "is_reserved": 0, "lon": -77.00921283333334, "is_disabled": 0, "fusion_lat": 0.0, "lat": 38.89744233333333, "bike_id": "85862c20f82231d8726244e5b916fcb6", "fusion_lon": 0.0}, {"rental_uris": {"ios": "https://dc.lft.to/lastmile_qr_scan", "android": "https://dc.lft.to/lastmile_qr_scan"}, "type": "electric_scooter", "name": "0d617f110bf6c7817e9c42c1815dd521", "is_reserved": 0, "lon": -77.032021, "is_disabled": 0, "fusion_lat": 0.0, "lat": 38.907048833333334, "bike_id": "0d617f110bf6c7817e9c42c1815dd521", "fusion_lon": 0.0}, {"rental_uris": {"ios": "https://dc.lft.to/lastmile_qr_scan", "android": "https://dc.lft.to/lastmile_qr_scan"}, "type": "electric_scooter", "name": "03538c94198930aad34289c5579f5d98", "is_reserved": 0, "lon": -77.02185866666666, "is_disabled": 0, "fusion_lat": 0.0, "lat": 38.91978983333333, "bike_id": "03538c94198930aad34289c5579f5d98", "fusion_lon": 0.0}, {"rental_uris": {"ios": "https://dc.lft.to/lastmile_qr_scan", "android": "https://dc.lft.to/lastmile_qr_scan"}, "type": "electric_scooter", "name": "56025dcdcb956ba7c0398325378cb226", "is_reserved": 0, "lon": -77.01224916666666, "is_disabled": 0, "fusion_lat": 0.0, "lat": 38.900766, "bike_id": "56025dcdcb956ba7c0398325378cb226", "fusion_lon": 0.0}, {"rental_uris": {"ios": "https://dc.lft.to/lastmile_qr_scan", "android": "https://dc.lft.to/lastmile_qr_scan"}, "type": "electric_scooter", "name": "59cae9b27fe6add95e648bb7724dc253", "is_reserved": 0, "lon": -76.93387583333333, "is_disabled": 0, "fusion_lat": 0.0, "lat": 38.89906333333333, "bike_id": "59cae9b27fe6add95e648bb7724dc253", "fusion_lon": 0.0}, {"rental_uris": {"ios": "https://dc.lft.to/lastmile_qr_scan", "android": "https://dc.lft.to/lastmile_qr_scan"}, "type": "electric_scooter", "name": "4c9d07ea493fb8484b3d706cd1bef6a2", "is_reserved": 0, "lon": -77.05824933333334, "is_disabled": 0, "fusion_lat": 0.0, "lat": 38.905127666666665, "bike_id": "4c9d07ea493fb8484b3d706cd1bef6a2", "fusion_lon": 0.0}, {"rental_uris": {"ios": "https://dc.lft.to/lastmile_qr_scan", "android": "https://dc.lft.to/lastmile_qr_scan"}, "type": "electric_scooter", "name": "7598b8c2168027a5509f649ffd9d4f0a", "is_reserved": 0, "lon": -76.983228, "is_disabled": 0, "fusion_lat": 0.0, "lat": 38.8782905, "bike_id": "7598b8c2168027a5509f649ffd9d4f0a", "fusion_lon": 0.0}, {"rental_uris": {"ios": "https://dc.lft.to/lastmile_qr_scan", "android": "https://dc.lft.to/lastmile_qr_scan"}, "type": "electric_scooter", "name": "2ae70da4d3e33474c63c0bca9e3f4a46", "is_reserved": 0, "lon": -76.987032, "is_disabled": 0, "fusion_lat": 0.0, "lat": 38.85963616666667, "bike_id": "2ae70da4d3e33474c63c0bca9e3f4a46", "fusion_lon": 0.0}, {"rental_uris": {"ios": "https://dc.lft.to/lastmile_qr_scan", "android": "https://dc.lft.to/lastmile_qr_scan"}, "type": "electric_scooter", "name": "2f7224cc058de10c9129efeb507b726d", "is_reserved": 0, "lon": -77.046589, "is_disabled": 0, "fusion_lat": 0.0, "lat": 38.921264666666666, "bike_id": "2f7224cc058de10c9129efeb507b726d", "fusion_lon": 0.0}, {"rental_uris": {"ios": "https://dc.lft.to/lastmile_qr_scan", "android": "https://dc.lft.to/lastmile_qr_scan"}, "type": "electric_scooter", "name": "5879e1f4c7b0f23d0c00e3457f58a5df", "is_reserved": 0, "lon": -77.0147935, "is_disabled": 0, "fusion_lat": 0.0, "lat": 38.943339333333334, "bike_id": "5879e1f4c7b0f23d0c00e3457f58a5df", "fusion_lon": 0.0}, {"rental_uris": {"ios": "https://dc.lft.to/lastmile_qr_scan", "android": "https://dc.lft.to/lastmile_qr_scan"}, "type": "electric_scooter", "name": "d35e07de5ade9813ffb7ee732fe66e32", "is_reserved": 0, "lon": -77.0413985, "is_disabled": 0, "fusion_lat": 0.0, "lat": 38.93043466666666, "bike_id": "d35e07de5ade9813ffb7ee732fe66e32", "fusion_lon": 0.0}, {"rental_uris": {"ios": "https://dc.lft.to/lastmile_qr_scan", "android": "https://dc.lft.to/lastmile_qr_scan"}, "type": "electric_scooter", "name": "69b7881b9ada1b29999f8526d886ccf5", "is_reserved": 0, "lon": -76.97358516666667, "is_disabled": 0, "fusion_lat": 0.0, "lat": 38.85006816666667, "bike_id": "69b7881b9ada1b29999f8526d886ccf5", "fusion_lon": 0.0}, {"rental_uris": {"ios": "https://dc.lft.to/lastmile_qr_scan", "android": "https://dc.lft.to/lastmile_qr_scan"},