{"data": {"bikes": [{"type": "electric_scooter", "rental_uris": {"ios": "https://dc.lft.to/lastmile_qr_scan", "android": "https://dc.lft.to/lastmile_qr_scan"}, "lon": -76.94634916666666, "fusion_lon": 0.0, "is_disabled": 0, "lat": 38.898453, "bike_id": "72baf10f1dc04c53949dffee388b6f80", "name": "72baf10f1dc04c53949dffee388b6f80", "is_reserved": 0, "fusion_lat": 0.0}, {"type": "electric_scooter", "rental_uris": {"ios": "https://dc.lft.to/lastmile_qr_scan", "android": "https://dc.lft.to/lastmile_qr_scan"}, "lon": -77.04599133333333, "fusion_lon": 0.0, "is_disabled": 0, "lat": 38.91864233333333, "bike_id": "7afd2b43e22faf9fb79d870c35701c2a", "name": "7afd2b43e22faf9fb79d870c35701c2a", "is_reserved": 0, "fusion_lat": 0.0}, {"type": "electric_scooter", "rental_uris": {"ios": "https://dc.lft.to/lastmile_qr_scan", "android": "https://dc.lft.to/lastmile_qr_scan"}, "lon": -77.02751983333333, "fusion_lon": 0.0, "is_disabled": 0, "lat": 38.95778883333333, "bike_id": "e16d9abc05b30a27effdb13c4f63150a", "name": "e16d9abc05b30a27effdb13c4f63150a", "is_reserved": 0, "fusion_lat": 0.0}, {"type": "electric_scooter", "rental_uris": {"ios": "https://dc.lft.to/lastmile_qr_scan", "android": "https://dc.lft.to/lastmile_qr_scan"}, "lon": -77.03509583333333, "fusion_lon": 0.0, "is_disabled": 0, "lat": 38.92150266666667, "bike_id": "d6633b696cd982d65843763ac405c0c6", "name": "d6633b696cd982d65843763ac405c0c6", "is_reserved": 0, "fusion_lat": 0.0}, {"type": "electric_bike", "rental_uris": {"ios": "https://dc.lft.to/lastmile_qr_scan", "android": "https://dc.lft.to/lastmile_qr_scan"}, "lon": -76.9869305, "fusion_lon": 0.0, "is_disabled": 0, "lat": 38.944745166666664, "bike_id": "e7a8c160e9752eab9156a7d6a5ba6011", "name": "e7a8c160e9752eab9156a7d6a5ba6011", "is_reserved": 0, "fusion_lat": 0.0}, {"type": "electric_scooter", "rental_uris": {"ios": "https://dc.lft.to/lastmile_qr_scan", "android": "https://dc.lft.to/lastmile_qr_scan"}, "lon": -77.0523555, "fusion_lon": 0.0, "is_disabled": 0, "lat": 38.924622166666666, "bike_id": "95981ce79f3925edc0a0a7552353f3ca", "name": "95981ce79f3925edc0a0a7552353f3ca", "is_reserved": 0, "fusion_lat": 0.0}, {"type": "electric_scooter", "rental_uris": {"ios": "https://dc.lft.to/lastmile_qr_scan", "android": "https://dc.lft.to/lastmile_qr_scan"}, "lon": -77.029874, "fusion_lon": 0.0, "is_disabled": 0, "lat": 38.922393666666665, "bike_id": "e7de39cb3359ff20483c730f481a828f", "name": "e7de39cb3359ff20483c730f481a828f", "is_reserved": 0, "fusion_lat": 0.0}, {"type": "electric_scooter", "rental_uris": {"ios": "https://dc.lft.to/lastmile_qr_scan", "android": "https://dc.lft.to/lastmile_qr_scan"}, "lon": -76.9575855, "fusion_lon": 0.0, "is_disabled": 0, "lat": 38.884286833333334, "bike_id": "148cac648ed629df53d0910416f10ddd", "name": "148cac648ed629df53d0910416f10ddd", "is_reserved": 0, "fusion_lat": 0.0}, {"type": "electric_scooter", "rental_uris": {"ios": "https://dc.lft.to/lastmile_qr_scan", "android": "https://dc.lft.to/lastmile_qr_scan"}, "lon": -77.02181816666666, "fusion_lon": 0.0, "is_disabled": 0, "lat": 38.892990166666664, "bike_id": "0bc4ee7403d37b9b3244e05aa8a4e46f", "name": "0bc4ee7403d37b9b3244e05aa8a4e46f", "is_reserved": 0, "fusion_lat": 0.0}, {"type": "electric_scooter", "rental_uris": {"ios": "https://dc.lft.to/lastmile_qr_scan", "android": "https://dc.lft.to/lastmile_qr_scan"}, "lon": -77.024316, "fusion_lon": 0.0, "is_disabled": 0, "lat": 38.927551, "bike_id": "fdcd814a2383143f45385de3546f50f5", "name": "fdcd814a2383143f45385de3546f50f5", "is_reserved": 0, "fusion_lat": 0.0}, {"type": "electric_scooter", "rental_uris": {"ios": "https://dc.lft.to/lastmile_qr_scan", "android": "https://dc.lft.to/lastmile_qr_scan"}, "lon": -77.03440666666667, "fusion_lon": 0.0, "is_disabled": 0, "lat": 38.90972766666667, "bike_id": "e3c3df3fb5edd567f02044acceec1464", "name": "e3c3df3fb5edd567f02044acceec1464", "is_reserved": 0, "fusion_lat": 0.0}, {"type": "electric_scooter", "rental_uris": {"ios": "https://dc.lft.to/lastmile_qr_scan", "android": "https://dc.lft.to/lastmile_qr_scan"}, "lon": -77.032636, "fusion_lon": 0.0, "is_disabled": 0, "lat": 38.919888, "bike_id": "d3a4db4b048d35eb1347083d26d8fd37", "name": "d3a4db4b048d35eb1347083d26d8fd37", "is_reserved": 0, "fusion_lat": 0.0}, {"type": "electric_scooter", "rental_uris": {"ios": "https://dc.lft.to/lastmile_qr_scan", "android": "https://dc.lft.to/lastmile_qr_scan"}, "lon": -77.04931916666666, "fusion_lon": 0.0, "is_disabled": 0, "lat": 38.9008215, "bike_id": "f7f0f2904c5c480686bbaf528f9c10a3", "name": "f7f0f2904c5c480686bbaf528f9c10a3", "is_reserved": 0, "fusion_lat": 0.0}, {"type": "electric_scooter", "rental_uris": {"ios": "https://dc.lft.to/lastmile_qr_scan", "android": "https://dc.lft.to/lastmile_qr_scan"}, "lon": -77.0344715, "fusion_lon": 0.0, "is_disabled": 0, "lat": 38.909771, "bike_id": "74285c0a00c345a518c45766580b2523", "name": "74285c0a00c345a518c45766580b2523", "is_reserved": 0, "fusion_lat": 0.0}, {"type": "electric_scooter", "rental_uris": {"ios": "https://dc.lft.to/lastmile_qr_scan", "android": "https://dc.lft.to/lastmile_qr_scan"}, "lon": -76.94638216666667, "fusion_lon": 0.0, "is_disabled": 0, "lat": 38.89844083333333, "bike_id": "763884f5b669a9e460fb36f1d7b67d66", "name": "763884f5b669a9e460fb36f1d7b67d66", "is_reserved": 0, "fusion_lat": 0.0}, {"type": "electric_scooter", "rental_uris": {"ios": "https://dc.lft.to/lastmile_qr_scan", "android": "https://dc.lft.to/lastmile_qr_scan"}, "lon": -77.05126683333333, "fusion_lon": 0.0, "is_disabled": 0, "lat": 38.902154333333336, "bike_id": "9b8e8692bc30761171b6e7dcc72cee28", "name": "9b8e8692bc30761171b6e7dcc72cee28", "is_reserved": 0, "fusion_lat": 0.0}, {"type": "electric_scooter", "rental_uris": {"ios": "https://dc.lft.to/lastmile_qr_scan", "android": "https://dc.lft.to/lastmile_qr_scan"}, "lon": -77.0242865, "fusion_lon": 0.0, "is_disabled": 0, "lat": 38.91928766666667, "bike_id": "f57ea60badd11c407f015dcf9ae7e5ed", "name": "f57ea60badd11c407f015dcf9ae7e5ed", "is_reserved": 0, "fusion_lat": 0.0}, {"type": "electric_scooter", "rental_uris": {"ios": "https://dc.lft.to/lastmile_qr_scan", "android": "https://dc.lft.to/lastmile_qr_scan"}, "lon": -76.95757266666666, "fusion_lon": 0.0, "is_disabled": 0, "lat": 38.884283333333336, "bike_id": "d9ee59a7b5af0b304dde451f37074560", "name": "d9ee59a7b5af0b304dde451f37074560", "is_reserved": 0, "fusion_lat": 0.0}, {"type": "electric_scooter", "rental_uris": {"ios": "https://dc.lft.to/lastmile_qr_scan", "android": "https://dc.lft.to/lastmile_qr_scan"}, "lon": -77.02318566666666, "fusion_lon": 0.0, "is_disabled": 0, "lat": 38.916758, "bike_id": "1d0a660845df70ca1b283006e7ac29c1", "name": "1d0a660845df70ca1b283006e7ac29c1", "is_reserved": 0, "fusion_lat": 0.0}, {"type": "electric_bike", "rental_uris": {"ios": "https://dc.lft.to/lastmile_qr_scan", "android": "https://dc.lft.to/lastmile_qr_scan"}, "lon": -76.93700216666667, "fusion_lon": 0.0, "is_disabled": 0, "lat": 38.871451666666665, "bike_id": "b73b99fb2c9103603f378071f35b9fb7", "name": "b73b99fb2c9103603f378071f35b9fb7", "is_reserved": 0, "fusion_lat": 0.0}, {"type": "electric_scooter", "rental_uris": {"ios": "https://dc.lft.to/lastmile_qr_scan", "android": "https://dc.lft.to/lastmile_qr_scan"}, "lon": -77.02235833333333, "fusion_lon": 0.0, "is_disabled": 0, "lat": 38.961369, "bike_id": "5f96977731367aa33f2efd69de8dfe2d", "name": "5f96977731367aa33f2efd69de8dfe2d", "is_reserved": 0, "fusion_lat": 0.0}, {"type": "electric_scooter", "rental_uris": {"ios": "https://dc.lft.to/lastmile_qr_scan", "android": "https://dc.lft.to/lastmile_qr_scan"}, "lon": -76.99778533333334, "fusion_lon": 0.0, "is_disabled": 0, "lat": 38.84429516666667, "bike_id": "d78cce1391ba5d4acf3c815677435402", "name": "d78cce1391ba5d4acf3c815677435402", "is_reserved": 0, "fusion_lat": 0.0}, {"type": "electric_bike", "rental_uris": {"ios": "https://dc.lft.to/lastmile_qr_scan", "android": "https://dc.lft.to/lastmile_qr_scan"}, "lon": -76.97086083333333, "fusion_lon": 0.0, "is_disabled": 0, "lat": 38.8573375, "bike_id": "97d8c8a74d3b641debf56365f3ca98c9", "name": "97d8c8a74d3b641debf56365f3ca98c9", "is_reserved": 0, "fusion_lat": 0.0}, {"type": "electric_scooter", "rental_uris": {"ios": "https://dc.lft.to/lastmile_qr_scan", "android": "https://dc.lft.to/lastmile_qr_scan"}, "lon": -77.04769083333333, "fusion_lon": 0.0, "is_disabled": 0, "lat": 38.91769083333333, "bike_id": "ccf95fb88305e9e176d1336cb4463655", "name": "ccf95fb88305e9e176d1336cb4463655", "is_reserved": 0, "fusion_lat": 0.0}, {"type": "electric_scooter", "rental_uris": {"ios": "https://dc.lft.to/lastmile_qr_scan", "android": "https://dc.lft.to/lastmile_qr_scan"}, "lon": -76.93988916666666, "fusion_lon": 0.0, "is_disabled": 0, "lat": 38.8997755, "bike_id": "b1ec5af844817dcf1a7da0fb1e835c72", "name": "b1ec5af844817dcf1a7da0fb1e835c72", "is_reserved": 0, "fusion_lat": 0.0}, {"type": "electric_scooter", "rental_uris": {"ios": "https://dc.lft.to/lastmile_qr_scan", "android": "https://dc.lft.to/lastmile_qr_scan"}, "lon": -77.03380916666667, "fusion_lon": 0.0, "is_disabled": 0, "lat": 38.892308, "bike_id": "18310533a2d9f432d1972131d3fa165e", "name": "18310533a2d9f432d1972131d3fa165e", "is_reserved": 0, "fusion_lat": 0.0}, {"type": "electric_scooter", "rental_uris": {"ios": "https://dc.lft.to/lastmile_qr_scan", "android": "https://dc.lft.to/lastmile_qr_scan"}, "lon": -77.0301345, "fusion_lon": 0.0, "is_disabled": 0, "lat": 38.922462, "bike_id": "5e8ec29f721a4ef764ca4721bc9cbff3", "name": "5e8ec29f721a4ef764ca4721bc9cbff3", "is_reserved": 0, "fusion_lat": 0.0}, {"type": "electric_scooter", "rental_uris": {"ios": "https://dc.lft.to/lastmile_qr_scan", "android": "https://dc.lft.to/lastmile_qr_scan"}, "lon": -77.01893966666667, "fusion_lon": 0.0, "is_disabled": 0, "lat": 38.92371766666667, "bike_id": "80ed60bae552eddd6a95e37b97f5f493", "name": "80ed60bae552eddd6a95e37b97f5f493", "is_reserved": 0, "fusion_lat": 0.0}, {"type": "electric_scooter", "rental_uris": {"ios": "https://dc.lft.to/lastmile_qr_scan", "android": "https://dc.lft.to/lastmile_qr_scan"}, "lon": -76.99775866666667, "fusion_lon": 0.0, "is_disabled": 0, "lat": 38.844246, "bike_id": "efb28cafcda968ecfe17bc6f9380ad39", "name": "efb28cafcda968ecfe17bc6f9380ad39", "is_reserved": 0, "fusion_lat": 0.0}, {"type": "electric_bike", "rental_uris": {"ios": "https://dc.lft.to/lastmile_qr_scan", "android": "https://dc.lft.to/lastmile_qr_scan"}, "lon": -77.0657115, "fusion_lon": 0.0, "is_disabled": 0, "lat": 38.869965, "bike_id": "27e675c9b41b40708f7e09672df650ba", "name": "27e675c9b41b40708f7e09672df650ba", "is_reserved": 0, "fusion_lat": 0.0}, {"type": "electric_scooter", "rental_uris": {"ios": "https://dc.lft.to/lastmile_qr_scan", "android": "https://dc.lft.to/lastmile_qr_scan"}, "lon": -77.03827566666666, "fusion_lon": 0.0, "is_disabled": 0, "lat": 38.9110675, "bike_id": "639d3234b30ab184ed7d222bbe439ea4", "name": "639d3234b30ab184ed7d222bbe439ea4", "is_reserved": 0, "fusion_lat": 0.0}, {"type": "electric_scooter", "rental_uris": {"ios": "https://dc.lft.to/lastmile_qr_scan", "android": "https://dc.lft.to/lastmile_qr_scan"}, "lon": -77.0153555, "fusion_lon": 0.0, "is_disabled": 0, "lat": 38.887366666666665, "bike_id": "3abff0268fe4baeaf59d1c2bdf7a3b36", "name": "3abff0268fe4baeaf59d1c2bdf7a3b36", "is_reserved": 0, "fusion_lat": 0.0}, {"type": "electric_scooter", "rental_uris": {"ios": "https://dc.lft.to/lastmile_qr_scan", "android": "https://dc.lft.to/lastmile_qr_scan"}, "lon": -77.0153705, "fusion_lon": 0.0, "is_disabled": 0, "lat": 38.88407866666667, "bike_id": "54e5affb0a0b705da7d862667965d37e", "name": "54e5affb0a0b705da7d862667965d37e", "is_reserved": 0, "fusion_lat": 0.0}, {"type": "electric_scooter", "rental_uris": {"ios": "https://dc.lft.to/lastmile_qr_scan", "android": "https://dc.lft.to/lastmile_qr_scan"}, "lon": -77.031601, "fusion_lon": 0.0, "is_disabled": 0, "lat": 38.897761833333334, "bike_id": "feffd0e48dac0ae61f9f4e9626304b90", "name": "feffd0e48dac0ae61f9f4e9626304b90", "is_reserved": 0, "fusion_lat": 0.0}, {"type": "electric_scooter", "rental_uris": {"ios": "https://dc.lft.to/lastmile_qr_scan", "android": "https://dc.lft.to/lastmile_qr_scan"}, "lon": -77.02529333333334, "fusion_lon": 0.0, "is_disabled": 0, "lat": 38.912695, "bike_id": "57938b3d46ebcf27c20ce2dd3c46360a", "name": "57938b3d46ebcf27c20ce2dd3c46360a", "is_reserved": 0, "fusion_lat": 0.0}, {"type": "electric_scooter", "rental_uris": {"ios": "https://dc.lft.to/lastmile_qr_scan", "android": "https://dc.lft.to/lastmile_qr_scan"}, "lon": -77.03664866666666, "fusion_lon": 0.0, "is_disabled": 0, "lat": 38.92135483333333, "bike_id": "8b028a70881b8d448a23d54319614f8d", "name": "8b028a70881b8d448a23d54319614f8d", "is_reserved": 0, "fusion_lat": 0.0}, {"type": "electric_scooter", "rental_uris": {"ios": "https://dc.lft.to/lastmile_qr_scan", "android": "https://dc.lft.to/lastmile_qr_scan"}, "lon": -77.04381983333333, "fusion_lon": 0.0, "is_disabled": 0, "lat": 38.9210415, "bike_id": "c8c51d6f51440e1c6f0bfd763605865c", "name": "c8c51d6f51440e1c6f0bfd763605865c", "is_reserved": 0, "fusion_lat": 0.0}, {"type": "electric_scooter", "rental_uris": {"ios": "https://dc.lft.to/lastmile_qr_scan", "android": "https://dc.lft.to/lastmile_qr_scan"}, "lon": -77.02421116666666, "fusion_lon": 0.0, "is_disabled": 0, "lat": 38.9275645, "bike_id": "ccdf3e09c7187b2c8c9b0be2617100b1", "name": "ccdf3e09c7187b2c8c9b0be2617100b1", "is_reserved": 0, "fusion_lat": 0.0}, {"type": "electric_scooter", "rental_uris": {"ios": "https://dc.lft.to/lastmile_qr_scan", "android": "https://dc.lft.to/lastmile_qr_scan"}, "lon": -77.043513, "fusion_lon": 0.0, "is_disabled": 0, "lat": 38.9014675, "bike_id": "69cd13efc1e2a35d69cfe6c166b96d06", "name": "69cd13efc1e2a35d69cfe6c166b96d06", "is_reserved": 0, "fusion_lat": 0.0}, {"type": "electric_scooter", "rental_uris": {"ios": "https://dc.lft.to/lastmile_qr_scan", "android": "https://dc.lft.to/lastmile_qr_scan"}, "lon": -77.03194383333333, "fusion_lon": 0.0, "is_disabled": 0, "lat": 38.930701166666665, "bike_id": "f901ea015df901ef525f78808fc6183b", "name": "f901ea015df901ef525f78808fc6183b", "is_reserved": 0, "fusion_lat": 0.0}, {"type": "electric_scooter", "rental_uris": {"ios": "https://dc.lft.to/lastmile_qr_scan", "android": "https://dc.lft.to/lastmile_qr_scan"}, "lon": -77.036408, "fusion_lon": 0.0, "is_disabled": 0, "lat": 38.91778816666667, "bike_id": "ccd77f8fa3d251405436b1ebb4e1d376", "name": "ccd77f8fa3d251405436b1ebb4e1d376", "is_reserved": 0, "fusion_lat": 0.0}, {"type": "electric_bike", "rental_uris": {"ios": "https://dc.lft.to/lastmile_qr_scan", "android": "https://dc.lft.to/lastmile_qr_scan"}, "lon": -77.080878, "fusion_lon": 0.0, "is_disabled": 0, "lat": 38.90859533333333, "bike_id": "e115247a226fe250c09a186e7c643202", "name": "e115247a226fe250c09a186e7c643202", "is_reserved": 0, "fusion_lat": 0.0}, {"type": "electric_scooter", "rental_uris": {"ios": "https://dc.lft.to/lastmile_qr_scan", "android": "https://dc.lft.to/lastmile_qr_scan"}, "lon": -77.038358, "fusion_lon": 0.0, "is_disabled": 0, "lat": 38.9217155, "bike_id": "72072145017bf25c9cd0fd8ecf198333", "name": "72072145017bf25c9cd0fd8ecf198333", "is_reserved": 0, "fusion_lat": 0.0}, {"type": "electric_scooter", "rental_uris": {"ios": "https://dc.lft.to/lastmile_qr_scan", "android": "https://dc.lft.to/lastmile_qr_scan"}, "lon": -77.02284683333333, "fusion_lon": 0.0, "is_disabled": 0, "lat": 38.916863, "bike_id": "c2441a214f653b3169f84929014c851f", "name": "c2441a214f653b3169f84929014c851f", "is_reserved": 0, "fusion_lat": 0.0}, {"type": "electric_scooter", "rental_uris": {"ios": "https://dc.lft.to/lastmile_qr_scan", "android": "https://dc.lft.to/lastmile_qr_scan"}, "lon": -77.04538683333334, "fusion_lon": 0.0, "is_disabled": 0, "lat": 38.934036166666665, "bike_id": "064af77e29b1f6a78d1dc73fbb9fffe1", "name": "064af77e29b1f6a78d1dc73fbb9fffe1", "is_reserved": 0, "fusion_lat": 0.0}, {"type": "electric_scooter", "rental_uris": {"ios": "https://dc.lft.to/lastmile_qr_scan", "android": "https://dc.lft.to/lastmile_qr_scan"}, "lon": -77.03010166666667, "fusion_lon": 0.0, "is_disabled": 0, "lat": 38.9396755, "bike_id": "e2cdb4a59c23fde6d724cd9726954c9f", "name": "e2cdb4a59c23fde6d724cd9726954c9f", "is_reserved": 0, "fusion_lat": 0.0}, {"type": "electric_scooter", "rental_uris": {"ios": "https://dc.lft.to/lastmile_qr_scan", "android": "https://dc.lft.to/lastmile_qr_scan"}, "lon": -77.016334, "fusion_lon": 0.0, "is_disabled": 0, "lat": 38.8811375, "bike_id": "5f277c5ce408f7465c851b302ec05962", "name": "5f277c5ce408f7465c851b302ec05962", "is_reserved": 0, "fusion_lat": 0.0}, {"type": "electric_scooter", "rental_uris": {"ios": "https://dc.lft.to/lastmile_qr_scan", "android": "https://dc.lft.to/lastmile_qr_scan"}, "lon": -77.01768483333333, "fusion_lon": 0.0, "is_disabled": 0, "lat": 38.877151833333336, "bike_id": "d6e4a85eda25e4cd6bf607182d174763", "name": "d6e4a85eda25e4cd6bf607182d174763", "is_reserved": 0, "fusion_lat": 0.0}, {"type": "electric_bike", "rental_uris": {"ios": "https://dc.lft.to/lastmile_qr_scan", "android": "https://dc.lft.to/lastmile_qr_scan"}, "lon": -77.1783875, "fusion_lon": 0.0, "is_disabled": 0, "lat": 39.088554333333335, "bike_id": "ec42279cdab455befcf703b84337b474", "name": "ec42279cdab455befcf703b84337b474", "is_reserved": 0, "fusion_lat": 0.0}, {"type": "electric_bike", "rental_uris": {"ios": "https://dc.lft.to/lastmile_qr_scan", "android": "https://dc.lft.to/lastmile_qr_scan"}, "lon": -77.012094, "fusion_lon": 0.0, "is_disabled": 0, "lat": 38.8724995, "bike_id": "8b28191e19514c57ec25f8249181d3bb", "name": "8b28191e19514c57ec25f8249181d3bb", "is_reserved": 0, "fusion_lat": 0.0}, {"type": "electric_bike", "rental_uris": {"ios": "https://dc.lft.to/lastmile_qr_scan", "android": "https://dc.lft.to/lastmile_qr_scan"}, "lon": -77.2220835, "fusion_lon": 0.0, "is_disabled": 0, "lat": 38.928539666666666, "bike_id": "7f8afda7e06d9e11f29db907af3de6ad", "name": "7f8afda7e06d9e11f29db907af3de6ad", "is_reserved": 0, "fusion_lat": 0.0}, {"type": "electric_scooter", "rental_uris": {"ios": "https://dc.lft.to/lastmile_qr_scan", "android": "https://dc.lft.to/lastmile_qr_scan"}, "lon": -76.93995866666667, "fusion_lon": 0.0, "is_disabled": 0, "lat": 38.899795833333336, "bike_id": "8080f1cf1a59b7e81a0649f0529d9160", "name": "8080f1cf1a59b7e81a0649f0529d9160", "is_reserved": 0, "fusion_lat": 0.0}, {"type": "electric_scooter", "rental_uris": {"ios": "https://dc.lft.to/lastmile_qr_scan", "android": "https://dc.lft.to/lastmile_qr_scan"}, "lon": -77.0397125, "fusion_lon": 0.0, "is_disabled": 0, "lat": 38.89874183333333, "bike_id": "b2f33f800f522952d90ba61dc42a4add", "name": "b2f33f800f522952d90ba61dc42a4add", "is_reserved": 0, "fusion_lat": 0.0}, {"type": "electric_bike", "rental_uris": {"ios": "https://dc.lft.to/lastmile_qr_scan", "android": "https://dc.lft.to/lastmile_qr_scan"}, "lon": -76.96522616666667, "fusion_lon": 0.0, "is_disabled": 0, "lat": 38.874773166666664, "bike_id": "6d119d39fcb4da2e0d483ce80fbfe7f3", "name": "6d119d39fcb4da2e0d483ce80fbfe7f3", "is_reserved": 0, "fusion_lat": 0.0}, {"type": "electric_scooter", "rental_uris": {"ios": "https://dc.lft.to/lastmile_qr_scan", "android": "https://dc.lft.to/lastmile_qr_scan"}, "lon": -77.032823, "fusion_lon": 0.0, "is_disabled": 0, "lat": 38.927508833333334, "bike_id": "675f426c8fc81794cd6f5610a5284ebe", "name": "675f426c8fc81794cd6f5610a5284ebe", "is_reserved": 0, "fusion_lat": 0.0}, {"type": "electric_scooter", "rental_uris": {"ios": "https://dc.lft.to/lastmile_qr_scan", "android": "https://dc.lft.to/lastmile_qr_scan"}, "lon": -77.0503595, "fusion_lon": 0.0, "is_disabled": 0, "lat": 38.892831, "bike_id": "9c6423101270e63f12f3a54923977316", "name": "9c6423101270e63f12f3a54923977316", "is_reserved": 0, "fusion_lat": 0.0}, {"type": "electric_scooter", "rental_uris": {"ios": "https://dc.lft.to/lastmile_qr_scan", "android": "https://dc.lft.to/lastmile_qr_scan"}, "lon": -77.02696916666666, "fusion_lon": 0.0, "is_disabled": 0, "lat": 38.9067985, "bike_id": "656e2608223090f8885f5086d1e015ad", "name": "656e2608223090f8885f5086d1e015ad", "is_reserved": 0, "fusion_lat": 0.0}, {"type": "electric_bike", "rental_uris": {"ios": "https://dc.lft.to/lastmile_qr_scan", "android": "https://dc.lft.to/lastmile_qr_scan"}, "lon": -77.03987733333334, "fusion_lon": 0.0, "is_disabled": 0, "lat": 38.933256, "bike_id": "09d8de1f7a43ef54ce831b9be1a6d521", "name": "09d8de1f7a43ef54ce831b9be1a6d521", "is_reserved": 0, "fusion_lat": 0.0}, {"type": "electric_scooter", "rental_uris": {"ios": "https://dc.lft.to/lastmile_qr_scan", "android": "https://dc.lft.to/lastmile_qr_scan"}, "lon": -77.01175983333333, "fusion_lon": 0.0, "is_disabled": 0, "lat": 38.9156815, "bike_id": "df909e70e3069a9e0b74b766c7bd18b2", "name": "df909e70e3069a9e0b74b766c7bd18b2", "is_reserved": 0, "fusion_lat": 0.0}, {"type": "electric_scooter", "rental_uris": {"ios": "https://dc.lft.to/lastmile_qr_scan", "android": "https://dc.lft.to/lastmile_qr_scan"}, "lon": -76.94635633333333, "fusion_lon": 0.0, "is_disabled": 0, "lat": 38.89844316666667, "bike_id": "44a40e5e9558b81ef23ddd4153eae47c", "name": "44a40e5e9558b81ef23ddd4153eae47c", "is_reserved": 0, "fusion_lat": 0.0}, {"type": "electric_scooter", "rental_uris": {"ios": "https://dc.lft.to/lastmile_qr_scan", "android": "https://dc.lft.to/lastmile_qr_scan"}, "lon": -76.99613433333333, "fusion_lon": 0.0, "is_disabled": 0, "lat": 38.88716733333333, "bike_id": "b56cdf49072dd0b4d82d99b31a3a108e", "name": "b56cdf49072dd0b4d82d99b31a3a108e", "is_reserved": 0, "fusion_lat": 0.0}, {"type": "electric_scooter", "rental_uris": {"ios": "https://dc.lft.to/lastmile_qr_scan", "android": "https://dc.lft.to/lastmile_qr_scan"}, "lon": -76.99089233333333, "fusion_lon": 0.0, "is_disabled": 0, "lat": 38.92952416666667, "bike_id": "9b6061813285e44f9020df5543542136", "name": "9b6061813285e44f9020df5543542136", "is_reserved": 0, "fusion_lat": 0.0}, {"type": "electric_scooter", "rental_uris": {"ios": "https://dc.lft.to/lastmile_qr_scan", "android": "https://dc.lft.to/lastmile_qr_scan"}, "lon": -77.0318945, "fusion_lon": 0.0, "is_disabled": 0, "lat": 38.90522383333333, "bike_id": "facb8cf6c7624cc782c3a9de70a0b7f1", "name": "facb8cf6c7624cc782c3a9de70a0b7f1", "is_reserved": 0, "fusion_lat": 0.0}, {"type": "electric_scooter", "rental_uris": {"ios": "https://dc.lft.to/lastmile_qr_scan", "android": "https://dc.lft.to/lastmile_qr_scan"}, "lon": -77.041925, "fusion_lon": 0.0, "is_disabled": 0, "lat": 38.920571333333335, "bike_id": "96a58baf1aa21ca789a5a4bbd6eb6288", "name": "96a58baf1aa21ca789a5a4bbd6eb6288", "is_reserved": 0, "fusion_lat": 0.0}, {"type": "electric_scooter", "rental_uris": {"ios": "https://dc.lft.to/lastmile_qr_scan", "android": "https://dc.lft.to/lastmile_qr_scan"}, "lon": -76.99606833333333, "fusion_lon": 0.0, "is_disabled": 0, "lat": 38.909657, "bike_id": "056c492161b299c7d670546aa563c834", "name": "056c492161b299c7d670546aa563c834", "is_reserved": 0, "fusion_lat": 0.0}, {"type": "electric_scooter", "rental_uris": {"ios": "https://dc.lft.to/lastmile_qr_scan", "android": "https://dc.lft.to/lastmile_qr_scan"}, "lon": -77.01706066666667, "fusion_lon": 0.0, "is_disabled": 0, "lat": 38.91106833333333, "bike_id": "e520599c8eca07ea8a9c159fba5b6947", "name": "e520599c8eca07ea8a9c159fba5b6947", "is_reserved": 0, "fusion_lat": 0.0}, {"type": "electric_scooter", "rental_uris": {"ios": "https://dc.lft.to/lastmile_qr_scan", "android": "https://dc.lft.to/lastmile_qr_scan"}, "lon": -77.03760333333334, "fusion_lon": 0.0, "is_disabled": 0, "lat": 38.93578933333333, "bike_id": "77014e5a38d56eb9b61e5f72144dbcbe", "name": "77014e5a38d56eb9b61e5f72144dbcbe", "is_reserved": 0, "fusion_lat": 0.0}, {"type": "electric_bike", "rental_uris": {"ios": "https://dc.lft.to/lastmile_qr_scan", "android": "https://dc.lft.to/lastmile_qr_scan"}, "lon": -77.01199933333334, "fusion_lon": 0.0, "is_disabled": 0, "lat": 38.950782333333336, "bike_id": "5814211b5d8a1995fa607175c483f3f8", "name": "5814211b5d8a1995fa607175c483f3f8", "is_reserved": 0, "fusion_lat": 0.0}, {"type": "electric_scooter", "rental_uris": {"ios": "https://dc.lft.to/lastmile_qr_scan", "android": "https://dc.lft.to/lastmile_qr_scan"}, "lon": -77.03184466666667, "fusion_lon": 0.0, "is_disabled": 0, "lat": 38.892311666666664, "bike_id": "334dceafc7f3847f1504c5814c8a34d5", "name": "334dceafc7f3847f1504c5814c8a34d5", "is_reserved": 0, "fusion_lat": 0.0}, {"type": "electric_scooter", "rental_uris": {"ios": "https://dc.lft.to/lastmile_qr_scan", "android": "https://dc.lft.to/lastmile_qr_scan"}, "lon": -77.03833383333334, "fusion_lon": 0.0, "is_disabled": 0, "lat": 38.911091, "bike_id": "970415101c58148c0c6a478f982f8f3c", "name": "970415101c58148c0c6a478f982f8f3c", "is_reserved": 0, "fusion_lat": 0.0}, {"type": "electric_scooter", "rental_uris": {"ios": "https://dc.lft.to/lastmile_qr_scan", "android": "https://dc.lft.to/lastmile_qr_scan"}, "lon": -77.0416265, "fusion_lon": 0.0, "is_disabled": 0, "lat": 38.902822, "bike_id": "99938f710fa344376a1946651f26eeab", "name": "99938f710fa344376a1946651f26eeab", "is_reserved": 0, "fusion_lat": 0.0}, {"type": "electric_scooter", "rental_uris": {"ios": "https://dc.lft.to/lastmile_qr_scan", "android": "https://dc.lft.to/lastmile_qr_scan"}, "lon": -77.043574, "fusion_lon": 0.0, "is_disabled": 0, "lat": 38.9214025, "bike_id": "e5fc413bb8a7da496b4c637f5dc06e55", "name": "e5fc413bb8a7da496b4c637f5dc06e55", "is_reserved": 0, "fusion_lat": 0.0}, {"type": "electric_scooter", "rental_uris": {"ios": "https://dc.lft.to/lastmile_qr_scan", "android": "https://dc.lft.to/lastmile_qr_scan"}, "lon": -77.0176585, "fusion_lon": 0.0, "is_disabled": 0, "lat": 38.902711333333336, "bike_id": "b08360e144b3e5f234fd88c52643f145", "name": "b08360e144b3e5f234fd88c52643f145", "is_reserved": 0, "fusion_lat": 0.0}, {"type": "electric_scooter", "rental_uris": {"ios": "https://dc.lft.to/lastmile_qr_scan", "android": "https://dc.lft.to/lastmile_qr_scan"}, "lon": -77.06022116666666, "fusion_lon": 0.0, "is_disabled": 0, "lat": 38.9023895, "bike_id": "d95117625bfbe50775d29ccb7a5c8cf5", "name": "d95117625bfbe50775d29ccb7a5c8cf5", "is_reserved": 0, "fusion_lat": 0.0}, {"type": "electric_scooter", "rental_uris": {"ios": "https://dc.lft.to/lastmile_qr_scan", "android": "https://dc.lft.to/lastmile_qr_scan"}, "lon": -77.0279575, "fusion_lon": 0.0, "is_disabled": 0, "lat": 38.93084983333333, "bike_id": "f99cee0f022deb8d22f602e57a25820c", "name": "f99cee0f022deb8d22f602e57a25820c", "is_reserved": 0, "fusion_lat": 0.0}, {"type": "electric_scooter", "rental_uris": {"ios": "https://dc.lft.to/lastmile_qr_scan", "android": "https://dc.lft.to/lastmile_qr_scan"}, "lon": -77.0524005, "fusion_lon": 0.0, "is_disabled": 0, "lat": 38.9252725, "bike_id": "22e537eeae0774500aa7058409600441", "name": "22e537eeae0774500aa7058409600441", "is_reserved": 0, "fusion_lat": 0.0}, {"type": "electric_scooter", "rental_uris": {"ios": "https://dc.lft.to/lastmile_qr_scan", "android": "https://dc.lft.to/lastmile_qr_scan"}, "lon": -77.03632183333333, "fusion_lon": 0.0, "is_disabled": 0, "lat": 38.932735666666666, "bike_id": "7bf71be62afb163ce9cb6462748151ed", "name": "7bf71be62afb163ce9cb6462748151ed", "is_reserved": 0, "fusion_lat": 0.0}, {"type": "electric_scooter", "rental_uris": {"ios": "https://dc.lft.to/lastmile_qr_scan", "android": "https://dc.lft.to/lastmile_qr_scan"}, "lon": -77.03428083333333, "fusion_lon": 0.0, "is_disabled": 0, "lat": 38.90974633333333, "bike_id": "a8300c5d0ad5408b3fed3c87f998132e", "name": "a8300c5d0ad5408b3fed3c87f998132e", "is_reserved": 0, "fusion_lat": 0.0}, {"type": "electric_scooter", "rental_uris": {"ios": "https://dc.lft.to/lastmile_qr_scan", "android": "https://dc.lft.to/lastmile_qr_scan"}, "lon": -77.0330585, "fusion_lon": 0.0, "is_disabled": 0, "lat": 38.920654, "bike_id": "249c1e4a466f2a719f138421469d2e6c", "name": "249c1e4a466f2a719f138421469d2e6c", "is_reserved": 0, "fusion_lat": 0.0}, {"type": "electric_bike", "rental_uris": {"ios": "https://dc.lft.to/lastmile_qr_scan", "android": "https://dc.lft.to/lastmile_qr_scan"}, "lon": -77.01200433333334, "fusion_lon": 0.0, "is_disabled": 0, "lat": 38.87089483333333, "bike_id": "8c477e782d89a72279195e6e68f5e78e", "name": "8c477e782d89a72279195e6e68f5e78e", "is_reserved": 0, "fusion_lat": 0.0}, {"type": "electric_bike", "rental_uris": {"ios": "https://dc.lft.to/lastmile_qr_scan", "android": "https://dc.lft.to/lastmile_qr_scan"}, "lon": -76.93242733333334, "fusion_lon": 0.0, "is_disabled": 0, "lat": 38.88271433333333, "bike_id": "36cd462f6f9f63b28fbb70bbffd33e83", "name": "36cd462f6f9f63b28fbb70bbffd33e83", "is_reserved": 0, "fusion_lat": 0.0}, {"type": "electric_scooter", "rental_uris": {"ios": "https://dc.lft.to/lastmile_qr_scan", "android": "https://dc.lft.to/lastmile_qr_scan"}, "lon": -77.02182983333333, "fusion_lon": 0.0, "is_disabled": 0, "lat": 38.906248833333336, "bike_id": "2e9382bd8563b964c3d4efb791ed2acd", "name": "2e9382bd8563b964c3d4efb791ed2acd", "is_reserved": 0, "fusion_lat": 0.0}, {"type": "electric_scooter", "rental_uris": {"ios": "https://dc.lft.to/lastmile_qr_scan", "android": "https://dc.lft.to/lastmile_qr_scan"}, "lon": -77.05025116666667, "fusion_lon": 0.0, "is_disabled": 0, "lat": 38.92358133333333, "bike_id": "6aa9c806bf26c31692fb53ac97ee425f", "name": "6aa9c806bf26c31692fb53ac97ee425f", "is_reserved": 0, "fusion_lat": 0.0}, {"type": "electric_scooter", "rental_uris": {"ios": "https://dc.lft.to/lastmile_qr_scan", "android": "https://dc.lft.to/lastmile_qr_scan"}, "lon": -77.02528783333334, "fusion_lon": 0.0, "is_disabled": 0, "lat": 38.914857, "bike_id": "0b194d47ea11385eb93711b5475253bd", "name": "0b194d47ea11385eb93711b5475253bd", "is_reserved": 0, "fusion_lat": 0.0}, {"type": "electric_scooter", "rental_uris": {"ios": "https://dc.lft.to/lastmile_qr_scan", "android": "https://dc.lft.to/lastmile_qr_scan"}, "lon": -77.039972, "fusion_lon": 0.0, "is_disabled": 0, "lat": 38.914160833333334, "bike_id": "080d7c43981504681af07e671f26616f", "name": "080d7c43981504681af07e671f26616f", "is_reserved": 0, "fusion_lat": 0.0}, {"type": "electric_scooter", "rental_uris": {"ios": "https://dc.lft.to/lastmile_qr_scan", "android": "https://dc.lft.to/lastmile_qr_scan"}, "lon": -77.04657516666667, "fusion_lon": 0.0, "is_disabled": 0, "lat": 38.90550616666667, "bike_id": "f65e4a65e7fdcf8dc922ee06cb6b0382", "name": "f65e4a65e7fdcf8dc922ee06cb6b0382", "is_reserved": 0, "fusion_lat": 0.0}, {"type": "electric_scooter", "rental_uris": {"ios": "https://dc.lft.to/lastmile_qr_scan", "android": "https://dc.lft.to/lastmile_qr_scan"}, "lon": -77.04664833333334, "fusion_lon": 0.0, "is_disabled": 0, "lat": 38.892375333333334, "bike_id": "f7d959488ba0bbc0977da52375bb5a31", "name": "f7d959488ba0bbc0977da52375bb5a31", "is_reserved": 0, "fusion_lat": 0.0}, {"type": "electric_scooter", "rental_uris": {"ios": "https://dc.lft.to/lastmile_qr_scan", "android": "https://dc.lft.to/lastmile_qr_scan"}, "lon": -77.03969633333334, "fusion_lon": 0.0, "is_disabled": 0, "lat": 38.89902633333333, "bike_id": "4e40545a4e2d4dbd9f5baa77f42349dc", "name": "4e40545a4e2d4dbd9f5baa77f42349dc", "is_reserved": 0, "fusion_lat": 0.0}, {"type": "electric_scooter", "rental_uris": {"ios": "https://dc.lft.to/lastmile_qr_scan", "android": "https://dc.lft.to/lastmile_qr_scan"}, "lon": -77.0464635, "fusion_lon": 0.0, "is_disabled": 0, "lat": 38.89218733333333, "bike_id": "e8c1aef8be7703dff70067eb21d5d8d1", "name": "e8c1aef8be7703dff70067eb21d5d8d1", "is_reserved": 0, "fusion_lat": 0.0}, {"type": "electric_scooter", "rental_uris": {"ios": "https://dc.lft.to/lastmile_qr_scan", "android": "https://dc.lft.to/lastmile_qr_scan"}, "lon": -77.02651633333333, "fusion_lon": 0.0, "is_disabled": 0, "lat": 38.92474583333333, "bike_id": "9be9e06f745b75ad8b2b70f555c20291", "name": "9be9e06f745b75ad8b2b70f555c20291", "is_reserved": 0, "fusion_lat": 0.0}, {"type": "electric_bike", "rental_uris": {"ios": "https://dc.lft.to/lastmile_qr_scan", "android": "https://dc.lft.to/lastmile_qr_scan"}, "lon": -76.94625, "fusion_lon": 0.0, "is_disabled": 0, "lat": 38.832324666666665, "bike_id": "0a18e9a848604341ddaf2c1f7da57a75", "name": "0a18e9a848604341ddaf2c1f7da57a75", "is_reserved": 0, "fusion_lat": 0.0}, {"type": "electric_scooter", "rental_uris": {"ios": "https://dc.lft.to/lastmile_qr_scan", "android": "https://dc.lft.to/lastmile_qr_scan"}, "lon": -76.986919, "fusion_lon": 0.0, "is_disabled": 0, "lat": 38.86720716666667, "bike_id": "29790b80f437e1d1c4d533b4c0992df8", "name": "29790b80f437e1d1c4d533b4c0992df8", "is_reserved": 0, "fusion_lat": 0.0}, {"type": "electric_scooter", "rental_uris": {"ios": "https://dc.lft.to/lastmile_qr_scan", "android": "https://dc.lft.to/lastmile_qr_scan"}, "lon": -77.03942133333334, "fusion_lon": 0.0, "is_disabled": 0, "lat": 38.9156625, "bike_id": "ea3c6e3794c3cc991c31c35c666ecabc", "name": "ea3c6e3794c3cc991c31c35c666ecabc", "is_reserved": 0, "fusion_lat": 0.0}, {"type": "electric_scooter", "rental_uris": {"ios": "https://dc.lft.to/lastmile_qr_scan", "android": "https://dc.lft.to/lastmile_qr_scan"}, "lon": -77.03168116666667, "fusion_lon": 0.0, "is_disabled": 0, "lat": 38.89791316666667, "bike_id": "177f606db1f14c331757fe465481713c", "name": "177f606db1f14c331757fe465481713c", "is_reserved": 0, "fusion_lat": 0.0}, {"type": "electric_scooter", "rental_uris": {"ios": "https://dc.lft.to/lastmile_qr_scan", "android": "https://dc.lft.to/lastmile_qr_scan"}, "lon": -76.97745566666667, "fusion_lon": 0.0, "is_disabled": 0, "lat": 38.868319, "bike_id": "bd59436e8960e09c80104fcd99715608", "name": "bd59436e8960e09c80104fcd99715608", "is_reserved": 0, "fusion_lat": 0.0}, {"type": "electric_scooter", "rental_uris": {"ios": "https://dc.lft.to/lastmile_qr_scan", "android": "https://dc.lft.to/lastmile_qr_scan"}, "lon": -77.0176355, "fusion_lon": 0.0, "is_disabled": 0, "lat": 38.876739, "bike_id": "aaee949daf52cc4189f5450e26fe00a3", "name": "aaee949daf52cc4189f5450e26fe00a3", "is_reserved": 0, "fusion_lat": 0.0}, {"type": "electric_scooter", "rental_uris": {"ios": "https://dc.lft.to/lastmile_qr_scan", "android": "https://dc.lft.to/lastmile_qr_scan"}, "lon": -77.03161016666667, "fusion_lon": 0.0, "is_disabled": 0, "lat": 38.892240666666666, "bike_id": "0833520c49e371bb65720691779ad35e", "name": "0833520c49e371bb65720691779ad35e", "is_reserved": 0, "fusion_lat": 0.0}, {"type": "electric_scooter", "rental_uris": {"ios": "https://dc.lft.to/lastmile_qr_scan", "android": "https://dc.lft.to/lastmile_qr_scan"}, "lon": -76.9463885, "fusion_lon": 0.0, "is_disabled": 0, "lat": 38.89842083333333, "bike_id": "d07455ab5bf47c5b6f685b29d907e84a", "name": "d07455ab5bf47c5b6f685b29d907e84a", "is_reserved": 0, "fusion_lat": 0.0}, {"type": "electric_scooter", "rental_uris": {"ios": "https://dc.lft.to/lastmile_qr_scan", "android": "https://dc.lft.to/lastmile_qr_scan"}, "lon": -77.0531165, "fusion_lon": 0.0, "is_disabled": 0, "lat": 38.9006995, "bike_id": "3431ceaf52893413b489fd3dcfeeced5", "name": "3431ceaf52893413b489fd3dcfeeced5", "is_reserved": 0, "fusion_lat": 0.0}, {"type": "electric_scooter", "rental_uris": {"ios": "https://dc.lft.to/lastmile_qr_scan", "android": "https://dc.lft.to/lastmile_qr_scan"}, "lon": -77.0363255, "fusion_lon": 0.0, "is_disabled": 0, "lat": 38.937378333333335, "bike_id": "47f3c2d7d949500076e6bff50c6ddaab", "name": "47f3c2d7d949500076e6bff50c6ddaab", "is_reserved": 0, "fusion_lat": 0.0}, {"type": "electric_bike", "rental_uris": {"ios": "https://dc.lft.to/lastmile_qr_scan", "android": "https://dc.lft.to/lastmile_qr_scan"}, "lon": -77.03445333333333, "fusion_lon": 0.0, "is_disabled": 0, "lat": 38.9247775, "bike_id": "32e24efbd7ea1548c22ae5bffa0c1cb3", "name": "32e24efbd7ea1548c22ae5bffa0c1cb3", "is_reserved": 0, "fusion_lat": 0.0}, {"type": "electric_scooter", "rental_uris": {"ios": "https://dc.lft.to/lastmile_qr_scan", "android": "https://dc.lft.to/lastmile_qr_scan"}, "lon": -77.04658133333334, "fusion_lon": 0.0, "is_disabled": 0, "lat": 38.89650116666667, "bike_id": "d9324b7a0d81b6edf55be604d2552f21", "name": "d9324b7a0d81b6edf55be604d2552f21", "is_reserved": 0, "fusion_lat": 0.0}, {"type": "electric_scooter", "rental_uris": {"ios": "https://dc.lft.to/lastmile_qr_scan", "android": "https://dc.lft.to/lastmile_qr_scan"}, "lon": -76.93342633333333, "fusion_lon": 0.0, "is_disabled": 0, "lat": 38.888122, "bike_id": "4ffe9f4c677dbdd23e1c898a87ee76ed", "name": "4ffe9f4c677dbdd23e1c898a87ee76ed", "is_reserved": 0, "fusion_lat": 0.0}, {"type": "electric_scooter", "rental_uris": {"ios": "https://dc.lft.to/lastmile_qr_scan", "android": "https://dc.lft.to/lastmile_qr_scan"}, "lon": -77.03997083333333, "fusion_lon": 0.0, "is_disabled": 0, "lat": 38.913402833333336, "bike_id": "6a3d6810a56448065341e5fcb27b039a", "name": "6a3d6810a56448065341e5fcb27b039a", "is_reserved": 0, "fusion_lat": 0.0}, {"type": "electric_bike", "rental_uris": {"ios": "https://dc.lft.to/lastmile_qr_scan", "android": "https://dc.lft.to/lastmile_qr_scan"}, "lon": -77.03337133333333, "fusion_lon": 0.0, "is_disabled": 0, "lat": 38.920623666666664, "bike_id": "c02c55ef3843c98f27f9bd20da0f1ef1", "name": "c02c55ef3843c98f27f9bd20da0f1ef1", "is_reserved": 0, "fusion_lat": 0.0}, {"type": "electric_bike", "rental_uris": {"ios": "https://dc.lft.to/lastmile_qr_scan", "android": "https://dc.lft.to/lastmile_qr_scan"}, "lon": -77.00571666666667, "fusion_lon": 0.0, "is_disabled": 0, "lat": 38.8398575, "bike_id": "95da287b685d76d59286c6a2d89be9e0", "name": "95da287b685d76d59286c6a2d89be9e0", "is_reserved": 0, "fusion_lat": 0.0}, {"type": "electric_bike", "rental_uris": {"ios": "https://dc.lft.to/lastmile_qr_scan", "android": "https://dc.lft.to/lastmile_qr_scan"}, "lon": -77.01437583333333, "fusion_lon": 0.0, "is_disabled": 0, "lat": 38.876750666666666, "bike_id": "0fd322a730bf477d09f0560d545a3019", "name": "0fd322a730bf477d09f0560d545a3019", "is_reserved": 0, "fusion_lat": 0.0}, {"type": "electric_scooter", "rental_uris": {"ios": "https://dc.lft.to/lastmile_qr_scan", "android": "https://dc.lft.to/lastmile_qr_scan"}, "lon": -77.03211783333333, "fusion_lon": 0.0, "is_disabled": 0, "lat": 38.91733283333333, "bike_id": "8734119c233134cc3b76c78d2688e761", "name": "8734119c233134cc3b76c78d2688e761", "is_reserved": 0, "fusion_lat": 0.0}, {"type": "electric_scooter", "rental_uris": {"ios": "https://dc.lft.to/lastmile_qr_scan", "android": "https://dc.lft.to/lastmile_qr_scan"}, "lon": -77.0316315, "fusion_lon": 0.0, "is_disabled": 0, "lat": 38.892270833333335, "bike_id": "547f80a8d6c09323337870cfab25ea73", "name": "547f80a8d6c09323337870cfab25ea73", "is_reserved": 0, "fusion_lat": 0.0}, {"type": "electric_scooter", "rental_uris": {"ios": "https://dc.lft.to/lastmile_qr_scan", "android": "https://dc.lft.to/lastmile_qr_scan"}, "lon": -77.03207066666667, "fusion_lon": 0.0, "is_disabled": 0, "lat": 38.908904, "bike_id": "63a030ce2ec671340701bd6e40844ed4", "name": "63a030ce2ec671340701bd6e40844ed4", "is_reserved": 0, "fusion_lat": 0.0}, {"type": "electric_scooter", "rental_uris": {"ios": "https://dc.lft.to/lastmile_qr_scan", "android": "https://dc.lft.to/lastmile_qr_scan"}, "lon": -76.98520883333333, "fusion_lon": 0.0, "is_disabled": 0, "lat": 38.866844, "bike_id": "ec18d6824b8be4b9caa413ada22c36c4", "name": "ec18d6824b8be4b9caa413ada22c36c4", "is_reserved": 0, "fusion_lat": 0.0}, {"type": "electric_scooter", "rental_uris": {"ios": "https://dc.lft.to/lastmile_qr_scan", "android": "https://dc.lft.to/lastmile_qr_scan"}, "lon": -77.070674, "fusion_lon": 0.0, "is_disabled": 0, "lat": 38.93176316666667, "bike_id": "4c18774fe577ef79c0bc32547afea22b", "name": "4c18774fe577ef79c0bc32547afea22b", "is_reserved": 0, "fusion_lat": 0.0}, {"type": "electric_scooter", "rental_uris": {"ios": "https://dc.lft.to/lastmile_qr_scan", "android": "https://dc.lft.to/lastmile_qr_scan"}, "lon": -77.02496933333333, "fusion_lon": 0.0, "is_disabled": 0, "lat": 38.918073666666665, "bike_id": "fc4ed2ced428a7612adb154760706417", "name": "fc4ed2ced428a7612adb154760706417", "is_reserved": 0, "fusion_lat": 0.0}, {"type": "electric_scooter", "rental_uris": {"ios": "https://dc.lft.to/lastmile_qr_scan", "android": "https://dc.lft.to/lastmile_qr_scan"}, "lon": -77.03400216666667, "fusion_lon": 0.0, "is_disabled": 0, "lat": 38.92051166666667, "bike_id": "16ed9aab4840efffd9ef13ea164d2f04", "name": "16ed9aab4840efffd9ef13ea164d2f04", "is_reserved": 0, "fusion_lat": 0.0}, {"type": "electric_scooter", "rental_uris": {"ios": "https://dc.lft.to/lastmile_qr_scan", "android": "https://dc.lft.to/lastmile_qr_scan"}, "lon": -77.02957933333333, "fusion_lon": 0.0, "is_disabled": 0, "lat": 38.9052905, "bike_id": "a5ca4277dd3bc66d69c188131026d60b", "name": "a5ca4277dd3bc66d69c188131026d60b", "is_reserved": 0, "fusion_lat": 0.0}, {"type": "electric_scooter", "rental_uris": {"ios": "https://dc.lft.to/lastmile_qr_scan", "android": "https://dc.lft.to/lastmile_qr_scan"}, "lon": -77.03438183333333, "fusion_lon": 0.0, "is_disabled": 0, "lat": 38.907406, "bike_id": "e04af30277629c7156e010c5b8a20200", "name": "e04af30277629c7156e010c5b8a20200", "is_reserved": 0, "fusion_lat": 0.0}, {"type": "electric_bike", "rental_uris": {"ios": "https://dc.lft.to/lastmile_qr_scan", "android": "https://dc.lft.to/lastmile_qr_scan"}, "lon": -76.92370533333333, "fusion_lon": 0.0, "is_disabled": 0, "lat": 38.88374983333333, "bike_id": "1d6834f5242f39bef15b48f03b60ceff", "name": "1d6834f5242f39bef15b48f03b60ceff", "is_reserved": 0, "fusion_lat": 0.0}, {"type": "electric_bike", "rental_uris": {"ios": "https://dc.lft.to/lastmile_qr_scan", "android": "https://dc.lft.to/lastmile_qr_scan"}, "lon": -77.02731, "fusion_lon": 0.0, "is_disabled": 0, "lat": 38.94557483333333, "bike_id": "4bf01a1f15d19ef9277f6a1383118564", "name": "4bf01a1f15d19ef9277f6a1383118564", "is_reserved": 0, "fusion_lat": 0.0}, {"type": "electric_scooter", "rental_uris": {"ios": "https://dc.lft.to/lastmile_qr_scan", "android": "https://dc.lft.to/lastmile_qr_scan"}, "lon": -77.024099, "fusion_lon": 0.0, "is_disabled": 0, "lat": 38.91747566666667, "bike_id": "193caf060a282dd8ca92e6e7ad9bee03", "name": "193caf060a282dd8ca92e6e7ad9bee03", "is_reserved": 0, "fusion_lat": 0.0}, {"type": "electric_bike", "rental_uris": {"ios": "https://dc.lft.to/lastmile_qr_scan", "android": "https://dc.lft.to/lastmile_qr_scan"}, "lon": -76.92335133333333, "fusion_lon": 0.0, "is_disabled": 0, "lat": 38.871079333333334, "bike_id": "ae51f3adeecbc327502d8967e9ebfd40", "name": "ae51f3adeecbc327502d8967e9ebfd40", "is_reserved": 0, "fusion_lat": 0.0}, {"type": "electric_scooter", "rental_uris": {"ios": "https://dc.lft.to/lastmile_qr_scan", "android": "https://dc.lft.to/lastmile_qr_scan"}, "lon": -76.987797, "fusion_lon": 0.0, "is_disabled": 0, "lat": 38.89825916666667, "bike_id": "ecef074004f08e7fa11f567297662843", "name": "ecef074004f08e7fa11f567297662843", "is_reserved": 0, "fusion_lat": 0.0}, {"type": "electric_bike", "rental_uris": {"ios": "https://dc.lft.to/lastmile_qr_scan", "android": "https://dc.lft.to/lastmile_qr_scan"}, "lon": -77.09965033333333, "fusion_lon": 0.0, "is_disabled": 0, "lat": 38.933575166666664, "bike_id": "f9f32fceb3554cdf652c9da495d6573c", "name": "f9f32fceb3554cdf652c9da495d6573c", "is_reserved": 0, "fusion_lat": 0.0}, {"type": "electric_scooter", "rental_uris": {"ios": "https://dc.lft.to/lastmile_qr_scan", "android": "https://dc.lft.to/lastmile_qr_scan"}, "lon": -77.05132033333334, "fusion_lon": 0.0, "is_disabled": 0, "lat": 38.923633833333334, "bike_id": "ec65b209f9fecf81625a156d8d38d2c1", "name": "ec65b209f9fecf81625a156d8d38d2c1", "is_reserved": 0, "fusion_lat": 0.0}, {"type": "electric_scooter", "rental_uris": {"ios": "https://dc.lft.to/lastmile_qr_scan", "android": "https://dc.lft.to/lastmile_qr_scan"}, "lon": -77.03480016666667, "fusion_lon": 0.0, "is_disabled": 0, "lat": 38.932681333333335, "bike_id": "21b501d6f41e92913f447594632a9d9d", "name": "21b501d6f41e92913f447594632a9d9d", "is_reserved": 0, "fusion_lat": 0.0}, {"type": "electric_scooter", "rental_uris": {"ios": "https://dc.lft.to/lastmile_qr_scan", "android": "https://dc.lft.to/lastmile_qr_scan"}, "lon": -77.0425525, "fusion_lon": 0.0, "is_disabled": 0, "lat": 38.9219815, "bike_id": "b814c59ca2e51fcbfcfd8ff3c6af8349", "name": "b814c59ca2e51fcbfcfd8ff3c6af8349", "is_reserved": 0, "fusion_lat": 0.0}, {"type": "electric_scooter", "rental_uris": {"ios": "https://dc.lft.to/lastmile_qr_scan", "android": "https://dc.lft.to/lastmile_qr_scan"}, "lon": -77.04136616666666, "fusion_lon": 0.0, "is_disabled": 0, "lat": 38.926436833333334, "bike_id": "4756179b9b9d917590194615191ebeab", "name": "4756179b9b9d917590194615191ebeab", "is_reserved": 0, "fusion_lat": 0.0}, {"type": "electric_scooter", "rental_uris": {"ios": "https://dc.lft.to/lastmile_qr_scan", "android": "https://dc.lft.to/lastmile_qr_scan"}, "lon": -77.012035, "fusion_lon": 0.0, "is_disabled": 0, "lat": 38.89330233333333, "bike_id": "15fb059fc450c12be04aff8963a652eb", "name": "15fb059fc450c12be04aff8963a652eb", "is_reserved": 0, "fusion_lat": 0.0}, {"type": "electric_scooter", "rental_uris": {"ios": "https://dc.lft.to/lastmile_qr_scan", "android": "https://dc.lft.to/lastmile_qr_scan"}, "lon": -77.03212716666667, "fusion_lon": 0.0, "is_disabled": 0, "lat": 38.89220533333334, "bike_id": "9d90c7da9064a30dd87dcbc173b2932e", "name": "9d90c7da9064a30dd87dcbc173b2932e", "is_reserved": 0, "fusion_lat": 0.0}, {"type": "electric_scooter", "rental_uris": {"ios": "https://dc.lft.to/lastmile_qr_scan", "android": "https://dc.lft.to/lastmile_qr_scan"}, "lon": -77.03447266666667, "fusion_lon": 0.0, "is_disabled": 0, "lat": 38.91845583333333, "bike_id": "77b200c13c8b00c1e4548cde9b4384ee", "name": "77b200c13c8b00c1e4548cde9b4384ee", "is_reserved": 0, "fusion_lat": 0.0}, {"type": "electric_scooter", "rental_uris": {"ios": "https://dc.lft.to/lastmile_qr_scan", "android": "https://dc.lft.to/lastmile_qr_scan"}, "lon": -77.04489983333333, "fusion_lon": 0.0, "is_disabled": 0, "lat": 38.91928266666667, "bike_id": "2dafb90a27f15209a70cf3b88a4a7284", "name": "2dafb90a27f15209a70cf3b88a4a7284", "is_reserved": 0, "fusion_lat": 0.0}, {"type": "electric_scooter", "rental_uris": {"ios": "https://dc.lft.to/lastmile_qr_scan", "android": "https://dc.lft.to/lastmile_qr_scan"}, "lon": -77.05132733333333, "fusion_lon": 0.0, "is_disabled": 0, "lat": 38.923619, "bike_id": "c070ed8ac4d5d1a005202e3fed075441", "name": "c070ed8ac4d5d1a005202e3fed075441", "is_reserved": 0, "fusion_lat": 0.0}, {"type": "electric_scooter", "rental_uris": {"ios": "https://dc.lft.to/lastmile_qr_scan", "android": "https://dc.lft.to/lastmile_qr_scan"}, "lon": -76.96526316666667, "fusion_lon": 0.0, "is_disabled": 0, "lat": 38.87629616666667, "bike_id": "821a4b6c9df02828eee1cd554fcbc811", "name": "821a4b6c9df02828eee1cd554fcbc811", "is_reserved": 0, "fusion_lat": 0.0}, {"type": "electric_scooter", "rental_uris": {"ios": "https://dc.lft.to/lastmile_qr_scan", "android": "https://dc.lft.to/lastmile_qr_scan"}, "lon": -77.01504033333333, "fusion_lon": 0.0, "is_disabled": 0, "lat": 38.94328133333333, "bike_id": "68610f501da62209a0054d31e1bd61f7", "name": "68610f501da62209a0054d31e1bd61f7", "is_reserved": 0, "fusion_lat": 0.0}, {"type": "electric_scooter", "rental_uris": {"ios": "https://dc.lft.to/lastmile_qr_scan", "android": "https://dc.lft.to/lastmile_qr_scan"}, "lon": -77.03220533333334, "fusion_lon": 0.0, "is_disabled": 0, "lat": 38.89223416666667, "bike_id": "2b70a991ec1fc5cf02c34600a636f07a", "name": "2b70a991ec1fc5cf02c34600a636f07a", "is_reserved": 0, "fusion_lat": 0.0}, {"type": "electric_scooter", "rental_uris": {"ios": "https://dc.lft.to/lastmile_qr_scan", "android": "https://dc.lft.to/lastmile_qr_scan"}, "lon": -77.02160283333333, "fusion_lon": 0.0, "is_disabled": 0, "lat": 38.897262, "bike_id": "eb661aabfb9ffb7957388c7e3d749ae1", "name": "eb661aabfb9ffb7957388c7e3d749ae1", "is_reserved": 0, "fusion_lat": 0.0}, {"type": "electric_scooter", "rental_uris": {"ios": "https://dc.lft.to/lastmile_qr_scan", "android": "https://dc.lft.to/lastmile_qr_scan"}, "lon": -77.0432835, "fusion_lon": 0.0, "is_disabled": 0, "lat": 38.892241166666665, "bike_id": "9b9f4b5dcd90908430ca3a127ada088d", "name": "9b9f4b5dcd90908430ca3a127ada088d", "is_reserved": 0, "fusion_lat": 0.0}, {"type": "electric_scooter", "rental_uris": {"ios": "https://dc.lft.to/lastmile_qr_scan", "android": "https://dc.lft.to/lastmile_qr_scan"}, "lon": -76.995546, "fusion_lon": 0.0, "is_disabled": 0, "lat": 38.90033116666667, "bike_id": "f3937ae3321c1b9382d7baa9ff3e33f1", "name": "f3937ae3321c1b9382d7baa9ff3e33f1", "is_reserved": 0, "fusion_lat": 0.0}, {"type": "electric_bike", "rental_uris": {"ios": "https://dc.lft.to/lastmile_qr_scan", "android": "https://dc.lft.to/lastmile_qr_scan"}, "lon": -76.98597666666667, "fusion_lon": 0.0, "is_disabled": 0, "lat": 38.90617733333333, "bike_id": "e61ffb036db4bc54a3cfad959d99c2a9", "name": "e61ffb036db4bc54a3cfad959d99c2a9", "is_reserved": 0, "fusion_lat": 0.0}, {"type": "electric_scooter", "rental_uris": {"ios": "https://dc.lft.to/lastmile_qr_scan", "android": "https://dc.lft.to/lastmile_qr_scan"}, "lon": -77.0284585, "fusion_lon": 0.0, "is_disabled": 0, "lat": 38.927638, "bike_id": "5b71649466f3fa3819178d4b329d734f", "name": "5b71649466f3fa3819178d4b329d734f", "is_reserved": 0, "fusion_lat": 0.0}, {"type": "electric_bike", "rental_uris": {"ios": "https://dc.lft.to/lastmile_qr_scan", "android": "https://dc.lft.to/lastmile_qr_scan"}, "lon": -76.90982233333334, "fusion_lon": 0.0, "is_disabled": 0, "lat": 38.85430733333333, "bike_id": "b524620af7ecf0ecf0509ee3d69dd117", "name": "b524620af7ecf0ecf0509ee3d69dd117", "is_reserved": 0, "fusion_lat": 0.0}, {"type": "electric_scooter", "rental_uris": {"ios": "https://dc.lft.to/lastmile_qr_scan", "android": "https://dc.lft.to/lastmile_qr_scan"}, "lon": -76.99960483333334, "fusion_lon": 0.0, "is_disabled": 0, "lat": 38.90111016666667, "bike_id": "6bfd932f10e839ba7bdfb31dde994664", "name": "6bfd932f10e839ba7bdfb31dde994664", "is_reserved": 0, "fusion_lat": 0.0}, {"type": "electric_scooter", "rental_uris": {"ios": "https://dc.lft.to/lastmile_qr_scan", "android": "https://dc.lft.to/lastmile_qr_scan"}, "lon": -77.05237933333333, "fusion_lon": 0.0, "is_disabled": 0, "lat": 38.924638, "bike_id": "8cb395608624d6c1a97c52a39380ab30", "name": "8cb395608624d6c1a97c52a39380ab30", "is_reserved": 0, "fusion_lat": 0.0}, {"type": "electric_scooter", "rental_uris": {"ios": "https://dc.lft.to/lastmile_qr_scan", "android": "https://dc.lft.to/lastmile_qr_scan"}, "lon": -77.03268833333334, "fusion_lon": 0.0, "is_disabled": 0, "lat": 38.927522333333336, "bike_id": "a611c7d1ee8591b0991bb2d010665889", "name": "a611c7d1ee8591b0991bb2d010665889", "is_reserved": 0, "fusion_lat": 0.0}, {"type": "electric_bike", "rental_uris": {"ios": "https://dc.lft.to/lastmile_qr_scan", "android": "https://dc.lft.to/lastmile_qr_scan"}, "lon": -77.03147066666666, "fusion_lon": 0.0, "is_disabled": 0, "lat": 38.994288, "bike_id": "4c58a57f9d4a5ab28f65dac2104d76a3", "name": "4c58a57f9d4a5ab28f65dac2104d76a3", "is_reserved": 0, "fusion_lat": 0.0}, {"type": "electric_bike", "rental_uris": {"ios": "https://dc.lft.to/lastmile_qr_scan", "android": "https://dc.lft.to/lastmile_qr_scan"}, "lon": -77.21654783333334, "fusion_lon": 0.0, "is_disabled": 0, "lat": 38.930119, "bike_id": "f4d179ea78bc2b17630aa0df4ed5ba14", "name": "f4d179ea78bc2b17630aa0df4ed5ba14", "is_reserved": 0, "fusion_lat": 0.0}, {"type": "electric_scooter", "rental_uris": {"ios": "https://dc.lft.to/lastmile_qr_scan", "android": "https://dc.lft.to/lastmile_qr_scan"}, "lon": -77.01942483333333, "fusion_lon": 0.0, "is_disabled": 0, "lat": 38.948524, "bike_id": "eef8d76b52225fa0a8b1a8bddf5461cd", "name": "eef8d76b52225fa0a8b1a8bddf5461cd", "is_reserved": 0, "fusion_lat": 0.0}, {"type": "electric_scooter", "rental_uris": {"ios": "https://dc.lft.to/lastmile_qr_scan", "android": "https://dc.lft.to/lastmile_qr_scan"}, "lon": -77.03972616666667, "fusion_lon": 0.0, "is_disabled": 0, "lat": 38.898945499999996, "bike_id": "45d0551c6dc64e515d48d1bcb8ff6046", "name": "45d0551c6dc64e515d48d1bcb8ff6046", "is_reserved": 0, "fusion_lat": 0.0}, {"type": "electric_scooter", "rental_uris": {"ios": "https://dc.lft.to/lastmile_qr_scan", "android": "https://dc.lft.to/lastmile_qr_scan"}, "lon": -77.02427733333333, "fusion_lon": 0.0, "is_disabled": 0, "lat": 38.91857733333333, "bike_id": "ea8402d9ac935476b18f98730f803b93", "name": "ea8402d9ac935476b18f98730f803b93", "is_reserved": 0, "fusion_lat": 0.0}, {"type": "electric_scooter", "rental_uris": {"ios": "https://dc.lft.to/lastmile_qr_scan", "android": "https://dc.lft.to/lastmile_qr_scan"}, "lon": -77.02159716666667, "fusion_lon": 0.0, "is_disabled": 0, "lat": 38.92494816666667, "bike_id": "ae4281c2596c69a6d56bc34295f14f5e", "name": "ae4281c2596c69a6d56bc34295f14f5e", "is_reserved": 0, "fusion_lat": 0.0}, {"type": "electric_scooter", "rental_uris": {"ios": "https://dc.lft.to/lastmile_qr_scan", "android": "https://dc.lft.to/lastmile_qr_scan"}, "lon": -77.02200866666666, "fusion_lon": 0.0, "is_disabled": 0, "lat": 38.8949455, "bike_id": "b4a04a72776debd8bad38dc3fcdc4b63", "name": "b4a04a72776debd8bad38dc3fcdc4b63", "is_reserved": 0, "fusion_lat": 0.0}, {"type": "electric_bike", "rental_uris": {"ios": "https://dc.lft.to/lastmile_qr_scan", "android": "https://dc.lft.to/lastmile_qr_scan"}, "lon": -76.960553, "fusion_lon": 0.0, "is_disabled": 0, "lat": 38.88402933333333, "bike_id": "028ec80c3fa5b628047754aa523ecee2", "name": "028ec80c3fa5b628047754aa523ecee2", "is_reserved": 0, "fusion_lat": 0.0}, {"type": "electric_bike", "rental_uris": {"ios": "https://dc.lft.to/lastmile_qr_scan", "android": "https://dc.lft.to/lastmile_qr_scan"}, "lon": -77.05878983333334, "fusion_lon": 0.0, "is_disabled": 0, "lat": 38.958924, "bike_id": "1b68e847f798a463bd19b06813ddbcf2", "name": "1b68e847f798a463bd19b06813ddbcf2", "is_reserved": 0, "fusion_lat": 0.0}, {"type": "electric_scooter", "rental_uris": {"ios": "https://dc.lft.to/lastmile_qr_scan", "android": "https://dc.lft.to/lastmile_qr_scan"}, "lon": -77.0364205, "fusion_lon": 0.0, "is_disabled": 0, "lat": 38.9031145, "bike_id": "333b57698f53251436392db287c5abec", "name": "333b57698f53251436392db287c5abec", "is_reserved": 0, "fusion_lat": 0.0}, {"type": "electric_bike", "rental_uris": {"ios": "https://dc.lft.to/lastmile_qr_scan", "android": "https://dc.lft.to/lastmile_qr_scan"}, "lon": -76.95200816666667, "fusion_lon": 0.0, "is_disabled": 0, "lat": 38.936741833333336, "bike_id": "70de47c7223cd0983b2d9e87faefec2f", "name": "70de47c7223cd0983b2d9e87faefec2f", "is_reserved": 0, "fusion_lat": 0.0}, {"type": "electric_scooter", "rental_uris": {"ios": "https://dc.lft.to/lastmile_qr_scan", "android": "https://dc.lft.to/lastmile_qr_scan"}, "lon": -77.04100833333334, "fusion_lon": 0.0, "is_disabled": 0, "lat": 38.89951716666667, "bike_id": "57258dbb941d8cf1c18aaac3ce337aa7", "name": "57258dbb941d8cf1c18aaac3ce337aa7", "is_reserved": 0, "fusion_lat": 0.0}, {"type": "electric_bike", "rental_uris": {"ios": "https://dc.lft.to/lastmile_qr_scan", "android": "https://dc.lft.to/lastmile_qr_scan"}, "lon": -76.9726335, "fusion_lon": 0.0, "is_disabled": 0, "lat": 38.91960816666667, "bike_id": "93796ce0cc2c7c4f6d7ada53a94568dc", "name": "93796ce0cc2c7c4f6d7ada53a94568dc", "is_reserved": 0, "fusion_lat": 0.0}, {"type": "electric_scooter", "rental_uris": {"ios": "https://dc.lft.to/lastmile_qr_scan", "android": "https://dc.lft.to/lastmile_qr_scan"}, "lon": -77.02622133333334, "fusion_lon": 0.0, "is_disabled": 0, "lat": 38.94821783333333, "bike_id": "7c839b9fa89d329d8c06f52e12d7d2c9", "name": "7c839b9fa89d329d8c06f52e12d7d2c9", "is_reserved": 0, "fusion_lat": 0.0}, {"type": "electric_scooter", "rental_uris": {"ios": "https://dc.lft.to/lastmile_qr_scan", "android": "https://dc.lft.to/lastmile_qr_scan"}, "lon": -77.00073183333333, "fusion_lon": 0.0, "is_disabled": 0, "lat": 38.925507333333336, "bike_id": "087197c84f64c281e98de72522bcc245", "name": "087197c84f64c281e98de72522bcc245", "is_reserved": 0, "fusion_lat": 0.0}, {"type": "electric_scooter", "rental_uris": {"ios": "https://dc.lft.to/lastmile_qr_scan", "android": "https://dc.lft.to/lastmile_qr_scan"}, "lon": -77.0299845, "fusion_lon": 0.0, "is_disabled": 0, "lat": 38.90725466666667, "bike_id": "38eb8e0751f6750c0b9c9f03ba39bed1", "name": "38eb8e0751f6750c0b9c9f03ba39bed1", "is_reserved": 0, "fusion_lat": 0.0}, {"type": "electric_scooter", "rental_uris": {"ios": "https://dc.lft.to/lastmile_qr_scan", "android": "https://dc.lft.to/lastmile_qr_scan"}, "lon": -77.00993683333333, "fusion_lon": 0.0, "is_disabled": 0, "lat": 38.872886333333334, "bike_id": "daca667def0d61b68a496c13f8d1eaf8", "name": "daca667def0d61b68a496c13f8d1eaf8", "is_reserved": 0, "fusion_lat": 0.0}, {"type": "electric_scooter", "rental_uris": {"ios": "https://dc.lft.to/lastmile_qr_scan", "android": "https://dc.lft.to/lastmile_qr_scan"}, "lon": -77.03760316666667, "fusion_lon": 0.0, "is_disabled": 0, "lat": 38.93597533333333, "bike_id": "06ed5b2ec04e0f3a701113ba2ebcc0fc", "name": "06ed5b2ec04e0f3a701113ba2ebcc0fc", "is_reserved": 0, "fusion_lat": 0.0}, {"type": "electric_scooter", "rental_uris": {"ios": "https://dc.lft.to/lastmile_qr_scan", "android": "https://dc.lft.to/lastmile_qr_scan"}, "lon": -77.00049983333334, "fusion_lon": 0.0, "is_disabled": 0, "lat": 38.920240166666666, "bike_id": "a9ebfd30949b66d62a057b33b84b1e4d", "name": "a9ebfd30949b66d62a057b33b84b1e4d", "is_reserved": 0, "fusion_lat": 0.0}, {"type": "electric_bike", "rental_uris": {"ios": "https://dc.lft.to/lastmile_qr_scan", "android": "https://dc.lft.to/lastmile_qr_scan"}, "lon": -76.97015483333334, "fusion_lon": 0.0, "is_disabled": 0, "lat": 38.86371466666667, "bike_id": "5678a3c45bfa11c159f77eefa03ff87c", "name": "5678a3c45bfa11c159f77eefa03ff87c", "is_reserved": 0, "fusion_lat": 0.0}, {"type": "electric_scooter", "rental_uris": {"ios": "https://dc.lft.to/lastmile_qr_scan", "android": "https://dc.lft.to/lastmile_qr_scan"}, "lon": -77.04453433333333, "fusion_lon": 0.0, "is_disabled": 0, "lat": 38.930176833333334, "bike_id": "dabe3350a5fa5822dad76e49cecfce90", "name": "dabe3350a5fa5822dad76e49cecfce90", "is_reserved": 0, "fusion_lat": 0.0}, {"type": "electric_scooter", "rental_uris": {"ios": "https://dc.lft.to/lastmile_qr_scan", "android": "https://dc.lft.to/lastmile_qr_scan"}, "lon": -77.04875133333333, "fusion_lon": 0.0, "is_disabled": 0, "lat": 38.90980233333333, "bike_id": "6a8513d94ae69ef833c041e1b95b18f6", "name": "6a8513d94ae69ef833c041e1b95b18f6", "is_reserved": 0, "fusion_lat": 0.0}, {"type": "electric_scooter", "rental_uris": {"ios": "https://dc.lft.to/lastmile_qr_scan", "android": "https://dc.lft.to/lastmile_qr_scan"}, "lon": -77.01756683333333, "fusion_lon": 0.0, "is_disabled": 0, "lat": 38.902668166666665, "bike_id": "fc42d1d80037c253245f2826c993ae84", "name": "fc42d1d80037c253245f2826c993ae84", "is_reserved": 0, "fusion_lat": 0.0}, {"type": "electric_scooter", "rental_uris": {"ios": "https://dc.lft.to/lastmile_qr_scan", "android": "https://dc.lft.to/lastmile_qr_scan"}, "lon": -76.99497433333333, "fusion_lon": 0.0, "is_disabled": 0, "lat": 38.862432, "bike_id": "db22a9d2fdcd52307a128d2db2602b77", "name": "db22a9d2fdcd52307a128d2db2602b77", "is_reserved": 0, "fusion_lat": 0.0}, {"type": "electric_scooter", "rental_uris": {"ios": "https://dc.lft.to/lastmile_qr_scan", "android": "https://dc.lft.to/lastmile_qr_scan"}, "lon": -76.98408066666667, "fusion_lon": 0.0, "is_disabled": 0, "lat": 38.86331533333333, "bike_id": "10ea15c847c2adf726c6683959625bad", "name": "10ea15c847c2adf726c6683959625bad", "is_reserved": 0, "fusion_lat": 0.0}, {"type": "electric_scooter", "rental_uris": {"ios": "https://dc.lft.to/lastmile_qr_scan", "android": "https://dc.lft.to/lastmile_qr_scan"}, "lon": -76.933772, "fusion_lon": 0.0, "is_disabled": 0, "lat": 38.898843, "bike_id": "ce1bc8038ff29ba7d7ad0288b5bf05ab", "name": "ce1bc8038ff29ba7d7ad0288b5bf05ab", "is_reserved": 0, "fusion_lat": 0.0}, {"type": "electric_scooter", "rental_uris": {"ios": "https://dc.lft.to/lastmile_qr_scan", "android": "https://dc.lft.to/lastmile_qr_scan"}, "lon": -77.032072, "fusion_lon": 0.0, "is_disabled": 0, "lat": 38.912034, "bike_id": "d7520b05b962ad4dde6c34a818619141", "name": "d7520b05b962ad4dde6c34a818619141", "is_reserved": 0, "fusion_lat": 0.0}, {"type": "electric_scooter", "rental_uris": {"ios": "https://dc.lft.to/lastmile_qr_scan", "android": "https://dc.lft.to/lastmile_qr_scan"}, "lon": -77.03218833333334, "fusion_lon": 0.0, "is_disabled": 0, "lat": 38.913776166666665, "bike_id": "80887400f5c70a5bd821187e4289ee2b", "name": "80887400f5c70a5bd821187e4289ee2b", "is_reserved": 0, "fusion_lat": 0.0}, {"type": "electric_bike", "rental_uris": {"ios": "https://dc.lft.to/lastmile_qr_scan", "android": "https://dc.lft.to/lastmile_qr_scan"}, "lon": -77.00838783333333, "fusion_lon": 0.0, "is_disabled": 0, "lat": 38.828737833333335, "bike_id": "5361461c1316a8f60759f3de65f4d22c", "name": "5361461c1316a8f60759f3de65f4d22c", "is_reserved": 0, "fusion_lat": 0.0}, {"type": "electric_scooter", "rental_uris": {"ios": "https://dc.lft.to/lastmile_qr_scan", "android": "https://dc.lft.to/lastmile_qr_scan"}, "lon": -77.0426915, "fusion_lon": 0.0, "is_disabled": 0, "lat": 38.910319333333334, "bike_id": "d0082c66326a58ded611d3751b8796f3", "name": "d0082c66326a58ded611d3751b8796f3", "is_reserved": 0, "fusion_lat": 0.0}, {"type": "electric_scooter", "rental_uris": {"ios": "https://dc.lft.to/lastmile_qr_scan", "android": "https://dc.lft.to/lastmile_qr_scan"}, "lon": -77.00204483333333, "fusion_lon": 0.0, "is_disabled": 0, "lat": 38.90238333333333, "bike_id": "3bf2ea9c0141581b796af872a7d4036d", "name": "3bf2ea9c0141581b796af872a7d4036d", "is_reserved": 0, "fusion_lat": 0.0}, {"type": "electric_scooter", "rental_uris": {"ios": "https://dc.lft.to/lastmile_qr_scan", "android": "https://dc.lft.to/lastmile_qr_scan"}, "lon": -77.03158766666667, "fusion_lon": 0.0, "is_disabled": 0, "lat": 38.91402883333333, "bike_id": "0b606ac12898a3a2fed9fd77c3bcc4b3", "name": "0b606ac12898a3a2fed9fd77c3bcc4b3", "is_reserved": 0, "fusion_lat": 0.0}, {"type": "electric_scooter", "rental_uris": {"ios": "https://dc.lft.to/lastmile_qr_scan", "android": "https://dc.lft.to/lastmile_qr_scan"}, "lon": -77.0586275, "fusion_lon": 0.0, "is_disabled": 0, "lat": 38.9360635, "bike_id": "6725ecf07a2846ce6237d5b7638f9f6f", "name": "6725ecf07a2846ce6237d5b7638f9f6f", "is_reserved": 0, "fusion_lat": 0.0}, {"type": "electric_scooter", "rental_uris": {"ios": "https://dc.lft.to/lastmile_qr_scan", "android": "https://dc.lft.to/lastmile_qr_scan"}, "lon": -77.017596, "fusion_lon": 0.0, "is_disabled": 0, "lat": 38.9026065, "bike_id": "45b44b536c379fd2fc60e434bb9c5670", "name": "45b44b536c379fd2fc60e434bb9c5670", "is_reserved": 0, "fusion_lat": 0.0}, {"type": "electric_scooter", "rental_uris": {"ios": "https://dc.lft.to/lastmile_qr_scan", "android": "https://dc.lft.to/lastmile_qr_scan"}, "lon": -77.02171983333334, "fusion_lon": 0.0, "is_disabled": 0, "lat": 38.942874, "bike_id": "90bca04eee66d09cbde2bb91fd1fbc6f", "name": "90bca04eee66d09cbde2bb91fd1fbc6f", "is_reserved": 0, "fusion_lat": 0.0}, {"type": "electric_scooter", "rental_uris": {"ios": "https://dc.lft.to/lastmile_qr_scan", "android": "https://dc.lft.to/lastmile_qr_scan"}, "lon": -76.965305, "fusion_lon": 0.0, "is_disabled": 0, "lat": 38.876264666666664, "bike_id": "16e80ef82dbfc76e3de1f435caee5df9", "name": "16e80ef82dbfc76e3de1f435caee5df9", "is_reserved": 0, "fusion_lat": 0.0}, {"type": "electric_scooter", "rental_uris": {"ios": "https://dc.lft.to/lastmile_qr_scan", "android": "https://dc.lft.to/lastmile_qr_scan"}, "lon": -76.97629683333334, "fusion_lon": 0.0, "is_disabled": 0, "lat": 38.8987575, "bike_id": "bca22dc8cdf0da17ed8ff2aed87c98c0", "name": "bca22dc8cdf0da17ed8ff2aed87c98c0", "is_reserved": 0, "fusion_lat": 0.0}, {"type": "electric_scooter", "rental_uris": {"ios": "https://dc.lft.to/lastmile_qr_scan", "android": "https://dc.lft.to/lastmile_qr_scan"}, "lon": -76.9415665, "fusion_lon": 0.0, "is_disabled": 0, "lat": 38.883647833333335, "bike_id": "7efaed75475628b39b704751472dd956", "name": "7efaed75475628b39b704751472dd956", "is_reserved": 0, "fusion_lat": 0.0}, {"type": "electric_scooter", "rental_uris": {"ios": "https://dc.lft.to/lastmile_qr_scan", "android": "https://dc.lft.to/lastmile_qr_scan"}, "lon": -77.039556, "fusion_lon": 0.0, "is_disabled": 0, "lat": 38.89889383333333, "bike_id": "e19df9abbcaad36c30868117706bcda0", "name": "e19df9abbcaad36c30868117706bcda0", "is_reserved": 0, "fusion_lat": 0.0}, {"type": "electric_bike", "rental_uris": {"ios": "https://dc.lft.to/lastmile_qr_scan", "android": "https://dc.lft.to/lastmile_qr_scan"}, "lon": -76.92482366666667, "fusion_lon": 0.0, "is_disabled": 0, "lat": 38.958830666666664, "bike_id": "e781444477b01b1f930950db850f4f06", "name": "e781444477b01b1f930950db850f4f06", "is_reserved": 0, "fusion_lat": 0.0}, {"type": "electric_scooter", "rental_uris": {"ios": "https://dc.lft.to/lastmile_qr_scan", "android": "https://dc.lft.to/lastmile_qr_scan"}, "lon": -77.026347, "fusion_lon": 0.0, "is_disabled": 0, "lat": 38.9252995, "bike_id": "4e1b81a1f5f49d07a58145689f83baca", "name": "4e1b81a1f5f49d07a58145689f83baca", "is_reserved": 0, "fusion_lat": 0.0}, {"type": "electric_scooter", "rental_uris": {"ios": "https://dc.lft.to/lastmile_qr_scan", "android": "https://dc.lft.to/lastmile_qr_scan"}, "lon": -77.00581783333334, "fusion_lon": 0.0, "is_disabled": 0, "lat": 38.90573083333334, "bike_id": "ed33fd03fd5c42f1b18069c1fb7c2837", "name": "ed33fd03fd5c42f1b18069c1fb7c2837", "is_reserved": 0, "fusion_lat": 0.0}, {"type": "electric_scooter", "rental_uris": {"ios": "https://dc.lft.to/lastmile_qr_scan", "android": "https://dc.lft.to/lastmile_qr_scan"}, "lon": -77.02983433333333, "fusion_lon": 0.0, "is_disabled": 0, "lat": 38.916883, "bike_id": "d0e3110f36787390f9a88f1194f19415", "name": "d0e3110f36787390f9a88f1194f19415", "is_reserved": 0, "fusion_lat": 0.0}, {"type": "electric_scooter", "rental_uris": {"ios": "https://dc.lft.to/lastmile_qr_scan", "android": "https://dc.lft.to/lastmile_qr_scan"}, "lon": -77.078823, "fusion_lon": 0.0, "is_disabled": 0, "lat": 38.9206105, "bike_id": "87753a581ccf959de7beaef7f9d7faf7", "name": "87753a581ccf959de7beaef7f9d7faf7", "is_reserved": 0, "fusion_lat": 0.0}, {"type": "electric_scooter", "rental_uris": {"ios": "https://dc.lft.to/lastmile_qr_scan", "android": "https://dc.lft.to/lastmile_qr_scan"}, "lon": -77.0058405, "fusion_lon": 0.0, "is_disabled": 0, "lat": 38.905515, "bike_id": "6de47151ffc4c863191858351d3bd41e", "name": "6de47151ffc4c863191858351d3bd41e", "is_reserved": 0, "fusion_lat": 0.0}, {"type": "electric_scooter", "rental_uris": {"ios": "https://dc.lft.to/lastmile_qr_scan", "android": "https://dc.lft.to/lastmile_qr_scan"}, "lon": -77.00208316666667, "fusion_lon": 0.0, "is_disabled": 0, "lat": 38.9204505, "bike_id": "1c19e6b7e10a154ca39e2f096d29ea54", "name": "1c19e6b7e10a154ca39e2f096d29ea54", "is_reserved": 0, "fusion_lat": 0.0}, {"type": "electric_scooter", "rental_uris": {"ios": "https://dc.lft.to/lastmile_qr_scan", "android": "https://dc.lft.to/lastmile_qr_scan"}, "lon": -77.04470683333334, "fusion_lon": 0.0, "is_disabled": 0, "lat": 38.909376, "bike_id": "5b14940c4ce4180612c53b68dcdf7f2c", "name": "5b14940c4ce4180612c53b68dcdf7f2c", "is_reserved": 0, "fusion_lat": 0.0}, {"type": "electric_scooter", "rental_uris": {"ios": "https://dc.lft.to/lastmile_qr_scan", "android": "https://dc.lft.to/lastmile_qr_scan"}, "lon": -77.035818, "fusion_lon": 0.0, "is_disabled": 0, "lat": 38.934743166666664, "bike_id": "39bdcb2b2999662564702a4d37388dae", "name": "39bdcb2b2999662564702a4d37388dae", "is_reserved": 0, "fusion_lat": 0.0}, {"type": "electric_bike", "rental_uris": {"ios": "https://dc.lft.to/lastmile_qr_scan", "android": "https://dc.lft.to/lastmile_qr_scan"}, "lon": -77.034285, "fusion_lon": 0.0, "is_disabled": 0, "lat": 38.966192666666664, "bike_id": "3b566915ea3b7b81c04d395c677c1c3e", "name": "3b566915ea3b7b81c04d395c677c1c3e", "is_reserved": 0, "fusion_lat": 0.0}, {"type": "electric_scooter", "rental_uris": {"ios": "https://dc.lft.to/lastmile_qr_scan", "android": "https://dc.lft.to/lastmile_qr_scan"}, "lon": -77.02774983333333, "fusion_lon": 0.0, "is_disabled": 0, "lat": 38.8969635, "bike_id": "e2d3ccbc8ffea842166c168ede11ab1d", "name": "e2d3ccbc8ffea842166c168ede11ab1d", "is_reserved": 0, "fusion_lat": 0.0}, {"type": "electric_scooter", "rental_uris": {"ios": "https://dc.lft.to/lastmile_qr_scan", "android": "https://dc.lft.to/lastmile_qr_scan"}, "lon": -77.052333, "fusion_lon": 0.0, "is_disabled": 0, "lat": 38.9246475, "bike_id": "e8bdff95752feafd3e0dac5794559c78", "name": "e8bdff95752feafd3e0dac5794559c78", "is_reserved": 0, "fusion_lat": 0.0}, {"type": "electric_scooter", "rental_uris": {"ios": "https://dc.lft.to/lastmile_qr_scan", "android": "https://dc.lft.to/lastmile_qr_scan"}, "lon": -77.0225085, "fusion_lon": 0.0, "is_disabled": 0, "lat": 38.878611666666664, "bike_id": "fe386d9dedf7fc1a4aa9233362b2106e", "name": "fe386d9dedf7fc1a4aa9233362b2106e", "is_reserved": 0, "fusion_lat": 0.0}, {"type": "electric_bike", "rental_uris": {"ios": "https://dc.lft.to/lastmile_qr_scan", "android": "https://dc.lft.to/lastmile_qr_scan"}, "lon": -77.04974083333333, "fusion_lon": 0.0, "is_disabled": 0, "lat": 38.832203, "bike_id": "67fb688022fecdbcdfbaa815c44a3711", "name": "67fb688022fecdbcdfbaa815c44a3711", "is_reserved": 0, "fusion_lat": 0.0}, {"type": "electric_scooter", "rental_uris": {"ios": "https://dc.lft.to/lastmile_qr_scan", "android": "https://dc.lft.to/lastmile_qr_scan"}, "lon": -77.02839633333333, "fusion_lon": 0.0, "is_disabled": 0, "lat": 38.89231733333333, "bike_id": "ba862584d392a83c7ab47eb26ae1a92c", "name": "ba862584d392a83c7ab47eb26ae1a92c", "is_reserved": 0, "fusion_lat": 0.0}, {"type": "electric_scooter", "rental_uris": {"ios": "https://dc.lft.to/lastmile_qr_scan", "android": "https://dc.lft.to/lastmile_qr_scan"}, "lon": -77.02491166666667, "fusion_lon": 0.0, "is_disabled": 0, "lat": 38.91952633333333, "bike_id": "facaedd442de4c34ee6ab56c01b49fde", "name": "facaedd442de4c34ee6ab56c01b49fde", "is_reserved": 0, "fusion_lat": 0.0}, {"type": "electric_scooter", "rental_uris": {"ios": "https://dc.lft.to/lastmile_qr_scan", "android": "https://dc.lft.to/lastmile_qr_scan"}, "lon": -77.02599783333334, "fusion_lon": 0.0, "is_disabled": 0, "lat": 38.91690716666667, "bike_id": "5cdeb3bc56b188b53b3be1a6ec148e82", "name": "5cdeb3bc56b188b53b3be1a6ec148e82", "is_reserved": 0, "fusion_lat": 0.0}, {"type": "electric_scooter", "rental_uris": {"ios": "https://dc.lft.to/lastmile_qr_scan", "android": "https://dc.lft.to/lastmile_qr_scan"}, "lon": -76.9951845, "fusion_lon": 0.0, "is_disabled": 0, "lat": 38.86255583333333, "bike_id": "3fd09d68dd8957946072b956c58f4f69", "name": "3fd09d68dd8957946072b956c58f4f69", "is_reserved": 0, "fusion_lat": 0.0}, {"type": "electric_scooter", "rental_uris": {"ios": "https://dc.lft.to/lastmile_qr_scan", "android": "https://dc.lft.to/lastmile_qr_scan"}, "lon": -77.04509316666666, "fusion_lon": 0.0, "is_disabled": 0, "lat": 38.919652166666665, "bike_id": "ee1efd95b1f33bba30bbbf501e5c51ef", "name": "ee1efd95b1f33bba30bbbf501e5c51ef", "is_reserved": 0, "fusion_lat": 0.0}, {"type": "electric_scooter", "rental_uris": {"ios": "https://dc.lft.to/lastmile_qr_scan", "android": "https://dc.lft.to/lastmile_qr_scan"}, "lon": -76.98988983333334, "fusion_lon": 0.0, "is_disabled": 0, "lat": 38.86499633333333, "bike_id": "2bb1db787b37f192832bec62e98a66a1", "name": "2bb1db787b37f192832bec62e98a66a1", "is_reserved": 0, "fusion_lat": 0.0}, {"type": "electric_scooter", "rental_uris": {"ios": "https://dc.lft.to/lastmile_qr_scan", "android": "https://dc.lft.to/lastmile_qr_scan"}, "lon": -77.01067833333333, "fusion_lon": 0.0, "is_disabled": 0, "lat": 38.90737016666667, "bike_id": "057b927377530e7667f9afd1950aaffa", "name": "057b927377530e7667f9afd1950aaffa", "is_reserved": 0, "fusion_lat": 0.0}, {"type": "electric_scooter", "rental_uris": {"ios": "https://dc.lft.to/lastmile_qr_scan", "android": "https://dc.lft.to/lastmile_qr_scan"}, "lon": -77.0037985, "fusion_lon": 0.0, "is_disabled": 0, "lat": 38.905642, "bike_id": "4ad70ccb3510c581bad9a4fe24227579", "name": "4ad70ccb3510c581bad9a4fe24227579", "is_reserved": 0, "fusion_lat": 0.0}, {"type": "electric_scooter", "rental_uris": {"ios": "https://dc.lft.to/lastmile_qr_scan", "android": "https://dc.lft.to/lastmile_qr_scan"}, "lon": -76.954142, "fusion_lon": 0.0, "is_disabled": 0, "lat": 38.89000766666667, "bike_id": "05dd77d20e614cdff45585fe269d4bed", "name": "05dd77d20e614cdff45585fe269d4bed", "is_reserved": 0, "fusion_lat": 0.0}, {"type": "electric_scooter", "rental_uris": {"ios": "https://dc.lft.to/lastmile_qr_scan", "android": "https://dc.lft.to/lastmile_qr_scan"}, "lon": -77.041761, "fusion_lon": 0.0, "is_disabled": 0, "lat": 38.915494333333335, "bike_id": "4e7281e77424bd93d6dc9b955498b3a5", "name": "4e7281e77424bd93d6dc9b955498b3a5", "is_reserved": 0, "fusion_lat": 0.0}, {"type": "electric_scooter", "rental_uris": {"ios": "https://dc.lft.to/lastmile_qr_scan", "android": "https://dc.lft.to/lastmile_qr_scan"}, "lon": -77.04146483333334, "fusion_lon": 0.0, "is_disabled": 0, "lat": 38.90510583333333, "bike_id": "6dd8bdba23fbe67a2394f6ce160298e7", "name": "6dd8bdba23fbe67a2394f6ce160298e7", "is_reserved": 0, "fusion_lat": 0.0}, {"type": "electric_scooter", "rental_uris": {"ios": "https://dc.lft.to/lastmile_qr_scan", "android": "https://dc.lft.to/lastmile_qr_scan"}, "lon": -77.03672416666667, "fusion_lon": 0.0, "is_disabled": 0, "lat": 38.91709933333333, "bike_id": "3984ebaf7a6879c508ec19a5cf6c40e7", "name": "3984ebaf7a6879c508ec19a5cf6c40e7", "is_reserved": 0, "fusion_lat": 0.0}, {"type": "electric_scooter", "rental_uris": {"ios": "https://dc.lft.to/lastmile_qr_scan", "android": "https://dc.lft.to/lastmile_qr_scan"}, "lon": -77.03224766666666, "fusion_lon": 0.0, "is_disabled": 0, "lat": 38.8922295, "bike_id": "e61ce1d8c423f0a7cf8e2c1078001c35", "name": "e61ce1d8c423f0a7cf8e2c1078001c35", "is_reserved": 0, "fusion_lat": 0.0}, {"type": "electric_scooter", "rental_uris": {"ios": "https://dc.lft.to/lastmile_qr_scan", "android": "https://dc.lft.to/lastmile_qr_scan"}, "lon": -77.02404666666666, "fusion_lon": 0.0, "is_disabled": 0, "lat": 38.95709133333333, "bike_id": "6774d7d10192da3a9fe9c047f9826d87", "name": "6774d7d10192da3a9fe9c047f9826d87", "is_reserved": 0, "fusion_lat": 0.0}, {"type": "electric_scooter", "rental_uris": {"ios": "https://dc.lft.to/lastmile_qr_scan", "android": "https://dc.lft.to/lastmile_qr_scan"}, "lon": -77.04156266666666, "fusion_lon": 0.0, "is_disabled": 0, "lat": 38.9051355, "bike_id": "112e2df901544f55cddb37886ce63e55", "name": "112e2df901544f55cddb37886ce63e55", "is_reserved": 0, "fusion_lat": 0.0}, {"type": "electric_scooter", "rental_uris": {"ios": "https://dc.lft.to/lastmile_qr_scan", "android": "https://dc.lft.to/lastmile_qr_scan"}, "lon": -77.03862333333333, "fusion_lon": 0.0, "is_disabled": 0, "lat": 38.9123305, "bike_id": "dd34dc0887b1d9e3f17be73c7fe6a776", "name": "dd34dc0887b1d9e3f17be73c7fe6a776", "is_reserved": 0, "fusion_lat": 0.0}, {"type": "electric_scooter", "rental_uris": {"ios": "https://dc.lft.to/lastmile_qr_scan", "android": "https://dc.lft.to/lastmile_qr_scan"}, "lon": -77.02788183333334, "fusion_lon": 0.0, "is_disabled": 0, "lat": 38.89935783333333, "bike_id": "9a325349e0ae95bb402630061c9d3c5a", "name": "9a325349e0ae95bb402630061c9d3c5a", "is_reserved": 0, "fusion_lat": 0.0}, {"type": "electric_scooter", "rental_uris": {"ios": "https://dc.lft.to/lastmile_qr_scan", "android": "https://dc.lft.to/lastmile_qr_scan"}, "lon": -77.00370283333334, "fusion_lon": 0.0, "is_disabled": 0, "lat": 38.8826675, "bike_id": "c8aac016f9e36342d1cab326310696c6", "name": "c8aac016f9e36342d1cab326310696c6", "is_reserved": 0, "fusion_lat": 0.0}, {"type": "electric_scooter", "rental_uris": {"ios": "https://dc.lft.to/lastmile_qr_scan", "android": "https://dc.lft.to/lastmile_qr_scan"}, "lon": -77.04330666666667, "fusion_lon": 0.0, "is_disabled": 0, "lat": 38.905102666666664, "bike_id": "62fc4ed3c891780c3c962ad83f047fd1", "name": "62fc4ed3c891780c3c962ad83f047fd1", "is_reserved": 0, "fusion_lat": 0.0}, {"type": "electric_bike", "rental_uris": {"ios": "https://dc.lft.to/lastmile_qr_scan", "android": "https://dc.lft.to/lastmile_qr_scan"}, "lon": -77.03595816666666, "fusion_lon": 0.0, "is_disabled": 0, "lat": 38.90691916666667, "bike_id": "9cf87b64a9e87b2f5523143e67108053", "name": "9cf87b64a9e87b2f5523143e67108053", "is_reserved": 0, "fusion_lat": 0.0}, {"type": "electric_scooter", "rental_uris": {"ios": "https://dc.lft.to/lastmile_qr_scan", "android": "https://dc.lft.to/lastmile_qr_scan"}, "lon": -77.036662, "fusion_lon": 0.0, "is_disabled": 0, "lat": 38.918626833333335, "bike_id": "b436e5d7d34c1d544fb2bf6ee6c2d749", "name": "b436e5d7d34c1d544fb2bf6ee6c2d749", "is_reserved": 0, "fusion_lat": 0.0}, {"type": "electric_scooter", "rental_uris": {"ios": "https://dc.lft.to/lastmile_qr_scan", "android": "https://dc.lft.to/lastmile_qr_scan"}, "lon": -77.02984366666666, "fusion_lon": 0.0, "is_disabled": 0, "lat": 38.930651833333336, "bike_id": "3e68fcfd622cff80aac8e6c7079b4c85", "name": "3e68fcfd622cff80aac8e6c7079b4c85", "is_reserved": 0, "fusion_lat": 0.0}, {"type": "electric_scooter", "rental_uris": {"ios": "https://dc.lft.to/lastmile_qr_scan", "android": "https://dc.lft.to/lastmile_qr_scan"}, "lon": -77.00244983333333, "fusion_lon": 0.0, "is_disabled": 0, "lat": 38.880136666666665, "bike_id": "32e4b96a4e8b1a2984e2166d78e504c4", "name": "32e4b96a4e8b1a2984e2166d78e504c4", "is_reserved": 0, "fusion_lat": 0.0}, {"type": "electric_bike", "rental_uris": {"ios": "https://dc.lft.to/lastmile_qr_scan", "android": "https://dc.lft.to/lastmile_qr_scan"}, "lon": -77.0981475, "fusion_lon": 0.0, "is_disabled": 0, "lat": 38.8502465, "bike_id": "9394435a4756adaae1dfbf2629be7b03", "name": "9394435a4756adaae1dfbf2629be7b03", "is_reserved": 0, "fusion_lat": 0.0}, {"type": "electric_scooter", "rental_uris": {"ios": "https://dc.lft.to/lastmile_qr_scan", "android": "https://dc.lft.to/lastmile_qr_scan"}, "lon": -77.02223, "fusion_lon": 0.0, "is_disabled": 0, "lat": 38.8922305, "bike_id": "6be412ac946f97c75b673a2c5eb184db", "name": "6be412ac946f97c75b673a2c5eb184db", "is_reserved": 0, "fusion_lat": 0.0}, {"type": "electric_scooter", "rental_uris": {"ios": "https://dc.lft.to/lastmile_qr_scan", "android": "https://dc.lft.to/lastmile_qr_scan"}, "lon": -76.928767, "fusion_lon": 0.0, "is_disabled": 0, "lat": 38.88523166666667, "bike_id": "86350e03846551e562165187a4af860a", "name": "86350e03846551e562165187a4af860a", "is_reserved": 0, "fusion_lat": 0.0}, {"type": "electric_scooter", "rental_uris": {"ios": "https://dc.lft.to/lastmile_qr_scan", "android": "https://dc.lft.to/lastmile_qr_scan"}, "lon": -77.01866266666667, "fusion_lon": 0.0, "is_disabled": 0, "lat": 38.9315135, "bike_id": "665ea4adadc6d411ab22ca66b7a15266", "name": "665ea4adadc6d411ab22ca66b7a15266", "is_reserved": 0, "fusion_lat": 0.0}, {"type": "electric_bike", "rental_uris": {"ios": "https://dc.lft.to/lastmile_qr_scan", "android": "https://dc.lft.to/lastmile_qr_scan"}, "lon": -76.996685, "fusion_lon": 0.0, "is_disabled": 0, "lat": 38.89740716666667, "bike_id": "d754b86a66895325394c8a7c80f3f9e6", "name": "d754b86a66895325394c8a7c80f3f9e6", "is_reserved": 0, "fusion_lat": 0.0}, {"type": "electric_scooter", "rental_uris": {"ios": "https://dc.lft.to/lastmile_qr_scan", "android": "https://dc.lft.to/lastmile_qr_scan"}, "lon": -77.02168766666666, "fusion_lon": 0.0, "is_disabled": 0, "lat": 38.89731233333333, "bike_id": "fdd97a2646d7594c0cbc28d12e094bfb", "name": "fdd97a2646d7594c0cbc28d12e094bfb", "is_reserved": 0, "fusion_lat": 0.0}, {"type": "electric_bike", "rental_uris": {"ios": "https://dc.lft.to/lastmile_qr_scan", "android": "https://dc.lft.to/lastmile_qr_scan"}, "lon": -77.02067183333334, "fusion_lon": 0.0, "is_disabled": 0, "lat": 38.96439783333334, "bike_id": "10b58d2691cea3af7350fd5b466ad323", "name": "10b58d2691cea3af7350fd5b466ad323", "is_reserved": 0, "fusion_lat": 0.0}, {"type": "electric_scooter", "rental_uris": {"ios": "https://dc.lft.to/lastmile_qr_scan", "android": "https://dc.lft.to/lastmile_qr_scan"}, "lon": -77.03785566666667, "fusion_lon": 0.0, "is_disabled": 0, "lat": 38.926298833333334, "bike_id": "83921d3c4e4c77bd4bcd48b9bb8348ee", "name": "83921d3c4e4c77bd4bcd48b9bb8348ee", "is_reserved": 0, "fusion_lat": 0.0}, {"type": "electric_scooter", "rental_uris": {"ios": "https://dc.lft.to/lastmile_qr_scan", "android": "https://dc.lft.to/lastmile_qr_scan"}, "lon": -77.05221233333333, "fusion_lon": 0.0, "is_disabled": 0, "lat": 38.9249985, "bike_id": "f0654f05e02663683d0b40304bb960a3", "name": "f0654f05e02663683d0b40304bb960a3", "is_reserved": 0, "fusion_lat": 0.0}, {"type": "electric_scooter", "rental_uris": {"ios": "https://dc.lft.to/lastmile_qr_scan", "android": "https://dc.lft.to/lastmile_qr_scan"}, "lon": -77.02298016666667, "fusion_lon": 0.0, "is_disabled": 0, "lat": 38.91632716666667, "bike_id": "6fb25bad402fd3d93770473dd5a41c47", "name": "6fb25bad402fd3d93770473dd5a41c47", "is_reserved": 0, "fusion_lat": 0.0}, {"type": "electric_scooter", "rental_uris": {"ios": "https://dc.lft.to/lastmile_qr_scan", "android": "https://dc.lft.to/lastmile_qr_scan"}, "lon": -77.04161066666667, "fusion_lon": 0.0, "is_disabled": 0, "lat": 38.90142183333333, "bike_id": "97c8de587f602b88fa2285e35c0392b0", "name": "97c8de587f602b88fa2285e35c0392b0", "is_reserved": 0, "fusion_lat": 0.0}, {"type": "electric_scooter", "rental_uris": {"ios": "https://dc.lft.to/lastmile_qr_scan", "android": "https://dc.lft.to/lastmile_qr_scan"}, "lon": -77.03951583333334, "fusion_lon": 0.0, "is_disabled": 0, "lat": 38.907181666666666, "bike_id": "403f126315c2e100f4584e431367bbea", "name": "403f126315c2e100f4584e431367bbea", "is_reserved": 0, "fusion_lat": 0.0}, {"type": "electric_scooter", "rental_uris": {"ios": "https://dc.lft.to/lastmile_qr_scan", "android": "https://dc.lft.to/lastmile_qr_scan"}, "lon": -76.979467, "fusion_lon": 0.0, "is_disabled": 0, "lat": 38.94519433333333, "bike_id": "38e730aa5a91a93e741bf8d08a77521d", "name": "38e730aa5a91a93e741bf8d08a77521d", "is_reserved": 0, "fusion_lat": 0.0}, {"type": "electric_scooter", "rental_uris": {"ios": "https://dc.lft.to/lastmile_qr_scan", "android": "https://dc.lft.to/lastmile_qr_scan"}, "lon": -76.9802265, "fusion_lon": 0.0, "is_disabled": 0, "lat": 38.901330333333334, "bike_id": "9ba26db8560b09e93ec032084e61cd60", "name": "9ba26db8560b09e93ec032084e61cd60", "is_reserved": 0, "fusion_lat": 0.0}, {"type": "electric_bike", "rental_uris": {"ios": "https://dc.lft.to/lastmile_qr_scan", "android": "https://dc.lft.to/lastmile_qr_scan"}, "lon": -77.01205983333334, "fusion_lon": 0.0, "is_disabled": 0, "lat": 38.8708665, "bike_id": "283c21be8144292fd3a428278a8ea803", "name": "283c21be8144292fd3a428278a8ea803", "is_reserved": 0, "fusion_lat": 0.0}, {"type": "electric_scooter", "rental_uris": {"ios": "https://dc.lft.to/lastmile_qr_scan", "android": "https://dc.lft.to/lastmile_qr_scan"}, "lon": -77.05580383333333, "fusion_lon": 0.0, "is_disabled": 0, "lat": 38.899972166666664, "bike_id": "c27f24f255e90cb7c6865c5c70fed02b", "name": "c27f24f255e90cb7c6865c5c70fed02b", "is_reserved": 0, "fusion_lat": 0.0}, {"type": "electric_scooter", "rental_uris": {"ios": "https://dc.lft.to/lastmile_qr_scan", "android": "https://dc.lft.to/lastmile_qr_scan"}, "lon": -77.02696833333333, "fusion_lon": 0.0, "is_disabled": 0, "lat": 38.92566, "bike_id": "1fcddb6fc99d96cc448a551976481773", "name": "1fcddb6fc99d96cc448a551976481773", "is_reserved": 0, "fusion_lat": 0.0}, {"type": "electric_scooter", "rental_uris": {"ios": "https://dc.lft.to/lastmile_qr_scan", "android": "https://dc.lft.to/lastmile_qr_scan"}, "lon": -77.00460666666666, "fusion_lon": 0.0, "is_disabled": 0, "lat": 38.87659583333333, "bike_id": "1ff3b50d64ff36bcf2dffc7755a0f8b6", "name": "1ff3b50d64ff36bcf2dffc7755a0f8b6", "is_reserved": 0, "fusion_lat": 0.0}, {"type": "electric_scooter", "rental_uris": {"ios": "https://dc.lft.to/lastmile_qr_scan", "android": "https://dc.lft.to/lastmile_qr_scan"}, "lon": -77.0317955, "fusion_lon": 0.0, "is_disabled": 0, "lat": 38.9098025, "bike_id": "1653a577e1f4c90dd05dfdcc539f181c", "name": "1653a577e1f4c90dd05dfdcc539f181c", "is_reserved": 0, "fusion_lat": 0.0}, {"type": "electric_scooter", "rental_uris": {"ios": "https://dc.lft.to/lastmile_qr_scan", "android": "https://dc.lft.to/lastmile_qr_scan"}, "lon": -77.03201866666667, "fusion_lon": 0.0, "is_disabled": 0, "lat": 38.918394166666666, "bike_id": "0ad300499e0a0448877a7e67d2402f4b", "name": "0ad300499e0a0448877a7e67d2402f4b", "is_reserved": 0, "fusion_lat": 0.0}, {"type": "electric_scooter", "rental_uris": {"ios": "https://dc.lft.to/lastmile_qr_scan", "android": "https://dc.lft.to/lastmile_qr_scan"}, "lon": -77.03636883333333, "fusion_lon": 0.0, "is_disabled": 0, "lat": 38.913059, "bike_id": "63d7ef438c1ffa9a6f176d20ac320c58", "name": "63d7ef438c1ffa9a6f176d20ac320c58", "is_reserved": 0, "fusion_lat": 0.0}, {"type": "electric_bike", "rental_uris": {"ios": "https://dc.lft.to/lastmile_qr_scan", "android": "https://dc.lft.to/lastmile_qr_scan"}, "lon": -77.08116933333334, "fusion_lon": 0.0, "is_disabled": 0, "lat": 38.806816166666664, "bike_id": "7a3744a3f156c2afb41511f001ca4970", "name": "7a3744a3f156c2afb41511f001ca4970", "is_reserved": 0, "fusion_lat": 0.0}, {"type": "electric_scooter", "rental_uris": {"ios": "https://dc.lft.to/lastmile_qr_scan", "android": "https://dc.lft.to/lastmile_qr_scan"}, "lon": -77.040063, "fusion_lon": 0.0, "is_disabled": 0, "lat": 38.924245666666664, "bike_id": "79fd02ef967e994dc645c80bd710b9e8", "name": "79fd02ef967e994dc645c80bd710b9e8", "is_reserved": 0, "fusion_lat": 0.0}, {"type": "electric_bike", "rental_uris": {"ios": "https://dc.lft.to/lastmile_qr_scan", "android": "https://dc.lft.to/lastmile_qr_scan"}, "lon": -76.91606033333333, "fusion_lon": 0.0, "is_disabled": 0, "lat": 38.879726166666664, "bike_id": "e57a0f8520cd18d3a0b44099f0216f8c", "name": "e57a0f8520cd18d3a0b44099f0216f8c", "is_reserved": 0, "fusion_lat": 0.0}, {"type": "electric_scooter", "rental_uris": {"ios": "https://dc.lft.to/lastmile_qr_scan", "android": "https://dc.lft.to/lastmile_qr_scan"}, "lon": -77.04899666666667, "fusion_lon": 0.0, "is_disabled": 0, "lat": 38.8922345, "bike_id": "e03b092dd0d8dfc63114b6816dc11cd1", "name": "e03b092dd0d8dfc63114b6816dc11cd1", "is_reserved": 0, "fusion_lat": 0.0}, {"type": "electric_scooter", "rental_uris": {"ios": "https://dc.lft.to/lastmile_qr_scan", "android": "https://dc.lft.to/lastmile_qr_scan"}, "lon": -77.02337166666666, "fusion_lon": 0.0, "is_disabled": 0, "lat": 38.917877, "bike_id": "8f4aed278eff1784d6f2d6da6ed56685", "name": "8f4aed278eff1784d6f2d6da6ed56685", "is_reserved": 0, "fusion_lat": 0.0}, {"type": "electric_scooter", "rental_uris": {"ios": "https://dc.lft.to/lastmile_qr_scan", "android": "https://dc.lft.to/lastmile_qr_scan"}, "lon": -77.0366315, "fusion_lon": 0.0, "is_disabled": 0, "lat": 38.926000333333334, "bike_id": "167661e617a5d89a9b53f875cb816dbf", "name": "167661e617a5d89a9b53f875cb816dbf", "is_reserved": 0, "fusion_lat": 0.0}, {"type": "electric_scooter", "rental_uris": {"ios": "https://dc.lft.to/lastmile_qr_scan", "android": "https://dc.lft.to/lastmile_qr_scan"}, "lon": -77.03150416666666, "fusion_lon": 0.0, "is_disabled": 0, "lat": 38.915625166666665, "bike_id": "c5f0ff422c6861ccbc79f84858052e61", "name": "c5f0ff422c6861ccbc79f84858052e61", "is_reserved": 0, "fusion_lat": 0.0}, {"type": "electric_scooter", "rental_uris": {"ios": "https://dc.lft.to/lastmile_qr_scan", "android": "https://dc.lft.to/lastmile_qr_scan"}, "lon": -77.03185016666667, "fusion_lon": 0.0, "is_disabled": 0, "lat": 38.907871, "bike_id": "cd0d8bd20f623ec1b7ef0fadc9f0aada", "name": "cd0d8bd20f623ec1b7ef0fadc9f0aada", "is_reserved": 0, "fusion_lat": 0.0}, {"type": "electric_scooter", "rental_uris": {"ios": "https://dc.lft.to/lastmile_qr_scan", "android": "https://dc.lft.to/lastmile_qr_scan"}, "lon": -77.0234965, "fusion_lon": 0.0, "is_disabled": 0, "lat": 38.917846, "bike_id": "4cb3f090c043f5193ebb6f6e2faf410b", "name": "4cb3f090c043f5193ebb6f6e2faf410b", "is_reserved": 0, "fusion_lat": 0.0}, {"type": "electric_bike", "rental_uris": {"ios": "https://dc.lft.to/lastmile_qr_scan", "android": "https://dc.lft.to/lastmile_qr_scan"}, "lon": -76.96904333333333, "fusion_lon": 0.0, "is_disabled": 0, "lat": 38.846113, "bike_id": "052ecd3f3b09ceb44b11edbb5a2ce9ad", "name": "052ecd3f3b09ceb44b11edbb5a2ce9ad", "is_reserved": 0, "fusion_lat": 0.0}, {"type": "electric_scooter", "rental_uris": {"ios": "https://dc.lft.to/lastmile_qr_scan", "android": "https://dc.lft.to/lastmile_qr_scan"}, "lon": -77.03849016666666, "fusion_lon": 0.0, "is_disabled": 0, "lat": 38.91547166666667, "bike_id": "11cc9373b4d61aa279c243dcb98034b3", "name": "11cc9373b4d61aa279c243dcb98034b3", "is_reserved": 0, "fusion_lat": 0.0}, {"type": "electric_scooter", "rental_uris": {"ios": "https://dc.lft.to/lastmile_qr_scan", "android": "https://dc.lft.to/lastmile_qr_scan"}, "lon": -76.97661783333334, "fusion_lon": 0.0, "is_disabled": 0, "lat": 38.898547666666666, "bike_id": "decd0cbf9dffd2555b60ab5e94f53b0d", "name": "decd0cbf9dffd2555b60ab5e94f53b0d", "is_reserved": 0, "fusion_lat": 0.0}, {"type": "electric_bike", "rental_uris": {"ios": "https://dc.lft.to/lastmile_qr_scan", "android": "https://dc.lft.to/lastmile_qr_scan"}, "lon": -77.1202315, "fusion_lon": 0.0, "is_disabled": 0, "lat": 38.85508083333333, "bike_id": "d663ac78b0d75704d74334b963a7a411", "name": "d663ac78b0d75704d74334b963a7a411", "is_reserved": 0, "fusion_lat": 0.0}, {"type": "electric_scooter", "rental_uris": {"ios": "https://dc.lft.to/lastmile_qr_scan", "android": "https://dc.lft.to/lastmile_qr_scan"}, "lon": -77.03715166666667, "fusion_lon": 0.0, "is_disabled": 0, "lat": 38.928619, "bike_id": "e6c28007491f201498f2d3900958fbe3", "name": "e6c28007491f201498f2d3900958fbe3", "is_reserved": 0, "fusion_lat": 0.0}, {"type": "electric_scooter", "rental_uris": {"ios": "https://dc.lft.to/lastmile_qr_scan", "android": "https://dc.lft.to/lastmile_qr_scan"}, "lon": -77.01948216666666, "fusion_lon": 0.0, "is_disabled": 0, "lat": 38.94925116666667, "bike_id": "505b10364b2396703b527646761a2162", "name": "505b10364b2396703b527646761a2162", "is_reserved": 0, "fusion_lat": 0.0}, {"type": "electric_scooter", "rental_uris": {"ios": "https://dc.lft.to/lastmile_qr_scan", "android": "https://dc.lft.to/lastmile_qr_scan"}, "lon": -76.9418185, "fusion_lon": 0.0, "is_disabled": 0, "lat": 38.8975735, "bike_id": "b23e96731df081a2f1eb159c778d4f06", "name": "b23e96731df081a2f1eb159c778d4f06", "is_reserved": 0, "fusion_lat": 0.0}, {"type": "electric_scooter", "rental_uris": {"ios": "https://dc.lft.to/lastmile_qr_scan", "android": "https://dc.lft.to/lastmile_qr_scan"}, "lon": -77.02601283333334, "fusion_lon": 0.0, "is_disabled": 0, "lat": 38.916924333333334, "bike_id": "f409593654064a648ce5755833249e8a", "name": "f409593654064a648ce5755833249e8a", "is_reserved": 0, "fusion_lat": 0.0}, {"type": "electric_scooter", "rental_uris": {"ios": "https://dc.lft.to/lastmile_qr_scan", "android": "https://dc.lft.to/lastmile_qr_scan"}, "lon": -77.02577883333333, "fusion_lon": 0.0, "is_disabled": 0, "lat": 38.90958366666667, "bike_id": "0f3af8d03720144c8ac98aed2ae85418", "name": "0f3af8d03720144c8ac98aed2ae85418", "is_reserved": 0, "fusion_lat": 0.0}, {"type": "electric_scooter", "rental_uris": {"ios": "https://dc.lft.to/lastmile_qr_scan", "android": "https://dc.lft.to/lastmile_qr_scan"}, "lon": -77.03430983333334, "fusion_lon": 0.0, "is_disabled": 0, "lat": 38.92241533333333, "bike_id": "a12be55e10621d9da7a80a74358f7737", "name": "a12be55e10621d9da7a80a74358f7737", "is_reserved": 0, "fusion_lat": 0.0}, {"type": "electric_scooter", "rental_uris": {"ios": "https://dc.lft.to/lastmile_qr_scan", "android": "https://dc.lft.to/lastmile_qr_scan"}, "lon": -77.03443583333333, "fusion_lon": 0.0, "is_disabled": 0, "lat": 38.907244166666665, "bike_id": "fb306beff53702360806634f04350d29", "name": "fb306beff53702360806634f04350d29", "is_reserved": 0, "fusion_lat": 0.0}, {"type": "electric_scooter", "rental_uris": {"ios": "https://dc.lft.to/lastmile_qr_scan", "android": "https://dc.lft.to/lastmile_qr_scan"}, "lon": -77.0229935, "fusion_lon": 0.0, "is_disabled": 0, "lat": 38.91744083333333, "bike_id": "2e3f5db5d33ecea2b83430a0f14086d5", "name": "2e3f5db5d33ecea2b83430a0f14086d5", "is_reserved": 0, "fusion_lat": 0.0}, {"type": "electric_scooter", "rental_uris": {"ios": "https://dc.lft.to/lastmile_qr_scan", "android": "https://dc.lft.to/lastmile_qr_scan"}, "lon": -77.04034716666666, "fusion_lon": 0.0, "is_disabled": 0, "lat": 38.918034666666664, "bike_id": "3a84d91f650fd0effce6b1078c91ee0d", "name": "3a84d91f650fd0effce6b1078c91ee0d", "is_reserved": 0, "fusion_lat": 0.0}, {"type": "electric_scooter", "rental_uris": {"ios": "https://dc.lft.to/lastmile_qr_scan", "android": "https://dc.lft.to/lastmile_qr_scan"}, "lon": -77.038052, "fusion_lon": 0.0, "is_disabled": 0, "lat": 38.920620166666666, "bike_id": "50ad09103d6c2ace64a0eb01042e12a1", "name": "50ad09103d6c2ace64a0eb01042e12a1", "is_reserved": 0, "fusion_lat": 0.0}, {"type": "electric_bike", "rental_uris": {"ios": "https://dc.lft.to/lastmile_qr_scan", "android": "https://dc.lft.to/lastmile_qr_scan"}, "lon": -77.02391233333333, "fusion_lon": 0.0, "is_disabled": 0, "lat": 38.962743333333336, "bike_id": "4897f82e2d4bc17dddaf207e00bf2bac", "name": "4897f82e2d4bc17dddaf207e00bf2bac", "is_reserved": 0, "fusion_lat": 0.0}, {"type": "electric_scooter", "rental_uris": {"ios": "https://dc.lft.to/lastmile_qr_scan", "android": "https://dc.lft.to/lastmile_qr_scan"}, "lon": -77.0380695, "fusion_lon": 0.0, "is_disabled": 0, "lat": 38.9126755, "bike_id": "f64d0e83b45eb3bc7b2f5f9e00c5ae0f", "name": "f64d0e83b45eb3bc7b2f5f9e00c5ae0f", "is_reserved": 0, "fusion_lat": 0.0}, {"type": "electric_scooter", "rental_uris": {"ios": "https://dc.lft.to/lastmile_qr_scan", "android": "https://dc.lft.to/lastmile_qr_scan"}, "lon": -77.03147216666666, "fusion_lon": 0.0, "is_disabled": 0, "lat": 38.915655666666666, "bike_id": "51929a733e14ee25617472f07961b429", "name": "51929a733e14ee25617472f07961b429", "is_reserved": 0, "fusion_lat": 0.0}, {"type": "electric_scooter", "rental_uris": {"ios": "https://dc.lft.to/lastmile_qr_scan", "android": "https://dc.lft.to/lastmile_qr_scan"}, "lon": -77.04141516666667, "fusion_lon": 0.0, "is_disabled": 0, "lat": 38.91216216666667, "bike_id": "ea208796260fdc8a0f2a019483bb6770", "name": "ea208796260fdc8a0f2a019483bb6770", "is_reserved": 0, "fusion_lat": 0.0}, {"type": "electric_scooter", "rental_uris": {"ios": "https://dc.lft.to/lastmile_qr_scan", "android": "https://dc.lft.to/lastmile_qr_scan"}, "lon": -77.03206583333333, "fusion_lon": 0.0, "is_disabled": 0, "lat": 38.915755833333336, "bike_id": "7ba2451c778bfd24b597c063af30d2b7", "name": "7ba2451c778bfd24b597c063af30d2b7", "is_reserved": 0, "fusion_lat": 0.0}, {"type": "electric_bike", "rental_uris": {"ios": "https://dc.lft.to/lastmile_qr_scan", "android": "https://dc.lft.to/lastmile_qr_scan"}, "lon": -77.00806883333334, "fusion_lon": 0.0, "is_disabled": 0, "lat": 38.94921316666667, "bike_id": "a12d471c1d4d563769d5fd6b1e546ff1", "name": "a12d471c1d4d563769d5fd6b1e546ff1", "is_reserved": 0, "fusion_lat": 0.0}, {"type": "electric_scooter", "rental_uris": {"ios": "https://dc.lft.to/lastmile_qr_scan", "android": "https://dc.lft.to/lastmile_qr_scan"}, "lon": -77.03302133333334, "fusion_lon": 0.0, "is_disabled": 0, "lat": 38.9564005, "bike_id": "c812ece03b78c9b9646b8ab90d89df10", "name": "c812ece03b78c9b9646b8ab90d89df10", "is_reserved": 0, "fusion_lat": 0.0}, {"type": "electric_bike", "rental_uris": {"ios": "https://dc.lft.to/lastmile_qr_scan", "android": "https://dc.lft.to/lastmile_qr_scan"}, "lon": -77.114894, "fusion_lon": 0.0, "is_disabled": 0, "lat": 39.069235666666664, "bike_id": "fa808d667fe5cc7469a3ebdee1de8445", "name": "fa808d667fe5cc7469a3ebdee1de8445", "is_reserved": 0, "fusion_lat": 0.0}, {"type": "electric_scooter", "rental_uris": {"ios": "https://dc.lft.to/lastmile_qr_scan", "android": "https://dc.lft.to/lastmile_qr_scan"}, "lon": -77.05140533333334, "fusion_lon": 0.0, "is_disabled": 0, "lat": 38.90591233333333, "bike_id": "3ef82ef2d9bb306455e9b1b5ea03962e", "name": "3ef82ef2d9bb306455e9b1b5ea03962e", "is_reserved": 0, "fusion_lat": 0.0}, {"type": "electric_scooter", "rental_uris": {"ios": "https://dc.lft.to/lastmile_qr_scan", "android": "https://dc.lft.to/lastmile_qr_scan"}, "lon": -77.02411266666667, "fusion_lon": 0.0, "is_disabled": 0, "lat": 38.92896966666667, "bike_id": "c6bd6767ebe13d7dc9acce374f7d135a", "name": "c6bd6767ebe13d7dc9acce374f7d135a", "is_reserved": 0, "fusion_lat": 0.0}, {"type": "electric_scooter", "rental_uris": {"ios": "https://dc.lft.to/lastmile_qr_scan", "android": "https://dc.lft.to/lastmile_qr_scan"}, "lon": -77.04161516666667, "fusion_lon": 0.0, "is_disabled": 0, "lat": 38.927943666666664, "bike_id": "b4790557816680323af28d009527eb51", "name": "b4790557816680323af28d009527eb51", "is_reserved": 0, "fusion_lat": 0.0}, {"type": "electric_scooter", "rental_uris": {"ios": "https://dc.lft.to/lastmile_qr_scan", "android": "https://dc.lft.to/lastmile_qr_scan"}, "lon": -77.040207, "fusion_lon": 0.0, "is_disabled": 0, "lat": 38.92171183333333, "bike_id": "d2d9f17ec7e205d6ab1c5974f16a61ec", "name": "d2d9f17ec7e205d6ab1c5974f16a61ec", "is_reserved": 0, "fusion_lat": 0.0}, {"type": "electric_scooter", "rental_uris": {"ios": "https://dc.lft.to/lastmile_qr_scan", "android": "https://dc.lft.to/lastmile_qr_scan"}, "lon": -77.04423783333333, "fusion_lon": 0.0, "is_disabled": 0, "lat": 38.910095166666665, "bike_id": "ebd50e5ad41dfc9cc012b7e258dd2241", "name": "ebd50e5ad41dfc9cc012b7e258dd2241", "is_reserved": 0, "fusion_lat": 0.0}, {"type": "electric_scooter", "rental_uris": {"ios": "https://dc.lft.to/lastmile_qr_scan", "android": "https://dc.lft.to/lastmile_qr_scan"}, "lon": -77.031655, "fusion_lon": 0.0, "is_disabled": 0, "lat": 38.923749666666666, "bike_id": "19d008e6120fd8a0681529114b805f46", "name": "19d008e6120fd8a0681529114b805f46", "is_reserved": 0, "fusion_lat": 0.0}, {"type": "electric_bike", "rental_uris": {"ios": "https://dc.lft.to/lastmile_qr_scan", "android": "https://dc.lft.to/lastmile_qr_scan"}, "lon": -77.09960766666667, "fusion_lon": 0.0, "is_disabled": 0, "lat": 38.933566666666664, "bike_id": "2e25e0575f23c5191192e7267e9911bd", "name": "2e25e0575f23c5191192e7267e9911bd", "is_reserved": 0, "fusion_lat": 0.0}, {"type": "electric_scooter", "rental_uris": {"ios": "https://dc.lft.to/lastmile_qr_scan", "android": "https://dc.lft.to/lastmile_qr_scan"}, "lon": -77.02828183333334, "fusion_lon": 0.0, "is_disabled": 0, "lat": 38.931867, "bike_id": "c4c86bf262142168d46aef8511afd450", "name": "c4c86bf262142168d46aef8511afd450", "is_reserved": 0, "fusion_lat": 0.0}, {"type": "electric_scooter", "rental_uris": {"ios": "https://dc.lft.to/lastmile_qr_scan", "android": "https://dc.lft.to/lastmile_qr_scan"}, "lon": -77.03749183333333, "fusion_lon": 0.0, "is_disabled": 0, "lat": 38.912543, "bike_id": "24d26ac0c5cd04b8acc2f3787abad3f2", "name": "24d26ac0c5cd04b8acc2f3787abad3f2", "is_reserved": 0, "fusion_lat": 0.0}, {"type": "electric_scooter", "rental_uris": {"ios": "https://dc.lft.to/lastmile_qr_scan", "android": "https://dc.lft.to/lastmile_qr_scan"}, "lon": -77.03186016666666, "fusion_lon": 0.0, "is_disabled": 0, "lat": 38.917420166666666, "bike_id": "6f7687d7c41b48ad212e75adc45429be", "name": "6f7687d7c41b48ad212e75adc45429be", "is_reserved": 0, "fusion_lat": 0.0}, {"type": "electric_scooter", "rental_uris": {"ios": "https://dc.lft.to/lastmile_qr_scan", "android": "https://dc.lft.to/lastmile_qr_scan"}, "lon": -76.98882516666667, "fusion_lon": 0.0, "is_disabled": 0, "lat": 38.866453, "bike_id": "ec00f3c626d9fb8851b856912ce1560a", "name": "ec00f3c626d9fb8851b856912ce1560a", "is_reserved": 0, "fusion_lat": 0.0}, {"type": "electric_bike", "rental_uris": {"ios": "https://dc.lft.to/lastmile_qr_scan", "android": "https://dc.lft.to/lastmile_qr_scan"},