{"data": {"bikes": [{"fusion_lat": 0.0, "type": "electric_scooter", "name": "211b7bd28930230e24049e20611916dd", "fusion_lon": 0.0, "bike_id": "211b7bd28930230e24049e20611916dd", "is_reserved": 0, "rental_uris": {"android": "https://dc.lft.to/lastmile_qr_scan", "ios": "https://dc.lft.to/lastmile_qr_scan"}, "lat": 38.865046, "is_disabled": 0, "lon": -76.990034}, {"fusion_lat": 0.0, "type": "electric_scooter", "name": "1f968912c612eb32c837f24b11a2fb53", "fusion_lon": 0.0, "bike_id": "1f968912c612eb32c837f24b11a2fb53", "is_reserved": 0, "rental_uris": {"android": "https://dc.lft.to/lastmile_qr_scan", "ios": "https://dc.lft.to/lastmile_qr_scan"}, "lat": 38.886780333333334, "is_disabled": 0, "lon": -76.9547015}, {"fusion_lat": 0.0, "type": "electric_scooter", "name": "5cf425730cdc4c88a15e9166ca7031d3", "fusion_lon": 0.0, "bike_id": "5cf425730cdc4c88a15e9166ca7031d3", "is_reserved": 0, "rental_uris": {"android": "https://dc.lft.to/lastmile_qr_scan", "ios": "https://dc.lft.to/lastmile_qr_scan"}, "lat": 38.908846, "is_disabled": 0, "lon": -76.98542166666667}, {"fusion_lat": 0.0, "type": "electric_scooter", "name": "3ae538a0515a468fd6bb17ea8d2fae43", "fusion_lon": 0.0, "bike_id": "3ae538a0515a468fd6bb17ea8d2fae43", "is_reserved": 0, "rental_uris": {"android": "https://dc.lft.to/lastmile_qr_scan", "ios": "https://dc.lft.to/lastmile_qr_scan"}, "lat": 38.887418, "is_disabled": 0, "lon": -77.027379}, {"fusion_lat": 0.0, "type": "electric_scooter", "name": "19657f5d689dc05acd862c876a8efd1b", "fusion_lon": 0.0, "bike_id": "19657f5d689dc05acd862c876a8efd1b", "is_reserved": 0, "rental_uris": {"android": "https://dc.lft.to/lastmile_qr_scan", "ios": "https://dc.lft.to/lastmile_qr_scan"}, "lat": 38.90276216666667, "is_disabled": 0, "lon": -77.0591905}, {"fusion_lat": 0.0, "type": "electric_scooter", "name": "5f9a28cb58f6e3fd2167a56b9b96d176", "fusion_lon": 0.0, "bike_id": "5f9a28cb58f6e3fd2167a56b9b96d176", "is_reserved": 0, "rental_uris": {"android": "https://dc.lft.to/lastmile_qr_scan", "ios": "https://dc.lft.to/lastmile_qr_scan"}, "lat": 38.925793, "is_disabled": 0, "lon": -77.02611016666667}, {"fusion_lat": 0.0, "type": "electric_scooter", "name": "44047de1bc44805574f1eae00a211c1f", "fusion_lon": 0.0, "bike_id": "44047de1bc44805574f1eae00a211c1f", "is_reserved": 0, "rental_uris": {"android": "https://dc.lft.to/lastmile_qr_scan", "ios": "https://dc.lft.to/lastmile_qr_scan"}, "lat": 38.929815833333336, "is_disabled": 0, "lon": -77.03655383333333}, {"fusion_lat": 0.0, "type": "electric_scooter", "name": "a56e3ccfa0b7c21fc4b635222ee41c08", "fusion_lon": 0.0, "bike_id": "a56e3ccfa0b7c21fc4b635222ee41c08", "is_reserved": 0, "rental_uris": {"android": "https://dc.lft.to/lastmile_qr_scan", "ios": "https://dc.lft.to/lastmile_qr_scan"}, "lat": 38.90732116666667, "is_disabled": 0, "lon": -77.0318455}, {"fusion_lat": 0.0, "type": "electric_scooter", "name": "5e152ffb55eaf9e40895259a83011107", "fusion_lon": 0.0, "bike_id": "5e152ffb55eaf9e40895259a83011107", "is_reserved": 0, "rental_uris": {"android": "https://dc.lft.to/lastmile_qr_scan", "ios": "https://dc.lft.to/lastmile_qr_scan"}, "lat": 38.8431415, "is_disabled": 0, "lon": -76.99932933333334}, {"fusion_lat": 0.0, "type": "electric_scooter", "name": "fbdc3a03d7c6428653688d5c7f156eb8", "fusion_lon": 0.0, "bike_id": "fbdc3a03d7c6428653688d5c7f156eb8", "is_reserved": 0, "rental_uris": {"android": "https://dc.lft.to/lastmile_qr_scan", "ios": "https://dc.lft.to/lastmile_qr_scan"}, "lat": 38.9050405, "is_disabled": 0, "lon": -77.038491}, {"fusion_lat": 0.0, "type": "electric_bike", "name": "0368ad2aa20420c1ed0a2b3723815915", "fusion_lon": 0.0, "bike_id": "0368ad2aa20420c1ed0a2b3723815915", "is_reserved": 0, "rental_uris": {"android": "https://dc.lft.to/lastmile_qr_scan", "ios": "https://dc.lft.to/lastmile_qr_scan"}, "lat": 39.05633183333333, "is_disabled": 0, "lon": -77.12529816666667}, {"fusion_lat": 0.0, "type": "electric_scooter", "name": "c85bbf34ed48d02b36b33b6aed0f9150", "fusion_lon": 0.0, "bike_id": "c85bbf34ed48d02b36b33b6aed0f9150", "is_reserved": 0, "rental_uris": {"android": "https://dc.lft.to/lastmile_qr_scan", "ios": "https://dc.lft.to/lastmile_qr_scan"}, "lat": 38.88260116666667, "is_disabled": 0, "lon": -76.99010733333333}, {"fusion_lat": 0.0, "type": "electric_scooter", "name": "1f91567dc32c54906c76002215a17f3f", "fusion_lon": 0.0, "bike_id": "1f91567dc32c54906c76002215a17f3f", "is_reserved": 0, "rental_uris": {"android": "https://dc.lft.to/lastmile_qr_scan", "ios": "https://dc.lft.to/lastmile_qr_scan"}, "lat": 38.918932, "is_disabled": 0, "lon": -77.02978916666666}, {"fusion_lat": 0.0, "type": "electric_scooter", "name": "86b3955870c178032feaa2e508285895", "fusion_lon": 0.0, "bike_id": "86b3955870c178032feaa2e508285895", "is_reserved": 0, "rental_uris": {"android": "https://dc.lft.to/lastmile_qr_scan", "ios": "https://dc.lft.to/lastmile_qr_scan"}, "lat": 38.881025666666666, "is_disabled": 0, "lon": -77.016649}, {"fusion_lat": 0.0, "type": "electric_scooter", "name": "f6bf92421af5f2cc3e4666751d211d4d", "fusion_lon": 0.0, "bike_id": "f6bf92421af5f2cc3e4666751d211d4d", "is_reserved": 0, "rental_uris": {"android": "https://dc.lft.to/lastmile_qr_scan", "ios": "https://dc.lft.to/lastmile_qr_scan"}, "lat": 38.901322, "is_disabled": 0, "lon": -77.0498505}, {"fusion_lat": 0.0, "type": "electric_scooter", "name": "4259d2300c14842b7a124843388c9b8b", "fusion_lon": 0.0, "bike_id": "4259d2300c14842b7a124843388c9b8b", "is_reserved": 0, "rental_uris": {"android": "https://dc.lft.to/lastmile_qr_scan", "ios": "https://dc.lft.to/lastmile_qr_scan"}, "lat": 38.89167483333333, "is_disabled": 0, "lon": -77.0156785}, {"fusion_lat": 0.0, "type": "electric_scooter", "name": "c18a3c28a98cb9195c764efef8cbdf15", "fusion_lon": 0.0, "bike_id": "c18a3c28a98cb9195c764efef8cbdf15", "is_reserved": 0, "rental_uris": {"android": "https://dc.lft.to/lastmile_qr_scan", "ios": "https://dc.lft.to/lastmile_qr_scan"}, "lat": 38.92845033333333, "is_disabled": 0, "lon": -77.03264783333333}, {"fusion_lat": 0.0, "type": "electric_scooter", "name": "48015e0bdf1460664c5354ee4a532512", "fusion_lon": 0.0, "bike_id": "48015e0bdf1460664c5354ee4a532512", "is_reserved": 0, "rental_uris": {"android": "https://dc.lft.to/lastmile_qr_scan", "ios": "https://dc.lft.to/lastmile_qr_scan"}, "lat": 38.89498366666667, "is_disabled": 0, "lon": -76.93476366666667}, {"fusion_lat": 0.0, "type": "electric_scooter", "name": "4e240e83ef1ff19fdc27ce67b9f5e72e", "fusion_lon": 0.0, "bike_id": "4e240e83ef1ff19fdc27ce67b9f5e72e", "is_reserved": 0, "rental_uris": {"android": "https://dc.lft.to/lastmile_qr_scan", "ios": "https://dc.lft.to/lastmile_qr_scan"}, "lat": 38.903323, "is_disabled": 0, "lon": -77.03312266666667}, {"fusion_lat": 0.0, "type": "electric_scooter", "name": "ddf02a840e33f99176f56fde1043246a", "fusion_lon": 0.0, "bike_id": "ddf02a840e33f99176f56fde1043246a", "is_reserved": 0, "rental_uris": {"android": "https://dc.lft.to/lastmile_qr_scan", "ios": "https://dc.lft.to/lastmile_qr_scan"}, "lat": 38.945119166666665, "is_disabled": 0, "lon": -77.07452016666667}, {"fusion_lat": 0.0, "type": "electric_scooter", "name": "cf500a82f604feddbf4f0ca0be158c00", "fusion_lon": 0.0, "bike_id": "cf500a82f604feddbf4f0ca0be158c00", "is_reserved": 0, "rental_uris": {"android": "https://dc.lft.to/lastmile_qr_scan", "ios": "https://dc.lft.to/lastmile_qr_scan"}, "lat": 38.91689683333333, "is_disabled": 0, "lon": -77.0349055}, {"fusion_lat": 0.0, "type": "electric_scooter", "name": "6d48ccf11bd3760df1af389a3dbdd436", "fusion_lon": 0.0, "bike_id": "6d48ccf11bd3760df1af389a3dbdd436", "is_reserved": 0, "rental_uris": {"android": "https://dc.lft.to/lastmile_qr_scan", "ios": "https://dc.lft.to/lastmile_qr_scan"}, "lat": 38.892233166666664, "is_disabled": 0, "lon": -77.03227633333333}, {"fusion_lat": 0.0, "type": "electric_scooter", "name": "52eb98e514849b606d8c58cf092d0ce2", "fusion_lon": 0.0, "bike_id": "52eb98e514849b606d8c58cf092d0ce2", "is_reserved": 0, "rental_uris": {"android": "https://dc.lft.to/lastmile_qr_scan", "ios": "https://dc.lft.to/lastmile_qr_scan"}, "lat": 38.94431266666667, "is_disabled": 0, "lon": -77.0605345}, {"fusion_lat": 0.0, "type": "electric_scooter", "name": "cc6e2acb53f14d09b42ef176183f651f", "fusion_lon": 0.0, "bike_id": "cc6e2acb53f14d09b42ef176183f651f", "is_reserved": 0, "rental_uris": {"android": "https://dc.lft.to/lastmile_qr_scan", "ios": "https://dc.lft.to/lastmile_qr_scan"}, "lat": 38.900316, "is_disabled": 0, "lon": -77.0021795}, {"fusion_lat": 0.0, "type": "electric_scooter", "name": "8c2b863d4029a76f45315b7581800451", "fusion_lon": 0.0, "bike_id": "8c2b863d4029a76f45315b7581800451", "is_reserved": 0, "rental_uris": {"android": "https://dc.lft.to/lastmile_qr_scan", "ios": "https://dc.lft.to/lastmile_qr_scan"}, "lat": 38.893637, "is_disabled": 0, "lon": -77.054905}, {"fusion_lat": 0.0, "type": "electric_scooter", "name": "88a4c5968d336bad72929802eb3b0150", "fusion_lon": 0.0, "bike_id": "88a4c5968d336bad72929802eb3b0150", "is_reserved": 0, "rental_uris": {"android": "https://dc.lft.to/lastmile_qr_scan", "ios": "https://dc.lft.to/lastmile_qr_scan"}, "lat": 38.9270985, "is_disabled": 0, "lon": -77.02394883333334}, {"fusion_lat": 0.0, "type": "electric_scooter", "name": "f142a9914c527aa64380a04acbba5678", "fusion_lon": 0.0, "bike_id": "f142a9914c527aa64380a04acbba5678", "is_reserved": 0, "rental_uris": {"android": "https://dc.lft.to/lastmile_qr_scan", "ios": "https://dc.lft.to/lastmile_qr_scan"}, "lat": 38.90668616666667, "is_disabled": 0, "lon": -77.03475016666667}, {"fusion_lat": 0.0, "type": "electric_scooter", "name": "e254e74e84454197da3d851f17876735", "fusion_lon": 0.0, "bike_id": "e254e74e84454197da3d851f17876735", "is_reserved": 0, "rental_uris": {"android": "https://dc.lft.to/lastmile_qr_scan", "ios": "https://dc.lft.to/lastmile_qr_scan"}, "lat": 38.903043833333335, "is_disabled": 0, "lon": -77.0627015}, {"fusion_lat": 0.0, "type": "electric_scooter", "name": "710210b2ab3f986506b3cd982beb9f84", "fusion_lon": 0.0, "bike_id": "710210b2ab3f986506b3cd982beb9f84", "is_reserved": 0, "rental_uris": {"android": "https://dc.lft.to/lastmile_qr_scan", "ios": "https://dc.lft.to/lastmile_qr_scan"}, "lat": 38.892971833333334, "is_disabled": 0, "lon": -76.99822533333334}, {"fusion_lat": 0.0, "type": "electric_scooter", "name": "12a83fd2ed1f822d295dce5d599b72f6", "fusion_lon": 0.0, "bike_id": "12a83fd2ed1f822d295dce5d599b72f6", "is_reserved": 0, "rental_uris": {"android": "https://dc.lft.to/lastmile_qr_scan", "ios": "https://dc.lft.to/lastmile_qr_scan"}, "lat": 38.91989433333333, "is_disabled": 0, "lon": -77.021745}, {"fusion_lat": 0.0, "type": "electric_scooter", "name": "3ef87dd37ed18058adaee3b06d224254", "fusion_lon": 0.0, "bike_id": "3ef87dd37ed18058adaee3b06d224254", "is_reserved": 0, "rental_uris": {"android": "https://dc.lft.to/lastmile_qr_scan", "ios": "https://dc.lft.to/lastmile_qr_scan"}, "lat": 38.93402483333333, "is_disabled": 0, "lon": -77.032621}, {"fusion_lat": 0.0, "type": "electric_scooter", "name": "3315e435f6f3cd6a2368ee366a4d7037", "fusion_lon": 0.0, "bike_id": "3315e435f6f3cd6a2368ee366a4d7037", "is_reserved": 0, "rental_uris": {"android": "https://dc.lft.to/lastmile_qr_scan", "ios": "https://dc.lft.to/lastmile_qr_scan"}, "lat": 38.89424183333333, "is_disabled": 0, "lon": -76.94880716666667}, {"fusion_lat": 0.0, "type": "electric_scooter", "name": "0ad1db6d27f774151bc24e07e6fe49bd", "fusion_lon": 0.0, "bike_id": "0ad1db6d27f774151bc24e07e6fe49bd", "is_reserved": 0, "rental_uris": {"android": "https://dc.lft.to/lastmile_qr_scan", "ios": "https://dc.lft.to/lastmile_qr_scan"}, "lat": 38.952600333333336, "is_disabled": 0, "lon": -77.02567516666667}, {"fusion_lat": 0.0, "type": "electric_scooter", "name": "e06b56608339ce04dee44b6a4906509c", "fusion_lon": 0.0, "bike_id": "e06b56608339ce04dee44b6a4906509c", "is_reserved": 0, "rental_uris": {"android": "https://dc.lft.to/lastmile_qr_scan", "ios": "https://dc.lft.to/lastmile_qr_scan"}, "lat": 38.88609, "is_disabled": 0, "lon": -76.95587866666666}, {"fusion_lat": 0.0, "type": "electric_scooter", "name": "19d7f4f84444fd689192c8ed4896ec57", "fusion_lon": 0.0, "bike_id": "19d7f4f84444fd689192c8ed4896ec57", "is_reserved": 0, "rental_uris": {"android": "https://dc.lft.to/lastmile_qr_scan", "ios": "https://dc.lft.to/lastmile_qr_scan"}, "lat": 38.907248, "is_disabled": 0, "lon": -77.034466}, {"fusion_lat": 0.0, "type": "electric_scooter", "name": "cb123f915a476d5175eadd3fe0c117bb", "fusion_lon": 0.0, "bike_id": "cb123f915a476d5175eadd3fe0c117bb", "is_reserved": 0, "rental_uris": {"android": "https://dc.lft.to/lastmile_qr_scan", "ios": "https://dc.lft.to/lastmile_qr_scan"}, "lat": 38.8981085, "is_disabled": 0, "lon": -77.0248195}, {"fusion_lat": 0.0, "type": "electric_scooter", "name": "25e179aaf5c6a414a87eafc6d136ea45", "fusion_lon": 0.0, "bike_id": "25e179aaf5c6a414a87eafc6d136ea45", "is_reserved": 0, "rental_uris": {"android": "https://dc.lft.to/lastmile_qr_scan", "ios": "https://dc.lft.to/lastmile_qr_scan"}, "lat": 38.9033685, "is_disabled": 0, "lon": -77.04668683333334}, {"fusion_lat": 0.0, "type": "electric_scooter", "name": "a027d97d0d240471c60b500afe47a0fd", "fusion_lon": 0.0, "bike_id": "a027d97d0d240471c60b500afe47a0fd", "is_reserved": 0, "rental_uris": {"android": "https://dc.lft.to/lastmile_qr_scan", "ios": "https://dc.lft.to/lastmile_qr_scan"}, "lat": 38.89651766666667, "is_disabled": 0, "lon": -77.0502295}, {"fusion_lat": 0.0, "type": "electric_scooter", "name": "23aa87eeb8dcad5f7e73589bd1a44134", "fusion_lon": 0.0, "bike_id": "23aa87eeb8dcad5f7e73589bd1a44134", "is_reserved": 0, "rental_uris": {"android": "https://dc.lft.to/lastmile_qr_scan", "ios": "https://dc.lft.to/lastmile_qr_scan"}, "lat": 38.891471333333335, "is_disabled": 0, "lon": -76.9838285}, {"fusion_lat": 0.0, "type": "electric_scooter", "name": "dccb9e5d3464219c3cce0c158ac322ef", "fusion_lon": 0.0, "bike_id": "dccb9e5d3464219c3cce0c158ac322ef", "is_reserved": 0, "rental_uris": {"android": "https://dc.lft.to/lastmile_qr_scan", "ios": "https://dc.lft.to/lastmile_qr_scan"}, "lat": 38.907705666666665, "is_disabled": 0, "lon": -77.03497033333333}, {"fusion_lat": 0.0, "type": "electric_scooter", "name": "a8fc32e18050c62f67f28810dd0c7e78", "fusion_lon": 0.0, "bike_id": "a8fc32e18050c62f67f28810dd0c7e78", "is_reserved": 0, "rental_uris": {"android": "https://dc.lft.to/lastmile_qr_scan", "ios": "https://dc.lft.to/lastmile_qr_scan"}, "lat": 38.917222333333335, "is_disabled": 0, "lon": -77.029749}, {"fusion_lat": 0.0, "type": "electric_scooter", "name": "f070d3b5c7ae6b4ebb8b5ff65b2c84e9", "fusion_lon": 0.0, "bike_id": "f070d3b5c7ae6b4ebb8b5ff65b2c84e9", "is_reserved": 0, "rental_uris": {"android": "https://dc.lft.to/lastmile_qr_scan", "ios": "https://dc.lft.to/lastmile_qr_scan"}, "lat": 38.90820933333333, "is_disabled": 0, "lon": -77.04356283333334}, {"fusion_lat": 0.0, "type": "electric_scooter", "name": "f2cadbf57e7d07566746c143eb89c851", "fusion_lon": 0.0, "bike_id": "f2cadbf57e7d07566746c143eb89c851", "is_reserved": 0, "rental_uris": {"android": "https://dc.lft.to/lastmile_qr_scan", "ios": "https://dc.lft.to/lastmile_qr_scan"}, "lat": 38.92337066666666, "is_disabled": 0, "lon": -77.0446465}, {"fusion_lat": 0.0, "type": "electric_scooter", "name": "1aeb756001ec19049db8bc65ad06ae69", "fusion_lon": 0.0, "bike_id": "1aeb756001ec19049db8bc65ad06ae69", "is_reserved": 0, "rental_uris": {"android": "https://dc.lft.to/lastmile_qr_scan", "ios": "https://dc.lft.to/lastmile_qr_scan"}, "lat": 38.89165716666667, "is_disabled": 0, "lon": -76.91198233333333}, {"fusion_lat": 0.0, "type": "electric_scooter", "name": "9a326e2f90da2c73f574bd62ee0e727b", "fusion_lon": 0.0, "bike_id": "9a326e2f90da2c73f574bd62ee0e727b", "is_reserved": 0, "rental_uris": {"android": "https://dc.lft.to/lastmile_qr_scan", "ios": "https://dc.lft.to/lastmile_qr_scan"}, "lat": 38.8641205, "is_disabled": 0, "lon": -76.974311}, {"fusion_lat": 0.0, "type": "electric_scooter", "name": "9abcdca7ddcbd554e75a423b0a27ae32", "fusion_lon": 0.0, "bike_id": "9abcdca7ddcbd554e75a423b0a27ae32", "is_reserved": 0, "rental_uris": {"android": "https://dc.lft.to/lastmile_qr_scan", "ios": "https://dc.lft.to/lastmile_qr_scan"}, "lat": 38.916837666666666, "is_disabled": 0, "lon": -77.029504}, {"fusion_lat": 0.0, "type": "electric_scooter", "name": "6227e14666b511ae7f5d195513ff5bf9", "fusion_lon": 0.0, "bike_id": "6227e14666b511ae7f5d195513ff5bf9", "is_reserved": 0, "rental_uris": {"android": "https://dc.lft.to/lastmile_qr_scan", "ios": "https://dc.lft.to/lastmile_qr_scan"}, "lat": 38.89217433333334, "is_disabled": 0, "lon": -77.0322555}, {"fusion_lat": 0.0, "type": "electric_scooter", "name": "7f0da9e8ede2a53e01e08c7460beaee9", "fusion_lon": 0.0, "bike_id": "7f0da9e8ede2a53e01e08c7460beaee9", "is_reserved": 0, "rental_uris": {"android": "https://dc.lft.to/lastmile_qr_scan", "ios": "https://dc.lft.to/lastmile_qr_scan"}, "lat": 38.90015566666667, "is_disabled": 0, "lon": -77.00679383333333}, {"fusion_lat": 0.0, "type": "electric_scooter", "name": "eaf74dd5b08d3be78c35ce5023fdb4ef", "fusion_lon": 0.0, "bike_id": "eaf74dd5b08d3be78c35ce5023fdb4ef", "is_reserved": 0, "rental_uris": {"android": "https://dc.lft.to/lastmile_qr_scan", "ios": "https://dc.lft.to/lastmile_qr_scan"}, "lat": 38.9234505, "is_disabled": 0, "lon": -77.03527266666667}, {"fusion_lat": 0.0, "type": "electric_scooter", "name": "9a7202b22043a2a19fbc00e0d5600db8", "fusion_lon": 0.0, "bike_id": "9a7202b22043a2a19fbc00e0d5600db8", "is_reserved": 0, "rental_uris": {"android": "https://dc.lft.to/lastmile_qr_scan", "ios": "https://dc.lft.to/lastmile_qr_scan"}, "lat": 38.8808195, "is_disabled": 0, "lon": -76.99837833333333}, {"fusion_lat": 0.0, "type": "electric_scooter", "name": "af78e6e293cf3e4e0e6e7c4d53ee8275", "fusion_lon": 0.0, "bike_id": "af78e6e293cf3e4e0e6e7c4d53ee8275", "is_reserved": 0, "rental_uris": {"android": "https://dc.lft.to/lastmile_qr_scan", "ios": "https://dc.lft.to/lastmile_qr_scan"}, "lat": 38.909546166666665, "is_disabled": 0, "lon": -76.985408}, {"fusion_lat": 0.0, "type": "electric_scooter", "name": "1976f8e0745ed263903bebf79007982c", "fusion_lon": 0.0, "bike_id": "1976f8e0745ed263903bebf79007982c", "is_reserved": 0, "rental_uris": {"android": "https://dc.lft.to/lastmile_qr_scan", "ios": "https://dc.lft.to/lastmile_qr_scan"}, "lat": 38.943241, "is_disabled": 0, "lon": -77.02682916666667}, {"fusion_lat": 0.0, "type": "electric_scooter", "name": "8c56e5a7230158bda791ddddcf20bada", "fusion_lon": 0.0, "bike_id": "8c56e5a7230158bda791ddddcf20bada", "is_reserved": 0, "rental_uris": {"android": "https://dc.lft.to/lastmile_qr_scan", "ios": "https://dc.lft.to/lastmile_qr_scan"}, "lat": 38.92482233333333, "is_disabled": 0, "lon": -77.04157866666667}, {"fusion_lat": 0.0, "type": "electric_bike", "name": "ea44964bb289815d59c1291543ba45cd", "fusion_lon": 0.0, "bike_id": "ea44964bb289815d59c1291543ba45cd", "is_reserved": 0, "rental_uris": {"android": "https://dc.lft.to/lastmile_qr_scan", "ios": "https://dc.lft.to/lastmile_qr_scan"}, "lat": 38.900339, "is_disabled": 0, "lon": -76.97224683333333}, {"fusion_lat": 0.0, "type": "electric_scooter", "name": "be462993d7ecb56bfdcc759170bd161c", "fusion_lon": 0.0, "bike_id": "be462993d7ecb56bfdcc759170bd161c", "is_reserved": 0, "rental_uris": {"android": "https://dc.lft.to/lastmile_qr_scan", "ios": "https://dc.lft.to/lastmile_qr_scan"}, "lat": 38.95271283333334, "is_disabled": 0, "lon": -77.06978433333333}, {"fusion_lat": 0.0, "type": "electric_scooter", "name": "22bb0de4e06a997df8b0c0ba419f8088", "fusion_lon": 0.0, "bike_id": "22bb0de4e06a997df8b0c0ba419f8088", "is_reserved": 0, "rental_uris": {"android": "https://dc.lft.to/lastmile_qr_scan", "ios": "https://dc.lft.to/lastmile_qr_scan"}, "lat": 38.874646, "is_disabled": 0, "lon": -77.01895766666667}, {"fusion_lat": 0.0, "type": "electric_scooter", "name": "d3bb2bbfb79298c02fec5bf2b0e0d0ca", "fusion_lon": 0.0, "bike_id": "d3bb2bbfb79298c02fec5bf2b0e0d0ca", "is_reserved": 0, "rental_uris": {"android": "https://dc.lft.to/lastmile_qr_scan", "ios": "https://dc.lft.to/lastmile_qr_scan"}, "lat": 38.916492, "is_disabled": 0, "lon": -77.04248983333333}, {"fusion_lat": 0.0, "type": "electric_scooter", "name": "41fbd280270bbfa4fe2a7e7079fdc6db", "fusion_lon": 0.0, "bike_id": "41fbd280270bbfa4fe2a7e7079fdc6db", "is_reserved": 0, "rental_uris": {"android": "https://dc.lft.to/lastmile_qr_scan", "ios": "https://dc.lft.to/lastmile_qr_scan"}, "lat": 38.87632466666667, "is_disabled": 0, "lon": -77.01262366666667}, {"fusion_lat": 0.0, "type": "electric_scooter", "name": "6095dfffc01029569376bcdc699ccbf1", "fusion_lon": 0.0, "bike_id": "6095dfffc01029569376bcdc699ccbf1", "is_reserved": 0, "rental_uris": {"android": "https://dc.lft.to/lastmile_qr_scan", "ios": "https://dc.lft.to/lastmile_qr_scan"}, "lat": 38.898863, "is_disabled": 0, "lon": -77.03937633333334}, {"fusion_lat": 0.0, "type": "electric_scooter", "name": "aca8f7602a44457718ebb884b42b3406", "fusion_lon": 0.0, "bike_id": "aca8f7602a44457718ebb884b42b3406", "is_reserved": 0, "rental_uris": {"android": "https://dc.lft.to/lastmile_qr_scan", "ios": "https://dc.lft.to/lastmile_qr_scan"}, "lat": 38.8727825, "is_disabled": 0, "lon": -77.00988833333334}, {"fusion_lat": 0.0, "type": "electric_scooter", "name": "18f40f3a0951700865ae3b4a56b723c3", "fusion_lon": 0.0, "bike_id": "18f40f3a0951700865ae3b4a56b723c3", "is_reserved": 0, "rental_uris": {"android": "https://dc.lft.to/lastmile_qr_scan", "ios": "https://dc.lft.to/lastmile_qr_scan"}, "lat": 38.935724666666665, "is_disabled": 0, "lon": -77.03521233333333}, {"fusion_lat": 0.0, "type": "electric_scooter", "name": "158e14f054779a4e42c1f832e6512482", "fusion_lon": 0.0, "bike_id": "158e14f054779a4e42c1f832e6512482", "is_reserved": 0, "rental_uris": {"android": "https://dc.lft.to/lastmile_qr_scan", "ios": "https://dc.lft.to/lastmile_qr_scan"}, "lat": 38.903251, "is_disabled": 0, "lon": -76.99120866666667}, {"fusion_lat": 0.0, "type": "electric_scooter", "name": "6ebab6699d0faf8d20f0140343f2f242", "fusion_lon": 0.0, "bike_id": "6ebab6699d0faf8d20f0140343f2f242", "is_reserved": 0, "rental_uris": {"android": "https://dc.lft.to/lastmile_qr_scan", "ios": "https://dc.lft.to/lastmile_qr_scan"}, "lat": 38.92146366666667, "is_disabled": 0, "lon": -77.02434}, {"fusion_lat": 0.0, "type": "electric_scooter", "name": "eb62a730919897e85e547c2122f66e51", "fusion_lon": 0.0, "bike_id": "eb62a730919897e85e547c2122f66e51", "is_reserved": 0, "rental_uris": {"android": "https://dc.lft.to/lastmile_qr_scan", "ios": "https://dc.lft.to/lastmile_qr_scan"}, "lat": 38.8600545, "is_disabled": 0, "lon": -76.985255}, {"fusion_lat": 0.0, "type": "electric_scooter", "name": "c6bebfc97b85e96d63169f08e4f5ebb1", "fusion_lon": 0.0, "bike_id": "c6bebfc97b85e96d63169f08e4f5ebb1", "is_reserved": 0, "rental_uris": {"android": "https://dc.lft.to/lastmile_qr_scan", "ios": "https://dc.lft.to/lastmile_qr_scan"}, "lat": 38.92408916666667, "is_disabled": 0, "lon": -77.02979966666666}, {"fusion_lat": 0.0, "type": "electric_scooter", "name": "f3d63372df581f11494ed7c22bfcd308", "fusion_lon": 0.0, "bike_id": "f3d63372df581f11494ed7c22bfcd308", "is_reserved": 0, "rental_uris": {"android": "https://dc.lft.to/lastmile_qr_scan", "ios": "https://dc.lft.to/lastmile_qr_scan"}, "lat": 38.892246166666666, "is_disabled": 0, "lon": -77.031864}, {"fusion_lat": 0.0, "type": "electric_scooter", "name": "cb7d875fea1fc638d45915b9c37d489b", "fusion_lon": 0.0, "bike_id": "cb7d875fea1fc638d45915b9c37d489b", "is_reserved": 0, "rental_uris": {"android": "https://dc.lft.to/lastmile_qr_scan", "ios": "https://dc.lft.to/lastmile_qr_scan"}, "lat": 38.90715083333333, "is_disabled": 0, "lon": -77.07429116666667}, {"fusion_lat": 0.0, "type": "electric_scooter", "name": "c91c4d179d5aa9700534fee02f631fe4", "fusion_lon": 0.0, "bike_id": "c91c4d179d5aa9700534fee02f631fe4", "is_reserved": 0, "rental_uris": {"android": "https://dc.lft.to/lastmile_qr_scan", "ios": "https://dc.lft.to/lastmile_qr_scan"}, "lat": 38.91119583333333, "is_disabled": 0, "lon": -77.020798}, {"fusion_lat": 0.0, "type": "electric_scooter", "name": "4c95f808d88e32fa335ab53032c05be3", "fusion_lon": 0.0, "bike_id": "4c95f808d88e32fa335ab53032c05be3", "is_reserved": 0, "rental_uris": {"android": "https://dc.lft.to/lastmile_qr_scan", "ios": "https://dc.lft.to/lastmile_qr_scan"}, "lat": 38.90576266666667, "is_disabled": 0, "lon": -77.002763}, {"fusion_lat": 0.0, "type": "electric_scooter", "name": "32a42e5d42c95f3a224b6ec516f8c688", "fusion_lon": 0.0, "bike_id": "32a42e5d42c95f3a224b6ec516f8c688", "is_reserved": 0, "rental_uris": {"android": "https://dc.lft.to/lastmile_qr_scan", "ios": "https://dc.lft.to/lastmile_qr_scan"}, "lat": 38.926188333333336, "is_disabled": 0, "lon": -77.04322}, {"fusion_lat": 0.0, "type": "electric_scooter", "name": "0c4146632aa7d6daba329d0fdb50f810", "fusion_lon": 0.0, "bike_id": "0c4146632aa7d6daba329d0fdb50f810", "is_reserved": 0, "rental_uris": {"android": "https://dc.lft.to/lastmile_qr_scan", "ios": "https://dc.lft.to/lastmile_qr_scan"}, "lat": 38.9035205, "is_disabled": 0, "lon": -76.9827365}, {"fusion_lat": 0.0, "type": "electric_scooter", "name": "5be9869b17e78bab804838ee5877ae5b", "fusion_lon": 0.0, "bike_id": "5be9869b17e78bab804838ee5877ae5b", "is_reserved": 0, "rental_uris": {"android": "https://dc.lft.to/lastmile_qr_scan", "ios": "https://dc.lft.to/lastmile_qr_scan"}, "lat": 38.91558833333333, "is_disabled": 0, "lon": -77.024276}, {"fusion_lat": 0.0, "type": "electric_scooter", "name": "154293219523683d798e840390bfd77b", "fusion_lon": 0.0, "bike_id": "154293219523683d798e840390bfd77b", "is_reserved": 0, "rental_uris": {"android": "https://dc.lft.to/lastmile_qr_scan", "ios": "https://dc.lft.to/lastmile_qr_scan"}, "lat": 38.902035833333336, "is_disabled": 0, "lon": -77.031775}, {"fusion_lat": 0.0, "type": "electric_scooter", "name": "9566f75ba30d9f2824952e6653b7267a", "fusion_lon": 0.0, "bike_id": "9566f75ba30d9f2824952e6653b7267a", "is_reserved": 0, "rental_uris": {"android": "https://dc.lft.to/lastmile_qr_scan", "ios": "https://dc.lft.to/lastmile_qr_scan"}, "lat": 38.95726916666667, "is_disabled": 0, "lon": -77.0240975}, {"fusion_lat": 0.0, "type": "electric_scooter", "name": "3598e72d7548e71a1bd70ea4af18cf85", "fusion_lon": 0.0, "bike_id": "3598e72d7548e71a1bd70ea4af18cf85", "is_reserved": 0, "rental_uris": {"android": "https://dc.lft.to/lastmile_qr_scan", "ios": "https://dc.lft.to/lastmile_qr_scan"}, "lat": 38.90032383333333, "is_disabled": 0, "lon": -77.04884366666667}, {"fusion_lat": 0.0, "type": "electric_scooter", "name": "ba96c49f04dfac5765c9c28ef57bd040", "fusion_lon": 0.0, "bike_id": "ba96c49f04dfac5765c9c28ef57bd040", "is_reserved": 0, "rental_uris": {"android": "https://dc.lft.to/lastmile_qr_scan", "ios": "https://dc.lft.to/lastmile_qr_scan"}, "lat": 38.899613, "is_disabled": 0, "lon": -77.04521366666667}, {"fusion_lat": 0.0, "type": "electric_scooter", "name": "b78ae0132f53a211642f7e3b3640135b", "fusion_lon": 0.0, "bike_id": "b78ae0132f53a211642f7e3b3640135b", "is_reserved": 0, "rental_uris": {"android": "https://dc.lft.to/lastmile_qr_scan", "ios": "https://dc.lft.to/lastmile_qr_scan"}, "lat": 38.89719733333333, "is_disabled": 0, "lon": -77.03343666666666}, {"fusion_lat": 0.0, "type": "electric_scooter", "name": "40a4a8d7a3a14394ff36f8498c30760a", "fusion_lon": 0.0, "bike_id": "40a4a8d7a3a14394ff36f8498c30760a", "is_reserved": 0, "rental_uris": {"android": "https://dc.lft.to/lastmile_qr_scan", "ios": "https://dc.lft.to/lastmile_qr_scan"}, "lat": 38.89221716666667, "is_disabled": 0, "lon": -77.03223433333334}, {"fusion_lat": 0.0, "type": "electric_bike", "name": "2979b881cdba5f230852c3fb462e5ffd", "fusion_lon": 0.0, "bike_id": "2979b881cdba5f230852c3fb462e5ffd", "is_reserved": 0, "rental_uris": {"android": "https://dc.lft.to/lastmile_qr_scan", "ios": "https://dc.lft.to/lastmile_qr_scan"}, "lat": 38.945357, "is_disabled": 0, "lon": -77.01543633333333}, {"fusion_lat": 0.0, "type": "electric_scooter", "name": "29c394e55fdf7f9d60743169b62a059a", "fusion_lon": 0.0, "bike_id": "29c394e55fdf7f9d60743169b62a059a", "is_reserved": 0, "rental_uris": {"android": "https://dc.lft.to/lastmile_qr_scan", "ios": "https://dc.lft.to/lastmile_qr_scan"}, "lat": 38.913373666666665, "is_disabled": 0, "lon": -77.0455435}, {"fusion_lat": 0.0, "type": "electric_scooter", "name": "17d35b7ae86affa7f579d13f85a0f962", "fusion_lon": 0.0, "bike_id": "17d35b7ae86affa7f579d13f85a0f962", "is_reserved": 0, "rental_uris": {"android": "https://dc.lft.to/lastmile_qr_scan", "ios": "https://dc.lft.to/lastmile_qr_scan"}, "lat": 38.9039645, "is_disabled": 0, "lon": -77.038351}, {"fusion_lat": 0.0, "type": "electric_scooter", "name": "f231263c58daf8b0451f603d281af72b", "fusion_lon": 0.0, "bike_id": "f231263c58daf8b0451f603d281af72b", "is_reserved": 0, "rental_uris": {"android": "https://dc.lft.to/lastmile_qr_scan", "ios": "https://dc.lft.to/lastmile_qr_scan"}, "lat": 38.903888, "is_disabled": 0, "lon": -77.04462}, {"fusion_lat": 0.0, "type": "electric_scooter", "name": "2ae20adea433fdff4231a43a3943c0b0", "fusion_lon": 0.0, "bike_id": "2ae20adea433fdff4231a43a3943c0b0", "is_reserved": 0, "rental_uris": {"android": "https://dc.lft.to/lastmile_qr_scan", "ios": "https://dc.lft.to/lastmile_qr_scan"}, "lat": 38.915605666666664, "is_disabled": 0, "lon": -77.032041}, {"fusion_lat": 0.0, "type": "electric_scooter", "name": "2055c8f4f3926d17da74082c6d23182d", "fusion_lon": 0.0, "bike_id": "2055c8f4f3926d17da74082c6d23182d", "is_reserved": 0, "rental_uris": {"android": "https://dc.lft.to/lastmile_qr_scan", "ios": "https://dc.lft.to/lastmile_qr_scan"}, "lat": 38.90720783333333, "is_disabled": 0, "lon": -77.04758666666666}, {"fusion_lat": 0.0, "type": "electric_scooter", "name": "8ba4425df48716ee2f9e3efbb64c7bab", "fusion_lon": 0.0, "bike_id": "8ba4425df48716ee2f9e3efbb64c7bab", "is_reserved": 0, "rental_uris": {"android": "https://dc.lft.to/lastmile_qr_scan", "ios": "https://dc.lft.to/lastmile_qr_scan"}, "lat": 38.967768666666665, "is_disabled": 0, "lon": -77.0151395}, {"fusion_lat": 0.0, "type": "electric_scooter", "name": "8ee58f48db65fc92a1c053fc27582fb1", "fusion_lon": 0.0, "bike_id": "8ee58f48db65fc92a1c053fc27582fb1", "is_reserved": 0, "rental_uris": {"android": "https://dc.lft.to/lastmile_qr_scan", "ios": "https://dc.lft.to/lastmile_qr_scan"}, "lat": 38.892371833333335, "is_disabled": 0, "lon": -77.03212933333333}, {"fusion_lat": 0.0, "type": "electric_scooter", "name": "33e1a48b2830219a56611d6666db676d", "fusion_lon": 0.0, "bike_id": "33e1a48b2830219a56611d6666db676d", "is_reserved": 0, "rental_uris": {"android": "https://dc.lft.to/lastmile_qr_scan", "ios": "https://dc.lft.to/lastmile_qr_scan"}, "lat": 38.902697, "is_disabled": 0, "lon": -77.03469833333334}, {"fusion_lat": 0.0, "type": "electric_scooter", "name": "52f0c595d4dff4c5898264672980b7cf", "fusion_lon": 0.0, "bike_id": "52f0c595d4dff4c5898264672980b7cf", "is_reserved": 0, "rental_uris": {"android": "https://dc.lft.to/lastmile_qr_scan", "ios": "https://dc.lft.to/lastmile_qr_scan"}, "lat": 38.919087833333336, "is_disabled": 0, "lon": -77.0344595}, {"fusion_lat": 0.0, "type": "electric_bike", "name": "96e56a6355e3c5e83dc9700db7fce872", "fusion_lon": 0.0, "bike_id": "96e56a6355e3c5e83dc9700db7fce872", "is_reserved": 0, "rental_uris": {"android": "https://dc.lft.to/lastmile_qr_scan", "ios": "https://dc.lft.to/lastmile_qr_scan"}, "lat": 38.953255, "is_disabled": 0, "lon": -76.954315}, {"fusion_lat": 0.0, "type": "electric_scooter", "name": "24d48d63687cbd030dc544aafe037e87", "fusion_lon": 0.0, "bike_id": "24d48d63687cbd030dc544aafe037e87", "is_reserved": 0, "rental_uris": {"android": "https://dc.lft.to/lastmile_qr_scan", "ios": "https://dc.lft.to/lastmile_qr_scan"}, "lat": 38.8949955, "is_disabled": 0, "lon": -77.04662933333333}, {"fusion_lat": 0.0, "type": "electric_scooter", "name": "6a2691f126cb11cf22ae211c5311fee9", "fusion_lon": 0.0, "bike_id": "6a2691f126cb11cf22ae211c5311fee9", "is_reserved": 0, "rental_uris": {"android": "https://dc.lft.to/lastmile_qr_scan", "ios": "https://dc.lft.to/lastmile_qr_scan"}, "lat": 38.9025615, "is_disabled": 0, "lon": -77.00736483333333}, {"fusion_lat": 0.0, "type": "electric_scooter", "name": "043cb291d3687e3aac7d92f2c1dd17d6", "fusion_lon": 0.0, "bike_id": "043cb291d3687e3aac7d92f2c1dd17d6", "is_reserved": 0, "rental_uris": {"android": "https://dc.lft.to/lastmile_qr_scan", "ios": "https://dc.lft.to/lastmile_qr_scan"}, "lat": 38.915029833333335, "is_disabled": 0, "lon": -77.00778466666667}, {"fusion_lat": 0.0, "type": "electric_bike", "name": "cf34409549e42a344e02e89d8f08d7c0", "fusion_lon": 0.0, "bike_id": "cf34409549e42a344e02e89d8f08d7c0", "is_reserved": 0, "rental_uris": {"android": "https://dc.lft.to/lastmile_qr_scan", "ios": "https://dc.lft.to/lastmile_qr_scan"}, "lat": 38.983628, "is_disabled": 0, "lon": -76.97218066666667}, {"fusion_lat": 0.0, "type": "electric_scooter", "name": "7b8dc27f6d867e5c14bdd0d433245fec", "fusion_lon": 0.0, "bike_id": "7b8dc27f6d867e5c14bdd0d433245fec", "is_reserved": 0, "rental_uris": {"android": "https://dc.lft.to/lastmile_qr_scan", "ios": "https://dc.lft.to/lastmile_qr_scan"}, "lat": 38.89954016666667, "is_disabled": 0, "lon": -76.975338}, {"fusion_lat": 0.0, "type": "electric_scooter", "name": "126f872ac92475a252b466199c02b801", "fusion_lon": 0.0, "bike_id": "126f872ac92475a252b466199c02b801", "is_reserved": 0, "rental_uris": {"android": "https://dc.lft.to/lastmile_qr_scan", "ios": "https://dc.lft.to/lastmile_qr_scan"}, "lat": 38.95742116666667, "is_disabled": 0, "lon": -77.02069466666667}, {"fusion_lat": 0.0, "type": "electric_scooter", "name": "54f8924542384b8d1707f87da3016d70", "fusion_lon": 0.0, "bike_id": "54f8924542384b8d1707f87da3016d70", "is_reserved": 0, "rental_uris": {"android": "https://dc.lft.to/lastmile_qr_scan", "ios": "https://dc.lft.to/lastmile_qr_scan"}, "lat": 38.929061833333336, "is_disabled": 0, "lon": -77.03247383333333}, {"fusion_lat": 0.0, "type": "electric_scooter", "name": "174ebc63717caacfd34a4a4107583313", "fusion_lon": 0.0, "bike_id": "174ebc63717caacfd34a4a4107583313", "is_reserved": 0, "rental_uris": {"android": "https://dc.lft.to/lastmile_qr_scan", "ios": "https://dc.lft.to/lastmile_qr_scan"}, "lat": 38.912560166666665, "is_disabled": 0, "lon": -77.0391305}, {"fusion_lat": 0.0, "type": "electric_scooter", "name": "d9678dae98f1986e407755902022675f", "fusion_lon": 0.0, "bike_id": "d9678dae98f1986e407755902022675f", "is_reserved": 0, "rental_uris": {"android": "https://dc.lft.to/lastmile_qr_scan", "ios": "https://dc.lft.to/lastmile_qr_scan"}, "lat": 38.897054, "is_disabled": 0, "lon": -77.021462}, {"fusion_lat": 0.0, "type": "electric_scooter", "name": "5c1fbeff85740dd2bbee8035873e087d", "fusion_lon": 0.0, "bike_id": "5c1fbeff85740dd2bbee8035873e087d", "is_reserved": 0, "rental_uris": {"android": "https://dc.lft.to/lastmile_qr_scan", "ios": "https://dc.lft.to/lastmile_qr_scan"}, "lat": 38.8919545, "is_disabled": 0, "lon": -76.98859533333334}, {"fusion_lat": 0.0, "type": "electric_scooter", "name": "b619a4edd41361c74dd46389eb37bd64", "fusion_lon": 0.0, "bike_id": "b619a4edd41361c74dd46389eb37bd64", "is_reserved": 0, "rental_uris": {"android": "https://dc.lft.to/lastmile_qr_scan", "ios": "https://dc.lft.to/lastmile_qr_scan"}, "lat": 38.8665745, "is_disabled": 0, "lon": -76.98884366666667}, {"fusion_lat": 0.0, "type": "electric_bike", "name": "51bf9f2f70d2cf3e0b2adc03eef91a30", "fusion_lon": 0.0, "bike_id": "51bf9f2f70d2cf3e0b2adc03eef91a30", "is_reserved": 0, "rental_uris": {"android": "https://dc.lft.to/lastmile_qr_scan", "ios": "https://dc.lft.to/lastmile_qr_scan"}, "lat": 38.923388833333334, "is_disabled": 0, "lon": -76.97145266666666}, {"fusion_lat": 0.0, "type": "electric_scooter", "name": "7ac0c05de4140f515971167b24301770", "fusion_lon": 0.0, "bike_id": "7ac0c05de4140f515971167b24301770", "is_reserved": 0, "rental_uris": {"android": "https://dc.lft.to/lastmile_qr_scan", "ios": "https://dc.lft.to/lastmile_qr_scan"}, "lat": 38.93005633333333, "is_disabled": 0, "lon": -77.02083483333334}, {"fusion_lat": 0.0, "type": "electric_scooter", "name": "b8ff726ac519d7074ae93e52b1e215a6", "fusion_lon": 0.0, "bike_id": "b8ff726ac519d7074ae93e52b1e215a6", "is_reserved": 0, "rental_uris": {"android": "https://dc.lft.to/lastmile_qr_scan", "ios": "https://dc.lft.to/lastmile_qr_scan"}, "lat": 38.873923, "is_disabled": 0, "lon": -77.00188966666667}, {"fusion_lat": 0.0, "type": "electric_bike", "name": "c34ec2e450edce0f228fede93716b2e3", "fusion_lon": 0.0, "bike_id": "c34ec2e450edce0f228fede93716b2e3", "is_reserved": 0, "rental_uris": {"android": "https://dc.lft.to/lastmile_qr_scan", "ios": "https://dc.lft.to/lastmile_qr_scan"}, "lat": 38.859373166666664, "is_disabled": 0, "lon": -77.1182895}, {"fusion_lat": 0.0, "type": "electric_bike", "name": "4a21a3bff003a0c017cd572d799bb8b4", "fusion_lon": 0.0, "bike_id": "4a21a3bff003a0c017cd572d799bb8b4", "is_reserved": 0, "rental_uris": {"android": "https://dc.lft.to/lastmile_qr_scan", "ios": "https://dc.lft.to/lastmile_qr_scan"}, "lat": 38.981564166666665, "is_disabled": 0, "lon": -77.02638566666667}, {"fusion_lat": 0.0, "type": "electric_scooter", "name": "b743f36535e134a5c6c4833548b4e54a", "fusion_lon": 0.0, "bike_id": "b743f36535e134a5c6c4833548b4e54a", "is_reserved": 0, "rental_uris": {"android": "https://dc.lft.to/lastmile_qr_scan", "ios": "https://dc.lft.to/lastmile_qr_scan"}, "lat": 38.92155366666667, "is_disabled": 0, "lon": -77.03380233333333}, {"fusion_lat": 0.0, "type": "electric_scooter", "name": "118798570288869e64a47bcc7cb93651", "fusion_lon": 0.0, "bike_id": "118798570288869e64a47bcc7cb93651", "is_reserved": 0, "rental_uris": {"android": "https://dc.lft.to/lastmile_qr_scan", "ios": "https://dc.lft.to/lastmile_qr_scan"}, "lat": 38.864686, "is_disabled": 0, "lon": -76.982291}, {"fusion_lat": 0.0, "type": "electric_scooter", "name": "f54a8dd5b5f9d9cf92b1e57f9026a49a", "fusion_lon": 0.0, "bike_id": "f54a8dd5b5f9d9cf92b1e57f9026a49a", "is_reserved": 0, "rental_uris": {"android": "https://dc.lft.to/lastmile_qr_scan", "ios": "https://dc.lft.to/lastmile_qr_scan"}, "lat": 38.886104333333336, "is_disabled": 0, "lon": -77.0013645}, {"fusion_lat": 0.0, "type": "electric_scooter", "name": "bf97ed392675a20ac668eafdee46e89a", "fusion_lon": 0.0, "bike_id": "bf97ed392675a20ac668eafdee46e89a", "is_reserved": 0, "rental_uris": {"android": "https://dc.lft.to/lastmile_qr_scan", "ios": "https://dc.lft.to/lastmile_qr_scan"}, "lat": 38.91623966666667, "is_disabled": 0, "lon": -77.0319625}, {"fusion_lat": 0.0, "type": "electric_scooter", "name": "c3c78f4143c1d4b9104ba3235e18aa74", "fusion_lon": 0.0, "bike_id": "c3c78f4143c1d4b9104ba3235e18aa74", "is_reserved": 0, "rental_uris": {"android": "https://dc.lft.to/lastmile_qr_scan", "ios": "https://dc.lft.to/lastmile_qr_scan"}, "lat": 38.9498935, "is_disabled": 0, "lon": -77.027018}, {"fusion_lat": 0.0, "type": "electric_scooter", "name": "31ad77ef32b326492652831cf1f0594b", "fusion_lon": 0.0, "bike_id": "31ad77ef32b326492652831cf1f0594b", "is_reserved": 0, "rental_uris": {"android": "https://dc.lft.to/lastmile_qr_scan", "ios": "https://dc.lft.to/lastmile_qr_scan"}, "lat": 38.887167166666664, "is_disabled": 0, "lon": -77.0220185}, {"fusion_lat": 0.0, "type": "electric_scooter", "name": "a1e1263c3675dea6e7635c1f9d01dac6", "fusion_lon": 0.0, "bike_id": "a1e1263c3675dea6e7635c1f9d01dac6", "is_reserved": 0, "rental_uris": {"android": "https://dc.lft.to/lastmile_qr_scan", "ios": "https://dc.lft.to/lastmile_qr_scan"}, "lat": 38.9236645, "is_disabled": 0, "lon": -77.019231}, {"fusion_lat": 0.0, "type": "electric_scooter", "name": "b28d4be7405fd16f59b38573b58d5dd1", "fusion_lon": 0.0, "bike_id": "b28d4be7405fd16f59b38573b58d5dd1", "is_reserved": 0, "rental_uris": {"android": "https://dc.lft.to/lastmile_qr_scan", "ios": "https://dc.lft.to/lastmile_qr_scan"}, "lat": 38.887717, "is_disabled": 0, "lon": -76.9557535}, {"fusion_lat": 0.0, "type": "electric_scooter", "name": "090c9e752fd9445ac0cd36888987d496", "fusion_lon": 0.0, "bike_id": "090c9e752fd9445ac0cd36888987d496", "is_reserved": 0, "rental_uris": {"android": "https://dc.lft.to/lastmile_qr_scan", "ios": "https://dc.lft.to/lastmile_qr_scan"}, "lat": 38.941808, "is_disabled": 0, "lon": -77.025307}, {"fusion_lat": 0.0, "type": "electric_scooter", "name": "70499c65e3edc8258972618598ffaa5a", "fusion_lon": 0.0, "bike_id": "70499c65e3edc8258972618598ffaa5a", "is_reserved": 0, "rental_uris": {"android": "https://dc.lft.to/lastmile_qr_scan", "ios": "https://dc.lft.to/lastmile_qr_scan"}, "lat": 38.9007715, "is_disabled": 0, "lon": -76.99368916666667}, {"fusion_lat": 0.0, "type": "electric_scooter", "name": "05315b041320284d41b84fa8076bda68", "fusion_lon": 0.0, "bike_id": "05315b041320284d41b84fa8076bda68", "is_reserved": 0, "rental_uris": {"android": "https://dc.lft.to/lastmile_qr_scan", "ios": "https://dc.lft.to/lastmile_qr_scan"}, "lat": 38.92856533333333, "is_disabled": 0, "lon": -77.02952433333333}, {"fusion_lat": 0.0, "type": "electric_scooter", "name": "f8f0425a3bcd2032a614b12ca4ae8ab1", "fusion_lon": 0.0, "bike_id": "f8f0425a3bcd2032a614b12ca4ae8ab1", "is_reserved": 0, "rental_uris": {"android": "https://dc.lft.to/lastmile_qr_scan", "ios": "https://dc.lft.to/lastmile_qr_scan"}, "lat": 38.93541316666666, "is_disabled": 0, "lon": -77.0582815}, {"fusion_lat": 0.0, "type": "electric_scooter", "name": "dc22cac04736be4df6413e18a64808ec", "fusion_lon": 0.0, "bike_id": "dc22cac04736be4df6413e18a64808ec", "is_reserved": 0, "rental_uris": {"android": "https://dc.lft.to/lastmile_qr_scan", "ios": "https://dc.lft.to/lastmile_qr_scan"}, "lat": 38.925610666666664, "is_disabled": 0, "lon": -77.02845916666666}, {"fusion_lat": 0.0, "type": "electric_scooter", "name": "b35e03cc9efe0e9c8db10f6ab5303c9d", "fusion_lon": 0.0, "bike_id": "b35e03cc9efe0e9c8db10f6ab5303c9d", "is_reserved": 0, "rental_uris": {"android": "https://dc.lft.to/lastmile_qr_scan", "ios": "https://dc.lft.to/lastmile_qr_scan"}, "lat": 38.9163315, "is_disabled": 0, "lon": -77.01077816666667}, {"fusion_lat": 0.0, "type": "electric_scooter", "name": "e5d25eabedf4ce30ecb04c0c0fa7d059", "fusion_lon": 0.0, "bike_id": "e5d25eabedf4ce30ecb04c0c0fa7d059", "is_reserved": 0, "rental_uris": {"android": "https://dc.lft.to/lastmile_qr_scan", "ios": "https://dc.lft.to/lastmile_qr_scan"}, "lat": 38.89496533333333, "is_disabled": 0, "lon": -77.009485}, {"fusion_lat": 0.0, "type": "electric_scooter", "name": "3441a79ed6ed8aec621482f5bf5cbbdb", "fusion_lon": 0.0, "bike_id": "3441a79ed6ed8aec621482f5bf5cbbdb", "is_reserved": 0, "rental_uris": {"android": "https://dc.lft.to/lastmile_qr_scan", "ios": "https://dc.lft.to/lastmile_qr_scan"}, "lat": 38.917251666666665, "is_disabled": 0, "lon": -77.02967766666667}, {"fusion_lat": 0.0, "type": "electric_bike", "name": "1c992732d78116f024aff3563bb7eed7", "fusion_lon": 0.0, "bike_id": "1c992732d78116f024aff3563bb7eed7", "is_reserved": 0, "rental_uris": {"android": "https://dc.lft.to/lastmile_qr_scan", "ios": "https://dc.lft.to/lastmile_qr_scan"}, "lat": 38.88908416666666, "is_disabled": 0, "lon": -76.9479935}, {"fusion_lat": 0.0, "type": "electric_scooter", "name": "544d53f795de6d5e4349800f89c2acd6", "fusion_lon": 0.0, "bike_id": "544d53f795de6d5e4349800f89c2acd6", "is_reserved": 0, "rental_uris": {"android": "https://dc.lft.to/lastmile_qr_scan", "ios": "https://dc.lft.to/lastmile_qr_scan"}, "lat": 38.909406, "is_disabled": 0, "lon": -77.0439715}, {"fusion_lat": 0.0, "type": "electric_scooter", "name": "745ed8cc11accc50acac30117f68ee9a", "fusion_lon": 0.0, "bike_id": "745ed8cc11accc50acac30117f68ee9a", "is_reserved": 0, "rental_uris": {"android": "https://dc.lft.to/lastmile_qr_scan", "ios": "https://dc.lft.to/lastmile_qr_scan"}, "lat": 38.9003795, "is_disabled": 0, "lon": -77.031822}, {"fusion_lat": 0.0, "type": "electric_scooter", "name": "759c928359ab489f9124e14b3e353f16", "fusion_lon": 0.0, "bike_id": "759c928359ab489f9124e14b3e353f16", "is_reserved": 0, "rental_uris": {"android": "https://dc.lft.to/lastmile_qr_scan", "ios": "https://dc.lft.to/lastmile_qr_scan"}, "lat": 38.902074999999996, "is_disabled": 0, "lon": -77.02358533333333}, {"fusion_lat": 0.0, "type": "electric_scooter", "name": "60a7e89d1cd8b0a80c8d72a2eab9ff98", "fusion_lon": 0.0, "bike_id": "60a7e89d1cd8b0a80c8d72a2eab9ff98", "is_reserved": 0, "rental_uris": {"android": "https://dc.lft.to/lastmile_qr_scan", "ios": "https://dc.lft.to/lastmile_qr_scan"}, "lat": 38.905371833333334, "is_disabled": 0, "lon": -77.04521283333334}, {"fusion_lat": 0.0, "type": "electric_scooter", "name": "db62bf3fb075e117b67aa3c8ba6e59d2", "fusion_lon": 0.0, "bike_id": "db62bf3fb075e117b67aa3c8ba6e59d2", "is_reserved": 0, "rental_uris": {"android": "https://dc.lft.to/lastmile_qr_scan", "ios": "https://dc.lft.to/lastmile_qr_scan"}, "lat": 38.922521, "is_disabled": 0, "lon": -77.02982133333333}, {"fusion_lat": 0.0, "type": "electric_scooter", "name": "8a506ab0c7b07c2a523f3328ad39276a", "fusion_lon": 0.0, "bike_id": "8a506ab0c7b07c2a523f3328ad39276a", "is_reserved": 0, "rental_uris": {"android": "https://dc.lft.to/lastmile_qr_scan", "ios": "https://dc.lft.to/lastmile_qr_scan"}, "lat": 38.9083485, "is_disabled": 0, "lon": -77.035592}, {"fusion_lat": 0.0, "type": "electric_scooter", "name": "a756a46dfc48539c8a1009f01e7e22e8", "fusion_lon": 0.0, "bike_id": "a756a46dfc48539c8a1009f01e7e22e8", "is_reserved": 0, "rental_uris": {"android": "https://dc.lft.to/lastmile_qr_scan", "ios": "https://dc.lft.to/lastmile_qr_scan"}, "lat": 38.90728466666667, "is_disabled": 0, "lon": -76.98696816666667}, {"fusion_lat": 0.0, "type": "electric_bike", "name": "d807029d1236b5a976ba5d638ae07552", "fusion_lon": 0.0, "bike_id": "d807029d1236b5a976ba5d638ae07552", "is_reserved": 0, "rental_uris": {"android": "https://dc.lft.to/lastmile_qr_scan", "ios": "https://dc.lft.to/lastmile_qr_scan"}, "lat": 39.04301816666667, "is_disabled": 0, "lon": -77.05160716666667}, {"fusion_lat": 0.0, "type": "electric_scooter", "name": "3ef7e6794d38e97254b4b19f31012961", "fusion_lon": 0.0, "bike_id": "3ef7e6794d38e97254b4b19f31012961", "is_reserved": 0, "rental_uris": {"android": "https://dc.lft.to/lastmile_qr_scan", "ios": "https://dc.lft.to/lastmile_qr_scan"}, "lat": 38.8924525, "is_disabled": 0, "lon": -77.0220605}, {"fusion_lat": 0.0, "type": "electric_scooter", "name": "92a35de41c2835886a1b393c21775b84", "fusion_lon": 0.0, "bike_id": "92a35de41c2835886a1b393c21775b84", "is_reserved": 0, "rental_uris": {"android": "https://dc.lft.to/lastmile_qr_scan", "ios": "https://dc.lft.to/lastmile_qr_scan"}, "lat": 38.9235955, "is_disabled": 0, "lon": -77.019195}, {"fusion_lat": 0.0, "type": "electric_scooter", "name": "b1dcfbe54b6611eabd2ba60c1c490571", "fusion_lon": 0.0, "bike_id": "b1dcfbe54b6611eabd2ba60c1c490571", "is_reserved": 0, "rental_uris": {"android": "https://dc.lft.to/lastmile_qr_scan", "ios": "https://dc.lft.to/lastmile_qr_scan"}, "lat": 38.8987425, "is_disabled": 0, "lon": -77.03287133333333}, {"fusion_lat": 0.0, "type": "electric_scooter", "name": "969abf1175d5ce3ba4ce838cbfabb4da", "fusion_lon": 0.0, "bike_id": "969abf1175d5ce3ba4ce838cbfabb4da", "is_reserved": 0, "rental_uris": {"android": "https://dc.lft.to/lastmile_qr_scan", "ios": "https://dc.lft.to/lastmile_qr_scan"}, "lat": 38.898777333333335, "is_disabled": 0, "lon": -77.039405}, {"fusion_lat": 0.0, "type": "electric_scooter", "name": "34a879e3016bf96438ac492d489d9a48", "fusion_lon": 0.0, "bike_id": "34a879e3016bf96438ac492d489d9a48", "is_reserved": 0, "rental_uris": {"android": "https://dc.lft.to/lastmile_qr_scan", "ios": "https://dc.lft.to/lastmile_qr_scan"}, "lat": 38.930923666666665, "is_disabled": 0, "lon": -77.02533883333334}, {"fusion_lat": 0.0, "type": "electric_scooter", "name": "33c7fd926d2ffb8d67eec96298bd649b", "fusion_lon": 0.0, "bike_id": "33c7fd926d2ffb8d67eec96298bd649b", "is_reserved": 0, "rental_uris": {"android": "https://dc.lft.to/lastmile_qr_scan", "ios": "https://dc.lft.to/lastmile_qr_scan"}, "lat": 38.9050915, "is_disabled": 0, "lon": -76.99610116666666}, {"fusion_lat": 0.0, "type": "electric_bike", "name": "9d124f7aae10d842fc0627c7308e1578", "fusion_lon": 0.0, "bike_id": "9d124f7aae10d842fc0627c7308e1578", "is_reserved": 0, "rental_uris": {"android": "https://dc.lft.to/lastmile_qr_scan", "ios": "https://dc.lft.to/lastmile_qr_scan"}, "lat": 38.906325, "is_disabled": 0, "lon": -77.04339883333333}, {"fusion_lat": 0.0, "type": "electric_scooter", "name": "fea54f3f5f1737ba1335de5b70e241e5", "fusion_lon": 0.0, "bike_id": "fea54f3f5f1737ba1335de5b70e241e5", "is_reserved": 0, "rental_uris": {"android": "https://dc.lft.to/lastmile_qr_scan", "ios": "https://dc.lft.to/lastmile_qr_scan"}, "lat": 38.89787283333333, "is_disabled": 0, "lon": -77.05016683333334}, {"fusion_lat": 0.0, "type": "electric_scooter", "name": "7dc0f35fda1cf4deaa7b609ac8ddf8d1", "fusion_lon": 0.0, "bike_id": "7dc0f35fda1cf4deaa7b609ac8ddf8d1", "is_reserved": 0, "rental_uris": {"android": "https://dc.lft.to/lastmile_qr_scan", "ios": "https://dc.lft.to/lastmile_qr_scan"}, "lat": 38.911802, "is_disabled": 0, "lon": -77.03497766666666}, {"fusion_lat": 0.0, "type": "electric_scooter", "name": "e51ef0fccc50536d8db3b26982f6333a", "fusion_lon": 0.0, "bike_id": "e51ef0fccc50536d8db3b26982f6333a", "is_reserved": 0, "rental_uris": {"android": "https://dc.lft.to/lastmile_qr_scan", "ios": "https://dc.lft.to/lastmile_qr_scan"}, "lat": 38.93567783333334, "is_disabled": 0, "lon": -77.02124266666667}, {"fusion_lat": 0.0, "type": "electric_scooter", "name": "14815dfd3ce4403eadd4d40158b02889", "fusion_lon": 0.0, "bike_id": "14815dfd3ce4403eadd4d40158b02889", "is_reserved": 0, "rental_uris": {"android": "https://dc.lft.to/lastmile_qr_scan", "ios": "https://dc.lft.to/lastmile_qr_scan"}, "lat": 38.89607816666667, "is_disabled": 0, "lon": -76.99966933333333}, {"fusion_lat": 0.0, "type": "electric_scooter", "name": "a053d182233f58b17f0276f125430a69", "fusion_lon": 0.0, "bike_id": "a053d182233f58b17f0276f125430a69", "is_reserved": 0, "rental_uris": {"android": "https://dc.lft.to/lastmile_qr_scan", "ios": "https://dc.lft.to/lastmile_qr_scan"}, "lat": 38.92035583333333, "is_disabled": 0, "lon": -76.99733666666667}, {"fusion_lat": 0.0, "type": "electric_scooter", "name": "f9519db7fa520be904ec06b4d9f6b19b", "fusion_lon": 0.0, "bike_id": "f9519db7fa520be904ec06b4d9f6b19b", "is_reserved": 0, "rental_uris": {"android": "https://dc.lft.to/lastmile_qr_scan", "ios": "https://dc.lft.to/lastmile_qr_scan"}, "lat": 38.9051545, "is_disabled": 0, "lon": -77.0504485}, {"fusion_lat": 0.0, "type": "electric_scooter", "name": "550e206c4578a39b29aaabbb995f4e43", "fusion_lon": 0.0, "bike_id": "550e206c4578a39b29aaabbb995f4e43", "is_reserved": 0, "rental_uris": {"android": "https://dc.lft.to/lastmile_qr_scan", "ios": "https://dc.lft.to/lastmile_qr_scan"}, "lat": 38.9318595, "is_disabled": 0, "lon": -77.03836366666667}, {"fusion_lat": 0.0, "type": "electric_scooter", "name": "64330be4527e5081724243fc48d4b54f", "fusion_lon": 0.0, "bike_id": "64330be4527e5081724243fc48d4b54f", "is_reserved": 0, "rental_uris": {"android": "https://dc.lft.to/lastmile_qr_scan", "ios": "https://dc.lft.to/lastmile_qr_scan"}, "lat": 38.866992333333336, "is_disabled": 0, "lon": -76.98710366666667}, {"fusion_lat": 0.0, "type": "electric_scooter", "name": "f388da5748c2c38b8753ffa31d3eb6ca", "fusion_lon": 0.0, "bike_id": "f388da5748c2c38b8753ffa31d3eb6ca", "is_reserved": 0, "rental_uris": {"android": "https://dc.lft.to/lastmile_qr_scan", "ios": "https://dc.lft.to/lastmile_qr_scan"}, "lat": 38.904500166666665, "is_disabled": 0, "lon": -77.0390225}, {"fusion_lat": 0.0, "type": "electric_scooter", "name": "cb82661b53d2ffe18150faa488541b19", "fusion_lon": 0.0, "bike_id": "cb82661b53d2ffe18150faa488541b19", "is_reserved": 0, "rental_uris": {"android": "https://dc.lft.to/lastmile_qr_scan", "ios": "https://dc.lft.to/lastmile_qr_scan"}, "lat": 38.89214, "is_disabled": 0, "lon": -77.0318445}, {"fusion_lat": 0.0, "type": "electric_bike", "name": "0bb48373483d504409009b3e32df4d2a", "fusion_lon": 0.0, "bike_id": "0bb48373483d504409009b3e32df4d2a", "is_reserved": 0, "rental_uris": {"android": "https://dc.lft.to/lastmile_qr_scan", "ios": "https://dc.lft.to/lastmile_qr_scan"}, "lat": 38.880380333333335, "is_disabled": 0, "lon": -77.01126983333333}, {"fusion_lat": 0.0, "type": "electric_scooter", "name": "83014163a163b48901fec207afe3e93e", "fusion_lon": 0.0, "bike_id": "83014163a163b48901fec207afe3e93e", "is_reserved": 0, "rental_uris": {"android": "https://dc.lft.to/lastmile_qr_scan", "ios": "https://dc.lft.to/lastmile_qr_scan"}, "lat": 38.867334666666665, "is_disabled": 0, "lon": -76.987836}, {"fusion_lat": 0.0, "type": "electric_scooter", "name": "a1499c831ad47092676baa780f96848d", "fusion_lon": 0.0, "bike_id": "a1499c831ad47092676baa780f96848d", "is_reserved": 0, "rental_uris": {"android": "https://dc.lft.to/lastmile_qr_scan", "ios": "https://dc.lft.to/lastmile_qr_scan"}, "lat": 38.921976, "is_disabled": 0, "lon": -77.02984316666667}, {"fusion_lat": 0.0, "type": "electric_scooter", "name": "752b6d1620215142158c92167f9f01af", "fusion_lon": 0.0, "bike_id": "752b6d1620215142158c92167f9f01af", "is_reserved": 0, "rental_uris": {"android": "https://dc.lft.to/lastmile_qr_scan", "ios": "https://dc.lft.to/lastmile_qr_scan"}, "lat": 38.91340116666667, "is_disabled": 0, "lon": -77.00928416666666}, {"fusion_lat": 0.0, "type": "electric_scooter", "name": "2bdbc9577e752c4d703daa93a45d14c1", "fusion_lon": 0.0, "bike_id": "2bdbc9577e752c4d703daa93a45d14c1", "is_reserved": 0, "rental_uris": {"android": "https://dc.lft.to/lastmile_qr_scan", "ios": "https://dc.lft.to/lastmile_qr_scan"}, "lat": 38.91973016666667, "is_disabled": 0, "lon": -77.06399283333333}, {"fusion_lat": 0.0, "type": "electric_scooter", "name": "f18c5fabddaa04adf5bcdca8189a37ec", "fusion_lon": 0.0, "bike_id": "f18c5fabddaa04adf5bcdca8189a37ec", "is_reserved": 0, "rental_uris": {"android": "https://dc.lft.to/lastmile_qr_scan", "ios": "https://dc.lft.to/lastmile_qr_scan"}, "lat": 38.91486283333333, "is_disabled": 0, "lon": -77.02580583333334}, {"fusion_lat": 0.0, "type": "electric_scooter", "name": "aa0bb223b1a1369ae7ae49799b166952", "fusion_lon": 0.0, "bike_id": "aa0bb223b1a1369ae7ae49799b166952", "is_reserved": 0, "rental_uris": {"android": "https://dc.lft.to/lastmile_qr_scan", "ios": "https://dc.lft.to/lastmile_qr_scan"}, "lat": 38.889167, "is_disabled": 0, "lon": -76.991342}, {"fusion_lat": 0.0, "type": "electric_bike", "name": "a7b2d7e86dd5457ce3a79a1405e396f3", "fusion_lon": 0.0, "bike_id": "a7b2d7e86dd5457ce3a79a1405e396f3", "is_reserved": 0, "rental_uris": {"android": "https://dc.lft.to/lastmile_qr_scan", "ios": "https://dc.lft.to/lastmile_qr_scan"}, "lat": 38.97394766666667, "is_disabled": 0, "lon": -77.06457966666666}, {"fusion_lat": 0.0, "type": "electric_scooter", "name": "005161ab2230fad5a650d1254131f8eb", "fusion_lon": 0.0, "bike_id": "005161ab2230fad5a650d1254131f8eb", "is_reserved": 0, "rental_uris": {"android": "https://dc.lft.to/lastmile_qr_scan", "ios": "https://dc.lft.to/lastmile_qr_scan"}, "lat": 38.90968066666667, "is_disabled": 0, "lon": -77.03469883333334}, {"fusion_lat": 0.0, "type": "electric_scooter", "name": "092c698332d12ea15c6c013cb5ca8f7b", "fusion_lon": 0.0, "bike_id": "092c698332d12ea15c6c013cb5ca8f7b", "is_reserved": 0, "rental_uris": {"android": "https://dc.lft.to/lastmile_qr_scan", "ios": "https://dc.lft.to/lastmile_qr_scan"}, "lat": 38.898413, "is_disabled": 0, "lon": -76.94641383333334}, {"fusion_lat": 0.0, "type": "electric_scooter", "name": "e76fa4f26fe0ec069b5b71f9c761f914", "fusion_lon": 0.0, "bike_id": "e76fa4f26fe0ec069b5b71f9c761f914", "is_reserved": 0, "rental_uris": {"android": "https://dc.lft.to/lastmile_qr_scan", "ios": "https://dc.lft.to/lastmile_qr_scan"}, "lat": 38.90802633333333, "is_disabled": 0, "lon": -76.98737616666666}, {"fusion_lat": 0.0, "type": "electric_scooter", "name": "c268a2bc889506fca84084813a57bd98", "fusion_lon": 0.0, "bike_id": "c268a2bc889506fca84084813a57bd98", "is_reserved": 0, "rental_uris": {"android": "https://dc.lft.to/lastmile_qr_scan", "ios": "https://dc.lft.to/lastmile_qr_scan"}, "lat": 38.915501166666665, "is_disabled": 0, "lon": -77.03175616666667}, {"fusion_lat": 0.0, "type": "electric_scooter", "name": "a28023cf96f131d75bfc0d90b27589e2", "fusion_lon": 0.0, "bike_id": "a28023cf96f131d75bfc0d90b27589e2", "is_reserved": 0, "rental_uris": {"android": "https://dc.lft.to/lastmile_qr_scan", "ios": "https://dc.lft.to/lastmile_qr_scan"}, "lat": 38.8994735, "is_disabled": 0, "lon": -77.04209566666667}, {"fusion_lat": 0.0, "type": "electric_scooter", "name": "e1e715d621ea8bc5d6a51332b1999dcc", "fusion_lon": 0.0, "bike_id": "e1e715d621ea8bc5d6a51332b1999dcc", "is_reserved": 0, "rental_uris": {"android": "https://dc.lft.to/lastmile_qr_scan", "ios": "https://dc.lft.to/lastmile_qr_scan"}, "lat": 38.89225783333333, "is_disabled": 0, "lon": -77.0433735}, {"fusion_lat": 0.0, "type": "electric_scooter", "name": "b7d1dac7155421c3e3ef7b02fe1e090d", "fusion_lon": 0.0, "bike_id": "b7d1dac7155421c3e3ef7b02fe1e090d", "is_reserved": 0, "rental_uris": {"android": "https://dc.lft.to/lastmile_qr_scan", "ios": "https://dc.lft.to/lastmile_qr_scan"}, "lat": 38.928508666666666, "is_disabled": 0, "lon": -77.01412666666667}, {"fusion_lat": 0.0, "type": "electric_scooter", "name": "a1e6194bb3d4bc119aec03108035e81c", "fusion_lon": 0.0, "bike_id": "a1e6194bb3d4bc119aec03108035e81c", "is_reserved": 0, "rental_uris": {"android": "https://dc.lft.to/lastmile_qr_scan", "ios": "https://dc.lft.to/lastmile_qr_scan"}, "lat": 38.91705133333333, "is_disabled": 0, "lon": -77.03341516666667}, {"fusion_lat": 0.0, "type": "electric_scooter", "name": "ee6a2f717d2678cda99a8917c4974d15", "fusion_lon": 0.0, "bike_id": "ee6a2f717d2678cda99a8917c4974d15", "is_reserved": 0, "rental_uris": {"android": "https://dc.lft.to/lastmile_qr_scan", "ios": "https://dc.lft.to/lastmile_qr_scan"}, "lat": 38.9241375, "is_disabled": 0, "lon": -77.01949566666667}, {"fusion_lat": 0.0, "type": "electric_scooter", "name": "445ce93d13b6eb0c6f2f774c6668e4f2", "fusion_lon": 0.0, "bike_id": "445ce93d13b6eb0c6f2f774c6668e4f2", "is_reserved": 0, "rental_uris": {"android": "https://dc.lft.to/lastmile_qr_scan", "ios": "https://dc.lft.to/lastmile_qr_scan"}, "lat": 38.903375833333335, "is_disabled": 0, "lon": -77.04661466666667}, {"fusion_lat": 0.0, "type": "electric_scooter", "name": "2b0a7d3be2169ca92bb4f07059e83179", "fusion_lon": 0.0, "bike_id": "2b0a7d3be2169ca92bb4f07059e83179", "is_reserved": 0, "rental_uris": {"android": "https://dc.lft.to/lastmile_qr_scan", "ios": "https://dc.lft.to/lastmile_qr_scan"}, "lat": 38.92678683333333, "is_disabled": 0, "lon": -77.0286555}, {"fusion_lat": 0.0, "type": "electric_scooter", "name": "04c1762b44002a04d8e7801dcc73ffcd", "fusion_lon": 0.0, "bike_id": "04c1762b44002a04d8e7801dcc73ffcd", "is_reserved": 0, "rental_uris": {"android": "https://dc.lft.to/lastmile_qr_scan", "ios": "https://dc.lft.to/lastmile_qr_scan"}, "lat": 38.9237495, "is_disabled": 0, "lon": -77.03094033333333}, {"fusion_lat": 0.0, "type": "electric_scooter", "name": "395ee0430ffe4d1a22b59fcea7b279a3", "fusion_lon": 0.0, "bike_id": "395ee0430ffe4d1a22b59fcea7b279a3", "is_reserved": 0, "rental_uris": {"android": "https://dc.lft.to/lastmile_qr_scan", "ios": "https://dc.lft.to/lastmile_qr_scan"}, "lat": 38.908541666666665, "is_disabled": 0, "lon": -77.043648}, {"fusion_lat": 0.0, "type": "electric_scooter", "name": "299e25220f718943e0b305415f0f68cd", "fusion_lon": 0.0, "bike_id": "299e25220f718943e0b305415f0f68cd", "is_reserved": 0, "rental_uris": {"android": "https://dc.lft.to/lastmile_qr_scan", "ios": "https://dc.lft.to/lastmile_qr_scan"}, "lat": 38.89890183333333, "is_disabled": 0, "lon": -77.05295533333333}, {"fusion_lat": 0.0, "type": "electric_scooter", "name": "8bccb1c3af1e70daff8c1d13071d0ad7", "fusion_lon": 0.0, "bike_id": "8bccb1c3af1e70daff8c1d13071d0ad7", "is_reserved": 0, "rental_uris": {"android": "https://dc.lft.to/lastmile_qr_scan", "ios": "https://dc.lft.to/lastmile_qr_scan"}, "lat": 38.909684, "is_disabled": 0, "lon": -77.04760333333333}, {"fusion_lat": 0.0, "type": "electric_scooter", "name": "844d8a2f02142efda021a2122d1ccdd1", "fusion_lon": 0.0, "bike_id": "844d8a2f02142efda021a2122d1ccdd1", "is_reserved": 0, "rental_uris": {"android": "https://dc.lft.to/lastmile_qr_scan", "ios": "https://dc.lft.to/lastmile_qr_scan"}, "lat": 38.9281215, "is_disabled": 0, "lon": -77.03376483333334}, {"fusion_lat": 0.0, "type": "electric_scooter", "name": "f9a068119f1cda5acd7b201dd85e0786", "fusion_lon": 0.0, "bike_id": "f9a068119f1cda5acd7b201dd85e0786", "is_reserved": 0, "rental_uris": {"android": "https://dc.lft.to/lastmile_qr_scan", "ios": "https://dc.lft.to/lastmile_qr_scan"}, "lat": 38.89720466666667, "is_disabled": 0, "lon": -77.0307305}, {"fusion_lat": 0.0, "type": "electric_scooter", "name": "96701ab305aeecf3c9ea46249d50b930", "fusion_lon": 0.0, "bike_id": "96701ab305aeecf3c9ea46249d50b930", "is_reserved": 0, "rental_uris": {"android": "https://dc.lft.to/lastmile_qr_scan", "ios": "https://dc.lft.to/lastmile_qr_scan"}, "lat": 38.90082433333333, "is_disabled": 0, "lon": -76.93866583333333}, {"fusion_lat": 0.0, "type": "electric_scooter", "name": "790e291d8a87c6f90f723b6c3388729d", "fusion_lon": 0.0, "bike_id": "790e291d8a87c6f90f723b6c3388729d", "is_reserved": 0, "rental_uris": {"android": "https://dc.lft.to/lastmile_qr_scan", "ios": "https://dc.lft.to/lastmile_qr_scan"}, "lat": 38.918094333333336, "is_disabled": 0, "lon": -77.03381916666666}, {"fusion_lat": 0.0, "type": "electric_scooter", "name": "12015e2141f8cf722c459d07b03ad9a6", "fusion_lon": 0.0, "bike_id": "12015e2141f8cf722c459d07b03ad9a6", "is_reserved": 0, "rental_uris": {"android": "https://dc.lft.to/lastmile_qr_scan", "ios": "https://dc.lft.to/lastmile_qr_scan"}, "lat": 38.93633916666667, "is_disabled": 0, "lon": -77.08165566666666}, {"fusion_lat": 0.0, "type": "electric_bike", "name": "4f85ca8d5cd762e5b39a2a17395151cb", "fusion_lon": 0.0, "bike_id": "4f85ca8d5cd762e5b39a2a17395151cb", "is_reserved": 0, "rental_uris": {"android": "https://dc.lft.to/lastmile_qr_scan", "ios": "https://dc.lft.to/lastmile_qr_scan"}, "lat": 38.996364, "is_disabled": 0, "lon": -77.03997833333334}, {"fusion_lat": 0.0, "type": "electric_scooter", "name": "f1a35aed7a413983e5d13cc56847fce8", "fusion_lon": 0.0, "bike_id": "f1a35aed7a413983e5d13cc56847fce8", "is_reserved": 0, "rental_uris": {"android": "https://dc.lft.to/lastmile_qr_scan", "ios": "https://dc.lft.to/lastmile_qr_scan"}, "lat": 38.9142835, "is_disabled": 0, "lon": -77.03924566666667}, {"fusion_lat": 0.0, "type": "electric_scooter", "name": "af89fc5598e6ef566eefeaae3d5e3ff0", "fusion_lon": 0.0, "bike_id": "af89fc5598e6ef566eefeaae3d5e3ff0", "is_reserved": 0, "rental_uris": {"android": "https://dc.lft.to/lastmile_qr_scan", "ios": "https://dc.lft.to/lastmile_qr_scan"}, "lat": 38.9261085, "is_disabled": 0, "lon": -77.02165066666667}, {"fusion_lat": 0.0, "type": "electric_scooter", "name": "77d0cef37e9b8a3045b65caf4c3f2b35", "fusion_lon": 0.0, "bike_id": "77d0cef37e9b8a3045b65caf4c3f2b35", "is_reserved": 0, "rental_uris": {"android": "https://dc.lft.to/lastmile_qr_scan", "ios": "https://dc.lft.to/lastmile_qr_scan"}, "lat": 38.91412966666667, "is_disabled": 0, "lon": -77.04553783333333}, {"fusion_lat": 0.0, "type": "electric_scooter", "name": "020c9e14f0d7e55e5e220e6b88522618", "fusion_lon": 0.0, "bike_id": "020c9e14f0d7e55e5e220e6b88522618", "is_reserved": 0, "rental_uris": {"android": "https://dc.lft.to/lastmile_qr_scan", "ios": "https://dc.lft.to/lastmile_qr_scan"}, "lat": 38.92189583333333, "is_disabled": 0, "lon": -76.98874016666667}, {"fusion_lat": 0.0, "type": "electric_scooter", "name": "954b8487e8c3d4a7f567bf3b2ecc50b6", "fusion_lon": 0.0, "bike_id": "954b8487e8c3d4a7f567bf3b2ecc50b6", "is_reserved": 0, "rental_uris": {"android": "https://dc.lft.to/lastmile_qr_scan", "ios": "https://dc.lft.to/lastmile_qr_scan"}, "lat": 38.90571633333333, "is_disabled": 0, "lon": -77.01964716666667}, {"fusion_lat": 0.0, "type": "electric_scooter", "name": "ee48d1ad82b294c8c070d8476112ff8b", "fusion_lon": 0.0, "bike_id": "ee48d1ad82b294c8c070d8476112ff8b", "is_reserved": 0, "rental_uris": {"android": "https://dc.lft.to/lastmile_qr_scan", "ios": "https://dc.lft.to/lastmile_qr_scan"}, "lat": 38.9042145, "is_disabled": 0, "lon": -77.04262983333334}, {"fusion_lat": 0.0, "type": "electric_scooter", "name": "07fe630053cf45207b536496f1b8907e", "fusion_lon": 0.0, "bike_id": "07fe630053cf45207b536496f1b8907e", "is_reserved": 0, "rental_uris": {"android": "https://dc.lft.to/lastmile_qr_scan", "ios": "https://dc.lft.to/lastmile_qr_scan"}, "lat": 38.89224183333333, "is_disabled": 0, "lon": -77.02178833333333}, {"fusion_lat": 0.0, "type": "electric_scooter", "name": "d0b749f71a2ef280283eba10c6167252", "fusion_lon": 0.0, "bike_id": "d0b749f71a2ef280283eba10c6167252", "is_reserved": 0, "rental_uris": {"android": "https://dc.lft.to/lastmile_qr_scan", "ios": "https://dc.lft.to/lastmile_qr_scan"}, "lat": 38.91150583333334, "is_disabled": 0, "lon": -77.0434225}, {"fusion_lat": 0.0, "type": "electric_scooter", "name": "1bc8ba8ebcd9ecd2550c99e3c8adde71", "fusion_lon": 0.0, "bike_id": "1bc8ba8ebcd9ecd2550c99e3c8adde71", "is_reserved": 0, "rental_uris": {"android": "https://dc.lft.to/lastmile_qr_scan", "ios": "https://dc.lft.to/lastmile_qr_scan"}, "lat": 38.865534333333336, "is_disabled": 0, "lon": -76.9887645}, {"fusion_lat": 0.0, "type": "electric_bike", "name": "9b63f7799496d4a0bfd57419dedd7b56", "fusion_lon": 0.0, "bike_id": "9b63f7799496d4a0bfd57419dedd7b56", "is_reserved": 0, "rental_uris": {"android": "https://dc.lft.to/lastmile_qr_scan", "ios": "https://dc.lft.to/lastmile_qr_scan"}, "lat": 38.88565, "is_disabled": 0, "lon": -77.16690483333333}, {"fusion_lat": 0.0, "type": "electric_scooter", "name": "513ee422958bc7d1d31c42ce6f9808b1", "fusion_lon": 0.0, "bike_id": "513ee422958bc7d1d31c42ce6f9808b1", "is_reserved": 0, "rental_uris": {"android": "https://dc.lft.to/lastmile_qr_scan", "ios": "https://dc.lft.to/lastmile_qr_scan"}, "lat": 38.919891166666666, "is_disabled": 0, "lon": -77.03331816666666}, {"fusion_lat": 0.0, "type": "electric_scooter", "name": "edaec109c886d2e9d6aca4e45f190e5c", "fusion_lon": 0.0, "bike_id": "edaec109c886d2e9d6aca4e45f190e5c", "is_reserved": 0, "rental_uris": {"android": "https://dc.lft.to/lastmile_qr_scan", "ios": "https://dc.lft.to/lastmile_qr_scan"}, "lat": 38.8850505, "is_disabled": 0, "lon": -77.020221}, {"fusion_lat": 0.0, "type": "electric_scooter", "name": "b45d58641a9eb8b358e163eeefaf5ef0", "fusion_lon": 0.0, "bike_id": "b45d58641a9eb8b358e163eeefaf5ef0", "is_reserved": 0, "rental_uris": {"android": "https://dc.lft.to/lastmile_qr_scan", "ios": "https://dc.lft.to/lastmile_qr_scan"}, "lat": 38.94199883333334, "is_disabled": 0, "lon": -77.02512566666667}, {"fusion_lat": 0.0, "type": "electric_scooter", "name": "5800ac15d877f977ac58872b2821c04d", "fusion_lon": 0.0, "bike_id": "5800ac15d877f977ac58872b2821c04d", "is_reserved": 0, "rental_uris": {"android": "https://dc.lft.to/lastmile_qr_scan", "ios": "https://dc.lft.to/lastmile_qr_scan"}, "lat": 38.89230166666667, "is_disabled": 0, "lon": -77.0318575}, {"fusion_lat": 0.0, "type": "electric_scooter", "name": "f6b82cdaebceeaef2a88fad1ae92fdc5", "fusion_lon": 0.0, "bike_id": "f6b82cdaebceeaef2a88fad1ae92fdc5", "is_reserved": 0, "rental_uris": {"android": "https://dc.lft.to/lastmile_qr_scan", "ios": "https://dc.lft.to/lastmile_qr_scan"}, "lat": 38.93045, "is_disabled": 0, "lon": -77.03792916666667}, {"fusion_lat": 0.0, "type": "electric_scooter", "name": "8b8e441008475a0e86eeea4c2e9ba1e3", "fusion_lon": 0.0, "bike_id": "8b8e441008475a0e86eeea4c2e9ba1e3", "is_reserved": 0, "rental_uris": {"android": "https://dc.lft.to/lastmile_qr_scan", "ios": "https://dc.lft.to/lastmile_qr_scan"}, "lat": 38.90731983333333, "is_disabled": 0, "lon": -77.029876}, {"fusion_lat": 0.0, "type": "electric_scooter", "name": "5e2535010cd7a6e3c30ff925e49a2b2e", "fusion_lon": 0.0, "bike_id": "5e2535010cd7a6e3c30ff925e49a2b2e", "is_reserved": 0, "rental_uris": {"android": "https://dc.lft.to/lastmile_qr_scan", "ios": "https://dc.lft.to/lastmile_qr_scan"}, "lat": 38.92325566666667, "is_disabled": 0, "lon": -77.01957466666667}, {"fusion_lat": 0.0, "type": "electric_scooter", "name": "7ecbde38e7e72eb21774311ad2e4f978", "fusion_lon": 0.0, "bike_id": "7ecbde38e7e72eb21774311ad2e4f978", "is_reserved": 0, "rental_uris": {"android": "https://dc.lft.to/lastmile_qr_scan", "ios": "https://dc.lft.to/lastmile_qr_scan"}, "lat": 38.9072275, "is_disabled": 0, "lon": -77.03473033333333}, {"fusion_lat": 0.0, "type": "electric_scooter", "name": "df617fe3e11e364e9a2f06698e803a41", "fusion_lon": 0.0, "bike_id": "df617fe3e11e364e9a2f06698e803a41", "is_reserved": 0, "rental_uris": {"android": "https://dc.lft.to/lastmile_qr_scan", "ios": "https://dc.lft.to/lastmile_qr_scan"}, "lat": 38.918938833333335, "is_disabled": 0, "lon": -77.02976266666667}, {"fusion_lat": 0.0, "type": "electric_bike", "name": "873777d814307cd2ab4e8d6bec7f2e81", "fusion_lon": 0.0, "bike_id": "873777d814307cd2ab4e8d6bec7f2e81", "is_reserved": 0, "rental_uris": {"android": "https://dc.lft.to/lastmile_qr_scan", "ios": "https://dc.lft.to/lastmile_qr_scan"}, "lat": 38.96811233333333, "is_disabled": 0, "lon": -77.07232383333333}, {"fusion_lat": 0.0, "type": "electric_scooter", "name": "15541f4e3abeaf81ea8a0e019ab95786", "fusion_lon": 0.0, "bike_id": "15541f4e3abeaf81ea8a0e019ab95786", "is_reserved": 0, "rental_uris": {"android": "https://dc.lft.to/lastmile_qr_scan", "ios": "https://dc.lft.to/lastmile_qr_scan"}, "lat": 38.92224, "is_disabled": 0, "lon": -77.04239483333333}, {"fusion_lat": 0.0, "type": "electric_scooter", "name": "d1b96ac246a27549b380d27259ac4815", "fusion_lon": 0.0, "bike_id": "d1b96ac246a27549b380d27259ac4815", "is_reserved": 0, "rental_uris": {"android": "https://dc.lft.to/lastmile_qr_scan", "ios": "https://dc.lft.to/lastmile_qr_scan"}, "lat": 38.9093475, "is_disabled": 0, "lon": -77.0466055}, {"fusion_lat": 0.0, "type": "electric_scooter", "name": "5d397c40d4962bc35f861572901e6745", "fusion_lon": 0.0, "bike_id": "5d397c40d4962bc35f861572901e6745", "is_reserved": 0, "rental_uris": {"android": "https://dc.lft.to/lastmile_qr_scan", "ios": "https://dc.lft.to/lastmile_qr_scan"}, "lat": 38.914539833333336, "is_disabled": 0, "lon": -77.0188995}, {"fusion_lat": 0.0, "type": "electric_scooter", "name": "0cec336a93c7dca2ac0f147b0d5bde74", "fusion_lon": 0.0, "bike_id": "0cec336a93c7dca2ac0f147b0d5bde74", "is_reserved": 0, "rental_uris": {"android": "https://dc.lft.to/lastmile_qr_scan", "ios": "https://dc.lft.to/lastmile_qr_scan"}, "lat": 38.89960133333334, "is_disabled": 0, "lon": -77.01510216666667}, {"fusion_lat": 0.0, "type": "electric_bike", "name": "a795f44390c057ed8847bbd2f81a0850", "fusion_lon": 0.0, "bike_id": "a795f44390c057ed8847bbd2f81a0850", "is_reserved": 0, "rental_uris": {"android": "https://dc.lft.to/lastmile_qr_scan", "ios": "https://dc.lft.to/lastmile_qr_scan"}, "lat": 38.94923883333333, "is_disabled": 0, "lon": -77.00801083333333}, {"fusion_lat": 0.0, "type": "electric_scooter", "name": "36aa04909e9655ce35efbc06d76d838f", "fusion_lon": 0.0, "bike_id": "36aa04909e9655ce35efbc06d76d838f", "is_reserved": 0, "rental_uris": {"android": "https://dc.lft.to/lastmile_qr_scan", "ios": "https://dc.lft.to/lastmile_qr_scan"}, "lat": 38.9078715, "is_disabled": 0, "lon": -77.04511916666667}, {"fusion_lat": 0.0, "type": "electric_scooter", "name": "3c63f9d12df91b2d8e8036f036aba3e7", "fusion_lon": 0.0, "bike_id": "3c63f9d12df91b2d8e8036f036aba3e7", "is_reserved": 0, "rental_uris": {"android": "https://dc.lft.to/lastmile_qr_scan", "ios": "https://dc.lft.to/lastmile_qr_scan"}, "lat": 38.9030405, "is_disabled": 0, "lon": -77.0236755}, {"fusion_lat": 0.0, "type": "electric_scooter", "name": "76bc4fe41963ebe0b52536cee540b40a", "fusion_lon": 0.0, "bike_id": "76bc4fe41963ebe0b52536cee540b40a", "is_reserved": 0, "rental_uris": {"android": "https://dc.lft.to/lastmile_qr_scan", "ios": "https://dc.lft.to/lastmile_qr_scan"}, "lat": 38.92251383333333, "is_disabled": 0, "lon": -77.03518366666667}, {"fusion_lat": 0.0, "type": "electric_scooter", "name": "0c07696addae166c346eda47b5f2d3ba", "fusion_lon": 0.0, "bike_id": "0c07696addae166c346eda47b5f2d3ba", "is_reserved": 0, "rental_uris": {"android": "https://dc.lft.to/lastmile_qr_scan", "ios": "https://dc.lft.to/lastmile_qr_scan"}, "lat": 38.904411833333334, "is_disabled": 0, "lon": -76.98494833333334}, {"fusion_lat": 0.0, "type": "electric_bike", "name": "b78c6af24ffc2c292ed958e1386d5d8a", "fusion_lon": 0.0, "bike_id": "b78c6af24ffc2c292ed958e1386d5d8a", "is_reserved": 0, "rental_uris": {"android": "https://dc.lft.to/lastmile_qr_scan", "ios": "https://dc.lft.to/lastmile_qr_scan"}, "lat": 38.9185415, "is_disabled": 0, "lon": -76.96095016666666}, {"fusion_lat": 0.0, "type": "electric_scooter", "name": "93536ce35b36ee37327ee096ba0cff1a", "fusion_lon": 0.0, "bike_id": "93536ce35b36ee37327ee096ba0cff1a", "is_reserved": 0, "rental_uris": {"android": "https://dc.lft.to/lastmile_qr_scan", "ios": "https://dc.lft.to/lastmile_qr_scan"}, "lat": 38.91710533333333, "is_disabled": 0, "lon": -77.04163833333334}, {"fusion_lat": 0.0, "type": "electric_scooter", "name": "d04961731df7a41172f35743fe8450b2", "fusion_lon": 0.0, "bike_id": "d04961731df7a41172f35743fe8450b2", "is_reserved": 0, "rental_uris": {"android": "https://dc.lft.to/lastmile_qr_scan", "ios": "https://dc.lft.to/lastmile_qr_scan"}, "lat": 38.89606416666667, "is_disabled": 0, "lon": -77.05038166666667}, {"fusion_lat": 0.0, "type": "electric_scooter", "name": "33d5f5c6366024dd6ce9ff14b37d082d", "fusion_lon": 0.0, "bike_id": "33d5f5c6366024dd6ce9ff14b37d082d", "is_reserved": 0, "rental_uris": {"android": "https://dc.lft.to/lastmile_qr_scan", "ios": "https://dc.lft.to/lastmile_qr_scan"}, "lat": 38.90782466666667, "is_disabled": 0, "lon": -77.03858783333334}, {"fusion_lat": 0.0, "type": "electric_scooter", "name": "5a6f55fa3dbd7afee6a31ba58c47638b", "fusion_lon": 0.0, "bike_id": "5a6f55fa3dbd7afee6a31ba58c47638b", "is_reserved": 0, "rental_uris": {"android": "https://dc.lft.to/lastmile_qr_scan", "ios": "https://dc.lft.to/lastmile_qr_scan"}, "lat": 38.906977499999996, "is_disabled": 0, "lon": -77.035917}, {"fusion_lat": 0.0, "type": "electric_bike", "name": "62daab9061d0bb0dbc4053a56991d51f", "fusion_lon": 0.0, "bike_id": "62daab9061d0bb0dbc4053a56991d51f", "is_reserved": 0, "rental_uris": {"android": "https://dc.lft.to/lastmile_qr_scan", "ios": "https://dc.lft.to/lastmile_qr_scan"}, "lat": 38.953550666666665, "is_disabled": 0, "lon": -76.980941}, {"fusion_lat": 0.0, "type": "electric_scooter", "name": "6ce7fbdbd099221e1d8fa48620bfa5e4", "fusion_lon": 0.0, "bike_id": "6ce7fbdbd099221e1d8fa48620bfa5e4", "is_reserved": 0, "rental_uris": {"android": "https://dc.lft.to/lastmile_qr_scan", "ios": "https://dc.lft.to/lastmile_qr_scan"}, "lat": 38.912067666666665, "is_disabled": 0, "lon": -77.03847683333333}, {"fusion_lat": 0.0, "type": "electric_scooter", "name": "557050d1e58654d451a1f0ba0b1897fb", "fusion_lon": 0.0, "bike_id": "557050d1e58654d451a1f0ba0b1897fb", "is_reserved": 0, "rental_uris": {"android": "https://dc.lft.to/lastmile_qr_scan", "ios": "https://dc.lft.to/lastmile_qr_scan"}, "lat": 38.881066, "is_disabled": 0, "lon": -77.0164775}, {"fusion_lat": 0.0, "type": "electric_scooter", "name": "db00e7da1bf44758a10cc31afc81e5f3", "fusion_lon": 0.0, "bike_id": "db00e7da1bf44758a10cc31afc81e5f3", "is_reserved": 0, "rental_uris": {"android": "https://dc.lft.to/lastmile_qr_scan", "ios": "https://dc.lft.to/lastmile_qr_scan"}, "lat": 38.89547266666667, "is_disabled": 0, "lon": -77.05663133333333}, {"fusion_lat": 0.0, "type": "electric_scooter", "name": "64fad0604e35d72eba940e2e750a8e78", "fusion_lon": 0.0, "bike_id": "64fad0604e35d72eba940e2e750a8e78", "is_reserved": 0, "rental_uris": {"android": "https://dc.lft.to/lastmile_qr_scan", "ios": "https://dc.lft.to/lastmile_qr_scan"}, "lat": 38.92702583333333, "is_disabled": 0, "lon": -77.03634716666667}, {"fusion_lat": 0.0, "type": "electric_scooter", "name": "9f077d3e5dee2fd926af44836b0966b0", "fusion_lon": 0.0, "bike_id": "9f077d3e5dee2fd926af44836b0966b0", "is_reserved": 0, "rental_uris": {"android": "https://dc.lft.to/lastmile_qr_scan", "ios": "https://dc.lft.to/lastmile_qr_scan"}, "lat": 38.905777666666665, "is_disabled": 0, "lon": -77.029853}, {"fusion_lat": 0.0, "type": "electric_scooter", "name": "84384ffeb0d624fe003a91280efeb02b", "fusion_lon": 0.0, "bike_id": "84384ffeb0d624fe003a91280efeb02b", "is_reserved": 0, "rental_uris": {"android": "https://dc.lft.to/lastmile_qr_scan", "ios": "https://dc.lft.to/lastmile_qr_scan"}, "lat": 38.950698, "is_disabled": 0, "lon": -76.99562433333334}, {"fusion_lat": 0.0, "type": "electric_scooter", "name": "fd26edaf26e48728f8a573bd70f83b36", "fusion_lon": 0.0, "bike_id": "fd26edaf26e48728f8a573bd70f83b36", "is_reserved": 0, "rental_uris": {"android": "https://dc.lft.to/lastmile_qr_scan", "ios": "https://dc.lft.to/lastmile_qr_scan"}, "lat": 38.9237885, "is_disabled": 0, "lon": -77.031005}, {"fusion_lat": 0.0, "type": "electric_scooter", "name": "d62a0099c9950480b18eb82b02071067", "fusion_lon": 0.0, "bike_id": "d62a0099c9950480b18eb82b02071067", "is_reserved": 0, "rental_uris": {"android": "https://dc.lft.to/lastmile_qr_scan", "ios": "https://dc.lft.to/lastmile_qr_scan"}, "lat": 38.90875833333333, "is_disabled": 0, "lon": -77.0434035}, {"fusion_lat": 0.0, "type": "electric_bike", "name": "8500d449a792d70d8f5b9018331426c7", "fusion_lon": 0.0, "bike_id": "8500d449a792d70d8f5b9018331426c7", "is_reserved": 0, "rental_uris": {"android": "https://dc.lft.to/lastmile_qr_scan", "ios": "https://dc.lft.to/lastmile_qr_scan"}, "lat": 38.8237575, "is_disabled": 0, "lon": -77.00230883333333}, {"fusion_lat": 0.0, "type": "electric_scooter", "name": "026d32775f17c05c2588c7b60a16b867", "fusion_lon": 0.0, "bike_id": "026d32775f17c05c2588c7b60a16b867", "is_reserved": 0, "rental_uris": {"android": "https://dc.lft.to/lastmile_qr_scan", "ios": "https://dc.lft.to/lastmile_qr_scan"}, "lat": 38.893554, "is_disabled": 0, "lon": -77.0033505}, {"fusion_lat": 0.0, "type": "electric_scooter", "name": "203508e26e6549e207cb6932472c89b7", "fusion_lon": 0.0, "bike_id": "203508e26e6549e207cb6932472c89b7", "is_reserved": 0, "rental_uris": {"android": "https://dc.lft.to/lastmile_qr_scan", "ios": "https://dc.lft.to/lastmile_qr_scan"}, "lat": 38.9023635, "is_disabled": 0, "lon": -77.0439005}, {"fusion_lat": 0.0, "type": "electric_scooter", "name": "62a59cda3461ff73274f02c2ae82265e", "fusion_lon": 0.0, "bike_id": "62a59cda3461ff73274f02c2ae82265e", "is_reserved": 0, "rental_uris": {"android": "https://dc.lft.to/lastmile_qr_scan", "ios": "https://dc.lft.to/lastmile_qr_scan"}, "lat": 38.897294333333335, "is_disabled": 0, "lon": -77.02725866666667}, {"fusion_lat": 0.0, "type": "electric_scooter", "name": "0d152f7141f543227547b1b38ee7f44d", "fusion_lon": 0.0, "bike_id": "0d152f7141f543227547b1b38ee7f44d", "is_reserved": 0, "rental_uris": {"android": "https://dc.lft.to/lastmile_qr_scan", "ios": "https://dc.lft.to/lastmile_qr_scan"}, "lat": 38.921042666666665, "is_disabled": 0, "lon": -77.07190966666667}, {"fusion_lat": 0.0, "type": "electric_bike", "name": "3b97a4dab9bc81879b348e49cd29840e", "fusion_lon": 0.0, "bike_id": "3b97a4dab9bc81879b348e49cd29840e", "is_reserved": 0, "rental_uris": {"android": "https://dc.lft.to/lastmile_qr_scan", "ios": "https://dc.lft.to/lastmile_qr_scan"}, "lat": 38.86743883333333, "is_disabled": 0, "lon": -77.117105}, {"fusion_lat": 0.0, "type": "electric_scooter", "name": "ace7037a363fa544f5cd8c2410336906", "fusion_lon": 0.0, "bike_id": "ace7037a363fa544f5cd8c2410336906", "is_reserved": 0, "rental_uris": {"android": "https://dc.lft.to/lastmile_qr_scan", "ios": "https://dc.lft.to/lastmile_qr_scan"}, "lat": 38.911236333333335, "is_disabled": 0, "lon": -77.0436865}, {"fusion_lat": 0.0, "type": "electric_scooter", "name": "8dc355f27019777320fa02d9f05b5a39", "fusion_lon": 0.0, "bike_id": "8dc355f27019777320fa02d9f05b5a39", "is_reserved": 0, "rental_uris": {"android": "https://dc.lft.to/lastmile_qr_scan", "ios": "https://dc.lft.to/lastmile_qr_scan"}, "lat": 38.93418616666666, "is_disabled": 0, "lon": -77.0441145}, {"fusion_lat": 0.0, "type": "electric_scooter", "name": "5ca5b5411872531e7fc607470a712941", "fusion_lon": 0.0, "bike_id": "5ca5b5411872531e7fc607470a712941", "is_reserved": 0, "rental_uris": {"android": "https://dc.lft.to/lastmile_qr_scan", "ios": "https://dc.lft.to/lastmile_qr_scan"}, "lat": 38.8936745, "is_disabled": 0, "lon": -76.94997616666667}, {"fusion_lat": 0.0, "type": "electric_scooter", "name": "ecac1120a8dc3e82916b2632b526f4a0", "fusion_lon": 0.0, "bike_id": "ecac1120a8dc3e82916b2632b526f4a0", "is_reserved": 0, "rental_uris": {"android": "https://dc.lft.to/lastmile_qr_scan", "ios": "https://dc.lft.to/lastmile_qr_scan"}, "lat": 38.900765166666666, "is_disabled": 0, "lon": -77.04688366666667}, {"fusion_lat": 0.0, "type": "electric_scooter", "name": "733be8970e862d1bf67be2e1cf37b0b4", "fusion_lon": 0.0, "bike_id": "733be8970e862d1bf67be2e1cf37b0b4", "is_reserved": 0, "rental_uris": {"android": "https://dc.lft.to/lastmile_qr_scan", "ios": "https://dc.lft.to/lastmile_qr_scan"}, "lat": 38.921087, "is_disabled": 0, "lon": -77.0205345}, {"fusion_lat": 0.0, "type": "electric_scooter", "name": "9ce8b5bbbea025fe4c5eabe061a22570", "fusion_lon": 0.0, "bike_id": "9ce8b5bbbea025fe4c5eabe061a22570", "is_reserved": 0, "rental_uris": {"android": "https://dc.lft.to/lastmile_qr_scan", "ios": "https://dc.lft.to/lastmile_qr_scan"}, "lat": 38.902644333333335, "is_disabled": 0, "lon": -77.03426933333333}, {"fusion_lat": 0.0, "type": "electric_bike", "name": "e777f995984642647e40d7a3630a585e", "fusion_lon": 0.0, "bike_id": "e777f995984642647e40d7a3630a585e", "is_reserved": 0, "rental_uris": {"android": "https://dc.lft.to/lastmile_qr_scan", "ios": "https://dc.lft.to/lastmile_qr_scan"}, "lat": 38.82908616666667, "is_disabled": 0, "lon": -76.997794}, {"fusion_lat": 0.0, "type": "electric_scooter", "name": "5cf031bf9ea4a76fbd49e22f0c21cd78", "fusion_lon": 0.0, "bike_id": "5cf031bf9ea4a76fbd49e22f0c21cd78", "is_reserved": 0, "rental_uris": {"android": "https://dc.lft.to/lastmile_qr_scan", "ios": "https://dc.lft.to/lastmile_qr_scan"}, "lat": 38.900257, "is_disabled": 0, "lon": -77.01197516666667}, {"fusion_lat": 0.0, "type": "electric_scooter", "name": "73e62dd1e43f08b40a4b7fd247a2c390", "fusion_lon": 0.0, "bike_id": "73e62dd1e43f08b40a4b7fd247a2c390", "is_reserved": 0, "rental_uris": {"android": "https://dc.lft.to/lastmile_qr_scan", "ios": "https://dc.lft.to/lastmile_qr_scan"}, "lat": 38.898812, "is_disabled": 0, "lon": -77.03936566666667}, {"fusion_lat": 0.0, "type": "electric_scooter", "name": "f2a6b50a76366aea6711d67e4953a765", "fusion_lon": 0.0, "bike_id": "f2a6b50a76366aea6711d67e4953a765", "is_reserved": 0, "rental_uris": {"android": "https://dc.lft.to/lastmile_qr_scan", "ios": "https://dc.lft.to/lastmile_qr_scan"}, "lat": 38.917807333333336, "is_disabled": 0, "lon": -77.03215833333333}, {"fusion_lat": 0.0, "type": "electric_scooter", "name": "70556e846beb4f4dee410e0314c0588e", "fusion_lon": 0.0, "bike_id": "70556e846beb4f4dee410e0314c0588e", "is_reserved": 0, "rental_uris": {"android": "https://dc.lft.to/lastmile_qr_scan", "ios": "https://dc.lft.to/lastmile_qr_scan"}, "lat": 38.907784, "is_disabled": 0, "lon": -77.03811766666666}, {"fusion_lat": 0.0, "type": "electric_scooter", "name": "e85ba75d9013d9e0e547fb0e1aeb5816", "fusion_lon": 0.0, "bike_id": "e85ba75d9013d9e0e547fb0e1aeb5816", "is_reserved": 0, "rental_uris": {"android": "https://dc.lft.to/lastmile_qr_scan", "ios": "https://dc.lft.to/lastmile_qr_scan"}, "lat": 38.938802333333335, "is_disabled": 0, "lon": -77.0248175}, {"fusion_lat": 0.0, "type": "electric_scooter", "name": "c74809231c2ffe14e45e2e929d226ce7", "fusion_lon": 0.0, "bike_id": "c74809231c2ffe14e45e2e929d226ce7", "is_reserved": 0, "rental_uris": {"android": "https://dc.lft.to/lastmile_qr_scan", "ios": "https://dc.lft.to/lastmile_qr_scan"}, "lat": 38.903277, "is_disabled": 0, "lon": -77.031727}, {"fusion_lat": 0.0, "type": "electric_scooter", "name": "16ea7640fb497957c3f04e689cd002a3", "fusion_lon": 0.0, "bike_id": "16ea7640fb497957c3f04e689cd002a3", "is_reserved": 0, "rental_uris": {"android": "https://dc.lft.to/lastmile_qr_scan", "ios": "https://dc.lft.to/lastmile_qr_scan"}, "lat": 38.901978, "is_disabled": 0, "lon": -76.97852616666667}, {"fusion_lat": 0.0, "type": "electric_scooter", "name": "61fe8950277c5ec41f91c2528ef00301", "fusion_lon": 0.0, "bike_id": "61fe8950277c5ec41f91c2528ef00301", "is_reserved": 0, "rental_uris": {"android": "https://dc.lft.to/lastmile_qr_scan", "ios": "https://dc.lft.to/lastmile_qr_scan"}, "lat": 38.880517833333336, "is_disabled": 0, "lon": -77.01995566666666}, {"fusion_lat": 0.0, "type": "electric_scooter", "name": "17e2603bd72f65e66c843e35b03577ee", "fusion_lon": 0.0, "bike_id": "17e2603bd72f65e66c843e35b03577ee", "is_reserved": 0, "rental_uris": {"android": "https://dc.lft.to/lastmile_qr_scan", "ios": "https://dc.lft.to/lastmile_qr_scan"}, "lat": 38.905223166666666, "is_disabled": 0, "lon": -77.05161233333334}, {"fusion_lat": 0.0, "type": "electric_scooter", "name": "9193942603a51094ddead1afe17e2c2a", "fusion_lon": 0.0, "bike_id": "9193942603a51094ddead1afe17e2c2a", "is_reserved": 0, "rental_uris": {"android": "https://dc.lft.to/lastmile_qr_scan", "ios": "https://dc.lft.to/lastmile_qr_scan"}, "lat": 38.922512166666664, "is_disabled": 0, "lon": -77.0195085}, {"fusion_lat": 0.0, "type": "electric_bike", "name": "a24e26fbbebb622661884e09d7fa9006", "fusion_lon": 0.0, "bike_id": "a24e26fbbebb622661884e09d7fa9006", "is_reserved": 0, "rental_uris": {"android": "https://dc.lft.to/lastmile_qr_scan", "ios": "https://dc.lft.to/lastmile_qr_scan"}, "lat": 38.8773005, "is_disabled": 0, "lon": -76.98106566666667}, {"fusion_lat": 0.0, "type": "electric_scooter", "name": "9a059a2baecccaf7ca10297361e77dd6", "fusion_lon": 0.0, "bike_id": "9a059a2baecccaf7ca10297361e77dd6", "is_reserved": 0, "rental_uris": {"android": "https://dc.lft.to/lastmile_qr_scan", "ios": "https://dc.lft.to/lastmile_qr_scan"}, "lat": 38.892224, "is_disabled": 0, "lon": -77.04683716666666}, {"fusion_lat": 0.0, "type": "electric_scooter", "name": "76cba41cdc19d5484d237b9dd404af84", "fusion_lon": 0.0, "bike_id": "76cba41cdc19d5484d237b9dd404af84", "is_reserved": 0, "rental_uris": {"android": "https://dc.lft.to/lastmile_qr_scan", "ios": "https://dc.lft.to/lastmile_qr_scan"}, "lat": 38.904316, "is_disabled": 0, "lon": -77.05154883333333}, {"fusion_lat": 0.0, "type": "electric_scooter", "name": "cbd5d2dfce6f1b574f88f3b9e8308748", "fusion_lon": 0.0, "bike_id": "cbd5d2dfce6f1b574f88f3b9e8308748", "is_reserved": 0, "rental_uris": {"android": "https://dc.lft.to/lastmile_qr_scan", "ios": "https://dc.lft.to/lastmile_qr_scan"}, "lat": 38.8984365, "is_disabled": 0, "lon": -76.94639983333333}, {"fusion_lat": 0.0, "type": "electric_scooter", "name": "08c696f91d9a873e31074b439f6c7391", "fusion_lon": 0.0, "bike_id": "08c696f91d9a873e31074b439f6c7391", "is_reserved": 0, "rental_uris": {"android": "https://dc.lft.to/lastmile_qr_scan", "ios": "https://dc.lft.to/lastmile_qr_scan"}, "lat": 38.908966, "is_disabled": 0, "lon": -77.03213716666667}, {"fusion_lat": 0.0, "type": "electric_scooter", "name": "668ab6eb34ce08c125bad44777f901eb", "fusion_lon": 0.0, "bike_id": "668ab6eb34ce08c125bad44777f901eb", "is_reserved": 0, "rental_uris": {"android": "https://dc.lft.to/lastmile_qr_scan", "ios": "https://dc.lft.to/lastmile_qr_scan"}, "lat": 38.92303166666667, "is_disabled": 0, "lon": -77.04463266666667}, {"fusion_lat": 0.0, "type": "electric_scooter", "name": "3f87fbecb86970ab6585b5b8211fcc8e", "fusion_lon": 0.0, "bike_id": "3f87fbecb86970ab6585b5b8211fcc8e", "is_reserved": 0, "rental_uris": {"android": "https://dc.lft.to/lastmile_qr_scan", "ios": "https://dc.lft.to/lastmile_qr_scan"}, "lat": 38.948934333333334, "is_disabled": 0, "lon": -77.0064645}, {"fusion_lat": 0.0, "type": "electric_scooter", "name": "10d499a905bf43c045dd458730cf44f5", "fusion_lon": 0.0, "bike_id": "10d499a905bf43c045dd458730cf44f5", "is_reserved": 0, "rental_uris": {"android": "https://dc.lft.to/lastmile_qr_scan", "ios": "https://dc.lft.to/lastmile_qr_scan"}, "lat": 38.87459416666667, "is_disabled": 0, "lon": -77.00960833333333}, {"fusion_lat": 0.0, "type": "electric_scooter", "name": "94ecc1a22e373de3103146295e3da007", "fusion_lon": 0.0, "bike_id": "94ecc1a22e373de3103146295e3da007", "is_reserved": 0, "rental_uris": {"android": "https://dc.lft.to/lastmile_qr_scan", "ios": "https://dc.lft.to/lastmile_qr_scan"}, "lat": 38.860658, "is_disabled": 0, "lon": -76.98420133333333}, {"fusion_lat": 0.0, "type": "electric_scooter", "name": "327834106f1ce7eb8cd0312e0841c50b", "fusion_lon": 0.0, "bike_id": "327834106f1ce7eb8cd0312e0841c50b", "is_reserved": 0, "rental_uris": {"android": "https://dc.lft.to/lastmile_qr_scan", "ios": "https://dc.lft.to/lastmile_qr_scan"}, "lat": 38.93458066666667, "is_disabled": 0, "lon": -77.05782483333333}, {"fusion_lat": 0.0, "type": "electric_scooter", "name": "39800131a6ecc4c07f58fa9412aad968", "fusion_lon": 0.0, "bike_id": "39800131a6ecc4c07f58fa9412aad968", "is_reserved": 0, "rental_uris": {"android": "https://dc.lft.to/lastmile_qr_scan", "ios": "https://dc.lft.to/lastmile_qr_scan"}, "lat": 38.9017425, "is_disabled": 0, "lon": -77.02675866666667}, {"fusion_lat": 0.0, "type": "electric_scooter", "name": "f7c9bbbdf5ac0bb7c8dfb2c784510823", "fusion_lon": 0.0, "bike_id": "f7c9bbbdf5ac0bb7c8dfb2c784510823", "is_reserved": 0, "rental_uris": {"android": "https://dc.lft.to/lastmile_qr_scan", "ios": "https://dc.lft.to/lastmile_qr_scan"}, "lat": 38.904436833333335, "is_disabled": 0, "lon": -77.03226066666667}, {"fusion_lat": 0.0, "type": "electric_scooter", "name": "36d1f444afb04bf077f22304e63c4314", "fusion_lon": 0.0, "bike_id": "36d1f444afb04bf077f22304e63c4314", "is_reserved": 0, "rental_uris": {"android": "https://dc.lft.to/lastmile_qr_scan", "ios": "https://dc.lft.to/lastmile_qr_scan"}, "lat": 38.918432333333335, "is_disabled": 0, "lon": -77.02562566666667}, {"fusion_lat": 0.0, "type": "electric_bike", "name": "854e5c5c7fc397d925bd6e212af9ec35", "fusion_lon": 0.0, "bike_id": "854e5c5c7fc397d925bd6e212af9ec35", "is_reserved": 0, "rental_uris": {"android": "https://dc.lft.to/lastmile_qr_scan", "ios": "https://dc.lft.to/lastmile_qr_scan"}, "lat": 38.8577485, "is_disabled": 0, "lon": -76.98768016666666}, {"fusion_lat": 0.0, "type": "electric_scooter", "name": "0911c02999cf8f2a82bb2cdc9f4d529a", "fusion_lon": 0.0, "bike_id": "0911c02999cf8f2a82bb2cdc9f4d529a", "is_reserved": 0, "rental_uris": {"android": "https://dc.lft.to/lastmile_qr_scan", "ios": "https://dc.lft.to/lastmile_qr_scan"}, "lat": 38.926443666666664, "is_disabled": 0, "lon": -77.0346805}, {"fusion_lat": 0.0, "type": "electric_bike", "name": "d3708bea4221ff6cc790e55a007aeb7e", "fusion_lon": 0.0, "bike_id": "d3708bea4221ff6cc790e55a007aeb7e", "is_reserved": 0, "rental_uris": {"android": "https://dc.lft.to/lastmile_qr_scan", "ios": "https://dc.lft.to/lastmile_qr_scan"}, "lat": 38.854388666666665, "is_disabled": 0, "lon": -77.08329183333333}, {"fusion_lat": 0.0, "type": "electric_scooter", "name": "117cffc4bfcc26b1e6c88e3483eb7708", "fusion_lon": 0.0, "bike_id": "117cffc4bfcc26b1e6c88e3483eb7708", "is_reserved": 0, "rental_uris": {"android": "https://dc.lft.to/lastmile_qr_scan", "ios": "https://dc.lft.to/lastmile_qr_scan"}, "lat": 38.9387365, "is_disabled": 0, "lon": -77.02379566666667}, {"fusion_lat": 0.0, "type": "electric_scooter", "name": "e6394132327081c97c3d6852ef4387fb", "fusion_lon": 0.0, "bike_id": "e6394132327081c97c3d6852ef4387fb", "is_reserved": 0, "rental_uris": {"android": "https://dc.lft.to/lastmile_qr_scan", "ios": "https://dc.lft.to/lastmile_qr_scan"}, "lat": 38.941221666666664, "is_disabled": 0, "lon": -77.01541116666667}, {"fusion_lat": 0.0, "type": "electric_scooter", "name": "8ae230a436c5320bf8b5f4de6a27cdf1", "fusion_lon": 0.0, "bike_id": "8ae230a436c5320bf8b5f4de6a27cdf1", "is_reserved": 0, "rental_uris": {"android": "https://dc.lft.to/lastmile_qr_scan", "ios": "https://dc.lft.to/lastmile_qr_scan"}, "lat": 38.89247916666667, "is_disabled": 0, "lon": -77.04660316666667}, {"fusion_lat": 0.0, "type": "electric_scooter", "name": "6f71491f4bb426440ea71c619ab2a374", "fusion_lon": 0.0, "bike_id": "6f71491f4bb426440ea71c619ab2a374", "is_reserved": 0, "rental_uris": {"android": "https://dc.lft.to/lastmile_qr_scan", "ios": "https://dc.lft.to/lastmile_qr_scan"}, "lat": 38.918918, "is_disabled": 0, "lon": -77.04830233333334}, {"fusion_lat": 0.0, "type": "electric_scooter", "name": "156fb09a4b531e606266948b8152684c", "fusion_lon": 0.0, "bike_id": "156fb09a4b531e606266948b8152684c", "is_reserved": 0, "rental_uris": {"android": "https://dc.lft.to/lastmile_qr_scan", "ios": "https://dc.lft.to/lastmile_qr_scan"}, "lat": 38.966189166666666, "is_disabled": 0, "lon": -77.03510216666666}, {"fusion_lat": 0.0, "type": "electric_scooter", "name": "87e01b71b4ab8b36d1c303974a4fc4fd", "fusion_lon": 0.0, "bike_id": "87e01b71b4ab8b36d1c303974a4fc4fd", "is_reserved": 0, "rental_uris": {"android": "https://dc.lft.to/lastmile_qr_scan", "ios": "https://dc.lft.to/lastmile_qr_scan"}, "lat": 38.90574066666667, "is_disabled": 0, "lon": -77.02598733333333}, {"fusion_lat": 0.0, "type": "electric_scooter", "name": "30dba0fcd10d85a3285977971983f76c", "fusion_lon": 0.0, "bike_id": "30dba0fcd10d85a3285977971983f76c", "is_reserved": 0, "rental_uris": {"android": "https://dc.lft.to/lastmile_qr_scan", "ios": "https://dc.lft.to/lastmile_qr_scan"}, "lat": 38.9215755, "is_disabled": 0, "lon": -77.03383566666666}, {"fusion_lat": 0.0, "type": "electric_scooter", "name": "d2e2ba952ed27a31083d8c154b4a4ad5", "fusion_lon": 0.0, "bike_id": "d2e2ba952ed27a31083d8c154b4a4ad5", "is_reserved": 0, "rental_uris": {"android": "https://dc.lft.to/lastmile_qr_scan", "ios": "https://dc.lft.to/lastmile_qr_scan"}, "lat": 38.927917666666666, "is_disabled": 0, "lon": -77.02123183333333}, {"fusion_lat": 0.0, "type": "electric_scooter", "name": "6d7b8075284c2f0541dabad6fe6a2603", "fusion_lon": 0.0, "bike_id": "6d7b8075284c2f0541dabad6fe6a2603", "is_reserved": 0, "rental_uris": {"android": "https://dc.lft.to/lastmile_qr_scan", "ios": "https://dc.lft.to/lastmile_qr_scan"}, "lat": 38.919522666666666, "is_disabled": 0, "lon": -77.02388616666667}, {"fusion_lat": 0.0, "type": "electric_bike", "name": "71df8ef738c6025a3980ae29edfdfd07", "fusion_lon": 0.0, "bike_id": "71df8ef738c6025a3980ae29edfdfd07", "is_reserved": 0, "rental_uris": {"android": "https://dc.lft.to/lastmile_qr_scan", "ios": "https://dc.lft.to/lastmile_qr_scan"}, "lat": 39.042339166666665, "is_disabled": 0, "lon": -77.03074283333333}, {"fusion_lat": 0.0, "type": "electric_scooter", "name": "c5db2106604b6514106eedcece6e8717", "fusion_lon": 0.0, "bike_id": "c5db2106604b6514106eedcece6e8717", "is_reserved": 0, "rental_uris": {"android": "https://dc.lft.to/lastmile_qr_scan", "ios": "https://dc.lft.to/lastmile_qr_scan"}, "lat": 38.9234415, "is_disabled": 0, "lon": -77.04345133333334}, {"fusion_lat": 0.0, "type": "electric_scooter", "name": "4bbe75b34df16b6cff0dea4d7a04abb7", "fusion_lon": 0.0, "bike_id": "4bbe75b34df16b6cff0dea4d7a04abb7", "is_reserved": 0, "rental_uris": {"android": "https://dc.lft.to/lastmile_qr_scan", "ios": "https://dc.lft.to/lastmile_qr_scan"}, "lat": 38.897465333333336, "is_disabled": 0, "lon": -77.01359583333333}, {"fusion_lat": 0.0, "type": "electric_scooter", "name": "1f9f0f6693aaae88cdde637a4dba4a57", "fusion_lon": 0.0, "bike_id": "1f9f0f6693aaae88cdde637a4dba4a57", "is_reserved": 0, "rental_uris": {"android": "https://dc.lft.to/lastmile_qr_scan", "ios": "https://dc.lft.to/lastmile_qr_scan"}, "lat": 38.942011, "is_disabled": 0, "lon": -77.02514183333334}, {"fusion_lat": 0.0, "type": "electric_scooter", "name": "eeeb72b3cb19a6fa799f084a2f6a7006", "fusion_lon": 0.0, "bike_id": "eeeb72b3cb19a6fa799f084a2f6a7006", "is_reserved": 0, "rental_uris": {"android": "https://dc.lft.to/lastmile_qr_scan", "ios": "https://dc.lft.to/lastmile_qr_scan"}, "lat": 38.876441166666666, "is_disabled": 0, "lon": -76.96503916666667}, {"fusion_lat": 0.0, "type": "electric_scooter", "name": "ed4ab82510e6dfa3c27533c6b6e9d51a", "fusion_lon": 0.0, "bike_id": "ed4ab82510e6dfa3c27533c6b6e9d51a", "is_reserved": 0, "rental_uris": {"android": "https://dc.lft.to/lastmile_qr_scan", "ios": "https://dc.lft.to/lastmile_qr_scan"}, "lat": 38.93081383333333, "is_disabled": 0, "lon": -77.0279275}, {"fusion_lat": 0.0, "type": "electric_scooter", "name": "84caa2f6e3e977db4721f92b57ffdb27", "fusion_lon": 0.0, "bike_id": "84caa2f6e3e977db4721f92b57ffdb27", "is_reserved": 0, "rental_uris": {"android": "https://dc.lft.to/lastmile_qr_scan", "ios": "https://dc.lft.to/lastmile_qr_scan"}, "lat": 38.920513166666666, "is_disabled": 0, "lon": -77.0257425}, {"fusion_lat": 0.0, "type": "electric_scooter", "name": "db09726e3ec8e99281ce7eab34207411", "fusion_lon": 0.0, "bike_id": "db09726e3ec8e99281ce7eab34207411", "is_reserved": 0, "rental_uris": {"android": "https://dc.lft.to/lastmile_qr_scan", "ios": "https://dc.lft.to/lastmile_qr_scan"}, "lat": 38.89222633333333, "is_disabled": 0, "lon": -77.04308716666667}, {"fusion_lat": 0.0, "type": "electric_scooter", "name": "714b1a16bbab2063be867a46347a1c2a", "fusion_lon": 0.0, "bike_id": "714b1a16bbab2063be867a46347a1c2a", "is_reserved": 0, "rental_uris": {"android": "https://dc.lft.to/lastmile_qr_scan", "ios": "https://dc.lft.to/lastmile_qr_scan"}, "lat": 38.90062833333333, "is_disabled": 0, "lon": -77.04538933333333}, {"fusion_lat": 0.0, "type": "electric_scooter", "name": "d908aa46d5abee64c32721a66570a9aa", "fusion_lon": 0.0, "bike_id": "d908aa46d5abee64c32721a66570a9aa", "is_reserved": 0, "rental_uris": {"android": "https://dc.lft.to/lastmile_qr_scan", "ios": "https://dc.lft.to/lastmile_qr_scan"}, "lat": 38.91106033333333, "is_disabled": 0, "lon": -77.03325533333333}, {"fusion_lat": 0.0, "type": "electric_scooter", "name": "7891838212ef9f23838ea6a95569d780", "fusion_lon": 0.0, "bike_id": "7891838212ef9f23838ea6a95569d780", "is_reserved": 0, "rental_uris": {"android": "https://dc.lft.to/lastmile_qr_scan", "ios": "https://dc.lft.to/lastmile_qr_scan"}, "lat": 38.878005, "is_disabled": 0, "lon": -77.01765066666667}, {"fusion_lat": 0.0, "type": "electric_scooter", "name": "77ff1598962e1362b3a586607bf1618c", "fusion_lon": 0.0, "bike_id": "77ff1598962e1362b3a586607bf1618c", "is_reserved": 0, "rental_uris": {"android": "https://dc.lft.to/lastmile_qr_scan", "ios": "https://dc.lft.to/lastmile_qr_scan"}, "lat": 38.909690833333336, "is_disabled": 0, "lon": -77.02076516666666}, {"fusion_lat": 0.0, "type": "electric_scooter", "name": "103ce1e409e0f416b5559bb1b435c972", "fusion_lon": 0.0, "bike_id": "103ce1e409e0f416b5559bb1b435c972", "is_reserved": 0, "rental_uris": {"android": "https://dc.lft.to/lastmile_qr_scan", "ios": "https://dc.lft.to/lastmile_qr_scan"}, "lat": 38.95829066666667, "is_disabled": 0, "lon": -77.01508116666666}, {"fusion_lat": 0.0, "type": "electric_scooter", "name": "2b6c827bd3533700632a5c7739f6781a", "fusion_lon": 0.0, "bike_id": "2b6c827bd3533700632a5c7739f6781a", "is_reserved": 0, "rental_uris": {"android": "https://dc.lft.to/lastmile_qr_scan", "ios": "https://dc.lft.to/lastmile_qr_scan"}, "lat": 38.92839133333333, "is_disabled": 0, "lon": -77.03283466666667}, {"fusion_lat": 0.0, "type": "electric_bike", "name": "70cfc32cbeacd44f6d1a54706775d891", "fusion_lon": 0.0, "bike_id": "70cfc32cbeacd44f6d1a54706775d891", "is_reserved": 0, "rental_uris": {"android": "https://dc.lft.to/lastmile_qr_scan", "ios": "https://dc.lft.to/lastmile_qr_scan"}, "lat": 38.9549825, "is_disabled": 0, "lon": -76.99383166666667}, {"fusion_lat": 0.0, "type": "electric_scooter", "name": "a5736608386c538729a518de30e646d7", "fusion_lon": 0.0, "bike_id": "a5736608386c538729a518de30e646d7", "is_reserved": 0, "rental_uris": {"android": "https://dc.lft.to/lastmile_qr_scan", "ios": "https://dc.lft.to/lastmile_qr_scan"},