{"data": {"bikes": [{"lon": -77.03559183333333, "bike_id": "4ca83007947c158665266cf68e96eaab", "lat": 38.93377066666667, "fusion_lon": 0.0, "fusion_lat": 0.0, "type": "electric_scooter", "name": "4ca83007947c158665266cf68e96eaab", "is_disabled": 0, "rental_uris": {"ios": "https://dc.lft.to/lastmile_qr_scan", "android": "https://dc.lft.to/lastmile_qr_scan"}, "is_reserved": 0}, {"lon": -76.95196583333333, "bike_id": "f67266072805880226fdc07d90ec512b", "lat": 38.899946666666665, "fusion_lon": 0.0, "fusion_lat": 0.0, "type": "electric_scooter", "name": "f67266072805880226fdc07d90ec512b", "is_disabled": 0, "rental_uris": {"ios": "https://dc.lft.to/lastmile_qr_scan", "android": "https://dc.lft.to/lastmile_qr_scan"}, "is_reserved": 0}, {"lon": -77.04262416666667, "bike_id": "5245857e88f3aa358be89c800fae47bd", "lat": 38.910381666666666, "fusion_lon": 0.0, "fusion_lat": 0.0, "type": "electric_scooter", "name": "5245857e88f3aa358be89c800fae47bd", "is_disabled": 0, "rental_uris": {"ios": "https://dc.lft.to/lastmile_qr_scan", "android": "https://dc.lft.to/lastmile_qr_scan"}, "is_reserved": 0}, {"lon": -77.02201616666666, "bike_id": "774021beed15f97077551e9f676fe8a9", "lat": 38.911321666666666, "fusion_lon": 0.0, "fusion_lat": 0.0, "type": "electric_scooter", "name": "774021beed15f97077551e9f676fe8a9", "is_disabled": 0, "rental_uris": {"ios": "https://dc.lft.to/lastmile_qr_scan", "android": "https://dc.lft.to/lastmile_qr_scan"}, "is_reserved": 0}, {"lon": -77.04480883333333, "bike_id": "ac4532f7049604711115027e1bf06741", "lat": 38.91927066666667, "fusion_lon": 0.0, "fusion_lat": 0.0, "type": "electric_scooter", "name": "ac4532f7049604711115027e1bf06741", "is_disabled": 0, "rental_uris": {"ios": "https://dc.lft.to/lastmile_qr_scan", "android": "https://dc.lft.to/lastmile_qr_scan"}, "is_reserved": 0}, {"lon": -77.03397383333333, "bike_id": "bc307797b9902addf8e199dc0085a1c5", "lat": 38.9097605, "fusion_lon": 0.0, "fusion_lat": 0.0, "type": "electric_scooter", "name": "bc307797b9902addf8e199dc0085a1c5", "is_disabled": 0, "rental_uris": {"ios": "https://dc.lft.to/lastmile_qr_scan", "android": "https://dc.lft.to/lastmile_qr_scan"}, "is_reserved": 0}, {"lon": -77.0238605, "bike_id": "8f11bff2c2a31c228486dc6b80c36b10", "lat": 38.905877333333336, "fusion_lon": 0.0, "fusion_lat": 0.0, "type": "electric_scooter", "name": "8f11bff2c2a31c228486dc6b80c36b10", "is_disabled": 0, "rental_uris": {"ios": "https://dc.lft.to/lastmile_qr_scan", "android": "https://dc.lft.to/lastmile_qr_scan"}, "is_reserved": 0}, {"lon": -77.03859383333334, "bike_id": "868aac2476b896ac1d1d5f62c92208b6", "lat": 38.931262, "fusion_lon": 0.0, "fusion_lat": 0.0, "type": "electric_scooter", "name": "868aac2476b896ac1d1d5f62c92208b6", "is_disabled": 0, "rental_uris": {"ios": "https://dc.lft.to/lastmile_qr_scan", "android": "https://dc.lft.to/lastmile_qr_scan"}, "is_reserved": 0}, {"lon": -76.931803, "bike_id": "eee980f924b725e1e4e76aef9b94fe42", "lat": 38.89880516666667, "fusion_lon": 0.0, "fusion_lat": 0.0, "type": "electric_scooter", "name": "eee980f924b725e1e4e76aef9b94fe42", "is_disabled": 0, "rental_uris": {"ios": "https://dc.lft.to/lastmile_qr_scan", "android": "https://dc.lft.to/lastmile_qr_scan"}, "is_reserved": 0}, {"lon": -76.9337345, "bike_id": "a585abd43a0c74348734978cc77d97a8", "lat": 38.89910716666667, "fusion_lon": 0.0, "fusion_lat": 0.0, "type": "electric_scooter", "name": "a585abd43a0c74348734978cc77d97a8", "is_disabled": 0, "rental_uris": {"ios": "https://dc.lft.to/lastmile_qr_scan", "android": "https://dc.lft.to/lastmile_qr_scan"}, "is_reserved": 0}, {"lon": -76.99616966666666, "bike_id": "0ba35afe75a1f14f1081d4895172bc63", "lat": 38.883072166666665, "fusion_lon": 0.0, "fusion_lat": 0.0, "type": "electric_scooter", "name": "0ba35afe75a1f14f1081d4895172bc63", "is_disabled": 0, "rental_uris": {"ios": "https://dc.lft.to/lastmile_qr_scan", "android": "https://dc.lft.to/lastmile_qr_scan"}, "is_reserved": 0}, {"lon": -77.02393666666667, "bike_id": "932d44ad4dcfa7130ad4d34bb27c74c5", "lat": 38.907078, "fusion_lon": 0.0, "fusion_lat": 0.0, "type": "electric_scooter", "name": "932d44ad4dcfa7130ad4d34bb27c74c5", "is_disabled": 0, "rental_uris": {"ios": "https://dc.lft.to/lastmile_qr_scan", "android": "https://dc.lft.to/lastmile_qr_scan"}, "is_reserved": 0}, {"lon": -76.99571016666667, "bike_id": "4c28ebce33fce0e25532e1ef451884b4", "lat": 38.85182666666667, "fusion_lon": 0.0, "fusion_lat": 0.0, "type": "electric_bike", "name": "4c28ebce33fce0e25532e1ef451884b4", "is_disabled": 0, "rental_uris": {"ios": "https://dc.lft.to/lastmile_qr_scan", "android": "https://dc.lft.to/lastmile_qr_scan"}, "is_reserved": 0}, {"lon": -76.99886, "bike_id": "448fbf7a515f26af2aacbba416af93b4", "lat": 38.907452, "fusion_lon": 0.0, "fusion_lat": 0.0, "type": "electric_scooter", "name": "448fbf7a515f26af2aacbba416af93b4", "is_disabled": 0, "rental_uris": {"ios": "https://dc.lft.to/lastmile_qr_scan", "android": "https://dc.lft.to/lastmile_qr_scan"}, "is_reserved": 0}, {"lon": -77.04366416666667, "bike_id": "8d8aded484bc20bcc65dc079f4b95b1e", "lat": 38.921519, "fusion_lon": 0.0, "fusion_lat": 0.0, "type": "electric_scooter", "name": "8d8aded484bc20bcc65dc079f4b95b1e", "is_disabled": 0, "rental_uris": {"ios": "https://dc.lft.to/lastmile_qr_scan", "android": "https://dc.lft.to/lastmile_qr_scan"}, "is_reserved": 0}, {"lon": -76.94960916666666, "bike_id": "4f68dac005c7ff919f9dbd008d1bff98", "lat": 38.89438, "fusion_lon": 0.0, "fusion_lat": 0.0, "type": "electric_scooter", "name": "4f68dac005c7ff919f9dbd008d1bff98", "is_disabled": 0, "rental_uris": {"ios": "https://dc.lft.to/lastmile_qr_scan", "android": "https://dc.lft.to/lastmile_qr_scan"}, "is_reserved": 0}, {"lon": -76.98816833333333, "bike_id": "f3d6dfe14938d252d32bc6e0355ae885", "lat": 38.85829483333333, "fusion_lon": 0.0, "fusion_lat": 0.0, "type": "electric_scooter", "name": "f3d6dfe14938d252d32bc6e0355ae885", "is_disabled": 0, "rental_uris": {"ios": "https://dc.lft.to/lastmile_qr_scan", "android": "https://dc.lft.to/lastmile_qr_scan"}, "is_reserved": 0}, {"lon": -76.96092766666666, "bike_id": "3ec87c3b39406e330274a060f463787a", "lat": 38.918507, "fusion_lon": 0.0, "fusion_lat": 0.0, "type": "electric_bike", "name": "3ec87c3b39406e330274a060f463787a", "is_disabled": 0, "rental_uris": {"ios": "https://dc.lft.to/lastmile_qr_scan", "android": "https://dc.lft.to/lastmile_qr_scan"}, "is_reserved": 0}, {"lon": -77.04504, "bike_id": "8cb43f886a3167d2c1ba638b06793f9e", "lat": 38.915911333333334, "fusion_lon": 0.0, "fusion_lat": 0.0, "type": "electric_scooter", "name": "8cb43f886a3167d2c1ba638b06793f9e", "is_disabled": 0, "rental_uris": {"ios": "https://dc.lft.to/lastmile_qr_scan", "android": "https://dc.lft.to/lastmile_qr_scan"}, "is_reserved": 0}, {"lon": -77.02607, "bike_id": "84c0467e5c000a3cf93a38ddb7af061b", "lat": 38.90141633333333, "fusion_lon": 0.0, "fusion_lat": 0.0, "type": "electric_scooter", "name": "84c0467e5c000a3cf93a38ddb7af061b", "is_disabled": 0, "rental_uris": {"ios": "https://dc.lft.to/lastmile_qr_scan", "android": "https://dc.lft.to/lastmile_qr_scan"}, "is_reserved": 0}, {"lon": -77.00119833333333, "bike_id": "501c1fd87134ecc34590095d6706aab1", "lat": 38.91704283333333, "fusion_lon": 0.0, "fusion_lat": 0.0, "type": "electric_scooter", "name": "501c1fd87134ecc34590095d6706aab1", "is_disabled": 0, "rental_uris": {"ios": "https://dc.lft.to/lastmile_qr_scan", "android": "https://dc.lft.to/lastmile_qr_scan"}, "is_reserved": 0}, {"lon": -77.021357, "bike_id": "d93210432c45365a43031fcb89dcdda8", "lat": 38.895961, "fusion_lon": 0.0, "fusion_lat": 0.0, "type": "electric_scooter", "name": "d93210432c45365a43031fcb89dcdda8", "is_disabled": 0, "rental_uris": {"ios": "https://dc.lft.to/lastmile_qr_scan", "android": "https://dc.lft.to/lastmile_qr_scan"}, "is_reserved": 0}, {"lon": -77.031934, "bike_id": "7acfac61e772936fc9edb85da07c7e41", "lat": 38.887423, "fusion_lon": 0.0, "fusion_lat": 0.0, "type": "electric_scooter", "name": "7acfac61e772936fc9edb85da07c7e41", "is_disabled": 0, "rental_uris": {"ios": "https://dc.lft.to/lastmile_qr_scan", "android": "https://dc.lft.to/lastmile_qr_scan"}, "is_reserved": 0}, {"lon": -77.0273425, "bike_id": "a7d0c39883faa83de84191e65db08b9c", "lat": 38.9408485, "fusion_lon": 0.0, "fusion_lat": 0.0, "type": "electric_scooter", "name": "a7d0c39883faa83de84191e65db08b9c", "is_disabled": 0, "rental_uris": {"ios": "https://dc.lft.to/lastmile_qr_scan", "android": "https://dc.lft.to/lastmile_qr_scan"}, "is_reserved": 0}, {"lon": -77.05181433333334, "bike_id": "535f066a60ed4acccd37753919940bcc", "lat": 38.9236815, "fusion_lon": 0.0, "fusion_lat": 0.0, "type": "electric_scooter", "name": "535f066a60ed4acccd37753919940bcc", "is_disabled": 0, "rental_uris": {"ios": "https://dc.lft.to/lastmile_qr_scan", "android": "https://dc.lft.to/lastmile_qr_scan"}, "is_reserved": 0}, {"lon": -77.05181016666667, "bike_id": "37c671266271967d0925110140e29a6e", "lat": 38.92364166666667, "fusion_lon": 0.0, "fusion_lat": 0.0, "type": "electric_scooter", "name": "37c671266271967d0925110140e29a6e", "is_disabled": 0, "rental_uris": {"ios": "https://dc.lft.to/lastmile_qr_scan", "android": "https://dc.lft.to/lastmile_qr_scan"}, "is_reserved": 0}, {"lon": -77.043478, "bike_id": "73b1178db167dd70f61a9b84e9ecea21", "lat": 38.90434333333333, "fusion_lon": 0.0, "fusion_lat": 0.0, "type": "electric_scooter", "name": "73b1178db167dd70f61a9b84e9ecea21", "is_disabled": 0, "rental_uris": {"ios": "https://dc.lft.to/lastmile_qr_scan", "android": "https://dc.lft.to/lastmile_qr_scan"}, "is_reserved": 0}, {"lon": -76.97816016666667, "bike_id": "f7c728a463c8b861969a8f894eaca087", "lat": 38.90670016666667, "fusion_lon": 0.0, "fusion_lat": 0.0, "type": "electric_scooter", "name": "f7c728a463c8b861969a8f894eaca087", "is_disabled": 0, "rental_uris": {"ios": "https://dc.lft.to/lastmile_qr_scan", "android": "https://dc.lft.to/lastmile_qr_scan"}, "is_reserved": 0}, {"lon": -77.03196066666666, "bike_id": "f03383e8d4039950350917053037f3dd", "lat": 38.899503, "fusion_lon": 0.0, "fusion_lat": 0.0, "type": "electric_scooter", "name": "f03383e8d4039950350917053037f3dd", "is_disabled": 0, "rental_uris": {"ios": "https://dc.lft.to/lastmile_qr_scan", "android": "https://dc.lft.to/lastmile_qr_scan"}, "is_reserved": 0}, {"lon": -76.89542933333334, "bike_id": "a6c56ccd3b188762075bef19df4e6ac1", "lat": 38.94548283333334, "fusion_lon": 0.0, "fusion_lat": 0.0, "type": "electric_bike", "name": "a6c56ccd3b188762075bef19df4e6ac1", "is_disabled": 0, "rental_uris": {"ios": "https://dc.lft.to/lastmile_qr_scan", "android": "https://dc.lft.to/lastmile_qr_scan"}, "is_reserved": 0}, {"lon": -77.02164616666667, "bike_id": "096fd480814cca1dcf749d457eaaac13", "lat": 38.892156166666666, "fusion_lon": 0.0, "fusion_lat": 0.0, "type": "electric_scooter", "name": "096fd480814cca1dcf749d457eaaac13", "is_disabled": 0, "rental_uris": {"ios": "https://dc.lft.to/lastmile_qr_scan", "android": "https://dc.lft.to/lastmile_qr_scan"}, "is_reserved": 0}, {"lon": -77.0219785, "bike_id": "c48e15722d31b00ef2ea176491abd08e", "lat": 38.892573, "fusion_lon": 0.0, "fusion_lat": 0.0, "type": "electric_scooter", "name": "c48e15722d31b00ef2ea176491abd08e", "is_disabled": 0, "rental_uris": {"ios": "https://dc.lft.to/lastmile_qr_scan", "android": "https://dc.lft.to/lastmile_qr_scan"}, "is_reserved": 0}, {"lon": -77.0452125, "bike_id": "17c30f6c65d9a4b33de8df48b09733e7", "lat": 38.90972033333333, "fusion_lon": 0.0, "fusion_lat": 0.0, "type": "electric_scooter", "name": "17c30f6c65d9a4b33de8df48b09733e7", "is_disabled": 0, "rental_uris": {"ios": "https://dc.lft.to/lastmile_qr_scan", "android": "https://dc.lft.to/lastmile_qr_scan"}, "is_reserved": 0}, {"lon": -77.05809866666667, "bike_id": "f5f018df6f506ed0cd826fbb1793b35a", "lat": 38.9010405, "fusion_lon": 0.0, "fusion_lat": 0.0, "type": "electric_scooter", "name": "f5f018df6f506ed0cd826fbb1793b35a", "is_disabled": 0, "rental_uris": {"ios": "https://dc.lft.to/lastmile_qr_scan", "android": "https://dc.lft.to/lastmile_qr_scan"}, "is_reserved": 0}, {"lon": -77.022035, "bike_id": "80d53e5fff920aa46465b36390f7ed04", "lat": 38.91128766666667, "fusion_lon": 0.0, "fusion_lat": 0.0, "type": "electric_scooter", "name": "80d53e5fff920aa46465b36390f7ed04", "is_disabled": 0, "rental_uris": {"ios": "https://dc.lft.to/lastmile_qr_scan", "android": "https://dc.lft.to/lastmile_qr_scan"}, "is_reserved": 0}, {"lon": -77.040112, "bike_id": "94d104a9fe25854a136074ea880185aa", "lat": 38.9099355, "fusion_lon": 0.0, "fusion_lat": 0.0, "type": "electric_scooter", "name": "94d104a9fe25854a136074ea880185aa", "is_disabled": 0, "rental_uris": {"ios": "https://dc.lft.to/lastmile_qr_scan", "android": "https://dc.lft.to/lastmile_qr_scan"}, "is_reserved": 0}, {"lon": -77.0258945, "bike_id": "751a6240ed9e5660b8ca29dfb625eb33", "lat": 38.926164666666665, "fusion_lon": 0.0, "fusion_lat": 0.0, "type": "electric_scooter", "name": "751a6240ed9e5660b8ca29dfb625eb33", "is_disabled": 0, "rental_uris": {"ios": "https://dc.lft.to/lastmile_qr_scan", "android": "https://dc.lft.to/lastmile_qr_scan"}, "is_reserved": 0}, {"lon": -76.94880116666667, "bike_id": "4c0546b9dd0898b685252edfef89604d", "lat": 38.895485, "fusion_lon": 0.0, "fusion_lat": 0.0, "type": "electric_scooter", "name": "4c0546b9dd0898b685252edfef89604d", "is_disabled": 0, "rental_uris": {"ios": "https://dc.lft.to/lastmile_qr_scan", "android": "https://dc.lft.to/lastmile_qr_scan"}, "is_reserved": 0}, {"lon": -76.98704033333334, "bike_id": "c009a136676544e6cb21592327abb516", "lat": 38.90925516666667, "fusion_lon": 0.0, "fusion_lat": 0.0, "type": "electric_scooter", "name": "c009a136676544e6cb21592327abb516", "is_disabled": 0, "rental_uris": {"ios": "https://dc.lft.to/lastmile_qr_scan", "android": "https://dc.lft.to/lastmile_qr_scan"}, "is_reserved": 0}, {"lon": -77.02826683333333, "bike_id": "e0eb5debd585d8d6b92ace15232a7f7c", "lat": 38.917030833333335, "fusion_lon": 0.0, "fusion_lat": 0.0, "type": "electric_scooter", "name": "e0eb5debd585d8d6b92ace15232a7f7c", "is_disabled": 0, "rental_uris": {"ios": "https://dc.lft.to/lastmile_qr_scan", "android": "https://dc.lft.to/lastmile_qr_scan"}, "is_reserved": 0}, {"lon": -77.04865833333334, "bike_id": "05a4d5ae82923fbf2b44e911ce4ff360", "lat": 38.90956466666667, "fusion_lon": 0.0, "fusion_lat": 0.0, "type": "electric_scooter", "name": "05a4d5ae82923fbf2b44e911ce4ff360", "is_disabled": 0, "rental_uris": {"ios": "https://dc.lft.to/lastmile_qr_scan", "android": "https://dc.lft.to/lastmile_qr_scan"}, "is_reserved": 0}, {"lon": -77.04921133333333, "bike_id": "c9642d50460ffe7b94b4984167b0abf5", "lat": 38.903514333333334, "fusion_lon": 0.0, "fusion_lat": 0.0, "type": "electric_scooter", "name": "c9642d50460ffe7b94b4984167b0abf5", "is_disabled": 0, "rental_uris": {"ios": "https://dc.lft.to/lastmile_qr_scan", "android": "https://dc.lft.to/lastmile_qr_scan"}, "is_reserved": 0}, {"lon": -77.05094716666666, "bike_id": "0d0deda41225e2142130d44224c8ba25", "lat": 38.896699166666664, "fusion_lon": 0.0, "fusion_lat": 0.0, "type": "electric_scooter", "name": "0d0deda41225e2142130d44224c8ba25", "is_disabled": 0, "rental_uris": {"ios": "https://dc.lft.to/lastmile_qr_scan", "android": "https://dc.lft.to/lastmile_qr_scan"}, "is_reserved": 0}, {"lon": -77.03636083333333, "bike_id": "0d2d55520ecc24952d0fede3dfdee8e3", "lat": 38.945684666666665, "fusion_lon": 0.0, "fusion_lat": 0.0, "type": "electric_scooter", "name": "0d2d55520ecc24952d0fede3dfdee8e3", "is_disabled": 0, "rental_uris": {"ios": "https://dc.lft.to/lastmile_qr_scan", "android": "https://dc.lft.to/lastmile_qr_scan"}, "is_reserved": 0}, {"lon": -77.03203016666667, "bike_id": "978dea688bdcca3796d885d4ab06e558", "lat": 38.908207833333336, "fusion_lon": 0.0, "fusion_lat": 0.0, "type": "electric_scooter", "name": "978dea688bdcca3796d885d4ab06e558", "is_disabled": 0, "rental_uris": {"ios": "https://dc.lft.to/lastmile_qr_scan", "android": "https://dc.lft.to/lastmile_qr_scan"}, "is_reserved": 0}, {"lon": -76.933545, "bike_id": "37370fe366d5aa1ed3ab11beea1b5bd6", "lat": 38.8879425, "fusion_lon": 0.0, "fusion_lat": 0.0, "type": "electric_scooter", "name": "37370fe366d5aa1ed3ab11beea1b5bd6", "is_disabled": 0, "rental_uris": {"ios": "https://dc.lft.to/lastmile_qr_scan", "android": "https://dc.lft.to/lastmile_qr_scan"}, "is_reserved": 0}, {"lon": -77.01003216666666, "bike_id": "6173d9c561b9af29b15ceeae913a29eb", "lat": 38.9192545, "fusion_lon": 0.0, "fusion_lat": 0.0, "type": "electric_scooter", "name": "6173d9c561b9af29b15ceeae913a29eb", "is_disabled": 0, "rental_uris": {"ios": "https://dc.lft.to/lastmile_qr_scan", "android": "https://dc.lft.to/lastmile_qr_scan"}, "is_reserved": 0}, {"lon": -77.0239505, "bike_id": "c560db2394558821eb4466815d762dd5", "lat": 38.920721, "fusion_lon": 0.0, "fusion_lat": 0.0, "type": "electric_scooter", "name": "c560db2394558821eb4466815d762dd5", "is_disabled": 0, "rental_uris": {"ios": "https://dc.lft.to/lastmile_qr_scan", "android": "https://dc.lft.to/lastmile_qr_scan"}, "is_reserved": 0}, {"lon": -76.94107533333333, "bike_id": "0f303add3cbe8c664af6d31a9e9bd5f6", "lat": 38.88640133333333, "fusion_lon": 0.0, "fusion_lat": 0.0, "type": "electric_scooter", "name": "0f303add3cbe8c664af6d31a9e9bd5f6", "is_disabled": 0, "rental_uris": {"ios": "https://dc.lft.to/lastmile_qr_scan", "android": "https://dc.lft.to/lastmile_qr_scan"}, "is_reserved": 0}, {"lon": -77.04946616666666, "bike_id": "4f6fbf170723682a8ed37720f1c1c85f", "lat": 38.9084445, "fusion_lon": 0.0, "fusion_lat": 0.0, "type": "electric_scooter", "name": "4f6fbf170723682a8ed37720f1c1c85f", "is_disabled": 0, "rental_uris": {"ios": "https://dc.lft.to/lastmile_qr_scan", "android": "https://dc.lft.to/lastmile_qr_scan"}, "is_reserved": 0}, {"lon": -77.05031366666667, "bike_id": "ff3516ef5511e49a1fb3fe2a59902efb", "lat": 38.89815133333333, "fusion_lon": 0.0, "fusion_lat": 0.0, "type": "electric_scooter", "name": "ff3516ef5511e49a1fb3fe2a59902efb", "is_disabled": 0, "rental_uris": {"ios": "https://dc.lft.to/lastmile_qr_scan", "android": "https://dc.lft.to/lastmile_qr_scan"}, "is_reserved": 0}, {"lon": -77.022084, "bike_id": "86720737938af4ce589cbb3225941056", "lat": 38.9201605, "fusion_lon": 0.0, "fusion_lat": 0.0, "type": "electric_scooter", "name": "86720737938af4ce589cbb3225941056", "is_disabled": 0, "rental_uris": {"ios": "https://dc.lft.to/lastmile_qr_scan", "android": "https://dc.lft.to/lastmile_qr_scan"}, "is_reserved": 0}, {"lon": -77.03977233333333, "bike_id": "fb52f5010ad5d96158e76067d405a2d2", "lat": 38.902617166666666, "fusion_lon": 0.0, "fusion_lat": 0.0, "type": "electric_scooter", "name": "fb52f5010ad5d96158e76067d405a2d2", "is_disabled": 0, "rental_uris": {"ios": "https://dc.lft.to/lastmile_qr_scan", "android": "https://dc.lft.to/lastmile_qr_scan"}, "is_reserved": 0}, {"lon": -77.06704283333333, "bike_id": "c215948376c706bd47217809f530c6db", "lat": 38.90385, "fusion_lon": 0.0, "fusion_lat": 0.0, "type": "electric_scooter", "name": "c215948376c706bd47217809f530c6db", "is_disabled": 0, "rental_uris": {"ios": "https://dc.lft.to/lastmile_qr_scan", "android": "https://dc.lft.to/lastmile_qr_scan"}, "is_reserved": 0}, {"lon": -77.0521915, "bike_id": "d7224935c72aa24fbb8031b50b5fcd55", "lat": 38.91559183333333, "fusion_lon": 0.0, "fusion_lat": 0.0, "type": "electric_scooter", "name": "d7224935c72aa24fbb8031b50b5fcd55", "is_disabled": 0, "rental_uris": {"ios": "https://dc.lft.to/lastmile_qr_scan", "android": "https://dc.lft.to/lastmile_qr_scan"}, "is_reserved": 0}, {"lon": -77.0325695, "bike_id": "9d71b17019a991a5728e6ac12dc39618", "lat": 38.9324055, "fusion_lon": 0.0, "fusion_lat": 0.0, "type": "electric_scooter", "name": "9d71b17019a991a5728e6ac12dc39618", "is_disabled": 0, "rental_uris": {"ios": "https://dc.lft.to/lastmile_qr_scan", "android": "https://dc.lft.to/lastmile_qr_scan"}, "is_reserved": 0}, {"lon": -77.02718183333333, "bike_id": "c74ff512d819c6069f9f227472e96309", "lat": 38.91678133333333, "fusion_lon": 0.0, "fusion_lat": 0.0, "type": "electric_scooter", "name": "c74ff512d819c6069f9f227472e96309", "is_disabled": 0, "rental_uris": {"ios": "https://dc.lft.to/lastmile_qr_scan", "android": "https://dc.lft.to/lastmile_qr_scan"}, "is_reserved": 0}, {"lon": -76.98492566666667, "bike_id": "08cf4c8483866cdf7d20b983dbb02b7c", "lat": 38.878333833333336, "fusion_lon": 0.0, "fusion_lat": 0.0, "type": "electric_scooter", "name": "08cf4c8483866cdf7d20b983dbb02b7c", "is_disabled": 0, "rental_uris": {"ios": "https://dc.lft.to/lastmile_qr_scan", "android": "https://dc.lft.to/lastmile_qr_scan"}, "is_reserved": 0}, {"lon": -77.03548533333333, "bike_id": "c177b62670ab09e8fba9d4fe8a60961c", "lat": 38.9077935, "fusion_lon": 0.0, "fusion_lat": 0.0, "type": "electric_scooter", "name": "c177b62670ab09e8fba9d4fe8a60961c", "is_disabled": 0, "rental_uris": {"ios": "https://dc.lft.to/lastmile_qr_scan", "android": "https://dc.lft.to/lastmile_qr_scan"}, "is_reserved": 0}, {"lon": -77.02570766666666, "bike_id": "603530d6a732e6f858cd9627604b1239", "lat": 38.887404333333336, "fusion_lon": 0.0, "fusion_lat": 0.0, "type": "electric_scooter", "name": "603530d6a732e6f858cd9627604b1239", "is_disabled": 0, "rental_uris": {"ios": "https://dc.lft.to/lastmile_qr_scan", "android": "https://dc.lft.to/lastmile_qr_scan"}, "is_reserved": 0}, {"lon": -77.03262566666666, "bike_id": "57d5920e415d3e0a4d7213b2d5b2e7bc", "lat": 38.920605333333334, "fusion_lon": 0.0, "fusion_lat": 0.0, "type": "electric_scooter", "name": "57d5920e415d3e0a4d7213b2d5b2e7bc", "is_disabled": 0, "rental_uris": {"ios": "https://dc.lft.to/lastmile_qr_scan", "android": "https://dc.lft.to/lastmile_qr_scan"}, "is_reserved": 0}, {"lon": -76.94634783333333, "bike_id": "60af8faf4a8f4e4245a26e5c1327e839", "lat": 38.89828816666667, "fusion_lon": 0.0, "fusion_lat": 0.0, "type": "electric_scooter", "name": "60af8faf4a8f4e4245a26e5c1327e839", "is_disabled": 0, "rental_uris": {"ios": "https://dc.lft.to/lastmile_qr_scan", "android": "https://dc.lft.to/lastmile_qr_scan"}, "is_reserved": 0}, {"lon": -77.02979616666667, "bike_id": "ed7b54f6ebcb1a39222f336ccd8e060c", "lat": 38.90771766666667, "fusion_lon": 0.0, "fusion_lat": 0.0, "type": "electric_scooter", "name": "ed7b54f6ebcb1a39222f336ccd8e060c", "is_disabled": 0, "rental_uris": {"ios": "https://dc.lft.to/lastmile_qr_scan", "android": "https://dc.lft.to/lastmile_qr_scan"}, "is_reserved": 0}, {"lon": -77.0319695, "bike_id": "a42500443447c8afaa2d608a19b02a37", "lat": 38.91675333333333, "fusion_lon": 0.0, "fusion_lat": 0.0, "type": "electric_scooter", "name": "a42500443447c8afaa2d608a19b02a37", "is_disabled": 0, "rental_uris": {"ios": "https://dc.lft.to/lastmile_qr_scan", "android": "https://dc.lft.to/lastmile_qr_scan"}, "is_reserved": 0}, {"lon": -77.03101116666667, "bike_id": "2188d8be22ede22be107bb27514a1b3e", "lat": 38.9344615, "fusion_lon": 0.0, "fusion_lat": 0.0, "type": "electric_scooter", "name": "2188d8be22ede22be107bb27514a1b3e", "is_disabled": 0, "rental_uris": {"ios": "https://dc.lft.to/lastmile_qr_scan", "android": "https://dc.lft.to/lastmile_qr_scan"}, "is_reserved": 0}, {"lon": -77.005682, "bike_id": "f23affa0e03c7a823ed9b99e2646c089", "lat": 38.874363833333334, "fusion_lon": 0.0, "fusion_lat": 0.0, "type": "electric_scooter", "name": "f23affa0e03c7a823ed9b99e2646c089", "is_disabled": 0, "rental_uris": {"ios": "https://dc.lft.to/lastmile_qr_scan", "android": "https://dc.lft.to/lastmile_qr_scan"}, "is_reserved": 0}, {"lon": -76.99675366666666, "bike_id": "400c6bdf250aa24672d966524d747ac7", "lat": 38.924894333333334, "fusion_lon": 0.0, "fusion_lat": 0.0, "type": "electric_bike", "name": "400c6bdf250aa24672d966524d747ac7", "is_disabled": 0, "rental_uris": {"ios": "https://dc.lft.to/lastmile_qr_scan", "android": "https://dc.lft.to/lastmile_qr_scan"}, "is_reserved": 0}, {"lon": -77.0271915, "bike_id": "0d4d0f43796d68cbc313871f15bae216", "lat": 38.900661166666666, "fusion_lon": 0.0, "fusion_lat": 0.0, "type": "electric_scooter", "name": "0d4d0f43796d68cbc313871f15bae216", "is_disabled": 0, "rental_uris": {"ios": "https://dc.lft.to/lastmile_qr_scan", "android": "https://dc.lft.to/lastmile_qr_scan"}, "is_reserved": 0}, {"lon": -77.01441816666667, "bike_id": "826fdb0ac6168919c828b42e0f193edc", "lat": 38.9125265, "fusion_lon": 0.0, "fusion_lat": 0.0, "type": "electric_scooter", "name": "826fdb0ac6168919c828b42e0f193edc", "is_disabled": 0, "rental_uris": {"ios": "https://dc.lft.to/lastmile_qr_scan", "android": "https://dc.lft.to/lastmile_qr_scan"}, "is_reserved": 0}, {"lon": -77.02407433333333, "bike_id": "6b2e40e101bc3ca6b3bfe10612ac15f4", "lat": 38.906931666666665, "fusion_lon": 0.0, "fusion_lat": 0.0, "type": "electric_scooter", "name": "6b2e40e101bc3ca6b3bfe10612ac15f4", "is_disabled": 0, "rental_uris": {"ios": "https://dc.lft.to/lastmile_qr_scan", "android": "https://dc.lft.to/lastmile_qr_scan"}, "is_reserved": 0}, {"lon": -77.04327916666666, "bike_id": "edb4bbfa4017cd77dfe2048634483f6b", "lat": 38.918791166666665, "fusion_lon": 0.0, "fusion_lat": 0.0, "type": "electric_scooter", "name": "edb4bbfa4017cd77dfe2048634483f6b", "is_disabled": 0, "rental_uris": {"ios": "https://dc.lft.to/lastmile_qr_scan", "android": "https://dc.lft.to/lastmile_qr_scan"}, "is_reserved": 0}, {"lon": -76.98541116666667, "bike_id": "0137d94cfa658878bb3d1ef4455d3bb5", "lat": 38.89940266666667, "fusion_lon": 0.0, "fusion_lat": 0.0, "type": "electric_scooter", "name": "0137d94cfa658878bb3d1ef4455d3bb5", "is_disabled": 0, "rental_uris": {"ios": "https://dc.lft.to/lastmile_qr_scan", "android": "https://dc.lft.to/lastmile_qr_scan"}, "is_reserved": 0}, {"lon": -76.94662016666666, "bike_id": "b517619d5f2f05711b0a26289c12f949", "lat": 38.93695016666667, "fusion_lon": 0.0, "fusion_lat": 0.0, "type": "electric_bike", "name": "b517619d5f2f05711b0a26289c12f949", "is_disabled": 0, "rental_uris": {"ios": "https://dc.lft.to/lastmile_qr_scan", "android": "https://dc.lft.to/lastmile_qr_scan"}, "is_reserved": 0}, {"lon": -77.02379583333334, "bike_id": "e1d5c729dcd0b36a2883b48092a40b8e", "lat": 38.90630616666667, "fusion_lon": 0.0, "fusion_lat": 0.0, "type": "electric_scooter", "name": "e1d5c729dcd0b36a2883b48092a40b8e", "is_disabled": 0, "rental_uris": {"ios": "https://dc.lft.to/lastmile_qr_scan", "android": "https://dc.lft.to/lastmile_qr_scan"}, "is_reserved": 0}, {"lon": -77.07821016666666, "bike_id": "c3a215c2f2022af1a04714d999818abf", "lat": 38.924585, "fusion_lon": 0.0, "fusion_lat": 0.0, "type": "electric_scooter", "name": "c3a215c2f2022af1a04714d999818abf", "is_disabled": 0, "rental_uris": {"ios": "https://dc.lft.to/lastmile_qr_scan", "android": "https://dc.lft.to/lastmile_qr_scan"}, "is_reserved": 0}, {"lon": -77.0232315, "bike_id": "384316007db8272f820f2941131ccd55", "lat": 38.95523766666667, "fusion_lon": 0.0, "fusion_lat": 0.0, "type": "electric_scooter", "name": "384316007db8272f820f2941131ccd55", "is_disabled": 0, "rental_uris": {"ios": "https://dc.lft.to/lastmile_qr_scan", "android": "https://dc.lft.to/lastmile_qr_scan"}, "is_reserved": 0}, {"lon": -77.04465516666667, "bike_id": "a5c4bce4534a0021758cb77b4db962f7", "lat": 38.918783, "fusion_lon": 0.0, "fusion_lat": 0.0, "type": "electric_scooter", "name": "a5c4bce4534a0021758cb77b4db962f7", "is_disabled": 0, "rental_uris": {"ios": "https://dc.lft.to/lastmile_qr_scan", "android": "https://dc.lft.to/lastmile_qr_scan"}, "is_reserved": 0}, {"lon": -77.035116, "bike_id": "1c5d6f6f2445c894119412ccab0d012b", "lat": 38.91479433333333, "fusion_lon": 0.0, "fusion_lat": 0.0, "type": "electric_scooter", "name": "1c5d6f6f2445c894119412ccab0d012b", "is_disabled": 0, "rental_uris": {"ios": "https://dc.lft.to/lastmile_qr_scan", "android": "https://dc.lft.to/lastmile_qr_scan"}, "is_reserved": 0}, {"lon": -77.02473383333333, "bike_id": "c62e772b12d090644221050ea278a5ff", "lat": 38.902581166666664, "fusion_lon": 0.0, "fusion_lat": 0.0, "type": "electric_scooter", "name": "c62e772b12d090644221050ea278a5ff", "is_disabled": 0, "rental_uris": {"ios": "https://dc.lft.to/lastmile_qr_scan", "android": "https://dc.lft.to/lastmile_qr_scan"}, "is_reserved": 0}, {"lon": -76.99648, "bike_id": "4be78a1de4b3740b2856c5012e26fe43", "lat": 38.88718166666666, "fusion_lon": 0.0, "fusion_lat": 0.0, "type": "electric_scooter", "name": "4be78a1de4b3740b2856c5012e26fe43", "is_disabled": 0, "rental_uris": {"ios": "https://dc.lft.to/lastmile_qr_scan", "android": "https://dc.lft.to/lastmile_qr_scan"}, "is_reserved": 0}, {"lon": -77.030284, "bike_id": "bd0ef6c38f0199273b8a3cee884f7089", "lat": 38.93108816666667, "fusion_lon": 0.0, "fusion_lat": 0.0, "type": "electric_scooter", "name": "bd0ef6c38f0199273b8a3cee884f7089", "is_disabled": 0, "rental_uris": {"ios": "https://dc.lft.to/lastmile_qr_scan", "android": "https://dc.lft.to/lastmile_qr_scan"}, "is_reserved": 0}, {"lon": -77.05052383333333, "bike_id": "511fb54c072f9388f4d8feebfc66fd37", "lat": 38.90709183333333, "fusion_lon": 0.0, "fusion_lat": 0.0, "type": "electric_scooter", "name": "511fb54c072f9388f4d8feebfc66fd37", "is_disabled": 0, "rental_uris": {"ios": "https://dc.lft.to/lastmile_qr_scan", "android": "https://dc.lft.to/lastmile_qr_scan"}, "is_reserved": 0}, {"lon": -77.043722, "bike_id": "a2efb1b7dc911e3c1b6f1d21dea452e9", "lat": 38.902682166666665, "fusion_lon": 0.0, "fusion_lat": 0.0, "type": "electric_scooter", "name": "a2efb1b7dc911e3c1b6f1d21dea452e9", "is_disabled": 0, "rental_uris": {"ios": "https://dc.lft.to/lastmile_qr_scan", "android": "https://dc.lft.to/lastmile_qr_scan"}, "is_reserved": 0}, {"lon": -77.04762066666666, "bike_id": "04de8f7c7df91ca4867116e76fa9b24b", "lat": 38.90948916666667, "fusion_lon": 0.0, "fusion_lat": 0.0, "type": "electric_scooter", "name": "04de8f7c7df91ca4867116e76fa9b24b", "is_disabled": 0, "rental_uris": {"ios": "https://dc.lft.to/lastmile_qr_scan", "android": "https://dc.lft.to/lastmile_qr_scan"}, "is_reserved": 0}, {"lon": -77.053129, "bike_id": "a3ba398672b0ef9d28a8e27ca50101c9", "lat": 38.90081883333333, "fusion_lon": 0.0, "fusion_lat": 0.0, "type": "electric_scooter", "name": "a3ba398672b0ef9d28a8e27ca50101c9", "is_disabled": 0, "rental_uris": {"ios": "https://dc.lft.to/lastmile_qr_scan", "android": "https://dc.lft.to/lastmile_qr_scan"}, "is_reserved": 0}, {"lon": -77.03657966666667, "bike_id": "7f4e940322711374592536ee807914b3", "lat": 38.940891666666666, "fusion_lon": 0.0, "fusion_lat": 0.0, "type": "electric_scooter", "name": "7f4e940322711374592536ee807914b3", "is_disabled": 0, "rental_uris": {"ios": "https://dc.lft.to/lastmile_qr_scan", "android": "https://dc.lft.to/lastmile_qr_scan"}, "is_reserved": 0}, {"lon": -77.04338216666666, "bike_id": "1802f918b1926f7416a5d0b89eabc08d", "lat": 38.91773366666666, "fusion_lon": 0.0, "fusion_lat": 0.0, "type": "electric_scooter", "name": "1802f918b1926f7416a5d0b89eabc08d", "is_disabled": 0, "rental_uris": {"ios": "https://dc.lft.to/lastmile_qr_scan", "android": "https://dc.lft.to/lastmile_qr_scan"}, "is_reserved": 0}, {"lon": -76.996908, "bike_id": "c8f14e43db27e6795a8ddd53d630c5e2", "lat": 38.86023, "fusion_lon": 0.0, "fusion_lat": 0.0, "type": "electric_scooter", "name": "c8f14e43db27e6795a8ddd53d630c5e2", "is_disabled": 0, "rental_uris": {"ios": "https://dc.lft.to/lastmile_qr_scan", "android": "https://dc.lft.to/lastmile_qr_scan"}, "is_reserved": 0}, {"lon": -77.02390466666667, "bike_id": "18199a2c7541e2561fef3edcf391ceba", "lat": 38.892138333333335, "fusion_lon": 0.0, "fusion_lat": 0.0, "type": "electric_scooter", "name": "18199a2c7541e2561fef3edcf391ceba", "is_disabled": 0, "rental_uris": {"ios": "https://dc.lft.to/lastmile_qr_scan", "android": "https://dc.lft.to/lastmile_qr_scan"}, "is_reserved": 0}, {"lon": -77.0367055, "bike_id": "ca8790b53a012b8cce7a7076496def8b", "lat": 38.91283133333334, "fusion_lon": 0.0, "fusion_lat": 0.0, "type": "electric_scooter", "name": "ca8790b53a012b8cce7a7076496def8b", "is_disabled": 0, "rental_uris": {"ios": "https://dc.lft.to/lastmile_qr_scan", "android": "https://dc.lft.to/lastmile_qr_scan"}, "is_reserved": 0}, {"lon": -77.1009285, "bike_id": "126886cfc0798b68d5ac71700e943982", "lat": 38.95955566666667, "fusion_lon": 0.0, "fusion_lat": 0.0, "type": "electric_bike", "name": "126886cfc0798b68d5ac71700e943982", "is_disabled": 0, "rental_uris": {"ios": "https://dc.lft.to/lastmile_qr_scan", "android": "https://dc.lft.to/lastmile_qr_scan"}, "is_reserved": 0}, {"lon": -76.99485366666667, "bike_id": "142dae3a5df57bffcd193ad35bb94ff2", "lat": 38.9157045, "fusion_lon": 0.0, "fusion_lat": 0.0, "type": "electric_scooter", "name": "142dae3a5df57bffcd193ad35bb94ff2", "is_disabled": 0, "rental_uris": {"ios": "https://dc.lft.to/lastmile_qr_scan", "android": "https://dc.lft.to/lastmile_qr_scan"}, "is_reserved": 0}, {"lon": -76.985931, "bike_id": "97422dc9375cd2bc10e072ba3948bc6b", "lat": 38.90812183333333, "fusion_lon": 0.0, "fusion_lat": 0.0, "type": "electric_scooter", "name": "97422dc9375cd2bc10e072ba3948bc6b", "is_disabled": 0, "rental_uris": {"ios": "https://dc.lft.to/lastmile_qr_scan", "android": "https://dc.lft.to/lastmile_qr_scan"}, "is_reserved": 0}, {"lon": -76.98265466666666, "bike_id": "d3849ee6ebeef8111a67dd9413d724a4", "lat": 38.9085385, "fusion_lon": 0.0, "fusion_lat": 0.0, "type": "electric_scooter", "name": "d3849ee6ebeef8111a67dd9413d724a4", "is_disabled": 0, "rental_uris": {"ios": "https://dc.lft.to/lastmile_qr_scan", "android": "https://dc.lft.to/lastmile_qr_scan"}, "is_reserved": 0}, {"lon": -77.027866, "bike_id": "624fda2e00430825b3f1134259162bb8", "lat": 38.9061255, "fusion_lon": 0.0, "fusion_lat": 0.0, "type": "electric_scooter", "name": "624fda2e00430825b3f1134259162bb8", "is_disabled": 0, "rental_uris": {"ios": "https://dc.lft.to/lastmile_qr_scan", "android": "https://dc.lft.to/lastmile_qr_scan"}, "is_reserved": 0}, {"lon": -77.00792316666667, "bike_id": "e89519fc1c07f6575b78924a3b184a7b", "lat": 38.89669966666666, "fusion_lon": 0.0, "fusion_lat": 0.0, "type": "electric_scooter", "name": "e89519fc1c07f6575b78924a3b184a7b", "is_disabled": 0, "rental_uris": {"ios": "https://dc.lft.to/lastmile_qr_scan", "android": "https://dc.lft.to/lastmile_qr_scan"}, "is_reserved": 0}, {"lon": -76.98888583333333, "bike_id": "edf47fa70b262e2d082f0112ff251bf2", "lat": 38.91330716666667, "fusion_lon": 0.0, "fusion_lat": 0.0, "type": "electric_scooter", "name": "edf47fa70b262e2d082f0112ff251bf2", "is_disabled": 0, "rental_uris": {"ios": "https://dc.lft.to/lastmile_qr_scan", "android": "https://dc.lft.to/lastmile_qr_scan"}, "is_reserved": 0}, {"lon": -76.93384766666667, "bike_id": "700dc1debaf7819a809df38dbefeeea4", "lat": 38.89906283333333, "fusion_lon": 0.0, "fusion_lat": 0.0, "type": "electric_scooter", "name": "700dc1debaf7819a809df38dbefeeea4", "is_disabled": 0, "rental_uris": {"ios": "https://dc.lft.to/lastmile_qr_scan", "android": "https://dc.lft.to/lastmile_qr_scan"}, "is_reserved": 0}, {"lon": -76.99408033333333, "bike_id": "dc12f401315d2b095698e958ee02f12f", "lat": 38.831354166666664, "fusion_lon": 0.0, "fusion_lat": 0.0, "type": "electric_bike", "name": "dc12f401315d2b095698e958ee02f12f", "is_disabled": 0, "rental_uris": {"ios": "https://dc.lft.to/lastmile_qr_scan", "android": "https://dc.lft.to/lastmile_qr_scan"}, "is_reserved": 0}, {"lon": -77.011589, "bike_id": "914eda92ec9c50f583ff8fcc33c11091", "lat": 38.9139905, "fusion_lon": 0.0, "fusion_lat": 0.0, "type": "electric_scooter", "name": "914eda92ec9c50f583ff8fcc33c11091", "is_disabled": 0, "rental_uris": {"ios": "https://dc.lft.to/lastmile_qr_scan", "android": "https://dc.lft.to/lastmile_qr_scan"}, "is_reserved": 0}, {"lon": -77.0367205, "bike_id": "984c9da7d4d7ea17a84569a494969813", "lat": 38.91745683333333, "fusion_lon": 0.0, "fusion_lat": 0.0, "type": "electric_scooter", "name": "984c9da7d4d7ea17a84569a494969813", "is_disabled": 0, "rental_uris": {"ios": "https://dc.lft.to/lastmile_qr_scan", "android": "https://dc.lft.to/lastmile_qr_scan"}, "is_reserved": 0}, {"lon": -77.02677483333333, "bike_id": "0fcc799bffa7ef8603bbf05d25dae9c2", "lat": 38.927857833333334, "fusion_lon": 0.0, "fusion_lat": 0.0, "type": "electric_scooter", "name": "0fcc799bffa7ef8603bbf05d25dae9c2", "is_disabled": 0, "rental_uris": {"ios": "https://dc.lft.to/lastmile_qr_scan", "android": "https://dc.lft.to/lastmile_qr_scan"}, "is_reserved": 0}, {"lon": -76.95475166666667, "bike_id": "56fbced375b9a71512db4271c7ae30f8", "lat": 38.8845885, "fusion_lon": 0.0, "fusion_lat": 0.0, "type": "electric_scooter", "name": "56fbced375b9a71512db4271c7ae30f8", "is_disabled": 0, "rental_uris": {"ios": "https://dc.lft.to/lastmile_qr_scan", "android": "https://dc.lft.to/lastmile_qr_scan"}, "is_reserved": 0}, {"lon": -77.02375183333334, "bike_id": "ee2e6ea101e7b1e4fbea8b15f5e0d38e", "lat": 38.90700016666667, "fusion_lon": 0.0, "fusion_lat": 0.0, "type": "electric_scooter", "name": "ee2e6ea101e7b1e4fbea8b15f5e0d38e", "is_disabled": 0, "rental_uris": {"ios": "https://dc.lft.to/lastmile_qr_scan", "android": "https://dc.lft.to/lastmile_qr_scan"}, "is_reserved": 0}, {"lon": -76.968766, "bike_id": "1dff2a5c0ff2b49c42c65b74bc7b6a05", "lat": 38.95572383333333, "fusion_lon": 0.0, "fusion_lat": 0.0, "type": "electric_bike", "name": "1dff2a5c0ff2b49c42c65b74bc7b6a05", "is_disabled": 0, "rental_uris": {"ios": "https://dc.lft.to/lastmile_qr_scan", "android": "https://dc.lft.to/lastmile_qr_scan"}, "is_reserved": 0}, {"lon": -76.94729033333333, "bike_id": "edd4f681ddf08e35d6b192c6612f3fe1", "lat": 38.8972905, "fusion_lon": 0.0, "fusion_lat": 0.0, "type": "electric_scooter", "name": "edd4f681ddf08e35d6b192c6612f3fe1", "is_disabled": 0, "rental_uris": {"ios": "https://dc.lft.to/lastmile_qr_scan", "android": "https://dc.lft.to/lastmile_qr_scan"}, "is_reserved": 0}, {"lon": -77.02291283333334, "bike_id": "62de985a1bcfd92f0daeefd835788e81", "lat": 38.9095465, "fusion_lon": 0.0, "fusion_lat": 0.0, "type": "electric_scooter", "name": "62de985a1bcfd92f0daeefd835788e81", "is_disabled": 0, "rental_uris": {"ios": "https://dc.lft.to/lastmile_qr_scan", "android": "https://dc.lft.to/lastmile_qr_scan"}, "is_reserved": 0}, {"lon": -77.02682216666666, "bike_id": "6b788353bb229d5204b51e8070b93539", "lat": 38.91254, "fusion_lon": 0.0, "fusion_lat": 0.0, "type": "electric_scooter", "name": "6b788353bb229d5204b51e8070b93539", "is_disabled": 0, "rental_uris": {"ios": "https://dc.lft.to/lastmile_qr_scan", "android": "https://dc.lft.to/lastmile_qr_scan"}, "is_reserved": 0}, {"lon": -77.01627433333333, "bike_id": "cab8f71928c8a77731987fdd6f43d7c4", "lat": 38.965710333333334, "fusion_lon": 0.0, "fusion_lat": 0.0, "type": "electric_scooter", "name": "cab8f71928c8a77731987fdd6f43d7c4", "is_disabled": 0, "rental_uris": {"ios": "https://dc.lft.to/lastmile_qr_scan", "android": "https://dc.lft.to/lastmile_qr_scan"}, "is_reserved": 0}, {"lon": -77.01210833333333, "bike_id": "a24f8305a10202dab8b3564e469569ac", "lat": 38.88556416666667, "fusion_lon": 0.0, "fusion_lat": 0.0, "type": "electric_scooter", "name": "a24f8305a10202dab8b3564e469569ac", "is_disabled": 0, "rental_uris": {"ios": "https://dc.lft.to/lastmile_qr_scan", "android": "https://dc.lft.to/lastmile_qr_scan"}, "is_reserved": 0}, {"lon": -77.0417605, "bike_id": "ace4bf52be3809d5954d9e6fc5b1646c", "lat": 38.91506733333333, "fusion_lon": 0.0, "fusion_lat": 0.0, "type": "electric_scooter", "name": "ace4bf52be3809d5954d9e6fc5b1646c", "is_disabled": 0, "rental_uris": {"ios": "https://dc.lft.to/lastmile_qr_scan", "android": "https://dc.lft.to/lastmile_qr_scan"}, "is_reserved": 0}, {"lon": -76.90605033333334, "bike_id": "558fb4e21bf20d3dfebc61a1b25c3d6b", "lat": 39.004529166666664, "fusion_lon": 0.0, "fusion_lat": 0.0, "type": "electric_bike", "name": "558fb4e21bf20d3dfebc61a1b25c3d6b", "is_disabled": 0, "rental_uris": {"ios": "https://dc.lft.to/lastmile_qr_scan", "android": "https://dc.lft.to/lastmile_qr_scan"}, "is_reserved": 0}, {"lon": -76.97706116666667, "bike_id": "1c8254aa055dc584a6cc986db9721c48", "lat": 38.94906733333333, "fusion_lon": 0.0, "fusion_lat": 0.0, "type": "electric_bike", "name": "1c8254aa055dc584a6cc986db9721c48", "is_disabled": 0, "rental_uris": {"ios": "https://dc.lft.to/lastmile_qr_scan", "android": "https://dc.lft.to/lastmile_qr_scan"}, "is_reserved": 0}, {"lon": -77.03207733333333, "bike_id": "4b96d3d0f68d6a020251f401c8c947e2", "lat": 38.916818166666665, "fusion_lon": 0.0, "fusion_lat": 0.0, "type": "electric_scooter", "name": "4b96d3d0f68d6a020251f401c8c947e2", "is_disabled": 0, "rental_uris": {"ios": "https://dc.lft.to/lastmile_qr_scan", "android": "https://dc.lft.to/lastmile_qr_scan"}, "is_reserved": 0}, {"lon": -77.0326645, "bike_id": "2bc23d6e0fe8e043b0ef11fe16ec282f", "lat": 38.91402383333333, "fusion_lon": 0.0, "fusion_lat": 0.0, "type": "electric_scooter", "name": "2bc23d6e0fe8e043b0ef11fe16ec282f", "is_disabled": 0, "rental_uris": {"ios": "https://dc.lft.to/lastmile_qr_scan", "android": "https://dc.lft.to/lastmile_qr_scan"}, "is_reserved": 0}, {"lon": -77.03863866666667, "bike_id": "66595a5eea819f643e4691d742fcb20f", "lat": 38.9154425, "fusion_lon": 0.0, "fusion_lat": 0.0, "type": "electric_scooter", "name": "66595a5eea819f643e4691d742fcb20f", "is_disabled": 0, "rental_uris": {"ios": "https://dc.lft.to/lastmile_qr_scan", "android": "https://dc.lft.to/lastmile_qr_scan"}, "is_reserved": 0}, {"lon": -77.00766266666666, "bike_id": "1bbb3688f1e89260ca75c387d6c5ed38", "lat": 38.8710915, "fusion_lon": 0.0, "fusion_lat": 0.0, "type": "electric_scooter", "name": "1bbb3688f1e89260ca75c387d6c5ed38", "is_disabled": 0, "rental_uris": {"ios": "https://dc.lft.to/lastmile_qr_scan", "android": "https://dc.lft.to/lastmile_qr_scan"}, "is_reserved": 0}, {"lon": -77.36096883333333, "bike_id": "88db9e4c42bcbf8e15340df6e5b15026", "lat": 38.93955583333333, "fusion_lon": 0.0, "fusion_lat": 0.0, "type": "electric_bike", "name": "88db9e4c42bcbf8e15340df6e5b15026", "is_disabled": 0, "rental_uris": {"ios": "https://dc.lft.to/lastmile_qr_scan", "android": "https://dc.lft.to/lastmile_qr_scan"}, "is_reserved": 0}, {"lon": -77.024249, "bike_id": "b210b66bbb3e7de0c3895635cd845039", "lat": 38.9204565, "fusion_lon": 0.0, "fusion_lat": 0.0, "type": "electric_scooter", "name": "b210b66bbb3e7de0c3895635cd845039", "is_disabled": 0, "rental_uris": {"ios": "https://dc.lft.to/lastmile_qr_scan", "android": "https://dc.lft.to/lastmile_qr_scan"}, "is_reserved": 0}, {"lon": -77.02478766666667, "bike_id": "f2a857b1b82123538b48287ddc5abeab", "lat": 38.896664333333334, "fusion_lon": 0.0, "fusion_lat": 0.0, "type": "electric_scooter", "name": "f2a857b1b82123538b48287ddc5abeab", "is_disabled": 0, "rental_uris": {"ios": "https://dc.lft.to/lastmile_qr_scan", "android": "https://dc.lft.to/lastmile_qr_scan"}, "is_reserved": 0}, {"lon": -77.05600316666667, "bike_id": "d8a4c404b2b129abfa56cb714c8aeb90", "lat": 38.92324166666667, "fusion_lon": 0.0, "fusion_lat": 0.0, "type": "electric_scooter", "name": "d8a4c404b2b129abfa56cb714c8aeb90", "is_disabled": 0, "rental_uris": {"ios": "https://dc.lft.to/lastmile_qr_scan", "android": "https://dc.lft.to/lastmile_qr_scan"}, "is_reserved": 0}, {"lon": -77.0524035, "bike_id": "bb508bc399759978aa23c4334b8f28bd", "lat": 38.924632, "fusion_lon": 0.0, "fusion_lat": 0.0, "type": "electric_scooter", "name": "bb508bc399759978aa23c4334b8f28bd", "is_disabled": 0, "rental_uris": {"ios": "https://dc.lft.to/lastmile_qr_scan", "android": "https://dc.lft.to/lastmile_qr_scan"}, "is_reserved": 0}, {"lon": -77.027989, "bike_id": "590438510986fb68cdf46d49aea928a2", "lat": 38.95680266666667, "fusion_lon": 0.0, "fusion_lat": 0.0, "type": "electric_scooter", "name": "590438510986fb68cdf46d49aea928a2", "is_disabled": 0, "rental_uris": {"ios": "https://dc.lft.to/lastmile_qr_scan", "android": "https://dc.lft.to/lastmile_qr_scan"}, "is_reserved": 0}, {"lon": -77.02313033333333, "bike_id": "d3f2aaf05e71f3bfccd849635fa9d3ee", "lat": 38.90953183333333, "fusion_lon": 0.0, "fusion_lat": 0.0, "type": "electric_scooter", "name": "d3f2aaf05e71f3bfccd849635fa9d3ee", "is_disabled": 0, "rental_uris": {"ios": "https://dc.lft.to/lastmile_qr_scan", "android": "https://dc.lft.to/lastmile_qr_scan"}, "is_reserved": 0}, {"lon": -77.04252666666666, "bike_id": "487252fe7982f84638518012134a75b7", "lat": 38.9263275, "fusion_lon": 0.0, "fusion_lat": 0.0, "type": "electric_scooter", "name": "487252fe7982f84638518012134a75b7", "is_disabled": 0, "rental_uris": {"ios": "https://dc.lft.to/lastmile_qr_scan", "android": "https://dc.lft.to/lastmile_qr_scan"}, "is_reserved": 0}, {"lon": -77.04401266666666, "bike_id": "6aa6c2abd68ec92508a617478bc10f55", "lat": 38.9332055, "fusion_lon": 0.0, "fusion_lat": 0.0, "type": "electric_scooter", "name": "6aa6c2abd68ec92508a617478bc10f55", "is_disabled": 0, "rental_uris": {"ios": "https://dc.lft.to/lastmile_qr_scan", "android": "https://dc.lft.to/lastmile_qr_scan"}, "is_reserved": 0}, {"lon": -77.03747233333333, "bike_id": "375c24dcb45d931fc681711e76abc3db", "lat": 38.91710716666667, "fusion_lon": 0.0, "fusion_lat": 0.0, "type": "electric_scooter", "name": "375c24dcb45d931fc681711e76abc3db", "is_disabled": 0, "rental_uris": {"ios": "https://dc.lft.to/lastmile_qr_scan", "android": "https://dc.lft.to/lastmile_qr_scan"}, "is_reserved": 0}, {"lon": -77.05132866666666, "bike_id": "a7c2b8b97febbee2a2a3c7bc93884ae6", "lat": 38.9236525, "fusion_lon": 0.0, "fusion_lat": 0.0, "type": "electric_scooter", "name": "a7c2b8b97febbee2a2a3c7bc93884ae6", "is_disabled": 0, "rental_uris": {"ios": "https://dc.lft.to/lastmile_qr_scan", "android": "https://dc.lft.to/lastmile_qr_scan"}, "is_reserved": 0}, {"lon": -76.92755883333334, "bike_id": "3ae0d8a62ea27d1146bb988bb9fc68b1", "lat": 38.880593833333336, "fusion_lon": 0.0, "fusion_lat": 0.0, "type": "electric_scooter", "name": "3ae0d8a62ea27d1146bb988bb9fc68b1", "is_disabled": 0, "rental_uris": {"ios": "https://dc.lft.to/lastmile_qr_scan", "android": "https://dc.lft.to/lastmile_qr_scan"}, "is_reserved": 0}, {"lon": -77.00773333333333, "bike_id": "827aa77e0591c9996bc7b00f0e035618", "lat": 38.906596666666665, "fusion_lon": 0.0, "fusion_lat": 0.0, "type": "electric_scooter", "name": "827aa77e0591c9996bc7b00f0e035618", "is_disabled": 0, "rental_uris": {"ios": "https://dc.lft.to/lastmile_qr_scan", "android": "https://dc.lft.to/lastmile_qr_scan"}, "is_reserved": 0}, {"lon": -77.02413283333334, "bike_id": "207e7e2cc52fc4d920c48ec1024139ca", "lat": 38.93405583333333, "fusion_lon": 0.0, "fusion_lat": 0.0, "type": "electric_scooter", "name": "207e7e2cc52fc4d920c48ec1024139ca", "is_disabled": 0, "rental_uris": {"ios": "https://dc.lft.to/lastmile_qr_scan", "android": "https://dc.lft.to/lastmile_qr_scan"}, "is_reserved": 0}, {"lon": -77.03861566666667, "bike_id": "f4878b8c1fd4512fd0bd07bc3a9cdcaa", "lat": 38.91575316666667, "fusion_lon": 0.0, "fusion_lat": 0.0, "type": "electric_scooter", "name": "f4878b8c1fd4512fd0bd07bc3a9cdcaa", "is_disabled": 0, "rental_uris": {"ios": "https://dc.lft.to/lastmile_qr_scan", "android": "https://dc.lft.to/lastmile_qr_scan"}, "is_reserved": 0}, {"lon": -77.02274233333333, "bike_id": "2df70066bed720a877a9dd81132f0e80", "lat": 38.93766816666667, "fusion_lon": 0.0, "fusion_lat": 0.0, "type": "electric_scooter", "name": "2df70066bed720a877a9dd81132f0e80", "is_disabled": 0, "rental_uris": {"ios": "https://dc.lft.to/lastmile_qr_scan", "android": "https://dc.lft.to/lastmile_qr_scan"}, "is_reserved": 0}, {"lon": -77.053514, "bike_id": "ffcce625f4e38607a68a7b44e2281ae2", "lat": 38.9270475, "fusion_lon": 0.0, "fusion_lat": 0.0, "type": "electric_scooter", "name": "ffcce625f4e38607a68a7b44e2281ae2", "is_disabled": 0, "rental_uris": {"ios": "https://dc.lft.to/lastmile_qr_scan", "android": "https://dc.lft.to/lastmile_qr_scan"}, "is_reserved": 0}, {"lon": -77.0528365, "bike_id": "f90bf4a92806d9e6a9d0ada865d97e32", "lat": 38.91008566666667, "fusion_lon": 0.0, "fusion_lat": 0.0, "type": "electric_scooter", "name": "f90bf4a92806d9e6a9d0ada865d97e32", "is_disabled": 0, "rental_uris": {"ios": "https://dc.lft.to/lastmile_qr_scan", "android": "https://dc.lft.to/lastmile_qr_scan"}, "is_reserved": 0}, {"lon": -77.031919, "bike_id": "8764cb6b3939ca6cfe3c7875275954ef", "lat": 38.908732, "fusion_lon": 0.0, "fusion_lat": 0.0, "type": "electric_scooter", "name": "8764cb6b3939ca6cfe3c7875275954ef", "is_disabled": 0, "rental_uris": {"ios": "https://dc.lft.to/lastmile_qr_scan", "android": "https://dc.lft.to/lastmile_qr_scan"}, "is_reserved": 0}, {"lon": -77.0416055, "bike_id": "6b880a6eca1ee6b537f482a117d30578", "lat": 38.9034665, "fusion_lon": 0.0, "fusion_lat": 0.0, "type": "electric_scooter", "name": "6b880a6eca1ee6b537f482a117d30578", "is_disabled": 0, "rental_uris": {"ios": "https://dc.lft.to/lastmile_qr_scan", "android": "https://dc.lft.to/lastmile_qr_scan"}, "is_reserved": 0}, {"lon": -77.18740433333333, "bike_id": "c0c0d9c7a905c5cd4fa153eb51e20244", "lat": 38.8935325, "fusion_lon": 0.0, "fusion_lat": 0.0, "type": "electric_bike", "name": "c0c0d9c7a905c5cd4fa153eb51e20244", "is_disabled": 0, "rental_uris": {"ios": "https://dc.lft.to/lastmile_qr_scan", "android": "https://dc.lft.to/lastmile_qr_scan"}, "is_reserved": 0}, {"lon": -77.01333716666667, "bike_id": "e65af703975555f7b95bb471560fcb4f", "lat": 38.87915383333333, "fusion_lon": 0.0, "fusion_lat": 0.0, "type": "electric_scooter", "name": "e65af703975555f7b95bb471560fcb4f", "is_disabled": 0, "rental_uris": {"ios": "https://dc.lft.to/lastmile_qr_scan", "android": "https://dc.lft.to/lastmile_qr_scan"}, "is_reserved": 0}, {"lon": -77.05536933333333, "bike_id": "b8803432ecf4c305d9b3d528d9986248", "lat": 38.934295166666665, "fusion_lon": 0.0, "fusion_lat": 0.0, "type": "electric_scooter", "name": "b8803432ecf4c305d9b3d528d9986248", "is_disabled": 0, "rental_uris": {"ios": "https://dc.lft.to/lastmile_qr_scan", "android": "https://dc.lft.to/lastmile_qr_scan"}, "is_reserved": 0}, {"lon": -77.0390435, "bike_id": "8c235bbef3538845e0db500761971941", "lat": 38.923497, "fusion_lon": 0.0, "fusion_lat": 0.0, "type": "electric_scooter", "name": "8c235bbef3538845e0db500761971941", "is_disabled": 0, "rental_uris": {"ios": "https://dc.lft.to/lastmile_qr_scan", "android": "https://dc.lft.to/lastmile_qr_scan"}, "is_reserved": 0}, {"lon": -77.03507516666667, "bike_id": "420563c1fdac3f64074042b976323eaa", "lat": 38.9375105, "fusion_lon": 0.0, "fusion_lat": 0.0, "type": "electric_scooter", "name": "420563c1fdac3f64074042b976323eaa", "is_disabled": 0, "rental_uris": {"ios": "https://dc.lft.to/lastmile_qr_scan", "android": "https://dc.lft.to/lastmile_qr_scan"}, "is_reserved": 0}, {"lon": -76.98841116666667, "bike_id": "a5b6a6c1b6a2bd31d9db677e4755593d", "lat": 38.90072166666667, "fusion_lon": 0.0, "fusion_lat": 0.0, "type": "electric_scooter", "name": "a5b6a6c1b6a2bd31d9db677e4755593d", "is_disabled": 0, "rental_uris": {"ios": "https://dc.lft.to/lastmile_qr_scan", "android": "https://dc.lft.to/lastmile_qr_scan"}, "is_reserved": 0}, {"lon": -77.02412683333333, "bike_id": "4676b6cb2b86182d9b98cd2bab681d25", "lat": 38.9096945, "fusion_lon": 0.0, "fusion_lat": 0.0, "type": "electric_scooter", "name": "4676b6cb2b86182d9b98cd2bab681d25", "is_disabled": 0, "rental_uris": {"ios": "https://dc.lft.to/lastmile_qr_scan", "android": "https://dc.lft.to/lastmile_qr_scan"}, "is_reserved": 0}, {"lon": -77.01599383333334, "bike_id": "7c074243e758be8b4e35ce55fc796c03", "lat": 38.899598166666664, "fusion_lon": 0.0, "fusion_lat": 0.0, "type": "electric_scooter", "name": "7c074243e758be8b4e35ce55fc796c03", "is_disabled": 0, "rental_uris": {"ios": "https://dc.lft.to/lastmile_qr_scan", "android": "https://dc.lft.to/lastmile_qr_scan"}, "is_reserved": 0}, {"lon": -77.07157183333334, "bike_id": "4d3a5ecf67344a41b9adb02a30bc78e7", "lat": 38.908722, "fusion_lon": 0.0, "fusion_lat": 0.0, "type": "electric_scooter", "name": "4d3a5ecf67344a41b9adb02a30bc78e7", "is_disabled": 0, "rental_uris": {"ios": "https://dc.lft.to/lastmile_qr_scan", "android": "https://dc.lft.to/lastmile_qr_scan"}, "is_reserved": 0}, {"lon": -77.08461533333333, "bike_id": "097a75b0c2f0c298f34e5b10bb419801", "lat": 38.848158, "fusion_lon": 0.0, "fusion_lat": 0.0, "type": "electric_bike", "name": "097a75b0c2f0c298f34e5b10bb419801", "is_disabled": 0, "rental_uris": {"ios": "https://dc.lft.to/lastmile_qr_scan", "android": "https://dc.lft.to/lastmile_qr_scan"}, "is_reserved": 0}, {"lon": -77.03270766666667, "bike_id": "e4fb6fac0e15e760ba59f1708743d300", "lat": 38.91813283333333, "fusion_lon": 0.0, "fusion_lat": 0.0, "type": "electric_scooter", "name": "e4fb6fac0e15e760ba59f1708743d300", "is_disabled": 0, "rental_uris": {"ios": "https://dc.lft.to/lastmile_qr_scan", "android": "https://dc.lft.to/lastmile_qr_scan"}, "is_reserved": 0}, {"lon": -77.042534, "bike_id": "7b6f5b19b860182f107b2cd6f2ada2c9", "lat": 38.921683333333334, "fusion_lon": 0.0, "fusion_lat": 0.0, "type": "electric_scooter", "name": "7b6f5b19b860182f107b2cd6f2ada2c9", "is_disabled": 0, "rental_uris": {"ios": "https://dc.lft.to/lastmile_qr_scan", "android": "https://dc.lft.to/lastmile_qr_scan"}, "is_reserved": 0}, {"lon": -77.003617, "bike_id": "d1ca98af28294e30af20789c1df62af9", "lat": 38.92046933333334, "fusion_lon": 0.0, "fusion_lat": 0.0, "type": "electric_scooter", "name": "d1ca98af28294e30af20789c1df62af9", "is_disabled": 0, "rental_uris": {"ios": "https://dc.lft.to/lastmile_qr_scan", "android": "https://dc.lft.to/lastmile_qr_scan"}, "is_reserved": 0}, {"lon": -77.034069, "bike_id": "ed198da2670cbb85590639a168c9a449", "lat": 38.9225285, "fusion_lon": 0.0, "fusion_lat": 0.0, "type": "electric_scooter", "name": "ed198da2670cbb85590639a168c9a449", "is_disabled": 0, "rental_uris": {"ios": "https://dc.lft.to/lastmile_qr_scan", "android": "https://dc.lft.to/lastmile_qr_scan"}, "is_reserved": 0}, {"lon": -77.02420266666667, "bike_id": "b40082e32bcc3fa2d4d3087afe0096fe", "lat": 38.926482, "fusion_lon": 0.0, "fusion_lat": 0.0, "type": "electric_scooter", "name": "b40082e32bcc3fa2d4d3087afe0096fe", "is_disabled": 0, "rental_uris": {"ios": "https://dc.lft.to/lastmile_qr_scan", "android": "https://dc.lft.to/lastmile_qr_scan"}, "is_reserved": 0}, {"lon": -77.04161266666667, "bike_id": "dea177ea35d6cc47c984b472f8e964e6", "lat": 38.917086, "fusion_lon": 0.0, "fusion_lat": 0.0, "type": "electric_scooter", "name": "dea177ea35d6cc47c984b472f8e964e6", "is_disabled": 0, "rental_uris": {"ios": "https://dc.lft.to/lastmile_qr_scan", "android": "https://dc.lft.to/lastmile_qr_scan"}, "is_reserved": 0}, {"lon": -77.03108416666667, "bike_id": "a943be94171cb575972f3bf7ffbac808", "lat": 38.90568733333333, "fusion_lon": 0.0, "fusion_lat": 0.0, "type": "electric_scooter", "name": "a943be94171cb575972f3bf7ffbac808", "is_disabled": 0, "rental_uris": {"ios": "https://dc.lft.to/lastmile_qr_scan", "android": "https://dc.lft.to/lastmile_qr_scan"}, "is_reserved": 0}, {"lon": -77.06746016666666, "bike_id": "28c0bd4d651726d9c6421e1d0ffb5e51", "lat": 38.903391, "fusion_lon": 0.0, "fusion_lat": 0.0, "type": "electric_scooter", "name": "28c0bd4d651726d9c6421e1d0ffb5e51", "is_disabled": 0, "rental_uris": {"ios": "https://dc.lft.to/lastmile_qr_scan", "android": "https://dc.lft.to/lastmile_qr_scan"}, "is_reserved": 0}, {"lon": -77.04392783333333, "bike_id": "155af3268a3f6cf6fbc3b199e5679f3e", "lat": 38.9211225, "fusion_lon": 0.0, "fusion_lat": 0.0, "type": "electric_scooter", "name": "155af3268a3f6cf6fbc3b199e5679f3e", "is_disabled": 0, "rental_uris": {"ios": "https://dc.lft.to/lastmile_qr_scan", "android": "https://dc.lft.to/lastmile_qr_scan"}, "is_reserved": 0}, {"lon": -77.0220195, "bike_id": "0ce498dfa8d7fecb087b9ca74fb952f9", "lat": 38.914760333333334, "fusion_lon": 0.0, "fusion_lat": 0.0, "type": "electric_scooter", "name": "0ce498dfa8d7fecb087b9ca74fb952f9", "is_disabled": 0, "rental_uris": {"ios": "https://dc.lft.to/lastmile_qr_scan", "android": "https://dc.lft.to/lastmile_qr_scan"}, "is_reserved": 0}, {"lon": -77.0175455, "bike_id": "55f4ef40c8f1ee47a6c520b2a774cceb", "lat": 38.902389666666664, "fusion_lon": 0.0, "fusion_lat": 0.0, "type": "electric_scooter", "name": "55f4ef40c8f1ee47a6c520b2a774cceb", "is_disabled": 0, "rental_uris": {"ios": "https://dc.lft.to/lastmile_qr_scan", "android": "https://dc.lft.to/lastmile_qr_scan"}, "is_reserved": 0}, {"lon": -77.0258175, "bike_id": "da3b6f7efa95cccbbbdc7aa184b97b06", "lat": 38.89735266666667, "fusion_lon": 0.0, "fusion_lat": 0.0, "type": "electric_scooter", "name": "da3b6f7efa95cccbbbdc7aa184b97b06", "is_disabled": 0, "rental_uris": {"ios": "https://dc.lft.to/lastmile_qr_scan", "android": "https://dc.lft.to/lastmile_qr_scan"}, "is_reserved": 0}, {"lon": -77.0379965, "bike_id": "8bb9b3a44072a6c760816d35f18669de", "lat": 38.9360005, "fusion_lon": 0.0, "fusion_lat": 0.0, "type": "electric_scooter", "name": "8bb9b3a44072a6c760816d35f18669de", "is_disabled": 0, "rental_uris": {"ios": "https://dc.lft.to/lastmile_qr_scan", "android": "https://dc.lft.to/lastmile_qr_scan"}, "is_reserved": 0}, {"lon": -77.04794466666667, "bike_id": "51a642fe96558a808d83cf243e1745d0", "lat": 38.88716766666667, "fusion_lon": 0.0, "fusion_lat": 0.0, "type": "electric_scooter", "name": "51a642fe96558a808d83cf243e1745d0", "is_disabled": 0, "rental_uris": {"ios": "https://dc.lft.to/lastmile_qr_scan", "android": "https://dc.lft.to/lastmile_qr_scan"}, "is_reserved": 0}, {"lon": -77.0367415, "bike_id": "24c6ccb72aff9bf70a558c91b4128456", "lat": 38.90823833333334, "fusion_lon": 0.0, "fusion_lat": 0.0, "type": "electric_scooter", "name": "24c6ccb72aff9bf70a558c91b4128456", "is_disabled": 0, "rental_uris": {"ios": "https://dc.lft.to/lastmile_qr_scan", "android": "https://dc.lft.to/lastmile_qr_scan"}, "is_reserved": 0}, {"lon": -77.03192616666666, "bike_id": "4af4fce230aae3633ff8615c3c2b633a", "lat": 38.91419233333333, "fusion_lon": 0.0, "fusion_lat": 0.0, "type": "electric_scooter", "name": "4af4fce230aae3633ff8615c3c2b633a", "is_disabled": 0, "rental_uris": {"ios": "https://dc.lft.to/lastmile_qr_scan", "android": "https://dc.lft.to/lastmile_qr_scan"}, "is_reserved": 0}, {"lon": -77.11593466666666, "bike_id": "f144b4defcfde7f6465e2412c4fcd348", "lat": 39.0749485, "fusion_lon": 0.0, "fusion_lat": 0.0, "type": "electric_bike", "name": "f144b4defcfde7f6465e2412c4fcd348", "is_disabled": 0, "rental_uris": {"ios": "https://dc.lft.to/lastmile_qr_scan", "android": "https://dc.lft.to/lastmile_qr_scan"}, "is_reserved": 0}, {"lon": -77.022566, "bike_id": "dbb4c43760ac922fe3585fcce28105df", "lat": 38.89978033333333, "fusion_lon": 0.0, "fusion_lat": 0.0, "type": "electric_scooter", "name": "dbb4c43760ac922fe3585fcce28105df", "is_disabled": 0, "rental_uris": {"ios": "https://dc.lft.to/lastmile_qr_scan", "android": "https://dc.lft.to/lastmile_qr_scan"}, "is_reserved": 0}, {"lon": -77.01415666666666, "bike_id": "de6026afef363e1afefad893359c7b31", "lat": 38.928507833333335, "fusion_lon": 0.0, "fusion_lat": 0.0, "type": "electric_scooter", "name": "de6026afef363e1afefad893359c7b31", "is_disabled": 0, "rental_uris": {"ios": "https://dc.lft.to/lastmile_qr_scan", "android": "https://dc.lft.to/lastmile_qr_scan"}, "is_reserved": 0}, {"lon": -77.03352316666667, "bike_id": "8e0fb263c3c30a16994cd330444ffc78", "lat": 38.945115, "fusion_lon": 0.0, "fusion_lat": 0.0, "type": "electric_bike", "name": "8e0fb263c3c30a16994cd330444ffc78", "is_disabled": 0, "rental_uris": {"ios": "https://dc.lft.to/lastmile_qr_scan", "android": "https://dc.lft.to/lastmile_qr_scan"}, "is_reserved": 0}, {"lon": -76.96914916666667, "bike_id": "5113a1a397b48087eeac9cb540b42c3d", "lat": 38.84601766666667, "fusion_lon": 0.0, "fusion_lat": 0.0, "type": "electric_bike", "name": "5113a1a397b48087eeac9cb540b42c3d", "is_disabled": 0, "rental_uris": {"ios": "https://dc.lft.to/lastmile_qr_scan", "android": "https://dc.lft.to/lastmile_qr_scan"}, "is_reserved": 0}, {"lon": -77.04138933333333, "bike_id": "e82d764bb5a2728acc708037516ba44d", "lat": 38.90610933333333, "fusion_lon": 0.0, "fusion_lat": 0.0, "type": "electric_scooter", "name": "e82d764bb5a2728acc708037516ba44d", "is_disabled": 0, "rental_uris": {"ios": "https://dc.lft.to/lastmile_qr_scan", "android": "https://dc.lft.to/lastmile_qr_scan"}, "is_reserved": 0}, {"lon": -77.02368483333333, "bike_id": "7c612ba02e788f924ca487851f270770", "lat": 38.89957033333334, "fusion_lon": 0.0, "fusion_lat": 0.0, "type": "electric_scooter", "name": "7c612ba02e788f924ca487851f270770", "is_disabled": 0, "rental_uris": {"ios": "https://dc.lft.to/lastmile_qr_scan", "android": "https://dc.lft.to/lastmile_qr_scan"}, "is_reserved": 0}, {"lon": -77.0427435, "bike_id": "e2f15e24c42811504ecad4413fafb065", "lat": 38.9224755, "fusion_lon": 0.0, "fusion_lat": 0.0, "type": "electric_scooter", "name": "e2f15e24c42811504ecad4413fafb065", "is_disabled": 0, "rental_uris": {"ios": "https://dc.lft.to/lastmile_qr_scan", "android": "https://dc.lft.to/lastmile_qr_scan"}, "is_reserved": 0}, {"lon": -77.029358, "bike_id": "e184d433b675a6d2d4302c6326384abe", "lat": 38.92081266666667, "fusion_lon": 0.0, "fusion_lat": 0.0, "type": "electric_scooter", "name": "e184d433b675a6d2d4302c6326384abe", "is_disabled": 0, "rental_uris": {"ios": "https://dc.lft.to/lastmile_qr_scan", "android": "https://dc.lft.to/lastmile_qr_scan"}, "is_reserved": 0}, {"lon": -77.00201466666667, "bike_id": "b2cef481bacad3884e4f514811e73987", "lat": 38.90230066666667, "fusion_lon": 0.0, "fusion_lat": 0.0, "type": "electric_scooter", "name": "b2cef481bacad3884e4f514811e73987", "is_disabled": 0, "rental_uris": {"ios": "https://dc.lft.to/lastmile_qr_scan", "android": "https://dc.lft.to/lastmile_qr_scan"}, "is_reserved": 0}, {"lon": -77.02984616666667, "bike_id": "fb16ece619928896751736efe08ce301", "lat": 38.90288833333334, "fusion_lon": 0.0, "fusion_lat": 0.0, "type": "electric_scooter", "name": "fb16ece619928896751736efe08ce301", "is_disabled": 0, "rental_uris": {"ios": "https://dc.lft.to/lastmile_qr_scan", "android": "https://dc.lft.to/lastmile_qr_scan"}, "is_reserved": 0}, {"lon": -77.05231716666667, "bike_id": "0ba1695f49ca4495f9ae5726b8b86188", "lat": 38.924596333333334, "fusion_lon": 0.0, "fusion_lat": 0.0, "type": "electric_scooter", "name": "0ba1695f49ca4495f9ae5726b8b86188", "is_disabled": 0, "rental_uris": {"ios": "https://dc.lft.to/lastmile_qr_scan", "android": "https://dc.lft.to/lastmile_qr_scan"}, "is_reserved": 0}, {"lon": -77.0084905, "bike_id": "f5cb4241836e38941c9a2ee6addf19bc", "lat": 38.916214833333335, "fusion_lon": 0.0, "fusion_lat": 0.0, "type": "electric_scooter", "name": "f5cb4241836e38941c9a2ee6addf19bc", "is_disabled": 0, "rental_uris": {"ios": "https://dc.lft.to/lastmile_qr_scan", "android": "https://dc.lft.to/lastmile_qr_scan"}, "is_reserved": 0}, {"lon": -77.020506, "bike_id": "e561272250eb0327125f8ba3fdaedd5f", "lat": 38.915495, "fusion_lon": 0.0, "fusion_lat": 0.0, "type": "electric_scooter", "name": "e561272250eb0327125f8ba3fdaedd5f", "is_disabled": 0, "rental_uris": {"ios": "https://dc.lft.to/lastmile_qr_scan", "android": "https://dc.lft.to/lastmile_qr_scan"}, "is_reserved": 0}, {"lon": -77.0340515, "bike_id": "157877ba751c5d14f62f2acf44135bda", "lat": 38.90155383333333, "fusion_lon": 0.0, "fusion_lat": 0.0, "type": "electric_scooter", "name": "157877ba751c5d14f62f2acf44135bda", "is_disabled": 0, "rental_uris": {"ios": "https://dc.lft.to/lastmile_qr_scan", "android": "https://dc.lft.to/lastmile_qr_scan"}, "is_reserved": 0}, {"lon": -77.04163066666666, "bike_id": "6f335e53ecc051e390497e115230a5b0", "lat": 38.903584333333335, "fusion_lon": 0.0, "fusion_lat": 0.0, "type": "electric_scooter", "name": "6f335e53ecc051e390497e115230a5b0", "is_disabled": 0, "rental_uris": {"ios": "https://dc.lft.to/lastmile_qr_scan", "android": "https://dc.lft.to/lastmile_qr_scan"}, "is_reserved": 0}, {"lon": -76.98890866666666, "bike_id": "540c11b6ea63ba44abd3834058313431", "lat": 38.91338566666667, "fusion_lon": 0.0, "fusion_lat": 0.0, "type": "electric_scooter", "name": "540c11b6ea63ba44abd3834058313431", "is_disabled": 0, "rental_uris": {"ios": "https://dc.lft.to/lastmile_qr_scan", "android": "https://dc.lft.to/lastmile_qr_scan"}, "is_reserved": 0}, {"lon": -77.03219333333334, "bike_id": "27f18fc709c066cf2d605d44251da16d", "lat": 38.916917833333336, "fusion_lon": 0.0, "fusion_lat": 0.0, "type": "electric_scooter", "name": "27f18fc709c066cf2d605d44251da16d", "is_disabled": 0, "rental_uris": {"ios": "https://dc.lft.to/lastmile_qr_scan", "android": "https://dc.lft.to/lastmile_qr_scan"}, "is_reserved": 0}, {"lon": -77.06004166666666, "bike_id": "8db303d80a5c4a48a26172038007e516", "lat": 38.86230183333333, "fusion_lon": 0.0, "fusion_lat": 0.0, "type": "electric_scooter", "name": "8db303d80a5c4a48a26172038007e516", "is_disabled": 0, "rental_uris": {"ios": "https://dc.lft.to/lastmile_qr_scan", "android": "https://dc.lft.to/lastmile_qr_scan"}, "is_reserved": 0}, {"lon": -76.95658766666666, "bike_id": "e9bf103c08405c9dc8ab871de95e2daa", "lat": 38.89619, "fusion_lon": 0.0, "fusion_lat": 0.0, "type": "electric_scooter", "name": "e9bf103c08405c9dc8ab871de95e2daa", "is_disabled": 0, "rental_uris": {"ios": "https://dc.lft.to/lastmile_qr_scan", "android": "https://dc.lft.to/lastmile_qr_scan"}, "is_reserved": 0}, {"lon": -77.05146483333333, "bike_id": "e043648e1ee4355c4af91e52ae21f02b", "lat": 38.905232833333336, "fusion_lon": 0.0, "fusion_lat": 0.0, "type": "electric_scooter", "name": "e043648e1ee4355c4af91e52ae21f02b", "is_disabled": 0, "rental_uris": {"ios": "https://dc.lft.to/lastmile_qr_scan", "android": "https://dc.lft.to/lastmile_qr_scan"}, "is_reserved": 0}, {"lon": -77.16237533333333, "bike_id": "b523f05b293f7eb1fd62f91ab29daddf", "lat": 38.886557833333335, "fusion_lon": 0.0, "fusion_lat": 0.0, "type": "electric_bike", "name": "b523f05b293f7eb1fd62f91ab29daddf", "is_disabled": 0, "rental_uris": {"ios": "https://dc.lft.to/lastmile_qr_scan", "android": "https://dc.lft.to/lastmile_qr_scan"}, "is_reserved": 0}, {"lon": -77.06037316666666, "bike_id": "a791090acc28e1da568a877527e3186e", "lat": 38.933527833333336, "fusion_lon": 0.0, "fusion_lat": 0.0, "type": "electric_scooter", "name": "a791090acc28e1da568a877527e3186e", "is_disabled": 0, "rental_uris": {"ios": "https://dc.lft.to/lastmile_qr_scan", "android": "https://dc.lft.to/lastmile_qr_scan"}, "is_reserved": 0}, {"lon": -77.0465315, "bike_id": "d55ae4f5fd642cd2d3e72f4dc5237807", "lat": 39.054952666666665, "fusion_lon": 0.0, "fusion_lat": 0.0, "type": "electric_bike", "name": "d55ae4f5fd642cd2d3e72f4dc5237807", "is_disabled": 0, "rental_uris": {"ios": "https://dc.lft.to/lastmile_qr_scan", "android": "https://dc.lft.to/lastmile_qr_scan"}, "is_reserved": 0}, {"lon": -77.01809933333334, "bike_id": "9511d33013cf457bb5535d949deb5bec", "lat": 38.964770333333334, "fusion_lon": 0.0, "fusion_lat": 0.0, "type": "electric_scooter", "name": "9511d33013cf457bb5535d949deb5bec", "is_disabled": 0, "rental_uris": {"ios": "https://dc.lft.to/lastmile_qr_scan", "android": "https://dc.lft.to/lastmile_qr_scan"}, "is_reserved": 0}, {"lon": -76.961365, "bike_id": "ae4d73a133591d35938a8d1dc2c9c2d4", "lat": 38.94207016666667, "fusion_lon": 0.0, "fusion_lat": 0.0, "type": "electric_bike", "name": "ae4d73a133591d35938a8d1dc2c9c2d4", "is_disabled": 0, "rental_uris": {"ios": "https://dc.lft.to/lastmile_qr_scan", "android": "https://dc.lft.to/lastmile_qr_scan"}, "is_reserved": 0}, {"lon": -76.8840245, "bike_id": "5a00cc8934a825a2b4e1b55a98579dd4", "lat": 38.93167666666667, "fusion_lon": 0.0, "fusion_lat": 0.0, "type": "electric_bike", "name": "5a00cc8934a825a2b4e1b55a98579dd4", "is_disabled": 0, "rental_uris": {"ios": "https://dc.lft.to/lastmile_qr_scan", "android": "https://dc.lft.to/lastmile_qr_scan"}, "is_reserved": 0}, {"lon": -76.99716833333333, "bike_id": "cac72528458bb2fe3b98f80693b9d449", "lat": 38.899955, "fusion_lon": 0.0, "fusion_lat": 0.0, "type": "electric_scooter", "name": "cac72528458bb2fe3b98f80693b9d449", "is_disabled": 0, "rental_uris": {"ios": "https://dc.lft.to/lastmile_qr_scan", "android": "https://dc.lft.to/lastmile_qr_scan"}, "is_reserved": 0}, {"lon": -77.05751783333334, "bike_id": "5c519c0b90c678f34232f7a3e6753be9", "lat": 38.933905833333334, "fusion_lon": 0.0, "fusion_lat": 0.0, "type": "electric_scooter", "name": "5c519c0b90c678f34232f7a3e6753be9", "is_disabled": 0, "rental_uris": {"ios": "https://dc.lft.to/lastmile_qr_scan", "android": "https://dc.lft.to/lastmile_qr_scan"}, "is_reserved": 0}, {"lon": -77.03884216666667, "bike_id": "5c4cfe55e41ceff1d26e8e65e6596e3a", "lat": 38.948706333333334, "fusion_lon": 0.0, "fusion_lat": 0.0, "type": "electric_scooter", "name": "5c4cfe55e41ceff1d26e8e65e6596e3a", "is_disabled": 0, "rental_uris": {"ios": "https://dc.lft.to/lastmile_qr_scan", "android": "https://dc.lft.to/lastmile_qr_scan"}, "is_reserved": 0}, {"lon": -77.02760533333333, "bike_id": "dd620dc9eef08754d2aa268bf10eed9d", "lat": 38.965665, "fusion_lon": 0.0, "fusion_lat": 0.0, "type": "electric_bike", "name": "dd620dc9eef08754d2aa268bf10eed9d", "is_disabled": 0, "rental_uris": {"ios": "https://dc.lft.to/lastmile_qr_scan", "android": "https://dc.lft.to/lastmile_qr_scan"}, "is_reserved": 0}, {"lon": -77.0366125, "bike_id": "5e6a7239fd87f6720c3b114a54ac89ef", "lat": 38.93576866666667, "fusion_lon": 0.0, "fusion_lat": 0.0, "type": "electric_bike", "name": "5e6a7239fd87f6720c3b114a54ac89ef", "is_disabled": 0, "rental_uris": {"ios": "https://dc.lft.to/lastmile_qr_scan", "android": "https://dc.lft.to/lastmile_qr_scan"}, "is_reserved": 0}, {"lon": -77.044606, "bike_id": "27b224f9e995d4d97f32963b35cd5450", "lat": 38.915298666666665, "fusion_lon": 0.0, "fusion_lat": 0.0, "type": "electric_scooter", "name": "27b224f9e995d4d97f32963b35cd5450", "is_disabled": 0, "rental_uris": {"ios": "https://dc.lft.to/lastmile_qr_scan", "android": "https://dc.lft.to/lastmile_qr_scan"}, "is_reserved": 0}, {"lon": -77.0376855, "bike_id": "c23d0714c567fd1168f99ae2b636943a", "lat": 38.920068666666666, "fusion_lon": 0.0, "fusion_lat": 0.0, "type": "electric_scooter", "name": "c23d0714c567fd1168f99ae2b636943a", "is_disabled": 0, "rental_uris": {"ios": "https://dc.lft.to/lastmile_qr_scan", "android": "https://dc.lft.to/lastmile_qr_scan"}, "is_reserved": 0}, {"lon": -77.0072285, "bike_id": "545b6a755d0b2cf1f5b4d9ecd3b26f6b", "lat": 38.83337383333333, "fusion_lon": 0.0, "fusion_lat": 0.0, "type": "electric_bike", "name": "545b6a755d0b2cf1f5b4d9ecd3b26f6b", "is_disabled": 0, "rental_uris": {"ios": "https://dc.lft.to/lastmile_qr_scan", "android": "https://dc.lft.to/lastmile_qr_scan"}, "is_reserved": 0}, {"lon": -77.00957983333333, "bike_id": "bf09fd40f1d237b947e3d9439e881bec", "lat": 38.92123266666667, "fusion_lon": 0.0, "fusion_lat": 0.0, "type": "electric_scooter", "name": "bf09fd40f1d237b947e3d9439e881bec", "is_disabled": 0, "rental_uris": {"ios": "https://dc.lft.to/lastmile_qr_scan", "android": "https://dc.lft.to/lastmile_qr_scan"}, "is_reserved": 0}, {"lon": -77.0269885, "bike_id": "6a343466d74fa293837cc281c58f4c87", "lat": 38.924001, "fusion_lon": 0.0, "fusion_lat": 0.0, "type": "electric_scooter", "name": "6a343466d74fa293837cc281c58f4c87", "is_disabled": 0, "rental_uris": {"ios": "https://dc.lft.to/lastmile_qr_scan", "android": "https://dc.lft.to/lastmile_qr_scan"}, "is_reserved": 0}, {"lon": -77.0467455, "bike_id": "2fc7081081bead677098e72e2d44139d", "lat": 38.904357166666664, "fusion_lon": 0.0, "fusion_lat": 0.0, "type": "electric_scooter", "name": "2fc7081081bead677098e72e2d44139d", "is_disabled": 0, "rental_uris": {"ios": "https://dc.lft.to/lastmile_qr_scan", "android": "https://dc.lft.to/lastmile_qr_scan"}, "is_reserved": 0}, {"lon": -76.98383633333333, "bike_id": "4b4c4b08492da6a09ff812791390cde0", "lat": 38.8960595, "fusion_lon": 0.0, "fusion_lat": 0.0, "type": "electric_scooter", "name": "4b4c4b08492da6a09ff812791390cde0", "is_disabled": 0, "rental_uris": {"ios": "https://dc.lft.to/lastmile_qr_scan", "android": "https://dc.lft.to/lastmile_qr_scan"}, "is_reserved": 0}, {"lon": -77.04109866666667, "bike_id": "f7e560e083eecd37709a607912002dfb", "lat": 38.927895666666664, "fusion_lon": 0.0, "fusion_lat": 0.0, "type": "electric_scooter", "name": "f7e560e083eecd37709a607912002dfb", "is_disabled": 0, "rental_uris": {"ios": "https://dc.lft.to/lastmile_qr_scan", "android": "https://dc.lft.to/lastmile_qr_scan"}, "is_reserved": 0}, {"lon": -77.0278625, "bike_id": "4994d1bff4451b57e5fb6d7f875f93a8", "lat": 38.892091, "fusion_lon": 0.0, "fusion_lat": 0.0, "type": "electric_scooter", "name": "4994d1bff4451b57e5fb6d7f875f93a8", "is_disabled": 0, "rental_uris": {"ios": "https://dc.lft.to/lastmile_qr_scan", "android": "https://dc.lft.to/lastmile_qr_scan"}, "is_reserved": 0}, {"lon": -77.03540383333333, "bike_id": "32308b34481703d6f352e8ebf00b6ff8", "lat": 38.92567783333333, "fusion_lon": 0.0, "fusion_lat": 0.0, "type": "electric_scooter", "name": "32308b34481703d6f352e8ebf00b6ff8", "is_disabled": 0, "rental_uris": {"ios": "https://dc.lft.to/lastmile_qr_scan", "android": "https://dc.lft.to/lastmile_qr_scan"}, "is_reserved": 0}, {"lon": -77.00938816666667, "bike_id": "71bec5498e1aed8bb88f943db5d75b7c", "lat": 38.883144333333334, "fusion_lon": 0.0, "fusion_lat": 0.0, "type": "electric_scooter", "name": "71bec5498e1aed8bb88f943db5d75b7c", "is_disabled": 0, "rental_uris": {"ios": "https://dc.lft.to/lastmile_qr_scan", "android": "https://dc.lft.to/lastmile_qr_scan"}, "is_reserved": 0}, {"lon": -77.05820483333333, "bike_id": "90fca0ebd1fdb60011ef6f027faa2385", "lat": 38.90526166666667, "fusion_lon": 0.0, "fusion_lat": 0.0, "type": "electric_scooter", "name": "90fca0ebd1fdb60011ef6f027faa2385", "is_disabled": 0, "rental_uris": {"ios": "https://dc.lft.to/lastmile_qr_scan", "android": "https://dc.lft.to/lastmile_qr_scan"}, "is_reserved": 0}, {"lon": -77.03330283333334, "bike_id": "80bb8c21e6c3773c852622cccc6f587e", "lat": 38.933432833333335, "fusion_lon": 0.0, "fusion_lat": 0.0, "type": "electric_scooter", "name": "80bb8c21e6c3773c852622cccc6f587e", "is_disabled": 0, "rental_uris": {"ios": "https://dc.lft.to/lastmile_qr_scan", "android": "https://dc.lft.to/lastmile_qr_scan"}, "is_reserved": 0}, {"lon": -76.98111833333333, "bike_id": "06f37680ab132df39c9bb0f270c2a97c", "lat": 38.9157885, "fusion_lon": 0.0, "fusion_lat": 0.0, "type": "electric_scooter", "name": "06f37680ab132df39c9bb0f270c2a97c", "is_disabled": 0, "rental_uris": {"ios": "https://dc.lft.to/lastmile_qr_scan", "android": "https://dc.lft.to/lastmile_qr_scan"}, "is_reserved": 0}, {"lon": -77.04243316666667, "bike_id": "a920e745fdc1fedf2f794d368a93dea3", "lat": 38.922095, "fusion_lon": 0.0, "fusion_lat": 0.0, "type": "electric_scooter", "name": "a920e745fdc1fedf2f794d368a93dea3", "is_disabled": 0, "rental_uris": {"ios": "https://dc.lft.to/lastmile_qr_scan", "android": "https://dc.lft.to/lastmile_qr_scan"}, "is_reserved": 0}, {"lon": -76.98992216666667, "bike_id": "9aa8e1840b7ae14587439037c3f88155", "lat": 38.9336035, "fusion_lon": 0.0, "fusion_lat": 0.0, "type": "electric_scooter", "name": "9aa8e1840b7ae14587439037c3f88155", "is_disabled": 0, "rental_uris": {"ios": "https://dc.lft.to/lastmile_qr_scan", "android": "https://dc.lft.to/lastmile_qr_scan"}, "is_reserved": 0}, {"lon": -77.02703333333334, "bike_id": "69014211906d721f61625f5f31fe3d7b", "lat": 38.91632466666667, "fusion_lon": 0.0, "fusion_lat": 0.0, "type": "electric_scooter", "name": "69014211906d721f61625f5f31fe3d7b", "is_disabled": 0, "rental_uris": {"ios": "https://dc.lft.to/lastmile_qr_scan", "android": "https://dc.lft.to/lastmile_qr_scan"}, "is_reserved": 0}, {"lon": -77.02402833333333, "bike_id": "628edf86d4117ee6126a8ddc7aead25c", "lat": 38.906792833333334, "fusion_lon": 0.0, "fusion_lat": 0.0, "type": "electric_scooter", "name": "628edf86d4117ee6126a8ddc7aead25c", "is_disabled": 0, "rental_uris": {"ios": "https://dc.lft.to/lastmile_qr_scan", "android": "https://dc.lft.to/lastmile_qr_scan"}, "is_reserved": 0}, {"lon": -76.99175916666667, "bike_id": "ea040757e09f69fa0c53d0a53cd7b941", "lat": 38.8898045, "fusion_lon": 0.0, "fusion_lat": 0.0, "type": "electric_scooter", "name": "ea040757e09f69fa0c53d0a53cd7b941", "is_disabled": 0, "rental_uris": {"ios": "https://dc.lft.to/lastmile_qr_scan", "android": "https://dc.lft.to/lastmile_qr_scan"}, "is_reserved": 0}, {"lon": -77.036647, "bike_id": "571add1ab17168397c5ec9fcae64084d", "lat": 38.9047285, "fusion_lon": 0.0, "fusion_lat": 0.0, "type": "electric_scooter", "name": "571add1ab17168397c5ec9fcae64084d", "is_disabled": 0, "rental_uris": {"ios": "https://dc.lft.to/lastmile_qr_scan", "android": "https://dc.lft.to/lastmile_qr_scan"}, "is_reserved": 0}, {"lon": -77.02452816666667, "bike_id": "e0e8b836d0b96c80de57f269b0089100", "lat": 38.92347633333333, "fusion_lon": 0.0, "fusion_lat": 0.0, "type": "electric_scooter", "name": "e0e8b836d0b96c80de57f269b0089100", "is_disabled": 0, "rental_uris": {"ios": "https://dc.lft.to/lastmile_qr_scan", "android": "https://dc.lft.to/lastmile_qr_scan"}, "is_reserved": 0}, {"lon": -77.0253025, "bike_id": "f771e66b07572a5694e83f5ce002f8ff", "lat": 38.8803935, "fusion_lon": 0.0, "fusion_lat": 0.0, "type": "electric_scooter", "name": "f771e66b07572a5694e83f5ce002f8ff", "is_disabled": 0, "rental_uris": {"ios": "https://dc.lft.to/lastmile_qr_scan", "android": "https://dc.lft.to/lastmile_qr_scan"}, "is_reserved": 0}, {"lon": -77.0032115, "bike_id": "34971670b8351655004c48f8f427e9ce", "lat": 38.91894416666667, "fusion_lon": 0.0, "fusion_lat": 0.0, "type": "electric_scooter", "name": "34971670b8351655004c48f8f427e9ce", "is_disabled": 0, "rental_uris": {"ios": "https://dc.lft.to/lastmile_qr_scan", "android": "https://dc.lft.to/lastmile_qr_scan"}, "is_reserved": 0}, {"lon": -76.94607433333333, "bike_id": "82a15c93b0677b2818fbdc08aa8d4455", "lat": 38.9014545, "fusion_lon": 0.0, "fusion_lat": 0.0, "type": "electric_scooter", "name": "82a15c93b0677b2818fbdc08aa8d4455", "is_disabled": 0, "rental_uris": {"ios": "https://dc.lft.to/lastmile_qr_scan", "android": "https://dc.lft.to/lastmile_qr_scan"}, "is_reserved": 0}, {"lon": -76.98065433333333, "bike_id": "e788440ad4c077fb7e7522c22d69970f", "lat": 38.8849195, "fusion_lon": 0.0, "fusion_lat": 0.0, "type": "electric_scooter", "name": "e788440ad4c077fb7e7522c22d69970f", "is_disabled": 0, "rental_uris": {"ios": "https://dc.lft.to/lastmile_qr_scan", "android": "https://dc.lft.to/lastmile_qr_scan"}, "is_reserved": 0}, {"lon": -77.08807566666667, "bike_id": "fe39d53184db8cdbab39a3f155b30720", "lat": 38.911766166666666, "fusion_lon": 0.0, "fusion_lat": 0.0, "type": "electric_scooter", "name": "fe39d53184db8cdbab39a3f155b30720", "is_disabled": 0, "rental_uris": {"ios": "https://dc.lft.to/lastmile_qr_scan", "android": "https://dc.lft.to/lastmile_qr_scan"}, "is_reserved": 0}, {"lon": -77.06523566666667, "bike_id": "b1cbd083a8c8be4b0456d7ffe4dfdecb", "lat": 38.90557666666667, "fusion_lon": 0.0, "fusion_lat": 0.0, "type": "electric_bike", "name": "b1cbd083a8c8be4b0456d7ffe4dfdecb", "is_disabled": 0, "rental_uris": {"ios": "https://dc.lft.to/lastmile_qr_scan", "android": "https://dc.lft.to/lastmile_qr_scan"}, "is_reserved": 0}, {"lon": -76.98930366666667, "bike_id": "e34016cc89c157d7f07c0900c4944dff", "lat": 38.864875833333336, "fusion_lon": 0.0, "fusion_lat": 0.0, "type": "electric_scooter", "name": "e34016cc89c157d7f07c0900c4944dff", "is_disabled": 0, "rental_uris": {"ios": "https://dc.lft.to/lastmile_qr_scan", "android": "https://dc.lft.to/lastmile_qr_scan"}, "is_reserved": 0}, {"lon": -77.08497183333333, "bike_id": "7cacdaba4b4f05b508371052a08dbf12", "lat": 38.84842783333333, "fusion_lon": 0.0, "fusion_lat": 0.0, "type": "electric_bike", "name": "7cacdaba4b4f05b508371052a08dbf12", "is_disabled": 0, "rental_uris": {"ios": "https://dc.lft.to/lastmile_qr_scan", "android": "https://dc.lft.to/lastmile_qr_scan"}, "is_reserved": 0}, {"lon": -77.0399655, "bike_id": "424e180b25e6e4c27419f1e17fbba4cf", "lat": 38.93431866666667, "fusion_lon": 0.0, "fusion_lat": 0.0, "type": "electric_scooter", "name": "424e180b25e6e4c27419f1e17fbba4cf", "is_disabled": 0, "rental_uris": {"ios": "https://dc.lft.to/lastmile_qr_scan", "android": "https://dc.lft.to/lastmile_qr_scan"}, "is_reserved": 0}, {"lon": -77.023847, "bike_id": "f82af137c3379433109c9f0ae28d280f", "lat": 38.90952166666667, "fusion_lon": 0.0, "fusion_lat": 0.0, "type": "electric_scooter", "name": "f82af137c3379433109c9f0ae28d280f", "is_disabled": 0, "rental_uris": {"ios": "https://dc.lft.to/lastmile_qr_scan", "android": "https://dc.lft.to/lastmile_qr_scan"}, "is_reserved": 0}, {"lon": -77.03035066666666, "bike_id": "58a17325d040425e15706983bc1bef7d", "lat": 38.8840705, "fusion_lon": 0.0, "fusion_lat": 0.0, "type": "electric_scooter", "name": "58a17325d040425e15706983bc1bef7d", "is_disabled": 0, "rental_uris": {"ios": "https://dc.lft.to/lastmile_qr_scan", "android": "https://dc.lft.to/lastmile_qr_scan"}, "is_reserved": 0}, {"lon": -76.97394066666666, "bike_id": "e153db4ee0f29711a9663d61ab0e9c61", "lat": 38.9029105, "fusion_lon": 0.0, "fusion_lat": 0.0, "type": "electric_scooter", "name": "e153db4ee0f29711a9663d61ab0e9c61", "is_disabled": 0, "rental_uris": {"ios": "https://dc.lft.to/lastmile_qr_scan", "android": "https://dc.lft.to/lastmile_qr_scan"}, "is_reserved": 0}, {"lon": -77.04731616666666, "bike_id": "056b95644b30a6db37d17a99a439f89b", "lat": 38.903133833333335, "fusion_lon": 0.0, "fusion_lat": 0.0, "type": "electric_scooter", "name": "056b95644b30a6db37d17a99a439f89b", "is_disabled": 0, "rental_uris": {"ios": "https://dc.lft.to/lastmile_qr_scan", "android": "https://dc.lft.to/lastmile_qr_scan"}, "is_reserved": 0}, {"lon": -77.0075515, "bike_id": "a2623716ffd37e96091ae317d63d445e", "lat": 38.90566066666667, "fusion_lon": 0.0, "fusion_lat": 0.0, "type": "electric_scooter", "name": "a2623716ffd37e96091ae317d63d445e", "is_disabled": 0, "rental_uris": {"ios": "https://dc.lft.to/lastmile_qr_scan", "android": "https://dc.lft.to/lastmile_qr_scan"}, "is_reserved": 0}, {"lon": -77.03045966666667, "bike_id": "28f8bb27a555a14376b3c30b06b33f37", "lat": 38.93716466666667, "fusion_lon": 0.0, "fusion_lat": 0.0, "type": "electric_scooter", "name": "28f8bb27a555a14376b3c30b06b33f37", "is_disabled": 0, "rental_uris": {"ios": "https://dc.lft.to/lastmile_qr_scan", "android": "https://dc.lft.to/lastmile_qr_scan"}, "is_reserved": 0}, {"lon": -77.07416533333334, "bike_id": "09d953e31e0a9fd68467f8b2c4a2885e", "lat": 38.928825833333335, "fusion_lon": 0.0, "fusion_lat": 0.0, "type": "electric_scooter", "name": "09d953e31e0a9fd68467f8b2c4a2885e", "is_disabled": 0, "rental_uris": {"ios": "https://dc.lft.to/lastmile_qr_scan", "android": "https://dc.lft.to/lastmile_qr_scan"}, "is_reserved": 0}, {"lon": -77.03190183333334, "bike_id": "cf7e0e9c320df5a60ef3593b24f09612", "lat": 38.915629333333335, "fusion_lon": 0.0, "fusion_lat": 0.0, "type": "electric_scooter", "name": "cf7e0e9c320df5a60ef3593b24f09612", "is_disabled": 0, "rental_uris": {"ios": "https://dc.lft.to/lastmile_qr_scan", "android": "https://dc.lft.to/lastmile_qr_scan"}, "is_reserved": 0}, {"lon": -77.02247533333333, "bike_id": "a034facb69b175155c029640aef4882f", "lat": 38.9226915, "fusion_lon": 0.0, "fusion_lat": 0.0, "type": "electric_scooter", "name": "a034facb69b175155c029640aef4882f", "is_disabled": 0, "rental_uris": {"ios": "https://dc.lft.to/lastmile_qr_scan", "android": "https://dc.lft.to/lastmile_qr_scan"}, "is_reserved": 0}, {"lon": -76.93191916666666, "bike_id": "d2a2c4696d6796a81ef565a97940ccd5", "lat": 38.8987715, "fusion_lon": 0.0, "fusion_lat": 0.0, "type": "electric_scooter", "name": "d2a2c4696d6796a81ef565a97940ccd5", "is_disabled": 0, "rental_uris": {"ios": "https://dc.lft.to/lastmile_qr_scan", "android": "https://dc.lft.to/lastmile_qr_scan"}, "is_reserved": 0}, {"lon": -77.03798883333333, "bike_id": "1561e44f578cf6a219f1a37260588928", "lat": 38.930511333333335, "fusion_lon": 0.0, "fusion_lat": 0.0, "type": "electric_scooter", "name": "1561e44f578cf6a219f1a37260588928", "is_disabled": 0, "rental_uris": {"ios": "https://dc.lft.to/lastmile_qr_scan", "android": "https://dc.lft.to/lastmile_qr_scan"}, "is_reserved": 0}, {"lon": -77.117099, "bike_id": "03b806d8725dfe35618c507155973891", "lat": 38.86740266666666, "fusion_lon": 0.0, "fusion_lat": 0.0, "type": "electric_bike", "name": "03b806d8725dfe35618c507155973891", "is_disabled": 0, "rental_uris": {"ios": "https://dc.lft.to/lastmile_qr_scan", "android": "https://dc.lft.to/lastmile_qr_scan"}, "is_reserved": 0}, {"lon": -76.985338, "bike_id": "1998ade1a107302f2d28be2b7e81bb69", "lat": 38.9045665, "fusion_lon": 0.0, "fusion_lat": 0.0, "type": "electric_scooter", "name": "1998ade1a107302f2d28be2b7e81bb69", "is_disabled": 0, "rental_uris": {"ios": "https://dc.lft.to/lastmile_qr_scan", "android": "https://dc.lft.to/lastmile_qr_scan"}, "is_reserved": 0}, {"lon": -77.03450633333334, "bike_id": "b73675a19e5032721aff472db4654587", "lat": 38.92730516666666, "fusion_lon": 0.0, "fusion_lat": 0.0, "type": "electric_scooter", "name": "b73675a19e5032721aff472db4654587", "is_disabled": 0, "rental_uris": {"ios": "https://dc.lft.to/lastmile_qr_scan", "android": "https://dc.lft.to/lastmile_qr_scan"}, "is_reserved": 0}, {"lon": -77.00104666666667, "bike_id": "f426d6c0b9fed35e6b45ccaab0f4020a", "lat": 38.91630216666667, "fusion_lon": 0.0, "fusion_lat": 0.0, "type": "electric_scooter", "name": "f426d6c0b9fed35e6b45ccaab0f4020a", "is_disabled": 0, "rental_uris": {"ios": "https://dc.lft.to/lastmile_qr_scan", "android": "https://dc.lft.to/lastmile_qr_scan"}, "is_reserved": 0}, {"lon": -77.02445733333333, "bike_id": "7b93aa718dbbfd4177d49069d7d36936", "lat": 38.9071395, "fusion_lon": 0.0, "fusion_lat": 0.0, "type": "electric_scooter", "name": "7b93aa718dbbfd4177d49069d7d36936", "is_disabled": 0, "rental_uris": {"ios": "https://dc.lft.to/lastmile_qr_scan", "android": "https://dc.lft.to/lastmile_qr_scan"}, "is_reserved": 0}, {"lon": -77.04823733333333, "bike_id": "6a758f81a113ea54953612350195137e", "lat": 38.907253, "fusion_lon": 0.0, "fusion_lat": 0.0, "type": "electric_scooter", "name": "6a758f81a113ea54953612350195137e", "is_disabled": 0, "rental_uris": {"ios": "https://dc.lft.to/lastmile_qr_scan", "android": "https://dc.lft.to/lastmile_qr_scan"}, "is_reserved": 0}, {"lon": -77.04741983333334, "bike_id": "eb193f2b56eba83c74f50f362942af23", "lat": 38.9176195, "fusion_lon": 0.0, "fusion_lat": 0.0, "type": "electric_scooter", "name": "eb193f2b56eba83c74f50f362942af23", "is_disabled": 0, "rental_uris": {"ios": "https://dc.lft.to/lastmile_qr_scan", "android": "https://dc.lft.to/lastmile_qr_scan"}, "is_reserved": 0}, {"lon": -76.99813816666666, "bike_id": "8273ab747efa43ec48bf30db6168e44a", "lat": 38.828963333333334, "fusion_lon": 0.0, "fusion_lat": 0.0, "type": "electric_bike", "name": "8273ab747efa43ec48bf30db6168e44a", "is_disabled": 0, "rental_uris": {"ios": "https://dc.lft.to/lastmile_qr_scan", "android": "https://dc.lft.to/lastmile_qr_scan"}, "is_reserved": 0}, {"lon": -77.04337333333334, "bike_id": "7fbfe23e3a0d57ad5a1e3ac2bd9c4c1c", "lat": 38.91577483333333, "fusion_lon": 0.0, "fusion_lat": 0.0, "type": "electric_scooter", "name": "7fbfe23e3a0d57ad5a1e3ac2bd9c4c1c", "is_disabled": 0, "rental_uris": {"ios": "https://dc.lft.to/lastmile_qr_scan", "android": "https://dc.lft.to/lastmile_qr_scan"}, "is_reserved": 0}, {"lon": -77.02082916666667, "bike_id": "0def2d7a85b4fbf54eb58ffc10f08240", "lat": 38.92692816666667, "fusion_lon": 0.0, "fusion_lat": 0.0, "type": "electric_scooter", "name": "0def2d7a85b4fbf54eb58ffc10f08240", "is_disabled": 0, "rental_uris": {"ios": "https://dc.lft.to/lastmile_qr_scan", "android": "https://dc.lft.to/lastmile_qr_scan"}, "is_reserved": 0}, {"lon": -77.02199433333334, "bike_id": "356e6ce410e4350b6f9b00fdd3570098", "lat": 38.91118633333333, "fusion_lon": 0.0, "fusion_lat": 0.0, "type": "electric_scooter", "name": "356e6ce410e4350b6f9b00fdd3570098", "is_disabled": 0, "rental_uris": {"ios": "https://dc.lft.to/lastmile_qr_scan", "android": "https://dc.lft.to/lastmile_qr_scan"}, "is_reserved": 0}, {"lon": -77.03659366666666, "bike_id": "acae838f92fa37bd6c900c501374748f", "lat": 38.920951333333335, "fusion_lon": 0.0, "fusion_lat": 0.0, "type": "electric_scooter", "name": "acae838f92fa37bd6c900c501374748f", "is_disabled": 0, "rental_uris": {"ios": "https://dc.lft.to/lastmile_qr_scan", "android": "https://dc.lft.to/lastmile_qr_scan"}, "is_reserved": 0}, {"lon": -77.01345816666667, "bike_id": "f4e5c4f2c245a1206d4a923b1692a233", "lat": 38.87812916666667, "fusion_lon": 0.0, "fusion_lat": 0.0, "type": "electric_scooter", "name": "f4e5c4f2c245a1206d4a923b1692a233", "is_disabled": 0, "rental_uris": {"ios": "https://dc.lft.to/lastmile_qr_scan", "android": "https://dc.lft.to/lastmile_qr_scan"}, "is_reserved": 0}, {"lon": -76.9871835, "bike_id": "152eacafdff10092e8e5a4ba4ec2694e", "lat": 38.866162, "fusion_lon": 0.0, "fusion_lat": 0.0, "type": "electric_scooter", "name": "152eacafdff10092e8e5a4ba4ec2694e", "is_disabled": 0, "rental_uris": {"ios": "https://dc.lft.to/lastmile_qr_scan", "android": "https://dc.lft.to/lastmile_qr_scan"}, "is_reserved": 0}, {"lon": -77.05429233333334, "bike_id": "ed2ef552ca60e72ce54e3d5024027349", "lat": 38.928386, "fusion_lon": 0.0, "fusion_lat": 0.0, "type": "electric_scooter", "name": "ed2ef552ca60e72ce54e3d5024027349", "is_disabled": 0, "rental_uris": {"ios": "https://dc.lft.to/lastmile_qr_scan", "android": "https://dc.lft.to/lastmile_qr_scan"}, "is_reserved": 0}, {"lon": -77.01760916666667, "bike_id": "7729e69eef48fbf2e20ea548406426ab", "lat": 38.90232783333333, "fusion_lon": 0.0, "fusion_lat": 0.0, "type": "electric_scooter", "name": "7729e69eef48fbf2e20ea548406426ab", "is_disabled": 0, "rental_uris": {"ios": "https://dc.lft.to/lastmile_qr_scan", "android": "https://dc.lft.to/lastmile_qr_scan"}, "is_reserved": 0}, {"lon": -76.96061283333333, "bike_id": "8985f2bc622f57e9d9451c4d54dc8cb5", "lat": 38.884037, "fusion_lon": 0.0, "fusion_lat": 0.0, "type": "electric_bike", "name": "8985f2bc622f57e9d9451c4d54dc8cb5", "is_disabled": 0, "rental_uris": {"ios": "https://dc.lft.to/lastmile_qr_scan", "android": "https://dc.lft.to/lastmile_qr_scan"}, "is_reserved": 0}, {"lon": -77.054939, "bike_id": "e100f16acb7fc9695f5bc10d507b639a", "lat": 38.90844366666666, "fusion_lon": 0.0, "fusion_lat": 0.0, "type": "electric_scooter", "name": "e100f16acb7fc9695f5bc10d507b639a", "is_disabled": 0, "rental_uris": {"ios": "https://dc.lft.to/lastmile_qr_scan", "android": "https://dc.lft.to/lastmile_qr_scan"}, "is_reserved": 0}, {"lon": -77.007485, "bike_id": "1959ddfb194e25a6b99231f451b134e4", "lat": 38.90728766666667, "fusion_lon": 0.0, "fusion_lat": 0.0, "type": "electric_scooter", "name": "1959ddfb194e25a6b99231f451b134e4", "is_disabled": 0, "rental_uris": {"ios": "https://dc.lft.to/lastmile_qr_scan", "android": "https://dc.lft.to/lastmile_qr_scan"}, "is_reserved": 0}, {"lon": -77.0228075, "bike_id": "7e83e12e3ebf05f6a35c6491b19e26b3", "lat": 38.87836016666667, "fusion_lon": 0.0, "fusion_lat": 0.0, "type": "electric_scooter", "name": "7e83e12e3ebf05f6a35c6491b19e26b3", "is_disabled": 0, "rental_uris": {"ios": "https://dc.lft.to/lastmile_qr_scan", "android": "https://dc.lft.to/lastmile_qr_scan"}, "is_reserved": 0}, {"lon": -77.02358, "bike_id": "a680b8edf8233fd270e985500fc86bd7", "lat": 38.89628, "fusion_lon": 0.0, "fusion_lat": 0.0, "type": "electric_scooter", "name": "a680b8edf8233fd270e985500fc86bd7", "is_disabled": 0, "rental_uris": {"ios": "https://dc.lft.to/lastmile_qr_scan", "android": "https://dc.lft.to/lastmile_qr_scan"}, "is_reserved": 0}, {"lon": -77.05885183333334, "bike_id": "4492a26a3453a6fd6c2d8f92f8870b90", "lat": 38.862781166666664, "fusion_lon": 0.0, "fusion_lat": 0.0, "type": "electric_bike", "name": "4492a26a3453a6fd6c2d8f92f8870b90", "is_disabled": 0, "rental_uris": {"ios": "https://dc.lft.to/lastmile_qr_scan", "android": "https://dc.lft.to/lastmile_qr_scan"}, "is_reserved": 0}, {"lon": -77.01730333333333, "bike_id": "ff494a32b7cfbbeee132f41217f6e8b2", "lat": 38.916796166666664, "fusion_lon": 0.0, "fusion_lat": 0.0, "type": "electric_scooter", "name": "ff494a32b7cfbbeee132f41217f6e8b2", "is_disabled": 0, "rental_uris": {"ios": "https://dc.lft.to/lastmile_qr_scan", "android": "https://dc.lft.to/lastmile_qr_scan"}, "is_reserved": 0}, {"lon": -76.98991333333333, "bike_id": "f9aa8ccda90bdad6f793b9e5ddec8477", "lat": 38.933589833333336, "fusion_lon": 0.0, "fusion_lat": 0.0, "type": "electric_scooter", "name": "f9aa8ccda90bdad6f793b9e5ddec8477", "is_disabled": 0, "rental_uris": {"ios": "https://dc.lft.to/lastmile_qr_scan", "android": "https://dc.lft.to/lastmile_qr_scan"}, "is_reserved": 0}, {"lon": -77.02165433333333, "bike_id": "ac1148d0108bd68fde5fc1e14790121d", "lat": 38.950671666666665, "fusion_lon": 0.0, "fusion_lat": 0.0, "type": "electric_scooter", "name": "ac1148d0108bd68fde5fc1e14790121d", "is_disabled": 0, "rental_uris": {"ios": "https://dc.lft.to/lastmile_qr_scan", "android": "https://dc.lft.to/lastmile_qr_scan"}, "is_reserved": 0}, {"lon": -77.01929, "bike_id": "0ccaa6d4f2932164d42cc97cc682c192", "lat": 38.892395666666665, "fusion_lon": 0.0, "fusion_lat": 0.0, "type": "electric_scooter", "name": "0ccaa6d4f2932164d42cc97cc682c192", "is_disabled": 0, "rental_uris": {"ios": "https://dc.lft.to/lastmile_qr_scan", "android": "https://dc.lft.to/lastmile_qr_scan"}, "is_reserved": 0}, {"lon": -77.0074635, "bike_id": "bb88aa07e5d928d66f65c52ff9777119", "lat": 38.89907383333333, "fusion_lon": 0.0, "fusion_lat": 0.0, "type": "electric_scooter", "name": "bb88aa07e5d928d66f65c52ff9777119", "is_disabled": 0, "rental_uris": {"ios": "https://dc.lft.to/lastmile_qr_scan", "android": "https://dc.lft.to/lastmile_qr_scan"}, "is_reserved": 0}, {"lon": -77.02008716666667, "bike_id": "0f0e304a7c9d03ea4e62de0f25494b53", "lat": 38.924148333333335, "fusion_lon": 0.0, "fusion_lat": 0.0, "type": "electric_scooter", "name": "0f0e304a7c9d03ea4e62de0f25494b53", "is_disabled": 0, "rental_uris": {"ios": "https://dc.lft.to/lastmile_qr_scan", "android": "https://dc.lft.to/lastmile_qr_scan"}, "is_reserved": 0}, {"lon": -76.98017533333334, "bike_id": "3a882cb431b3df7b59f5d37ab2e5532d", "lat": 38.853184, "fusion_lon": 0.0, "fusion_lat": 0.0, "type": "electric_bike", "name": "3a882cb431b3df7b59f5d37ab2e5532d", "is_disabled": 0, "rental_uris": {"ios": "https://dc.lft.to/lastmile_qr_scan", "android": "https://dc.lft.to/lastmile_qr_scan"}, "is_reserved": 0}, {"lon": -76.93459983333334, "bike_id": "d07f09fa39294cb2a996a6b18db3ca00", "lat": 38.96964083333334, "fusion_lon": 0.0, "fusion_lat": 0.0, "type": "electric_bike", "name": "d07f09fa39294cb2a996a6b18db3ca00", "is_disabled": 0, "rental_uris": {"ios": "https://dc.lft.to/lastmile_qr_scan", "android": "https://dc.lft.to/lastmile_qr_scan"}, "is_reserved": 0}, {"lon": -77.02426016666666, "bike_id": "997f3f19d6ec62fa52035c6ba393fbb2", "lat": 38.9204435, "fusion_lon": 0.0, "fusion_lat": 0.0, "type": "electric_scooter", "name": "997f3f19d6ec62fa52035c6ba393fbb2", "is_disabled": 0, "rental_uris": {"ios": "https://dc.lft.to/lastmile_qr_scan", "android": "https://dc.lft.to/lastmile_qr_scan"}, "is_reserved": 0}, {"lon": -77.02644716666667, "bike_id": "bbb75a8158032cac2b08718cb0407467", "lat": 38.892179, "fusion_lon": 0.0, "fusion_lat": 0.0, "type": "electric_scooter", "name": "bbb75a8158032cac2b08718cb0407467", "is_disabled": 0, "rental_uris": {"ios": "https://dc.lft.to/lastmile_qr_scan", "android": "https://dc.lft.to/lastmile_qr_scan"}, "is_reserved": 0}, {"lon": -76.9811215, "bike_id": "2a513663e9b8cb780867975c3236b323", "lat": 38.904051, "fusion_lon": 0.0, "fusion_lat": 0.0, "type": "electric_scooter", "name": "2a513663e9b8cb780867975c3236b323", "is_disabled": 0, "rental_uris": {"ios": "https://dc.lft.to/lastmile_qr_scan", "android": "https://dc.lft.to/lastmile_qr_scan"}, "is_reserved": 0}, {"lon": -77.02348183333334, "bike_id": "acb9bfaf4e4c36f055ea8d35ebe28656", "lat": 38.92246566666667, "fusion_lon": 0.0, "fusion_lat": 0.0, "type": "electric_scooter", "name": "acb9bfaf4e4c36f055ea8d35ebe28656", "is_disabled": 0, "rental_uris": {"ios": "https://dc.lft.to/lastmile_qr_scan", "android": "https://dc.lft.to/lastmile_qr_scan"}, "is_reserved": 0}, {"lon": -76.9869375, "bike_id": "a90d0b15ef3601dfc669ca3e694e863d", "lat": 38.91215283333333, "fusion_lon": 0.0, "fusion_lat": 0.0, "type": "electric_scooter", "name": "a90d0b15ef3601dfc669ca3e694e863d", "is_disabled": 0, "rental_uris": {"ios": "https://dc.lft.to/lastmile_qr_scan", "android": "https://dc.lft.to/lastmile_qr_scan"}, "is_reserved": 0}, {"lon": -77.02168716666667, "bike_id": "b15717ffbe06afb14ce7ab0ff230a5c5", "lat": 38.909639166666665, "fusion_lon": 0.0, "fusion_lat": 0.0, "type": "electric_scooter", "name": "b15717ffbe06afb14ce7ab0ff230a5c5", "is_disabled": 0, "rental_uris": {"ios": "https://dc.lft.to/lastmile_qr_scan", "android": "https://dc.lft.to/lastmile_qr_scan"}, "is_reserved": 0}, {"lon": -77.02379766666667, "bike_id": "9744e1d56e0e1c9d5242c0bfabea2f45", "lat": 38.9093665, "fusion_lon": 0.0, "fusion_lat": 0.0, "type": "electric_scooter", "name": "9744e1d56e0e1c9d5242c0bfabea2f45", "is_disabled": 0, "rental_uris": {"ios": "https://dc.lft.to/lastmile_qr_scan", "android": "https://dc.lft.to/lastmile_qr_scan"}, "is_reserved": 0}, {"lon": -76.98173066666666, "bike_id": "0396438f35ab462280382147f4467794", "lat": 38.904394333333336, "fusion_lon": 0.0, "fusion_lat": 0.0, "type": "electric_scooter", "name": "0396438f35ab462280382147f4467794", "is_disabled": 0, "rental_uris": {"ios": "https://dc.lft.to/lastmile_qr_scan", "android": "https://dc.lft.to/lastmile_qr_scan"}, "is_reserved": 0}, {"lon": -77.02154333333333, "bike_id": "1f0d733d582ae5a763715a2b51d3650a", "lat": 38.87921816666667, "fusion_lon": 0.0, "fusion_lat": 0.0, "type": "electric_scooter", "name": "1f0d733d582ae5a763715a2b51d3650a", "is_disabled": 0, "rental_uris": {"ios": "https://dc.lft.to/lastmile_qr_scan", "android": "https://dc.lft.to/lastmile_qr_scan"}, "is_reserved": 0}, {"lon": -77.00566233333333, "bike_id": "217bf519d5504aa98694fbba526793bb", "lat": 38.874697166666664, "fusion_lon": 0.0, "fusion_lat": 0.0, "type": "electric_scooter", "name": "217bf519d5504aa98694fbba526793bb", "is_disabled": 0, "rental_uris": {"ios": "https://dc.lft.to/lastmile_qr_scan", "android": "https://dc.lft.to/lastmile_qr_scan"}, "is_reserved": 0}, {"lon": -77.1048505, "bike_id": "60394852e07f59a10fe9eafd0145270f", "lat": 38.855951833333336, "fusion_lon": 0.0, "fusion_lat": 0.0, "type": "electric_bike", "name": "60394852e07f59a10fe9eafd0145270f", "is_disabled": 0, "rental_uris": {"ios": "https://dc.lft.to/lastmile_qr_scan", "android": "https://dc.lft.to/lastmile_qr_scan"}, "is_reserved": 0}, {"lon": -77.02963883333334, "bike_id": "8bc25b326e7ac51dcf56f400564630e7", "lat": 38.91072233333333, "fusion_lon": 0.0, "fusion_lat": 0.0, "type": "electric_scooter", "name": "8bc25b326e7ac51dcf56f400564630e7", "is_disabled": 0, "rental_uris": {"ios": "https://dc.lft.to/lastmile_qr_scan", "android": "https://dc.lft.to/lastmile_qr_scan"}, "is_reserved": 0}, {"lon": -77.0458535, "bike_id": "1c9aedad7c8b821fdca158d91c25b946", "lat": 38.908525166666664, "fusion_lon": 0.0, "fusion_lat": 0.0, "type": "electric_scooter", "name": "1c9aedad7c8b821fdca158d91c25b946", "is_disabled": 0, "rental_uris": {"ios": "https://dc.lft.to/lastmile_qr_scan", "android": "https://dc.lft.to/lastmile_qr_scan"}, "is_reserved": 0}, {"lon": -77.072973, "bike_id": "dca968cbd0791df59fc998be1034af7e", "lat": 38.9246395, "fusion_lon": 0.0, "fusion_lat": 0.0, "type": "electric_scooter", "name": "dca968cbd0791df59fc998be1034af7e", "is_disabled": 0, "rental_uris": {"ios": "https://dc.lft.to/lastmile_qr_scan", "android": "https://dc.lft.to/lastmile_qr_scan"}, "is_reserved": 0}, {"lon": -76.982344, "bike_id": "1a392b463640506a477578fb02e01e47", "lat": 38.88639466666667, "fusion_lon": 0.0, "fusion_lat": 0.0, "type": "electric_scooter", "name": "1a392b463640506a477578fb02e01e47", "is_disabled": 0, "rental_uris": {"ios": "https://dc.lft.to/lastmile_qr_scan", "android": "https://dc.lft.to/lastmile_qr_scan"}, "is_reserved": 0}, {"lon": -77.022218, "bike_id": "6c3b2426dda5204e9ff09d0a58bd6156", "lat": 38.89967166666667, "fusion_lon": 0.0, "fusion_lat": 0.0, "type": "electric_scooter", "name": "6c3b2426dda5204e9ff09d0a58bd6156", "is_disabled": 0, "rental_uris": {"ios": "https://dc.lft.to/lastmile_qr_scan", "android": "https://dc.lft.to/lastmile_qr_scan"}, "is_reserved": 0},