{"data": {"bikes": [{"name": "b860720ae8d189e720003862912c172b", "fusion_lat": 0.0, "type": "electric_scooter", "lat": 38.874215666666665, "is_reserved": 0, "is_disabled": 0, "fusion_lon": 0.0, "bike_id": "b860720ae8d189e720003862912c172b", "lon": -76.96094316666667, "rental_uris": {"ios": "https://dc.lft.to/lastmile_qr_scan", "android": "https://dc.lft.to/lastmile_qr_scan"}}, {"name": "ce2072dc236e5154bcf5ace397c4cb16", "fusion_lat": 0.0, "type": "electric_scooter", "lat": 38.89375866666666, "is_reserved": 0, "is_disabled": 0, "fusion_lon": 0.0, "bike_id": "ce2072dc236e5154bcf5ace397c4cb16", "lon": -76.94993833333334, "rental_uris": {"ios": "https://dc.lft.to/lastmile_qr_scan", "android": "https://dc.lft.to/lastmile_qr_scan"}}, {"name": "6063738b95fbb8d547ec343f1a8a976a", "fusion_lat": 0.0, "type": "electric_scooter", "lat": 38.9429275, "is_reserved": 0, "is_disabled": 0, "fusion_lon": 0.0, "bike_id": "6063738b95fbb8d547ec343f1a8a976a", "lon": -77.02173483333333, "rental_uris": {"ios": "https://dc.lft.to/lastmile_qr_scan", "android": "https://dc.lft.to/lastmile_qr_scan"}}, {"name": "ab264ba52584a59935d62c886de11ae2", "fusion_lat": 0.0, "type": "electric_scooter", "lat": 38.912698, "is_reserved": 0, "is_disabled": 0, "fusion_lon": 0.0, "bike_id": "ab264ba52584a59935d62c886de11ae2", "lon": -77.026924, "rental_uris": {"ios": "https://dc.lft.to/lastmile_qr_scan", "android": "https://dc.lft.to/lastmile_qr_scan"}}, {"name": "414c57e8e84250b58c5d158e93c9ab2d", "fusion_lat": 0.0, "type": "electric_scooter", "lat": 38.892252666666664, "is_reserved": 0, "is_disabled": 0, "fusion_lon": 0.0, "bike_id": "414c57e8e84250b58c5d158e93c9ab2d", "lon": -77.03021083333333, "rental_uris": {"ios": "https://dc.lft.to/lastmile_qr_scan", "android": "https://dc.lft.to/lastmile_qr_scan"}}, {"name": "541745d87ed7e36378722caf2c31ccb9", "fusion_lat": 0.0, "type": "electric_scooter", "lat": 38.89223916666667, "is_reserved": 0, "is_disabled": 0, "fusion_lon": 0.0, "bike_id": "541745d87ed7e36378722caf2c31ccb9", "lon": -77.02498716666666, "rental_uris": {"ios": "https://dc.lft.to/lastmile_qr_scan", "android": "https://dc.lft.to/lastmile_qr_scan"}}, {"name": "5282e52cb7fadecaf786c6a2383ebb8a", "fusion_lat": 0.0, "type": "electric_bike", "lat": 38.92783266666667, "is_reserved": 0, "is_disabled": 0, "fusion_lon": 0.0, "bike_id": "5282e52cb7fadecaf786c6a2383ebb8a", "lon": -77.05258566666667, "rental_uris": {"ios": "https://dc.lft.to/lastmile_qr_scan", "android": "https://dc.lft.to/lastmile_qr_scan"}}, {"name": "506c462b8d537c2f8cdc3d34c44c4121", "fusion_lat": 0.0, "type": "electric_scooter", "lat": 38.91813033333333, "is_reserved": 0, "is_disabled": 0, "fusion_lon": 0.0, "bike_id": "506c462b8d537c2f8cdc3d34c44c4121", "lon": -77.0400815, "rental_uris": {"ios": "https://dc.lft.to/lastmile_qr_scan", "android": "https://dc.lft.to/lastmile_qr_scan"}}, {"name": "1292e9583764cf6cf30950efe312d56b", "fusion_lat": 0.0, "type": "electric_scooter", "lat": 38.897299, "is_reserved": 0, "is_disabled": 0, "fusion_lon": 0.0, "bike_id": "1292e9583764cf6cf30950efe312d56b", "lon": -77.04652633333333, "rental_uris": {"ios": "https://dc.lft.to/lastmile_qr_scan", "android": "https://dc.lft.to/lastmile_qr_scan"}}, {"name": "7fd1388b22f7cd0f9a57701020dab6cc", "fusion_lat": 0.0, "type": "electric_scooter", "lat": 38.90905516666667, "is_reserved": 0, "is_disabled": 0, "fusion_lon": 0.0, "bike_id": "7fd1388b22f7cd0f9a57701020dab6cc", "lon": -77.027107, "rental_uris": {"ios": "https://dc.lft.to/lastmile_qr_scan", "android": "https://dc.lft.to/lastmile_qr_scan"}}, {"name": "3b651f49144eeaa831bdb8b285e40285", "fusion_lat": 0.0, "type": "electric_scooter", "lat": 38.9023775, "is_reserved": 0, "is_disabled": 0, "fusion_lon": 0.0, "bike_id": "3b651f49144eeaa831bdb8b285e40285", "lon": -77.00200366666667, "rental_uris": {"ios": "https://dc.lft.to/lastmile_qr_scan", "android": "https://dc.lft.to/lastmile_qr_scan"}}, {"name": "9f7d4f3943dfc7d432689e896712b0d2", "fusion_lat": 0.0, "type": "electric_scooter", "lat": 38.93319916666667, "is_reserved": 0, "is_disabled": 0, "fusion_lon": 0.0, "bike_id": "9f7d4f3943dfc7d432689e896712b0d2", "lon": -77.0508785, "rental_uris": {"ios": "https://dc.lft.to/lastmile_qr_scan", "android": "https://dc.lft.to/lastmile_qr_scan"}}, {"name": "eb797ed1383f857667619b0a7565796f", "fusion_lat": 0.0, "type": "electric_scooter", "lat": 38.858386333333335, "is_reserved": 0, "is_disabled": 0, "fusion_lon": 0.0, "bike_id": "eb797ed1383f857667619b0a7565796f", "lon": -76.98897533333333, "rental_uris": {"ios": "https://dc.lft.to/lastmile_qr_scan", "android": "https://dc.lft.to/lastmile_qr_scan"}}, {"name": "cfddfacea38d6c99846dfe1fbf5323b7", "fusion_lat": 0.0, "type": "electric_scooter", "lat": 38.87923133333334, "is_reserved": 0, "is_disabled": 0, "fusion_lon": 0.0, "bike_id": "cfddfacea38d6c99846dfe1fbf5323b7", "lon": -76.99254383333333, "rental_uris": {"ios": "https://dc.lft.to/lastmile_qr_scan", "android": "https://dc.lft.to/lastmile_qr_scan"}}, {"name": "475a8425965ea8e7da5fdc56db7d1f72", "fusion_lat": 0.0, "type": "electric_scooter", "lat": 38.91276516666667, "is_reserved": 0, "is_disabled": 0, "fusion_lon": 0.0, "bike_id": "475a8425965ea8e7da5fdc56db7d1f72", "lon": -77.029698, "rental_uris": {"ios": "https://dc.lft.to/lastmile_qr_scan", "android": "https://dc.lft.to/lastmile_qr_scan"}}, {"name": "8d431258de2ae98c622a5aa04478092b", "fusion_lat": 0.0, "type": "electric_scooter", "lat": 38.937262833333335, "is_reserved": 0, "is_disabled": 0, "fusion_lon": 0.0, "bike_id": "8d431258de2ae98c622a5aa04478092b", "lon": -77.02017333333333, "rental_uris": {"ios": "https://dc.lft.to/lastmile_qr_scan", "android": "https://dc.lft.to/lastmile_qr_scan"}}, {"name": "3b5ae2f131aa64c3130fad60c2de6f68", "fusion_lat": 0.0, "type": "electric_scooter", "lat": 38.909812, "is_reserved": 0, "is_disabled": 0, "fusion_lon": 0.0, "bike_id": "3b5ae2f131aa64c3130fad60c2de6f68", "lon": -77.067145, "rental_uris": {"ios": "https://dc.lft.to/lastmile_qr_scan", "android": "https://dc.lft.to/lastmile_qr_scan"}}, {"name": "91fce09f4351b111d3d39b12ebd95405", "fusion_lat": 0.0, "type": "electric_scooter", "lat": 38.913357500000004, "is_reserved": 0, "is_disabled": 0, "fusion_lon": 0.0, "bike_id": "91fce09f4351b111d3d39b12ebd95405", "lon": -77.00228333333334, "rental_uris": {"ios": "https://dc.lft.to/lastmile_qr_scan", "android": "https://dc.lft.to/lastmile_qr_scan"}}, {"name": "bf41faa8984551c04a29e276e1a7208f", "fusion_lat": 0.0, "type": "electric_bike", "lat": 38.8616245, "is_reserved": 0, "is_disabled": 0, "fusion_lon": 0.0, "bike_id": "bf41faa8984551c04a29e276e1a7208f", "lon": -77.13097233333333, "rental_uris": {"ios": "https://dc.lft.to/lastmile_qr_scan", "android": "https://dc.lft.to/lastmile_qr_scan"}}, {"name": "8311a97483263dd60e6307383c576335", "fusion_lat": 0.0, "type": "electric_scooter", "lat": 38.905665666666664, "is_reserved": 0, "is_disabled": 0, "fusion_lon": 0.0, "bike_id": "8311a97483263dd60e6307383c576335", "lon": -77.018177, "rental_uris": {"ios": "https://dc.lft.to/lastmile_qr_scan", "android": "https://dc.lft.to/lastmile_qr_scan"}}, {"name": "6e47fae52ae4ef47e600aa9b93134dcd", "fusion_lat": 0.0, "type": "electric_scooter", "lat": 38.902483, "is_reserved": 0, "is_disabled": 0, "fusion_lon": 0.0, "bike_id": "6e47fae52ae4ef47e600aa9b93134dcd", "lon": -77.03070283333334, "rental_uris": {"ios": "https://dc.lft.to/lastmile_qr_scan", "android": "https://dc.lft.to/lastmile_qr_scan"}}, {"name": "46b703211323c1b9b7374faf1aadd3a4", "fusion_lat": 0.0, "type": "electric_scooter", "lat": 38.883098, "is_reserved": 0, "is_disabled": 0, "fusion_lon": 0.0, "bike_id": "46b703211323c1b9b7374faf1aadd3a4", "lon": -77.02330316666666, "rental_uris": {"ios": "https://dc.lft.to/lastmile_qr_scan", "android": "https://dc.lft.to/lastmile_qr_scan"}}, {"name": "5ddfdf5b63938c4155b6b35b8f1b1209", "fusion_lat": 0.0, "type": "electric_scooter", "lat": 38.8857975, "is_reserved": 0, "is_disabled": 0, "fusion_lon": 0.0, "bike_id": "5ddfdf5b63938c4155b6b35b8f1b1209", "lon": -77.02003083333334, "rental_uris": {"ios": "https://dc.lft.to/lastmile_qr_scan", "android": "https://dc.lft.to/lastmile_qr_scan"}}, {"name": "174e24b05df6bc42923b5d164cf03d2d", "fusion_lat": 0.0, "type": "electric_scooter", "lat": 38.921788, "is_reserved": 0, "is_disabled": 0, "fusion_lon": 0.0, "bike_id": "174e24b05df6bc42923b5d164cf03d2d", "lon": -77.0266355, "rental_uris": {"ios": "https://dc.lft.to/lastmile_qr_scan", "android": "https://dc.lft.to/lastmile_qr_scan"}}, {"name": "119ae7746cbb75cc222d2426fe153fc1", "fusion_lat": 0.0, "type": "electric_scooter", "lat": 38.92066, "is_reserved": 0, "is_disabled": 0, "fusion_lon": 0.0, "bike_id": "119ae7746cbb75cc222d2426fe153fc1", "lon": -77.03197533333334, "rental_uris": {"ios": "https://dc.lft.to/lastmile_qr_scan", "android": "https://dc.lft.to/lastmile_qr_scan"}}, {"name": "226d5bef40bd2146c3a8fed1ec6206e1", "fusion_lat": 0.0, "type": "electric_bike", "lat": 38.9675885, "is_reserved": 0, "is_disabled": 0, "fusion_lon": 0.0, "bike_id": "226d5bef40bd2146c3a8fed1ec6206e1", "lon": -77.09159383333333, "rental_uris": {"ios": "https://dc.lft.to/lastmile_qr_scan", "android": "https://dc.lft.to/lastmile_qr_scan"}}, {"name": "a07eabd592c542bbdc6e9152b598130a", "fusion_lat": 0.0, "type": "electric_scooter", "lat": 38.89731916666667, "is_reserved": 0, "is_disabled": 0, "fusion_lon": 0.0, "bike_id": "a07eabd592c542bbdc6e9152b598130a", "lon": -77.04952866666666, "rental_uris": {"ios": "https://dc.lft.to/lastmile_qr_scan", "android": "https://dc.lft.to/lastmile_qr_scan"}}, {"name": "21183a5bd840ef1e9f33759f89d83d05", "fusion_lat": 0.0, "type": "electric_scooter", "lat": 38.914067, "is_reserved": 0, "is_disabled": 0, "fusion_lon": 0.0, "bike_id": "21183a5bd840ef1e9f33759f89d83d05", "lon": -77.00805183333334, "rental_uris": {"ios": "https://dc.lft.to/lastmile_qr_scan", "android": "https://dc.lft.to/lastmile_qr_scan"}}, {"name": "d43495326d8cfb65b0800553586a0c5e", "fusion_lat": 0.0, "type": "electric_scooter", "lat": 38.9147405, "is_reserved": 0, "is_disabled": 0, "fusion_lon": 0.0, "bike_id": "d43495326d8cfb65b0800553586a0c5e", "lon": -76.9810955, "rental_uris": {"ios": "https://dc.lft.to/lastmile_qr_scan", "android": "https://dc.lft.to/lastmile_qr_scan"}}, {"name": "1c5aa4c27428a8b79beeca58b6dd57ae", "fusion_lat": 0.0, "type": "electric_scooter", "lat": 38.90114533333333, "is_reserved": 0, "is_disabled": 0, "fusion_lon": 0.0, "bike_id": "1c5aa4c27428a8b79beeca58b6dd57ae", "lon": -77.04985233333333, "rental_uris": {"ios": "https://dc.lft.to/lastmile_qr_scan", "android": "https://dc.lft.to/lastmile_qr_scan"}}, {"name": "e7bb4983543281fef6bffd89b565d295", "fusion_lat": 0.0, "type": "electric_scooter", "lat": 38.90266866666666, "is_reserved": 0, "is_disabled": 0, "fusion_lon": 0.0, "bike_id": "e7bb4983543281fef6bffd89b565d295", "lon": -77.04366016666667, "rental_uris": {"ios": "https://dc.lft.to/lastmile_qr_scan", "android": "https://dc.lft.to/lastmile_qr_scan"}}, {"name": "e894ea1d2dfc0b7b4ff0668f8cc29dc6", "fusion_lat": 0.0, "type": "electric_scooter", "lat": 38.923672333333336, "is_reserved": 0, "is_disabled": 0, "fusion_lon": 0.0, "bike_id": "e894ea1d2dfc0b7b4ff0668f8cc29dc6", "lon": -77.05134433333333, "rental_uris": {"ios": "https://dc.lft.to/lastmile_qr_scan", "android": "https://dc.lft.to/lastmile_qr_scan"}}, {"name": "72b1a5a3b3b50f4012ff0f3b5ce6209f", "fusion_lat": 0.0, "type": "electric_bike", "lat": 38.881169, "is_reserved": 0, "is_disabled": 0, "fusion_lon": 0.0, "bike_id": "72b1a5a3b3b50f4012ff0f3b5ce6209f", "lon": -77.11446133333334, "rental_uris": {"ios": "https://dc.lft.to/lastmile_qr_scan", "android": "https://dc.lft.to/lastmile_qr_scan"}}, {"name": "925eab25dfbfdf777173b41565648782", "fusion_lat": 0.0, "type": "electric_scooter", "lat": 38.860763666666664, "is_reserved": 0, "is_disabled": 0, "fusion_lon": 0.0, "bike_id": "925eab25dfbfdf777173b41565648782", "lon": -76.96742866666666, "rental_uris": {"ios": "https://dc.lft.to/lastmile_qr_scan", "android": "https://dc.lft.to/lastmile_qr_scan"}}, {"name": "fbece645078a32634d39a22f15384a01", "fusion_lat": 0.0, "type": "electric_scooter", "lat": 38.9221085, "is_reserved": 0, "is_disabled": 0, "fusion_lon": 0.0, "bike_id": "fbece645078a32634d39a22f15384a01", "lon": -77.043149, "rental_uris": {"ios": "https://dc.lft.to/lastmile_qr_scan", "android": "https://dc.lft.to/lastmile_qr_scan"}}, {"name": "288fc382782ef9061771f0114e516529", "fusion_lat": 0.0, "type": "electric_scooter", "lat": 38.932483166666664, "is_reserved": 0, "is_disabled": 0, "fusion_lon": 0.0, "bike_id": "288fc382782ef9061771f0114e516529", "lon": -77.02026816666667, "rental_uris": {"ios": "https://dc.lft.to/lastmile_qr_scan", "android": "https://dc.lft.to/lastmile_qr_scan"}}, {"name": "b2be7611b9ab73633021cbaffccf3f74", "fusion_lat": 0.0, "type": "electric_scooter", "lat": 38.934565166666665, "is_reserved": 0, "is_disabled": 0, "fusion_lon": 0.0, "bike_id": "b2be7611b9ab73633021cbaffccf3f74", "lon": -77.0291645, "rental_uris": {"ios": "https://dc.lft.to/lastmile_qr_scan", "android": "https://dc.lft.to/lastmile_qr_scan"}}, {"name": "dfbfc1f710efe3548b7e6ea4b4efbe4f", "fusion_lat": 0.0, "type": "electric_scooter", "lat": 38.88604616666667, "is_reserved": 0, "is_disabled": 0, "fusion_lon": 0.0, "bike_id": "dfbfc1f710efe3548b7e6ea4b4efbe4f", "lon": -77.0220205, "rental_uris": {"ios": "https://dc.lft.to/lastmile_qr_scan", "android": "https://dc.lft.to/lastmile_qr_scan"}}, {"name": "ff74d8a7edbc1b1a666dfa65e0b26e49", "fusion_lat": 0.0, "type": "electric_scooter", "lat": 38.90533466666667, "is_reserved": 0, "is_disabled": 0, "fusion_lon": 0.0, "bike_id": "ff74d8a7edbc1b1a666dfa65e0b26e49", "lon": -77.0500495, "rental_uris": {"ios": "https://dc.lft.to/lastmile_qr_scan", "android": "https://dc.lft.to/lastmile_qr_scan"}}, {"name": "76259507d50d15a435b7575721a20ecd", "fusion_lat": 0.0, "type": "electric_scooter", "lat": 38.93539083333334, "is_reserved": 0, "is_disabled": 0, "fusion_lon": 0.0, "bike_id": "76259507d50d15a435b7575721a20ecd", "lon": -77.03428183333334, "rental_uris": {"ios": "https://dc.lft.to/lastmile_qr_scan", "android": "https://dc.lft.to/lastmile_qr_scan"}}, {"name": "4b3b84e3e77ef351048f46fbe9a94b95", "fusion_lat": 0.0, "type": "electric_scooter", "lat": 38.921252833333334, "is_reserved": 0, "is_disabled": 0, "fusion_lon": 0.0, "bike_id": "4b3b84e3e77ef351048f46fbe9a94b95", "lon": -77.0411685, "rental_uris": {"ios": "https://dc.lft.to/lastmile_qr_scan", "android": "https://dc.lft.to/lastmile_qr_scan"}}, {"name": "25121252d3468a6f381062413eac7ef9", "fusion_lat": 0.0, "type": "electric_scooter", "lat": 38.89797, "is_reserved": 0, "is_disabled": 0, "fusion_lon": 0.0, "bike_id": "25121252d3468a6f381062413eac7ef9", "lon": -76.94419333333333, "rental_uris": {"ios": "https://dc.lft.to/lastmile_qr_scan", "android": "https://dc.lft.to/lastmile_qr_scan"}}, {"name": "d8ad82b14a22dfb31bb6f9037afb724f", "fusion_lat": 0.0, "type": "electric_scooter", "lat": 38.912693833333336, "is_reserved": 0, "is_disabled": 0, "fusion_lon": 0.0, "bike_id": "d8ad82b14a22dfb31bb6f9037afb724f", "lon": -77.0221555, "rental_uris": {"ios": "https://dc.lft.to/lastmile_qr_scan", "android": "https://dc.lft.to/lastmile_qr_scan"}}, {"name": "7833855e89e77a3bbd4a3a8a6dfa0b88", "fusion_lat": 0.0, "type": "electric_scooter", "lat": 38.90676966666667, "is_reserved": 0, "is_disabled": 0, "fusion_lon": 0.0, "bike_id": "7833855e89e77a3bbd4a3a8a6dfa0b88", "lon": -77.03841916666667, "rental_uris": {"ios": "https://dc.lft.to/lastmile_qr_scan", "android": "https://dc.lft.to/lastmile_qr_scan"}}, {"name": "73472943c8c3295cab96bd72a73cac7c", "fusion_lat": 0.0, "type": "electric_scooter", "lat": 38.937028166666664, "is_reserved": 0, "is_disabled": 0, "fusion_lon": 0.0, "bike_id": "73472943c8c3295cab96bd72a73cac7c", "lon": -77.02398783333334, "rental_uris": {"ios": "https://dc.lft.to/lastmile_qr_scan", "android": "https://dc.lft.to/lastmile_qr_scan"}}, {"name": "28431bd204c528d400f2f6157f8fea80", "fusion_lat": 0.0, "type": "electric_scooter", "lat": 38.91837266666667, "is_reserved": 0, "is_disabled": 0, "fusion_lon": 0.0, "bike_id": "28431bd204c528d400f2f6157f8fea80", "lon": -77.02434233333334, "rental_uris": {"ios": "https://dc.lft.to/lastmile_qr_scan", "android": "https://dc.lft.to/lastmile_qr_scan"}}, {"name": "749a1acdadfa7ea5a669d9bc6d709d02", "fusion_lat": 0.0, "type": "electric_bike", "lat": 38.964986833333334, "is_reserved": 0, "is_disabled": 0, "fusion_lon": 0.0, "bike_id": "749a1acdadfa7ea5a669d9bc6d709d02", "lon": -77.064943, "rental_uris": {"ios": "https://dc.lft.to/lastmile_qr_scan", "android": "https://dc.lft.to/lastmile_qr_scan"}}, {"name": "31e041b459755bfcce3e6a68de056b4d", "fusion_lat": 0.0, "type": "electric_scooter", "lat": 38.9123875, "is_reserved": 0, "is_disabled": 0, "fusion_lon": 0.0, "bike_id": "31e041b459755bfcce3e6a68de056b4d", "lon": -77.009214, "rental_uris": {"ios": "https://dc.lft.to/lastmile_qr_scan", "android": "https://dc.lft.to/lastmile_qr_scan"}}, {"name": "37e9e4360f36204ab54c3fcc34030d11", "fusion_lat": 0.0, "type": "electric_scooter", "lat": 38.906883666666666, "is_reserved": 0, "is_disabled": 0, "fusion_lon": 0.0, "bike_id": "37e9e4360f36204ab54c3fcc34030d11", "lon": -77.04157916666666, "rental_uris": {"ios": "https://dc.lft.to/lastmile_qr_scan", "android": "https://dc.lft.to/lastmile_qr_scan"}}, {"name": "975c6ec7933cc38bc4e5b79f2a89eba0", "fusion_lat": 0.0, "type": "electric_scooter", "lat": 38.92336316666667, "is_reserved": 0, "is_disabled": 0, "fusion_lon": 0.0, "bike_id": "975c6ec7933cc38bc4e5b79f2a89eba0", "lon": -77.03665166666667, "rental_uris": {"ios": "https://dc.lft.to/lastmile_qr_scan", "android": "https://dc.lft.to/lastmile_qr_scan"}}, {"name": "f7e90c385f2d8c8410d6bd7cb949b00c", "fusion_lat": 0.0, "type": "electric_scooter", "lat": 38.90281183333333, "is_reserved": 0, "is_disabled": 0, "fusion_lon": 0.0, "bike_id": "f7e90c385f2d8c8410d6bd7cb949b00c", "lon": -76.998635, "rental_uris": {"ios": "https://dc.lft.to/lastmile_qr_scan", "android": "https://dc.lft.to/lastmile_qr_scan"}}, {"name": "d5d4413c7c5dd273082c58d518d3b2ad", "fusion_lat": 0.0, "type": "electric_scooter", "lat": 38.922384, "is_reserved": 0, "is_disabled": 0, "fusion_lon": 0.0, "bike_id": "d5d4413c7c5dd273082c58d518d3b2ad", "lon": -77.029863, "rental_uris": {"ios": "https://dc.lft.to/lastmile_qr_scan", "android": "https://dc.lft.to/lastmile_qr_scan"}}, {"name": "0fb1cd1359ad706450bd6392e6d9b952", "fusion_lat": 0.0, "type": "electric_scooter", "lat": 38.92149, "is_reserved": 0, "is_disabled": 0, "fusion_lon": 0.0, "bike_id": "0fb1cd1359ad706450bd6392e6d9b952", "lon": -77.04117916666667, "rental_uris": {"ios": "https://dc.lft.to/lastmile_qr_scan", "android": "https://dc.lft.to/lastmile_qr_scan"}}, {"name": "b1b2254de5d30d3bdba95da26c1c1cb8", "fusion_lat": 0.0, "type": "electric_scooter", "lat": 38.926864333333334, "is_reserved": 0, "is_disabled": 0, "fusion_lon": 0.0, "bike_id": "b1b2254de5d30d3bdba95da26c1c1cb8", "lon": -77.02303183333333, "rental_uris": {"ios": "https://dc.lft.to/lastmile_qr_scan", "android": "https://dc.lft.to/lastmile_qr_scan"}}, {"name": "1f2ef506417c7a615782f21acfd3d9b6", "fusion_lat": 0.0, "type": "electric_scooter", "lat": 38.926228333333334, "is_reserved": 0, "is_disabled": 0, "fusion_lon": 0.0, "bike_id": "1f2ef506417c7a615782f21acfd3d9b6", "lon": -77.04409733333334, "rental_uris": {"ios": "https://dc.lft.to/lastmile_qr_scan", "android": "https://dc.lft.to/lastmile_qr_scan"}}, {"name": "3dabc3778113ce5c88304d7f5ad147fd", "fusion_lat": 0.0, "type": "electric_scooter", "lat": 38.92186516666666, "is_reserved": 0, "is_disabled": 0, "fusion_lon": 0.0, "bike_id": "3dabc3778113ce5c88304d7f5ad147fd", "lon": -77.03890933333334, "rental_uris": {"ios": "https://dc.lft.to/lastmile_qr_scan", "android": "https://dc.lft.to/lastmile_qr_scan"}}, {"name": "d59949cf76fc0ef4b15e83a3040143af", "fusion_lat": 0.0, "type": "electric_scooter", "lat": 38.9180215, "is_reserved": 0, "is_disabled": 0, "fusion_lon": 0.0, "bike_id": "d59949cf76fc0ef4b15e83a3040143af", "lon": -77.04616616666667, "rental_uris": {"ios": "https://dc.lft.to/lastmile_qr_scan", "android": "https://dc.lft.to/lastmile_qr_scan"}}, {"name": "517d2b5a5f9ca92cc8a4f9a211b1d745", "fusion_lat": 0.0, "type": "electric_scooter", "lat": 38.92182233333333, "is_reserved": 0, "is_disabled": 0, "fusion_lon": 0.0, "bike_id": "517d2b5a5f9ca92cc8a4f9a211b1d745", "lon": -77.04282366666666, "rental_uris": {"ios": "https://dc.lft.to/lastmile_qr_scan", "android": "https://dc.lft.to/lastmile_qr_scan"}}, {"name": "9cabbaf10f57ec781e75a4374c0b1e1b", "fusion_lat": 0.0, "type": "electric_scooter", "lat": 38.940642833333335, "is_reserved": 0, "is_disabled": 0, "fusion_lon": 0.0, "bike_id": "9cabbaf10f57ec781e75a4374c0b1e1b", "lon": -77.02962166666667, "rental_uris": {"ios": "https://dc.lft.to/lastmile_qr_scan", "android": "https://dc.lft.to/lastmile_qr_scan"}}, {"name": "eebbfe06e38665ab65262ee6747fed04", "fusion_lat": 0.0, "type": "electric_scooter", "lat": 38.91274966666667, "is_reserved": 0, "is_disabled": 0, "fusion_lon": 0.0, "bike_id": "eebbfe06e38665ab65262ee6747fed04", "lon": -77.01379733333333, "rental_uris": {"ios": "https://dc.lft.to/lastmile_qr_scan", "android": "https://dc.lft.to/lastmile_qr_scan"}}, {"name": "7af4ea141e88a36bd9b5fd81cbf2820b", "fusion_lat": 0.0, "type": "electric_scooter", "lat": 38.89000583333333, "is_reserved": 0, "is_disabled": 0, "fusion_lon": 0.0, "bike_id": "7af4ea141e88a36bd9b5fd81cbf2820b", "lon": -77.04903316666666, "rental_uris": {"ios": "https://dc.lft.to/lastmile_qr_scan", "android": "https://dc.lft.to/lastmile_qr_scan"}}, {"name": "a0e49609ca8a65b0cc26261be092fa19", "fusion_lat": 0.0, "type": "electric_scooter", "lat": 38.907382166666665, "is_reserved": 0, "is_disabled": 0, "fusion_lon": 0.0, "bike_id": "a0e49609ca8a65b0cc26261be092fa19", "lon": -77.026947, "rental_uris": {"ios": "https://dc.lft.to/lastmile_qr_scan", "android": "https://dc.lft.to/lastmile_qr_scan"}}, {"name": "bfc17731bf4ff155b9e9cff5df2d00bc", "fusion_lat": 0.0, "type": "electric_scooter", "lat": 38.912824, "is_reserved": 0, "is_disabled": 0, "fusion_lon": 0.0, "bike_id": "bfc17731bf4ff155b9e9cff5df2d00bc", "lon": -77.0449995, "rental_uris": {"ios": "https://dc.lft.to/lastmile_qr_scan", "android": "https://dc.lft.to/lastmile_qr_scan"}}, {"name": "a3d5eb204b2d52b3f3b85e3bdd27a08b", "fusion_lat": 0.0, "type": "electric_scooter", "lat": 38.919381333333334, "is_reserved": 0, "is_disabled": 0, "fusion_lon": 0.0, "bike_id": "a3d5eb204b2d52b3f3b85e3bdd27a08b", "lon": -77.02335066666667, "rental_uris": {"ios": "https://dc.lft.to/lastmile_qr_scan", "android": "https://dc.lft.to/lastmile_qr_scan"}}, {"name": "3e7370a20c3ab09cf6a312f19a3c1819", "fusion_lat": 0.0, "type": "electric_scooter", "lat": 38.930332666666665, "is_reserved": 0, "is_disabled": 0, "fusion_lon": 0.0, "bike_id": "3e7370a20c3ab09cf6a312f19a3c1819", "lon": -77.02959016666667, "rental_uris": {"ios": "https://dc.lft.to/lastmile_qr_scan", "android": "https://dc.lft.to/lastmile_qr_scan"}}, {"name": "6600008a372cc8f95a207d075aca863b", "fusion_lat": 0.0, "type": "electric_scooter", "lat": 38.90604866666666, "is_reserved": 0, "is_disabled": 0, "fusion_lon": 0.0, "bike_id": "6600008a372cc8f95a207d075aca863b", "lon": -77.04689883333333, "rental_uris": {"ios": "https://dc.lft.to/lastmile_qr_scan", "android": "https://dc.lft.to/lastmile_qr_scan"}}, {"name": "ac127b37962bb04809042fb694cedf18", "fusion_lat": 0.0, "type": "electric_scooter", "lat": 38.9004315, "is_reserved": 0, "is_disabled": 0, "fusion_lon": 0.0, "bike_id": "ac127b37962bb04809042fb694cedf18", "lon": -76.9191735, "rental_uris": {"ios": "https://dc.lft.to/lastmile_qr_scan", "android": "https://dc.lft.to/lastmile_qr_scan"}}, {"name": "605c5fa1c728ac311831806be299e189", "fusion_lat": 0.0, "type": "electric_scooter", "lat": 38.900194, "is_reserved": 0, "is_disabled": 0, "fusion_lon": 0.0, "bike_id": "605c5fa1c728ac311831806be299e189", "lon": -77.01184183333334, "rental_uris": {"ios": "https://dc.lft.to/lastmile_qr_scan", "android": "https://dc.lft.to/lastmile_qr_scan"}}, {"name": "cbe7c5e7508bf2d169f2d217529ecf57", "fusion_lat": 0.0, "type": "electric_scooter", "lat": 38.890236333333334, "is_reserved": 0, "is_disabled": 0, "fusion_lon": 0.0, "bike_id": "cbe7c5e7508bf2d169f2d217529ecf57", "lon": -76.93499216666666, "rental_uris": {"ios": "https://dc.lft.to/lastmile_qr_scan", "android": "https://dc.lft.to/lastmile_qr_scan"}}, {"name": "f1096b13f73006cccdfe56e56010ff44", "fusion_lat": 0.0, "type": "electric_scooter", "lat": 38.90522283333333, "is_reserved": 0, "is_disabled": 0, "fusion_lon": 0.0, "bike_id": "f1096b13f73006cccdfe56e56010ff44", "lon": -77.05000266666667, "rental_uris": {"ios": "https://dc.lft.to/lastmile_qr_scan", "android": "https://dc.lft.to/lastmile_qr_scan"}}, {"name": "49fde8c39588e028ce3c7d0bb193fa3d", "fusion_lat": 0.0, "type": "electric_scooter", "lat": 38.91806483333333, "is_reserved": 0, "is_disabled": 0, "fusion_lon": 0.0, "bike_id": "49fde8c39588e028ce3c7d0bb193fa3d", "lon": -77.028153, "rental_uris": {"ios": "https://dc.lft.to/lastmile_qr_scan", "android": "https://dc.lft.to/lastmile_qr_scan"}}, {"name": "956c4658a41c44f76e60d5d8651b05a6", "fusion_lat": 0.0, "type": "electric_scooter", "lat": 38.903614166666664, "is_reserved": 0, "is_disabled": 0, "fusion_lon": 0.0, "bike_id": "956c4658a41c44f76e60d5d8651b05a6", "lon": -77.03848033333334, "rental_uris": {"ios": "https://dc.lft.to/lastmile_qr_scan", "android": "https://dc.lft.to/lastmile_qr_scan"}}, {"name": "118f4cf41492b1ec4aef62ab3282cb25", "fusion_lat": 0.0, "type": "electric_scooter", "lat": 38.93397266666667, "is_reserved": 0, "is_disabled": 0, "fusion_lon": 0.0, "bike_id": "118f4cf41492b1ec4aef62ab3282cb25", "lon": -77.03160016666666, "rental_uris": {"ios": "https://dc.lft.to/lastmile_qr_scan", "android": "https://dc.lft.to/lastmile_qr_scan"}}, {"name": "3289107389d6c76e1b1c1bcdb6e2479d", "fusion_lat": 0.0, "type": "electric_scooter", "lat": 38.8764585, "is_reserved": 0, "is_disabled": 0, "fusion_lon": 0.0, "bike_id": "3289107389d6c76e1b1c1bcdb6e2479d", "lon": -76.96507583333333, "rental_uris": {"ios": "https://dc.lft.to/lastmile_qr_scan", "android": "https://dc.lft.to/lastmile_qr_scan"}}, {"name": "0e1d90f658f1869145b0623211bafbd7", "fusion_lat": 0.0, "type": "electric_scooter", "lat": 38.926018166666665, "is_reserved": 0, "is_disabled": 0, "fusion_lon": 0.0, "bike_id": "0e1d90f658f1869145b0623211bafbd7", "lon": -77.02155966666666, "rental_uris": {"ios": "https://dc.lft.to/lastmile_qr_scan", "android": "https://dc.lft.to/lastmile_qr_scan"}}, {"name": "04de175e49ea48e8c9b10e8891ff7501", "fusion_lat": 0.0, "type": "electric_bike", "lat": 38.97382966666667, "is_reserved": 0, "is_disabled": 0, "fusion_lon": 0.0, "bike_id": "04de175e49ea48e8c9b10e8891ff7501", "lon": -77.06475716666667, "rental_uris": {"ios": "https://dc.lft.to/lastmile_qr_scan", "android": "https://dc.lft.to/lastmile_qr_scan"}}, {"name": "ef08ef4463d8dedb73470327098be74b", "fusion_lat": 0.0, "type": "electric_scooter", "lat": 38.914171833333334, "is_reserved": 0, "is_disabled": 0, "fusion_lon": 0.0, "bike_id": "ef08ef4463d8dedb73470327098be74b", "lon": -77.02210283333334, "rental_uris": {"ios": "https://dc.lft.to/lastmile_qr_scan", "android": "https://dc.lft.to/lastmile_qr_scan"}}, {"name": "2bb1cc6b6f40e85a06354fdf4ddea59b", "fusion_lat": 0.0, "type": "electric_scooter", "lat": 38.9370925, "is_reserved": 0, "is_disabled": 0, "fusion_lon": 0.0, "bike_id": "2bb1cc6b6f40e85a06354fdf4ddea59b", "lon": -77.061054, "rental_uris": {"ios": "https://dc.lft.to/lastmile_qr_scan", "android": "https://dc.lft.to/lastmile_qr_scan"}}, {"name": "cca1b7c033ec535b0ec614c7226830c9", "fusion_lat": 0.0, "type": "electric_scooter", "lat": 38.87660066666667, "is_reserved": 0, "is_disabled": 0, "fusion_lon": 0.0, "bike_id": "cca1b7c033ec535b0ec614c7226830c9", "lon": -77.00411933333334, "rental_uris": {"ios": "https://dc.lft.to/lastmile_qr_scan", "android": "https://dc.lft.to/lastmile_qr_scan"}}, {"name": "6dd0906d3c5049079d77dfcb5641afa2", "fusion_lat": 0.0, "type": "electric_bike", "lat": 38.99911266666667, "is_reserved": 0, "is_disabled": 0, "fusion_lon": 0.0, "bike_id": "6dd0906d3c5049079d77dfcb5641afa2", "lon": -77.0461855, "rental_uris": {"ios": "https://dc.lft.to/lastmile_qr_scan", "android": "https://dc.lft.to/lastmile_qr_scan"}}, {"name": "ab20781159406779298a8cd25ac946d9", "fusion_lat": 0.0, "type": "electric_scooter", "lat": 38.933096, "is_reserved": 0, "is_disabled": 0, "fusion_lon": 0.0, "bike_id": "ab20781159406779298a8cd25ac946d9", "lon": -77.03081683333333, "rental_uris": {"ios": "https://dc.lft.to/lastmile_qr_scan", "android": "https://dc.lft.to/lastmile_qr_scan"}}, {"name": "915dde5d969466d667f3154a478e2051", "fusion_lat": 0.0, "type": "electric_scooter", "lat": 38.87660733333333, "is_reserved": 0, "is_disabled": 0, "fusion_lon": 0.0, "bike_id": "915dde5d969466d667f3154a478e2051", "lon": -77.00072533333334, "rental_uris": {"ios": "https://dc.lft.to/lastmile_qr_scan", "android": "https://dc.lft.to/lastmile_qr_scan"}}, {"name": "a683ca649f656d412245dbbe7cfec304", "fusion_lat": 0.0, "type": "electric_scooter", "lat": 38.90908116666667, "is_reserved": 0, "is_disabled": 0, "fusion_lon": 0.0, "bike_id": "a683ca649f656d412245dbbe7cfec304", "lon": -77.027086, "rental_uris": {"ios": "https://dc.lft.to/lastmile_qr_scan", "android": "https://dc.lft.to/lastmile_qr_scan"}}, {"name": "72f836426935055d2d55b27161ffcbe7", "fusion_lat": 0.0, "type": "electric_scooter", "lat": 38.922240333333335, "is_reserved": 0, "is_disabled": 0, "fusion_lon": 0.0, "bike_id": "72f836426935055d2d55b27161ffcbe7", "lon": -77.04710566666667, "rental_uris": {"ios": "https://dc.lft.to/lastmile_qr_scan", "android": "https://dc.lft.to/lastmile_qr_scan"}}, {"name": "2f8aac922a5c291fa3b49cd13aa987f7", "fusion_lat": 0.0, "type": "electric_scooter", "lat": 38.8832005, "is_reserved": 0, "is_disabled": 0, "fusion_lon": 0.0, "bike_id": "2f8aac922a5c291fa3b49cd13aa987f7", "lon": -77.00599916666667, "rental_uris": {"ios": "https://dc.lft.to/lastmile_qr_scan", "android": "https://dc.lft.to/lastmile_qr_scan"}}, {"name": "b234fedbbf17f34953918fd0a198638c", "fusion_lat": 0.0, "type": "electric_scooter", "lat": 38.896026166666665, "is_reserved": 0, "is_disabled": 0, "fusion_lon": 0.0, "bike_id": "b234fedbbf17f34953918fd0a198638c", "lon": -77.02710333333333, "rental_uris": {"ios": "https://dc.lft.to/lastmile_qr_scan", "android": "https://dc.lft.to/lastmile_qr_scan"}}, {"name": "0b1502615127def5006eed3e8de5420b", "fusion_lat": 0.0, "type": "electric_scooter", "lat": 38.879032, "is_reserved": 0, "is_disabled": 0, "fusion_lon": 0.0, "bike_id": "0b1502615127def5006eed3e8de5420b", "lon": -77.00582433333334, "rental_uris": {"ios": "https://dc.lft.to/lastmile_qr_scan", "android": "https://dc.lft.to/lastmile_qr_scan"}}, {"name": "751dcd4e1c6b583da0215437d9b4d172", "fusion_lat": 0.0, "type": "electric_scooter", "lat": 38.92758166666667, "is_reserved": 0, "is_disabled": 0, "fusion_lon": 0.0, "bike_id": "751dcd4e1c6b583da0215437d9b4d172", "lon": -77.03271266666667, "rental_uris": {"ios": "https://dc.lft.to/lastmile_qr_scan", "android": "https://dc.lft.to/lastmile_qr_scan"}}, {"name": "9f22b04fe8461d8e796185fb794ea552", "fusion_lat": 0.0, "type": "electric_scooter", "lat": 38.915129666666665, "is_reserved": 0, "is_disabled": 0, "fusion_lon": 0.0, "bike_id": "9f22b04fe8461d8e796185fb794ea552", "lon": -77.04611166666666, "rental_uris": {"ios": "https://dc.lft.to/lastmile_qr_scan", "android": "https://dc.lft.to/lastmile_qr_scan"}}, {"name": "bc0a6ece909c0f7523ab85b08463c515", "fusion_lat": 0.0, "type": "electric_scooter", "lat": 38.87649866666667, "is_reserved": 0, "is_disabled": 0, "fusion_lon": 0.0, "bike_id": "bc0a6ece909c0f7523ab85b08463c515", "lon": -77.01485116666667, "rental_uris": {"ios": "https://dc.lft.to/lastmile_qr_scan", "android": "https://dc.lft.to/lastmile_qr_scan"}}, {"name": "265c80c611c18a5f8a943c9f0abe09ea", "fusion_lat": 0.0, "type": "electric_scooter", "lat": 38.9054795, "is_reserved": 0, "is_disabled": 0, "fusion_lon": 0.0, "bike_id": "265c80c611c18a5f8a943c9f0abe09ea", "lon": -77.005513, "rental_uris": {"ios": "https://dc.lft.to/lastmile_qr_scan", "android": "https://dc.lft.to/lastmile_qr_scan"}}, {"name": "afb253683e9b4073f8e781d4ce8133c1", "fusion_lat": 0.0, "type": "electric_scooter", "lat": 38.92095116666667, "is_reserved": 0, "is_disabled": 0, "fusion_lon": 0.0, "bike_id": "afb253683e9b4073f8e781d4ce8133c1", "lon": -77.01375383333334, "rental_uris": {"ios": "https://dc.lft.to/lastmile_qr_scan", "android": "https://dc.lft.to/lastmile_qr_scan"}}, {"name": "7c9f647d7b42ffc6ebb60aee1c455449", "fusion_lat": 0.0, "type": "electric_scooter", "lat": 38.91400483333334, "is_reserved": 0, "is_disabled": 0, "fusion_lon": 0.0, "bike_id": "7c9f647d7b42ffc6ebb60aee1c455449", "lon": -77.039519, "rental_uris": {"ios": "https://dc.lft.to/lastmile_qr_scan", "android": "https://dc.lft.to/lastmile_qr_scan"}}, {"name": "d3148e3ef89c750f55926cb5ac5d7764", "fusion_lat": 0.0, "type": "electric_scooter", "lat": 38.938705666666664, "is_reserved": 0, "is_disabled": 0, "fusion_lon": 0.0, "bike_id": "d3148e3ef89c750f55926cb5ac5d7764", "lon": -77.02218383333333, "rental_uris": {"ios": "https://dc.lft.to/lastmile_qr_scan", "android": "https://dc.lft.to/lastmile_qr_scan"}}, {"name": "a7f9f434279f85a796c44ffa2d867203", "fusion_lat": 0.0, "type": "electric_scooter", "lat": 38.90019216666666, "is_reserved": 0, "is_disabled": 0, "fusion_lon": 0.0, "bike_id": "a7f9f434279f85a796c44ffa2d867203", "lon": -76.9986575, "rental_uris": {"ios": "https://dc.lft.to/lastmile_qr_scan", "android": "https://dc.lft.to/lastmile_qr_scan"}}, {"name": "80de0877653d9e16568e74d8ae66392f", "fusion_lat": 0.0, "type": "electric_scooter", "lat": 38.936352, "is_reserved": 0, "is_disabled": 0, "fusion_lon": 0.0, "bike_id": "80de0877653d9e16568e74d8ae66392f", "lon": -77.036642, "rental_uris": {"ios": "https://dc.lft.to/lastmile_qr_scan", "android": "https://dc.lft.to/lastmile_qr_scan"}}, {"name": "b633e449d5defc414020b97cbf85112b", "fusion_lat": 0.0, "type": "electric_scooter", "lat": 38.9058315, "is_reserved": 0, "is_disabled": 0, "fusion_lon": 0.0, "bike_id": "b633e449d5defc414020b97cbf85112b", "lon": -77.03720716666666, "rental_uris": {"ios": "https://dc.lft.to/lastmile_qr_scan", "android": "https://dc.lft.to/lastmile_qr_scan"}}, {"name": "933aec73fa56c326c80ec097015c7470", "fusion_lat": 0.0, "type": "electric_scooter", "lat": 38.86832716666667, "is_reserved": 0, "is_disabled": 0, "fusion_lon": 0.0, "bike_id": "933aec73fa56c326c80ec097015c7470", "lon": -76.98616416666667, "rental_uris": {"ios": "https://dc.lft.to/lastmile_qr_scan", "android": "https://dc.lft.to/lastmile_qr_scan"}}, {"name": "08f47e2caa35e1868115e2db003e4b32", "fusion_lat": 0.0, "type": "electric_scooter", "lat": 38.92874116666667, "is_reserved": 0, "is_disabled": 0, "fusion_lon": 0.0, "bike_id": "08f47e2caa35e1868115e2db003e4b32", "lon": -77.01411833333333, "rental_uris": {"ios": "https://dc.lft.to/lastmile_qr_scan", "android": "https://dc.lft.to/lastmile_qr_scan"}}, {"name": "6f6dc87b213bd923275a63cd139b5314", "fusion_lat": 0.0, "type": "electric_scooter", "lat": 38.91610983333333, "is_reserved": 0, "is_disabled": 0, "fusion_lon": 0.0, "bike_id": "6f6dc87b213bd923275a63cd139b5314", "lon": -77.04255166666667, "rental_uris": {"ios": "https://dc.lft.to/lastmile_qr_scan", "android": "https://dc.lft.to/lastmile_qr_scan"}}, {"name": "4d3c3aae2afb6ad8c42bcbcebc432b6f", "fusion_lat": 0.0, "type": "electric_scooter", "lat": 38.893726666666666, "is_reserved": 0, "is_disabled": 0, "fusion_lon": 0.0, "bike_id": "4d3c3aae2afb6ad8c42bcbcebc432b6f", "lon": -76.9499855, "rental_uris": {"ios": "https://dc.lft.to/lastmile_qr_scan", "android": "https://dc.lft.to/lastmile_qr_scan"}}, {"name": "0b434a00af3184860b058942fcbfcb5e", "fusion_lat": 0.0, "type": "electric_scooter", "lat": 38.927334333333334, "is_reserved": 0, "is_disabled": 0, "fusion_lon": 0.0, "bike_id": "0b434a00af3184860b058942fcbfcb5e", "lon": -77.07145183333333, "rental_uris": {"ios": "https://dc.lft.to/lastmile_qr_scan", "android": "https://dc.lft.to/lastmile_qr_scan"}}, {"name": "8abbd7b58707b78e80250e640be199c7", "fusion_lat": 0.0, "type": "electric_scooter", "lat": 38.909793, "is_reserved": 0, "is_disabled": 0, "fusion_lon": 0.0, "bike_id": "8abbd7b58707b78e80250e640be199c7", "lon": -77.03180416666666, "rental_uris": {"ios": "https://dc.lft.to/lastmile_qr_scan", "android": "https://dc.lft.to/lastmile_qr_scan"}}, {"name": "429e98c3c1668641074365f4295fd442", "fusion_lat": 0.0, "type": "electric_scooter", "lat": 38.8860045, "is_reserved": 0, "is_disabled": 0, "fusion_lon": 0.0, "bike_id": "429e98c3c1668641074365f4295fd442", "lon": -77.02209166666667, "rental_uris": {"ios": "https://dc.lft.to/lastmile_qr_scan", "android": "https://dc.lft.to/lastmile_qr_scan"}}, {"name": "7d227b68c0ea00040cc81294f243f03b", "fusion_lat": 0.0, "type": "electric_scooter", "lat": 38.928855666666664, "is_reserved": 0, "is_disabled": 0, "fusion_lon": 0.0, "bike_id": "7d227b68c0ea00040cc81294f243f03b", "lon": -77.0544255, "rental_uris": {"ios": "https://dc.lft.to/lastmile_qr_scan", "android": "https://dc.lft.to/lastmile_qr_scan"}}, {"name": "3e5e84347c42ec4bdf57c9470b0ee389", "fusion_lat": 0.0, "type": "electric_bike", "lat": 38.89729833333333, "is_reserved": 0, "is_disabled": 0, "fusion_lon": 0.0, "bike_id": "3e5e84347c42ec4bdf57c9470b0ee389", "lon": -77.019148, "rental_uris": {"ios": "https://dc.lft.to/lastmile_qr_scan", "android": "https://dc.lft.to/lastmile_qr_scan"}}, {"name": "cca3c125f71950efacae74b9f11158ad", "fusion_lat": 0.0, "type": "electric_bike", "lat": 38.8833845, "is_reserved": 0, "is_disabled": 0, "fusion_lon": 0.0, "bike_id": "cca3c125f71950efacae74b9f11158ad", "lon": -77.18298683333333, "rental_uris": {"ios": "https://dc.lft.to/lastmile_qr_scan", "android": "https://dc.lft.to/lastmile_qr_scan"}}, {"name": "42049716d3c609e15e81f72bcd75b983", "fusion_lat": 0.0, "type": "electric_scooter", "lat": 38.92321616666667, "is_reserved": 0, "is_disabled": 0, "fusion_lon": 0.0, "bike_id": "42049716d3c609e15e81f72bcd75b983", "lon": -77.04512116666666, "rental_uris": {"ios": "https://dc.lft.to/lastmile_qr_scan", "android": "https://dc.lft.to/lastmile_qr_scan"}}, {"name": "c33d99fa50886b79d857e993728fe2b2", "fusion_lat": 0.0, "type": "electric_scooter", "lat": 38.92007233333333, "is_reserved": 0, "is_disabled": 0, "fusion_lon": 0.0, "bike_id": "c33d99fa50886b79d857e993728fe2b2", "lon": -77.08192483333333, "rental_uris": {"ios": "https://dc.lft.to/lastmile_qr_scan", "android": "https://dc.lft.to/lastmile_qr_scan"}}, {"name": "a8e6fdeb3dba30897bb54a8812591ac6", "fusion_lat": 0.0, "type": "electric_scooter", "lat": 38.92423433333333, "is_reserved": 0, "is_disabled": 0, "fusion_lon": 0.0, "bike_id": "a8e6fdeb3dba30897bb54a8812591ac6", "lon": -77.044874, "rental_uris": {"ios": "https://dc.lft.to/lastmile_qr_scan", "android": "https://dc.lft.to/lastmile_qr_scan"}}, {"name": "c01dabbf96a77a2b087250310657986d", "fusion_lat": 0.0, "type": "electric_bike", "lat": 38.85686283333333, "is_reserved": 0, "is_disabled": 0, "fusion_lon": 0.0, "bike_id": "c01dabbf96a77a2b087250310657986d", "lon": -77.085396, "rental_uris": {"ios": "https://dc.lft.to/lastmile_qr_scan", "android": "https://dc.lft.to/lastmile_qr_scan"}}, {"name": "70f23fa080d3ed16790d770595c0868b", "fusion_lat": 0.0, "type": "electric_bike", "lat": 39.00017, "is_reserved": 0, "is_disabled": 0, "fusion_lon": 0.0, "bike_id": "70f23fa080d3ed16790d770595c0868b", "lon": -77.017444, "rental_uris": {"ios": "https://dc.lft.to/lastmile_qr_scan", "android": "https://dc.lft.to/lastmile_qr_scan"}}, {"name": "67d53d6318633348f92077c5939d6918", "fusion_lat": 0.0, "type": "electric_scooter", "lat": 38.8923165, "is_reserved": 0, "is_disabled": 0, "fusion_lon": 0.0, "bike_id": "67d53d6318633348f92077c5939d6918", "lon": -77.01509733333333, "rental_uris": {"ios": "https://dc.lft.to/lastmile_qr_scan", "android": "https://dc.lft.to/lastmile_qr_scan"}}, {"name": "fe0d251b8c66b2ad803a3e6198d2bb31", "fusion_lat": 0.0, "type": "electric_bike", "lat": 38.949133833333335, "is_reserved": 0, "is_disabled": 0, "fusion_lon": 0.0, "bike_id": "fe0d251b8c66b2ad803a3e6198d2bb31", "lon": -77.00803166666667, "rental_uris": {"ios": "https://dc.lft.to/lastmile_qr_scan", "android": "https://dc.lft.to/lastmile_qr_scan"}}, {"name": "24f7e14179175ab45bb4a498f63d73b3", "fusion_lat": 0.0, "type": "electric_scooter", "lat": 38.9176815, "is_reserved": 0, "is_disabled": 0, "fusion_lon": 0.0, "bike_id": "24f7e14179175ab45bb4a498f63d73b3", "lon": -77.02337133333333, "rental_uris": {"ios": "https://dc.lft.to/lastmile_qr_scan", "android": "https://dc.lft.to/lastmile_qr_scan"}}, {"name": "1a90e315189455b81053c2f51b0bee46", "fusion_lat": 0.0, "type": "electric_scooter", "lat": 38.93064616666667, "is_reserved": 0, "is_disabled": 0, "fusion_lon": 0.0, "bike_id": "1a90e315189455b81053c2f51b0bee46", "lon": -77.02978716666667, "rental_uris": {"ios": "https://dc.lft.to/lastmile_qr_scan", "android": "https://dc.lft.to/lastmile_qr_scan"}}, {"name": "8e6f45b5d999b8a82630ef51f5d707c7", "fusion_lat": 0.0, "type": "electric_scooter", "lat": 38.91637883333333, "is_reserved": 0, "is_disabled": 0, "fusion_lon": 0.0, "bike_id": "8e6f45b5d999b8a82630ef51f5d707c7", "lon": -77.00096466666666, "rental_uris": {"ios": "https://dc.lft.to/lastmile_qr_scan", "android": "https://dc.lft.to/lastmile_qr_scan"}}, {"name": "a10db5aaac2614e5e0ba346bab45c834", "fusion_lat": 0.0, "type": "electric_scooter", "lat": 38.939585666666666, "is_reserved": 0, "is_disabled": 0, "fusion_lon": 0.0, "bike_id": "a10db5aaac2614e5e0ba346bab45c834", "lon": -77.02754583333333, "rental_uris": {"ios": "https://dc.lft.to/lastmile_qr_scan", "android": "https://dc.lft.to/lastmile_qr_scan"}}, {"name": "1d8a5693fe9fa54611e0a49c3eb5a328", "fusion_lat": 0.0, "type": "electric_scooter", "lat": 38.927543166666666, "is_reserved": 0, "is_disabled": 0, "fusion_lon": 0.0, "bike_id": "1d8a5693fe9fa54611e0a49c3eb5a328", "lon": -77.02293866666666, "rental_uris": {"ios": "https://dc.lft.to/lastmile_qr_scan", "android": "https://dc.lft.to/lastmile_qr_scan"}}, {"name": "0e8d67e1066d38609eeb56cca521e4bd", "fusion_lat": 0.0, "type": "electric_scooter", "lat": 38.88478, "is_reserved": 0, "is_disabled": 0, "fusion_lon": 0.0, "bike_id": "0e8d67e1066d38609eeb56cca521e4bd", "lon": -77.0217625, "rental_uris": {"ios": "https://dc.lft.to/lastmile_qr_scan", "android": "https://dc.lft.to/lastmile_qr_scan"}}, {"name": "bcd27b5395e8d04b21b1f3cf8f3ad1c7", "fusion_lat": 0.0, "type": "electric_scooter", "lat": 38.91824966666667, "is_reserved": 0, "is_disabled": 0, "fusion_lon": 0.0, "bike_id": "bcd27b5395e8d04b21b1f3cf8f3ad1c7", "lon": -77.02285583333334, "rental_uris": {"ios": "https://dc.lft.to/lastmile_qr_scan", "android": "https://dc.lft.to/lastmile_qr_scan"}}, {"name": "a6bab63fdf6d7b73749e92c2e48feccb", "fusion_lat": 0.0, "type": "electric_scooter", "lat": 38.924641, "is_reserved": 0, "is_disabled": 0, "fusion_lon": 0.0, "bike_id": "a6bab63fdf6d7b73749e92c2e48feccb", "lon": -77.030559, "rental_uris": {"ios": "https://dc.lft.to/lastmile_qr_scan", "android": "https://dc.lft.to/lastmile_qr_scan"}}, {"name": "723d764c6ca34dbc1cd80ea5fff3e8fd", "fusion_lat": 0.0, "type": "electric_scooter", "lat": 38.9097215, "is_reserved": 0, "is_disabled": 0, "fusion_lon": 0.0, "bike_id": "723d764c6ca34dbc1cd80ea5fff3e8fd", "lon": -77.04676933333333, "rental_uris": {"ios": "https://dc.lft.to/lastmile_qr_scan", "android": "https://dc.lft.to/lastmile_qr_scan"}}, {"name": "534fcd01ddafd41bd11709ba5efcd8f3", "fusion_lat": 0.0, "type": "electric_scooter", "lat": 38.921269833333334, "is_reserved": 0, "is_disabled": 0, "fusion_lon": 0.0, "bike_id": "534fcd01ddafd41bd11709ba5efcd8f3", "lon": -77.04565533333333, "rental_uris": {"ios": "https://dc.lft.to/lastmile_qr_scan", "android": "https://dc.lft.to/lastmile_qr_scan"}}, {"name": "fb038a128ff937f20893e040055df53b", "fusion_lat": 0.0, "type": "electric_scooter", "lat": 38.86257233333333, "is_reserved": 0, "is_disabled": 0, "fusion_lon": 0.0, "bike_id": "fb038a128ff937f20893e040055df53b", "lon": -76.987235, "rental_uris": {"ios": "https://dc.lft.to/lastmile_qr_scan", "android": "https://dc.lft.to/lastmile_qr_scan"}}, {"name": "fdbe88d457b83b8ca0f46bb55040b51d", "fusion_lat": 0.0, "type": "electric_scooter", "lat": 38.92089166666667, "is_reserved": 0, "is_disabled": 0, "fusion_lon": 0.0, "bike_id": "fdbe88d457b83b8ca0f46bb55040b51d", "lon": -77.0547325, "rental_uris": {"ios": "https://dc.lft.to/lastmile_qr_scan", "android": "https://dc.lft.to/lastmile_qr_scan"}}, {"name": "8e417edbdcad8e2b3879649f856f0472", "fusion_lat": 0.0, "type": "electric_scooter", "lat": 38.92064933333333, "is_reserved": 0, "is_disabled": 0, "fusion_lon": 0.0, "bike_id": "8e417edbdcad8e2b3879649f856f0472", "lon": -77.03806566666667, "rental_uris": {"ios": "https://dc.lft.to/lastmile_qr_scan", "android": "https://dc.lft.to/lastmile_qr_scan"}}, {"name": "a7d2562c6dd4f6c25d5ef1de2c6d14ca", "fusion_lat": 0.0, "type": "electric_scooter", "lat": 38.8822, "is_reserved": 0, "is_disabled": 0, "fusion_lon": 0.0, "bike_id": "a7d2562c6dd4f6c25d5ef1de2c6d14ca", "lon": -76.9417905, "rental_uris": {"ios": "https://dc.lft.to/lastmile_qr_scan", "android": "https://dc.lft.to/lastmile_qr_scan"}}, {"name": "f10be05d57d04bdb8b45a1664cb5d3d8", "fusion_lat": 0.0, "type": "electric_scooter", "lat": 38.9201885, "is_reserved": 0, "is_disabled": 0, "fusion_lon": 0.0, "bike_id": "f10be05d57d04bdb8b45a1664cb5d3d8", "lon": -77.031815, "rental_uris": {"ios": "https://dc.lft.to/lastmile_qr_scan", "android": "https://dc.lft.to/lastmile_qr_scan"}}, {"name": "a77713b69e279721936941a800e9d9b7", "fusion_lat": 0.0, "type": "electric_scooter", "lat": 38.908648166666666, "is_reserved": 0, "is_disabled": 0, "fusion_lon": 0.0, "bike_id": "a77713b69e279721936941a800e9d9b7", "lon": -77.01296166666667, "rental_uris": {"ios": "https://dc.lft.to/lastmile_qr_scan", "android": "https://dc.lft.to/lastmile_qr_scan"}}, {"name": "366f1aa220eb50f0e58eb3a1a66853f9", "fusion_lat": 0.0, "type": "electric_scooter", "lat": 38.902442, "is_reserved": 0, "is_disabled": 0, "fusion_lon": 0.0, "bike_id": "366f1aa220eb50f0e58eb3a1a66853f9", "lon": -77.0317785, "rental_uris": {"ios": "https://dc.lft.to/lastmile_qr_scan", "android": "https://dc.lft.to/lastmile_qr_scan"}}, {"name": "7ab8e0f935bd86424b892d5369c36dfa", "fusion_lat": 0.0, "type": "electric_scooter", "lat": 38.90038633333333, "is_reserved": 0, "is_disabled": 0, "fusion_lon": 0.0, "bike_id": "7ab8e0f935bd86424b892d5369c36dfa", "lon": -76.99145683333333, "rental_uris": {"ios": "https://dc.lft.to/lastmile_qr_scan", "android": "https://dc.lft.to/lastmile_qr_scan"}}, {"name": "e2a258162400247c50558c4151ed8144", "fusion_lat": 0.0, "type": "electric_scooter", "lat": 38.923723833333334, "is_reserved": 0, "is_disabled": 0, "fusion_lon": 0.0, "bike_id": "e2a258162400247c50558c4151ed8144", "lon": -77.04097583333333, "rental_uris": {"ios": "https://dc.lft.to/lastmile_qr_scan", "android": "https://dc.lft.to/lastmile_qr_scan"}}, {"name": "08b65f32fd869a460aa4252131756ef5", "fusion_lat": 0.0, "type": "electric_scooter", "lat": 38.862485666666664, "is_reserved": 0, "is_disabled": 0, "fusion_lon": 0.0, "bike_id": "08b65f32fd869a460aa4252131756ef5", "lon": -76.99533383333333, "rental_uris": {"ios": "https://dc.lft.to/lastmile_qr_scan", "android": "https://dc.lft.to/lastmile_qr_scan"}}, {"name": "10a1b67d7f4d2c4e4f3da6d70b921bbe", "fusion_lat": 0.0, "type": "electric_scooter", "lat": 38.91816016666667, "is_reserved": 0, "is_disabled": 0, "fusion_lon": 0.0, "bike_id": "10a1b67d7f4d2c4e4f3da6d70b921bbe", "lon": -77.01279833333334, "rental_uris": {"ios": "https://dc.lft.to/lastmile_qr_scan", "android": "https://dc.lft.to/lastmile_qr_scan"}}, {"name": "f6c7a289bbb651db471058c645d3aae7", "fusion_lat": 0.0, "type": "electric_scooter", "lat": 38.90143316666666, "is_reserved": 0, "is_disabled": 0, "fusion_lon": 0.0, "bike_id": "f6c7a289bbb651db471058c645d3aae7", "lon": -76.97424383333333, "rental_uris": {"ios": "https://dc.lft.to/lastmile_qr_scan", "android": "https://dc.lft.to/lastmile_qr_scan"}}, {"name": "08c141640bd7bbd09665407d9c883d56", "fusion_lat": 0.0, "type": "electric_scooter", "lat": 38.86504333333333, "is_reserved": 0, "is_disabled": 0, "fusion_lon": 0.0, "bike_id": "08c141640bd7bbd09665407d9c883d56", "lon": -76.99003866666666, "rental_uris": {"ios": "https://dc.lft.to/lastmile_qr_scan", "android": "https://dc.lft.to/lastmile_qr_scan"}}, {"name": "6e1e3b88eccc40d19fbe95a7085db544", "fusion_lat": 0.0, "type": "electric_scooter", "lat": 38.92466483333333, "is_reserved": 0, "is_disabled": 0, "fusion_lon": 0.0, "bike_id": "6e1e3b88eccc40d19fbe95a7085db544", "lon": -77.02714016666667, "rental_uris": {"ios": "https://dc.lft.to/lastmile_qr_scan", "android": "https://dc.lft.to/lastmile_qr_scan"}}, {"name": "ed5530e04d8505c57cdcad4f26c54de6", "fusion_lat": 0.0, "type": "electric_scooter", "lat": 38.907267, "is_reserved": 0, "is_disabled": 0, "fusion_lon": 0.0, "bike_id": "ed5530e04d8505c57cdcad4f26c54de6", "lon": -77.01069366666667, "rental_uris": {"ios": "https://dc.lft.to/lastmile_qr_scan", "android": "https://dc.lft.to/lastmile_qr_scan"}}, {"name": "503d558eaf1b9be59e9e23ae03e145c6", "fusion_lat": 0.0, "type": "electric_scooter", "lat": 38.91823616666667, "is_reserved": 0, "is_disabled": 0, "fusion_lon": 0.0, "bike_id": "503d558eaf1b9be59e9e23ae03e145c6", "lon": -77.02416966666667, "rental_uris": {"ios": "https://dc.lft.to/lastmile_qr_scan", "android": "https://dc.lft.to/lastmile_qr_scan"}}, {"name": "b9b0b3e622e9de00d01611e8874c7193", "fusion_lat": 0.0, "type": "electric_scooter", "lat": 38.94254033333333, "is_reserved": 0, "is_disabled": 0, "fusion_lon": 0.0, "bike_id": "b9b0b3e622e9de00d01611e8874c7193", "lon": -77.0413965, "rental_uris": {"ios": "https://dc.lft.to/lastmile_qr_scan", "android": "https://dc.lft.to/lastmile_qr_scan"}}, {"name": "8cc0f286bf5815e9db6028eeed508cc2", "fusion_lat": 0.0, "type": "electric_scooter", "lat": 38.88530683333333, "is_reserved": 0, "is_disabled": 0, "fusion_lon": 0.0, "bike_id": "8cc0f286bf5815e9db6028eeed508cc2", "lon": -76.98056916666667, "rental_uris": {"ios": "https://dc.lft.to/lastmile_qr_scan", "android": "https://dc.lft.to/lastmile_qr_scan"}}, {"name": "f4e3c38ffe6870a1c42b53d4751b346e", "fusion_lat": 0.0, "type": "electric_bike", "lat": 38.96013683333334, "is_reserved": 0, "is_disabled": 0, "fusion_lon": 0.0, "bike_id": "f4e3c38ffe6870a1c42b53d4751b346e", "lon": -76.99875316666666, "rental_uris": {"ios": "https://dc.lft.to/lastmile_qr_scan", "android": "https://dc.lft.to/lastmile_qr_scan"}}, {"name": "075d2636e8e0fcf77660fe2057547420", "fusion_lat": 0.0, "type": "electric_scooter", "lat": 38.92550966666667, "is_reserved": 0, "is_disabled": 0, "fusion_lon": 0.0, "bike_id": "075d2636e8e0fcf77660fe2057547420", "lon": -77.03221466666666, "rental_uris": {"ios": "https://dc.lft.to/lastmile_qr_scan", "android": "https://dc.lft.to/lastmile_qr_scan"}}, {"name": "152b96e9ec47345394117d597f832e7b", "fusion_lat": 0.0, "type": "electric_scooter", "lat": 38.86160666666667, "is_reserved": 0, "is_disabled": 0, "fusion_lon": 0.0, "bike_id": "152b96e9ec47345394117d597f832e7b", "lon": -76.9890905, "rental_uris": {"ios": "https://dc.lft.to/lastmile_qr_scan", "android": "https://dc.lft.to/lastmile_qr_scan"}}, {"name": "9e23aef3bfeaf5b7915f9cba78950ad4", "fusion_lat": 0.0, "type": "electric_scooter", "lat": 38.938746, "is_reserved": 0, "is_disabled": 0, "fusion_lon": 0.0, "bike_id": "9e23aef3bfeaf5b7915f9cba78950ad4", "lon": -77.03257716666667, "rental_uris": {"ios": "https://dc.lft.to/lastmile_qr_scan", "android": "https://dc.lft.to/lastmile_qr_scan"}}, {"name": "f4b1bfe46c4208f86033aee25747205e", "fusion_lat": 0.0, "type": "electric_scooter", "lat": 38.919127833333334, "is_reserved": 0, "is_disabled": 0, "fusion_lon": 0.0, "bike_id": "f4b1bfe46c4208f86033aee25747205e", "lon": -77.03623983333334, "rental_uris": {"ios": "https://dc.lft.to/lastmile_qr_scan", "android": "https://dc.lft.to/lastmile_qr_scan"}}, {"name": "1934ed39b3e10064e6e550dc9f5b8630", "fusion_lat": 0.0, "type": "electric_scooter", "lat": 38.91614716666667, "is_reserved": 0, "is_disabled": 0, "fusion_lon": 0.0, "bike_id": "1934ed39b3e10064e6e550dc9f5b8630", "lon": -77.0461745, "rental_uris": {"ios": "https://dc.lft.to/lastmile_qr_scan", "android": "https://dc.lft.to/lastmile_qr_scan"}}, {"name": "b861cacea24846722b3d3523545a6ea9", "fusion_lat": 0.0, "type": "electric_scooter", "lat": 38.88044, "is_reserved": 0, "is_disabled": 0, "fusion_lon": 0.0, "bike_id": "b861cacea24846722b3d3523545a6ea9", "lon": -77.02501783333334, "rental_uris": {"ios": "https://dc.lft.to/lastmile_qr_scan", "android": "https://dc.lft.to/lastmile_qr_scan"}}, {"name": "b67aee87a9b3754c3a53bb3ae39e1d9b", "fusion_lat": 0.0, "type": "electric_scooter", "lat": 38.8972975, "is_reserved": 0, "is_disabled": 0, "fusion_lon": 0.0, "bike_id": "b67aee87a9b3754c3a53bb3ae39e1d9b", "lon": -77.02164433333333, "rental_uris": {"ios": "https://dc.lft.to/lastmile_qr_scan", "android": "https://dc.lft.to/lastmile_qr_scan"}}, {"name": "499d6257083347e4452455fd37857e80", "fusion_lat": 0.0, "type": "electric_scooter", "lat": 38.934706, "is_reserved": 0, "is_disabled": 0, "fusion_lon": 0.0, "bike_id": "499d6257083347e4452455fd37857e80", "lon": -77.03530516666666, "rental_uris": {"ios": "https://dc.lft.to/lastmile_qr_scan", "android": "https://dc.lft.to/lastmile_qr_scan"}}, {"name": "1719c63d947a6fbe9b721faf57f3ce3c", "fusion_lat": 0.0, "type": "electric_bike", "lat": 38.921453166666666, "is_reserved": 0, "is_disabled": 0, "fusion_lon": 0.0, "bike_id": "1719c63d947a6fbe9b721faf57f3ce3c", "lon": -77.038706, "rental_uris": {"ios": "https://dc.lft.to/lastmile_qr_scan", "android": "https://dc.lft.to/lastmile_qr_scan"}}, {"name": "2ee415c84e7bb539faef7b1709a5baa4", "fusion_lat": 0.0, "type": "electric_scooter", "lat": 38.928207, "is_reserved": 0, "is_disabled": 0, "fusion_lon": 0.0, "bike_id": "2ee415c84e7bb539faef7b1709a5baa4", "lon": -77.02258316666666, "rental_uris": {"ios": "https://dc.lft.to/lastmile_qr_scan", "android": "https://dc.lft.to/lastmile_qr_scan"}}, {"name": "fe938333670af9f2f7b73328c813f183", "fusion_lat": 0.0, "type": "electric_scooter", "lat": 38.96225316666667, "is_reserved": 0, "is_disabled": 0, "fusion_lon": 0.0, "bike_id": "fe938333670af9f2f7b73328c813f183", "lon": -77.02976083333333, "rental_uris": {"ios": "https://dc.lft.to/lastmile_qr_scan", "android": "https://dc.lft.to/lastmile_qr_scan"}}, {"name": "ccea3f17a16b4b8a8c2f571cf0dcbdc8", "fusion_lat": 0.0, "type": "electric_scooter", "lat": 38.90584, "is_reserved": 0, "is_disabled": 0, "fusion_lon": 0.0, "bike_id": "ccea3f17a16b4b8a8c2f571cf0dcbdc8", "lon": -77.04875083333333, "rental_uris": {"ios": "https://dc.lft.to/lastmile_qr_scan", "android": "https://dc.lft.to/lastmile_qr_scan"}}, {"name": "21236fb9053c612d7d43fdbb30c4bf3e", "fusion_lat": 0.0, "type": "electric_scooter", "lat": 38.922455666666664, "is_reserved": 0, "is_disabled": 0, "fusion_lon": 0.0, "bike_id": "21236fb9053c612d7d43fdbb30c4bf3e", "lon": -77.04701116666666, "rental_uris": {"ios": "https://dc.lft.to/lastmile_qr_scan", "android": "https://dc.lft.to/lastmile_qr_scan"}}, {"name": "e0afa171f38dcb94854018b4ab678ec7", "fusion_lat": 0.0, "type": "electric_scooter", "lat": 38.882301, "is_reserved": 0, "is_disabled": 0, "fusion_lon": 0.0, "bike_id": "e0afa171f38dcb94854018b4ab678ec7", "lon": -77.02582316666667, "rental_uris": {"ios": "https://dc.lft.to/lastmile_qr_scan", "android": "https://dc.lft.to/lastmile_qr_scan"}}, {"name": "95870656cb466d57dc9bfe15ffd7799c", "fusion_lat": 0.0, "type": "electric_scooter", "lat": 38.925708666666665, "is_reserved": 0, "is_disabled": 0, "fusion_lon": 0.0, "bike_id": "95870656cb466d57dc9bfe15ffd7799c", "lon": -76.99499566666667, "rental_uris": {"ios": "https://dc.lft.to/lastmile_qr_scan", "android": "https://dc.lft.to/lastmile_qr_scan"}}, {"name": "4d4c4929f6db4ffa01153b08457b0160", "fusion_lat": 0.0, "type": "electric_scooter", "lat": 38.909096, "is_reserved": 0, "is_disabled": 0, "fusion_lon": 0.0, "bike_id": "4d4c4929f6db4ffa01153b08457b0160", "lon": -77.04871916666667, "rental_uris": {"ios": "https://dc.lft.to/lastmile_qr_scan", "android": "https://dc.lft.to/lastmile_qr_scan"}}, {"name": "23c7a9c888231525934a6cf0eaeaf969", "fusion_lat": 0.0, "type": "electric_scooter", "lat": 38.90532433333333, "is_reserved": 0, "is_disabled": 0, "fusion_lon": 0.0, "bike_id": "23c7a9c888231525934a6cf0eaeaf969", "lon": -77.03400633333334, "rental_uris": {"ios": "https://dc.lft.to/lastmile_qr_scan", "android": "https://dc.lft.to/lastmile_qr_scan"}}, {"name": "46762cc073df22d4c0341087153aab5d", "fusion_lat": 0.0, "type": "electric_scooter", "lat": 38.898347333333334, "is_reserved": 0, "is_disabled": 0, "fusion_lon": 0.0, "bike_id": "46762cc073df22d4c0341087153aab5d", "lon": -76.94642483333334, "rental_uris": {"ios": "https://dc.lft.to/lastmile_qr_scan", "android": "https://dc.lft.to/lastmile_qr_scan"}}, {"name": "a4e60375befc9e0cbb9286f5b32bbd26", "fusion_lat": 0.0, "type": "electric_scooter", "lat": 38.897794166666664, "is_reserved": 0, "is_disabled": 0, "fusion_lon": 0.0, "bike_id": "a4e60375befc9e0cbb9286f5b32bbd26", "lon": -77.05138616666666, "rental_uris": {"ios": "https://dc.lft.to/lastmile_qr_scan", "android": "https://dc.lft.to/lastmile_qr_scan"}}, {"name": "40b8009cad2cbbf5b73552003baa2304", "fusion_lat": 0.0, "type": "electric_scooter", "lat": 38.8922395, "is_reserved": 0, "is_disabled": 0, "fusion_lon": 0.0, "bike_id": "40b8009cad2cbbf5b73552003baa2304", "lon": -77.02229183333333, "rental_uris": {"ios": "https://dc.lft.to/lastmile_qr_scan", "android": "https://dc.lft.to/lastmile_qr_scan"}}, {"name": "1a70207568ad016838af8409899d02e5", "fusion_lat": 0.0, "type": "electric_scooter", "lat": 38.91551416666667, "is_reserved": 0, "is_disabled": 0, "fusion_lon": 0.0, "bike_id": "1a70207568ad016838af8409899d02e5", "lon": -77.03241083333333, "rental_uris": {"ios": "https://dc.lft.to/lastmile_qr_scan", "android": "https://dc.lft.to/lastmile_qr_scan"}}, {"name": "b73779e08018c2cac449f0f5209831a7", "fusion_lat": 0.0, "type": "electric_bike", "lat": 38.888218, "is_reserved": 0, "is_disabled": 0, "fusion_lon": 0.0, "bike_id": "b73779e08018c2cac449f0f5209831a7", "lon": -77.12744483333333, "rental_uris": {"ios": "https://dc.lft.to/lastmile_qr_scan", "android": "https://dc.lft.to/lastmile_qr_scan"}}, {"name": "d3dad23deaac8fcba0bf0a13ac343698", "fusion_lat": 0.0, "type": "electric_scooter", "lat": 38.912878166666665, "is_reserved": 0, "is_disabled": 0, "fusion_lon": 0.0, "bike_id": "d3dad23deaac8fcba0bf0a13ac343698", "lon": -76.93795533333333, "rental_uris": {"ios": "https://dc.lft.to/lastmile_qr_scan", "android": "https://dc.lft.to/lastmile_qr_scan"}}, {"name": "a8031431cdad6f7c889c38f938af290d", "fusion_lat": 0.0, "type": "electric_scooter", "lat": 38.93890966666667, "is_reserved": 0, "is_disabled": 0, "fusion_lon": 0.0, "bike_id": "a8031431cdad6f7c889c38f938af290d", "lon": -77.0176525, "rental_uris": {"ios": "https://dc.lft.to/lastmile_qr_scan", "android": "https://dc.lft.to/lastmile_qr_scan"}}, {"name": "f844c1b3375373a3aa747de8795ec204", "fusion_lat": 0.0, "type": "electric_scooter", "lat": 38.89951933333333, "is_reserved": 0, "is_disabled": 0, "fusion_lon": 0.0, "bike_id": "f844c1b3375373a3aa747de8795ec204", "lon": -77.03934066666666, "rental_uris": {"ios": "https://dc.lft.to/lastmile_qr_scan", "android": "https://dc.lft.to/lastmile_qr_scan"}}, {"name": "c1618ec46289aee2bf2874b704a2d45e", "fusion_lat": 0.0, "type": "electric_scooter", "lat": 38.92670483333333, "is_reserved": 0, "is_disabled": 0, "fusion_lon": 0.0, "bike_id": "c1618ec46289aee2bf2874b704a2d45e", "lon": -76.99541916666666, "rental_uris": {"ios": "https://dc.lft.to/lastmile_qr_scan", "android": "https://dc.lft.to/lastmile_qr_scan"}}, {"name": "d8cc65d72f1773cc5f2f7af5d6be9dac", "fusion_lat": 0.0, "type": "electric_scooter", "lat": 38.908441, "is_reserved": 0, "is_disabled": 0, "fusion_lon": 0.0, "bike_id": "d8cc65d72f1773cc5f2f7af5d6be9dac", "lon": -77.04344233333333, "rental_uris": {"ios": "https://dc.lft.to/lastmile_qr_scan", "android": "https://dc.lft.to/lastmile_qr_scan"}}, {"name": "99be3800dabc22a1bada64a6bc2a2b71", "fusion_lat": 0.0, "type": "electric_scooter", "lat": 38.905695, "is_reserved": 0, "is_disabled": 0, "fusion_lon": 0.0, "bike_id": "99be3800dabc22a1bada64a6bc2a2b71", "lon": -77.02220516666667, "rental_uris": {"ios": "https://dc.lft.to/lastmile_qr_scan", "android": "https://dc.lft.to/lastmile_qr_scan"}}, {"name": "f95269305ecdc54311d20fc203fa98d3", "fusion_lat": 0.0, "type": "electric_scooter", "lat": 38.902478333333335, "is_reserved": 0, "is_disabled": 0, "fusion_lon": 0.0, "bike_id": "f95269305ecdc54311d20fc203fa98d3", "lon": -77.05134633333333, "rental_uris": {"ios": "https://dc.lft.to/lastmile_qr_scan", "android": "https://dc.lft.to/lastmile_qr_scan"}}, {"name": "b9cfd8d45e191c694375468bc77bf500", "fusion_lat": 0.0, "type": "electric_scooter", "lat": 38.925975, "is_reserved": 0, "is_disabled": 0, "fusion_lon": 0.0, "bike_id": "b9cfd8d45e191c694375468bc77bf500", "lon": -77.00857483333333, "rental_uris": {"ios": "https://dc.lft.to/lastmile_qr_scan", "android": "https://dc.lft.to/lastmile_qr_scan"}}, {"name": "9668c13aaaf48c8ec0d72876bad26895", "fusion_lat": 0.0, "type": "electric_scooter", "lat": 38.930207, "is_reserved": 0, "is_disabled": 0, "fusion_lon": 0.0, "bike_id": "9668c13aaaf48c8ec0d72876bad26895", "lon": -77.0836625, "rental_uris": {"ios": "https://dc.lft.to/lastmile_qr_scan", "android": "https://dc.lft.to/lastmile_qr_scan"}}, {"name": "3e94c9550b04f3ac9bd83a4f9a051e18", "fusion_lat": 0.0, "type": "electric_scooter", "lat": 38.917993833333334, "is_reserved": 0, "is_disabled": 0, "fusion_lon": 0.0, "bike_id": "3e94c9550b04f3ac9bd83a4f9a051e18", "lon": -77.03216766666667, "rental_uris": {"ios": "https://dc.lft.to/lastmile_qr_scan", "android": "https://dc.lft.to/lastmile_qr_scan"}}, {"name": "bcd43cdf01b375c0b05baa639ac28708", "fusion_lat": 0.0, "type": "electric_scooter", "lat": 38.924795333333336, "is_reserved": 0, "is_disabled": 0, "fusion_lon": 0.0, "bike_id": "bcd43cdf01b375c0b05baa639ac28708", "lon": -77.0299915, "rental_uris": {"ios": "https://dc.lft.to/lastmile_qr_scan", "android": "https://dc.lft.to/lastmile_qr_scan"}}, {"name": "e7a0fc6761597bc5090492125263f7ab", "fusion_lat": 0.0, "type": "electric_scooter", "lat": 38.9181835, "is_reserved": 0, "is_disabled": 0, "fusion_lon": 0.0, "bike_id": "e7a0fc6761597bc5090492125263f7ab", "lon": -77.00257916666666, "rental_uris": {"ios": "https://dc.lft.to/lastmile_qr_scan", "android": "https://dc.lft.to/lastmile_qr_scan"}}, {"name": "d65af3980eb72970dd5d3ebf3f10f670", "fusion_lat": 0.0, "type": "electric_scooter", "lat": 38.89581533333333, "is_reserved": 0, "is_disabled": 0, "fusion_lon": 0.0, "bike_id": "d65af3980eb72970dd5d3ebf3f10f670", "lon": -77.04334183333333, "rental_uris": {"ios": "https://dc.lft.to/lastmile_qr_scan", "android": "https://dc.lft.to/lastmile_qr_scan"}}, {"name": "e69eac3d59310b8587d394fef5ec550f", "fusion_lat": 0.0, "type": "electric_scooter", "lat": 38.93059433333333, "is_reserved": 0, "is_disabled": 0, "fusion_lon": 0.0, "bike_id": "e69eac3d59310b8587d394fef5ec550f", "lon": -77.02329116666667, "rental_uris": {"ios": "https://dc.lft.to/lastmile_qr_scan", "android": "https://dc.lft.to/lastmile_qr_scan"}}, {"name": "9f858e2e91a63c2f38f6f0e1d637bdea", "fusion_lat": 0.0, "type": "electric_scooter", "lat": 38.902119666666664, "is_reserved": 0, "is_disabled": 0, "fusion_lon": 0.0, "bike_id": "9f858e2e91a63c2f38f6f0e1d637bdea", "lon": -77.02182866666666, "rental_uris": {"ios": "https://dc.lft.to/lastmile_qr_scan", "android": "https://dc.lft.to/lastmile_qr_scan"}}, {"name": "05800e6662c1608f4e7b86d770490158", "fusion_lat": 0.0, "type": "electric_scooter", "lat": 38.91259633333333, "is_reserved": 0, "is_disabled": 0, "fusion_lon": 0.0, "bike_id": "05800e6662c1608f4e7b86d770490158", "lon": -77.00770766666666, "rental_uris": {"ios": "https://dc.lft.to/lastmile_qr_scan", "android": "https://dc.lft.to/lastmile_qr_scan"}}, {"name": "645faa731bcc66df4eaa2aae27db5bae", "fusion_lat": 0.0, "type": "electric_scooter", "lat": 38.937311, "is_reserved": 0, "is_disabled": 0, "fusion_lon": 0.0, "bike_id": "645faa731bcc66df4eaa2aae27db5bae", "lon": -77.0325885, "rental_uris": {"ios": "https://dc.lft.to/lastmile_qr_scan", "android": "https://dc.lft.to/lastmile_qr_scan"}}, {"name": "8239cc068a7bea893dfda223cd60a6e8", "fusion_lat": 0.0, "type": "electric_bike", "lat": 38.935854, "is_reserved": 0, "is_disabled": 0, "fusion_lon": 0.0, "bike_id": "8239cc068a7bea893dfda223cd60a6e8", "lon": -77.10687433333334, "rental_uris": {"ios": "https://dc.lft.to/lastmile_qr_scan", "android": "https://dc.lft.to/lastmile_qr_scan"}}, {"name": "b74cf86ee87ad503d5ed910cef44b4f0", "fusion_lat": 0.0, "type": "electric_scooter", "lat": 38.902947833333336, "is_reserved": 0, "is_disabled": 0, "fusion_lon": 0.0, "bike_id": "b74cf86ee87ad503d5ed910cef44b4f0", "lon": -77.0426565, "rental_uris": {"ios": "https://dc.lft.to/lastmile_qr_scan", "android": "https://dc.lft.to/lastmile_qr_scan"}}, {"name": "841bd0b5ffb61bb15335fd2cc40da217", "fusion_lat": 0.0, "type": "electric_scooter", "lat": 38.905231, "is_reserved": 0, "is_disabled": 0, "fusion_lon": 0.0, "bike_id": "841bd0b5ffb61bb15335fd2cc40da217", "lon": -77.0667495, "rental_uris": {"ios": "https://dc.lft.to/lastmile_qr_scan", "android": "https://dc.lft.to/lastmile_qr_scan"}}, {"name": "77abbf106caca3c27529cef274002d79", "fusion_lat": 0.0, "type": "electric_scooter", "lat": 38.944624833333336, "is_reserved": 0, "is_disabled": 0, "fusion_lon": 0.0, "bike_id": "77abbf106caca3c27529cef274002d79", "lon": -77.006571, "rental_uris": {"ios": "https://dc.lft.to/lastmile_qr_scan", "android": "https://dc.lft.to/lastmile_qr_scan"}}, {"name": "66b8fd9c8ed32451080b297dbc8a0828", "fusion_lat": 0.0, "type": "electric_scooter", "lat": 38.883415166666666, "is_reserved": 0, "is_disabled": 0, "fusion_lon": 0.0, "bike_id": "66b8fd9c8ed32451080b297dbc8a0828", "lon": -76.93650166666667, "rental_uris": {"ios": "https://dc.lft.to/lastmile_qr_scan", "android": "https://dc.lft.to/lastmile_qr_scan"}}, {"name": "d2b2d95e89220d71f778d997497f1f44", "fusion_lat": 0.0, "type": "electric_scooter", "lat": 38.899429166666664, "is_reserved": 0, "is_disabled": 0, "fusion_lon": 0.0, "bike_id": "d2b2d95e89220d71f778d997497f1f44", "lon": -77.02819466666666, "rental_uris": {"ios": "https://dc.lft.to/lastmile_qr_scan", "android": "https://dc.lft.to/lastmile_qr_scan"}}, {"name": "3b07b0ce585e3fadfc1f76da4cfe776a", "fusion_lat": 0.0, "type": "electric_scooter", "lat": 38.927082666666664, "is_reserved": 0, "is_disabled": 0, "fusion_lon": 0.0, "bike_id": "3b07b0ce585e3fadfc1f76da4cfe776a", "lon": -77.03734533333333, "rental_uris": {"ios": "https://dc.lft.to/lastmile_qr_scan", "android": "https://dc.lft.to/lastmile_qr_scan"}}, {"name": "2a95ae1bd89c9ed2686b728e0cf1d716", "fusion_lat": 0.0, "type": "electric_scooter", "lat": 38.91073083333333, "is_reserved": 0, "is_disabled": 0, "fusion_lon": 0.0, "bike_id": "2a95ae1bd89c9ed2686b728e0cf1d716", "lon": -77.06718166666667, "rental_uris": {"ios": "https://dc.lft.to/lastmile_qr_scan", "android": "https://dc.lft.to/lastmile_qr_scan"}}, {"name": "da4c578d0e9405e5907aa3f2e66fe66e", "fusion_lat": 0.0, "type": "electric_scooter", "lat": 38.872874, "is_reserved": 0, "is_disabled": 0, "fusion_lon": 0.0, "bike_id": "da4c578d0e9405e5907aa3f2e66fe66e", "lon": -77.00989183333333, "rental_uris": {"ios": "https://dc.lft.to/lastmile_qr_scan", "android": "https://dc.lft.to/lastmile_qr_scan"}}, {"name": "6e6877d1d73588099c6afbbf5951c579", "fusion_lat": 0.0, "type": "electric_scooter", "lat": 38.9847365, "is_reserved": 0, "is_disabled": 0, "fusion_lon": 0.0, "bike_id": "6e6877d1d73588099c6afbbf5951c579", "lon": -77.02646383333334, "rental_uris": {"ios": "https://dc.lft.to/lastmile_qr_scan", "android": "https://dc.lft.to/lastmile_qr_scan"}}, {"name": "bd2d9db9d7e83baa8af37ce300aced57", "fusion_lat": 0.0, "type": "electric_scooter", "lat": 38.9097655, "is_reserved": 0, "is_disabled": 0, "fusion_lon": 0.0, "bike_id": "bd2d9db9d7e83baa8af37ce300aced57", "lon": -77.03882, "rental_uris": {"ios": "https://dc.lft.to/lastmile_qr_scan", "android": "https://dc.lft.to/lastmile_qr_scan"}}, {"name": "7095ac9a2b7875e132629e226911fa1c", "fusion_lat": 0.0, "type": "electric_scooter", "lat": 38.94290133333333, "is_reserved": 0, "is_disabled": 0, "fusion_lon": 0.0, "bike_id": "7095ac9a2b7875e132629e226911fa1c", "lon": -77.02171383333334, "rental_uris": {"ios": "https://dc.lft.to/lastmile_qr_scan", "android": "https://dc.lft.to/lastmile_qr_scan"}}, {"name": "c0e0e0a26d04e135fe273dbf3fd457d1", "fusion_lat": 0.0, "type": "electric_scooter", "lat": 38.866874333333335, "is_reserved": 0, "is_disabled": 0, "fusion_lon": 0.0, "bike_id": "c0e0e0a26d04e135fe273dbf3fd457d1", "lon": -76.9890505, "rental_uris": {"ios": "https://dc.lft.to/lastmile_qr_scan", "android": "https://dc.lft.to/lastmile_qr_scan"}}, {"name": "3d45067412e5aa8409b54655fe66e207", "fusion_lat": 0.0, "type": "electric_scooter", "lat": 38.90263933333333, "is_reserved": 0, "is_disabled": 0, "fusion_lon": 0.0, "bike_id": "3d45067412e5aa8409b54655fe66e207", "lon": -77.03455516666666, "rental_uris": {"ios": "https://dc.lft.to/lastmile_qr_scan", "android": "https://dc.lft.to/lastmile_qr_scan"}}, {"name": "ce7d67531f28598f503d8209061578ae", "fusion_lat": 0.0, "type": "electric_bike", "lat": 38.94458216666666, "is_reserved": 0, "is_disabled": 0, "fusion_lon": 0.0, "bike_id": "ce7d67531f28598f503d8209061578ae", "lon": -77.063919, "rental_uris": {"ios": "https://dc.lft.to/lastmile_qr_scan", "android": "https://dc.lft.to/lastmile_qr_scan"}}, {"name": "0099f0304d70ef9bac320a4088f101ad", "fusion_lat": 0.0, "type": "electric_scooter", "lat": 38.921858, "is_reserved": 0, "is_disabled": 0, "fusion_lon": 0.0, "bike_id": "0099f0304d70ef9bac320a4088f101ad", "lon": -77.040087, "rental_uris": {"ios": "https://dc.lft.to/lastmile_qr_scan", "android": "https://dc.lft.to/lastmile_qr_scan"}}, {"name": "0454993a222d034ada2a59e6f82d823d", "fusion_lat": 0.0, "type": "electric_scooter", "lat": 38.883716, "is_reserved": 0, "is_disabled": 0, "fusion_lon": 0.0, "bike_id": "0454993a222d034ada2a59e6f82d823d", "lon": -77.02635316666667, "rental_uris": {"ios": "https://dc.lft.to/lastmile_qr_scan", "android": "https://dc.lft.to/lastmile_qr_scan"}}, {"name": "32b87742ab308eecc7e0b00e151c1095", "fusion_lat": 0.0, "type": "electric_bike", "lat": 38.892211333333336, "is_reserved": 0, "is_disabled": 0, "fusion_lon": 0.0, "bike_id": "32b87742ab308eecc7e0b00e151c1095", "lon": -77.1078605, "rental_uris": {"ios": "https://dc.lft.to/lastmile_qr_scan", "android": "https://dc.lft.to/lastmile_qr_scan"}}, {"name": "e93baed05067a83c2d8a693e8070e5aa", "fusion_lat": 0.0, "type": "electric_scooter", "lat": 38.89189, "is_reserved": 0, "is_disabled": 0, "fusion_lon": 0.0, "bike_id": "e93baed05067a83c2d8a693e8070e5aa", "lon": -77.0158565, "rental_uris": {"ios": "https://dc.lft.to/lastmile_qr_scan", "android": "https://dc.lft.to/lastmile_qr_scan"}}, {"name": "3eab16ce720eac93c7549864f00ef55a", "fusion_lat": 0.0, "type": "electric_scooter", "lat": 38.915657833333334, "is_reserved": 0, "is_disabled": 0, "fusion_lon": 0.0, "bike_id": "3eab16ce720eac93c7549864f00ef55a", "lon": -77.047172, "rental_uris": {"ios": "https://dc.lft.to/lastmile_qr_scan", "android": "https://dc.lft.to/lastmile_qr_scan"}}, {"name": "d9c115538fa7f3be666b19f4c45ac859", "fusion_lat": 0.0, "type": "electric_scooter", "lat": 38.90090933333333, "is_reserved": 0, "is_disabled": 0, "fusion_lon": 0.0, "bike_id": "d9c115538fa7f3be666b19f4c45ac859", "lon": -77.03179, "rental_uris": {"ios": "https://dc.lft.to/lastmile_qr_scan", "android": "https://dc.lft.to/lastmile_qr_scan"}}, {"name": "1fda2539e9e7cf8268714565e486abc0", "fusion_lat": 0.0, "type": "electric_scooter", "lat": 38.91811033333333, "is_reserved": 0, "is_disabled": 0, "fusion_lon": 0.0, "bike_id": "1fda2539e9e7cf8268714565e486abc0", "lon": -77.0317485, "rental_uris": {"ios": "https://dc.lft.to/lastmile_qr_scan", "android": "https://dc.lft.to/lastmile_qr_scan"}}, {"name": "06d923854556aa143c8004c510740b37", "fusion_lat": 0.0, "type": "electric_scooter", "lat": 38.902598, "is_reserved": 0, "is_disabled": 0, "fusion_lon": 0.0, "bike_id": "06d923854556aa143c8004c510740b37", "lon": -77.01801266666666, "rental_uris": {"ios": "https://dc.lft.to/lastmile_qr_scan", "android": "https://dc.lft.to/lastmile_qr_scan"}}, {"name": "a6f7541dd712483b59d7ae683d8f48ff", "fusion_lat": 0.0, "type": "electric_scooter", "lat": 38.90454183333333, "is_reserved": 0, "is_disabled": 0, "fusion_lon": 0.0, "bike_id": "a6f7541dd712483b59d7ae683d8f48ff", "lon": -77.06287233333333, "rental_uris": {"ios": "https://dc.lft.to/lastmile_qr_scan", "android": "https://dc.lft.to/lastmile_qr_scan"}}, {"name": "66bb3b889a351ae9389ae60761990cbf", "fusion_lat": 0.0, "type": "electric_bike", "lat": 38.87556433333334, "is_reserved": 0, "is_disabled": 0, "fusion_lon": 0.0, "bike_id": "66bb3b889a351ae9389ae60761990cbf", "lon": -76.967604, "rental_uris": {"ios": "https://dc.lft.to/lastmile_qr_scan", "android": "https://dc.lft.to/lastmile_qr_scan"}}, {"name": "3d4519386a211f856ec4b3b794ae06b1", "fusion_lat": 0.0, "type": "electric_scooter", "lat": 38.91347716666667, "is_reserved": 0, "is_disabled": 0, "fusion_lon": 0.0, "bike_id": "3d4519386a211f856ec4b3b794ae06b1", "lon": -77.003472, "rental_uris": {"ios": "https://dc.lft.to/lastmile_qr_scan", "android": "https://dc.lft.to/lastmile_qr_scan"}}, {"name": "ba24556c50d534612b2b932496c9e7d5", "fusion_lat": 0.0, "type": "electric_scooter", "lat": 38.900045, "is_reserved": 0, "is_disabled": 0, "fusion_lon": 0.0, "bike_id": "ba24556c50d534612b2b932496c9e7d5", "lon": -77.0112255, "rental_uris": {"ios": "https://dc.lft.to/lastmile_qr_scan", "android": "https://dc.lft.to/lastmile_qr_scan"}}, {"name": "48c517c18d9e580acf17500dd17aea60", "fusion_lat": 0.0, "type": "electric_bike", "lat": 38.894744, "is_reserved": 0, "is_disabled": 0, "fusion_lon": 0.0, "bike_id": "48c517c18d9e580acf17500dd17aea60", "lon": -77.04661766666666, "rental_uris": {"ios": "https://dc.lft.to/lastmile_qr_scan", "android": "https://dc.lft.to/lastmile_qr_scan"}}, {"name": "cff8a86de6276cf2c3c359f9a7a19e4c", "fusion_lat": 0.0, "type": "electric_bike", "lat": 38.949669666666665, "is_reserved": 0, "is_disabled": 0, "fusion_lon": 0.0, "bike_id": "cff8a86de6276cf2c3c359f9a7a19e4c", "lon": -76.97287166666666, "rental_uris": {"ios": "https://dc.lft.to/lastmile_qr_scan", "android": "https://dc.lft.to/lastmile_qr_scan"}}, {"name": "c7b4bbe1bb34f7c905a0a966a53120b0", "fusion_lat": 0.0, "type": "electric_scooter", "lat": 38.90037983333333, "is_reserved": 0, "is_disabled": 0, "fusion_lon": 0.0, "bike_id": "c7b4bbe1bb34f7c905a0a966a53120b0", "lon": -77.006374, "rental_uris": {"ios": "https://dc.lft.to/lastmile_qr_scan", "android": "https://dc.lft.to/lastmile_qr_scan"}}, {"name": "83a0af0ecd146359bd08acd158f42c6b", "fusion_lat": 0.0, "type": "electric_scooter", "lat": 38.932547, "is_reserved": 0, "is_disabled": 0, "fusion_lon": 0.0, "bike_id": "83a0af0ecd146359bd08acd158f42c6b", "lon": -77.04005916666667, "rental_uris": {"ios": "https://dc.lft.to/lastmile_qr_scan", "android": "https://dc.lft.to/lastmile_qr_scan"}}, {"name": "b215c8b5478a09b93367ce96e2f31954", "fusion_lat": 0.0, "type": "electric_scooter", "lat": 38.9297195, "is_reserved": 0, "is_disabled": 0, "fusion_lon": 0.0, "bike_id": "b215c8b5478a09b93367ce96e2f31954", "lon": -77.01963183333334, "rental_uris": {"ios": "https://dc.lft.to/lastmile_qr_scan", "android": "https://dc.lft.to/lastmile_qr_scan"}}, {"name": "687b373a13d54255e5d505a903126888", "fusion_lat": 0.0, "type": "electric_scooter", "lat": 38.90031783333333, "is_reserved": 0, "is_disabled": 0, "fusion_lon": 0.0, "bike_id": "687b373a13d54255e5d505a903126888", "lon": -77.0020455, "rental_uris": {"ios": "https://dc.lft.to/lastmile_qr_scan", "android": "https://dc.lft.to/lastmile_qr_scan"}}, {"name": "0b0612b9df688656aaf5379ddd18a1bf", "fusion_lat": 0.0, "type": "electric_scooter", "lat": 38.92152016666667, "is_reserved": 0, "is_disabled": 0, "fusion_lon": 0.0, "bike_id": "0b0612b9df688656aaf5379ddd18a1bf", "lon": -77.03509233333334, "rental_uris": {"ios": "https://dc.lft.to/lastmile_qr_scan", "android": "https://dc.lft.to/lastmile_qr_scan"}}, {"name": "bd6dfedb1ddedc37ec3974c061fa4585", "fusion_lat": 0.0, "type": "electric_scooter", "lat": 38.96147416666667, "is_reserved": 0, "is_disabled": 0, "fusion_lon": 0.0, "bike_id": "bd6dfedb1ddedc37ec3974c061fa4585", "lon": -77.0279775, "rental_uris": {"ios": "https://dc.lft.to/lastmile_qr_scan", "android": "https://dc.lft.to/lastmile_qr_scan"}}, {"name": "b4b854bbdbe55abb31f2d0e224c9b505", "fusion_lat": 0.0, "type": "electric_scooter", "lat": 38.941231333333334, "is_reserved": 0, "is_disabled": 0, "fusion_lon": 0.0, "bike_id": "b4b854bbdbe55abb31f2d0e224c9b505", "lon": -77.020567, "rental_uris": {"ios": "https://dc.lft.to/lastmile_qr_scan", "android": "https://dc.lft.to/lastmile_qr_scan"}}, {"name": "dd34fb8f209206431b1ed2dfbdaceaf2", "fusion_lat": 0.0, "type": "electric_scooter", "lat": 38.910434333333335, "is_reserved": 0, "is_disabled": 0, "fusion_lon": 0.0, "bike_id": "dd34fb8f209206431b1ed2dfbdaceaf2", "lon": -77.04838933333333, "rental_uris": {"ios": "https://dc.lft.to/lastmile_qr_scan", "android": "https://dc.lft.to/lastmile_qr_scan"}}, {"name": "086137cf670787493adac0b22e160340", "fusion_lat": 0.0, "type": "electric_scooter", "lat": 38.9027295, "is_reserved": 0, "is_disabled": 0, "fusion_lon": 0.0, "bike_id": "086137cf670787493adac0b22e160340", "lon": -77.0461425, "rental_uris": {"ios": "https://dc.lft.to/lastmile_qr_scan", "android": "https://dc.lft.to/lastmile_qr_scan"}}, {"name": "c4e19a0eb835a0c458cbffa89eadb436", "fusion_lat": 0.0, "type": "electric_scooter", "lat": 38.863575, "is_reserved": 0, "is_disabled": 0, "fusion_lon": 0.0, "bike_id": "c4e19a0eb835a0c458cbffa89eadb436", "lon": -76.990601, "rental_uris": {"ios": "https://dc.lft.to/lastmile_qr_scan", "android": "https://dc.lft.to/lastmile_qr_scan"}}, {"name": "a1abc43765edb872c637c4af166f16d4", "fusion_lat": 0.0, "type": "electric_bike", "lat": 38.93974, "is_reserved": 0, "is_disabled": 0, "fusion_lon": 0.0, "bike_id": "a1abc43765edb872c637c4af166f16d4", "lon": -76.9548985, "rental_uris": {"ios": "https://dc.lft.to/lastmile_qr_scan", "android": "https://dc.lft.to/lastmile_qr_scan"}}, {"name": "52e4677b70e4745e682b237a5c7067fc", "fusion_lat": 0.0, "type": "electric_scooter", "lat": 38.938756833333336, "is_reserved": 0, "is_disabled": 0, "fusion_lon": 0.0, "bike_id": "52e4677b70e4745e682b237a5c7067fc", "lon": -77.03260066666667, "rental_uris": {"ios": "https://dc.lft.to/lastmile_qr_scan", "android": "https://dc.lft.to/lastmile_qr_scan"}}, {"name": "8d9ea3594c8e6041b949e9e1f298074e", "fusion_lat": 0.0, "type": "electric_scooter", "lat": 38.9655925, "is_reserved": 0, "is_disabled": 0, "fusion_lon": 0.0, "bike_id": "8d9ea3594c8e6041b949e9e1f298074e", "lon": -77.01626966666667, "rental_uris": {"ios": "https://dc.lft.to/lastmile_qr_scan", "android": "https://dc.lft.to/lastmile_qr_scan"}}, {"name": "51f3bd3c21f8f145bd87b32c96a82520", "fusion_lat": 0.0, "type": "electric_scooter", "lat": 38.9042005, "is_reserved": 0, "is_disabled": 0, "fusion_lon": 0.0, "bike_id": "51f3bd3c21f8f145bd87b32c96a82520", "lon": -77.02592933333334, "rental_uris": {"ios": "https://dc.lft.to/lastmile_qr_scan", "android": "https://dc.lft.to/lastmile_qr_scan"}}, {"name": "9e528094402ee002ae2d258b1ee64d04", "fusion_lat": 0.0, "type": "electric_scooter", "lat": 38.92680816666667, "is_reserved": 0, "is_disabled": 0, "fusion_lon": 0.0, "bike_id": "9e528094402ee002ae2d258b1ee64d04", "lon": -77.02781183333333, "rental_uris": {"ios": "https://dc.lft.to/lastmile_qr_scan", "android": "https://dc.lft.to/lastmile_qr_scan"}}, {"name": "4ff8f7bb212a0a69c31c131fa0e71471", "fusion_lat": 0.0, "type": "electric_scooter", "lat": 38.923223666666665, "is_reserved": 0, "is_disabled": 0, "fusion_lon": 0.0, "bike_id": "4ff8f7bb212a0a69c31c131fa0e71471", "lon": -77.05467383333334, "rental_uris": {"ios": "https://dc.lft.to/lastmile_qr_scan", "android": "https://dc.lft.to/lastmile_qr_scan"}}, {"name": "690985914622b12160dbb880ad33d217", "fusion_lat": 0.0, "type": "electric_scooter", "lat": 38.92200883333334, "is_reserved": 0, "is_disabled": 0, "fusion_lon": 0.0, "bike_id": "690985914622b12160dbb880ad33d217", "lon": -77.04260616666667, "rental_uris": {"ios": "https://dc.lft.to/lastmile_qr_scan", "android": "https://dc.lft.to/lastmile_qr_scan"}}, {"name": "b4e96a6b5bdb0c8d15b9241fe8a15340", "fusion_lat": 0.0, "type": "electric_bike", "lat": 38.92866266666667, "is_reserved": 0, "is_disabled": 0, "fusion_lon": 0.0, "bike_id": "b4e96a6b5bdb0c8d15b9241fe8a15340", "lon": -76.9611205, "rental_uris": {"ios": "https://dc.lft.to/lastmile_qr_scan", "android": "https://dc.lft.to/lastmile_qr_scan"}}, {"name": "e630038697d68a6160fd2d8063037e92", "fusion_lat": 0.0, "type": "electric_scooter", "lat": 38.905776833333334, "is_reserved": 0, "is_disabled": 0, "fusion_lon": 0.0, "bike_id": "e630038697d68a6160fd2d8063037e92", "lon": -77.0486515, "rental_uris": {"ios": "https://dc.lft.to/lastmile_qr_scan", "android": "https://dc.lft.to/lastmile_qr_scan"}}, {"name": "5f345532536e8fe0e3968b7bd4913d87", "fusion_lat": 0.0, "type": "electric_scooter", "lat": 38.90967633333333, "is_reserved": 0, "is_disabled": 0, "fusion_lon": 0.0, "bike_id": "5f345532536e8fe0e3968b7bd4913d87", "lon": -77.01711366666666, "rental_uris": {"ios": "https://dc.lft.to/lastmile_qr_scan", "android": "https://dc.lft.to/lastmile_qr_scan"}}, {"name": "43e9c94ef52b2edc175d2c13d7931a2c", "fusion_lat": 0.0, "type": "electric_scooter", "lat": 38.898417333333335, "is_reserved": 0, "is_disabled": 0, "fusion_lon": 0.0, "bike_id": "43e9c94ef52b2edc175d2c13d7931a2c", "lon": -77.02000883333334, "rental_uris": {"ios": "https://dc.lft.to/lastmile_qr_scan", "android": "https://dc.lft.to/lastmile_qr_scan"}}, {"name": "41b9fc533e1d12bd9aac12c33d590dde", "fusion_lat": 0.0, "type": "electric_scooter", "lat": 38.93019666666667, "is_reserved": 0, "is_disabled": 0, "fusion_lon": 0.0, "bike_id": "41b9fc533e1d12bd9aac12c33d590dde", "lon": -77.038022, "rental_uris": {"ios": "https://dc.lft.to/lastmile_qr_scan", "android": "https://dc.lft.to/lastmile_qr_scan"}}, {"name": "f913213b62d83c7f673954b7a3628808", "fusion_lat": 0.0, "type": "electric_bike", "lat": 38.902842166666666, "is_reserved": 0, "is_disabled": 0, "fusion_lon": 0.0, "bike_id": "f913213b62d83c7f673954b7a3628808", "lon": -76.98090733333333, "rental_uris": {"ios": "https://dc.lft.to/lastmile_qr_scan", "android": "https://dc.lft.to/lastmile_qr_scan"}}, {"name": "80203ee4c2e687e96d17601be651ba61", "fusion_lat": 0.0, "type": "electric_scooter", "lat": 38.903238, "is_reserved": 0, "is_disabled": 0, "fusion_lon": 0.0, "bike_id": "80203ee4c2e687e96d17601be651ba61", "lon": -77.03845616666666, "rental_uris": {"ios": "https://dc.lft.to/lastmile_qr_scan", "android": "https://dc.lft.to/lastmile_qr_scan"}}, {"name": "fc00f9cb3d86153fea6a6e60d57b017c", "fusion_lat": 0.0, "type": "electric_scooter", "lat": 38.899193, "is_reserved": 0, "is_disabled": 0, "fusion_lon": 0.0, "bike_id": "fc00f9cb3d86153fea6a6e60d57b017c", "lon": -76.933826, "rental_uris": {"ios": "https://dc.lft.to/lastmile_qr_scan", "android": "https://dc.lft.to/lastmile_qr_scan"}}, {"name": "5823a21d54af8a1a149c69eed5fd9f65", "fusion_lat": 0.0, "type": "electric_scooter", "lat": 38.9180715, "is_reserved": 0, "is_disabled": 0, "fusion_lon": 0.0, "bike_id": "5823a21d54af8a1a149c69eed5fd9f65", "lon": -77.0281255, "rental_uris": {"ios": "https://dc.lft.to/lastmile_qr_scan", "android": "https://dc.lft.to/lastmile_qr_scan"}}, {"name": "13834e77e4c73e7adb3104af1b887b40", "fusion_lat": 0.0, "type": "electric_scooter", "lat": 38.9308545, "is_reserved": 0, "is_disabled": 0, "fusion_lon": 0.0, "bike_id": "13834e77e4c73e7adb3104af1b887b40", "lon": -77.02404316666667, "rental_uris": {"ios": "https://dc.lft.to/lastmile_qr_scan", "android": "https://dc.lft.to/lastmile_qr_scan"}}, {"name": "24f532cc59013dc99fb241f794914023", "fusion_lat": 0.0, "type": "electric_scooter", "lat": 38.918221, "is_reserved": 0, "is_disabled": 0, "fusion_lon": 0.0, "bike_id": "24f532cc59013dc99fb241f794914023", "lon": -77.04014016666666, "rental_uris": {"ios": "https://dc.lft.to/lastmile_qr_scan", "android": "https://dc.lft.to/lastmile_qr_scan"}}, {"name": "92fae4c0123ed88667160e65d0edd4f2", "fusion_lat": 0.0, "type": "electric_scooter", "lat": 38.874740833333334, "is_reserved": 0, "is_disabled": 0, "fusion_lon": 0.0, "bike_id": "92fae4c0123ed88667160e65d0edd4f2", "lon": -77.00177883333333, "rental_uris": {"ios": "https://dc.lft.to/lastmile_qr_scan", "android": "https://dc.lft.to/lastmile_qr_scan"}}, {"name": "305bec9575afe0aef23d885252d3b415", "fusion_lat": 0.0, "type": "electric_scooter", "lat": 38.9014425, "is_reserved": 0, "is_disabled": 0, "fusion_lon": 0.0, "bike_id": "305bec9575afe0aef23d885252d3b415", "lon": -76.99973283333334, "rental_uris": {"ios": "https://dc.lft.to/lastmile_qr_scan", "android": "https://dc.lft.to/lastmile_qr_scan"}}, {"name": "f6a0ae0128e55ac31dd536327e7051c5", "fusion_lat": 0.0, "type": "electric_bike", "lat": 38.8381235, "is_reserved": 0, "is_disabled": 0, "fusion_lon": 0.0, "bike_id": "f6a0ae0128e55ac31dd536327e7051c5", "lon": -77.09524366666666, "rental_uris": {"ios": "https://dc.lft.to/lastmile_qr_scan", "android": "https://dc.lft.to/lastmile_qr_scan"}}, {"name": "5e44b4c15c84da500e8d21f6799301fc", "fusion_lat": 0.0, "type": "electric_bike", "lat": 38.9732135, "is_reserved": 0, "is_disabled": 0, "fusion_lon": 0.0, "bike_id": "5e44b4c15c84da500e8d21f6799301fc", "lon": -77.02153583333333, "rental_uris": {"ios": "https://dc.lft.to/lastmile_qr_scan", "android": "https://dc.lft.to/lastmile_qr_scan"}}, {"name": "d1d0d4dd626718092359bb81e7b6580b", "fusion_lat": 0.0, "type": "electric_scooter", "lat": 38.93422366666667, "is_reserved": 0, "is_disabled": 0, "fusion_lon": 0.0, "bike_id": "d1d0d4dd626718092359bb81e7b6580b", "lon": -77.0399555, "rental_uris": {"ios": "https://dc.lft.to/lastmile_qr_scan", "android": "https://dc.lft.to/lastmile_qr_scan"}}, {"name": "5e9347b37c887c07cbbf37a600384f15", "fusion_lat": 0.0, "type": "electric_scooter", "lat": 38.87628616666667, "is_reserved": 0, "is_disabled": 0, "fusion_lon": 0.0, "bike_id": "5e9347b37c887c07cbbf37a600384f15", "lon": -76.96528966666666, "rental_uris": {"ios": "https://dc.lft.to/lastmile_qr_scan", "android": "https://dc.lft.to/lastmile_qr_scan"}}, {"name": "9bf8025baadddbaaaa7b2cb9f0d03926", "fusion_lat": 0.0, "type": "electric_scooter", "lat": 38.899718666666665, "is_reserved": 0, "is_disabled": 0, "fusion_lon": 0.0, "bike_id": "9bf8025baadddbaaaa7b2cb9f0d03926", "lon": -77.01142083333333, "rental_uris": {"ios": "https://dc.lft.to/lastmile_qr_scan", "android": "https://dc.lft.to/lastmile_qr_scan"}}, {"name": "0296a5f64a153853fa1ff195a10dafb8", "fusion_lat": 0.0, "type": "electric_bike", "lat": 38.9097065, "is_reserved": 0, "is_disabled": 0, "fusion_lon": 0.0, "bike_id": "0296a5f64a153853fa1ff195a10dafb8", "lon": -77.0881975, "rental_uris": {"ios": "https://dc.lft.to/lastmile_qr_scan", "android": "https://dc.lft.to/lastmile_qr_scan"}}, {"name": "84c7760a047a9f0a8413c443c221bad1", "fusion_lat": 0.0, "type": "electric_scooter", "lat": 38.911974, "is_reserved": 0, "is_disabled": 0, "fusion_lon": 0.0, "bike_id": "84c7760a047a9f0a8413c443c221bad1", "lon": -77.05965583333334, "rental_uris": {"ios": "https://dc.lft.to/lastmile_qr_scan", "android": "https://dc.lft.to/lastmile_qr_scan"}}, {"name": "d87cad40f60de6535dbe8842fd39660e", "fusion_lat": 0.0, "type": "electric_scooter", "lat": 38.916909833333335, "is_reserved": 0, "is_disabled": 0, "fusion_lon": 0.0, "bike_id": "d87cad40f60de6535dbe8842fd39660e", "lon": -77.025984, "rental_uris": {"ios": "https://dc.lft.to/lastmile_qr_scan", "android": "https://dc.lft.to/lastmile_qr_scan"}}, {"name": "45844b8c45421feb242d6781c69f7c9b", "fusion_lat": 0.0, "type": "electric_scooter", "lat": 38.87653516666666, "is_reserved": 0, "is_disabled": 0, "fusion_lon": 0.0, "bike_id": "45844b8c45421feb242d6781c69f7c9b", "lon": -77.004277, "rental_uris": {"ios": "https://dc.lft.to/lastmile_qr_scan", "android": "https://dc.lft.to/lastmile_qr_scan"}}, {"name": "e356af816089eabd8e92dc487852f8c0", "fusion_lat": 0.0, "type": "electric_scooter", "lat": 38.904704, "is_reserved": 0, "is_disabled": 0, "fusion_lon": 0.0, "bike_id": "e356af816089eabd8e92dc487852f8c0", "lon": -77.04861666666666, "rental_uris": {"ios": "https://dc.lft.to/lastmile_qr_scan", "android": "https://dc.lft.to/lastmile_qr_scan"}}, {"name": "7ebf8ad859b02632421a4f024af75397", "fusion_lat": 0.0, "type": "electric_bike", "lat": 38.82443833333333, "is_reserved": 0, "is_disabled": 0, "fusion_lon": 0.0, "bike_id": "7ebf8ad859b02632421a4f024af75397", "lon": -77.0704515, "rental_uris": {"ios": "https://dc.lft.to/lastmile_qr_scan", "android": "https://dc.lft.to/lastmile_qr_scan"}}, {"name": "8f613461e51f8722131e7be3e3e60323", "fusion_lat": 0.0, "type": "electric_bike", "lat": 38.90332383333333, "is_reserved": 0, "is_disabled": 0, "fusion_lon": 0.0, "bike_id": "8f613461e51f8722131e7be3e3e60323", "lon": -77.0204045, "rental_uris": {"ios": "https://dc.lft.to/lastmile_qr_scan", "android": "https://dc.lft.to/lastmile_qr_scan"}}, {"name": "00bfb40fac7c32f07a208eec39103a04", "fusion_lat": 0.0, "type": "electric_scooter", "lat": 38.8790635, "is_reserved": 0, "is_disabled": 0, "fusion_lon": 0.0, "bike_id": "00bfb40fac7c32f07a208eec39103a04", "lon": -77.022205, "rental_uris": {"ios": "https://dc.lft.to/lastmile_qr_scan", "android": "https://dc.lft.to/lastmile_qr_scan"}}, {"name": "e10242c3ed6c3f94df968a2c541aeee6", "fusion_lat": 0.0, "type": "electric_scooter", "lat": 38.84292166666667, "is_reserved": 0, "is_disabled": 0, "fusion_lon": 0.0, "bike_id": "e10242c3ed6c3f94df968a2c541aeee6", "lon": -76.99949433333333, "rental_uris": {"ios": "https://dc.lft.to/lastmile_qr_scan", "android": "https://dc.lft.to/lastmile_qr_scan"}}, {"name": "c6c7642b9904ecfab236c1f871091727", "fusion_lat": 0.0, "type": "electric_scooter", "lat": 38.91032033333333, "is_reserved": 0, "is_disabled": 0, "fusion_lon": 0.0, "bike_id": "c6c7642b9904ecfab236c1f871091727", "lon": -77.04350916666667, "rental_uris": {"ios": "https://dc.lft.to/lastmile_qr_scan", "android": "https://dc.lft.to/lastmile_qr_scan"}}, {"name": "0467b183d30de04aa5fe8a6382a3efd2", "fusion_lat": 0.0, "type": "electric_scooter", "lat": 38.899214666666666, "is_reserved": 0, "is_disabled": 0, "fusion_lon": 0.0, "bike_id": "0467b183d30de04aa5fe8a6382a3efd2", "lon": -76.9338355, "rental_uris": {"ios": "https://dc.lft.to/lastmile_qr_scan", "android": "https://dc.lft.to/lastmile_qr_scan"}}, {"name": "a7ae5291115d97902db4576f51339cf4", "fusion_lat": 0.0, "type": "electric_scooter", "lat": 38.902202833333334, "is_reserved": 0, "is_disabled": 0, "fusion_lon": 0.0, "bike_id": "a7ae5291115d97902db4576f51339cf4", "lon": -77.03181366666666, "rental_uris": {"ios": "https://dc.lft.to/lastmile_qr_scan", "android": "https://dc.lft.to/lastmile_qr_scan"}}, {"name": "aea0050fbaa74ff3f9f502431d2ae552", "fusion_lat": 0.0, "type": "electric_bike", "lat": 38.881336166666664, "is_reserved": 0, "is_disabled": 0, "fusion_lon": 0.0, "bike_id": "aea0050fbaa74ff3f9f502431d2ae552", "lon": -76.9809925, "rental_uris": {"ios": "https://dc.lft.to/lastmile_qr_scan", "android": "https://dc.lft.to/lastmile_qr_scan"}}, {"name": "7b4fa21d9ff8da5045a89a7c951d9d34", "fusion_lat": 0.0, "type": "electric_scooter", "lat": 38.88422333333333, "is_reserved": 0, "is_disabled": 0, "fusion_lon": 0.0, "bike_id": "7b4fa21d9ff8da5045a89a7c951d9d34", "lon": -77.03048066666666, "rental_uris": {"ios": "https://dc.lft.to/lastmile_qr_scan", "android": "https://dc.lft.to/lastmile_qr_scan"}}, {"name": "491ff71cd8a65f0271ad4a3f6a357da6", "fusion_lat": 0.0, "type": "electric_scooter", "lat": 38.921977, "is_reserved": 0, "is_disabled": 0, "fusion_lon": 0.0, "bike_id": "491ff71cd8a65f0271ad4a3f6a357da6", "lon": -77.04128533333333, "rental_uris": {"ios": "https://dc.lft.to/lastmile_qr_scan", "android": "https://dc.lft.to/lastmile_qr_scan"}}, {"name": "6477851fef8165c52b0bdacf4e05644a", "fusion_lat": 0.0, "type": "electric_scooter", "lat": 38.90639816666667, "is_reserved": 0, "is_disabled": 0, "fusion_lon": 0.0, "bike_id": "6477851fef8165c52b0bdacf4e05644a", "lon": -76.98570433333333, "rental_uris": {"ios": "https://dc.lft.to/lastmile_qr_scan", "android": "https://dc.lft.to/lastmile_qr_scan"}}, {"name": "5283a10d09dc12972b20da36fcfd38f9", "fusion_lat": 0.0, "type": "electric_scooter", "lat": 38.93193316666667, "is_reserved": 0, "is_disabled": 0, "fusion_lon": 0.0, "bike_id": "5283a10d09dc12972b20da36fcfd38f9", "lon": -77.02581483333333, "rental_uris": {"ios": "https://dc.lft.to/lastmile_qr_scan", "android": "https://dc.lft.to/lastmile_qr_scan"}}, {"name": "1b7312499e032c80467bf281f01db3d6", "fusion_lat": 0.0, "type": "electric_scooter", "lat": 38.923088, "is_reserved": 0, "is_disabled": 0, "fusion_lon": 0.0, "bike_id": "1b7312499e032c80467bf281f01db3d6", "lon": -77.02977133333333, "rental_uris": {"ios": "https://dc.lft.to/lastmile_qr_scan", "android": "https://dc.lft.to/lastmile_qr_scan"}}, {"name": "a1c38bb7f898dba10ca601ed6a9b2702", "fusion_lat": 0.0, "type": "electric_scooter", "lat": 38.9030565, "is_reserved": 0, "is_disabled": 0, "fusion_lon": 0.0, "bike_id": "a1c38bb7f898dba10ca601ed6a9b2702", "lon": -77.05793216666666, "rental_uris": {"ios": "https://dc.lft.to/lastmile_qr_scan", "android": "https://dc.lft.to/lastmile_qr_scan"}}, {"name": "c68abdcd44090bfec2aafebd72097b93", "fusion_lat": 0.0, "type": "electric_scooter", "lat": 38.90199, "is_reserved": 0, "is_disabled": 0, "fusion_lon": 0.0, "bike_id": "c68abdcd44090bfec2aafebd72097b93", "lon": -77.0505475, "rental_uris": {"ios": "https://dc.lft.to/lastmile_qr_scan", "android": "https://dc.lft.to/lastmile_qr_scan"}}, {"name": "4772a01203129ad423a172a952f3d64b", "fusion_lat": 0.0, "type": "electric_scooter", "lat": 38.91834, "is_reserved": 0, "is_disabled": 0, "fusion_lon": 0.0, "bike_id": "4772a01203129ad423a172a952f3d64b", "lon": -77.04561666666666, "rental_uris": {"ios": "https://dc.lft.to/lastmile_qr_scan", "android": "https://dc.lft.to/lastmile_qr_scan"}}, {"name": "99b5576f267f240fd2d4f23f5582098a", "fusion_lat": 0.0, "type": "electric_scooter", "lat": 38.956473, "is_reserved": 0, "is_disabled": 0, "fusion_lon": 0.0, "bike_id": "99b5576f267f240fd2d4f23f5582098a", "lon": -77.02275283333333, "rental_uris": {"ios": "https://dc.lft.to/lastmile_qr_scan", "android": "https://dc.lft.to/lastmile_qr_scan"}}, {"name": "6c9c33160c6b4d419c04193d7c684439", "fusion_lat": 0.0, "type": "electric_bike", "lat": 38.92332733333333, "is_reserved": 0, "is_disabled": 0, "fusion_lon": 0.0, "bike_id": "6c9c33160c6b4d419c04193d7c684439", "lon": -77.02288283333333, "rental_uris": {"ios": "https://dc.lft.to/lastmile_qr_scan", "android": "https://dc.lft.to/lastmile_qr_scan"}}, {"name": "25e4743b48ac1225c6b7840ec4307be0", "fusion_lat": 0.0, "type": "electric_bike", "lat": 38.94628216666667, "is_reserved": 0, "is_disabled": 0, "fusion_lon": 0.0, "bike_id": "25e4743b48ac1225c6b7840ec4307be0", "lon": -77.08051933333333, "rental_uris": {"ios": "https://dc.lft.to/lastmile_qr_scan", "android": "https://dc.lft.to/lastmile_qr_scan"}}, {"name": "7e3f75e9aa7df7fe6e5d33617e370b07", "fusion_lat": 0.0, "type": "electric_scooter", "lat": 38.90135933333333, "is_reserved": 0, "is_disabled": 0, "fusion_lon": 0.0, "bike_id": "7e3f75e9aa7df7fe6e5d33617e370b07", "lon": -77.0187585, "rental_uris": {"ios": "https://dc.lft.to/lastmile_qr_scan", "android": "https://dc.lft.to/lastmile_qr_scan"}}, {"name": "c0b807248ea6b36f08833fd879c64fc2", "fusion_lat": 0.0, "type": "electric_scooter", "lat": 38.903829333333334, "is_reserved": 0, "is_disabled": 0, "fusion_lon": 0.0, "bike_id": "c0b807248ea6b36f08833fd879c64fc2", "lon": -77.04842733333334, "rental_uris": {"ios": "https://dc.lft.to/lastmile_qr_scan", "android": "https://dc.lft.to/lastmile_qr_scan"}}, {"name": "410e54b13c2b0bd6c4094ac827e5f80c", "fusion_lat": 0.0, "type": "electric_scooter", "lat": 38.917634, "is_reserved": 0, "is_disabled": 0, "fusion_lon": 0.0, "bike_id": "410e54b13c2b0bd6c4094ac827e5f80c", "lon": -77.0251415, "rental_uris": {"ios": "https://dc.lft.to/lastmile_qr_scan", "android": "https://dc.lft.to/lastmile_qr_scan"}}, {"name": "eff61679808ecf56854e17145278ea08", "fusion_lat": 0.0, "type": "electric_scooter", "lat": 38.90538183333334, "is_reserved": 0, "is_disabled": 0, "fusion_lon": 0.0, "bike_id": "eff61679808ecf56854e17145278ea08", "lon": -77.04475366666667, "rental_uris": {"ios": "https://dc.lft.to/lastmile_qr_scan", "android": "https://dc.lft.to/lastmile_qr_scan"}}, {"name": "12a479c7ce158dbc41b30605a0f62dab", "fusion_lat": 0.0, "type": "electric_bike", "lat": 38.84484066666667, "is_reserved": 0, "is_disabled": 0, "fusion_lon": 0.0, "bike_id": "12a479c7ce158dbc41b30605a0f62dab", "lon": -76.97221166666667, "rental_uris": {"ios": "https://dc.lft.to/lastmile_qr_scan", "android": "https://dc.lft.to/lastmile_qr_scan"}}, {"name": "9cac1da56d9688384945cd0cf14d8794", "fusion_lat": 0.0, "type": "electric_scooter", "lat": 38.9372445, "is_reserved": 0, "is_disabled": 0, "fusion_lon": 0.0, "bike_id": "9cac1da56d9688384945cd0cf14d8794", "lon": -77.03636566666667, "rental_uris": {"ios": "https://dc.lft.to/lastmile_qr_scan", "android": "https://dc.lft.to/lastmile_qr_scan"}}, {"name": "8696d80b349ebda34aa44baedb89dfeb", "fusion_lat": 0.0, "type": "electric_scooter", "lat": 38.9172155, "is_reserved": 0, "is_disabled": 0, "fusion_lon": 0.0, "bike_id": "8696d80b349ebda34aa44baedb89dfeb", "lon": -77.018666, "rental_uris": {"ios": "https://dc.lft.to/lastmile_qr_scan", "android": "https://dc.lft.to/lastmile_qr_scan"}}, {"name": "efd0489c21f96d5c604f962978c65942", "fusion_lat": 0.0, "type": "electric_scooter", "lat": 38.912484166666665, "is_reserved": 0, "is_disabled": 0, "fusion_lon": 0.0, "bike_id": "efd0489c21f96d5c604f962978c65942", "lon": -77.03840383333333, "rental_uris": {"ios": "https://dc.lft.to/lastmile_qr_scan", "android": "https://dc.lft.to/lastmile_qr_scan"}}, {"name": "ef4206207bbbcbd2c57dd9b34d985d83", "fusion_lat": 0.0, "type": "electric_scooter", "lat": 38.90673116666667, "is_reserved": 0, "is_disabled": 0, "fusion_lon": 0.0, "bike_id": "ef4206207bbbcbd2c57dd9b34d985d83", "lon": -77.027134, "rental_uris": {"ios": "https://dc.lft.to/lastmile_qr_scan", "android": "https://dc.lft.to/lastmile_qr_scan"}}, {"name": "16899ed24e492932b54c8bd7f67f6d52", "fusion_lat": 0.0, "type": "electric_bike", "lat": 38.81048533333333, "is_reserved": 0, "is_disabled": 0, "fusion_lon": 0.0, "bike_id": "16899ed24e492932b54c8bd7f67f6d52", "lon": -77.08510033333333, "rental_uris": {"ios": "https://dc.lft.to/lastmile_qr_scan", "android": "https://dc.lft.to/lastmile_qr_scan"}}, {"name": "2a27a863e828817a8614cb79198f3372", "fusion_lat": 0.0, "type": "electric_scooter", "lat": 38.9353225, "is_reserved": 0, "is_disabled": 0, "fusion_lon": 0.0, "bike_id": "2a27a863e828817a8614cb79198f3372", "lon": -77.03407183333333, "rental_uris": {"ios": "https://dc.lft.to/lastmile_qr_scan", "android": "https://dc.lft.to/lastmile_qr_scan"}}, {"name": "b4cb81c9c583068f7aee1c47b5c86a37", "fusion_lat": 0.0, "type": "electric_bike", "lat": 38.85427583333333, "is_reserved": 0, "is_disabled": 0, "fusion_lon": 0.0, "bike_id": "b4cb81c9c583068f7aee1c47b5c86a37", "lon": -76.90973583333333, "rental_uris": {"ios": "https://dc.lft.to/lastmile_qr_scan", "android": "https://dc.lft.to/lastmile_qr_scan"}},