{"data": {"bikes": [{"type": "electric_scooter", "fusion_lon": 0.0, "bike_id": "574fa338772c71847c36a0c3035fc8fe", "is_disabled": 0, "lat": 38.9049425, "rental_uris": {"ios": "https://dc.lft.to/lastmile_qr_scan", "android": "https://dc.lft.to/lastmile_qr_scan"}, "is_reserved": 0, "lon": -77.0343805, "fusion_lat": 0.0, "name": "574fa338772c71847c36a0c3035fc8fe"}, {"type": "electric_scooter", "fusion_lon": 0.0, "bike_id": "16b9ae5cdf3e5dd87c9d5d52e8af0682", "is_disabled": 0, "lat": 38.892098833333336, "rental_uris": {"ios": "https://dc.lft.to/lastmile_qr_scan", "android": "https://dc.lft.to/lastmile_qr_scan"}, "is_reserved": 0, "lon": -76.92922566666667, "fusion_lat": 0.0, "name": "16b9ae5cdf3e5dd87c9d5d52e8af0682"}, {"type": "electric_scooter", "fusion_lon": 0.0, "bike_id": "9f10031a1fd4bb8d1d5504a738ac7b35", "is_disabled": 0, "lat": 38.898449666666664, "rental_uris": {"ios": "https://dc.lft.to/lastmile_qr_scan", "android": "https://dc.lft.to/lastmile_qr_scan"}, "is_reserved": 0, "lon": -76.94254116666667, "fusion_lat": 0.0, "name": "9f10031a1fd4bb8d1d5504a738ac7b35"}, {"type": "electric_bike", "fusion_lon": 0.0, "bike_id": "9fa3c4f4c563f7b74c94f9b89be35baa", "is_disabled": 0, "lat": 38.85883716666667, "rental_uris": {"ios": "https://dc.lft.to/lastmile_qr_scan", "android": "https://dc.lft.to/lastmile_qr_scan"}, "is_reserved": 0, "lon": -77.09551083333334, "fusion_lat": 0.0, "name": "9fa3c4f4c563f7b74c94f9b89be35baa"}, {"type": "electric_scooter", "fusion_lon": 0.0, "bike_id": "d55993b2bed946ec95101adcd7c35637", "is_disabled": 0, "lat": 38.91104816666667, "rental_uris": {"ios": "https://dc.lft.to/lastmile_qr_scan", "android": "https://dc.lft.to/lastmile_qr_scan"}, "is_reserved": 0, "lon": -77.04543416666667, "fusion_lat": 0.0, "name": "d55993b2bed946ec95101adcd7c35637"}, {"type": "electric_scooter", "fusion_lon": 0.0, "bike_id": "e24937061490c92aa5dc75041d5a5545", "is_disabled": 0, "lat": 38.928142666666666, "rental_uris": {"ios": "https://dc.lft.to/lastmile_qr_scan", "android": "https://dc.lft.to/lastmile_qr_scan"}, "is_reserved": 0, "lon": -77.04332583333333, "fusion_lat": 0.0, "name": "e24937061490c92aa5dc75041d5a5545"}, {"type": "electric_scooter", "fusion_lon": 0.0, "bike_id": "c306de098ec7154b3e45b47a79ff4495", "is_disabled": 0, "lat": 38.921712166666666, "rental_uris": {"ios": "https://dc.lft.to/lastmile_qr_scan", "android": "https://dc.lft.to/lastmile_qr_scan"}, "is_reserved": 0, "lon": -77.0329115, "fusion_lat": 0.0, "name": "c306de098ec7154b3e45b47a79ff4495"}, {"type": "electric_scooter", "fusion_lon": 0.0, "bike_id": "124b2fdd0746b6eb5aa9710e90ee3447", "is_disabled": 0, "lat": 38.88181316666667, "rental_uris": {"ios": "https://dc.lft.to/lastmile_qr_scan", "android": "https://dc.lft.to/lastmile_qr_scan"}, "is_reserved": 0, "lon": -76.99254733333333, "fusion_lat": 0.0, "name": "124b2fdd0746b6eb5aa9710e90ee3447"}, {"type": "electric_scooter", "fusion_lon": 0.0, "bike_id": "de3f234cbd8a6d3d7fb0f21ac031a190", "is_disabled": 0, "lat": 38.87534816666667, "rental_uris": {"ios": "https://dc.lft.to/lastmile_qr_scan", "android": "https://dc.lft.to/lastmile_qr_scan"}, "is_reserved": 0, "lon": -77.00508966666666, "fusion_lat": 0.0, "name": "de3f234cbd8a6d3d7fb0f21ac031a190"}, {"type": "electric_scooter", "fusion_lon": 0.0, "bike_id": "3fab5f81250e51cb36e404093704bb02", "is_disabled": 0, "lat": 38.93273466666667, "rental_uris": {"ios": "https://dc.lft.to/lastmile_qr_scan", "android": "https://dc.lft.to/lastmile_qr_scan"}, "is_reserved": 0, "lon": -76.97952383333333, "fusion_lat": 0.0, "name": "3fab5f81250e51cb36e404093704bb02"}, {"type": "electric_scooter", "fusion_lon": 0.0, "bike_id": "cd7e8c3b360b222ae142cb968cb50458", "is_disabled": 0, "lat": 38.92477866666667, "rental_uris": {"ios": "https://dc.lft.to/lastmile_qr_scan", "android": "https://dc.lft.to/lastmile_qr_scan"}, "is_reserved": 0, "lon": -77.0222085, "fusion_lat": 0.0, "name": "cd7e8c3b360b222ae142cb968cb50458"}, {"type": "electric_scooter", "fusion_lon": 0.0, "bike_id": "e54835c26cef82eb856b1eef718cd1b2", "is_disabled": 0, "lat": 38.91565583333333, "rental_uris": {"ios": "https://dc.lft.to/lastmile_qr_scan", "android": "https://dc.lft.to/lastmile_qr_scan"}, "is_reserved": 0, "lon": -77.03223516666667, "fusion_lat": 0.0, "name": "e54835c26cef82eb856b1eef718cd1b2"}, {"type": "electric_scooter", "fusion_lon": 0.0, "bike_id": "91c27a742e0fb3e92632f5cf6bfa7027", "is_disabled": 0, "lat": 38.91759966666667, "rental_uris": {"ios": "https://dc.lft.to/lastmile_qr_scan", "android": "https://dc.lft.to/lastmile_qr_scan"}, "is_reserved": 0, "lon": -77.0229565, "fusion_lat": 0.0, "name": "91c27a742e0fb3e92632f5cf6bfa7027"}, {"type": "electric_scooter", "fusion_lon": 0.0, "bike_id": "0d5565d4d54a9a859a619f07aa674721", "is_disabled": 0, "lat": 38.9162075, "rental_uris": {"ios": "https://dc.lft.to/lastmile_qr_scan", "android": "https://dc.lft.to/lastmile_qr_scan"}, "is_reserved": 0, "lon": -77.03860083333333, "fusion_lat": 0.0, "name": "0d5565d4d54a9a859a619f07aa674721"}, {"type": "electric_scooter", "fusion_lon": 0.0, "bike_id": "13dccca5bf0020fc92dabbaabd7a7610", "is_disabled": 0, "lat": 38.894957, "rental_uris": {"ios": "https://dc.lft.to/lastmile_qr_scan", "android": "https://dc.lft.to/lastmile_qr_scan"}, "is_reserved": 0, "lon": -77.002917, "fusion_lat": 0.0, "name": "13dccca5bf0020fc92dabbaabd7a7610"}, {"type": "electric_scooter", "fusion_lon": 0.0, "bike_id": "f13e45c1fe7a970534db5a828517fded", "is_disabled": 0, "lat": 38.90963766666667, "rental_uris": {"ios": "https://dc.lft.to/lastmile_qr_scan", "android": "https://dc.lft.to/lastmile_qr_scan"}, "is_reserved": 0, "lon": -77.02308116666667, "fusion_lat": 0.0, "name": "f13e45c1fe7a970534db5a828517fded"}, {"type": "electric_scooter", "fusion_lon": 0.0, "bike_id": "befed7ccb4cb73a3eb12335eeba4ed4f", "is_disabled": 0, "lat": 38.892260666666665, "rental_uris": {"ios": "https://dc.lft.to/lastmile_qr_scan", "android": "https://dc.lft.to/lastmile_qr_scan"}, "is_reserved": 0, "lon": -77.041989, "fusion_lat": 0.0, "name": "befed7ccb4cb73a3eb12335eeba4ed4f"}, {"type": "electric_scooter", "fusion_lon": 0.0, "bike_id": "cadce0c9620211dc8a6e2878b2885b79", "is_disabled": 0, "lat": 38.918397666666664, "rental_uris": {"ios": "https://dc.lft.to/lastmile_qr_scan", "android": "https://dc.lft.to/lastmile_qr_scan"}, "is_reserved": 0, "lon": -77.04178716666667, "fusion_lat": 0.0, "name": "cadce0c9620211dc8a6e2878b2885b79"}, {"type": "electric_scooter", "fusion_lon": 0.0, "bike_id": "3cf73654e55c50c5a3604191dda12df2", "is_disabled": 0, "lat": 38.91221733333333, "rental_uris": {"ios": "https://dc.lft.to/lastmile_qr_scan", "android": "https://dc.lft.to/lastmile_qr_scan"}, "is_reserved": 0, "lon": -77.00663483333334, "fusion_lat": 0.0, "name": "3cf73654e55c50c5a3604191dda12df2"}, {"type": "electric_scooter", "fusion_lon": 0.0, "bike_id": "ca917a5308dea9a93b84c166c5b57836", "is_disabled": 0, "lat": 38.9274745, "rental_uris": {"ios": "https://dc.lft.to/lastmile_qr_scan", "android": "https://dc.lft.to/lastmile_qr_scan"}, "is_reserved": 0, "lon": -77.02535683333333, "fusion_lat": 0.0, "name": "ca917a5308dea9a93b84c166c5b57836"}, {"type": "electric_bike", "fusion_lon": 0.0, "bike_id": "9aa9660473566fe134a3b913ea148ff8", "is_disabled": 0, "lat": 38.857780166666664, "rental_uris": {"ios": "https://dc.lft.to/lastmile_qr_scan", "android": "https://dc.lft.to/lastmile_qr_scan"}, "is_reserved": 0, "lon": -76.97324666666667, "fusion_lat": 0.0, "name": "9aa9660473566fe134a3b913ea148ff8"}, {"type": "electric_scooter", "fusion_lon": 0.0, "bike_id": "cd69725be9fde6a090fa0691ed186704", "is_disabled": 0, "lat": 38.90826216666667, "rental_uris": {"ios": "https://dc.lft.to/lastmile_qr_scan", "android": "https://dc.lft.to/lastmile_qr_scan"}, "is_reserved": 0, "lon": -77.03915566666667, "fusion_lat": 0.0, "name": "cd69725be9fde6a090fa0691ed186704"}, {"type": "electric_scooter", "fusion_lon": 0.0, "bike_id": "54a2e412b0b0b4c2ddcd53d7d186aa31", "is_disabled": 0, "lat": 38.919638166666665, "rental_uris": {"ios": "https://dc.lft.to/lastmile_qr_scan", "android": "https://dc.lft.to/lastmile_qr_scan"}, "is_reserved": 0, "lon": -77.02403833333334, "fusion_lat": 0.0, "name": "54a2e412b0b0b4c2ddcd53d7d186aa31"}, {"type": "electric_scooter", "fusion_lon": 0.0, "bike_id": "c189631e42277d08b6fb6c602d59c406", "is_disabled": 0, "lat": 38.93451666666667, "rental_uris": {"ios": "https://dc.lft.to/lastmile_qr_scan", "android": "https://dc.lft.to/lastmile_qr_scan"}, "is_reserved": 0, "lon": -77.032424, "fusion_lat": 0.0, "name": "c189631e42277d08b6fb6c602d59c406"}, {"type": "electric_scooter", "fusion_lon": 0.0, "bike_id": "4b406f9b1c5cd3be6866cfdda5e17073", "is_disabled": 0, "lat": 38.91449383333333, "rental_uris": {"ios": "https://dc.lft.to/lastmile_qr_scan", "android": "https://dc.lft.to/lastmile_qr_scan"}, "is_reserved": 0, "lon": -77.0415865, "fusion_lat": 0.0, "name": "4b406f9b1c5cd3be6866cfdda5e17073"}, {"type": "electric_scooter", "fusion_lon": 0.0, "bike_id": "4fe4d41e5a9cc803ee54f4c348845801", "is_disabled": 0, "lat": 38.93427633333334, "rental_uris": {"ios": "https://dc.lft.to/lastmile_qr_scan", "android": "https://dc.lft.to/lastmile_qr_scan"}, "is_reserved": 0, "lon": -77.04425966666666, "fusion_lat": 0.0, "name": "4fe4d41e5a9cc803ee54f4c348845801"}, {"type": "electric_scooter", "fusion_lon": 0.0, "bike_id": "2c03cfa7e9439e5bdd586ed1f86acb91", "is_disabled": 0, "lat": 38.89851266666667, "rental_uris": {"ios": "https://dc.lft.to/lastmile_qr_scan", "android": "https://dc.lft.to/lastmile_qr_scan"}, "is_reserved": 0, "lon": -76.99030066666667, "fusion_lat": 0.0, "name": "2c03cfa7e9439e5bdd586ed1f86acb91"}, {"type": "electric_scooter", "fusion_lon": 0.0, "bike_id": "d10b042020788a8141a63c601df110b9", "is_disabled": 0, "lat": 38.92058083333333, "rental_uris": {"ios": "https://dc.lft.to/lastmile_qr_scan", "android": "https://dc.lft.to/lastmile_qr_scan"}, "is_reserved": 0, "lon": -77.02374016666667, "fusion_lat": 0.0, "name": "d10b042020788a8141a63c601df110b9"}, {"type": "electric_scooter", "fusion_lon": 0.0, "bike_id": "4fa93606f1c4e7e643c752a1dd965fae", "is_disabled": 0, "lat": 38.905519, "rental_uris": {"ios": "https://dc.lft.to/lastmile_qr_scan", "android": "https://dc.lft.to/lastmile_qr_scan"}, "is_reserved": 0, "lon": -77.01405283333334, "fusion_lat": 0.0, "name": "4fa93606f1c4e7e643c752a1dd965fae"}, {"type": "electric_scooter", "fusion_lon": 0.0, "bike_id": "051d98c71648d9099766c641cf679fa8", "is_disabled": 0, "lat": 38.9736925, "rental_uris": {"ios": "https://dc.lft.to/lastmile_qr_scan", "android": "https://dc.lft.to/lastmile_qr_scan"}, "is_reserved": 0, "lon": -77.018468, "fusion_lat": 0.0, "name": "051d98c71648d9099766c641cf679fa8"}, {"type": "electric_scooter", "fusion_lon": 0.0, "bike_id": "fc147a203a25b33fea6780750ccc0e91", "is_disabled": 0, "lat": 38.925722, "rental_uris": {"ios": "https://dc.lft.to/lastmile_qr_scan", "android": "https://dc.lft.to/lastmile_qr_scan"}, "is_reserved": 0, "lon": -77.03212533333334, "fusion_lat": 0.0, "name": "fc147a203a25b33fea6780750ccc0e91"}, {"type": "electric_scooter", "fusion_lon": 0.0, "bike_id": "a42e1ab7b5925ebef1824aa4d701aa21", "is_disabled": 0, "lat": 38.91522916666667, "rental_uris": {"ios": "https://dc.lft.to/lastmile_qr_scan", "android": "https://dc.lft.to/lastmile_qr_scan"}, "is_reserved": 0, "lon": -77.012215, "fusion_lat": 0.0, "name": "a42e1ab7b5925ebef1824aa4d701aa21"}, {"type": "electric_scooter", "fusion_lon": 0.0, "bike_id": "d450a496352ed4fec1d48538ae62c90d", "is_disabled": 0, "lat": 38.905101333333334, "rental_uris": {"ios": "https://dc.lft.to/lastmile_qr_scan", "android": "https://dc.lft.to/lastmile_qr_scan"}, "is_reserved": 0, "lon": -77.0674005, "fusion_lat": 0.0, "name": "d450a496352ed4fec1d48538ae62c90d"}, {"type": "electric_scooter", "fusion_lon": 0.0, "bike_id": "c9ed8939fc94063ac528f116a91426bd", "is_disabled": 0, "lat": 38.921513166666664, "rental_uris": {"ios": "https://dc.lft.to/lastmile_qr_scan", "android": "https://dc.lft.to/lastmile_qr_scan"}, "is_reserved": 0, "lon": -77.03508466666666, "fusion_lat": 0.0, "name": "c9ed8939fc94063ac528f116a91426bd"}, {"type": "electric_bike", "fusion_lon": 0.0, "bike_id": "55fe76b2d02304dc5aa32798593dbaf6", "is_disabled": 0, "lat": 38.8802815, "rental_uris": {"ios": "https://dc.lft.to/lastmile_qr_scan", "android": "https://dc.lft.to/lastmile_qr_scan"}, "is_reserved": 0, "lon": -76.91726916666667, "fusion_lat": 0.0, "name": "55fe76b2d02304dc5aa32798593dbaf6"}, {"type": "electric_bike", "fusion_lon": 0.0, "bike_id": "461cf5216070c0e84de954adcc1a27ac", "is_disabled": 0, "lat": 38.920738666666665, "rental_uris": {"ios": "https://dc.lft.to/lastmile_qr_scan", "android": "https://dc.lft.to/lastmile_qr_scan"}, "is_reserved": 0, "lon": -77.0242665, "fusion_lat": 0.0, "name": "461cf5216070c0e84de954adcc1a27ac"}, {"type": "electric_scooter", "fusion_lon": 0.0, "bike_id": "92c2bd23bbd42b46e5a5fe21435204fe", "is_disabled": 0, "lat": 38.9273875, "rental_uris": {"ios": "https://dc.lft.to/lastmile_qr_scan", "android": "https://dc.lft.to/lastmile_qr_scan"}, "is_reserved": 0, "lon": -77.0356155, "fusion_lat": 0.0, "name": "92c2bd23bbd42b46e5a5fe21435204fe"}, {"type": "electric_bike", "fusion_lon": 0.0, "bike_id": "397fe0552580ebdbb88e43be23b14716", "is_disabled": 0, "lat": 38.9447245, "rental_uris": {"ios": "https://dc.lft.to/lastmile_qr_scan", "android": "https://dc.lft.to/lastmile_qr_scan"}, "is_reserved": 0, "lon": -76.98684283333333, "fusion_lat": 0.0, "name": "397fe0552580ebdbb88e43be23b14716"}, {"type": "electric_bike", "fusion_lon": 0.0, "bike_id": "03ce9ef5f67dd7597b51e01b5c39e86e", "is_disabled": 0, "lat": 38.8985625, "rental_uris": {"ios": "https://dc.lft.to/lastmile_qr_scan", "android": "https://dc.lft.to/lastmile_qr_scan"}, "is_reserved": 0, "lon": -76.93187083333333, "fusion_lat": 0.0, "name": "03ce9ef5f67dd7597b51e01b5c39e86e"}, {"type": "electric_scooter", "fusion_lon": 0.0, "bike_id": "e9340e06bd12126ef7f37ae66a716470", "is_disabled": 0, "lat": 38.8994135, "rental_uris": {"ios": "https://dc.lft.to/lastmile_qr_scan", "android": "https://dc.lft.to/lastmile_qr_scan"}, "is_reserved": 0, "lon": -76.99733366666666, "fusion_lat": 0.0, "name": "e9340e06bd12126ef7f37ae66a716470"}, {"type": "electric_scooter", "fusion_lon": 0.0, "bike_id": "39fedea01b08c6aa97a55c28bbf42ad7", "is_disabled": 0, "lat": 38.89592, "rental_uris": {"ios": "https://dc.lft.to/lastmile_qr_scan", "android": "https://dc.lft.to/lastmile_qr_scan"}, "is_reserved": 0, "lon": -77.02966266666667, "fusion_lat": 0.0, "name": "39fedea01b08c6aa97a55c28bbf42ad7"}, {"type": "electric_bike", "fusion_lon": 0.0, "bike_id": "181d80eba1e1ee8926cb06d450a06f6e", "is_disabled": 0, "lat": 38.92882083333333, "rental_uris": {"ios": "https://dc.lft.to/lastmile_qr_scan", "android": "https://dc.lft.to/lastmile_qr_scan"}, "is_reserved": 0, "lon": -77.03785216666667, "fusion_lat": 0.0, "name": "181d80eba1e1ee8926cb06d450a06f6e"}, {"type": "electric_scooter", "fusion_lon": 0.0, "bike_id": "2988e9821ed02473cab66c0929ca9b43", "is_disabled": 0, "lat": 38.918342833333334, "rental_uris": {"ios": "https://dc.lft.to/lastmile_qr_scan", "android": "https://dc.lft.to/lastmile_qr_scan"}, "is_reserved": 0, "lon": -77.04515433333333, "fusion_lat": 0.0, "name": "2988e9821ed02473cab66c0929ca9b43"}, {"type": "electric_scooter", "fusion_lon": 0.0, "bike_id": "bb10ac206d1782d3924c9fdd1beef60c", "is_disabled": 0, "lat": 38.9056795, "rental_uris": {"ios": "https://dc.lft.to/lastmile_qr_scan", "android": "https://dc.lft.to/lastmile_qr_scan"}, "is_reserved": 0, "lon": -77.04304483333334, "fusion_lat": 0.0, "name": "bb10ac206d1782d3924c9fdd1beef60c"}, {"type": "electric_scooter", "fusion_lon": 0.0, "bike_id": "2c0b55398e47daeab5d7e0e944f5a9a9", "is_disabled": 0, "lat": 38.9124525, "rental_uris": {"ios": "https://dc.lft.to/lastmile_qr_scan", "android": "https://dc.lft.to/lastmile_qr_scan"}, "is_reserved": 0, "lon": -77.03638683333334, "fusion_lat": 0.0, "name": "2c0b55398e47daeab5d7e0e944f5a9a9"}, {"type": "electric_bike", "fusion_lon": 0.0, "bike_id": "9b731bb7989ce9b102cb741f7ce516fe", "is_disabled": 0, "lat": 38.78452766666667, "rental_uris": {"ios": "https://dc.lft.to/lastmile_qr_scan", "android": "https://dc.lft.to/lastmile_qr_scan"}, "is_reserved": 0, "lon": -77.01636166666667, "fusion_lat": 0.0, "name": "9b731bb7989ce9b102cb741f7ce516fe"}, {"type": "electric_scooter", "fusion_lon": 0.0, "bike_id": "b6a45f7691de04fc171153eae67d9664", "is_disabled": 0, "lat": 38.8602565, "rental_uris": {"ios": "https://dc.lft.to/lastmile_qr_scan", "android": "https://dc.lft.to/lastmile_qr_scan"}, "is_reserved": 0, "lon": -76.97004133333333, "fusion_lat": 0.0, "name": "b6a45f7691de04fc171153eae67d9664"}, {"type": "electric_scooter", "fusion_lon": 0.0, "bike_id": "5ae652553c71fedfd7de401cf63458dd", "is_disabled": 0, "lat": 38.926805, "rental_uris": {"ios": "https://dc.lft.to/lastmile_qr_scan", "android": "https://dc.lft.to/lastmile_qr_scan"}, "is_reserved": 0, "lon": -77.02793716666666, "fusion_lat": 0.0, "name": "5ae652553c71fedfd7de401cf63458dd"}, {"type": "electric_bike", "fusion_lon": 0.0, "bike_id": "97ff2be08f02ba742d218c59325982de", "is_disabled": 0, "lat": 38.96784433333333, "rental_uris": {"ios": "https://dc.lft.to/lastmile_qr_scan", "android": "https://dc.lft.to/lastmile_qr_scan"}, "is_reserved": 0, "lon": -76.96266766666666, "fusion_lat": 0.0, "name": "97ff2be08f02ba742d218c59325982de"}, {"type": "electric_scooter", "fusion_lon": 0.0, "bike_id": "8423e61e1b8ed76ed56c2854e089d9ac", "is_disabled": 0, "lat": 38.91688666666667, "rental_uris": {"ios": "https://dc.lft.to/lastmile_qr_scan", "android": "https://dc.lft.to/lastmile_qr_scan"}, "is_reserved": 0, "lon": -77.02527066666667, "fusion_lat": 0.0, "name": "8423e61e1b8ed76ed56c2854e089d9ac"}, {"type": "electric_scooter", "fusion_lon": 0.0, "bike_id": "fc6d673cd2b2b5e95a5e521ac488c510", "is_disabled": 0, "lat": 38.917919166666664, "rental_uris": {"ios": "https://dc.lft.to/lastmile_qr_scan", "android": "https://dc.lft.to/lastmile_qr_scan"}, "is_reserved": 0, "lon": -77.03161583333333, "fusion_lat": 0.0, "name": "fc6d673cd2b2b5e95a5e521ac488c510"}, {"type": "electric_scooter", "fusion_lon": 0.0, "bike_id": "94a7a0f53b2c09280fd63fcd874a7c2d", "is_disabled": 0, "lat": 38.89230116666667, "rental_uris": {"ios": "https://dc.lft.to/lastmile_qr_scan", "android": "https://dc.lft.to/lastmile_qr_scan"}, "is_reserved": 0, "lon": -77.02828083333333, "fusion_lat": 0.0, "name": "94a7a0f53b2c09280fd63fcd874a7c2d"}, {"type": "electric_scooter", "fusion_lon": 0.0, "bike_id": "ac761c4c2aeebd8a676b71327a84ed7d", "is_disabled": 0, "lat": 38.896086, "rental_uris": {"ios": "https://dc.lft.to/lastmile_qr_scan", "android": "https://dc.lft.to/lastmile_qr_scan"}, "is_reserved": 0, "lon": -76.9988635, "fusion_lat": 0.0, "name": "ac761c4c2aeebd8a676b71327a84ed7d"}, {"type": "electric_scooter", "fusion_lon": 0.0, "bike_id": "b30e99a8305d2de526e6deed89dffaef", "is_disabled": 0, "lat": 38.91364516666667, "rental_uris": {"ios": "https://dc.lft.to/lastmile_qr_scan", "android": "https://dc.lft.to/lastmile_qr_scan"}, "is_reserved": 0, "lon": -77.02235383333333, "fusion_lat": 0.0, "name": "b30e99a8305d2de526e6deed89dffaef"}, {"type": "electric_scooter", "fusion_lon": 0.0, "bike_id": "c187cc34a077f8d22d78fd7c6dd34ad8", "is_disabled": 0, "lat": 38.91643216666667, "rental_uris": {"ios": "https://dc.lft.to/lastmile_qr_scan", "android": "https://dc.lft.to/lastmile_qr_scan"}, "is_reserved": 0, "lon": -77.02271633333334, "fusion_lat": 0.0, "name": "c187cc34a077f8d22d78fd7c6dd34ad8"}, {"type": "electric_scooter", "fusion_lon": 0.0, "bike_id": "2d76f79008c6542c3454490add9ce270", "is_disabled": 0, "lat": 38.911075833333335, "rental_uris": {"ios": "https://dc.lft.to/lastmile_qr_scan", "android": "https://dc.lft.to/lastmile_qr_scan"}, "is_reserved": 0, "lon": -77.01152816666666, "fusion_lat": 0.0, "name": "2d76f79008c6542c3454490add9ce270"}, {"type": "electric_scooter", "fusion_lon": 0.0, "bike_id": "466979baaff43d54d7f253e16f5f65b9", "is_disabled": 0, "lat": 38.95415283333333, "rental_uris": {"ios": "https://dc.lft.to/lastmile_qr_scan", "android": "https://dc.lft.to/lastmile_qr_scan"}, "is_reserved": 0, "lon": -77.0136405, "fusion_lat": 0.0, "name": "466979baaff43d54d7f253e16f5f65b9"}, {"type": "electric_scooter", "fusion_lon": 0.0, "bike_id": "6e16b002db40f4a133eff51771f0d875", "is_disabled": 0, "lat": 38.96608916666667, "rental_uris": {"ios": "https://dc.lft.to/lastmile_qr_scan", "android": "https://dc.lft.to/lastmile_qr_scan"}, "is_reserved": 0, "lon": -77.027445, "fusion_lat": 0.0, "name": "6e16b002db40f4a133eff51771f0d875"}, {"type": "electric_scooter", "fusion_lon": 0.0, "bike_id": "5de565ca211787e52c67876e1cadb75a", "is_disabled": 0, "lat": 38.86539466666667, "rental_uris": {"ios": "https://dc.lft.to/lastmile_qr_scan", "android": "https://dc.lft.to/lastmile_qr_scan"}, "is_reserved": 0, "lon": -76.98707783333333, "fusion_lat": 0.0, "name": "5de565ca211787e52c67876e1cadb75a"}, {"type": "electric_scooter", "fusion_lon": 0.0, "bike_id": "e6f2dd5695ed6927a2e454069189876d", "is_disabled": 0, "lat": 38.93943616666667, "rental_uris": {"ios": "https://dc.lft.to/lastmile_qr_scan", "android": "https://dc.lft.to/lastmile_qr_scan"}, "is_reserved": 0, "lon": -77.07519833333333, "fusion_lat": 0.0, "name": "e6f2dd5695ed6927a2e454069189876d"}, {"type": "electric_scooter", "fusion_lon": 0.0, "bike_id": "3331bf9bc0d6720d09e44e2cadc9cdf7", "is_disabled": 0, "lat": 38.933981333333335, "rental_uris": {"ios": "https://dc.lft.to/lastmile_qr_scan", "android": "https://dc.lft.to/lastmile_qr_scan"}, "is_reserved": 0, "lon": -77.05746383333333, "fusion_lat": 0.0, "name": "3331bf9bc0d6720d09e44e2cadc9cdf7"}, {"type": "electric_scooter", "fusion_lon": 0.0, "bike_id": "5596ba15b6c2d04c03f13b017645d269", "is_disabled": 0, "lat": 38.874666, "rental_uris": {"ios": "https://dc.lft.to/lastmile_qr_scan", "android": "https://dc.lft.to/lastmile_qr_scan"}, "is_reserved": 0, "lon": -77.00556216666666, "fusion_lat": 0.0, "name": "5596ba15b6c2d04c03f13b017645d269"}, {"type": "electric_scooter", "fusion_lon": 0.0, "bike_id": "2f79b8fcf8362b0d81fca9e4af04b015", "is_disabled": 0, "lat": 38.918752166666664, "rental_uris": {"ios": "https://dc.lft.to/lastmile_qr_scan", "android": "https://dc.lft.to/lastmile_qr_scan"}, "is_reserved": 0, "lon": -77.03564783333333, "fusion_lat": 0.0, "name": "2f79b8fcf8362b0d81fca9e4af04b015"}, {"type": "electric_scooter", "fusion_lon": 0.0, "bike_id": "72ab7a73314b59babd68b9c54ea1ca50", "is_disabled": 0, "lat": 38.8627575, "rental_uris": {"ios": "https://dc.lft.to/lastmile_qr_scan", "android": "https://dc.lft.to/lastmile_qr_scan"}, "is_reserved": 0, "lon": -76.99529416666667, "fusion_lat": 0.0, "name": "72ab7a73314b59babd68b9c54ea1ca50"}, {"type": "electric_scooter", "fusion_lon": 0.0, "bike_id": "8274468f95ea2d674fd19ee32c070ee1", "is_disabled": 0, "lat": 38.931967666666665, "rental_uris": {"ios": "https://dc.lft.to/lastmile_qr_scan", "android": "https://dc.lft.to/lastmile_qr_scan"}, "is_reserved": 0, "lon": -77.029612, "fusion_lat": 0.0, "name": "8274468f95ea2d674fd19ee32c070ee1"}, {"type": "electric_scooter", "fusion_lon": 0.0, "bike_id": "e22da82d0abaa02b9dc9803a56e2832a", "is_disabled": 0, "lat": 38.893391, "rental_uris": {"ios": "https://dc.lft.to/lastmile_qr_scan", "android": "https://dc.lft.to/lastmile_qr_scan"}, "is_reserved": 0, "lon": -76.99379833333333, "fusion_lat": 0.0, "name": "e22da82d0abaa02b9dc9803a56e2832a"}, {"type": "electric_scooter", "fusion_lon": 0.0, "bike_id": "7d69c2a5210b1a6c9c3cc269be7ce03d", "is_disabled": 0, "lat": 38.93533016666667, "rental_uris": {"ios": "https://dc.lft.to/lastmile_qr_scan", "android": "https://dc.lft.to/lastmile_qr_scan"}, "is_reserved": 0, "lon": -77.02854716666667, "fusion_lat": 0.0, "name": "7d69c2a5210b1a6c9c3cc269be7ce03d"}, {"type": "electric_scooter", "fusion_lon": 0.0, "bike_id": "ee50c7bf5d7a995be439a97854f3c547", "is_disabled": 0, "lat": 38.90238883333333, "rental_uris": {"ios": "https://dc.lft.to/lastmile_qr_scan", "android": "https://dc.lft.to/lastmile_qr_scan"}, "is_reserved": 0, "lon": -77.00205016666666, "fusion_lat": 0.0, "name": "ee50c7bf5d7a995be439a97854f3c547"}, {"type": "electric_scooter", "fusion_lon": 0.0, "bike_id": "8ba1f4ef2197cf982d39ab347a459d42", "is_disabled": 0, "lat": 38.926700333333336, "rental_uris": {"ios": "https://dc.lft.to/lastmile_qr_scan", "android": "https://dc.lft.to/lastmile_qr_scan"}, "is_reserved": 0, "lon": -77.02119283333333, "fusion_lat": 0.0, "name": "8ba1f4ef2197cf982d39ab347a459d42"}, {"type": "electric_scooter", "fusion_lon": 0.0, "bike_id": "a0f2ba4444e91855400830f843a0e973", "is_disabled": 0, "lat": 38.921113, "rental_uris": {"ios": "https://dc.lft.to/lastmile_qr_scan", "android": "https://dc.lft.to/lastmile_qr_scan"}, "is_reserved": 0, "lon": -77.02508883333333, "fusion_lat": 0.0, "name": "a0f2ba4444e91855400830f843a0e973"}, {"type": "electric_scooter", "fusion_lon": 0.0, "bike_id": "895875885fb46c12dc25d454f6f4ae0e", "is_disabled": 0, "lat": 38.925804666666664, "rental_uris": {"ios": "https://dc.lft.to/lastmile_qr_scan", "android": "https://dc.lft.to/lastmile_qr_scan"}, "is_reserved": 0, "lon": -77.02611816666666, "fusion_lat": 0.0, "name": "895875885fb46c12dc25d454f6f4ae0e"}, {"type": "electric_scooter", "fusion_lon": 0.0, "bike_id": "12d95ad687d9fa184185e34a5ae10044", "is_disabled": 0, "lat": 38.9078885, "rental_uris": {"ios": "https://dc.lft.to/lastmile_qr_scan", "android": "https://dc.lft.to/lastmile_qr_scan"}, "is_reserved": 0, "lon": -77.0724815, "fusion_lat": 0.0, "name": "12d95ad687d9fa184185e34a5ae10044"}, {"type": "electric_scooter", "fusion_lon": 0.0, "bike_id": "3ebb5e25ab93728affaa27c1213945e3", "is_disabled": 0, "lat": 38.90426566666667, "rental_uris": {"ios": "https://dc.lft.to/lastmile_qr_scan", "android": "https://dc.lft.to/lastmile_qr_scan"}, "is_reserved": 0, "lon": -77.04842516666666, "fusion_lat": 0.0, "name": "3ebb5e25ab93728affaa27c1213945e3"}, {"type": "electric_scooter", "fusion_lon": 0.0, "bike_id": "41f2dab7b3d097130f2dba347573c6a1", "is_disabled": 0, "lat": 38.924682, "rental_uris": {"ios": "https://dc.lft.to/lastmile_qr_scan", "android": "https://dc.lft.to/lastmile_qr_scan"}, "is_reserved": 0, "lon": -77.02710316666666, "fusion_lat": 0.0, "name": "41f2dab7b3d097130f2dba347573c6a1"}, {"type": "electric_scooter", "fusion_lon": 0.0, "bike_id": "20b5c72aeb3f8ce02187682fbdbada8e", "is_disabled": 0, "lat": 38.9433985, "rental_uris": {"ios": "https://dc.lft.to/lastmile_qr_scan", "android": "https://dc.lft.to/lastmile_qr_scan"}, "is_reserved": 0, "lon": -77.06126383333333, "fusion_lat": 0.0, "name": "20b5c72aeb3f8ce02187682fbdbada8e"}, {"type": "electric_scooter", "fusion_lon": 0.0, "bike_id": "5ad154c54566f5779562bb90c5bf1812", "is_disabled": 0, "lat": 38.8766185, "rental_uris": {"ios": "https://dc.lft.to/lastmile_qr_scan", "android": "https://dc.lft.to/lastmile_qr_scan"}, "is_reserved": 0, "lon": -77.00465616666666, "fusion_lat": 0.0, "name": "5ad154c54566f5779562bb90c5bf1812"}, {"type": "electric_scooter", "fusion_lon": 0.0, "bike_id": "e3aef7325f008f06d46ffc9ef3285fd5", "is_disabled": 0, "lat": 38.91248366666667, "rental_uris": {"ios": "https://dc.lft.to/lastmile_qr_scan", "android": "https://dc.lft.to/lastmile_qr_scan"}, "is_reserved": 0, "lon": -77.06285166666666, "fusion_lat": 0.0, "name": "e3aef7325f008f06d46ffc9ef3285fd5"}, {"type": "electric_scooter", "fusion_lon": 0.0, "bike_id": "8e2698a6551e00aeb430e77bbda3c1a8", "is_disabled": 0, "lat": 38.889639, "rental_uris": {"ios": "https://dc.lft.to/lastmile_qr_scan", "android": "https://dc.lft.to/lastmile_qr_scan"}, "is_reserved": 0, "lon": -76.98081916666666, "fusion_lat": 0.0, "name": "8e2698a6551e00aeb430e77bbda3c1a8"}, {"type": "electric_scooter", "fusion_lon": 0.0, "bike_id": "698c4aac1744f047a6ef74ff9295fdb3", "is_disabled": 0, "lat": 38.936307, "rental_uris": {"ios": "https://dc.lft.to/lastmile_qr_scan", "android": "https://dc.lft.to/lastmile_qr_scan"}, "is_reserved": 0, "lon": -77.0366195, "fusion_lat": 0.0, "name": "698c4aac1744f047a6ef74ff9295fdb3"}, {"type": "electric_scooter", "fusion_lon": 0.0, "bike_id": "24d79c890a76371f63f0b83574de0487", "is_disabled": 0, "lat": 38.919150333333334, "rental_uris": {"ios": "https://dc.lft.to/lastmile_qr_scan", "android": "https://dc.lft.to/lastmile_qr_scan"}, "is_reserved": 0, "lon": -77.01903933333334, "fusion_lat": 0.0, "name": "24d79c890a76371f63f0b83574de0487"}, {"type": "electric_scooter", "fusion_lon": 0.0, "bike_id": "8bdd4a4c4a100399c5a68af4ab5f2627", "is_disabled": 0, "lat": 38.913531166666665, "rental_uris": {"ios": "https://dc.lft.to/lastmile_qr_scan", "android": "https://dc.lft.to/lastmile_qr_scan"}, "is_reserved": 0, "lon": -77.03180266666666, "fusion_lat": 0.0, "name": "8bdd4a4c4a100399c5a68af4ab5f2627"}, {"type": "electric_scooter", "fusion_lon": 0.0, "bike_id": "ee5120cb3c7171d1ec797c37c707be58", "is_disabled": 0, "lat": 38.8833155, "rental_uris": {"ios": "https://dc.lft.to/lastmile_qr_scan", "android": "https://dc.lft.to/lastmile_qr_scan"}, "is_reserved": 0, "lon": -77.01144716666667, "fusion_lat": 0.0, "name": "ee5120cb3c7171d1ec797c37c707be58"}, {"type": "electric_scooter", "fusion_lon": 0.0, "bike_id": "d42aa61252b6440bb5049219b815eb87", "is_disabled": 0, "lat": 38.92977466666667, "rental_uris": {"ios": "https://dc.lft.to/lastmile_qr_scan", "android": "https://dc.lft.to/lastmile_qr_scan"}, "is_reserved": 0, "lon": -77.02819266666667, "fusion_lat": 0.0, "name": "d42aa61252b6440bb5049219b815eb87"}, {"type": "electric_bike", "fusion_lon": 0.0, "bike_id": "7e25c7f25f486c9a9bd2c5148e0453a6", "is_disabled": 0, "lat": 39.0156795, "rental_uris": {"ios": "https://dc.lft.to/lastmile_qr_scan", "android": "https://dc.lft.to/lastmile_qr_scan"}, "is_reserved": 0, "lon": -77.0442445, "fusion_lat": 0.0, "name": "7e25c7f25f486c9a9bd2c5148e0453a6"}, {"type": "electric_scooter", "fusion_lon": 0.0, "bike_id": "bb30acadec65b14c129efac862e2c8c3", "is_disabled": 0, "lat": 38.88415, "rental_uris": {"ios": "https://dc.lft.to/lastmile_qr_scan", "android": "https://dc.lft.to/lastmile_qr_scan"}, "is_reserved": 0, "lon": -77.023932, "fusion_lat": 0.0, "name": "bb30acadec65b14c129efac862e2c8c3"}, {"type": "electric_scooter", "fusion_lon": 0.0, "bike_id": "33989859709bd1ac9aefbee7b8d984c5", "is_disabled": 0, "lat": 38.89271166666666, "rental_uris": {"ios": "https://dc.lft.to/lastmile_qr_scan", "android": "https://dc.lft.to/lastmile_qr_scan"}, "is_reserved": 0, "lon": -77.0420805, "fusion_lat": 0.0, "name": "33989859709bd1ac9aefbee7b8d984c5"}, {"type": "electric_scooter", "fusion_lon": 0.0, "bike_id": "1d73a73a6bda3ab7ac3b380650832fdf", "is_disabled": 0, "lat": 38.892293, "rental_uris": {"ios": "https://dc.lft.to/lastmile_qr_scan", "android": "https://dc.lft.to/lastmile_qr_scan"}, "is_reserved": 0, "lon": -77.028259, "fusion_lat": 0.0, "name": "1d73a73a6bda3ab7ac3b380650832fdf"}, {"type": "electric_scooter", "fusion_lon": 0.0, "bike_id": "ec743cc05dcf0edc14cfce661be55d0b", "is_disabled": 0, "lat": 38.89132583333333, "rental_uris": {"ios": "https://dc.lft.to/lastmile_qr_scan", "android": "https://dc.lft.to/lastmile_qr_scan"}, "is_reserved": 0, "lon": -76.98882616666667, "fusion_lat": 0.0, "name": "ec743cc05dcf0edc14cfce661be55d0b"}, {"type": "electric_scooter", "fusion_lon": 0.0, "bike_id": "35e933018d25d39923a314671fb8d7c1", "is_disabled": 0, "lat": 38.90028483333333, "rental_uris": {"ios": "https://dc.lft.to/lastmile_qr_scan", "android": "https://dc.lft.to/lastmile_qr_scan"}, "is_reserved": 0, "lon": -77.026079, "fusion_lat": 0.0, "name": "35e933018d25d39923a314671fb8d7c1"}, {"type": "electric_scooter", "fusion_lon": 0.0, "bike_id": "22b7452e764eb4824457d506b102fcdf", "is_disabled": 0, "lat": 38.9268475, "rental_uris": {"ios": "https://dc.lft.to/lastmile_qr_scan", "android": "https://dc.lft.to/lastmile_qr_scan"}, "is_reserved": 0, "lon": -77.02254833333333, "fusion_lat": 0.0, "name": "22b7452e764eb4824457d506b102fcdf"}, {"type": "electric_scooter", "fusion_lon": 0.0, "bike_id": "0467c168ca6ed5ea6d94c47ff1b3be31", "is_disabled": 0, "lat": 38.9120195, "rental_uris": {"ios": "https://dc.lft.to/lastmile_qr_scan", "android": "https://dc.lft.to/lastmile_qr_scan"}, "is_reserved": 0, "lon": -77.00202016666667, "fusion_lat": 0.0, "name": "0467c168ca6ed5ea6d94c47ff1b3be31"}, {"type": "electric_scooter", "fusion_lon": 0.0, "bike_id": "61a325d9cce29ad9ebe208c6cac2e211", "is_disabled": 0, "lat": 38.91022533333334, "rental_uris": {"ios": "https://dc.lft.to/lastmile_qr_scan", "android": "https://dc.lft.to/lastmile_qr_scan"}, "is_reserved": 0, "lon": -77.03853466666666, "fusion_lat": 0.0, "name": "61a325d9cce29ad9ebe208c6cac2e211"}, {"type": "electric_scooter", "fusion_lon": 0.0, "bike_id": "9d4a4a5a895b61b23f85bdfd0c4aa47b", "is_disabled": 0, "lat": 38.91272266666667, "rental_uris": {"ios": "https://dc.lft.to/lastmile_qr_scan", "android": "https://dc.lft.to/lastmile_qr_scan"}, "is_reserved": 0, "lon": -77.029676, "fusion_lat": 0.0, "name": "9d4a4a5a895b61b23f85bdfd0c4aa47b"}, {"type": "electric_scooter", "fusion_lon": 0.0, "bike_id": "4583a63868df28e759bbf88b9cb02685", "is_disabled": 0, "lat": 38.921433666666665, "rental_uris": {"ios": "https://dc.lft.to/lastmile_qr_scan", "android": "https://dc.lft.to/lastmile_qr_scan"}, "is_reserved": 0, "lon": -77.0411985, "fusion_lat": 0.0, "name": "4583a63868df28e759bbf88b9cb02685"}, {"type": "electric_scooter", "fusion_lon": 0.0, "bike_id": "d0243cd5ff8b895a59ac5f0383777dce", "is_disabled": 0, "lat": 38.935626166666665, "rental_uris": {"ios": "https://dc.lft.to/lastmile_qr_scan", "android": "https://dc.lft.to/lastmile_qr_scan"}, "is_reserved": 0, "lon": -77.07453416666667, "fusion_lat": 0.0, "name": "d0243cd5ff8b895a59ac5f0383777dce"}, {"type": "electric_scooter", "fusion_lon": 0.0, "bike_id": "e5085b1364fc8036156ae49095d3dc4e", "is_disabled": 0, "lat": 38.91824, "rental_uris": {"ios": "https://dc.lft.to/lastmile_qr_scan", "android": "https://dc.lft.to/lastmile_qr_scan"}, "is_reserved": 0, "lon": -77.02696483333334, "fusion_lat": 0.0, "name": "e5085b1364fc8036156ae49095d3dc4e"}, {"type": "electric_bike", "fusion_lon": 0.0, "bike_id": "b93397b1c6bbc7e50e97bec178aa13eb", "is_disabled": 0, "lat": 38.896205333333334, "rental_uris": {"ios": "https://dc.lft.to/lastmile_qr_scan", "android": "https://dc.lft.to/lastmile_qr_scan"}, "is_reserved": 0, "lon": -76.90740933333333, "fusion_lat": 0.0, "name": "b93397b1c6bbc7e50e97bec178aa13eb"}, {"type": "electric_scooter", "fusion_lon": 0.0, "bike_id": "ea175b53102a4637667173b12cd4aa44", "is_disabled": 0, "lat": 38.93899483333333, "rental_uris": {"ios": "https://dc.lft.to/lastmile_qr_scan", "android": "https://dc.lft.to/lastmile_qr_scan"}, "is_reserved": 0, "lon": -77.02493183333333, "fusion_lat": 0.0, "name": "ea175b53102a4637667173b12cd4aa44"}, {"type": "electric_scooter", "fusion_lon": 0.0, "bike_id": "a35a947752dcf7638e6f15f71159cfee", "is_disabled": 0, "lat": 38.929019, "rental_uris": {"ios": "https://dc.lft.to/lastmile_qr_scan", "android": "https://dc.lft.to/lastmile_qr_scan"}, "is_reserved": 0, "lon": -77.032635, "fusion_lat": 0.0, "name": "a35a947752dcf7638e6f15f71159cfee"}, {"type": "electric_scooter", "fusion_lon": 0.0, "bike_id": "8c4b3c37e3c08f7d5e017fba2ea7f068", "is_disabled": 0, "lat": 38.892254333333334, "rental_uris": {"ios": "https://dc.lft.to/lastmile_qr_scan", "android": "https://dc.lft.to/lastmile_qr_scan"}, "is_reserved": 0, "lon": -77.04337266666667, "fusion_lat": 0.0, "name": "8c4b3c37e3c08f7d5e017fba2ea7f068"}, {"type": "electric_scooter", "fusion_lon": 0.0, "bike_id": "7262a76cb44d4f20df616547e9459fbb", "is_disabled": 0, "lat": 38.920624, "rental_uris": {"ios": "https://dc.lft.to/lastmile_qr_scan", "android": "https://dc.lft.to/lastmile_qr_scan"}, "is_reserved": 0, "lon": -77.032489, "fusion_lat": 0.0, "name": "7262a76cb44d4f20df616547e9459fbb"}, {"type": "electric_scooter", "fusion_lon": 0.0, "bike_id": "9fe8387babbe629122fb1ab4a0560b11", "is_disabled": 0, "lat": 38.92347983333333, "rental_uris": {"ios": "https://dc.lft.to/lastmile_qr_scan", "android": "https://dc.lft.to/lastmile_qr_scan"}, "is_reserved": 0, "lon": -77.03636933333334, "fusion_lat": 0.0, "name": "9fe8387babbe629122fb1ab4a0560b11"}, {"type": "electric_scooter", "fusion_lon": 0.0, "bike_id": "488dca4f01659571947537c0bf0d5920", "is_disabled": 0, "lat": 38.921476, "rental_uris": {"ios": "https://dc.lft.to/lastmile_qr_scan", "android": "https://dc.lft.to/lastmile_qr_scan"}, "is_reserved": 0, "lon": -77.035096, "fusion_lat": 0.0, "name": "488dca4f01659571947537c0bf0d5920"}, {"type": "electric_scooter", "fusion_lon": 0.0, "bike_id": "38a936309da8d752650bc99b3ec5ea68", "is_disabled": 0, "lat": 38.9608035, "rental_uris": {"ios": "https://dc.lft.to/lastmile_qr_scan", "android": "https://dc.lft.to/lastmile_qr_scan"}, "is_reserved": 0, "lon": -77.0288705, "fusion_lat": 0.0, "name": "38a936309da8d752650bc99b3ec5ea68"}, {"type": "electric_scooter", "fusion_lon": 0.0, "bike_id": "6282606daa12abe612a4993fe9338ec6", "is_disabled": 0, "lat": 38.92295433333334, "rental_uris": {"ios": "https://dc.lft.to/lastmile_qr_scan", "android": "https://dc.lft.to/lastmile_qr_scan"}, "is_reserved": 0, "lon": -77.04203, "fusion_lat": 0.0, "name": "6282606daa12abe612a4993fe9338ec6"}, {"type": "electric_scooter", "fusion_lon": 0.0, "bike_id": "835f9c3b725aaab2209113d4cf8df486", "is_disabled": 0, "lat": 38.91949183333333, "rental_uris": {"ios": "https://dc.lft.to/lastmile_qr_scan", "android": "https://dc.lft.to/lastmile_qr_scan"}, "is_reserved": 0, "lon": -77.031839, "fusion_lat": 0.0, "name": "835f9c3b725aaab2209113d4cf8df486"}, {"type": "electric_scooter", "fusion_lon": 0.0, "bike_id": "20dda2b9cf82a1979149ca06d077f773", "is_disabled": 0, "lat": 38.927459999999996, "rental_uris": {"ios": "https://dc.lft.to/lastmile_qr_scan", "android": "https://dc.lft.to/lastmile_qr_scan"}, "is_reserved": 0, "lon": -76.95549, "fusion_lat": 0.0, "name": "20dda2b9cf82a1979149ca06d077f773"}, {"type": "electric_scooter", "fusion_lon": 0.0, "bike_id": "f341f2e4c20b58464bd93147fbd09a0d", "is_disabled": 0, "lat": 38.915312166666666, "rental_uris": {"ios": "https://dc.lft.to/lastmile_qr_scan", "android": "https://dc.lft.to/lastmile_qr_scan"}, "is_reserved": 0, "lon": -77.0444405, "fusion_lat": 0.0, "name": "f341f2e4c20b58464bd93147fbd09a0d"}, {"type": "electric_scooter", "fusion_lon": 0.0, "bike_id": "38cf4c2b1b49a7a73bbde70266fc7df0", "is_disabled": 0, "lat": 38.9028675, "rental_uris": {"ios": "https://dc.lft.to/lastmile_qr_scan", "android": "https://dc.lft.to/lastmile_qr_scan"}, "is_reserved": 0, "lon": -77.03841733333333, "fusion_lat": 0.0, "name": "38cf4c2b1b49a7a73bbde70266fc7df0"}, {"type": "electric_scooter", "fusion_lon": 0.0, "bike_id": "8d5609fed824681c72a62940fe24c7b1", "is_disabled": 0, "lat": 38.86698066666666, "rental_uris": {"ios": "https://dc.lft.to/lastmile_qr_scan", "android": "https://dc.lft.to/lastmile_qr_scan"}, "is_reserved": 0, "lon": -76.9808495, "fusion_lat": 0.0, "name": "8d5609fed824681c72a62940fe24c7b1"}, {"type": "electric_scooter", "fusion_lon": 0.0, "bike_id": "d2c4e3df7ca4fae926fdcc9035908211", "is_disabled": 0, "lat": 38.862892, "rental_uris": {"ios": "https://dc.lft.to/lastmile_qr_scan", "android": "https://dc.lft.to/lastmile_qr_scan"}, "is_reserved": 0, "lon": -76.99229133333333, "fusion_lat": 0.0, "name": "d2c4e3df7ca4fae926fdcc9035908211"}, {"type": "electric_bike", "fusion_lon": 0.0, "bike_id": "6f3d8c3191b761838bfa725e0f004f75", "is_disabled": 0, "lat": 38.84896766666667, "rental_uris": {"ios": "https://dc.lft.to/lastmile_qr_scan", "android": "https://dc.lft.to/lastmile_qr_scan"}, "is_reserved": 0, "lon": -77.07957033333334, "fusion_lat": 0.0, "name": "6f3d8c3191b761838bfa725e0f004f75"}, {"type": "electric_scooter", "fusion_lon": 0.0, "bike_id": "446e0e6b28f5df18d103231df1ac11af", "is_disabled": 0, "lat": 38.94890183333333, "rental_uris": {"ios": "https://dc.lft.to/lastmile_qr_scan", "android": "https://dc.lft.to/lastmile_qr_scan"}, "is_reserved": 0, "lon": -77.01851483333333, "fusion_lat": 0.0, "name": "446e0e6b28f5df18d103231df1ac11af"}, {"type": "electric_scooter", "fusion_lon": 0.0, "bike_id": "e2bab895a2fd4d32a53c5ca8a2e72c98", "is_disabled": 0, "lat": 38.92287983333333, "rental_uris": {"ios": "https://dc.lft.to/lastmile_qr_scan", "android": "https://dc.lft.to/lastmile_qr_scan"}, "is_reserved": 0, "lon": -77.03664316666666, "fusion_lat": 0.0, "name": "e2bab895a2fd4d32a53c5ca8a2e72c98"}, {"type": "electric_scooter", "fusion_lon": 0.0, "bike_id": "6576fb69fb8245c50d3cbd1f36fb041a", "is_disabled": 0, "lat": 38.91073816666667, "rental_uris": {"ios": "https://dc.lft.to/lastmile_qr_scan", "android": "https://dc.lft.to/lastmile_qr_scan"}, "is_reserved": 0, "lon": -77.02729566666666, "fusion_lat": 0.0, "name": "6576fb69fb8245c50d3cbd1f36fb041a"}, {"type": "electric_scooter", "fusion_lon": 0.0, "bike_id": "624fac2f01e3ba3e45d875e689c98bce", "is_disabled": 0, "lat": 38.89958166666667, "rental_uris": {"ios": "https://dc.lft.to/lastmile_qr_scan", "android": "https://dc.lft.to/lastmile_qr_scan"}, "is_reserved": 0, "lon": -77.04786966666667, "fusion_lat": 0.0, "name": "624fac2f01e3ba3e45d875e689c98bce"}, {"type": "electric_scooter", "fusion_lon": 0.0, "bike_id": "8f0447bdb688cd24f4848e7334ab2590", "is_disabled": 0, "lat": 38.875455333333335, "rental_uris": {"ios": "https://dc.lft.to/lastmile_qr_scan", "android": "https://dc.lft.to/lastmile_qr_scan"}, "is_reserved": 0, "lon": -77.00535083333334, "fusion_lat": 0.0, "name": "8f0447bdb688cd24f4848e7334ab2590"}, {"type": "electric_scooter", "fusion_lon": 0.0, "bike_id": "cf8cbd4b262354476dcaa23ecd847e07", "is_disabled": 0, "lat": 38.88330116666667, "rental_uris": {"ios": "https://dc.lft.to/lastmile_qr_scan", "android": "https://dc.lft.to/lastmile_qr_scan"}, "is_reserved": 0, "lon": -77.00937166666667, "fusion_lat": 0.0, "name": "cf8cbd4b262354476dcaa23ecd847e07"}, {"type": "electric_scooter", "fusion_lon": 0.0, "bike_id": "d4f6f468feac08c081980c702613008e", "is_disabled": 0, "lat": 38.942145, "rental_uris": {"ios": "https://dc.lft.to/lastmile_qr_scan", "android": "https://dc.lft.to/lastmile_qr_scan"}, "is_reserved": 0, "lon": -77.01356783333334, "fusion_lat": 0.0, "name": "d4f6f468feac08c081980c702613008e"}, {"type": "electric_scooter", "fusion_lon": 0.0, "bike_id": "751d6b6ee5964601d6d71fec69984268", "is_disabled": 0, "lat": 38.923384666666664, "rental_uris": {"ios": "https://dc.lft.to/lastmile_qr_scan", "android": "https://dc.lft.to/lastmile_qr_scan"}, "is_reserved": 0, "lon": -77.03550316666667, "fusion_lat": 0.0, "name": "751d6b6ee5964601d6d71fec69984268"}, {"type": "electric_scooter", "fusion_lon": 0.0, "bike_id": "4296c516fba31ae38be6c82f2377eb24", "is_disabled": 0, "lat": 38.897006833333336, "rental_uris": {"ios": "https://dc.lft.to/lastmile_qr_scan", "android": "https://dc.lft.to/lastmile_qr_scan"}, "is_reserved": 0, "lon": -77.01970666666666, "fusion_lat": 0.0, "name": "4296c516fba31ae38be6c82f2377eb24"}, {"type": "electric_scooter", "fusion_lon": 0.0, "bike_id": "64af5f42be89181b8edea8d3b17da08c", "is_disabled": 0, "lat": 38.938616, "rental_uris": {"ios": "https://dc.lft.to/lastmile_qr_scan", "android": "https://dc.lft.to/lastmile_qr_scan"}, "is_reserved": 0, "lon": -77.02659216666666, "fusion_lat": 0.0, "name": "64af5f42be89181b8edea8d3b17da08c"}, {"type": "electric_scooter", "fusion_lon": 0.0, "bike_id": "e815e1c7ea43bf49d8cf0137b7f33e92", "is_disabled": 0, "lat": 38.8945085, "rental_uris": {"ios": "https://dc.lft.to/lastmile_qr_scan", "android": "https://dc.lft.to/lastmile_qr_scan"}, "is_reserved": 0, "lon": -77.01072216666667, "fusion_lat": 0.0, "name": "e815e1c7ea43bf49d8cf0137b7f33e92"}, {"type": "electric_bike", "fusion_lon": 0.0, "bike_id": "87ed7ebd71602d42fb7293bb063e14b3", "is_disabled": 0, "lat": 38.972544666666664, "rental_uris": {"ios": "https://dc.lft.to/lastmile_qr_scan", "android": "https://dc.lft.to/lastmile_qr_scan"}, "is_reserved": 0, "lon": -76.98065016666666, "fusion_lat": 0.0, "name": "87ed7ebd71602d42fb7293bb063e14b3"}, {"type": "electric_scooter", "fusion_lon": 0.0, "bike_id": "b69f7b413b9bd456d250dbc9d2e62756", "is_disabled": 0, "lat": 38.92354816666667, "rental_uris": {"ios": "https://dc.lft.to/lastmile_qr_scan", "android": "https://dc.lft.to/lastmile_qr_scan"}, "is_reserved": 0, "lon": -76.99947733333333, "fusion_lat": 0.0, "name": "b69f7b413b9bd456d250dbc9d2e62756"}, {"type": "electric_scooter", "fusion_lon": 0.0, "bike_id": "e32bfa8a90b344ba9f8c12fac37daf58", "is_disabled": 0, "lat": 38.923405, "rental_uris": {"ios": "https://dc.lft.to/lastmile_qr_scan", "android": "https://dc.lft.to/lastmile_qr_scan"}, "is_reserved": 0, "lon": -77.05172883333333, "fusion_lat": 0.0, "name": "e32bfa8a90b344ba9f8c12fac37daf58"}, {"type": "electric_scooter", "fusion_lon": 0.0, "bike_id": "57e12c1d7762aa844501f9be558ff319", "is_disabled": 0, "lat": 38.9067925, "rental_uris": {"ios": "https://dc.lft.to/lastmile_qr_scan", "android": "https://dc.lft.to/lastmile_qr_scan"}, "is_reserved": 0, "lon": -77.02980266666667, "fusion_lat": 0.0, "name": "57e12c1d7762aa844501f9be558ff319"}, {"type": "electric_scooter", "fusion_lon": 0.0, "bike_id": "94f4c20a1a630a128121961d5b25a527", "is_disabled": 0, "lat": 38.926049166666665, "rental_uris": {"ios": "https://dc.lft.to/lastmile_qr_scan", "android": "https://dc.lft.to/lastmile_qr_scan"}, "is_reserved": 0, "lon": -77.02154733333333, "fusion_lat": 0.0, "name": "94f4c20a1a630a128121961d5b25a527"}, {"type": "electric_scooter", "fusion_lon": 0.0, "bike_id": "81d9225c027dca0c33b4386d51961cb3", "is_disabled": 0, "lat": 38.927644666666666, "rental_uris": {"ios": "https://dc.lft.to/lastmile_qr_scan", "android": "https://dc.lft.to/lastmile_qr_scan"}, "is_reserved": 0, "lon": -77.03243183333333, "fusion_lat": 0.0, "name": "81d9225c027dca0c33b4386d51961cb3"}, {"type": "electric_scooter", "fusion_lon": 0.0, "bike_id": "02c61269dd3fb58b78932bf2b3047ca9", "is_disabled": 0, "lat": 38.9445285, "rental_uris": {"ios": "https://dc.lft.to/lastmile_qr_scan", "android": "https://dc.lft.to/lastmile_qr_scan"}, "is_reserved": 0, "lon": -77.02797933333333, "fusion_lat": 0.0, "name": "02c61269dd3fb58b78932bf2b3047ca9"}, {"type": "electric_scooter", "fusion_lon": 0.0, "bike_id": "c93b96d4795189a9f8c3b00be474a247", "is_disabled": 0, "lat": 38.92416033333333, "rental_uris": {"ios": "https://dc.lft.to/lastmile_qr_scan", "android": "https://dc.lft.to/lastmile_qr_scan"}, "is_reserved": 0, "lon": -77.019846, "fusion_lat": 0.0, "name": "c93b96d4795189a9f8c3b00be474a247"}, {"type": "electric_scooter", "fusion_lon": 0.0, "bike_id": "fe31382b3d0f71b86252711a4fedcf98", "is_disabled": 0, "lat": 38.91108283333333, "rental_uris": {"ios": "https://dc.lft.to/lastmile_qr_scan", "android": "https://dc.lft.to/lastmile_qr_scan"}, "is_reserved": 0, "lon": -77.03824366666667, "fusion_lat": 0.0, "name": "fe31382b3d0f71b86252711a4fedcf98"}, {"type": "electric_scooter", "fusion_lon": 0.0, "bike_id": "6db6746fc92ed49e28c90448ffbf0b8e", "is_disabled": 0, "lat": 38.9194935, "rental_uris": {"ios": "https://dc.lft.to/lastmile_qr_scan", "android": "https://dc.lft.to/lastmile_qr_scan"}, "is_reserved": 0, "lon": -77.017781, "fusion_lat": 0.0, "name": "6db6746fc92ed49e28c90448ffbf0b8e"}, {"type": "electric_scooter", "fusion_lon": 0.0, "bike_id": "d8bf2f0c424be75ddd2b4d197a2c64cb", "is_disabled": 0, "lat": 38.8988865, "rental_uris": {"ios": "https://dc.lft.to/lastmile_qr_scan", "android": "https://dc.lft.to/lastmile_qr_scan"}, "is_reserved": 0, "lon": -76.93175866666667, "fusion_lat": 0.0, "name": "d8bf2f0c424be75ddd2b4d197a2c64cb"}, {"type": "electric_scooter", "fusion_lon": 0.0, "bike_id": "73dd35b425a0d6eb899be013fb2d6af8", "is_disabled": 0, "lat": 38.89197816666667, "rental_uris": {"ios": "https://dc.lft.to/lastmile_qr_scan", "android": "https://dc.lft.to/lastmile_qr_scan"}, "is_reserved": 0, "lon": -77.02376983333333, "fusion_lat": 0.0, "name": "73dd35b425a0d6eb899be013fb2d6af8"}, {"type": "electric_scooter", "fusion_lon": 0.0, "bike_id": "57b372aa9b935bb52542907e49f0e945", "is_disabled": 0, "lat": 38.927944, "rental_uris": {"ios": "https://dc.lft.to/lastmile_qr_scan", "android": "https://dc.lft.to/lastmile_qr_scan"}, "is_reserved": 0, "lon": -77.05413383333334, "fusion_lat": 0.0, "name": "57b372aa9b935bb52542907e49f0e945"}, {"type": "electric_scooter", "fusion_lon": 0.0, "bike_id": "8e7f9dc1baadec08d2da4fa71a649d72", "is_disabled": 0, "lat": 38.919958666666666, "rental_uris": {"ios": "https://dc.lft.to/lastmile_qr_scan", "android": "https://dc.lft.to/lastmile_qr_scan"}, "is_reserved": 0, "lon": -77.0397315, "fusion_lat": 0.0, "name": "8e7f9dc1baadec08d2da4fa71a649d72"}, {"type": "electric_scooter", "fusion_lon": 0.0, "bike_id": "266f705aa631233534df433cde1f1d0e", "is_disabled": 0, "lat": 38.90820133333333, "rental_uris": {"ios": "https://dc.lft.to/lastmile_qr_scan", "android": "https://dc.lft.to/lastmile_qr_scan"}, "is_reserved": 0, "lon": -77.03452316666667, "fusion_lat": 0.0, "name": "266f705aa631233534df433cde1f1d0e"}, {"type": "electric_scooter", "fusion_lon": 0.0, "bike_id": "b606eba4e861a0823bf38b2ae3d92455", "is_disabled": 0, "lat": 38.933931333333334, "rental_uris": {"ios": "https://dc.lft.to/lastmile_qr_scan", "android": "https://dc.lft.to/lastmile_qr_scan"}, "is_reserved": 0, "lon": -77.04549183333333, "fusion_lat": 0.0, "name": "b606eba4e861a0823bf38b2ae3d92455"}, {"type": "electric_scooter", "fusion_lon": 0.0, "bike_id": "3d6d6f8e5b68ae3c2338073f8f660102", "is_disabled": 0, "lat": 38.903825, "rental_uris": {"ios": "https://dc.lft.to/lastmile_qr_scan", "android": "https://dc.lft.to/lastmile_qr_scan"}, "is_reserved": 0, "lon": -76.99511133333333, "fusion_lat": 0.0, "name": "3d6d6f8e5b68ae3c2338073f8f660102"}, {"type": "electric_scooter", "fusion_lon": 0.0, "bike_id": "13c9631dd98701ef90ee55c06305a6d1", "is_disabled": 0, "lat": 38.87813516666667, "rental_uris": {"ios": "https://dc.lft.to/lastmile_qr_scan", "android": "https://dc.lft.to/lastmile_qr_scan"}, "is_reserved": 0, "lon": -77.0072555, "fusion_lat": 0.0, "name": "13c9631dd98701ef90ee55c06305a6d1"}, {"type": "electric_scooter", "fusion_lon": 0.0, "bike_id": "26f475747b264cecab70c7251e871ebf", "is_disabled": 0, "lat": 38.90731683333333, "rental_uris": {"ios": "https://dc.lft.to/lastmile_qr_scan", "android": "https://dc.lft.to/lastmile_qr_scan"}, "is_reserved": 0, "lon": -77.0450235, "fusion_lat": 0.0, "name": "26f475747b264cecab70c7251e871ebf"}, {"type": "electric_scooter", "fusion_lon": 0.0, "bike_id": "f00157605b31a7c44c3470b04b101958", "is_disabled": 0, "lat": 38.8754755, "rental_uris": {"ios": "https://dc.lft.to/lastmile_qr_scan", "android": "https://dc.lft.to/lastmile_qr_scan"}, "is_reserved": 0, "lon": -77.00534783333333, "fusion_lat": 0.0, "name": "f00157605b31a7c44c3470b04b101958"}, {"type": "electric_scooter", "fusion_lon": 0.0, "bike_id": "26535a3ae17ab7b86880fdf625d1198d", "is_disabled": 0, "lat": 38.914858333333335, "rental_uris": {"ios": "https://dc.lft.to/lastmile_qr_scan", "android": "https://dc.lft.to/lastmile_qr_scan"}, "is_reserved": 0, "lon": -77.02588266666666, "fusion_lat": 0.0, "name": "26535a3ae17ab7b86880fdf625d1198d"}, {"type": "electric_scooter", "fusion_lon": 0.0, "bike_id": "375e6461653bfbaabf0b1d43107bd19c", "is_disabled": 0, "lat": 38.927033333333334, "rental_uris": {"ios": "https://dc.lft.to/lastmile_qr_scan", "android": "https://dc.lft.to/lastmile_qr_scan"}, "is_reserved": 0, "lon": -77.02386583333333, "fusion_lat": 0.0, "name": "375e6461653bfbaabf0b1d43107bd19c"}, {"type": "electric_scooter", "fusion_lon": 0.0, "bike_id": "0c2c516c9f098faa51735f900d0d9ba8", "is_disabled": 0, "lat": 38.884509666666666, "rental_uris": {"ios": "https://dc.lft.to/lastmile_qr_scan", "android": "https://dc.lft.to/lastmile_qr_scan"}, "is_reserved": 0, "lon": -76.94221366666666, "fusion_lat": 0.0, "name": "0c2c516c9f098faa51735f900d0d9ba8"}, {"type": "electric_scooter", "fusion_lon": 0.0, "bike_id": "a904a236164dbd2439ca43acfa20d0b2", "is_disabled": 0, "lat": 38.91764233333333, "rental_uris": {"ios": "https://dc.lft.to/lastmile_qr_scan", "android": "https://dc.lft.to/lastmile_qr_scan"}, "is_reserved": 0, "lon": -77.0229115, "fusion_lat": 0.0, "name": "a904a236164dbd2439ca43acfa20d0b2"}, {"type": "electric_scooter", "fusion_lon": 0.0, "bike_id": "cb3c3b4a79261402e1f998b2b80f7d50", "is_disabled": 0, "lat": 38.92201466666667, "rental_uris": {"ios": "https://dc.lft.to/lastmile_qr_scan", "android": "https://dc.lft.to/lastmile_qr_scan"}, "is_reserved": 0, "lon": -77.0469695, "fusion_lat": 0.0, "name": "cb3c3b4a79261402e1f998b2b80f7d50"}, {"type": "electric_scooter", "fusion_lon": 0.0, "bike_id": "841e658b8c5d0d66308ef3d46739a912", "is_disabled": 0, "lat": 38.90579, "rental_uris": {"ios": "https://dc.lft.to/lastmile_qr_scan", "android": "https://dc.lft.to/lastmile_qr_scan"}, "is_reserved": 0, "lon": -77.0259705, "fusion_lat": 0.0, "name": "841e658b8c5d0d66308ef3d46739a912"}, {"type": "electric_scooter", "fusion_lon": 0.0, "bike_id": "bf66eb2507e8e791c9591c052268983e", "is_disabled": 0, "lat": 38.92154016666667, "rental_uris": {"ios": "https://dc.lft.to/lastmile_qr_scan", "android": "https://dc.lft.to/lastmile_qr_scan"}, "is_reserved": 0, "lon": -77.03869616666667, "fusion_lat": 0.0, "name": "bf66eb2507e8e791c9591c052268983e"}, {"type": "electric_scooter", "fusion_lon": 0.0, "bike_id": "7648ff6fd5cd8f89763c99c63f10a67a", "is_disabled": 0, "lat": 38.921480833333334, "rental_uris": {"ios": "https://dc.lft.to/lastmile_qr_scan", "android": "https://dc.lft.to/lastmile_qr_scan"}, "is_reserved": 0, "lon": -77.07398133333334, "fusion_lat": 0.0, "name": "7648ff6fd5cd8f89763c99c63f10a67a"}, {"type": "electric_scooter", "fusion_lon": 0.0, "bike_id": "7b29b4615e5c24ab37379885fbd794aa", "is_disabled": 0, "lat": 38.9199015, "rental_uris": {"ios": "https://dc.lft.to/lastmile_qr_scan", "android": "https://dc.lft.to/lastmile_qr_scan"}, "is_reserved": 0, "lon": -77.01787933333334, "fusion_lat": 0.0, "name": "7b29b4615e5c24ab37379885fbd794aa"}, {"type": "electric_scooter", "fusion_lon": 0.0, "bike_id": "7b50400dac2d679b6560c8cfc4b7d1ca", "is_disabled": 0, "lat": 38.892281833333335, "rental_uris": {"ios": "https://dc.lft.to/lastmile_qr_scan", "android": "https://dc.lft.to/lastmile_qr_scan"}, "is_reserved": 0, "lon": -77.0282725, "fusion_lat": 0.0, "name": "7b50400dac2d679b6560c8cfc4b7d1ca"}, {"type": "electric_scooter", "fusion_lon": 0.0, "bike_id": "89fca4170ff17ab5c47d0c59da6e5106", "is_disabled": 0, "lat": 38.927672333333334, "rental_uris": {"ios": "https://dc.lft.to/lastmile_qr_scan", "android": "https://dc.lft.to/lastmile_qr_scan"}, "is_reserved": 0, "lon": -77.03241016666666, "fusion_lat": 0.0, "name": "89fca4170ff17ab5c47d0c59da6e5106"}, {"type": "electric_bike", "fusion_lon": 0.0, "bike_id": "e58332486d29481611069d66ea62f3ce", "is_disabled": 0, "lat": 38.8124965, "rental_uris": {"ios": "https://dc.lft.to/lastmile_qr_scan", "android": "https://dc.lft.to/lastmile_qr_scan"}, "is_reserved": 0, "lon": -77.11751333333333, "fusion_lat": 0.0, "name": "e58332486d29481611069d66ea62f3ce"}, {"type": "electric_scooter", "fusion_lon": 0.0, "bike_id": "66ecc1d06467217d002422743c6a6721", "is_disabled": 0, "lat": 38.878506333333334, "rental_uris": {"ios": "https://dc.lft.to/lastmile_qr_scan", "android": "https://dc.lft.to/lastmile_qr_scan"}, "is_reserved": 0, "lon": -77.01960683333333, "fusion_lat": 0.0, "name": "66ecc1d06467217d002422743c6a6721"}, {"type": "electric_scooter", "fusion_lon": 0.0, "bike_id": "46261db778de9d2965fcb771c93f6d85", "is_disabled": 0, "lat": 38.92736166666667, "rental_uris": {"ios": "https://dc.lft.to/lastmile_qr_scan", "android": "https://dc.lft.to/lastmile_qr_scan"}, "is_reserved": 0, "lon": -77.052566, "fusion_lat": 0.0, "name": "46261db778de9d2965fcb771c93f6d85"}, {"type": "electric_scooter", "fusion_lon": 0.0, "bike_id": "6c1c4de4c678f62770a9ccf0f481bdf1", "is_disabled": 0, "lat": 38.9134725, "rental_uris": {"ios": "https://dc.lft.to/lastmile_qr_scan", "android": "https://dc.lft.to/lastmile_qr_scan"}, "is_reserved": 0, "lon": -77.06414433333333, "fusion_lat": 0.0, "name": "6c1c4de4c678f62770a9ccf0f481bdf1"}, {"type": "electric_scooter", "fusion_lon": 0.0, "bike_id": "baef7470490a840681898bafaa8f10d6", "is_disabled": 0, "lat": 38.929445333333334, "rental_uris": {"ios": "https://dc.lft.to/lastmile_qr_scan", "android": "https://dc.lft.to/lastmile_qr_scan"}, "is_reserved": 0, "lon": -77.03772116666667, "fusion_lat": 0.0, "name": "baef7470490a840681898bafaa8f10d6"}, {"type": "electric_scooter", "fusion_lon": 0.0, "bike_id": "bed6967bb01f5ebbb9f371a9b6ee04f6", "is_disabled": 0, "lat": 38.91755083333334, "rental_uris": {"ios": "https://dc.lft.to/lastmile_qr_scan", "android": "https://dc.lft.to/lastmile_qr_scan"}, "is_reserved": 0, "lon": -77.02810683333334, "fusion_lat": 0.0, "name": "bed6967bb01f5ebbb9f371a9b6ee04f6"}, {"type": "electric_scooter", "fusion_lon": 0.0, "bike_id": "d117f89aa68ae3af43637b0d3df02b61", "is_disabled": 0, "lat": 38.9243365, "rental_uris": {"ios": "https://dc.lft.to/lastmile_qr_scan", "android": "https://dc.lft.to/lastmile_qr_scan"}, "is_reserved": 0, "lon": -77.04248616666666, "fusion_lat": 0.0, "name": "d117f89aa68ae3af43637b0d3df02b61"}, {"type": "electric_bike", "fusion_lon": 0.0, "bike_id": "73ef6c602684b061954adfa66595ea1f", "is_disabled": 0, "lat": 38.799890833333336, "rental_uris": {"ios": "https://dc.lft.to/lastmile_qr_scan", "android": "https://dc.lft.to/lastmile_qr_scan"}, "is_reserved": 0, "lon": -77.12976333333333, "fusion_lat": 0.0, "name": "73ef6c602684b061954adfa66595ea1f"}, {"type": "electric_bike", "fusion_lon": 0.0, "bike_id": "028a8575ea79034c0f645e322b04f275", "is_disabled": 0, "lat": 38.855489666666664, "rental_uris": {"ios": "https://dc.lft.to/lastmile_qr_scan", "android": "https://dc.lft.to/lastmile_qr_scan"}, "is_reserved": 0, "lon": -76.97335516666666, "fusion_lat": 0.0, "name": "028a8575ea79034c0f645e322b04f275"}, {"type": "electric_scooter", "fusion_lon": 0.0, "bike_id": "c03da77cc3778caccd74e49dd409ad52", "is_disabled": 0, "lat": 38.94274766666667, "rental_uris": {"ios": "https://dc.lft.to/lastmile_qr_scan", "android": "https://dc.lft.to/lastmile_qr_scan"}, "is_reserved": 0, "lon": -77.03257666666667, "fusion_lat": 0.0, "name": "c03da77cc3778caccd74e49dd409ad52"}, {"type": "electric_scooter", "fusion_lon": 0.0, "bike_id": "24591635a8636fafba0982d556b2d4b9", "is_disabled": 0, "lat": 38.90787133333333, "rental_uris": {"ios": "https://dc.lft.to/lastmile_qr_scan", "android": "https://dc.lft.to/lastmile_qr_scan"}, "is_reserved": 0, "lon": -77.02983366666666, "fusion_lat": 0.0, "name": "24591635a8636fafba0982d556b2d4b9"}, {"type": "electric_scooter", "fusion_lon": 0.0, "bike_id": "4e606787f4a5009f6a9b0805680c0fc5", "is_disabled": 0, "lat": 38.90331233333333, "rental_uris": {"ios": "https://dc.lft.to/lastmile_qr_scan", "android": "https://dc.lft.to/lastmile_qr_scan"}, "is_reserved": 0, "lon": -77.049197, "fusion_lat": 0.0, "name": "4e606787f4a5009f6a9b0805680c0fc5"}, {"type": "electric_scooter", "fusion_lon": 0.0, "bike_id": "42f8cacff54b75fbb54c3bbedb2b4373", "is_disabled": 0, "lat": 38.9289725, "rental_uris": {"ios": "https://dc.lft.to/lastmile_qr_scan", "android": "https://dc.lft.to/lastmile_qr_scan"}, "is_reserved": 0, "lon": -77.05805, "fusion_lat": 0.0, "name": "42f8cacff54b75fbb54c3bbedb2b4373"}, {"type": "electric_scooter", "fusion_lon": 0.0, "bike_id": "0887cc743e5573bdf593f35f8f401c22", "is_disabled": 0, "lat": 38.91350166666667, "rental_uris": {"ios": "https://dc.lft.to/lastmile_qr_scan", "android": "https://dc.lft.to/lastmile_qr_scan"}, "is_reserved": 0, "lon": -77.02946566666667, "fusion_lat": 0.0, "name": "0887cc743e5573bdf593f35f8f401c22"}, {"type": "electric_bike", "fusion_lon": 0.0, "bike_id": "ee34e2be716711755f4fb650e2ebcf6c", "is_disabled": 0, "lat": 38.83104733333333, "rental_uris": {"ios": "https://dc.lft.to/lastmile_qr_scan", "android": "https://dc.lft.to/lastmile_qr_scan"}, "is_reserved": 0, "lon": -77.112866, "fusion_lat": 0.0, "name": "ee34e2be716711755f4fb650e2ebcf6c"}, {"type": "electric_scooter", "fusion_lon": 0.0, "bike_id": "685ad4cd0b4fbe21711b526f7979a7e9", "is_disabled": 0, "lat": 38.90855483333333, "rental_uris": {"ios": "https://dc.lft.to/lastmile_qr_scan", "android": "https://dc.lft.to/lastmile_qr_scan"}, "is_reserved": 0, "lon": -77.03494516666666, "fusion_lat": 0.0, "name": "685ad4cd0b4fbe21711b526f7979a7e9"}, {"type": "electric_scooter", "fusion_lon": 0.0, "bike_id": "dde7e559c1c59b9c04fc7a137ab15b9a", "is_disabled": 0, "lat": 38.92457066666667, "rental_uris": {"ios": "https://dc.lft.to/lastmile_qr_scan", "android": "https://dc.lft.to/lastmile_qr_scan"}, "is_reserved": 0, "lon": -77.032849, "fusion_lat": 0.0, "name": "dde7e559c1c59b9c04fc7a137ab15b9a"}, {"type": "electric_bike", "fusion_lon": 0.0, "bike_id": "f49c33ee486c09d83670afd5c7b0f9f5", "is_disabled": 0, "lat": 38.900049333333335, "rental_uris": {"ios": "https://dc.lft.to/lastmile_qr_scan", "android": "https://dc.lft.to/lastmile_qr_scan"}, "is_reserved": 0, "lon": -77.00543383333333, "fusion_lat": 0.0, "name": "f49c33ee486c09d83670afd5c7b0f9f5"}, {"type": "electric_bike", "fusion_lon": 0.0, "bike_id": "67bc3dc9220cddfac4cb02b4a20581e3", "is_disabled": 0, "lat": 38.935771333333335, "rental_uris": {"ios": "https://dc.lft.to/lastmile_qr_scan", "android": "https://dc.lft.to/lastmile_qr_scan"}, "is_reserved": 0, "lon": -77.03758433333333, "fusion_lat": 0.0, "name": "67bc3dc9220cddfac4cb02b4a20581e3"}, {"type": "electric_scooter", "fusion_lon": 0.0, "bike_id": "b7ecb173b9f97c69c4ccbc290eeb87a6", "is_disabled": 0, "lat": 38.91342133333333, "rental_uris": {"ios": "https://dc.lft.to/lastmile_qr_scan", "android": "https://dc.lft.to/lastmile_qr_scan"}, "is_reserved": 0, "lon": -77.0632055, "fusion_lat": 0.0, "name": "b7ecb173b9f97c69c4ccbc290eeb87a6"}, {"type": "electric_scooter", "fusion_lon": 0.0, "bike_id": "91d4f8ebcd7803b93bb563547c3b0339", "is_disabled": 0, "lat": 38.9097475, "rental_uris": {"ios": "https://dc.lft.to/lastmile_qr_scan", "android": "https://dc.lft.to/lastmile_qr_scan"}, "is_reserved": 0, "lon": -77.03840216666667, "fusion_lat": 0.0, "name": "91d4f8ebcd7803b93bb563547c3b0339"}, {"type": "electric_scooter", "fusion_lon": 0.0, "bike_id": "a1abce9a1871819998dece1ab3d96a0e", "is_disabled": 0, "lat": 38.94507733333333, "rental_uris": {"ios": "https://dc.lft.to/lastmile_qr_scan", "android": "https://dc.lft.to/lastmile_qr_scan"}, "is_reserved": 0, "lon": -77.03834883333333, "fusion_lat": 0.0, "name": "a1abce9a1871819998dece1ab3d96a0e"}, {"type": "electric_scooter", "fusion_lon": 0.0, "bike_id": "99478191474ca9177a711969de519dab", "is_disabled": 0, "lat": 38.901727666666666, "rental_uris": {"ios": "https://dc.lft.to/lastmile_qr_scan", "android": "https://dc.lft.to/lastmile_qr_scan"}, "is_reserved": 0, "lon": -76.9806165, "fusion_lat": 0.0, "name": "99478191474ca9177a711969de519dab"}, {"type": "electric_scooter", "fusion_lon": 0.0, "bike_id": "6f00e9a7471528a926a087c54bd43f46", "is_disabled": 0, "lat": 38.93355116666667, "rental_uris": {"ios": "https://dc.lft.to/lastmile_qr_scan", "android": "https://dc.lft.to/lastmile_qr_scan"}, "is_reserved": 0, "lon": -77.03656983333333, "fusion_lat": 0.0, "name": "6f00e9a7471528a926a087c54bd43f46"}, {"type": "electric_scooter", "fusion_lon": 0.0, "bike_id": "38bf39c49640d8c2352de667c8332506", "is_disabled": 0, "lat": 38.90356, "rental_uris": {"ios": "https://dc.lft.to/lastmile_qr_scan", "android": "https://dc.lft.to/lastmile_qr_scan"}, "is_reserved": 0, "lon": -76.98729066666667, "fusion_lat": 0.0, "name": "38bf39c49640d8c2352de667c8332506"}, {"type": "electric_scooter", "fusion_lon": 0.0, "bike_id": "cdf80a71803c1f90f581d4f1b3f4febc", "is_disabled": 0, "lat": 38.91123483333333, "rental_uris": {"ios": "https://dc.lft.to/lastmile_qr_scan", "android": "https://dc.lft.to/lastmile_qr_scan"}, "is_reserved": 0, "lon": -77.00748566666667, "fusion_lat": 0.0, "name": "cdf80a71803c1f90f581d4f1b3f4febc"}, {"type": "electric_scooter", "fusion_lon": 0.0, "bike_id": "fecbe720329541e4eed094762bced1f2", "is_disabled": 0, "lat": 38.90963716666667, "rental_uris": {"ios": "https://dc.lft.to/lastmile_qr_scan", "android": "https://dc.lft.to/lastmile_qr_scan"}, "is_reserved": 0, "lon": -77.018528, "fusion_lat": 0.0, "name": "fecbe720329541e4eed094762bced1f2"}, {"type": "electric_scooter", "fusion_lon": 0.0, "bike_id": "4a109dcc455057112d7ad28928b414f6", "is_disabled": 0, "lat": 38.88727033333333, "rental_uris": {"ios": "https://dc.lft.to/lastmile_qr_scan", "android": "https://dc.lft.to/lastmile_qr_scan"}, "is_reserved": 0, "lon": -77.02836966666666, "fusion_lat": 0.0, "name": "4a109dcc455057112d7ad28928b414f6"}, {"type": "electric_scooter", "fusion_lon": 0.0, "bike_id": "1270af1e4a97411d32535a9f2acaeb30", "is_disabled": 0, "lat": 38.919049, "rental_uris": {"ios": "https://dc.lft.to/lastmile_qr_scan", "android": "https://dc.lft.to/lastmile_qr_scan"}, "is_reserved": 0, "lon": -77.01967333333333, "fusion_lat": 0.0, "name": "1270af1e4a97411d32535a9f2acaeb30"}, {"type": "electric_scooter", "fusion_lon": 0.0, "bike_id": "56b1af23544e8c92fbc424513471948f", "is_disabled": 0, "lat": 38.973512, "rental_uris": {"ios": "https://dc.lft.to/lastmile_qr_scan", "android": "https://dc.lft.to/lastmile_qr_scan"}, "is_reserved": 0, "lon": -77.02786883333333, "fusion_lat": 0.0, "name": "56b1af23544e8c92fbc424513471948f"}, {"type": "electric_scooter", "fusion_lon": 0.0, "bike_id": "dd75cb1526e33dfc1afb3d04b6cf3477", "is_disabled": 0, "lat": 38.906345, "rental_uris": {"ios": "https://dc.lft.to/lastmile_qr_scan", "android": "https://dc.lft.to/lastmile_qr_scan"}, "is_reserved": 0, "lon": -77.05038083333334, "fusion_lat": 0.0, "name": "dd75cb1526e33dfc1afb3d04b6cf3477"}, {"type": "electric_scooter", "fusion_lon": 0.0, "bike_id": "ea0373e74586f63573073b34d284b0d1", "is_disabled": 0, "lat": 38.90416366666667, "rental_uris": {"ios": "https://dc.lft.to/lastmile_qr_scan", "android": "https://dc.lft.to/lastmile_qr_scan"}, "is_reserved": 0, "lon": -76.99951016666667, "fusion_lat": 0.0, "name": "ea0373e74586f63573073b34d284b0d1"}, {"type": "electric_scooter", "fusion_lon": 0.0, "bike_id": "e55569ac228351d5b8e0c79b015e5c11", "is_disabled": 0, "lat": 38.911484, "rental_uris": {"ios": "https://dc.lft.to/lastmile_qr_scan", "android": "https://dc.lft.to/lastmile_qr_scan"}, "is_reserved": 0, "lon": -77.00466483333334, "fusion_lat": 0.0, "name": "e55569ac228351d5b8e0c79b015e5c11"}, {"type": "electric_scooter", "fusion_lon": 0.0, "bike_id": "971797e023a85399a44892d16f958099", "is_disabled": 0, "lat": 38.8922205, "rental_uris": {"ios": "https://dc.lft.to/lastmile_qr_scan", "android": "https://dc.lft.to/lastmile_qr_scan"}, "is_reserved": 0, "lon": -77.02229483333333, "fusion_lat": 0.0, "name": "971797e023a85399a44892d16f958099"}, {"type": "electric_scooter", "fusion_lon": 0.0, "bike_id": "fe46bebd0698d0e1aab5dba0951ae06d", "is_disabled": 0, "lat": 38.917880333333336, "rental_uris": {"ios": "https://dc.lft.to/lastmile_qr_scan", "android": "https://dc.lft.to/lastmile_qr_scan"}, "is_reserved": 0, "lon": -77.03231783333334, "fusion_lat": 0.0, "name": "fe46bebd0698d0e1aab5dba0951ae06d"}, {"type": "electric_scooter", "fusion_lon": 0.0, "bike_id": "06ff2368e25bf0014f70bbfb34c49266", "is_disabled": 0, "lat": 38.94446516666667, "rental_uris": {"ios": "https://dc.lft.to/lastmile_qr_scan", "android": "https://dc.lft.to/lastmile_qr_scan"}, "is_reserved": 0, "lon": -77.06350416666666, "fusion_lat": 0.0, "name": "06ff2368e25bf0014f70bbfb34c49266"}, {"type": "electric_scooter", "fusion_lon": 0.0, "bike_id": "dbdd3e92a867b1baabf346e02f3ec338", "is_disabled": 0, "lat": 38.91272133333333, "rental_uris": {"ios": "https://dc.lft.to/lastmile_qr_scan", "android": "https://dc.lft.to/lastmile_qr_scan"}, "is_reserved": 0, "lon": -77.04701866666667, "fusion_lat": 0.0, "name": "dbdd3e92a867b1baabf346e02f3ec338"}, {"type": "electric_scooter", "fusion_lon": 0.0, "bike_id": "353b7b5234214221764911eafbc35409", "is_disabled": 0, "lat": 38.948324, "rental_uris": {"ios": "https://dc.lft.to/lastmile_qr_scan", "android": "https://dc.lft.to/lastmile_qr_scan"}, "is_reserved": 0, "lon": -77.0255995, "fusion_lat": 0.0, "name": "353b7b5234214221764911eafbc35409"}, {"type": "electric_scooter", "fusion_lon": 0.0, "bike_id": "1f7b8282839b189cdee48e44cf7e19f0", "is_disabled": 0, "lat": 38.917987, "rental_uris": {"ios": "https://dc.lft.to/lastmile_qr_scan", "android": "https://dc.lft.to/lastmile_qr_scan"}, "is_reserved": 0, "lon": -77.02705566666667, "fusion_lat": 0.0, "name": "1f7b8282839b189cdee48e44cf7e19f0"}, {"type": "electric_scooter", "fusion_lon": 0.0, "bike_id": "6cd486ff958c712cbad99a6ec0f782a8", "is_disabled": 0, "lat": 38.8954765, "rental_uris": {"ios": "https://dc.lft.to/lastmile_qr_scan", "android": "https://dc.lft.to/lastmile_qr_scan"}, "is_reserved": 0, "lon": -76.98183916666666, "fusion_lat": 0.0, "name": "6cd486ff958c712cbad99a6ec0f782a8"}, {"type": "electric_scooter", "fusion_lon": 0.0, "bike_id": "01aa27159b2c9cbd7637ba93ba4753ce", "is_disabled": 0, "lat": 38.88317466666667, "rental_uris": {"ios": "https://dc.lft.to/lastmile_qr_scan", "android": "https://dc.lft.to/lastmile_qr_scan"}, "is_reserved": 0, "lon": -77.01746833333333, "fusion_lat": 0.0, "name": "01aa27159b2c9cbd7637ba93ba4753ce"}, {"type": "electric_scooter", "fusion_lon": 0.0, "bike_id": "672ec2c99fe617911e0d6ee939aa33c7", "is_disabled": 0, "lat": 38.92944833333333, "rental_uris": {"ios": "https://dc.lft.to/lastmile_qr_scan", "android": "https://dc.lft.to/lastmile_qr_scan"}, "is_reserved": 0, "lon": -77.00574516666667, "fusion_lat": 0.0, "name": "672ec2c99fe617911e0d6ee939aa33c7"}, {"type": "electric_scooter", "fusion_lon": 0.0, "bike_id": "b05ffbbd7cfa8d9f2f46d5457e36b02e", "is_disabled": 0, "lat": 38.914178166666666, "rental_uris": {"ios": "https://dc.lft.to/lastmile_qr_scan", "android": "https://dc.lft.to/lastmile_qr_scan"}, "is_reserved": 0, "lon": -77.03551433333334, "fusion_lat": 0.0, "name": "b05ffbbd7cfa8d9f2f46d5457e36b02e"}, {"type": "electric_scooter", "fusion_lon": 0.0, "bike_id": "d13da5a4e35714aa0922d7b4cf953eca", "is_disabled": 0, "lat": 38.9047005, "rental_uris": {"ios": "https://dc.lft.to/lastmile_qr_scan", "android": "https://dc.lft.to/lastmile_qr_scan"}, "is_reserved": 0, "lon": -77.05318633333333, "fusion_lat": 0.0, "name": "d13da5a4e35714aa0922d7b4cf953eca"}, {"type": "electric_scooter", "fusion_lon": 0.0, "bike_id": "4529c46ae9a9ad928d3e7c3b0c517d77", "is_disabled": 0, "lat": 38.90562333333333, "rental_uris": {"ios": "https://dc.lft.to/lastmile_qr_scan", "android": "https://dc.lft.to/lastmile_qr_scan"}, "is_reserved": 0, "lon": -77.0175505, "fusion_lat": 0.0, "name": "4529c46ae9a9ad928d3e7c3b0c517d77"}, {"type": "electric_scooter", "fusion_lon": 0.0, "bike_id": "e1b0757bccfaa13fd137bd2176204cbf", "is_disabled": 0, "lat": 38.892221666666664, "rental_uris": {"ios": "https://dc.lft.to/lastmile_qr_scan", "android": "https://dc.lft.to/lastmile_qr_scan"}, "is_reserved": 0, "lon": -77.02628133333333, "fusion_lat": 0.0, "name": "e1b0757bccfaa13fd137bd2176204cbf"}, {"type": "electric_scooter", "fusion_lon": 0.0, "bike_id": "1690847d636ce133ebb10a9801e414e5", "is_disabled": 0, "lat": 38.90847183333333, "rental_uris": {"ios": "https://dc.lft.to/lastmile_qr_scan", "android": "https://dc.lft.to/lastmile_qr_scan"}, "is_reserved": 0, "lon": -77.02691866666666, "fusion_lat": 0.0, "name": "1690847d636ce133ebb10a9801e414e5"}, {"type": "electric_scooter", "fusion_lon": 0.0, "bike_id": "5ef86e87e641b2dc013bcf743d894d14", "is_disabled": 0, "lat": 38.91709983333333, "rental_uris": {"ios": "https://dc.lft.to/lastmile_qr_scan", "android": "https://dc.lft.to/lastmile_qr_scan"}, "is_reserved": 0, "lon": -77.03866416666666, "fusion_lat": 0.0, "name": "5ef86e87e641b2dc013bcf743d894d14"}, {"type": "electric_scooter", "fusion_lon": 0.0, "bike_id": "d2808e258b97d8c9746d11dcef4303b0", "is_disabled": 0, "lat": 38.930923666666665, "rental_uris": {"ios": "https://dc.lft.to/lastmile_qr_scan", "android": "https://dc.lft.to/lastmile_qr_scan"}, "is_reserved": 0, "lon": -77.034802, "fusion_lat": 0.0, "name": "d2808e258b97d8c9746d11dcef4303b0"}, {"type": "electric_scooter", "fusion_lon": 0.0, "bike_id": "bacfeee64effcce5d91f57151672a4d4", "is_disabled": 0, "lat": 38.92884216666667, "rental_uris": {"ios": "https://dc.lft.to/lastmile_qr_scan", "android": "https://dc.lft.to/lastmile_qr_scan"}, "is_reserved": 0, "lon": -77.02656716666667, "fusion_lat": 0.0, "name": "bacfeee64effcce5d91f57151672a4d4"}, {"type": "electric_scooter", "fusion_lon": 0.0, "bike_id": "43206720aa6105080bccdb458c0ddbdd", "is_disabled": 0, "lat": 38.895282, "rental_uris": {"ios": "https://dc.lft.to/lastmile_qr_scan", "android": "https://dc.lft.to/lastmile_qr_scan"}, "is_reserved": 0, "lon": -76.94930366666667, "fusion_lat": 0.0, "name": "43206720aa6105080bccdb458c0ddbdd"}, {"type": "electric_scooter", "fusion_lon": 0.0, "bike_id": "dd0ec7ef2d62f95a2f0bc7504b5fda0d", "is_disabled": 0, "lat": 38.875485166666664, "rental_uris": {"ios": "https://dc.lft.to/lastmile_qr_scan", "android": "https://dc.lft.to/lastmile_qr_scan"}, "is_reserved": 0, "lon": -77.00086016666667, "fusion_lat": 0.0, "name": "dd0ec7ef2d62f95a2f0bc7504b5fda0d"}, {"type": "electric_scooter", "fusion_lon": 0.0, "bike_id": "d837278703d529e89ce9d7a5abc6ced3", "is_disabled": 0, "lat": 38.921232833333335, "rental_uris": {"ios": "https://dc.lft.to/lastmile_qr_scan", "android": "https://dc.lft.to/lastmile_qr_scan"}, "is_reserved": 0, "lon": -77.04575583333333, "fusion_lat": 0.0, "name": "d837278703d529e89ce9d7a5abc6ced3"}, {"type": "electric_scooter", "fusion_lon": 0.0, "bike_id": "f03d49a6f5308b1cc2e776696af7d63d", "is_disabled": 0, "lat": 38.914182, "rental_uris": {"ios": "https://dc.lft.to/lastmile_qr_scan", "android": "https://dc.lft.to/lastmile_qr_scan"}, "is_reserved": 0, "lon": -77.03814416666667, "fusion_lat": 0.0, "name": "f03d49a6f5308b1cc2e776696af7d63d"}, {"type": "electric_scooter", "fusion_lon": 0.0, "bike_id": "a2506504c70ece7ff6872af7fd934d85", "is_disabled": 0, "lat": 38.91565666666666, "rental_uris": {"ios": "https://dc.lft.to/lastmile_qr_scan", "android": "https://dc.lft.to/lastmile_qr_scan"}, "is_reserved": 0, "lon": -77.0315385, "fusion_lat": 0.0, "name": "a2506504c70ece7ff6872af7fd934d85"}, {"type": "electric_scooter", "fusion_lon": 0.0, "bike_id": "8964ffa83f63b04f8fbafd7218275f69", "is_disabled": 0, "lat": 38.95734566666667, "rental_uris": {"ios": "https://dc.lft.to/lastmile_qr_scan", "android": "https://dc.lft.to/lastmile_qr_scan"}, "is_reserved": 0, "lon": -77.02404333333334, "fusion_lat": 0.0, "name": "8964ffa83f63b04f8fbafd7218275f69"}, {"type": "electric_scooter", "fusion_lon": 0.0, "bike_id": "ebe755b25c13c76bce63bc4c8ee482e0", "is_disabled": 0, "lat": 38.900296, "rental_uris": {"ios": "https://dc.lft.to/lastmile_qr_scan", "android": "https://dc.lft.to/lastmile_qr_scan"}, "is_reserved": 0, "lon": -77.00183966666667, "fusion_lat": 0.0, "name": "ebe755b25c13c76bce63bc4c8ee482e0"}, {"type": "electric_scooter", "fusion_lon": 0.0, "bike_id": "98ce40e27138d44ad54f21ad7c63fcda", "is_disabled": 0, "lat": 38.89221466666667, "rental_uris": {"ios": "https://dc.lft.to/lastmile_qr_scan", "android": "https://dc.lft.to/lastmile_qr_scan"}, "is_reserved": 0, "lon": -77.0221765, "fusion_lat": 0.0, "name": "98ce40e27138d44ad54f21ad7c63fcda"}, {"type": "electric_bike", "fusion_lon": 0.0, "bike_id": "c3df4568c7915477fb8d891ca02171f0", "is_disabled": 0, "lat": 38.88890766666667, "rental_uris": {"ios": "https://dc.lft.to/lastmile_qr_scan", "android": "https://dc.lft.to/lastmile_qr_scan"}, "is_reserved": 0, "lon": -77.07951166666666, "fusion_lat": 0.0, "name": "c3df4568c7915477fb8d891ca02171f0"}, {"type": "electric_scooter", "fusion_lon": 0.0, "bike_id": "b2d752ae508de492a3368be79090d90f", "is_disabled": 0, "lat": 38.899047333333336, "rental_uris": {"ios": "https://dc.lft.to/lastmile_qr_scan", "android": "https://dc.lft.to/lastmile_qr_scan"}, "is_reserved": 0, "lon": -77.048948, "fusion_lat": 0.0, "name": "b2d752ae508de492a3368be79090d90f"}, {"type": "electric_scooter", "fusion_lon": 0.0, "bike_id": "31886893d7033da315074f04de38a651", "is_disabled": 0, "lat": 38.9091015, "rental_uris": {"ios": "https://dc.lft.to/lastmile_qr_scan", "android": "https://dc.lft.to/lastmile_qr_scan"}, "is_reserved": 0, "lon": -77.02304216666667, "fusion_lat": 0.0, "name": "31886893d7033da315074f04de38a651"}, {"type": "electric_scooter", "fusion_lon": 0.0, "bike_id": "1264a1fd44451d446cf42b35f785c279", "is_disabled": 0, "lat": 38.938976333333336, "rental_uris": {"ios": "https://dc.lft.to/lastmile_qr_scan", "android": "https://dc.lft.to/lastmile_qr_scan"}, "is_reserved": 0, "lon": -76.98608016666667, "fusion_lat": 0.0, "name": "1264a1fd44451d446cf42b35f785c279"}, {"type": "electric_scooter", "fusion_lon": 0.0, "bike_id": "04bbdfb7871f32db1f5662aff833a47b", "is_disabled": 0, "lat": 38.923761666666664, "rental_uris": {"ios": "https://dc.lft.to/lastmile_qr_scan", "android": "https://dc.lft.to/lastmile_qr_scan"}, "is_reserved": 0, "lon": -77.02236933333333, "fusion_lat": 0.0, "name": "04bbdfb7871f32db1f5662aff833a47b"}, {"type": "electric_scooter", "fusion_lon": 0.0, "bike_id": "21423626fb492194020447ac776e1bcc", "is_disabled": 0, "lat": 38.907553, "rental_uris": {"ios": "https://dc.lft.to/lastmile_qr_scan", "android": "https://dc.lft.to/lastmile_qr_scan"}, "is_reserved": 0, "lon": -77.00762916666666, "fusion_lat": 0.0, "name": "21423626fb492194020447ac776e1bcc"}, {"type": "electric_scooter", "fusion_lon": 0.0, "bike_id": "ed9ac2f02fa29d17fa7915fdac850966", "is_disabled": 0, "lat": 38.90259183333333, "rental_uris": {"ios": "https://dc.lft.to/lastmile_qr_scan", "android": "https://dc.lft.to/lastmile_qr_scan"}, "is_reserved": 0, "lon": -77.01782466666667, "fusion_lat": 0.0, "name": "ed9ac2f02fa29d17fa7915fdac850966"}, {"type": "electric_scooter", "fusion_lon": 0.0, "bike_id": "e5bb2dea9856dfb1c51cb86104a2f2e9", "is_disabled": 0, "lat": 38.92023583333334, "rental_uris": {"ios": "https://dc.lft.to/lastmile_qr_scan", "android": "https://dc.lft.to/lastmile_qr_scan"}, "is_reserved": 0, "lon": -76.995719, "fusion_lat": 0.0, "name": "e5bb2dea9856dfb1c51cb86104a2f2e9"}, {"type": "electric_scooter", "fusion_lon": 0.0, "bike_id": "0a514af98884f31ef8a0ead15727e354", "is_disabled": 0, "lat": 38.891986333333335, "rental_uris": {"ios": "https://dc.lft.to/lastmile_qr_scan", "android": "https://dc.lft.to/lastmile_qr_scan"}, "is_reserved": 0, "lon": -77.00295616666666, "fusion_lat": 0.0, "name": "0a514af98884f31ef8a0ead15727e354"}, {"type": "electric_scooter", "fusion_lon": 0.0, "bike_id": "afd8a7869b285cb087f5f16da3090d5d", "is_disabled": 0, "lat": 38.892254333333334, "rental_uris": {"ios": "https://dc.lft.to/lastmile_qr_scan", "android": "https://dc.lft.to/lastmile_qr_scan"}, "is_reserved": 0, "lon": -77.043343, "fusion_lat": 0.0, "name": "afd8a7869b285cb087f5f16da3090d5d"}, {"type": "electric_scooter", "fusion_lon": 0.0, "bike_id": "510132e1103b325fa7b7bf0c36f63572", "is_disabled": 0, "lat": 38.903578833333334, "rental_uris": {"ios": "https://dc.lft.to/lastmile_qr_scan", "android": "https://dc.lft.to/lastmile_qr_scan"}, "is_reserved": 0, "lon": -77.02381933333334, "fusion_lat": 0.0, "name": "510132e1103b325fa7b7bf0c36f63572"}, {"type": "electric_scooter", "fusion_lon": 0.0, "bike_id": "dd6b029db9d5ebdbd89e62c594a14137", "is_disabled": 0, "lat": 38.920886, "rental_uris": {"ios": "https://dc.lft.to/lastmile_qr_scan", "android": "https://dc.lft.to/lastmile_qr_scan"}, "is_reserved": 0, "lon": -77.02507483333333, "fusion_lat": 0.0, "name": "dd6b029db9d5ebdbd89e62c594a14137"}, {"type": "electric_bike", "fusion_lon": 0.0, "bike_id": "e602b368bffb2a57d3200916d8ab61bd", "is_disabled": 0, "lat": 38.87139333333333, "rental_uris": {"ios": "https://dc.lft.to/lastmile_qr_scan", "android": "https://dc.lft.to/lastmile_qr_scan"}, "is_reserved": 0, "lon": -76.9373165, "fusion_lat": 0.0, "name": "e602b368bffb2a57d3200916d8ab61bd"}, {"type": "electric_scooter", "fusion_lon": 0.0, "bike_id": "af59d11e595e10d22b3a890f037bcea2", "is_disabled": 0, "lat": 38.972156166666664, "rental_uris": {"ios": "https://dc.lft.to/lastmile_qr_scan", "android": "https://dc.lft.to/lastmile_qr_scan"}, "is_reserved": 0, "lon": -77.03333216666667, "fusion_lat": 0.0, "name": "af59d11e595e10d22b3a890f037bcea2"}, {"type": "electric_scooter", "fusion_lon": 0.0, "bike_id": "1debd40240bca35bdf4cb23aeaf80ca6", "is_disabled": 0, "lat": 38.90415766666667, "rental_uris": {"ios": "https://dc.lft.to/lastmile_qr_scan", "android": "https://dc.lft.to/lastmile_qr_scan"}, "is_reserved": 0, "lon": -77.04256966666667, "fusion_lat": 0.0, "name": "1debd40240bca35bdf4cb23aeaf80ca6"}, {"type": "electric_scooter", "fusion_lon": 0.0, "bike_id": "f45fee280aea7cc0ec9cab51e775a25e", "is_disabled": 0, "lat": 38.900129166666666, "rental_uris": {"ios": "https://dc.lft.to/lastmile_qr_scan", "android": "https://dc.lft.to/lastmile_qr_scan"}, "is_reserved": 0, "lon": -77.00669716666667, "fusion_lat": 0.0, "name": "f45fee280aea7cc0ec9cab51e775a25e"}, {"type": "electric_scooter", "fusion_lon": 0.0, "bike_id": "fc7dd18e772ee2fe3cabac35fc47c4db", "is_disabled": 0, "lat": 38.905109833333334, "rental_uris": {"ios": "https://dc.lft.to/lastmile_qr_scan", "android": "https://dc.lft.to/lastmile_qr_scan"}, "is_reserved": 0, "lon": -76.952118, "fusion_lat": 0.0, "name": "fc7dd18e772ee2fe3cabac35fc47c4db"}, {"type": "electric_scooter", "fusion_lon": 0.0, "bike_id": "7bed20379fadae03528edab63075f06e", "is_disabled": 0, "lat": 38.90432333333333, "rental_uris": {"ios": "https://dc.lft.to/lastmile_qr_scan", "android": "https://dc.lft.to/lastmile_qr_scan"}, "is_reserved": 0, "lon": -77.03298866666667, "fusion_lat": 0.0, "name": "7bed20379fadae03528edab63075f06e"}, {"type": "electric_scooter", "fusion_lon": 0.0, "bike_id": "a5bedfe87af150629cbfd8b8177c2e8c", "is_disabled": 0, "lat": 38.91890083333333, "rental_uris": {"ios": "https://dc.lft.to/lastmile_qr_scan", "android": "https://dc.lft.to/lastmile_qr_scan"}, "is_reserved": 0, "lon": -77.038303, "fusion_lat": 0.0, "name": "a5bedfe87af150629cbfd8b8177c2e8c"}, {"type": "electric_scooter", "fusion_lon": 0.0, "bike_id": "e8b768ba9ea4bc97ebcd3638ab0f1312", "is_disabled": 0, "lat": 38.876111333333334, "rental_uris": {"ios": "https://dc.lft.to/lastmile_qr_scan", "android": "https://dc.lft.to/lastmile_qr_scan"}, "is_reserved": 0, "lon": -77.00084933333333, "fusion_lat": 0.0, "name": "e8b768ba9ea4bc97ebcd3638ab0f1312"}, {"type": "electric_scooter", "fusion_lon": 0.0, "bike_id": "262da4a4b1b2bbfd0880e9baac0352e4", "is_disabled": 0, "lat": 38.902264333333335, "rental_uris": {"ios": "https://dc.lft.to/lastmile_qr_scan", "android": "https://dc.lft.to/lastmile_qr_scan"}, "is_reserved": 0, "lon": -76.94197433333333, "fusion_lat": 0.0, "name": "262da4a4b1b2bbfd0880e9baac0352e4"}, {"type": "electric_scooter", "fusion_lon": 0.0, "bike_id": "962e7904ce4577d202d84f08d5ff8aad", "is_disabled": 0, "lat": 38.905522833333336, "rental_uris": {"ios": "https://dc.lft.to/lastmile_qr_scan", "android": "https://dc.lft.to/lastmile_qr_scan"}, "is_reserved": 0, "lon": -76.99471066666666, "fusion_lat": 0.0, "name": "962e7904ce4577d202d84f08d5ff8aad"}, {"type": "electric_scooter", "fusion_lon": 0.0, "bike_id": "1c8ddc69f23ad0c3f6b8760c8cf71899", "is_disabled": 0, "lat": 38.88722383333333, "rental_uris": {"ios": "https://dc.lft.to/lastmile_qr_scan", "android": "https://dc.lft.to/lastmile_qr_scan"}, "is_reserved": 0, "lon": -76.98356433333333, "fusion_lat": 0.0, "name": "1c8ddc69f23ad0c3f6b8760c8cf71899"}, {"type": "electric_scooter", "fusion_lon": 0.0, "bike_id": "691087d7383d58de89df08b481cc96b3", "is_disabled": 0, "lat": 38.91560116666667, "rental_uris": {"ios": "https://dc.lft.to/lastmile_qr_scan", "android": "https://dc.lft.to/lastmile_qr_scan"}, "is_reserved": 0, "lon": -77.03836516666667, "fusion_lat": 0.0, "name": "691087d7383d58de89df08b481cc96b3"}, {"type": "electric_scooter", "fusion_lon": 0.0, "bike_id": "98ae4bdec191a6b312db9ad35fd27ae6", "is_disabled": 0, "lat": 38.91438866666667, "rental_uris": {"ios": "https://dc.lft.to/lastmile_qr_scan", "android": "https://dc.lft.to/lastmile_qr_scan"}, "is_reserved": 0, "lon": -77.04176983333333, "fusion_lat": 0.0, "name": "98ae4bdec191a6b312db9ad35fd27ae6"}, {"type": "electric_scooter", "fusion_lon": 0.0, "bike_id": "1bfbd4f74580a12f1158ba5f187a79a2", "is_disabled": 0, "lat": 38.90784216666667, "rental_uris": {"ios": "https://dc.lft.to/lastmile_qr_scan", "android": "https://dc.lft.to/lastmile_qr_scan"}, "is_reserved": 0, "lon": -77.045039, "fusion_lat": 0.0, "name": "1bfbd4f74580a12f1158ba5f187a79a2"}, {"type": "electric_scooter", "fusion_lon": 0.0, "bike_id": "2d17e162bfd0791e67b0fd49fc4b80f9", "is_disabled": 0, "lat": 38.92793866666667, "rental_uris": {"ios": "https://dc.lft.to/lastmile_qr_scan", "android": "https://dc.lft.to/lastmile_qr_scan"}, "is_reserved": 0, "lon": -77.0369595, "fusion_lat": 0.0, "name": "2d17e162bfd0791e67b0fd49fc4b80f9"}, {"type": "electric_scooter", "fusion_lon": 0.0, "bike_id": "037cb3de6920309fbb7222d65502b721", "is_disabled": 0, "lat": 38.92092983333333, "rental_uris": {"ios": "https://dc.lft.to/lastmile_qr_scan", "android": "https://dc.lft.to/lastmile_qr_scan"}, "is_reserved": 0, "lon": -77.07554983333333, "fusion_lat": 0.0, "name": "037cb3de6920309fbb7222d65502b721"}, {"type": "electric_bike", "fusion_lon": 0.0, "bike_id": "cfed7344168413b6d133701bd2514937", "is_disabled": 0, "lat": 38.895648, "rental_uris": {"ios": "https://dc.lft.to/lastmile_qr_scan", "android": "https://dc.lft.to/lastmile_qr_scan"}, "is_reserved": 0, "lon": -77.12734833333333, "fusion_lat": 0.0, "name": "cfed7344168413b6d133701bd2514937"}, {"type": "electric_scooter", "fusion_lon": 0.0, "bike_id": "7fb782c9e98927e04e5f99713a2b62fc", "is_disabled": 0, "lat": 38.86268283333333, "rental_uris": {"ios": "https://dc.lft.to/lastmile_qr_scan", "android": "https://dc.lft.to/lastmile_qr_scan"}, "is_reserved": 0, "lon": -76.9957295, "fusion_lat": 0.0, "name": "7fb782c9e98927e04e5f99713a2b62fc"}, {"type": "electric_scooter", "fusion_lon": 0.0, "bike_id": "0fceb6858b7534dbb8c858114aabde57", "is_disabled": 0, "lat": 38.91976866666667, "rental_uris": {"ios": "https://dc.lft.to/lastmile_qr_scan", "android": "https://dc.lft.to/lastmile_qr_scan"}, "is_reserved": 0, "lon": -77.02170133333334, "fusion_lat": 0.0, "name": "0fceb6858b7534dbb8c858114aabde57"}, {"type": "electric_scooter", "fusion_lon": 0.0, "bike_id": "88bd18668da78b76ed4674daf0ea5b44", "is_disabled": 0, "lat": 38.90385833333333, "rental_uris": {"ios": "https://dc.lft.to/lastmile_qr_scan", "android": "https://dc.lft.to/lastmile_qr_scan"}, "is_reserved": 0, "lon": -77.0667655, "fusion_lat": 0.0, "name": "88bd18668da78b76ed4674daf0ea5b44"}, {"type": "electric_scooter", "fusion_lon": 0.0, "bike_id": "09e4037a44574d1a977b24e3aa2a98db", "is_disabled": 0, "lat": 38.94455983333334, "rental_uris": {"ios": "https://dc.lft.to/lastmile_qr_scan", "android": "https://dc.lft.to/lastmile_qr_scan"}, "is_reserved": 0, "lon": -77.028016, "fusion_lat": 0.0, "name": "09e4037a44574d1a977b24e3aa2a98db"}, {"type": "electric_scooter", "fusion_lon": 0.0, "bike_id": "9abfc8d7bcf2412a488fe252815eba3a", "is_disabled": 0, "lat": 38.9212855, "rental_uris": {"ios": "https://dc.lft.to/lastmile_qr_scan", "android": "https://dc.lft.to/lastmile_qr_scan"}, "is_reserved": 0, "lon": -77.01807666666667, "fusion_lat": 0.0, "name": "9abfc8d7bcf2412a488fe252815eba3a"}, {"type": "electric_scooter", "fusion_lon": 0.0, "bike_id": "d9af533785643a80541b33d28c1f1a09", "is_disabled": 0, "lat": 38.92476666666666, "rental_uris": {"ios": "https://dc.lft.to/lastmile_qr_scan", "android": "https://dc.lft.to/lastmile_qr_scan"}, "is_reserved": 0, "lon": -77.03058083333333, "fusion_lat": 0.0, "name": "d9af533785643a80541b33d28c1f1a09"}, {"type": "electric_scooter", "fusion_lon": 0.0, "bike_id": "b4b7d91556df77703253c25afe269e7e", "is_disabled": 0, "lat": 38.899157333333335, "rental_uris": {"ios": "https://dc.lft.to/lastmile_qr_scan", "android": "https://dc.lft.to/lastmile_qr_scan"}, "is_reserved": 0, "lon": -76.93385083333334, "fusion_lat": 0.0, "name": "b4b7d91556df77703253c25afe269e7e"}, {"type": "electric_scooter", "fusion_lon": 0.0, "bike_id": "e2df2c65b513388ec5b80a2f292afc1b", "is_disabled": 0, "lat": 38.887405, "rental_uris": {"ios": "https://dc.lft.to/lastmile_qr_scan", "android": "https://dc.lft.to/lastmile_qr_scan"}, "is_reserved": 0, "lon": -77.01529933333333, "fusion_lat": 0.0, "name": "e2df2c65b513388ec5b80a2f292afc1b"}, {"type": "electric_scooter", "fusion_lon": 0.0, "bike_id": "554cb5f7b53bf88e85db16f232111345", "is_disabled": 0, "lat": 38.895073, "rental_uris": {"ios": "https://dc.lft.to/lastmile_qr_scan", "android": "https://dc.lft.to/lastmile_qr_scan"}, "is_reserved": 0, "lon": -77.02823466666666, "fusion_lat": 0.0, "name": "554cb5f7b53bf88e85db16f232111345"}, {"type": "electric_scooter", "fusion_lon": 0.0, "bike_id": "5e2da2812697e0c800f7eb09832a5376", "is_disabled": 0, "lat": 38.920171333333336, "rental_uris": {"ios": "https://dc.lft.to/lastmile_qr_scan", "android": "https://dc.lft.to/lastmile_qr_scan"}, "is_reserved": 0, "lon": -77.04402783333333, "fusion_lat": 0.0, "name": "5e2da2812697e0c800f7eb09832a5376"}, {"type": "electric_scooter", "fusion_lon": 0.0, "bike_id": "39cd7ec20bbddc0a128a71160c0d650b", "is_disabled": 0, "lat": 38.914163333333335, "rental_uris": {"ios": "https://dc.lft.to/lastmile_qr_scan", "android": "https://dc.lft.to/lastmile_qr_scan"}, "is_reserved": 0, "lon": -77.0415135, "fusion_lat": 0.0, "name": "39cd7ec20bbddc0a128a71160c0d650b"}, {"type": "electric_scooter", "fusion_lon": 0.0, "bike_id": "c5fbdd0620a6de77cdda8ac91e55f396", "is_disabled": 0, "lat": 38.9001155, "rental_uris": {"ios": "https://dc.lft.to/lastmile_qr_scan", "android": "https://dc.lft.to/lastmile_qr_scan"}, "is_reserved": 0, "lon": -76.98895883333333, "fusion_lat": 0.0, "name": "c5fbdd0620a6de77cdda8ac91e55f396"}, {"type": "electric_scooter", "fusion_lon": 0.0, "bike_id": "218219023900f249c1b843e946e0d436", "is_disabled": 0, "lat": 38.931217, "rental_uris": {"ios": "https://dc.lft.to/lastmile_qr_scan", "android": "https://dc.lft.to/lastmile_qr_scan"}, "is_reserved": 0, "lon": -77.021031, "fusion_lat": 0.0, "name": "218219023900f249c1b843e946e0d436"}, {"type": "electric_scooter", "fusion_lon": 0.0, "bike_id": "afb2238de8782de5a2b02fbd53c0c30f", "is_disabled": 0, "lat": 38.923666, "rental_uris": {"ios": "https://dc.lft.to/lastmile_qr_scan", "android": "https://dc.lft.to/lastmile_qr_scan"}, "is_reserved": 0, "lon": -77.05190733333333, "fusion_lat": 0.0, "name": "afb2238de8782de5a2b02fbd53c0c30f"}, {"type": "electric_scooter", "fusion_lon": 0.0, "bike_id": "b532953192ae79ed59b2095a42a70efb", "is_disabled": 0, "lat": 38.90191566666667, "rental_uris": {"ios": "https://dc.lft.to/lastmile_qr_scan", "android": "https://dc.lft.to/lastmile_qr_scan"}, "is_reserved": 0, "lon": -76.92631433333334, "fusion_lat": 0.0, "name": "b532953192ae79ed59b2095a42a70efb"}, {"type": "electric_bike", "fusion_lon": 0.0, "bike_id": "f93f00d5d62023990c65470f7678f932", "is_disabled": 0, "lat": 38.92281783333333, "rental_uris": {"ios": "https://dc.lft.to/lastmile_qr_scan", "android": "https://dc.lft.to/lastmile_qr_scan"}, "is_reserved": 0, "lon": -76.99747183333334, "fusion_lat": 0.0, "name": "f93f00d5d62023990c65470f7678f932"}, {"type": "electric_scooter", "fusion_lon": 0.0, "bike_id": "7e4fbd3e1c1c08f9d135f785e2105271", "is_disabled": 0, "lat": 38.939971, "rental_uris": {"ios": "https://dc.lft.to/lastmile_qr_scan", "android": "https://dc.lft.to/lastmile_qr_scan"}, "is_reserved": 0, "lon": -77.0254685, "fusion_lat": 0.0, "name": "7e4fbd3e1c1c08f9d135f785e2105271"}, {"type": "electric_scooter", "fusion_lon": 0.0, "bike_id": "50d8b6ce291f56d979770136d55d27bb", "is_disabled": 0, "lat": 38.916267833333336, "rental_uris": {"ios": "https://dc.lft.to/lastmile_qr_scan", "android": "https://dc.lft.to/lastmile_qr_scan"}, "is_reserved": 0, "lon": -77.04273516666667, "fusion_lat": 0.0, "name": "50d8b6ce291f56d979770136d55d27bb"}, {"type": "electric_scooter", "fusion_lon": 0.0, "bike_id": "a8316fc54603aeb7bee501113c578574", "is_disabled": 0, "lat": 38.896461333333335, "rental_uris": {"ios": "https://dc.lft.to/lastmile_qr_scan", "android": "https://dc.lft.to/lastmile_qr_scan"}, "is_reserved": 0, "lon": -77.01155983333334, "fusion_lat": 0.0, "name": "a8316fc54603aeb7bee501113c578574"}, {"type": "electric_scooter", "fusion_lon": 0.0, "bike_id": "3c0eb62d0690c187c62b73ae59ac5eaf", "is_disabled": 0, "lat": 38.903899, "rental_uris": {"ios": "https://dc.lft.to/lastmile_qr_scan", "android": "https://dc.lft.to/lastmile_qr_scan"}, "is_reserved": 0, "lon": -76.984902, "fusion_lat": 0.0, "name": "3c0eb62d0690c187c62b73ae59ac5eaf"}, {"type": "electric_scooter", "fusion_lon": 0.0, "bike_id": "fc1b392469400d12f844620df3d0a3d7", "is_disabled": 0, "lat": 38.92469633333333, "rental_uris": {"ios": "https://dc.lft.to/lastmile_qr_scan", "android": "https://dc.lft.to/lastmile_qr_scan"}, "is_reserved": 0, "lon": -77.02215016666666, "fusion_lat": 0.0, "name": "fc1b392469400d12f844620df3d0a3d7"}, {"type": "electric_scooter", "fusion_lon": 0.0, "bike_id": "e6bab99c561b123ad2efd0c2d082371a", "is_disabled": 0, "lat": 38.91552933333333, "rental_uris": {"ios": "https://dc.lft.to/lastmile_qr_scan", "android": "https://dc.lft.to/lastmile_qr_scan"}, "is_reserved": 0, "lon": -77.03245166666666, "fusion_lat": 0.0, "name": "e6bab99c561b123ad2efd0c2d082371a"}, {"type": "electric_scooter", "fusion_lon": 0.0, "bike_id": "2b0541144f718803c43f2ee7eae29fef", "is_disabled": 0, "lat": 38.8693485, "rental_uris": {"ios": "https://dc.lft.to/lastmile_qr_scan", "android": "https://dc.lft.to/lastmile_qr_scan"}, "is_reserved": 0, "lon": -77.013762, "fusion_lat": 0.0, "name": "2b0541144f718803c43f2ee7eae29fef"}, {"type": "electric_bike", "fusion_lon": 0.0, "bike_id": "a7a53df99185d7431f5585becb081803", "is_disabled": 0, "lat": 38.957580166666666, "rental_uris": {"ios": "https://dc.lft.to/lastmile_qr_scan", "android": "https://dc.lft.to/lastmile_qr_scan"}, "is_reserved": 0, "lon": -76.98024016666666, "fusion_lat": 0.0, "name": "a7a53df99185d7431f5585becb081803"}, {"type": "electric_scooter", "fusion_lon": 0.0, "bike_id": "6246950d165135ce8dfc084b8a894ecb", "is_disabled": 0, "lat": 38.86469233333333, "rental_uris": {"ios": "https://dc.lft.to/lastmile_qr_scan", "android": "https://dc.lft.to/lastmile_qr_scan"}, "is_reserved": 0, "lon": -76.98227133333333, "fusion_lat": 0.0, "name": "6246950d165135ce8dfc084b8a894ecb"}, {"type": "electric_scooter", "fusion_lon": 0.0, "bike_id": "ddb66b6f80a34e19dfd37ed877dadaf5", "is_disabled": 0, "lat": 38.9210745, "rental_uris": {"ios": "https://dc.lft.to/lastmile_qr_scan", "android": "https://dc.lft.to/lastmile_qr_scan"}, "is_reserved": 0, "lon": -77.04680833333333, "fusion_lat": 0.0, "name": "ddb66b6f80a34e19dfd37ed877dadaf5"}, {"type": "electric_bike", "fusion_lon": 0.0, "bike_id": "a1a721622ba556eab6959ad3d23adc36", "is_disabled": 0, "lat": 38.94149916666667, "rental_uris": {"ios": "https://dc.lft.to/lastmile_qr_scan", "android": "https://dc.lft.to/lastmile_qr_scan"}, "is_reserved": 0, "lon": -77.00194616666667, "fusion_lat": 0.0, "name": "a1a721622ba556eab6959ad3d23adc36"}, {"type": "electric_scooter", "fusion_lon": 0.0, "bike_id": "84c8abf74333876f75e9f07cb1f6807e", "is_disabled": 0, "lat": 38.93466733333333, "rental_uris": {"ios": "https://dc.lft.to/lastmile_qr_scan", "android": "https://dc.lft.to/lastmile_qr_scan"}, "is_reserved": 0, "lon": -77.02927633333333, "fusion_lat": 0.0, "name": "84c8abf74333876f75e9f07cb1f6807e"}, {"type": "electric_scooter", "fusion_lon": 0.0, "bike_id": "f6f809dd8eab326689ff79fa62ad450d", "is_disabled": 0, "lat": 38.89610666666667, "rental_uris": {"ios": "https://dc.lft.to/lastmile_qr_scan", "android": "https://dc.lft.to/lastmile_qr_scan"}, "is_reserved": 0, "lon": -76.98097283333334, "fusion_lat": 0.0, "name": "f6f809dd8eab326689ff79fa62ad450d"}, {"type": "electric_scooter", "fusion_lon": 0.0, "bike_id": "b549ea3ba83557a93c4f8ff7f44eaf95", "is_disabled": 0, "lat": 38.91836266666667, "rental_uris": {"ios": "https://dc.lft.to/lastmile_qr_scan", "android": "https://dc.lft.to/lastmile_qr_scan"}, "is_reserved": 0, "lon": -77.017814, "fusion_lat": 0.0, "name": "b549ea3ba83557a93c4f8ff7f44eaf95"}, {"type": "electric_scooter", "fusion_lon": 0.0, "bike_id": "f2152177e63bb12a84f474ce7692e5de", "is_disabled": 0, "lat": 38.905924666666664, "rental_uris": {"ios": "https://dc.lft.to/lastmile_qr_scan", "android": "https://dc.lft.to/lastmile_qr_scan"}, "is_reserved": 0, "lon": -77.0068515, "fusion_lat": 0.0, "name": "f2152177e63bb12a84f474ce7692e5de"}, {"type": "electric_scooter", "fusion_lon": 0.0, "bike_id": "cc6c364c27b4b6079dd458bdc7533c31", "is_disabled": 0, "lat": 38.9224765, "rental_uris": {"ios": "https://dc.lft.to/lastmile_qr_scan", "android": "https://dc.lft.to/lastmile_qr_scan"}, "is_reserved": 0, "lon": -77.03909666666667, "fusion_lat": 0.0, "name": "cc6c364c27b4b6079dd458bdc7533c31"}, {"type": "electric_scooter", "fusion_lon": 0.0, "bike_id": "ed5cad4d2cceebbc5f198bd043876a17", "is_disabled": 0, "lat": 38.91923166666667, "rental_uris": {"ios": "https://dc.lft.to/lastmile_qr_scan", "android": "https://dc.lft.to/lastmile_qr_scan"}, "is_reserved": 0, "lon": -77.03264116666666, "fusion_lat": 0.0, "name": "ed5cad4d2cceebbc5f198bd043876a17"}, {"type": "electric_scooter", "fusion_lon": 0.0, "bike_id": "292fb64f98de9136bf91cbf16036c6fd", "is_disabled": 0, "lat": 38.917676666666665, "rental_uris": {"ios": "https://dc.lft.to/lastmile_qr_scan", "android": "https://dc.lft.to/lastmile_qr_scan"}, "is_reserved": 0, "lon": -77.02340366666667, "fusion_lat": 0.0, "name": "292fb64f98de9136bf91cbf16036c6fd"}, {"type": "electric_scooter", "fusion_lon": 0.0, "bike_id": "ee202e29184c4158ed4d58c48d7a630f", "is_disabled": 0, "lat": 38.9236735, "rental_uris": {"ios": "https://dc.lft.to/lastmile_qr_scan", "android": "https://dc.lft.to/lastmile_qr_scan"}, "is_reserved": 0, "lon": -77.0411015, "fusion_lat": 0.0, "name": "ee202e29184c4158ed4d58c48d7a630f"}, {"type": "electric_scooter", "fusion_lon": 0.0, "bike_id": "ae787136b4e253bf5e9fe0d900f9a372", "is_disabled": 0, "lat": 38.90103366666666, "rental_uris": {"ios": "https://dc.lft.to/lastmile_qr_scan", "android": "https://dc.lft.to/lastmile_qr_scan"}, "is_reserved": 0, "lon": -77.057902, "fusion_lat": 0.0, "name": "ae787136b4e253bf5e9fe0d900f9a372"}, {"type": "electric_scooter", "fusion_lon": 0.0, "bike_id": "d48255a527a00a2d9477564966235dae", "is_disabled": 0, "lat": 38.93534733333333, "rental_uris": {"ios": "https://dc.lft.to/lastmile_qr_scan", "android": "https://dc.lft.to/lastmile_qr_scan"}, "is_reserved": 0, "lon": -77.0235225, "fusion_lat": 0.0, "name": "d48255a527a00a2d9477564966235dae"}, {"type": "electric_scooter", "fusion_lon": 0.0, "bike_id": "4cb183d46de331cc24ef61ab4602e26a", "is_disabled": 0, "lat": 38.924724, "rental_uris": {"ios": "https://dc.lft.to/lastmile_qr_scan", "android": "https://dc.lft.to/lastmile_qr_scan"}, "is_reserved": 0, "lon": -77.02219416666667, "fusion_lat": 0.0, "name": "4cb183d46de331cc24ef61ab4602e26a"}, {"type": "electric_scooter", "fusion_lon": 0.0, "bike_id": "6d0a3799f61992ef5483e5082f6b04af", "is_disabled": 0, "lat": 38.90255766666667, "rental_uris": {"ios": "https://dc.lft.to/lastmile_qr_scan", "android": "https://dc.lft.to/lastmile_qr_scan"}, "is_reserved": 0, "lon": -77.01752316666666, "fusion_lat": 0.0, "name": "6d0a3799f61992ef5483e5082f6b04af"}, {"type": "electric_scooter", "fusion_lon": 0.0, "bike_id": "545de1e829269b409a64f9f257d8e42c", "is_disabled": 0, "lat": 38.9071865, "rental_uris": {"ios": "https://dc.lft.to/lastmile_qr_scan", "android": "https://dc.lft.to/lastmile_qr_scan"}, "is_reserved": 0, "lon": -77.0320985, "fusion_lat": 0.0, "name": "545de1e829269b409a64f9f257d8e42c"}, {"type": "electric_scooter", "fusion_lon": 0.0, "bike_id": "9a69a06ae953073e0669a99f144467b5", "is_disabled": 0, "lat": 38.919569333333335, "rental_uris": {"ios": "https://dc.lft.to/lastmile_qr_scan", "android": "https://dc.lft.to/lastmile_qr_scan"}, "is_reserved": 0, "lon": -77.01673933333333, "fusion_lat": 0.0, "name": "9a69a06ae953073e0669a99f144467b5"},