{"data": {"bikes": [{"bike_id": "522ce22e696917d8734b72d00b5a16a6", "is_reserved": 0, "fusion_lon": 0.0, "lat": 38.92805083333333, "is_disabled": 0, "name": "522ce22e696917d8734b72d00b5a16a6", "fusion_lat": 0.0, "rental_uris": {"ios": "https://dc.lft.to/lastmile_qr_scan", "android": "https://dc.lft.to/lastmile_qr_scan"}, "lon": -77.05523716666667, "type": "electric_scooter"}, {"bike_id": "cd6a7b287fded2faf9adfa00cab390b5", "is_reserved": 0, "fusion_lon": 0.0, "lat": 38.925822, "is_disabled": 0, "name": "cd6a7b287fded2faf9adfa00cab390b5", "fusion_lat": 0.0, "rental_uris": {"ios": "https://dc.lft.to/lastmile_qr_scan", "android": "https://dc.lft.to/lastmile_qr_scan"}, "lon": -77.039331, "type": "electric_scooter"}, {"bike_id": "c287d1543d65e429f2199ee76ef2f933", "is_reserved": 0, "fusion_lon": 0.0, "lat": 38.905864666666666, "is_disabled": 0, "name": "c287d1543d65e429f2199ee76ef2f933", "fusion_lat": 0.0, "rental_uris": {"ios": "https://dc.lft.to/lastmile_qr_scan", "android": "https://dc.lft.to/lastmile_qr_scan"}, "lon": -77.0628565, "type": "electric_scooter"}, {"bike_id": "52b174ee07551b07c03d98a57aa803f3", "is_reserved": 0, "fusion_lon": 0.0, "lat": 38.897992, "is_disabled": 0, "name": "52b174ee07551b07c03d98a57aa803f3", "fusion_lat": 0.0, "rental_uris": {"ios": "https://dc.lft.to/lastmile_qr_scan", "android": "https://dc.lft.to/lastmile_qr_scan"}, "lon": -77.02944766666667, "type": "electric_scooter"}, {"bike_id": "9a881285c9422b4c3acd0f911bf2b012", "is_reserved": 0, "fusion_lon": 0.0, "lat": 38.915733833333334, "is_disabled": 0, "name": "9a881285c9422b4c3acd0f911bf2b012", "fusion_lat": 0.0, "rental_uris": {"ios": "https://dc.lft.to/lastmile_qr_scan", "android": "https://dc.lft.to/lastmile_qr_scan"}, "lon": -77.0315345, "type": "electric_scooter"}, {"bike_id": "2c2020992898ccedc6d0bac9c4d88b7e", "is_reserved": 0, "fusion_lon": 0.0, "lat": 38.897308333333335, "is_disabled": 0, "name": "2c2020992898ccedc6d0bac9c4d88b7e", "fusion_lat": 0.0, "rental_uris": {"ios": "https://dc.lft.to/lastmile_qr_scan", "android": "https://dc.lft.to/lastmile_qr_scan"}, "lon": -77.03021033333333, "type": "electric_scooter"}, {"bike_id": "6fcb3395deeaedb1fcb5908c39258872", "is_reserved": 0, "fusion_lon": 0.0, "lat": 38.9170635, "is_disabled": 0, "name": "6fcb3395deeaedb1fcb5908c39258872", "fusion_lat": 0.0, "rental_uris": {"ios": "https://dc.lft.to/lastmile_qr_scan", "android": "https://dc.lft.to/lastmile_qr_scan"}, "lon": -77.03105666666667, "type": "electric_scooter"}, {"bike_id": "0804c1fac99a5ac2063c2291f32c8a92", "is_reserved": 0, "fusion_lon": 0.0, "lat": 38.89834883333333, "is_disabled": 0, "name": "0804c1fac99a5ac2063c2291f32c8a92", "fusion_lat": 0.0, "rental_uris": {"ios": "https://dc.lft.to/lastmile_qr_scan", "android": "https://dc.lft.to/lastmile_qr_scan"}, "lon": -77.032743, "type": "electric_scooter"}, {"bike_id": "8b0f05ec63424acc1d506da510b9a61c", "is_reserved": 0, "fusion_lon": 0.0, "lat": 38.897876833333335, "is_disabled": 0, "name": "8b0f05ec63424acc1d506da510b9a61c", "fusion_lat": 0.0, "rental_uris": {"ios": "https://dc.lft.to/lastmile_qr_scan", "android": "https://dc.lft.to/lastmile_qr_scan"}, "lon": -77.031836, "type": "electric_scooter"}, {"bike_id": "46388217777e8387aeff1d8173ad8514", "is_reserved": 0, "fusion_lon": 0.0, "lat": 38.88311733333333, "is_disabled": 0, "name": "46388217777e8387aeff1d8173ad8514", "fusion_lat": 0.0, "rental_uris": {"ios": "https://dc.lft.to/lastmile_qr_scan", "android": "https://dc.lft.to/lastmile_qr_scan"}, "lon": -77.01769533333334, "type": "electric_scooter"}, {"bike_id": "ae77ee6bf82c5e6b8569abc9aadb53b5", "is_reserved": 0, "fusion_lon": 0.0, "lat": 38.885776166666666, "is_disabled": 0, "name": "ae77ee6bf82c5e6b8569abc9aadb53b5", "fusion_lat": 0.0, "rental_uris": {"ios": "https://dc.lft.to/lastmile_qr_scan", "android": "https://dc.lft.to/lastmile_qr_scan"}, "lon": -77.01544416666667, "type": "electric_scooter"}, {"bike_id": "2c6c9e69effa7f695e13def5947c8681", "is_reserved": 0, "fusion_lon": 0.0, "lat": 38.91831233333333, "is_disabled": 0, "name": "2c6c9e69effa7f695e13def5947c8681", "fusion_lat": 0.0, "rental_uris": {"ios": "https://dc.lft.to/lastmile_qr_scan", "android": "https://dc.lft.to/lastmile_qr_scan"}, "lon": -77.04153466666666, "type": "electric_scooter"}, {"bike_id": "ed4b5011037dde9197927f11ce3a1b7c", "is_reserved": 0, "fusion_lon": 0.0, "lat": 38.90021616666667, "is_disabled": 0, "name": "ed4b5011037dde9197927f11ce3a1b7c", "fusion_lat": 0.0, "rental_uris": {"ios": "https://dc.lft.to/lastmile_qr_scan", "android": "https://dc.lft.to/lastmile_qr_scan"}, "lon": -77.0404225, "type": "electric_scooter"}, {"bike_id": "52b7b6c325e0a1e4ed0feb05f20d866a", "is_reserved": 0, "fusion_lon": 0.0, "lat": 38.84426333333333, "is_disabled": 0, "name": "52b7b6c325e0a1e4ed0feb05f20d866a", "fusion_lat": 0.0, "rental_uris": {"ios": "https://dc.lft.to/lastmile_qr_scan", "android": "https://dc.lft.to/lastmile_qr_scan"}, "lon": -76.99779466666666, "type": "electric_scooter"}, {"bike_id": "0e1ad856696c1d5d3636b1fc229350fe", "is_reserved": 0, "fusion_lon": 0.0, "lat": 38.9028065, "is_disabled": 0, "name": "0e1ad856696c1d5d3636b1fc229350fe", "fusion_lat": 0.0, "rental_uris": {"ios": "https://dc.lft.to/lastmile_qr_scan", "android": "https://dc.lft.to/lastmile_qr_scan"}, "lon": -77.04026083333333, "type": "electric_scooter"}, {"bike_id": "90d425af52f2019b635ec80097f2340c", "is_reserved": 0, "fusion_lon": 0.0, "lat": 38.924856, "is_disabled": 0, "name": "90d425af52f2019b635ec80097f2340c", "fusion_lat": 0.0, "rental_uris": {"ios": "https://dc.lft.to/lastmile_qr_scan", "android": "https://dc.lft.to/lastmile_qr_scan"}, "lon": -77.02145166666666, "type": "electric_scooter"}, {"bike_id": "d2fb8edbe83bb7bf3ce5932b745adb71", "is_reserved": 0, "fusion_lon": 0.0, "lat": 38.902382, "is_disabled": 0, "name": "d2fb8edbe83bb7bf3ce5932b745adb71", "fusion_lat": 0.0, "rental_uris": {"ios": "https://dc.lft.to/lastmile_qr_scan", "android": "https://dc.lft.to/lastmile_qr_scan"}, "lon": -77.02696516666667, "type": "electric_scooter"}, {"bike_id": "86d3b9bab86834364781329e1cbec3d7", "is_reserved": 0, "fusion_lon": 0.0, "lat": 38.91940916666667, "is_disabled": 0, "name": "86d3b9bab86834364781329e1cbec3d7", "fusion_lat": 0.0, "rental_uris": {"ios": "https://dc.lft.to/lastmile_qr_scan", "android": "https://dc.lft.to/lastmile_qr_scan"}, "lon": -77.04491633333333, "type": "electric_scooter"}, {"bike_id": "3b928ca89ab561f08e2f6386131e4795", "is_reserved": 0, "fusion_lon": 0.0, "lat": 38.9305545, "is_disabled": 0, "name": "3b928ca89ab561f08e2f6386131e4795", "fusion_lat": 0.0, "rental_uris": {"ios": "https://dc.lft.to/lastmile_qr_scan", "android": "https://dc.lft.to/lastmile_qr_scan"}, "lon": -77.0324145, "type": "electric_bike"}, {"bike_id": "f4fa4021654d79ed104ff12e67a4328e", "is_reserved": 0, "fusion_lon": 0.0, "lat": 38.928676333333335, "is_disabled": 0, "name": "f4fa4021654d79ed104ff12e67a4328e", "fusion_lat": 0.0, "rental_uris": {"ios": "https://dc.lft.to/lastmile_qr_scan", "android": "https://dc.lft.to/lastmile_qr_scan"}, "lon": -77.032428, "type": "electric_scooter"}, {"bike_id": "334c4a4c81f2e1fec7308d1cedfff8b0", "is_reserved": 0, "fusion_lon": 0.0, "lat": 38.896247, "is_disabled": 0, "name": "334c4a4c81f2e1fec7308d1cedfff8b0", "fusion_lat": 0.0, "rental_uris": {"ios": "https://dc.lft.to/lastmile_qr_scan", "android": "https://dc.lft.to/lastmile_qr_scan"}, "lon": -76.994197, "type": "electric_scooter"}, {"bike_id": "97804e6688361d99d06716751fe39cf1", "is_reserved": 0, "fusion_lon": 0.0, "lat": 38.949011, "is_disabled": 0, "name": "97804e6688361d99d06716751fe39cf1", "fusion_lat": 0.0, "rental_uris": {"ios": "https://dc.lft.to/lastmile_qr_scan", "android": "https://dc.lft.to/lastmile_qr_scan"}, "lon": -76.96374466666667, "type": "electric_bike"}, {"bike_id": "f26ce8e812f10937cc35eebf6f343a8c", "is_reserved": 0, "fusion_lon": 0.0, "lat": 38.901446666666665, "is_disabled": 0, "name": "f26ce8e812f10937cc35eebf6f343a8c", "fusion_lat": 0.0, "rental_uris": {"ios": "https://dc.lft.to/lastmile_qr_scan", "android": "https://dc.lft.to/lastmile_qr_scan"}, "lon": -76.99801483333333, "type": "electric_scooter"}, {"bike_id": "6e50f178d9d215d5925cac61a19cf4d1", "is_reserved": 0, "fusion_lon": 0.0, "lat": 38.95356016666667, "is_disabled": 0, "name": "6e50f178d9d215d5925cac61a19cf4d1", "fusion_lat": 0.0, "rental_uris": {"ios": "https://dc.lft.to/lastmile_qr_scan", "android": "https://dc.lft.to/lastmile_qr_scan"}, "lon": -76.98092916666667, "type": "electric_bike"}, {"bike_id": "f348227a041279d20c6b46e5d395db17", "is_reserved": 0, "fusion_lon": 0.0, "lat": 38.902738666666664, "is_disabled": 0, "name": "f348227a041279d20c6b46e5d395db17", "fusion_lat": 0.0, "rental_uris": {"ios": "https://dc.lft.to/lastmile_qr_scan", "android": "https://dc.lft.to/lastmile_qr_scan"}, "lon": -77.03941433333334, "type": "electric_scooter"}, {"bike_id": "9ecdc0548a608adecd007b29fd4d00a9", "is_reserved": 0, "fusion_lon": 0.0, "lat": 38.8919725, "is_disabled": 0, "name": "9ecdc0548a608adecd007b29fd4d00a9", "fusion_lat": 0.0, "rental_uris": {"ios": "https://dc.lft.to/lastmile_qr_scan", "android": "https://dc.lft.to/lastmile_qr_scan"}, "lon": -77.02837533333333, "type": "electric_scooter"}, {"bike_id": "b6faee1988b89c27c26dce176386cd06", "is_reserved": 0, "fusion_lon": 0.0, "lat": 38.91769883333333, "is_disabled": 0, "name": "b6faee1988b89c27c26dce176386cd06", "fusion_lat": 0.0, "rental_uris": {"ios": "https://dc.lft.to/lastmile_qr_scan", "android": "https://dc.lft.to/lastmile_qr_scan"}, "lon": -77.0270955, "type": "electric_scooter"}, {"bike_id": "7ca6a140cc977560df083c4c3ab4c173", "is_reserved": 0, "fusion_lon": 0.0, "lat": 38.8845515, "is_disabled": 0, "name": "7ca6a140cc977560df083c4c3ab4c173", "fusion_lat": 0.0, "rental_uris": {"ios": "https://dc.lft.to/lastmile_qr_scan", "android": "https://dc.lft.to/lastmile_qr_scan"}, "lon": -77.0057325, "type": "electric_scooter"}, {"bike_id": "6f2776f2ec6c4d7d13b23948e457ce36", "is_reserved": 0, "fusion_lon": 0.0, "lat": 38.87151433333333, "is_disabled": 0, "name": "6f2776f2ec6c4d7d13b23948e457ce36", "fusion_lat": 0.0, "rental_uris": {"ios": "https://dc.lft.to/lastmile_qr_scan", "android": "https://dc.lft.to/lastmile_qr_scan"}, "lon": -76.93670183333333, "type": "electric_bike"}, {"bike_id": "2661109d243909e7c0611aebcf9074f4", "is_reserved": 0, "fusion_lon": 0.0, "lat": 38.92480166666667, "is_disabled": 0, "name": "2661109d243909e7c0611aebcf9074f4", "fusion_lat": 0.0, "rental_uris": {"ios": "https://dc.lft.to/lastmile_qr_scan", "android": "https://dc.lft.to/lastmile_qr_scan"}, "lon": -77.02755833333333, "type": "electric_scooter"}, {"bike_id": "5ba70f4d727ace33ac2486e63257fe72", "is_reserved": 0, "fusion_lon": 0.0, "lat": 38.8764505, "is_disabled": 0, "name": "5ba70f4d727ace33ac2486e63257fe72", "fusion_lat": 0.0, "rental_uris": {"ios": "https://dc.lft.to/lastmile_qr_scan", "android": "https://dc.lft.to/lastmile_qr_scan"}, "lon": -77.00059, "type": "electric_scooter"}, {"bike_id": "6f2695b4087b9501e845e25e8b734278", "is_reserved": 0, "fusion_lon": 0.0, "lat": 38.88316433333333, "is_disabled": 0, "name": "6f2695b4087b9501e845e25e8b734278", "fusion_lat": 0.0, "rental_uris": {"ios": "https://dc.lft.to/lastmile_qr_scan", "android": "https://dc.lft.to/lastmile_qr_scan"}, "lon": -77.009401, "type": "electric_scooter"}, {"bike_id": "f66f7d270ee76d6878d6227b740e76ef", "is_reserved": 0, "fusion_lon": 0.0, "lat": 38.9386325, "is_disabled": 0, "name": "f66f7d270ee76d6878d6227b740e76ef", "fusion_lat": 0.0, "rental_uris": {"ios": "https://dc.lft.to/lastmile_qr_scan", "android": "https://dc.lft.to/lastmile_qr_scan"}, "lon": -77.02652966666666, "type": "electric_scooter"}, {"bike_id": "856e172e8d72fa6405f74f6ea35b0ec3", "is_reserved": 0, "fusion_lon": 0.0, "lat": 38.89896233333333, "is_disabled": 0, "name": "856e172e8d72fa6405f74f6ea35b0ec3", "fusion_lat": 0.0, "rental_uris": {"ios": "https://dc.lft.to/lastmile_qr_scan", "android": "https://dc.lft.to/lastmile_qr_scan"}, "lon": -77.03284466666666, "type": "electric_scooter"}, {"bike_id": "df93bdb7ca8c515c7a3c68d43f45e276", "is_reserved": 0, "fusion_lon": 0.0, "lat": 38.92289783333333, "is_disabled": 0, "name": "df93bdb7ca8c515c7a3c68d43f45e276", "fusion_lat": 0.0, "rental_uris": {"ios": "https://dc.lft.to/lastmile_qr_scan", "android": "https://dc.lft.to/lastmile_qr_scan"}, "lon": -77.03196433333333, "type": "electric_scooter"}, {"bike_id": "4a6276b86560bee698210a9b225f256e", "is_reserved": 0, "fusion_lon": 0.0, "lat": 38.903445833333336, "is_disabled": 0, "name": "4a6276b86560bee698210a9b225f256e", "fusion_lat": 0.0, "rental_uris": {"ios": "https://dc.lft.to/lastmile_qr_scan", "android": "https://dc.lft.to/lastmile_qr_scan"}, "lon": -77.03897666666667, "type": "electric_scooter"}, {"bike_id": "ddab67750e368192216e93608a50ddf8", "is_reserved": 0, "fusion_lon": 0.0, "lat": 38.90561666666667, "is_disabled": 0, "name": "ddab67750e368192216e93608a50ddf8", "fusion_lat": 0.0, "rental_uris": {"ios": "https://dc.lft.to/lastmile_qr_scan", "android": "https://dc.lft.to/lastmile_qr_scan"}, "lon": -77.03834616666667, "type": "electric_scooter"}, {"bike_id": "820cb3ce69e7fdc2a1188f3f6592fefc", "is_reserved": 0, "fusion_lon": 0.0, "lat": 38.90011666666667, "is_disabled": 0, "name": "820cb3ce69e7fdc2a1188f3f6592fefc", "fusion_lat": 0.0, "rental_uris": {"ios": "https://dc.lft.to/lastmile_qr_scan", "android": "https://dc.lft.to/lastmile_qr_scan"}, "lon": -77.00596883333333, "type": "electric_scooter"}, {"bike_id": "bab4830f8237ef83f53c283b1b46753c", "is_reserved": 0, "fusion_lon": 0.0, "lat": 38.90234516666666, "is_disabled": 0, "name": "bab4830f8237ef83f53c283b1b46753c", "fusion_lat": 0.0, "rental_uris": {"ios": "https://dc.lft.to/lastmile_qr_scan", "android": "https://dc.lft.to/lastmile_qr_scan"}, "lon": -77.0199435, "type": "electric_scooter"}, {"bike_id": "97b32db9655d0703895d723375437a49", "is_reserved": 0, "fusion_lon": 0.0, "lat": 38.91793466666667, "is_disabled": 0, "name": "97b32db9655d0703895d723375437a49", "fusion_lat": 0.0, "rental_uris": {"ios": "https://dc.lft.to/lastmile_qr_scan", "android": "https://dc.lft.to/lastmile_qr_scan"}, "lon": -77.04160166666666, "type": "electric_scooter"}, {"bike_id": "2009fa72488f0382362b729eb9ca1fff", "is_reserved": 0, "fusion_lon": 0.0, "lat": 38.892527, "is_disabled": 0, "name": "2009fa72488f0382362b729eb9ca1fff", "fusion_lat": 0.0, "rental_uris": {"ios": "https://dc.lft.to/lastmile_qr_scan", "android": "https://dc.lft.to/lastmile_qr_scan"}, "lon": -76.9433535, "type": "electric_scooter"}, {"bike_id": "4952d849b627bd5d54b3ee9fcb5b44e7", "is_reserved": 0, "fusion_lon": 0.0, "lat": 38.9037045, "is_disabled": 0, "name": "4952d849b627bd5d54b3ee9fcb5b44e7", "fusion_lat": 0.0, "rental_uris": {"ios": "https://dc.lft.to/lastmile_qr_scan", "android": "https://dc.lft.to/lastmile_qr_scan"}, "lon": -77.0435025, "type": "electric_scooter"}, {"bike_id": "c846a43da81bc71ada8263a8a1e60de4", "is_reserved": 0, "fusion_lon": 0.0, "lat": 38.904884833333334, "is_disabled": 0, "name": "c846a43da81bc71ada8263a8a1e60de4", "fusion_lat": 0.0, "rental_uris": {"ios": "https://dc.lft.to/lastmile_qr_scan", "android": "https://dc.lft.to/lastmile_qr_scan"}, "lon": -77.067864, "type": "electric_scooter"}, {"bike_id": "994c8e00fa3ad05e15da9a4a43b028ca", "is_reserved": 0, "fusion_lon": 0.0, "lat": 38.90247866666667, "is_disabled": 0, "name": "994c8e00fa3ad05e15da9a4a43b028ca", "fusion_lat": 0.0, "rental_uris": {"ios": "https://dc.lft.to/lastmile_qr_scan", "android": "https://dc.lft.to/lastmile_qr_scan"}, "lon": -77.06088333333334, "type": "electric_scooter"}, {"bike_id": "95359cca4963c7b54ac6203d771adc5a", "is_reserved": 0, "fusion_lon": 0.0, "lat": 38.90087233333333, "is_disabled": 0, "name": "95359cca4963c7b54ac6203d771adc5a", "fusion_lat": 0.0, "rental_uris": {"ios": "https://dc.lft.to/lastmile_qr_scan", "android": "https://dc.lft.to/lastmile_qr_scan"}, "lon": -77.050053, "type": "electric_scooter"}, {"bike_id": "949eb660c502e40989d7fe599eac4c57", "is_reserved": 0, "fusion_lon": 0.0, "lat": 38.903422166666665, "is_disabled": 0, "name": "949eb660c502e40989d7fe599eac4c57", "fusion_lat": 0.0, "rental_uris": {"ios": "https://dc.lft.to/lastmile_qr_scan", "android": "https://dc.lft.to/lastmile_qr_scan"}, "lon": -77.05207833333333, "type": "electric_scooter"}, {"bike_id": "c97173668e7e336ce56685e53981a55d", "is_reserved": 0, "fusion_lon": 0.0, "lat": 38.9336145, "is_disabled": 0, "name": "c97173668e7e336ce56685e53981a55d", "fusion_lat": 0.0, "rental_uris": {"ios": "https://dc.lft.to/lastmile_qr_scan", "android": "https://dc.lft.to/lastmile_qr_scan"}, "lon": -77.05718833333333, "type": "electric_scooter"}, {"bike_id": "d8f33347bcef3f69d012ac2cdc157846", "is_reserved": 0, "fusion_lon": 0.0, "lat": 38.88022633333333, "is_disabled": 0, "name": "d8f33347bcef3f69d012ac2cdc157846", "fusion_lat": 0.0, "rental_uris": {"ios": "https://dc.lft.to/lastmile_qr_scan", "android": "https://dc.lft.to/lastmile_qr_scan"}, "lon": -76.995076, "type": "electric_scooter"}, {"bike_id": "93a6ca7c5441549e700e16283dbb2a58", "is_reserved": 0, "fusion_lon": 0.0, "lat": 38.905078833333334, "is_disabled": 0, "name": "93a6ca7c5441549e700e16283dbb2a58", "fusion_lat": 0.0, "rental_uris": {"ios": "https://dc.lft.to/lastmile_qr_scan", "android": "https://dc.lft.to/lastmile_qr_scan"}, "lon": -77.06657566666667, "type": "electric_scooter"}, {"bike_id": "1a54f35c3bbc64d148b7450e920a6b3c", "is_reserved": 0, "fusion_lon": 0.0, "lat": 38.94175216666667, "is_disabled": 0, "name": "1a54f35c3bbc64d148b7450e920a6b3c", "fusion_lat": 0.0, "rental_uris": {"ios": "https://dc.lft.to/lastmile_qr_scan", "android": "https://dc.lft.to/lastmile_qr_scan"}, "lon": -77.07605366666667, "type": "electric_bike"}, {"bike_id": "fbc77093abf736d5cee89e7b79654351", "is_reserved": 0, "fusion_lon": 0.0, "lat": 38.876807666666664, "is_disabled": 0, "name": "fbc77093abf736d5cee89e7b79654351", "fusion_lat": 0.0, "rental_uris": {"ios": "https://dc.lft.to/lastmile_qr_scan", "android": "https://dc.lft.to/lastmile_qr_scan"}, "lon": -77.017919, "type": "electric_scooter"}, {"bike_id": "d23608a889c8a93b06ed2136c86b3927", "is_reserved": 0, "fusion_lon": 0.0, "lat": 38.93119216666667, "is_disabled": 0, "name": "d23608a889c8a93b06ed2136c86b3927", "fusion_lat": 0.0, "rental_uris": {"ios": "https://dc.lft.to/lastmile_qr_scan", "android": "https://dc.lft.to/lastmile_qr_scan"}, "lon": -77.02798266666667, "type": "electric_scooter"}, {"bike_id": "673e8b8cb35ecb6c2879e8bdb9419c63", "is_reserved": 0, "fusion_lon": 0.0, "lat": 38.8922455, "is_disabled": 0, "name": "673e8b8cb35ecb6c2879e8bdb9419c63", "fusion_lat": 0.0, "rental_uris": {"ios": "https://dc.lft.to/lastmile_qr_scan", "android": "https://dc.lft.to/lastmile_qr_scan"}, "lon": -77.0397695, "type": "electric_scooter"}, {"bike_id": "638c83cd9b9b6fd0a404ae0c894035fd", "is_reserved": 0, "fusion_lon": 0.0, "lat": 38.9043485, "is_disabled": 0, "name": "638c83cd9b9b6fd0a404ae0c894035fd", "fusion_lat": 0.0, "rental_uris": {"ios": "https://dc.lft.to/lastmile_qr_scan", "android": "https://dc.lft.to/lastmile_qr_scan"}, "lon": -77.05164966666666, "type": "electric_scooter"}, {"bike_id": "306697cf6e618d319037282e122c3c4a", "is_reserved": 0, "fusion_lon": 0.0, "lat": 38.8670075, "is_disabled": 0, "name": "306697cf6e618d319037282e122c3c4a", "fusion_lat": 0.0, "rental_uris": {"ios": "https://dc.lft.to/lastmile_qr_scan", "android": "https://dc.lft.to/lastmile_qr_scan"}, "lon": -76.98714916666667, "type": "electric_scooter"}, {"bike_id": "d4a247ccab8f62f2dab6dcb8c688a718", "is_reserved": 0, "fusion_lon": 0.0, "lat": 38.91636966666667, "is_disabled": 0, "name": "d4a247ccab8f62f2dab6dcb8c688a718", "fusion_lat": 0.0, "rental_uris": {"ios": "https://dc.lft.to/lastmile_qr_scan", "android": "https://dc.lft.to/lastmile_qr_scan"}, "lon": -77.03211233333333, "type": "electric_scooter"}, {"bike_id": "3b187c24d8cdacbb0ef941ef2900796b", "is_reserved": 0, "fusion_lon": 0.0, "lat": 38.931044166666666, "is_disabled": 0, "name": "3b187c24d8cdacbb0ef941ef2900796b", "fusion_lat": 0.0, "rental_uris": {"ios": "https://dc.lft.to/lastmile_qr_scan", "android": "https://dc.lft.to/lastmile_qr_scan"}, "lon": -77.01853516666667, "type": "electric_scooter"}, {"bike_id": "535540b1ee01debaaf205bbc87cd6da5", "is_reserved": 0, "fusion_lon": 0.0, "lat": 38.88772, "is_disabled": 0, "name": "535540b1ee01debaaf205bbc87cd6da5", "fusion_lat": 0.0, "rental_uris": {"ios": "https://dc.lft.to/lastmile_qr_scan", "android": "https://dc.lft.to/lastmile_qr_scan"}, "lon": -77.02231733333333, "type": "electric_scooter"}, {"bike_id": "538335ce900ee3d7e85056d3d169a56d", "is_reserved": 0, "fusion_lon": 0.0, "lat": 38.88432983333333, "is_disabled": 0, "name": "538335ce900ee3d7e85056d3d169a56d", "fusion_lat": 0.0, "rental_uris": {"ios": "https://dc.lft.to/lastmile_qr_scan", "android": "https://dc.lft.to/lastmile_qr_scan"}, "lon": -76.9576015, "type": "electric_scooter"}, {"bike_id": "1b5959b40f85fa92e69237ddc2d2b3a8", "is_reserved": 0, "fusion_lon": 0.0, "lat": 38.921237, "is_disabled": 0, "name": "1b5959b40f85fa92e69237ddc2d2b3a8", "fusion_lat": 0.0, "rental_uris": {"ios": "https://dc.lft.to/lastmile_qr_scan", "android": "https://dc.lft.to/lastmile_qr_scan"}, "lon": -77.0443395, "type": "electric_scooter"}, {"bike_id": "236f70404b4098223398cb3980f0c22f", "is_reserved": 0, "fusion_lon": 0.0, "lat": 38.921923666666665, "is_disabled": 0, "name": "236f70404b4098223398cb3980f0c22f", "fusion_lat": 0.0, "rental_uris": {"ios": "https://dc.lft.to/lastmile_qr_scan", "android": "https://dc.lft.to/lastmile_qr_scan"}, "lon": -77.024094, "type": "electric_scooter"}, {"bike_id": "cf3660cbba889dcab7e753cf7d32ca37", "is_reserved": 0, "fusion_lon": 0.0, "lat": 38.99075333333333, "is_disabled": 0, "name": "cf3660cbba889dcab7e753cf7d32ca37", "fusion_lat": 0.0, "rental_uris": {"ios": "https://dc.lft.to/lastmile_qr_scan", "android": "https://dc.lft.to/lastmile_qr_scan"}, "lon": -76.87471883333333, "type": "electric_bike"}, {"bike_id": "ee6795c69911c2c32a8f2eee6d7520c5", "is_reserved": 0, "fusion_lon": 0.0, "lat": 38.92292183333333, "is_disabled": 0, "name": "ee6795c69911c2c32a8f2eee6d7520c5", "fusion_lat": 0.0, "rental_uris": {"ios": "https://dc.lft.to/lastmile_qr_scan", "android": "https://dc.lft.to/lastmile_qr_scan"}, "lon": -77.02076683333334, "type": "electric_scooter"}, {"bike_id": "7e4b9ff9f45a6613f27f6cc92afba085", "is_reserved": 0, "fusion_lon": 0.0, "lat": 38.90063816666667, "is_disabled": 0, "name": "7e4b9ff9f45a6613f27f6cc92afba085", "fusion_lat": 0.0, "rental_uris": {"ios": "https://dc.lft.to/lastmile_qr_scan", "android": "https://dc.lft.to/lastmile_qr_scan"}, "lon": -76.9338915, "type": "electric_scooter"}, {"bike_id": "b8ff61208cc2104ba1c4ab15c70e1234", "is_reserved": 0, "fusion_lon": 0.0, "lat": 38.865630333333335, "is_disabled": 0, "name": "b8ff61208cc2104ba1c4ab15c70e1234", "fusion_lat": 0.0, "rental_uris": {"ios": "https://dc.lft.to/lastmile_qr_scan", "android": "https://dc.lft.to/lastmile_qr_scan"}, "lon": -76.9895335, "type": "electric_scooter"}, {"bike_id": "09e6846f67a19ab2e0a8625c08c85df9", "is_reserved": 0, "fusion_lon": 0.0, "lat": 38.900350333333336, "is_disabled": 0, "name": "09e6846f67a19ab2e0a8625c08c85df9", "fusion_lat": 0.0, "rental_uris": {"ios": "https://dc.lft.to/lastmile_qr_scan", "android": "https://dc.lft.to/lastmile_qr_scan"}, "lon": -77.00218583333333, "type": "electric_scooter"}, {"bike_id": "301af0cfa0e6f9c1dc0a0dc88f6c332d", "is_reserved": 0, "fusion_lon": 0.0, "lat": 38.90804766666667, "is_disabled": 0, "name": "301af0cfa0e6f9c1dc0a0dc88f6c332d", "fusion_lat": 0.0, "rental_uris": {"ios": "https://dc.lft.to/lastmile_qr_scan", "android": "https://dc.lft.to/lastmile_qr_scan"}, "lon": -77.01852166666667, "type": "electric_scooter"}, {"bike_id": "3868627bf62116cb0bb3ad6fc591bf5c", "is_reserved": 0, "fusion_lon": 0.0, "lat": 38.9055625, "is_disabled": 0, "name": "3868627bf62116cb0bb3ad6fc591bf5c", "fusion_lat": 0.0, "rental_uris": {"ios": "https://dc.lft.to/lastmile_qr_scan", "android": "https://dc.lft.to/lastmile_qr_scan"}, "lon": -77.02487166666667, "type": "electric_scooter"}, {"bike_id": "aba492dfa2d3fd87d465b04d5a0b8b7e", "is_reserved": 0, "fusion_lon": 0.0, "lat": 38.9038675, "is_disabled": 0, "name": "aba492dfa2d3fd87d465b04d5a0b8b7e", "fusion_lat": 0.0, "rental_uris": {"ios": "https://dc.lft.to/lastmile_qr_scan", "android": "https://dc.lft.to/lastmile_qr_scan"}, "lon": -77.04382366666667, "type": "electric_scooter"}, {"bike_id": "f1c5dc5971ac2a17a401849458890e77", "is_reserved": 0, "fusion_lon": 0.0, "lat": 38.932337833333335, "is_disabled": 0, "name": "f1c5dc5971ac2a17a401849458890e77", "fusion_lat": 0.0, "rental_uris": {"ios": "https://dc.lft.to/lastmile_qr_scan", "android": "https://dc.lft.to/lastmile_qr_scan"}, "lon": -77.03263983333333, "type": "electric_scooter"}, {"bike_id": "e90d6050b48c6ef52174c3ab97e9309d", "is_reserved": 0, "fusion_lon": 0.0, "lat": 38.9592465, "is_disabled": 0, "name": "e90d6050b48c6ef52174c3ab97e9309d", "fusion_lat": 0.0, "rental_uris": {"ios": "https://dc.lft.to/lastmile_qr_scan", "android": "https://dc.lft.to/lastmile_qr_scan"}, "lon": -77.03324683333334, "type": "electric_scooter"}, {"bike_id": "d738dfdd328c336d2b6e950c06948f08", "is_reserved": 0, "fusion_lon": 0.0, "lat": 38.92154883333333, "is_disabled": 0, "name": "d738dfdd328c336d2b6e950c06948f08", "fusion_lat": 0.0, "rental_uris": {"ios": "https://dc.lft.to/lastmile_qr_scan", "android": "https://dc.lft.to/lastmile_qr_scan"}, "lon": -77.03287383333333, "type": "electric_scooter"}, {"bike_id": "a9e13143032e2f384534c95333f9dec8", "is_reserved": 0, "fusion_lon": 0.0, "lat": 38.90047916666666, "is_disabled": 0, "name": "a9e13143032e2f384534c95333f9dec8", "fusion_lat": 0.0, "rental_uris": {"ios": "https://dc.lft.to/lastmile_qr_scan", "android": "https://dc.lft.to/lastmile_qr_scan"}, "lon": -77.00375483333333, "type": "electric_bike"}, {"bike_id": "ae9b571caddba31d787dcf4a846250ed", "is_reserved": 0, "fusion_lon": 0.0, "lat": 38.943987666666665, "is_disabled": 0, "name": "ae9b571caddba31d787dcf4a846250ed", "fusion_lat": 0.0, "rental_uris": {"ios": "https://dc.lft.to/lastmile_qr_scan", "android": "https://dc.lft.to/lastmile_qr_scan"}, "lon": -77.03893833333333, "type": "electric_scooter"}, {"bike_id": "af7617e84ab77e1db54a6e1015e6a5e6", "is_reserved": 0, "fusion_lon": 0.0, "lat": 38.907246, "is_disabled": 0, "name": "af7617e84ab77e1db54a6e1015e6a5e6", "fusion_lat": 0.0, "rental_uris": {"ios": "https://dc.lft.to/lastmile_qr_scan", "android": "https://dc.lft.to/lastmile_qr_scan"}, "lon": -77.02325083333334, "type": "electric_scooter"}, {"bike_id": "b3d8880c266f1f685db225d4f960a307", "is_reserved": 0, "fusion_lon": 0.0, "lat": 38.9172875, "is_disabled": 0, "name": "b3d8880c266f1f685db225d4f960a307", "fusion_lat": 0.0, "rental_uris": {"ios": "https://dc.lft.to/lastmile_qr_scan", "android": "https://dc.lft.to/lastmile_qr_scan"}, "lon": -77.02504433333333, "type": "electric_scooter"}, {"bike_id": "88080d455043f155d16b10add389df7e", "is_reserved": 0, "fusion_lon": 0.0, "lat": 38.880266166666665, "is_disabled": 0, "name": "88080d455043f155d16b10add389df7e", "fusion_lat": 0.0, "rental_uris": {"ios": "https://dc.lft.to/lastmile_qr_scan", "android": "https://dc.lft.to/lastmile_qr_scan"}, "lon": -77.02324416666667, "type": "electric_scooter"}, {"bike_id": "212af5257e788ad4091ee88ac8ef37df", "is_reserved": 0, "fusion_lon": 0.0, "lat": 38.9061025, "is_disabled": 0, "name": "212af5257e788ad4091ee88ac8ef37df", "fusion_lat": 0.0, "rental_uris": {"ios": "https://dc.lft.to/lastmile_qr_scan", "android": "https://dc.lft.to/lastmile_qr_scan"}, "lon": -77.03988, "type": "electric_scooter"}, {"bike_id": "4d587eb86588139808bf3edbcfbc0c83", "is_reserved": 0, "fusion_lon": 0.0, "lat": 38.90853966666667, "is_disabled": 0, "name": "4d587eb86588139808bf3edbcfbc0c83", "fusion_lat": 0.0, "rental_uris": {"ios": "https://dc.lft.to/lastmile_qr_scan", "android": "https://dc.lft.to/lastmile_qr_scan"}, "lon": -77.04498833333334, "type": "electric_scooter"}, {"bike_id": "861785ebeba68329d45083225d10b524", "is_reserved": 0, "fusion_lon": 0.0, "lat": 38.912709, "is_disabled": 0, "name": "861785ebeba68329d45083225d10b524", "fusion_lat": 0.0, "rental_uris": {"ios": "https://dc.lft.to/lastmile_qr_scan", "android": "https://dc.lft.to/lastmile_qr_scan"}, "lon": -77.03938066666667, "type": "electric_scooter"}, {"bike_id": "c65ec4e36327be0ea773acc0e1eee87f", "is_reserved": 0, "fusion_lon": 0.0, "lat": 38.91248566666667, "is_disabled": 0, "name": "c65ec4e36327be0ea773acc0e1eee87f", "fusion_lat": 0.0, "rental_uris": {"ios": "https://dc.lft.to/lastmile_qr_scan", "android": "https://dc.lft.to/lastmile_qr_scan"}, "lon": -77.0161945, "type": "electric_scooter"}, {"bike_id": "7335d2b28610c31240f5bb21af069e6e", "is_reserved": 0, "fusion_lon": 0.0, "lat": 38.901109, "is_disabled": 0, "name": "7335d2b28610c31240f5bb21af069e6e", "fusion_lat": 0.0, "rental_uris": {"ios": "https://dc.lft.to/lastmile_qr_scan", "android": "https://dc.lft.to/lastmile_qr_scan"}, "lon": -77.04375966666667, "type": "electric_scooter"}, {"bike_id": "623e21867e7af802768bd0c65a9cc543", "is_reserved": 0, "fusion_lon": 0.0, "lat": 38.881597, "is_disabled": 0, "name": "623e21867e7af802768bd0c65a9cc543", "fusion_lat": 0.0, "rental_uris": {"ios": "https://dc.lft.to/lastmile_qr_scan", "android": "https://dc.lft.to/lastmile_qr_scan"}, "lon": -77.02732883333333, "type": "electric_scooter"}, {"bike_id": "579072bcbd86b19f3bd1d0ff3e93ee41", "is_reserved": 0, "fusion_lon": 0.0, "lat": 38.91205633333333, "is_disabled": 0, "name": "579072bcbd86b19f3bd1d0ff3e93ee41", "fusion_lat": 0.0, "rental_uris": {"ios": "https://dc.lft.to/lastmile_qr_scan", "android": "https://dc.lft.to/lastmile_qr_scan"}, "lon": -77.04877183333333, "type": "electric_scooter"}, {"bike_id": "8611509df14585cb20cf026beddd8e16", "is_reserved": 0, "fusion_lon": 0.0, "lat": 38.9177255, "is_disabled": 0, "name": "8611509df14585cb20cf026beddd8e16", "fusion_lat": 0.0, "rental_uris": {"ios": "https://dc.lft.to/lastmile_qr_scan", "android": "https://dc.lft.to/lastmile_qr_scan"}, "lon": -77.04080883333333, "type": "electric_scooter"}, {"bike_id": "c03e775d5b5764b41b0188b6e9627df1", "is_reserved": 0, "fusion_lon": 0.0, "lat": 38.9120325, "is_disabled": 0, "name": "c03e775d5b5764b41b0188b6e9627df1", "fusion_lat": 0.0, "rental_uris": {"ios": "https://dc.lft.to/lastmile_qr_scan", "android": "https://dc.lft.to/lastmile_qr_scan"}, "lon": -77.00470433333334, "type": "electric_scooter"}, {"bike_id": "327a027a487c5fefbb557147322e04dd", "is_reserved": 0, "fusion_lon": 0.0, "lat": 38.90453483333334, "is_disabled": 0, "name": "327a027a487c5fefbb557147322e04dd", "fusion_lat": 0.0, "rental_uris": {"ios": "https://dc.lft.to/lastmile_qr_scan", "android": "https://dc.lft.to/lastmile_qr_scan"}, "lon": -77.038724, "type": "electric_scooter"}, {"bike_id": "0ea9a88674196dfc6a4ae75046c1f599", "is_reserved": 0, "fusion_lon": 0.0, "lat": 38.927520333333334, "is_disabled": 0, "name": "0ea9a88674196dfc6a4ae75046c1f599", "fusion_lat": 0.0, "rental_uris": {"ios": "https://dc.lft.to/lastmile_qr_scan", "android": "https://dc.lft.to/lastmile_qr_scan"}, "lon": -77.0253845, "type": "electric_scooter"}, {"bike_id": "b5857c2ce83074dfc79cc5e144525e7a", "is_reserved": 0, "fusion_lon": 0.0, "lat": 38.9337835, "is_disabled": 0, "name": "b5857c2ce83074dfc79cc5e144525e7a", "fusion_lat": 0.0, "rental_uris": {"ios": "https://dc.lft.to/lastmile_qr_scan", "android": "https://dc.lft.to/lastmile_qr_scan"}, "lon": -77.02908983333333, "type": "electric_scooter"}, {"bike_id": "831f3282bc4c7c7ac1e65526ffc87763", "is_reserved": 0, "fusion_lon": 0.0, "lat": 38.898394333333336, "is_disabled": 0, "name": "831f3282bc4c7c7ac1e65526ffc87763", "fusion_lat": 0.0, "rental_uris": {"ios": "https://dc.lft.to/lastmile_qr_scan", "android": "https://dc.lft.to/lastmile_qr_scan"}, "lon": -76.93104283333334, "type": "electric_scooter"}, {"bike_id": "3cf70749cf9b8cbd6d4555555f7d4438", "is_reserved": 0, "fusion_lon": 0.0, "lat": 38.917126833333334, "is_disabled": 0, "name": "3cf70749cf9b8cbd6d4555555f7d4438", "fusion_lat": 0.0, "rental_uris": {"ios": "https://dc.lft.to/lastmile_qr_scan", "android": "https://dc.lft.to/lastmile_qr_scan"}, "lon": -77.03464566666666, "type": "electric_scooter"}, {"bike_id": "7de9143903306265ed4a5195f4c5e3c4", "is_reserved": 0, "fusion_lon": 0.0, "lat": 38.90789783333334, "is_disabled": 0, "name": "7de9143903306265ed4a5195f4c5e3c4", "fusion_lat": 0.0, "rental_uris": {"ios": "https://dc.lft.to/lastmile_qr_scan", "android": "https://dc.lft.to/lastmile_qr_scan"}, "lon": -77.036599, "type": "electric_scooter"}, {"bike_id": "ea0793ba90c90efac56726e1079c34c8", "is_reserved": 0, "fusion_lon": 0.0, "lat": 38.870740833333336, "is_disabled": 0, "name": "ea0793ba90c90efac56726e1079c34c8", "fusion_lat": 0.0, "rental_uris": {"ios": "https://dc.lft.to/lastmile_qr_scan", "android": "https://dc.lft.to/lastmile_qr_scan"}, "lon": -76.98238333333333, "type": "electric_scooter"}, {"bike_id": "2079e38a11694bacbda8bbc4e00b8b17", "is_reserved": 0, "fusion_lon": 0.0, "lat": 38.9084955, "is_disabled": 0, "name": "2079e38a11694bacbda8bbc4e00b8b17", "fusion_lat": 0.0, "rental_uris": {"ios": "https://dc.lft.to/lastmile_qr_scan", "android": "https://dc.lft.to/lastmile_qr_scan"}, "lon": -77.08534733333333, "type": "electric_scooter"}, {"bike_id": "0a9ac944ae98dd9ad40cd9594d0290cd", "is_reserved": 0, "fusion_lon": 0.0, "lat": 38.92471716666667, "is_disabled": 0, "name": "0a9ac944ae98dd9ad40cd9594d0290cd", "fusion_lat": 0.0, "rental_uris": {"ios": "https://dc.lft.to/lastmile_qr_scan", "android": "https://dc.lft.to/lastmile_qr_scan"}, "lon": -77.02262216666666, "type": "electric_scooter"}, {"bike_id": "ced04cc033ecdf78ae8836331ed73f3e", "is_reserved": 0, "fusion_lon": 0.0, "lat": 38.88361833333333, "is_disabled": 0, "name": "ced04cc033ecdf78ae8836331ed73f3e", "fusion_lat": 0.0, "rental_uris": {"ios": "https://dc.lft.to/lastmile_qr_scan", "android": "https://dc.lft.to/lastmile_qr_scan"}, "lon": -77.03178083333333, "type": "electric_scooter"}, {"bike_id": "78cf91383ef97b3d3bf2563dbea77cf8", "is_reserved": 0, "fusion_lon": 0.0, "lat": 38.9007265, "is_disabled": 0, "name": "78cf91383ef97b3d3bf2563dbea77cf8", "fusion_lat": 0.0, "rental_uris": {"ios": "https://dc.lft.to/lastmile_qr_scan", "android": "https://dc.lft.to/lastmile_qr_scan"}, "lon": -77.03001666666667, "type": "electric_bike"}, {"bike_id": "cec292b1ebb40c2568b7264511af14ae", "is_reserved": 0, "fusion_lon": 0.0, "lat": 38.89232783333333, "is_disabled": 0, "name": "cec292b1ebb40c2568b7264511af14ae", "fusion_lat": 0.0, "rental_uris": {"ios": "https://dc.lft.to/lastmile_qr_scan", "android": "https://dc.lft.to/lastmile_qr_scan"}, "lon": -77.02807383333334, "type": "electric_scooter"}, {"bike_id": "9e13f75acdff80119e5b9aea3a6f391c", "is_reserved": 0, "fusion_lon": 0.0, "lat": 38.90514533333333, "is_disabled": 0, "name": "9e13f75acdff80119e5b9aea3a6f391c", "fusion_lat": 0.0, "rental_uris": {"ios": "https://dc.lft.to/lastmile_qr_scan", "android": "https://dc.lft.to/lastmile_qr_scan"}, "lon": -77.05141, "type": "electric_scooter"}, {"bike_id": "29cbc29bb67e92b75b5d8f4f1a51c2d3", "is_reserved": 0, "fusion_lon": 0.0, "lat": 38.9206405, "is_disabled": 0, "name": "29cbc29bb67e92b75b5d8f4f1a51c2d3", "fusion_lat": 0.0, "rental_uris": {"ios": "https://dc.lft.to/lastmile_qr_scan", "android": "https://dc.lft.to/lastmile_qr_scan"}, "lon": -77.04190733333333, "type": "electric_scooter"}, {"bike_id": "b520c63608356d9ce3c53f67dab16fd5", "is_reserved": 0, "fusion_lon": 0.0, "lat": 38.90386133333333, "is_disabled": 0, "name": "b520c63608356d9ce3c53f67dab16fd5", "fusion_lat": 0.0, "rental_uris": {"ios": "https://dc.lft.to/lastmile_qr_scan", "android": "https://dc.lft.to/lastmile_qr_scan"}, "lon": -77.03989633333333, "type": "electric_scooter"}, {"bike_id": "866e976c789d7b7db07252c609971708", "is_reserved": 0, "fusion_lon": 0.0, "lat": 38.90288833333334, "is_disabled": 0, "name": "866e976c789d7b7db07252c609971708", "fusion_lat": 0.0, "rental_uris": {"ios": "https://dc.lft.to/lastmile_qr_scan", "android": "https://dc.lft.to/lastmile_qr_scan"}, "lon": -77.04123533333333, "type": "electric_scooter"}, {"bike_id": "86ca084ed58a3eb1fa612cc860d81b67", "is_reserved": 0, "fusion_lon": 0.0, "lat": 38.89191666666667, "is_disabled": 0, "name": "86ca084ed58a3eb1fa612cc860d81b67", "fusion_lat": 0.0, "rental_uris": {"ios": "https://dc.lft.to/lastmile_qr_scan", "android": "https://dc.lft.to/lastmile_qr_scan"}, "lon": -77.12267733333333, "type": "electric_bike"}, {"bike_id": "497e1f17021cf0667eb8526e3f470edc", "is_reserved": 0, "fusion_lon": 0.0, "lat": 38.940885, "is_disabled": 0, "name": "497e1f17021cf0667eb8526e3f470edc", "fusion_lat": 0.0, "rental_uris": {"ios": "https://dc.lft.to/lastmile_qr_scan", "android": "https://dc.lft.to/lastmile_qr_scan"}, "lon": -77.02548733333333, "type": "electric_scooter"}, {"bike_id": "25df60f3ed37b48ce69f1a9074fa8c1e", "is_reserved": 0, "fusion_lon": 0.0, "lat": 38.93515983333333, "is_disabled": 0, "name": "25df60f3ed37b48ce69f1a9074fa8c1e", "fusion_lat": 0.0, "rental_uris": {"ios": "https://dc.lft.to/lastmile_qr_scan", "android": "https://dc.lft.to/lastmile_qr_scan"}, "lon": -77.058183, "type": "electric_scooter"}, {"bike_id": "52cdd16ee97511cb46ff0eb59fc70cad", "is_reserved": 0, "fusion_lon": 0.0, "lat": 38.89033216666667, "is_disabled": 0, "name": "52cdd16ee97511cb46ff0eb59fc70cad", "fusion_lat": 0.0, "rental_uris": {"ios": "https://dc.lft.to/lastmile_qr_scan", "android": "https://dc.lft.to/lastmile_qr_scan"}, "lon": -76.941165, "type": "electric_scooter"}, {"bike_id": "8065165b20180c85541a995351000b92", "is_reserved": 0, "fusion_lon": 0.0, "lat": 38.924832333333335, "is_disabled": 0, "name": "8065165b20180c85541a995351000b92", "fusion_lat": 0.0, "rental_uris": {"ios": "https://dc.lft.to/lastmile_qr_scan", "android": "https://dc.lft.to/lastmile_qr_scan"}, "lon": -77.05211783333333, "type": "electric_scooter"}, {"bike_id": "33895d31b73e3955f353b115f7d9a28a", "is_reserved": 0, "fusion_lon": 0.0, "lat": 38.92880516666666, "is_disabled": 0, "name": "33895d31b73e3955f353b115f7d9a28a", "fusion_lat": 0.0, "rental_uris": {"ios": "https://dc.lft.to/lastmile_qr_scan", "android": "https://dc.lft.to/lastmile_qr_scan"}, "lon": -77.03329816666667, "type": "electric_scooter"}, {"bike_id": "eb1db88084dfa1778da74f1eb4f29ec3", "is_reserved": 0, "fusion_lon": 0.0, "lat": 38.92858433333333, "is_disabled": 0, "name": "eb1db88084dfa1778da74f1eb4f29ec3", "fusion_lat": 0.0, "rental_uris": {"ios": "https://dc.lft.to/lastmile_qr_scan", "android": "https://dc.lft.to/lastmile_qr_scan"}, "lon": -77.0325915, "type": "electric_scooter"}, {"bike_id": "3e06cc045540cc061775f9b25baa3103", "is_reserved": 0, "fusion_lon": 0.0, "lat": 38.90957083333333, "is_disabled": 0, "name": "3e06cc045540cc061775f9b25baa3103", "fusion_lat": 0.0, "rental_uris": {"ios": "https://dc.lft.to/lastmile_qr_scan", "android": "https://dc.lft.to/lastmile_qr_scan"}, "lon": -77.04829033333333, "type": "electric_scooter"}, {"bike_id": "a98156ee2252571bf0efe3c1e5d50678", "is_reserved": 0, "fusion_lon": 0.0, "lat": 38.90719933333333, "is_disabled": 0, "name": "a98156ee2252571bf0efe3c1e5d50678", "fusion_lat": 0.0, "rental_uris": {"ios": "https://dc.lft.to/lastmile_qr_scan", "android": "https://dc.lft.to/lastmile_qr_scan"}, "lon": -76.99801666666667, "type": "electric_scooter"}, {"bike_id": "026938d095678a8e2068d97cd888b1e6", "is_reserved": 0, "fusion_lon": 0.0, "lat": 38.93604833333333, "is_disabled": 0, "name": "026938d095678a8e2068d97cd888b1e6", "fusion_lat": 0.0, "rental_uris": {"ios": "https://dc.lft.to/lastmile_qr_scan", "android": "https://dc.lft.to/lastmile_qr_scan"}, "lon": -77.02338733333333, "type": "electric_scooter"}, {"bike_id": "d4dfc0c45c8b25cc271d4a5bc4acca69", "is_reserved": 0, "fusion_lon": 0.0, "lat": 38.882929, "is_disabled": 0, "name": "d4dfc0c45c8b25cc271d4a5bc4acca69", "fusion_lat": 0.0, "rental_uris": {"ios": "https://dc.lft.to/lastmile_qr_scan", "android": "https://dc.lft.to/lastmile_qr_scan"}, "lon": -76.99142416666666, "type": "electric_scooter"}, {"bike_id": "edb5d82736f13820ebe1fad277c3d7fc", "is_reserved": 0, "fusion_lon": 0.0, "lat": 38.898178333333334, "is_disabled": 0, "name": "edb5d82736f13820ebe1fad277c3d7fc", "fusion_lat": 0.0, "rental_uris": {"ios": "https://dc.lft.to/lastmile_qr_scan", "android": "https://dc.lft.to/lastmile_qr_scan"}, "lon": -76.99067516666666, "type": "electric_bike"}, {"bike_id": "adece07c0ec820a223fd1ecf6905feaa", "is_reserved": 0, "fusion_lon": 0.0, "lat": 38.9343095, "is_disabled": 0, "name": "adece07c0ec820a223fd1ecf6905feaa", "fusion_lat": 0.0, "rental_uris": {"ios": "https://dc.lft.to/lastmile_qr_scan", "android": "https://dc.lft.to/lastmile_qr_scan"}, "lon": -77.034137, "type": "electric_scooter"}, {"bike_id": "643642eff9f2d4dc382390ed10c74a7a", "is_reserved": 0, "fusion_lon": 0.0, "lat": 38.8580965, "is_disabled": 0, "name": "643642eff9f2d4dc382390ed10c74a7a", "fusion_lat": 0.0, "rental_uris": {"ios": "https://dc.lft.to/lastmile_qr_scan", "android": "https://dc.lft.to/lastmile_qr_scan"}, "lon": -76.98655233333334, "type": "electric_scooter"}, {"bike_id": "bf76560b6ddc3cd5fda713d0ea1b064b", "is_reserved": 0, "fusion_lon": 0.0, "lat": 38.87890516666667, "is_disabled": 0, "name": "bf76560b6ddc3cd5fda713d0ea1b064b", "fusion_lat": 0.0, "rental_uris": {"ios": "https://dc.lft.to/lastmile_qr_scan", "android": "https://dc.lft.to/lastmile_qr_scan"}, "lon": -77.005724, "type": "electric_scooter"}, {"bike_id": "9e83acf6635b5d1fd2069354c24ef9f4", "is_reserved": 0, "fusion_lon": 0.0, "lat": 38.884832833333334, "is_disabled": 0, "name": "9e83acf6635b5d1fd2069354c24ef9f4", "fusion_lat": 0.0, "rental_uris": {"ios": "https://dc.lft.to/lastmile_qr_scan", "android": "https://dc.lft.to/lastmile_qr_scan"}, "lon": -77.0235945, "type": "electric_scooter"}, {"bike_id": "f5d97edc6d0eca1497051ee36b43af66", "is_reserved": 0, "fusion_lon": 0.0, "lat": 38.8960035, "is_disabled": 0, "name": "f5d97edc6d0eca1497051ee36b43af66", "fusion_lat": 0.0, "rental_uris": {"ios": "https://dc.lft.to/lastmile_qr_scan", "android": "https://dc.lft.to/lastmile_qr_scan"}, "lon": -76.95524383333333, "type": "electric_scooter"}, {"bike_id": "b2ec085fae5fff72a21b64359f983738", "is_reserved": 0, "fusion_lon": 0.0, "lat": 38.92082683333334, "is_disabled": 0, "name": "b2ec085fae5fff72a21b64359f983738", "fusion_lat": 0.0, "rental_uris": {"ios": "https://dc.lft.to/lastmile_qr_scan", "android": "https://dc.lft.to/lastmile_qr_scan"}, "lon": -77.04367966666666, "type": "electric_scooter"}, {"bike_id": "18f9f399799f977d01a9a49d9e33ce6f", "is_reserved": 0, "fusion_lon": 0.0, "lat": 38.891005166666666, "is_disabled": 0, "name": "18f9f399799f977d01a9a49d9e33ce6f", "fusion_lat": 0.0, "rental_uris": {"ios": "https://dc.lft.to/lastmile_qr_scan", "android": "https://dc.lft.to/lastmile_qr_scan"}, "lon": -76.94393466666666, "type": "electric_scooter"}, {"bike_id": "86ecfaf2250378cfeaa1f80d38aaa48b", "is_reserved": 0, "fusion_lon": 0.0, "lat": 38.93290183333333, "is_disabled": 0, "name": "86ecfaf2250378cfeaa1f80d38aaa48b", "fusion_lat": 0.0, "rental_uris": {"ios": "https://dc.lft.to/lastmile_qr_scan", "android": "https://dc.lft.to/lastmile_qr_scan"}, "lon": -77.036264, "type": "electric_scooter"}, {"bike_id": "6fe0158c161a9cccb53cddca1e204115", "is_reserved": 0, "fusion_lon": 0.0, "lat": 38.92459566666667, "is_disabled": 0, "name": "6fe0158c161a9cccb53cddca1e204115", "fusion_lat": 0.0, "rental_uris": {"ios": "https://dc.lft.to/lastmile_qr_scan", "android": "https://dc.lft.to/lastmile_qr_scan"}, "lon": -77.03375233333334, "type": "electric_scooter"}, {"bike_id": "c936c54e1c97d0fa4db78c1d97759ed5", "is_reserved": 0, "fusion_lon": 0.0, "lat": 38.90635483333333, "is_disabled": 0, "name": "c936c54e1c97d0fa4db78c1d97759ed5", "fusion_lat": 0.0, "rental_uris": {"ios": "https://dc.lft.to/lastmile_qr_scan", "android": "https://dc.lft.to/lastmile_qr_scan"}, "lon": -77.03470233333333, "type": "electric_scooter"}, {"bike_id": "b1cc49bafe74b65bc85a4ad2b3435676", "is_reserved": 0, "fusion_lon": 0.0, "lat": 38.8985905, "is_disabled": 0, "name": "b1cc49bafe74b65bc85a4ad2b3435676", "fusion_lat": 0.0, "rental_uris": {"ios": "https://dc.lft.to/lastmile_qr_scan", "android": "https://dc.lft.to/lastmile_qr_scan"}, "lon": -77.0297995, "type": "electric_scooter"}, {"bike_id": "8a0e16ef36ee779821ab50297c6e3b3a", "is_reserved": 0, "fusion_lon": 0.0, "lat": 38.89849016666667, "is_disabled": 0, "name": "8a0e16ef36ee779821ab50297c6e3b3a", "fusion_lat": 0.0, "rental_uris": {"ios": "https://dc.lft.to/lastmile_qr_scan", "android": "https://dc.lft.to/lastmile_qr_scan"}, "lon": -76.99498716666666, "type": "electric_scooter"}, {"bike_id": "2eb250adf17a188a6621c3984ce7c46d", "is_reserved": 0, "fusion_lon": 0.0, "lat": 38.8888325, "is_disabled": 0, "name": "2eb250adf17a188a6621c3984ce7c46d", "fusion_lat": 0.0, "rental_uris": {"ios": "https://dc.lft.to/lastmile_qr_scan", "android": "https://dc.lft.to/lastmile_qr_scan"}, "lon": -76.93154616666666, "type": "electric_scooter"}, {"bike_id": "e784877a9fa18a72658697085efaf8ef", "is_reserved": 0, "fusion_lon": 0.0, "lat": 38.89539766666667, "is_disabled": 0, "name": "e784877a9fa18a72658697085efaf8ef", "fusion_lat": 0.0, "rental_uris": {"ios": "https://dc.lft.to/lastmile_qr_scan", "android": "https://dc.lft.to/lastmile_qr_scan"}, "lon": -77.02165816666667, "type": "electric_scooter"}, {"bike_id": "a057af427391b77df26ba10a12f5e61d", "is_reserved": 0, "fusion_lon": 0.0, "lat": 38.89797183333334, "is_disabled": 0, "name": "a057af427391b77df26ba10a12f5e61d", "fusion_lat": 0.0, "rental_uris": {"ios": "https://dc.lft.to/lastmile_qr_scan", "android": "https://dc.lft.to/lastmile_qr_scan"}, "lon": -76.94692683333334, "type": "electric_scooter"}, {"bike_id": "59aa0eb7d54cbed0707554efed1d3e05", "is_reserved": 0, "fusion_lon": 0.0, "lat": 38.924761833333335, "is_disabled": 0, "name": "59aa0eb7d54cbed0707554efed1d3e05", "fusion_lat": 0.0, "rental_uris": {"ios": "https://dc.lft.to/lastmile_qr_scan", "android": "https://dc.lft.to/lastmile_qr_scan"}, "lon": -77.0521825, "type": "electric_scooter"}, {"bike_id": "08c7679ffcd6e1db01a4291c659c626c", "is_reserved": 0, "fusion_lon": 0.0, "lat": 38.923697833333335, "is_disabled": 0, "name": "08c7679ffcd6e1db01a4291c659c626c", "fusion_lat": 0.0, "rental_uris": {"ios": "https://dc.lft.to/lastmile_qr_scan", "android": "https://dc.lft.to/lastmile_qr_scan"}, "lon": -77.01910183333334, "type": "electric_scooter"}, {"bike_id": "3b487b6d609f2b681bb06b10bf625d82", "is_reserved": 0, "fusion_lon": 0.0, "lat": 38.91107783333333, "is_disabled": 0, "name": "3b487b6d609f2b681bb06b10bf625d82", "fusion_lat": 0.0, "rental_uris": {"ios": "https://dc.lft.to/lastmile_qr_scan", "android": "https://dc.lft.to/lastmile_qr_scan"}, "lon": -77.03837783333333, "type": "electric_scooter"}, {"bike_id": "c6f251b5ce8f6ad64db1fdc85c3bfb02", "is_reserved": 0, "fusion_lon": 0.0, "lat": 38.9050645, "is_disabled": 0, "name": "c6f251b5ce8f6ad64db1fdc85c3bfb02", "fusion_lat": 0.0, "rental_uris": {"ios": "https://dc.lft.to/lastmile_qr_scan", "android": "https://dc.lft.to/lastmile_qr_scan"}, "lon": -77.06773616666666, "type": "electric_bike"}, {"bike_id": "4f047ed7ff2399919510685415ad347c", "is_reserved": 0, "fusion_lon": 0.0, "lat": 38.9078975, "is_disabled": 0, "name": "4f047ed7ff2399919510685415ad347c", "fusion_lat": 0.0, "rental_uris": {"ios": "https://dc.lft.to/lastmile_qr_scan", "android": "https://dc.lft.to/lastmile_qr_scan"}, "lon": -77.04236583333333, "type": "electric_scooter"}, {"bike_id": "93e20904f4aa6f7e4c3a290ee3f64dc6", "is_reserved": 0, "fusion_lon": 0.0, "lat": 38.9370435, "is_disabled": 0, "name": "93e20904f4aa6f7e4c3a290ee3f64dc6", "fusion_lat": 0.0, "rental_uris": {"ios": "https://dc.lft.to/lastmile_qr_scan", "android": "https://dc.lft.to/lastmile_qr_scan"}, "lon": -77.05945116666666, "type": "electric_scooter"}, {"bike_id": "7c5b5d70fd700ebdc80ded568cdcf51c", "is_reserved": 0, "fusion_lon": 0.0, "lat": 38.916811, "is_disabled": 0, "name": "7c5b5d70fd700ebdc80ded568cdcf51c", "fusion_lat": 0.0, "rental_uris": {"ios": "https://dc.lft.to/lastmile_qr_scan", "android": "https://dc.lft.to/lastmile_qr_scan"}, "lon": -77.03687516666666, "type": "electric_scooter"}, {"bike_id": "4331f9b6e46559d955bedddfb48b4732", "is_reserved": 0, "fusion_lon": 0.0, "lat": 38.91101316666666, "is_disabled": 0, "name": "4331f9b6e46559d955bedddfb48b4732", "fusion_lat": 0.0, "rental_uris": {"ios": "https://dc.lft.to/lastmile_qr_scan", "android": "https://dc.lft.to/lastmile_qr_scan"}, "lon": -77.038493, "type": "electric_scooter"}, {"bike_id": "b508d9cbbac169613bc759b08015bf2f", "is_reserved": 0, "fusion_lon": 0.0, "lat": 38.91493766666667, "is_disabled": 0, "name": "b508d9cbbac169613bc759b08015bf2f", "fusion_lat": 0.0, "rental_uris": {"ios": "https://dc.lft.to/lastmile_qr_scan", "android": "https://dc.lft.to/lastmile_qr_scan"}, "lon": -77.01719883333334, "type": "electric_scooter"}, {"bike_id": "38860677e5bf6a473d7a8ae056f22b43", "is_reserved": 0, "fusion_lon": 0.0, "lat": 38.9292585, "is_disabled": 0, "name": "38860677e5bf6a473d7a8ae056f22b43", "fusion_lat": 0.0, "rental_uris": {"ios": "https://dc.lft.to/lastmile_qr_scan", "android": "https://dc.lft.to/lastmile_qr_scan"}, "lon": -77.03295916666667, "type": "electric_scooter"}, {"bike_id": "2acb4706ed4a69a148c8e7ced5ca97e6", "is_reserved": 0, "fusion_lon": 0.0, "lat": 38.859682666666664, "is_disabled": 0, "name": "2acb4706ed4a69a148c8e7ced5ca97e6", "fusion_lat": 0.0, "rental_uris": {"ios": "https://dc.lft.to/lastmile_qr_scan", "android": "https://dc.lft.to/lastmile_qr_scan"}, "lon": -76.99108666666666, "type": "electric_scooter"}, {"bike_id": "d4ce75fa95f78bf2af2c4ca1aa9e8ba6", "is_reserved": 0, "fusion_lon": 0.0, "lat": 38.93982583333333, "is_disabled": 0, "name": "d4ce75fa95f78bf2af2c4ca1aa9e8ba6", "fusion_lat": 0.0, "rental_uris": {"ios": "https://dc.lft.to/lastmile_qr_scan", "android": "https://dc.lft.to/lastmile_qr_scan"}, "lon": -77.02892916666667, "type": "electric_scooter"}, {"bike_id": "ae08a3d03c54c2d9251cdfc73319a840", "is_reserved": 0, "fusion_lon": 0.0, "lat": 38.910460666666665, "is_disabled": 0, "name": "ae08a3d03c54c2d9251cdfc73319a840", "fusion_lat": 0.0, "rental_uris": {"ios": "https://dc.lft.to/lastmile_qr_scan", "android": "https://dc.lft.to/lastmile_qr_scan"}, "lon": -77.04837716666667, "type": "electric_scooter"}, {"bike_id": "2363436abe4b0cf8184f3ad4667c5994", "is_reserved": 0, "fusion_lon": 0.0, "lat": 38.90345133333334, "is_disabled": 0, "name": "2363436abe4b0cf8184f3ad4667c5994", "fusion_lat": 0.0, "rental_uris": {"ios": "https://dc.lft.to/lastmile_qr_scan", "android": "https://dc.lft.to/lastmile_qr_scan"}, "lon": -77.04523483333334, "type": "electric_scooter"}, {"bike_id": "6b94aa89b0f936573111ed2b9ede705f", "is_reserved": 0, "fusion_lon": 0.0, "lat": 38.922345166666666, "is_disabled": 0, "name": "6b94aa89b0f936573111ed2b9ede705f", "fusion_lat": 0.0, "rental_uris": {"ios": "https://dc.lft.to/lastmile_qr_scan", "android": "https://dc.lft.to/lastmile_qr_scan"}, "lon": -77.0440065, "type": "electric_scooter"}, {"bike_id": "8f4b9fd6d85e9956f7502e9eb79fdfd8", "is_reserved": 0, "fusion_lon": 0.0, "lat": 38.877145, "is_disabled": 0, "name": "8f4b9fd6d85e9956f7502e9eb79fdfd8", "fusion_lat": 0.0, "rental_uris": {"ios": "https://dc.lft.to/lastmile_qr_scan", "android": "https://dc.lft.to/lastmile_qr_scan"}, "lon": -77.0174295, "type": "electric_scooter"}, {"bike_id": "1e83bcc4963cdff3b2c31a51741e82a4", "is_reserved": 0, "fusion_lon": 0.0, "lat": 38.91272883333333, "is_disabled": 0, "name": "1e83bcc4963cdff3b2c31a51741e82a4", "fusion_lat": 0.0, "rental_uris": {"ios": "https://dc.lft.to/lastmile_qr_scan", "android": "https://dc.lft.to/lastmile_qr_scan"}, "lon": -77.03150383333333, "type": "electric_scooter"}, {"bike_id": "022ba95fe72f2735fd7f8ccbaf8de918", "is_reserved": 0, "fusion_lon": 0.0, "lat": 38.89954566666667, "is_disabled": 0, "name": "022ba95fe72f2735fd7f8ccbaf8de918", "fusion_lat": 0.0, "rental_uris": {"ios": "https://dc.lft.to/lastmile_qr_scan", "android": "https://dc.lft.to/lastmile_qr_scan"}, "lon": -77.02188366666667, "type": "electric_scooter"}, {"bike_id": "259279add97b2d15e2e13899035e9612", "is_reserved": 0, "fusion_lon": 0.0, "lat": 38.866581, "is_disabled": 0, "name": "259279add97b2d15e2e13899035e9612", "fusion_lat": 0.0, "rental_uris": {"ios": "https://dc.lft.to/lastmile_qr_scan", "android": "https://dc.lft.to/lastmile_qr_scan"}, "lon": -76.9888485, "type": "electric_scooter"}, {"bike_id": "ef34dad4d798a42f4b8a82569c057ff4", "is_reserved": 0, "fusion_lon": 0.0, "lat": 38.954855333333334, "is_disabled": 0, "name": "ef34dad4d798a42f4b8a82569c057ff4", "fusion_lat": 0.0, "rental_uris": {"ios": "https://dc.lft.to/lastmile_qr_scan", "android": "https://dc.lft.to/lastmile_qr_scan"}, "lon": -77.065666, "type": "electric_scooter"}, {"bike_id": "e4517d48d3251ec20a3269c7bb8ebf66", "is_reserved": 0, "fusion_lon": 0.0, "lat": 38.865364666666665, "is_disabled": 0, "name": "e4517d48d3251ec20a3269c7bb8ebf66", "fusion_lat": 0.0, "rental_uris": {"ios": "https://dc.lft.to/lastmile_qr_scan", "android": "https://dc.lft.to/lastmile_qr_scan"}, "lon": -76.98704716666667, "type": "electric_scooter"}, {"bike_id": "5187252950dd7d090ffa17936429873d", "is_reserved": 0, "fusion_lon": 0.0, "lat": 38.81251283333334, "is_disabled": 0, "name": "5187252950dd7d090ffa17936429873d", "fusion_lat": 0.0, "rental_uris": {"ios": "https://dc.lft.to/lastmile_qr_scan", "android": "https://dc.lft.to/lastmile_qr_scan"}, "lon": -77.117547, "type": "electric_bike"}, {"bike_id": "60a99bb2df324b3b8b22f64854ee11e6", "is_reserved": 0, "fusion_lon": 0.0, "lat": 38.8789635, "is_disabled": 0, "name": "60a99bb2df324b3b8b22f64854ee11e6", "fusion_lat": 0.0, "rental_uris": {"ios": "https://dc.lft.to/lastmile_qr_scan", "android": "https://dc.lft.to/lastmile_qr_scan"}, "lon": -77.00574483333334, "type": "electric_scooter"}, {"bike_id": "63a6341309d771957c00143a461bd3e5", "is_reserved": 0, "fusion_lon": 0.0, "lat": 38.922933666666665, "is_disabled": 0, "name": "63a6341309d771957c00143a461bd3e5", "fusion_lat": 0.0, "rental_uris": {"ios": "https://dc.lft.to/lastmile_qr_scan", "android": "https://dc.lft.to/lastmile_qr_scan"}, "lon": -77.04141066666666, "type": "electric_scooter"}, {"bike_id": "ebccedb9db83d549556ed00b66513eae", "is_reserved": 0, "fusion_lon": 0.0, "lat": 38.90386383333333, "is_disabled": 0, "name": "ebccedb9db83d549556ed00b66513eae", "fusion_lat": 0.0, "rental_uris": {"ios": "https://dc.lft.to/lastmile_qr_scan", "android": "https://dc.lft.to/lastmile_qr_scan"}, "lon": -77.043292, "type": "electric_scooter"}, {"bike_id": "07b2e0307e4d52d1694bea210fefc315", "is_reserved": 0, "fusion_lon": 0.0, "lat": 38.91662816666667, "is_disabled": 0, "name": "07b2e0307e4d52d1694bea210fefc315", "fusion_lat": 0.0, "rental_uris": {"ios": "https://dc.lft.to/lastmile_qr_scan", "android": "https://dc.lft.to/lastmile_qr_scan"}, "lon": -77.022821, "type": "electric_scooter"}, {"bike_id": "ab6e2ef155f2a914495fc5785700f87d", "is_reserved": 0, "fusion_lon": 0.0, "lat": 38.8849515, "is_disabled": 0, "name": "ab6e2ef155f2a914495fc5785700f87d", "fusion_lat": 0.0, "rental_uris": {"ios": "https://dc.lft.to/lastmile_qr_scan", "android": "https://dc.lft.to/lastmile_qr_scan"}, "lon": -77.02353166666667, "type": "electric_scooter"}, {"bike_id": "e47e39cbacf0f232549d984914db1144", "is_reserved": 0, "fusion_lon": 0.0, "lat": 38.90798366666667, "is_disabled": 0, "name": "e47e39cbacf0f232549d984914db1144", "fusion_lat": 0.0, "rental_uris": {"ios": "https://dc.lft.to/lastmile_qr_scan", "android": "https://dc.lft.to/lastmile_qr_scan"}, "lon": -77.03200216666667, "type": "electric_scooter"}, {"bike_id": "c7ab49c6ac2f29c80b2d53e876411f91", "is_reserved": 0, "fusion_lon": 0.0, "lat": 38.90320583333333, "is_disabled": 0, "name": "c7ab49c6ac2f29c80b2d53e876411f91", "fusion_lat": 0.0, "rental_uris": {"ios": "https://dc.lft.to/lastmile_qr_scan", "android": "https://dc.lft.to/lastmile_qr_scan"}, "lon": -77.04338033333333, "type": "electric_scooter"}, {"bike_id": "2e81126c5966bf7b89e96471c54f67c1", "is_reserved": 0, "fusion_lon": 0.0, "lat": 38.914391, "is_disabled": 0, "name": "2e81126c5966bf7b89e96471c54f67c1", "fusion_lat": 0.0, "rental_uris": {"ios": "https://dc.lft.to/lastmile_qr_scan", "android": "https://dc.lft.to/lastmile_qr_scan"}, "lon": -77.02177366666666, "type": "electric_scooter"}, {"bike_id": "af13ccaf133b437d4a4f1145672dc809", "is_reserved": 0, "fusion_lon": 0.0, "lat": 38.9054625, "is_disabled": 0, "name": "af13ccaf133b437d4a4f1145672dc809", "fusion_lat": 0.0, "rental_uris": {"ios": "https://dc.lft.to/lastmile_qr_scan", "android": "https://dc.lft.to/lastmile_qr_scan"}, "lon": -77.0398505, "type": "electric_scooter"}, {"bike_id": "0f264f965c4d3697436f8d56cf0f62fd", "is_reserved": 0, "fusion_lon": 0.0, "lat": 38.90751733333333, "is_disabled": 0, "name": "0f264f965c4d3697436f8d56cf0f62fd", "fusion_lat": 0.0, "rental_uris": {"ios": "https://dc.lft.to/lastmile_qr_scan", "android": "https://dc.lft.to/lastmile_qr_scan"}, "lon": -76.986809, "type": "electric_scooter"}, {"bike_id": "81f124c57eed9f95e4fbd55e5fe2b508", "is_reserved": 0, "fusion_lon": 0.0, "lat": 38.88375533333333, "is_disabled": 0, "name": "81f124c57eed9f95e4fbd55e5fe2b508", "fusion_lat": 0.0, "rental_uris": {"ios": "https://dc.lft.to/lastmile_qr_scan", "android": "https://dc.lft.to/lastmile_qr_scan"}, "lon": -77.01537916666666, "type": "electric_scooter"}, {"bike_id": "c066617451a15660207cfee47d7c9b3d", "is_reserved": 0, "fusion_lon": 0.0, "lat": 38.936045166666666, "is_disabled": 0, "name": "c066617451a15660207cfee47d7c9b3d", "fusion_lat": 0.0, "rental_uris": {"ios": "https://dc.lft.to/lastmile_qr_scan", "android": "https://dc.lft.to/lastmile_qr_scan"}, "lon": -77.0586205, "type": "electric_scooter"}, {"bike_id": "a8d46f48c3582eded868961d9aa58b04", "is_reserved": 0, "fusion_lon": 0.0, "lat": 38.92235733333333, "is_disabled": 0, "name": "a8d46f48c3582eded868961d9aa58b04", "fusion_lat": 0.0, "rental_uris": {"ios": "https://dc.lft.to/lastmile_qr_scan", "android": "https://dc.lft.to/lastmile_qr_scan"}, "lon": -77.0271415, "type": "electric_scooter"}, {"bike_id": "cf8a6a14b15aca24cee896e6f4d99460", "is_reserved": 0, "fusion_lon": 0.0, "lat": 38.908326833333334, "is_disabled": 0, "name": "cf8a6a14b15aca24cee896e6f4d99460", "fusion_lat": 0.0, "rental_uris": {"ios": "https://dc.lft.to/lastmile_qr_scan", "android": "https://dc.lft.to/lastmile_qr_scan"}, "lon": -77.033803, "type": "electric_scooter"}, {"bike_id": "0f0758639115736c79ad0133fcf48b94", "is_reserved": 0, "fusion_lon": 0.0, "lat": 38.99077333333334, "is_disabled": 0, "name": "0f0758639115736c79ad0133fcf48b94", "fusion_lat": 0.0, "rental_uris": {"ios": "https://dc.lft.to/lastmile_qr_scan", "android": "https://dc.lft.to/lastmile_qr_scan"}, "lon": -76.87470783333333, "type": "electric_bike"}, {"bike_id": "60ff06dbf19c50f0a328a2522005de6a", "is_reserved": 0, "fusion_lon": 0.0, "lat": 38.90256316666667, "is_disabled": 0, "name": "60ff06dbf19c50f0a328a2522005de6a", "fusion_lat": 0.0, "rental_uris": {"ios": "https://dc.lft.to/lastmile_qr_scan", "android": "https://dc.lft.to/lastmile_qr_scan"}, "lon": -77.02659433333334, "type": "electric_scooter"}, {"bike_id": "0a87736a55539777dea3b006656bf558", "is_reserved": 0, "fusion_lon": 0.0, "lat": 38.828733, "is_disabled": 0, "name": "0a87736a55539777dea3b006656bf558", "fusion_lat": 0.0, "rental_uris": {"ios": "https://dc.lft.to/lastmile_qr_scan", "android": "https://dc.lft.to/lastmile_qr_scan"}, "lon": -77.11220016666667, "type": "electric_bike"}, {"bike_id": "5c27f592bab04d910c9ff7342a45c701", "is_reserved": 0, "fusion_lon": 0.0, "lat": 38.89829683333333, "is_disabled": 0, "name": "5c27f592bab04d910c9ff7342a45c701", "fusion_lat": 0.0, "rental_uris": {"ios": "https://dc.lft.to/lastmile_qr_scan", "android": "https://dc.lft.to/lastmile_qr_scan"}, "lon": -77.03275416666666, "type": "electric_scooter"}, {"bike_id": "8b13e620d0428ce710dddff0025dec71", "is_reserved": 0, "fusion_lon": 0.0, "lat": 38.9140155, "is_disabled": 0, "name": "8b13e620d0428ce710dddff0025dec71", "fusion_lat": 0.0, "rental_uris": {"ios": "https://dc.lft.to/lastmile_qr_scan", "android": "https://dc.lft.to/lastmile_qr_scan"}, "lon": -77.03911383333333, "type": "electric_scooter"}, {"bike_id": "9a45ea79119b62dd708fa29f08598e33", "is_reserved": 0, "fusion_lon": 0.0, "lat": 38.897384833333334, "is_disabled": 0, "name": "9a45ea79119b62dd708fa29f08598e33", "fusion_lat": 0.0, "rental_uris": {"ios": "https://dc.lft.to/lastmile_qr_scan", "android": "https://dc.lft.to/lastmile_qr_scan"}, "lon": -77.0557935, "type": "electric_scooter"}, {"bike_id": "e497369e4758c9e32285572d15154128", "is_reserved": 0, "fusion_lon": 0.0, "lat": 38.90363283333333, "is_disabled": 0, "name": "e497369e4758c9e32285572d15154128", "fusion_lat": 0.0, "rental_uris": {"ios": "https://dc.lft.to/lastmile_qr_scan", "android": "https://dc.lft.to/lastmile_qr_scan"}, "lon": -77.04353883333333, "type": "electric_scooter"}, {"bike_id": "82693c7084df051b45cd43a192446318", "is_reserved": 0, "fusion_lon": 0.0, "lat": 38.91446633333334, "is_disabled": 0, "name": "82693c7084df051b45cd43a192446318", "fusion_lat": 0.0, "rental_uris": {"ios": "https://dc.lft.to/lastmile_qr_scan", "android": "https://dc.lft.to/lastmile_qr_scan"}, "lon": -77.02200483333333, "type": "electric_scooter"}, {"bike_id": "7756c86698d9fe52b14d194c74f0d0ee", "is_reserved": 0, "fusion_lon": 0.0, "lat": 38.9265655, "is_disabled": 0, "name": "7756c86698d9fe52b14d194c74f0d0ee", "fusion_lat": 0.0, "rental_uris": {"ios": "https://dc.lft.to/lastmile_qr_scan", "android": "https://dc.lft.to/lastmile_qr_scan"}, "lon": -76.99545066666667, "type": "electric_scooter"}, {"bike_id": "5a417e7066b0650b86ff63c40873b656", "is_reserved": 0, "fusion_lon": 0.0, "lat": 38.8762925, "is_disabled": 0, "name": "5a417e7066b0650b86ff63c40873b656", "fusion_lat": 0.0, "rental_uris": {"ios": "https://dc.lft.to/lastmile_qr_scan", "android": "https://dc.lft.to/lastmile_qr_scan"}, "lon": -76.96528666666667, "type": "electric_scooter"}, {"bike_id": "8a2cc0f53731b426188b4777dc2263cb", "is_reserved": 0, "fusion_lon": 0.0, "lat": 38.8983675, "is_disabled": 0, "name": "8a2cc0f53731b426188b4777dc2263cb", "fusion_lat": 0.0, "rental_uris": {"ios": "https://dc.lft.to/lastmile_qr_scan", "android": "https://dc.lft.to/lastmile_qr_scan"}, "lon": -77.00746933333333, "type": "electric_scooter"}, {"bike_id": "c17d386dd66553334c779272a1ec1e59", "is_reserved": 0, "fusion_lon": 0.0, "lat": 38.873807166666666, "is_disabled": 0, "name": "c17d386dd66553334c779272a1ec1e59", "fusion_lat": 0.0, "rental_uris": {"ios": "https://dc.lft.to/lastmile_qr_scan", "android": "https://dc.lft.to/lastmile_qr_scan"}, "lon": -77.0009405, "type": "electric_scooter"}, {"bike_id": "e021591154ddb75a356d1e79db7d122d", "is_reserved": 0, "fusion_lon": 0.0, "lat": 38.89329566666667, "is_disabled": 0, "name": "e021591154ddb75a356d1e79db7d122d", "fusion_lat": 0.0, "rental_uris": {"ios": "https://dc.lft.to/lastmile_qr_scan", "android": "https://dc.lft.to/lastmile_qr_scan"}, "lon": -76.93003466666667, "type": "electric_scooter"}, {"bike_id": "2ae1431da63eacdcad9cdcd1512cd798", "is_reserved": 0, "fusion_lon": 0.0, "lat": 38.90853083333333, "is_disabled": 0, "name": "2ae1431da63eacdcad9cdcd1512cd798", "fusion_lat": 0.0, "rental_uris": {"ios": "https://dc.lft.to/lastmile_qr_scan", "android": "https://dc.lft.to/lastmile_qr_scan"}, "lon": -77.0554, "type": "electric_bike"}, {"bike_id": "770c52779c5a260de78886f5d5e9768c", "is_reserved": 0, "fusion_lon": 0.0, "lat": 38.90511933333333, "is_disabled": 0, "name": "770c52779c5a260de78886f5d5e9768c", "fusion_lat": 0.0, "rental_uris": {"ios": "https://dc.lft.to/lastmile_qr_scan", "android": "https://dc.lft.to/lastmile_qr_scan"}, "lon": -77.05129866666667, "type": "electric_scooter"}, {"bike_id": "000b3173d6b8f066a5a4992a774b1dbd", "is_reserved": 0, "fusion_lon": 0.0, "lat": 38.915421333333335, "is_disabled": 0, "name": "000b3173d6b8f066a5a4992a774b1dbd", "fusion_lat": 0.0, "rental_uris": {"ios": "https://dc.lft.to/lastmile_qr_scan", "android": "https://dc.lft.to/lastmile_qr_scan"}, "lon": -77.02152583333333, "type": "electric_scooter"}, {"bike_id": "1ac3126208651a48d3d89f9aa321c813", "is_reserved": 0, "fusion_lon": 0.0, "lat": 38.9170265, "is_disabled": 0, "name": "1ac3126208651a48d3d89f9aa321c813", "fusion_lat": 0.0, "rental_uris": {"ios": "https://dc.lft.to/lastmile_qr_scan", "android": "https://dc.lft.to/lastmile_qr_scan"}, "lon": -77.03209033333333, "type": "electric_scooter"}, {"bike_id": "f85b9b499f88fea2ba484833fcf9fd25", "is_reserved": 0, "fusion_lon": 0.0, "lat": 38.86363883333333, "is_disabled": 0, "name": "f85b9b499f88fea2ba484833fcf9fd25", "fusion_lat": 0.0, "rental_uris": {"ios": "https://dc.lft.to/lastmile_qr_scan", "android": "https://dc.lft.to/lastmile_qr_scan"}, "lon": -76.99045416666667, "type": "electric_scooter"}, {"bike_id": "a96425b3945a244a35c532d83371be4f", "is_reserved": 0, "fusion_lon": 0.0, "lat": 38.90851033333333, "is_disabled": 0, "name": "a96425b3945a244a35c532d83371be4f", "fusion_lat": 0.0, "rental_uris": {"ios": "https://dc.lft.to/lastmile_qr_scan", "android": "https://dc.lft.to/lastmile_qr_scan"}, "lon": -77.02452766666667, "type": "electric_scooter"}, {"bike_id": "0d8404dacb97fb4ef940d94b2e261d0d", "is_reserved": 0, "fusion_lon": 0.0, "lat": 38.888324833333336, "is_disabled": 0, "name": "0d8404dacb97fb4ef940d94b2e261d0d", "fusion_lat": 0.0, "rental_uris": {"ios": "https://dc.lft.to/lastmile_qr_scan", "android": "https://dc.lft.to/lastmile_qr_scan"}, "lon": -77.049141, "type": "electric_scooter"}, {"bike_id": "f3934ab72f16babaf9f8936d0c3b1f50", "is_reserved": 0, "fusion_lon": 0.0, "lat": 38.922470833333335, "is_disabled": 0, "name": "f3934ab72f16babaf9f8936d0c3b1f50", "fusion_lat": 0.0, "rental_uris": {"ios": "https://dc.lft.to/lastmile_qr_scan", "android": "https://dc.lft.to/lastmile_qr_scan"}, "lon": -77.030697, "type": "electric_scooter"}, {"bike_id": "e817262fe49d578c12b217b0eb77d185", "is_reserved": 0, "fusion_lon": 0.0, "lat": 38.943326166666665, "is_disabled": 0, "name": "e817262fe49d578c12b217b0eb77d185", "fusion_lat": 0.0, "rental_uris": {"ios": "https://dc.lft.to/lastmile_qr_scan", "android": "https://dc.lft.to/lastmile_qr_scan"}, "lon": -77.07390433333333, "type": "electric_scooter"}, {"bike_id": "4001aa665b75b221f6af10037d6a0a47", "is_reserved": 0, "fusion_lon": 0.0, "lat": 38.936421833333334, "is_disabled": 0, "name": "4001aa665b75b221f6af10037d6a0a47", "fusion_lat": 0.0, "rental_uris": {"ios": "https://dc.lft.to/lastmile_qr_scan", "android": "https://dc.lft.to/lastmile_qr_scan"}, "lon": -77.02089416666666, "type": "electric_scooter"}, {"bike_id": "fb5aafb8d5c58f5dbe7bcc528cdd42ec", "is_reserved": 0, "fusion_lon": 0.0, "lat": 38.90983216666667, "is_disabled": 0, "name": "fb5aafb8d5c58f5dbe7bcc528cdd42ec", "fusion_lat": 0.0, "rental_uris": {"ios": "https://dc.lft.to/lastmile_qr_scan", "android": "https://dc.lft.to/lastmile_qr_scan"}, "lon": -77.0671335, "type": "electric_scooter"}, {"bike_id": "da698efdca859ded977befc6f7801191", "is_reserved": 0, "fusion_lon": 0.0, "lat": 38.918841, "is_disabled": 0, "name": "da698efdca859ded977befc6f7801191", "fusion_lat": 0.0, "rental_uris": {"ios": "https://dc.lft.to/lastmile_qr_scan", "android": "https://dc.lft.to/lastmile_qr_scan"}, "lon": -76.971594, "type": "electric_scooter"}, {"bike_id": "cbc0625930fd513fc79ea74f561fa24c", "is_reserved": 0, "fusion_lon": 0.0, "lat": 38.88282383333333, "is_disabled": 0, "name": "cbc0625930fd513fc79ea74f561fa24c", "fusion_lat": 0.0, "rental_uris": {"ios": "https://dc.lft.to/lastmile_qr_scan", "android": "https://dc.lft.to/lastmile_qr_scan"}, "lon": -77.0415675, "type": "electric_scooter"}, {"bike_id": "31a97ed7e6b0d2d64291e4af0cc36537", "is_reserved": 0, "fusion_lon": 0.0, "lat": 38.874891166666664, "is_disabled": 0, "name": "31a97ed7e6b0d2d64291e4af0cc36537", "fusion_lat": 0.0, "rental_uris": {"ios": "https://dc.lft.to/lastmile_qr_scan", "android": "https://dc.lft.to/lastmile_qr_scan"}, "lon": -77.001858, "type": "electric_scooter"}, {"bike_id": "d7694d16bce5d9ae010b260bc0cb377a", "is_reserved": 0, "fusion_lon": 0.0, "lat": 38.902581, "is_disabled": 0, "name": "d7694d16bce5d9ae010b260bc0cb377a", "fusion_lat": 0.0, "rental_uris": {"ios": "https://dc.lft.to/lastmile_qr_scan", "android": "https://dc.lft.to/lastmile_qr_scan"}, "lon": -77.03841633333333, "type": "electric_scooter"}, {"bike_id": "e5e0de4ba8b03d24129150de51794f9b", "is_reserved": 0, "fusion_lon": 0.0, "lat": 38.92622266666667, "is_disabled": 0, "name": "e5e0de4ba8b03d24129150de51794f9b", "fusion_lat": 0.0, "rental_uris": {"ios": "https://dc.lft.to/lastmile_qr_scan", "android": "https://dc.lft.to/lastmile_qr_scan"}, "lon": -77.005611, "type": "electric_scooter"}, {"bike_id": "c41fb7cd04f06c8e00f454a7df3eadcd", "is_reserved": 0, "fusion_lon": 0.0, "lat": 38.8991725, "is_disabled": 0, "name": "c41fb7cd04f06c8e00f454a7df3eadcd", "fusion_lat": 0.0, "rental_uris": {"ios": "https://dc.lft.to/lastmile_qr_scan", "android": "https://dc.lft.to/lastmile_qr_scan"}, "lon": -77.05435533333333, "type": "electric_scooter"}, {"bike_id": "68cc0d1d29a558e7fa7527ee19518caa", "is_reserved": 0, "fusion_lon": 0.0, "lat": 38.946181, "is_disabled": 0, "name": "68cc0d1d29a558e7fa7527ee19518caa", "fusion_lat": 0.0, "rental_uris": {"ios": "https://dc.lft.to/lastmile_qr_scan", "android": "https://dc.lft.to/lastmile_qr_scan"}, "lon": -77.03512883333333, "type": "electric_scooter"}, {"bike_id": "a9eb90d0cba91a73e06dee5d4c9a2f53", "is_reserved": 0, "fusion_lon": 0.0, "lat": 38.92794416666667, "is_disabled": 0, "name": "a9eb90d0cba91a73e06dee5d4c9a2f53", "fusion_lat": 0.0, "rental_uris": {"ios": "https://dc.lft.to/lastmile_qr_scan", "android": "https://dc.lft.to/lastmile_qr_scan"}, "lon": -77.03153666666667, "type": "electric_scooter"}, {"bike_id": "c0eb946a3cb1010bc9f2337ccdc61f0f", "is_reserved": 0, "fusion_lon": 0.0, "lat": 38.896171333333335, "is_disabled": 0, "name": "c0eb946a3cb1010bc9f2337ccdc61f0f", "fusion_lat": 0.0, "rental_uris": {"ios": "https://dc.lft.to/lastmile_qr_scan", "android": "https://dc.lft.to/lastmile_qr_scan"}, "lon": -76.99066283333333, "type": "electric_scooter"}, {"bike_id": "d1c55ba4550011d5dc048bcae21bc899", "is_reserved": 0, "fusion_lon": 0.0, "lat": 38.921357666666665, "is_disabled": 0, "name": "d1c55ba4550011d5dc048bcae21bc899", "fusion_lat": 0.0, "rental_uris": {"ios": "https://dc.lft.to/lastmile_qr_scan", "android": "https://dc.lft.to/lastmile_qr_scan"}, "lon": -77.0179635, "type": "electric_scooter"}, {"bike_id": "8ef164310a0eb945e7359593bc4653aa", "is_reserved": 0, "fusion_lon": 0.0, "lat": 38.89220316666667, "is_disabled": 0, "name": "8ef164310a0eb945e7359593bc4653aa", "fusion_lat": 0.0, "rental_uris": {"ios": "https://dc.lft.to/lastmile_qr_scan", "android": "https://dc.lft.to/lastmile_qr_scan"}, "lon": -77.02778416666666, "type": "electric_scooter"}, {"bike_id": "d1e4e96868bdb4a5858f8fbb6ef9aed3", "is_reserved": 0, "fusion_lon": 0.0, "lat": 38.92649383333333, "is_disabled": 0, "name": "d1e4e96868bdb4a5858f8fbb6ef9aed3", "fusion_lat": 0.0, "rental_uris": {"ios": "https://dc.lft.to/lastmile_qr_scan", "android": "https://dc.lft.to/lastmile_qr_scan"}, "lon": -77.03712566666667, "type": "electric_scooter"}, {"bike_id": "ea6b51452eb41dd95cb6ea85d51ecfb7", "is_reserved": 0, "fusion_lon": 0.0, "lat": 38.9216875, "is_disabled": 0, "name": "ea6b51452eb41dd95cb6ea85d51ecfb7", "fusion_lat": 0.0, "rental_uris": {"ios": "https://dc.lft.to/lastmile_qr_scan", "android": "https://dc.lft.to/lastmile_qr_scan"}, "lon": -77.05140783333333, "type": "electric_scooter"}, {"bike_id": "c2b96e4a018edefd2a97968cbad00681", "is_reserved": 0, "fusion_lon": 0.0, "lat": 38.93879116666667, "is_disabled": 0, "name": "c2b96e4a018edefd2a97968cbad00681", "fusion_lat": 0.0, "rental_uris": {"ios": "https://dc.lft.to/lastmile_qr_scan", "android": "https://dc.lft.to/lastmile_qr_scan"}, "lon": -77.03276566666666, "type": "electric_scooter"}, {"bike_id": "3edbdb08db8a4340c9ea3d5a1a0f36f2", "is_reserved": 0, "fusion_lon": 0.0, "lat": 38.90247266666667, "is_disabled": 0, "name": "3edbdb08db8a4340c9ea3d5a1a0f36f2", "fusion_lat": 0.0, "rental_uris": {"ios": "https://dc.lft.to/lastmile_qr_scan", "android": "https://dc.lft.to/lastmile_qr_scan"}, "lon": -77.040609, "type": "electric_scooter"}, {"bike_id": "2525fcdab58ae5cfa031a5e5d315dc5e", "is_reserved": 0, "fusion_lon": 0.0, "lat": 38.986041666666665, "is_disabled": 0, "name": "2525fcdab58ae5cfa031a5e5d315dc5e", "fusion_lat": 0.0, "rental_uris": {"ios": "https://dc.lft.to/lastmile_qr_scan", "android": "https://dc.lft.to/lastmile_qr_scan"}, "lon": -77.0375855, "type": "electric_bike"}, {"bike_id": "14d1c841245b49e8e34253148b8a934f", "is_reserved": 0, "fusion_lon": 0.0, "lat": 38.90378833333333, "is_disabled": 0, "name": "14d1c841245b49e8e34253148b8a934f", "fusion_lat": 0.0, "rental_uris": {"ios": "https://dc.lft.to/lastmile_qr_scan", "android": "https://dc.lft.to/lastmile_qr_scan"}, "lon": -77.04447416666666, "type": "electric_scooter"}, {"bike_id": "117cd014309c29302ebecc4a75c13911", "is_reserved": 0, "fusion_lon": 0.0, "lat": 38.92256033333334, "is_disabled": 0, "name": "117cd014309c29302ebecc4a75c13911", "fusion_lat": 0.0, "rental_uris": {"ios": "https://dc.lft.to/lastmile_qr_scan", "android": "https://dc.lft.to/lastmile_qr_scan"}, "lon": -77.02981566666666, "type": "electric_scooter"}, {"bike_id": "2631c305f31965931c220c4c937ec793", "is_reserved": 0, "fusion_lon": 0.0, "lat": 38.98463516666666, "is_disabled": 0, "name": "2631c305f31965931c220c4c937ec793", "fusion_lat": 0.0, "rental_uris": {"ios": "https://dc.lft.to/lastmile_qr_scan", "android": "https://dc.lft.to/lastmile_qr_scan"}, "lon": -76.95533216666666, "type": "electric_bike"}, {"bike_id": "55947f5ca1d926ee4421dd5d52dbe73a", "is_reserved": 0, "fusion_lon": 0.0, "lat": 38.86560766666667, "is_disabled": 0, "name": "55947f5ca1d926ee4421dd5d52dbe73a", "fusion_lat": 0.0, "rental_uris": {"ios": "https://dc.lft.to/lastmile_qr_scan", "android": "https://dc.lft.to/lastmile_qr_scan"}, "lon": -76.98949333333333, "type": "electric_scooter"}, {"bike_id": "6f9a414bab00d24d52f73408682e6a77", "is_reserved": 0, "fusion_lon": 0.0, "lat": 38.900382666666665, "is_disabled": 0, "name": "6f9a414bab00d24d52f73408682e6a77", "fusion_lat": 0.0, "rental_uris": {"ios": "https://dc.lft.to/lastmile_qr_scan", "android": "https://dc.lft.to/lastmile_qr_scan"}, "lon": -77.00752683333333, "type": "electric_scooter"}, {"bike_id": "59b056402f34f6f33d93dcfbc7df080c", "is_reserved": 0, "fusion_lon": 0.0, "lat": 38.85223716666667, "is_disabled": 0, "name": "59b056402f34f6f33d93dcfbc7df080c", "fusion_lat": 0.0, "rental_uris": {"ios": "https://dc.lft.to/lastmile_qr_scan", "android": "https://dc.lft.to/lastmile_qr_scan"}, "lon": -77.12963533333334, "type": "electric_bike"}, {"bike_id": "7325b32a81d54870de28ee0f09342923", "is_reserved": 0, "fusion_lon": 0.0, "lat": 38.865950166666664, "is_disabled": 0, "name": "7325b32a81d54870de28ee0f09342923", "fusion_lat": 0.0, "rental_uris": {"ios": "https://dc.lft.to/lastmile_qr_scan", "android": "https://dc.lft.to/lastmile_qr_scan"}, "lon": -76.9323, "type": "electric_bike"}, {"bike_id": "e622280542c37d00e8474f71919947a3", "is_reserved": 0, "fusion_lon": 0.0, "lat": 38.921133, "is_disabled": 0, "name": "e622280542c37d00e8474f71919947a3", "fusion_lat": 0.0, "rental_uris": {"ios": "https://dc.lft.to/lastmile_qr_scan", "android": "https://dc.lft.to/lastmile_qr_scan"}, "lon": -77.04205283333333, "type": "electric_scooter"}, {"bike_id": "b59d3ffa7557d3afb88aaa996abf60f5", "is_reserved": 0, "fusion_lon": 0.0, "lat": 38.86368816666667, "is_disabled": 0, "name": "b59d3ffa7557d3afb88aaa996abf60f5", "fusion_lat": 0.0, "rental_uris": {"ios": "https://dc.lft.to/lastmile_qr_scan", "android": "https://dc.lft.to/lastmile_qr_scan"}, "lon": -76.990443, "type": "electric_scooter"}, {"bike_id": "d99254de851edb65fa33006b248af390", "is_reserved": 0, "fusion_lon": 0.0, "lat": 38.9117825, "is_disabled": 0, "name": "d99254de851edb65fa33006b248af390", "fusion_lat": 0.0, "rental_uris": {"ios": "https://dc.lft.to/lastmile_qr_scan", "android": "https://dc.lft.to/lastmile_qr_scan"}, "lon": -77.06086483333333, "type": "electric_scooter"}, {"bike_id": "deb3dff7ab794b6dbb3f96e606259b7b", "is_reserved": 0, "fusion_lon": 0.0, "lat": 38.95185633333333, "is_disabled": 0, "name": "deb3dff7ab794b6dbb3f96e606259b7b", "fusion_lat": 0.0, "rental_uris": {"ios": "https://dc.lft.to/lastmile_qr_scan", "android": "https://dc.lft.to/lastmile_qr_scan"}, "lon": -76.93548416666667, "type": "electric_bike"}, {"bike_id": "e441423453e624c41560ffc44f34d9e5", "is_reserved": 0, "fusion_lon": 0.0, "lat": 38.903631, "is_disabled": 0, "name": "e441423453e624c41560ffc44f34d9e5", "fusion_lat": 0.0, "rental_uris": {"ios": "https://dc.lft.to/lastmile_qr_scan", "android": "https://dc.lft.to/lastmile_qr_scan"}, "lon": -77.03206283333333, "type": "electric_scooter"}, {"bike_id": "a2577cf35878a13398f3142819f236e1", "is_reserved": 0, "fusion_lon": 0.0, "lat": 38.91918, "is_disabled": 0, "name": "a2577cf35878a13398f3142819f236e1", "fusion_lat": 0.0, "rental_uris": {"ios": "https://dc.lft.to/lastmile_qr_scan", "android": "https://dc.lft.to/lastmile_qr_scan"}, "lon": -77.03117166666667, "type": "electric_scooter"}, {"bike_id": "341014a6ca8cece93276c3c8e45e6675", "is_reserved": 0, "fusion_lon": 0.0, "lat": 38.88586766666667, "is_disabled": 0, "name": "341014a6ca8cece93276c3c8e45e6675", "fusion_lat": 0.0, "rental_uris": {"ios": "https://dc.lft.to/lastmile_qr_scan", "android": "https://dc.lft.to/lastmile_qr_scan"}, "lon": -77.01768416666667, "type": "electric_scooter"}, {"bike_id": "5468b1b9454bccc5bb9634a1a656bd2d", "is_reserved": 0, "fusion_lon": 0.0, "lat": 38.91264066666667, "is_disabled": 0, "name": "5468b1b9454bccc5bb9634a1a656bd2d", "fusion_lat": 0.0, "rental_uris": {"ios": "https://dc.lft.to/lastmile_qr_scan", "android": "https://dc.lft.to/lastmile_qr_scan"}, "lon": -77.0362465, "type": "electric_scooter"}, {"bike_id": "e30dd03029798c601c40a56337821ea0", "is_reserved": 0, "fusion_lon": 0.0, "lat": 38.88405516666667, "is_disabled": 0, "name": "e30dd03029798c601c40a56337821ea0", "fusion_lat": 0.0, "rental_uris": {"ios": "https://dc.lft.to/lastmile_qr_scan", "android": "https://dc.lft.to/lastmile_qr_scan"}, "lon": -76.96062716666667, "type": "electric_bike"}, {"bike_id": "fb27acf61f34af0a396fbad3b3349968", "is_reserved": 0, "fusion_lon": 0.0, "lat": 38.920449166666664, "is_disabled": 0, "name": "fb27acf61f34af0a396fbad3b3349968", "fusion_lat": 0.0, "rental_uris": {"ios": "https://dc.lft.to/lastmile_qr_scan", "android": "https://dc.lft.to/lastmile_qr_scan"}, "lon": -77.03380383333334, "type": "electric_scooter"}, {"bike_id": "28e58f6fc8920ddac13e92ae60f6ffa8", "is_reserved": 0, "fusion_lon": 0.0, "lat": 38.85804566666667, "is_disabled": 0, "name": "28e58f6fc8920ddac13e92ae60f6ffa8", "fusion_lat": 0.0, "rental_uris": {"ios": "https://dc.lft.to/lastmile_qr_scan", "android": "https://dc.lft.to/lastmile_qr_scan"}, "lon": -76.98658, "type": "electric_scooter"}, {"bike_id": "6c7db212b7f5dd6a21ddb081455c8188", "is_reserved": 0, "fusion_lon": 0.0, "lat": 38.923231666666666, "is_disabled": 0, "name": "6c7db212b7f5dd6a21ddb081455c8188", "fusion_lat": 0.0, "rental_uris": {"ios": "https://dc.lft.to/lastmile_qr_scan", "android": "https://dc.lft.to/lastmile_qr_scan"}, "lon": -77.03913966666667, "type": "electric_scooter"}, {"bike_id": "e149a02db65595a04f9bcf7e13bb5f05", "is_reserved": 0, "fusion_lon": 0.0, "lat": 38.908711, "is_disabled": 0, "name": "e149a02db65595a04f9bcf7e13bb5f05", "fusion_lat": 0.0, "rental_uris": {"ios": "https://dc.lft.to/lastmile_qr_scan", "android": "https://dc.lft.to/lastmile_qr_scan"}, "lon": -77.0859475, "type": "electric_scooter"}, {"bike_id": "a5675eefb973601b2c60e611fa780b07", "is_reserved": 0, "fusion_lon": 0.0, "lat": 38.920442, "is_disabled": 0, "name": "a5675eefb973601b2c60e611fa780b07", "fusion_lat": 0.0, "rental_uris": {"ios": "https://dc.lft.to/lastmile_qr_scan", "android": "https://dc.lft.to/lastmile_qr_scan"}, "lon": -77.04180166666667, "type": "electric_scooter"}, {"bike_id": "9030601b3a37b75cdf490ddc8d6fff46", "is_reserved": 0, "fusion_lon": 0.0, "lat": 38.92475, "is_disabled": 0, "name": "9030601b3a37b75cdf490ddc8d6fff46", "fusion_lat": 0.0, "rental_uris": {"ios": "https://dc.lft.to/lastmile_qr_scan", "android": "https://dc.lft.to/lastmile_qr_scan"}, "lon": -77.03143383333334, "type": "electric_scooter"}, {"bike_id": "8231fd90bd7bec115b102e7c0ca13184", "is_reserved": 0, "fusion_lon": 0.0, "lat": 38.89965766666667, "is_disabled": 0, "name": "8231fd90bd7bec115b102e7c0ca13184", "fusion_lat": 0.0, "rental_uris": {"ios": "https://dc.lft.to/lastmile_qr_scan", "android": "https://dc.lft.to/lastmile_qr_scan"}, "lon": -77.050561, "type": "electric_scooter"}, {"bike_id": "2ecca1af6871aa3991613574dc28ecc6", "is_reserved": 0, "fusion_lon": 0.0, "lat": 38.90210666666667, "is_disabled": 0, "name": "2ecca1af6871aa3991613574dc28ecc6", "fusion_lat": 0.0, "rental_uris": {"ios": "https://dc.lft.to/lastmile_qr_scan", "android": "https://dc.lft.to/lastmile_qr_scan"}, "lon": -76.94176916666666, "type": "electric_scooter"}, {"bike_id": "69a4d649bafafe66e7f4955f47851cc6", "is_reserved": 0, "fusion_lon": 0.0, "lat": 38.91709, "is_disabled": 0, "name": "69a4d649bafafe66e7f4955f47851cc6", "fusion_lat": 0.0, "rental_uris": {"ios": "https://dc.lft.to/lastmile_qr_scan", "android": "https://dc.lft.to/lastmile_qr_scan"}, "lon": -77.02387, "type": "electric_scooter"}, {"bike_id": "896dc4507a393858a4d61cc75ae7ca7e", "is_reserved": 0, "fusion_lon": 0.0, "lat": 38.899119166666665, "is_disabled": 0, "name": "896dc4507a393858a4d61cc75ae7ca7e", "fusion_lat": 0.0, "rental_uris": {"ios": "https://dc.lft.to/lastmile_qr_scan", "android": "https://dc.lft.to/lastmile_qr_scan"}, "lon": -76.93352316666666, "type": "electric_scooter"}, {"bike_id": "5ddcc23673ebf269abacc4e602e48c59", "is_reserved": 0, "fusion_lon": 0.0, "lat": 38.89341316666667, "is_disabled": 0, "name": "5ddcc23673ebf269abacc4e602e48c59", "fusion_lat": 0.0, "rental_uris": {"ios": "https://dc.lft.to/lastmile_qr_scan", "android": "https://dc.lft.to/lastmile_qr_scan"}, "lon": -76.92890133333333, "type": "electric_scooter"}, {"bike_id": "079102971869b2135b6712cb65c0e951", "is_reserved": 0, "fusion_lon": 0.0, "lat": 38.90146516666667, "is_disabled": 0, "name": "079102971869b2135b6712cb65c0e951", "fusion_lat": 0.0, "rental_uris": {"ios": "https://dc.lft.to/lastmile_qr_scan", "android": "https://dc.lft.to/lastmile_qr_scan"}, "lon": -77.04041233333334, "type": "electric_scooter"}, {"bike_id": "48d8fa0f84329901fdd425b0dc214b4e", "is_reserved": 0, "fusion_lon": 0.0, "lat": 38.87184366666666, "is_disabled": 0, "name": "48d8fa0f84329901fdd425b0dc214b4e", "fusion_lat": 0.0, "rental_uris": {"ios": "https://dc.lft.to/lastmile_qr_scan", "android": "https://dc.lft.to/lastmile_qr_scan"}, "lon": -77.01224583333334, "type": "electric_scooter"}, {"bike_id": "a8a8443ce92ac8468b68aa22277e9413", "is_reserved": 0, "fusion_lon": 0.0, "lat": 38.907932, "is_disabled": 0, "name": "a8a8443ce92ac8468b68aa22277e9413", "fusion_lat": 0.0, "rental_uris": {"ios": "https://dc.lft.to/lastmile_qr_scan", "android": "https://dc.lft.to/lastmile_qr_scan"}, "lon": -76.99700166666666, "type": "electric_scooter"}, {"bike_id": "b3d9e198f84a6dd1bcc5e4a5299dfcab", "is_reserved": 0, "fusion_lon": 0.0, "lat": 38.941845, "is_disabled": 0, "name": "b3d9e198f84a6dd1bcc5e4a5299dfcab", "fusion_lat": 0.0, "rental_uris": {"ios": "https://dc.lft.to/lastmile_qr_scan", "android": "https://dc.lft.to/lastmile_qr_scan"}, "lon": -77.030934, "type": "electric_scooter"}, {"bike_id": "0c54175835c3a79da29f53f3c15ce673", "is_reserved": 0, "fusion_lon": 0.0, "lat": 38.90024316666667, "is_disabled": 0, "name": "0c54175835c3a79da29f53f3c15ce673", "fusion_lat": 0.0, "rental_uris": {"ios": "https://dc.lft.to/lastmile_qr_scan", "android": "https://dc.lft.to/lastmile_qr_scan"}, "lon": -77.0014115, "type": "electric_scooter"}, {"bike_id": "da0a14015a263bb0bf09752357ead322", "is_reserved": 0, "fusion_lon": 0.0, "lat": 38.891987666666665, "is_disabled": 0, "name": "da0a14015a263bb0bf09752357ead322", "fusion_lat": 0.0, "rental_uris": {"ios": "https://dc.lft.to/lastmile_qr_scan", "android": "https://dc.lft.to/lastmile_qr_scan"}, "lon": -77.02838016666666, "type": "electric_scooter"}, {"bike_id": "7e8985022df02ae9308b80d43e566091", "is_reserved": 0, "fusion_lon": 0.0, "lat": 38.921129666666666, "is_disabled": 0, "name": "7e8985022df02ae9308b80d43e566091", "fusion_lat": 0.0, "rental_uris": {"ios": "https://dc.lft.to/lastmile_qr_scan", "android": "https://dc.lft.to/lastmile_qr_scan"}, "lon": -77.031796, "type": "electric_scooter"}, {"bike_id": "0855c3ba2ec0573f3575c40a068d56a5", "is_reserved": 0, "fusion_lon": 0.0, "lat": 38.902780666666665, "is_disabled": 0, "name": "0855c3ba2ec0573f3575c40a068d56a5", "fusion_lat": 0.0, "rental_uris": {"ios": "https://dc.lft.to/lastmile_qr_scan", "android": "https://dc.lft.to/lastmile_qr_scan"}, "lon": -77.03267, "type": "electric_scooter"}, {"bike_id": "950df62785dec7e92d4c363efc2209ca", "is_reserved": 0, "fusion_lon": 0.0, "lat": 38.95927366666667, "is_disabled": 0, "name": "950df62785dec7e92d4c363efc2209ca", "fusion_lat": 0.0, "rental_uris": {"ios": "https://dc.lft.to/lastmile_qr_scan", "android": "https://dc.lft.to/lastmile_qr_scan"}, "lon": -77.031238, "type": "electric_scooter"}, {"bike_id": "e35832830774973709307c056869472e", "is_reserved": 0, "fusion_lon": 0.0, "lat": 38.900383166666664, "is_disabled": 0, "name": "e35832830774973709307c056869472e", "fusion_lat": 0.0, "rental_uris": {"ios": "https://dc.lft.to/lastmile_qr_scan", "android": "https://dc.lft.to/lastmile_qr_scan"}, "lon": -77.00758583333334, "type": "electric_scooter"}, {"bike_id": "da7d238eecf79b573f7957eec32cf5aa", "is_reserved": 0, "fusion_lon": 0.0, "lat": 38.88274466666667, "is_disabled": 0, "name": "da7d238eecf79b573f7957eec32cf5aa", "fusion_lat": 0.0, "rental_uris": {"ios": "https://dc.lft.to/lastmile_qr_scan", "android": "https://dc.lft.to/lastmile_qr_scan"}, "lon": -76.99581916666666, "type": "electric_scooter"}, {"bike_id": "9c65264a1e48754c9bfcc0b4a0c12ce3", "is_reserved": 0, "fusion_lon": 0.0, "lat": 38.9216, "is_disabled": 0, "name": "9c65264a1e48754c9bfcc0b4a0c12ce3", "fusion_lat": 0.0, "rental_uris": {"ios": "https://dc.lft.to/lastmile_qr_scan", "android": "https://dc.lft.to/lastmile_qr_scan"}, "lon": -77.0423215, "type": "electric_scooter"}, {"bike_id": "ef9f8aa662dc90f3dfe94142b4f8947f", "is_reserved": 0, "fusion_lon": 0.0, "lat": 38.9648575, "is_disabled": 0, "name": "ef9f8aa662dc90f3dfe94142b4f8947f", "fusion_lat": 0.0, "rental_uris": {"ios": "https://dc.lft.to/lastmile_qr_scan", "android": "https://dc.lft.to/lastmile_qr_scan"}, "lon": -77.08797816666667, "type": "electric_bike"}, {"bike_id": "265e6d4ed894545e4084af2f0dadb00d", "is_reserved": 0, "fusion_lon": 0.0, "lat": 38.92256066666667, "is_disabled": 0, "name": "265e6d4ed894545e4084af2f0dadb00d", "fusion_lat": 0.0, "rental_uris": {"ios": "https://dc.lft.to/lastmile_qr_scan", "android": "https://dc.lft.to/lastmile_qr_scan"}, "lon": -77.02982733333333, "type": "electric_scooter"}, {"bike_id": "6f05dbf9ed10f2777562d92a8ea8a929", "is_reserved": 0, "fusion_lon": 0.0, "lat": 38.9008975, "is_disabled": 0, "name": "6f05dbf9ed10f2777562d92a8ea8a929", "fusion_lat": 0.0, "rental_uris": {"ios": "https://dc.lft.to/lastmile_qr_scan", "android": "https://dc.lft.to/lastmile_qr_scan"}, "lon": -77.04789983333333, "type": "electric_scooter"}, {"bike_id": "1180cebb177241b3cdceedbd84cd6307", "is_reserved": 0, "fusion_lon": 0.0, "lat": 38.984365333333336, "is_disabled": 0, "name": "1180cebb177241b3cdceedbd84cd6307", "fusion_lat": 0.0, "rental_uris": {"ios": "https://dc.lft.to/lastmile_qr_scan", "android": "https://dc.lft.to/lastmile_qr_scan"}, "lon": -77.0267485, "type": "electric_scooter"}, {"bike_id": "b0359899f92fd281905862dc0b601452", "is_reserved": 0, "fusion_lon": 0.0, "lat": 38.8278855, "is_disabled": 0, "name": "b0359899f92fd281905862dc0b601452", "fusion_lat": 0.0, "rental_uris": {"ios": "https://dc.lft.to/lastmile_qr_scan", "android": "https://dc.lft.to/lastmile_qr_scan"}, "lon": -77.009228, "type": "electric_bike"}, {"bike_id": "cee733461fcc8bb69e533da840933685", "is_reserved": 0, "fusion_lon": 0.0, "lat": 38.916670833333335, "is_disabled": 0, "name": "cee733461fcc8bb69e533da840933685", "fusion_lat": 0.0, "rental_uris": {"ios": "https://dc.lft.to/lastmile_qr_scan", "android": "https://dc.lft.to/lastmile_qr_scan"}, "lon": -77.041855, "type": "electric_scooter"}, {"bike_id": "eec954d29a7a8373a76c7e1e9ede4f5a", "is_reserved": 0, "fusion_lon": 0.0, "lat": 38.93352, "is_disabled": 0, "name": "eec954d29a7a8373a76c7e1e9ede4f5a", "fusion_lat": 0.0, "rental_uris": {"ios": "https://dc.lft.to/lastmile_qr_scan", "android": "https://dc.lft.to/lastmile_qr_scan"}, "lon": -77.069381, "type": "electric_scooter"}, {"bike_id": "d7a36ab24ea2d1b9fa9f4646190fc73a", "is_reserved": 0, "fusion_lon": 0.0, "lat": 38.9029165, "is_disabled": 0, "name": "d7a36ab24ea2d1b9fa9f4646190fc73a", "fusion_lat": 0.0, "rental_uris": {"ios": "https://dc.lft.to/lastmile_qr_scan", "android": "https://dc.lft.to/lastmile_qr_scan"}, "lon": -77.03260166666666, "type": "electric_scooter"}, {"bike_id": "61ed78295af96e2e836478ca8d5fcdaf", "is_reserved": 0, "fusion_lon": 0.0, "lat": 38.90268433333333, "is_disabled": 0, "name": "61ed78295af96e2e836478ca8d5fcdaf", "fusion_lat": 0.0, "rental_uris": {"ios": "https://dc.lft.to/lastmile_qr_scan", "android": "https://dc.lft.to/lastmile_qr_scan"}, "lon": -77.03834833333333, "type": "electric_scooter"}, {"bike_id": "d25083cccb79a33856db78e786eb7dda", "is_reserved": 0, "fusion_lon": 0.0, "lat": 38.92871783333333, "is_disabled": 0, "name": "d25083cccb79a33856db78e786eb7dda", "fusion_lat": 0.0, "rental_uris": {"ios": "https://dc.lft.to/lastmile_qr_scan", "android": "https://dc.lft.to/lastmile_qr_scan"}, "lon": -77.03240083333333, "type": "electric_scooter"}, {"bike_id": "1583152b087fc6164d3dfe92e09909c0", "is_reserved": 0, "fusion_lon": 0.0, "lat": 38.91808233333333, "is_disabled": 0, "name": "1583152b087fc6164d3dfe92e09909c0", "fusion_lat": 0.0, "rental_uris": {"ios": "https://dc.lft.to/lastmile_qr_scan", "android": "https://dc.lft.to/lastmile_qr_scan"}, "lon": -77.068293, "type": "electric_scooter"}, {"bike_id": "6dc2a4139ea2420bf2476ddc5921154e", "is_reserved": 0, "fusion_lon": 0.0, "lat": 38.884822666666665, "is_disabled": 0, "name": "6dc2a4139ea2420bf2476ddc5921154e", "fusion_lat": 0.0, "rental_uris": {"ios": "https://dc.lft.to/lastmile_qr_scan", "android": "https://dc.lft.to/lastmile_qr_scan"}, "lon": -77.03356633333334, "type": "electric_scooter"}, {"bike_id": "bf3c5a963eaa9acdc62bbc4e93d16013", "is_reserved": 0, "fusion_lon": 0.0, "lat": 38.888580833333336, "is_disabled": 0, "name": "bf3c5a963eaa9acdc62bbc4e93d16013", "fusion_lat": 0.0, "rental_uris": {"ios": "https://dc.lft.to/lastmile_qr_scan", "android": "https://dc.lft.to/lastmile_qr_scan"}, "lon": -77.00118333333333, "type": "electric_scooter"}, {"bike_id": "50c2082433bcca9742a4d3900472e8df", "is_reserved": 0, "fusion_lon": 0.0, "lat": 38.921013, "is_disabled": 0, "name": "50c2082433bcca9742a4d3900472e8df", "fusion_lat": 0.0, "rental_uris": {"ios": "https://dc.lft.to/lastmile_qr_scan", "android": "https://dc.lft.to/lastmile_qr_scan"}, "lon": -77.0633395, "type": "electric_scooter"}, {"bike_id": "3625c80fb791ef73595b9da5907fb257", "is_reserved": 0, "fusion_lon": 0.0, "lat": 38.8921445, "is_disabled": 0, "name": "3625c80fb791ef73595b9da5907fb257", "fusion_lat": 0.0, "rental_uris": {"ios": "https://dc.lft.to/lastmile_qr_scan", "android": "https://dc.lft.to/lastmile_qr_scan"}, "lon": -77.045151, "type": "electric_scooter"}, {"bike_id": "2cd798a6e5a2529a558c5c3002b73f18", "is_reserved": 0, "fusion_lon": 0.0, "lat": 38.898998, "is_disabled": 0, "name": "2cd798a6e5a2529a558c5c3002b73f18", "fusion_lat": 0.0, "rental_uris": {"ios": "https://dc.lft.to/lastmile_qr_scan", "android": "https://dc.lft.to/lastmile_qr_scan"}, "lon": -77.03927783333333, "type": "electric_scooter"}, {"bike_id": "5fe17c9db9ffb863ad292e5c923eac6d", "is_reserved": 0, "fusion_lon": 0.0, "lat": 38.90015833333333, "is_disabled": 0, "name": "5fe17c9db9ffb863ad292e5c923eac6d", "fusion_lat": 0.0, "rental_uris": {"ios": "https://dc.lft.to/lastmile_qr_scan", "android": "https://dc.lft.to/lastmile_qr_scan"}, "lon": -77.00222533333333, "type": "electric_scooter"}, {"bike_id": "4ccc13f9008ace058f4991ff946e9aa5", "is_reserved": 0, "fusion_lon": 0.0, "lat": 38.866646333333335, "is_disabled": 0, "name": "4ccc13f9008ace058f4991ff946e9aa5", "fusion_lat": 0.0, "rental_uris": {"ios": "https://dc.lft.to/lastmile_qr_scan", "android": "https://dc.lft.to/lastmile_qr_scan"}, "lon": -76.989089, "type": "electric_scooter"}, {"bike_id": "da3ed6f0a3ab34c4bc2a02e094792176", "is_reserved": 0, "fusion_lon": 0.0, "lat": 38.91795333333334, "is_disabled": 0, "name": "da3ed6f0a3ab34c4bc2a02e094792176", "fusion_lat": 0.0, "rental_uris": {"ios": "https://dc.lft.to/lastmile_qr_scan", "android": "https://dc.lft.to/lastmile_qr_scan"}, "lon": -77.041616, "type": "electric_scooter"}, {"bike_id": "d66856812d5dce7a258113be3735221d", "is_reserved": 0, "fusion_lon": 0.0, "lat": 38.904872166666664, "is_disabled": 0, "name": "d66856812d5dce7a258113be3735221d", "fusion_lat": 0.0, "rental_uris": {"ios": "https://dc.lft.to/lastmile_qr_scan", "android": "https://dc.lft.to/lastmile_qr_scan"}, "lon": -77.05132716666667, "type": "electric_scooter"}, {"bike_id": "9657d914ff7c1893e4ece32b87147a8b", "is_reserved": 0, "fusion_lon": 0.0, "lat": 38.950915, "is_disabled": 0, "name": "9657d914ff7c1893e4ece32b87147a8b", "fusion_lat": 0.0, "rental_uris": {"ios": "https://dc.lft.to/lastmile_qr_scan", "android": "https://dc.lft.to/lastmile_qr_scan"}, "lon": -77.02830666666667, "type": "electric_scooter"}, {"bike_id": "2f1261db7193dcb1119b5f20285bca2e", "is_reserved": 0, "fusion_lon": 0.0, "lat": 38.89836416666667, "is_disabled": 0, "name": "2f1261db7193dcb1119b5f20285bca2e", "fusion_lat": 0.0, "rental_uris": {"ios": "https://dc.lft.to/lastmile_qr_scan", "android": "https://dc.lft.to/lastmile_qr_scan"}, "lon": -77.0434415, "type": "electric_scooter"}, {"bike_id": "3f1a236be575d47f27bd446f5ad0363a", "is_reserved": 0, "fusion_lon": 0.0, "lat": 38.91820333333333, "is_disabled": 0, "name": "3f1a236be575d47f27bd446f5ad0363a", "fusion_lat": 0.0, "rental_uris": {"ios": "https://dc.lft.to/lastmile_qr_scan", "android": "https://dc.lft.to/lastmile_qr_scan"}, "lon": -77.035357, "type": "electric_scooter"}, {"bike_id": "68360a7d4f3024b883b9755876d6be2e", "is_reserved": 0, "fusion_lon": 0.0, "lat": 38.898460166666666, "is_disabled": 0, "name": "68360a7d4f3024b883b9755876d6be2e", "fusion_lat": 0.0, "rental_uris": {"ios": "https://dc.lft.to/lastmile_qr_scan", "android": "https://dc.lft.to/lastmile_qr_scan"}, "lon": -77.03336966666667, "type": "electric_scooter"}, {"bike_id": "7a6d5ea8856ec2ea35fa05dbd8c7aa5d", "is_reserved": 0, "fusion_lon": 0.0, "lat": 38.92182583333334, "is_disabled": 0, "name": "7a6d5ea8856ec2ea35fa05dbd8c7aa5d", "fusion_lat": 0.0, "rental_uris": {"ios": "https://dc.lft.to/lastmile_qr_scan", "android": "https://dc.lft.to/lastmile_qr_scan"}, "lon": -77.04252216666667, "type": "electric_scooter"}, {"bike_id": "7dab9533e202c6d0ff4fbbc400767293", "is_reserved": 0, "fusion_lon": 0.0, "lat": 38.919800333333335, "is_disabled": 0, "name": "7dab9533e202c6d0ff4fbbc400767293", "fusion_lat": 0.0, "rental_uris": {"ios": "https://dc.lft.to/lastmile_qr_scan", "android": "https://dc.lft.to/lastmile_qr_scan"}, "lon": -77.0218375, "type": "electric_scooter"}, {"bike_id": "2c77c4735985552320fe11bb23f1b14d", "is_reserved": 0, "fusion_lon": 0.0, "lat": 38.902372666666665, "is_disabled": 0, "name": "2c77c4735985552320fe11bb23f1b14d", "fusion_lat": 0.0, "rental_uris": {"ios": "https://dc.lft.to/lastmile_qr_scan", "android": "https://dc.lft.to/lastmile_qr_scan"}, "lon": -77.02696966666667, "type": "electric_scooter"}, {"bike_id": "a60b51caf19ba41113fc8daebd4151ce", "is_reserved": 0, "fusion_lon": 0.0, "lat": 38.9353775, "is_disabled": 0, "name": "a60b51caf19ba41113fc8daebd4151ce", "fusion_lat": 0.0, "rental_uris": {"ios": "https://dc.lft.to/lastmile_qr_scan", "android": "https://dc.lft.to/lastmile_qr_scan"}, "lon": -77.023577, "type": "electric_scooter"}, {"bike_id": "0484e4c4173e7a0048cb4f55cb774f83", "is_reserved": 0, "fusion_lon": 0.0, "lat": 38.919395333333334, "is_disabled": 0, "name": "0484e4c4173e7a0048cb4f55cb774f83", "fusion_lat": 0.0, "rental_uris": {"ios": "https://dc.lft.to/lastmile_qr_scan", "android": "https://dc.lft.to/lastmile_qr_scan"}, "lon": -77.03193866666666, "type": "electric_scooter"}, {"bike_id": "18adcb2319be39f980c19dd5f700311b", "is_reserved": 0, "fusion_lon": 0.0, "lat": 38.919505666666666, "is_disabled": 0, "name": "18adcb2319be39f980c19dd5f700311b", "fusion_lat": 0.0, "rental_uris": {"ios": "https://dc.lft.to/lastmile_qr_scan", "android": "https://dc.lft.to/lastmile_qr_scan"}, "lon": -77.03216566666667, "type": "electric_scooter"}, {"bike_id": "caa29988403ed8170302dabdafa372af", "is_reserved": 0, "fusion_lon": 0.0, "lat": 38.820973, "is_disabled": 0, "name": "caa29988403ed8170302dabdafa372af", "fusion_lat": 0.0, "rental_uris": {"ios": "https://dc.lft.to/lastmile_qr_scan", "android": "https://dc.lft.to/lastmile_qr_scan"}, "lon": -77.05361066666667, "type": "electric_bike"}, {"bike_id": "b66dff20f2f0d08ace3bd5bdc0ff32bc", "is_reserved": 0, "fusion_lon": 0.0, "lat": 38.89890483333333, "is_disabled": 0, "name": "b66dff20f2f0d08ace3bd5bdc0ff32bc", "fusion_lat": 0.0, "rental_uris": {"ios": "https://dc.lft.to/lastmile_qr_scan", "android": "https://dc.lft.to/lastmile_qr_scan"}, "lon": -77.00725916666667, "type": "electric_scooter"}, {"bike_id": "b4ebc93827f9c68919225e299be89854", "is_reserved": 0, "fusion_lon": 0.0, "lat": 38.90378783333333, "is_disabled": 0, "name": "b4ebc93827f9c68919225e299be89854", "fusion_lat": 0.0, "rental_uris": {"ios": "https://dc.lft.to/lastmile_qr_scan", "android": "https://dc.lft.to/lastmile_qr_scan"}, "lon": -77.02024566666667, "type": "electric_scooter"}, {"bike_id": "5bff58167ba59835c2f87de8d2e81abf", "is_reserved": 0, "fusion_lon": 0.0, "lat": 38.91929866666667, "is_disabled": 0, "name": "5bff58167ba59835c2f87de8d2e81abf", "fusion_lat": 0.0, "rental_uris": {"ios": "https://dc.lft.to/lastmile_qr_scan", "android": "https://dc.lft.to/lastmile_qr_scan"}, "lon": -77.03196466666667, "type": "electric_scooter"}, {"bike_id": "8e597f5e04a691055af262d246d58a7c", "is_reserved": 0, "fusion_lon": 0.0, "lat": 38.905156, "is_disabled": 0, "name": "8e597f5e04a691055af262d246d58a7c", "fusion_lat": 0.0, "rental_uris": {"ios": "https://dc.lft.to/lastmile_qr_scan", "android": "https://dc.lft.to/lastmile_qr_scan"}, "lon": -77.061484, "type": "electric_scooter"}, {"bike_id": "0712344192e3ba14b362dec2baca93f6", "is_reserved": 0, "fusion_lon": 0.0, "lat": 38.926159166666665, "is_disabled": 0, "name": "0712344192e3ba14b362dec2baca93f6", "fusion_lat": 0.0, "rental_uris": {"ios": "https://dc.lft.to/lastmile_qr_scan", "android": "https://dc.lft.to/lastmile_qr_scan"}, "lon": -77.03965716666667, "type": "electric_scooter"}, {"bike_id": "7110720045b30a304996c470df9ce04c", "is_reserved": 0, "fusion_lon": 0.0, "lat": 38.904562166666665, "is_disabled": 0, "name": "7110720045b30a304996c470df9ce04c", "fusion_lat": 0.0, "rental_uris": {"ios": "https://dc.lft.to/lastmile_qr_scan", "android": "https://dc.lft.to/lastmile_qr_scan"}, "lon": -76.9950475, "type": "electric_scooter"}, {"bike_id": "5f243627d1b48d2628a2e759ce881df5", "is_reserved": 0, "fusion_lon": 0.0, "lat": 38.8745825, "is_disabled": 0, "name": "5f243627d1b48d2628a2e759ce881df5", "fusion_lat": 0.0, "rental_uris": {"ios": "https://dc.lft.to/lastmile_qr_scan", "android": "https://dc.lft.to/lastmile_qr_scan"}, "lon": -77.00312266666667, "type": "electric_scooter"},