{"data": {"bikes": [{"lon": -76.97619783333333, "bike_id": "e246f75488d62afccb59d7cf259026a4", "lat": 38.92648833333333, "fusion_lon": 0.0, "fusion_lat": 0.0, "type": "electric_scooter", "name": "e246f75488d62afccb59d7cf259026a4", "is_disabled": 0, "rental_uris": {"ios": "https://dc.lft.to/lastmile_qr_scan", "android": "https://dc.lft.to/lastmile_qr_scan"}, "is_reserved": 0}, {"lon": -76.9874945, "bike_id": "a6d39139eed3facecd84c08e60f9f5d4", "lat": 38.90032166666667, "fusion_lon": 0.0, "fusion_lat": 0.0, "type": "electric_scooter", "name": "a6d39139eed3facecd84c08e60f9f5d4", "is_disabled": 0, "rental_uris": {"ios": "https://dc.lft.to/lastmile_qr_scan", "android": "https://dc.lft.to/lastmile_qr_scan"}, "is_reserved": 0}, {"lon": -77.04363066666667, "bike_id": "3676b00be6830c42e89e7cdfed18bc4a", "lat": 38.921411666666664, "fusion_lon": 0.0, "fusion_lat": 0.0, "type": "electric_scooter", "name": "3676b00be6830c42e89e7cdfed18bc4a", "is_disabled": 0, "rental_uris": {"ios": "https://dc.lft.to/lastmile_qr_scan", "android": "https://dc.lft.to/lastmile_qr_scan"}, "is_reserved": 0}, {"lon": -77.01867966666667, "bike_id": "fefa0d722628c3cb5cf7c6eaafab15c9", "lat": 38.95147033333333, "fusion_lon": 0.0, "fusion_lat": 0.0, "type": "electric_scooter", "name": "fefa0d722628c3cb5cf7c6eaafab15c9", "is_disabled": 0, "rental_uris": {"ios": "https://dc.lft.to/lastmile_qr_scan", "android": "https://dc.lft.to/lastmile_qr_scan"}, "is_reserved": 0}, {"lon": -77.01425433333333, "bike_id": "0cbacc9f4cd97df589efcd7f16f7bf7e", "lat": 38.972176833333336, "fusion_lon": 0.0, "fusion_lat": 0.0, "type": "electric_bike", "name": "0cbacc9f4cd97df589efcd7f16f7bf7e", "is_disabled": 0, "rental_uris": {"ios": "https://dc.lft.to/lastmile_qr_scan", "android": "https://dc.lft.to/lastmile_qr_scan"}, "is_reserved": 0}, {"lon": -77.03919816666667, "bike_id": "e82335bbfcc891db3a1637ad34f5b482", "lat": 38.927945333333334, "fusion_lon": 0.0, "fusion_lat": 0.0, "type": "electric_scooter", "name": "e82335bbfcc891db3a1637ad34f5b482", "is_disabled": 0, "rental_uris": {"ios": "https://dc.lft.to/lastmile_qr_scan", "android": "https://dc.lft.to/lastmile_qr_scan"}, "is_reserved": 0}, {"lon": -77.00632483333334, "bike_id": "42b53ab7f3ad05cb9260a863ecd01c67", "lat": 38.900109, "fusion_lon": 0.0, "fusion_lat": 0.0, "type": "electric_scooter", "name": "42b53ab7f3ad05cb9260a863ecd01c67", "is_disabled": 0, "rental_uris": {"ios": "https://dc.lft.to/lastmile_qr_scan", "android": "https://dc.lft.to/lastmile_qr_scan"}, "is_reserved": 0}, {"lon": -77.03304416666667, "bike_id": "35ff8c39c3bd4b5291d2e454fd611671", "lat": 38.90374116666667, "fusion_lon": 0.0, "fusion_lat": 0.0, "type": "electric_scooter", "name": "35ff8c39c3bd4b5291d2e454fd611671", "is_disabled": 0, "rental_uris": {"ios": "https://dc.lft.to/lastmile_qr_scan", "android": "https://dc.lft.to/lastmile_qr_scan"}, "is_reserved": 0}, {"lon": -77.0330895, "bike_id": "e0f0bca226f6fbffd3d71f156d5ad684", "lat": 38.90347833333333, "fusion_lon": 0.0, "fusion_lat": 0.0, "type": "electric_scooter", "name": "e0f0bca226f6fbffd3d71f156d5ad684", "is_disabled": 0, "rental_uris": {"ios": "https://dc.lft.to/lastmile_qr_scan", "android": "https://dc.lft.to/lastmile_qr_scan"}, "is_reserved": 0}, {"lon": -77.0067035, "bike_id": "36a0acbd238454c6d2b1f5fe15b0f8ea", "lat": 38.900156833333334, "fusion_lon": 0.0, "fusion_lat": 0.0, "type": "electric_scooter", "name": "36a0acbd238454c6d2b1f5fe15b0f8ea", "is_disabled": 0, "rental_uris": {"ios": "https://dc.lft.to/lastmile_qr_scan", "android": "https://dc.lft.to/lastmile_qr_scan"}, "is_reserved": 0}, {"lon": -77.03663716666667, "bike_id": "9f8e49aad6a76462f361f6ce648864cf", "lat": 38.932059, "fusion_lon": 0.0, "fusion_lat": 0.0, "type": "electric_scooter", "name": "9f8e49aad6a76462f361f6ce648864cf", "is_disabled": 0, "rental_uris": {"ios": "https://dc.lft.to/lastmile_qr_scan", "android": "https://dc.lft.to/lastmile_qr_scan"}, "is_reserved": 0}, {"lon": -77.02750566666667, "bike_id": "a0b2ae2b9a275a9747ef85957ac053d6", "lat": 38.96567233333333, "fusion_lon": 0.0, "fusion_lat": 0.0, "type": "electric_bike", "name": "a0b2ae2b9a275a9747ef85957ac053d6", "is_disabled": 0, "rental_uris": {"ios": "https://dc.lft.to/lastmile_qr_scan", "android": "https://dc.lft.to/lastmile_qr_scan"}, "is_reserved": 0}, {"lon": -77.01804666666666, "bike_id": "50cfc55b58c6f0494ad15d00a1ecc388", "lat": 38.96482366666667, "fusion_lon": 0.0, "fusion_lat": 0.0, "type": "electric_scooter", "name": "50cfc55b58c6f0494ad15d00a1ecc388", "is_disabled": 0, "rental_uris": {"ios": "https://dc.lft.to/lastmile_qr_scan", "android": "https://dc.lft.to/lastmile_qr_scan"}, "is_reserved": 0}, {"lon": -77.04648883333333, "bike_id": "aa37adb945ddbc45d51f37d625746198", "lat": 39.05500083333333, "fusion_lon": 0.0, "fusion_lat": 0.0, "type": "electric_bike", "name": "aa37adb945ddbc45d51f37d625746198", "is_disabled": 0, "rental_uris": {"ios": "https://dc.lft.to/lastmile_qr_scan", "android": "https://dc.lft.to/lastmile_qr_scan"}, "is_reserved": 0}, {"lon": -76.96125766666667, "bike_id": "d66aab6968052a5a245b0aa90b8674af", "lat": 38.9420785, "fusion_lon": 0.0, "fusion_lat": 0.0, "type": "electric_bike", "name": "d66aab6968052a5a245b0aa90b8674af", "is_disabled": 0, "rental_uris": {"ios": "https://dc.lft.to/lastmile_qr_scan", "android": "https://dc.lft.to/lastmile_qr_scan"}, "is_reserved": 0}, {"lon": -77.055805, "bike_id": "9535ec93f79c7f5ad09c4eca94c6924f", "lat": 38.9335585, "fusion_lon": 0.0, "fusion_lat": 0.0, "type": "electric_scooter", "name": "9535ec93f79c7f5ad09c4eca94c6924f", "is_disabled": 0, "rental_uris": {"ios": "https://dc.lft.to/lastmile_qr_scan", "android": "https://dc.lft.to/lastmile_qr_scan"}, "is_reserved": 0}, {"lon": -77.03877416666667, "bike_id": "56d095fc5f9d0ab27d9f02080e74000b", "lat": 38.948691, "fusion_lon": 0.0, "fusion_lat": 0.0, "type": "electric_scooter", "name": "56d095fc5f9d0ab27d9f02080e74000b", "is_disabled": 0, "rental_uris": {"ios": "https://dc.lft.to/lastmile_qr_scan", "android": "https://dc.lft.to/lastmile_qr_scan"}, "is_reserved": 0}, {"lon": -76.88399583333333, "bike_id": "5b0234c5e38aa73b8a3a039381bba034", "lat": 38.931679, "fusion_lon": 0.0, "fusion_lat": 0.0, "type": "electric_bike", "name": "5b0234c5e38aa73b8a3a039381bba034", "is_disabled": 0, "rental_uris": {"ios": "https://dc.lft.to/lastmile_qr_scan", "android": "https://dc.lft.to/lastmile_qr_scan"}, "is_reserved": 0}, {"lon": -77.16230216666666, "bike_id": "9fc998706f878e6650dfc6f6165491d8", "lat": 38.886514, "fusion_lon": 0.0, "fusion_lat": 0.0, "type": "electric_bike", "name": "9fc998706f878e6650dfc6f6165491d8", "is_disabled": 0, "rental_uris": {"ios": "https://dc.lft.to/lastmile_qr_scan", "android": "https://dc.lft.to/lastmile_qr_scan"}, "is_reserved": 0}, {"lon": -77.0603595, "bike_id": "930717cb9b0e9344213f76073c44cc57", "lat": 38.9335485, "fusion_lon": 0.0, "fusion_lat": 0.0, "type": "electric_scooter", "name": "930717cb9b0e9344213f76073c44cc57", "is_disabled": 0, "rental_uris": {"ios": "https://dc.lft.to/lastmile_qr_scan", "android": "https://dc.lft.to/lastmile_qr_scan"}, "is_reserved": 0}, {"lon": -76.95653166666666, "bike_id": "c77ca243539cb8a63280fd1655fd930c", "lat": 38.89621483333333, "fusion_lon": 0.0, "fusion_lat": 0.0, "type": "electric_scooter", "name": "c77ca243539cb8a63280fd1655fd930c", "is_disabled": 0, "rental_uris": {"ios": "https://dc.lft.to/lastmile_qr_scan", "android": "https://dc.lft.to/lastmile_qr_scan"}, "is_reserved": 0}, {"lon": -77.00558983333333, "bike_id": "ea7f7ff31f372512c93cd2b9c30a9b5a", "lat": 38.903836, "fusion_lon": 0.0, "fusion_lat": 0.0, "type": "electric_scooter", "name": "ea7f7ff31f372512c93cd2b9c30a9b5a", "is_disabled": 0, "rental_uris": {"ios": "https://dc.lft.to/lastmile_qr_scan", "android": "https://dc.lft.to/lastmile_qr_scan"}, "is_reserved": 0}, {"lon": -77.03150216666667, "bike_id": "1f94e0a318b8dfbd9fec83523ceeac42", "lat": 38.928624, "fusion_lon": 0.0, "fusion_lat": 0.0, "type": "electric_scooter", "name": "1f94e0a318b8dfbd9fec83523ceeac42", "is_disabled": 0, "rental_uris": {"ios": "https://dc.lft.to/lastmile_qr_scan", "android": "https://dc.lft.to/lastmile_qr_scan"}, "is_reserved": 0}, {"lon": -77.0278935, "bike_id": "543e3e75de7b01d84dfdfbe62d2397af", "lat": 38.9169425, "fusion_lon": 0.0, "fusion_lat": 0.0, "type": "electric_scooter", "name": "543e3e75de7b01d84dfdfbe62d2397af", "is_disabled": 0, "rental_uris": {"ios": "https://dc.lft.to/lastmile_qr_scan", "android": "https://dc.lft.to/lastmile_qr_scan"}, "is_reserved": 0}, {"lon": -76.99832816666667, "bike_id": "5e0069e84389a7b81293c26cad0a05e5", "lat": 38.9050125, "fusion_lon": 0.0, "fusion_lat": 0.0, "type": "electric_scooter", "name": "5e0069e84389a7b81293c26cad0a05e5", "is_disabled": 0, "rental_uris": {"ios": "https://dc.lft.to/lastmile_qr_scan", "android": "https://dc.lft.to/lastmile_qr_scan"}, "is_reserved": 0}, {"lon": -76.9761715, "bike_id": "ac87165d93c7286b08290ddd5cb99084", "lat": 38.903841, "fusion_lon": 0.0, "fusion_lat": 0.0, "type": "electric_scooter", "name": "ac87165d93c7286b08290ddd5cb99084", "is_disabled": 0, "rental_uris": {"ios": "https://dc.lft.to/lastmile_qr_scan", "android": "https://dc.lft.to/lastmile_qr_scan"}, "is_reserved": 0}, {"lon": -76.997738, "bike_id": "3725a8579f214c5606b2e0094786e1af", "lat": 38.922899666666666, "fusion_lon": 0.0, "fusion_lat": 0.0, "type": "electric_scooter", "name": "3725a8579f214c5606b2e0094786e1af", "is_disabled": 0, "rental_uris": {"ios": "https://dc.lft.to/lastmile_qr_scan", "android": "https://dc.lft.to/lastmile_qr_scan"}, "is_reserved": 0}, {"lon": -77.04730466666666, "bike_id": "564b9a6736aa5a459f4757b63249e08e", "lat": 38.92238366666667, "fusion_lon": 0.0, "fusion_lat": 0.0, "type": "electric_scooter", "name": "564b9a6736aa5a459f4757b63249e08e", "is_disabled": 0, "rental_uris": {"ios": "https://dc.lft.to/lastmile_qr_scan", "android": "https://dc.lft.to/lastmile_qr_scan"}, "is_reserved": 0}, {"lon": -77.02904766666667, "bike_id": "498a6fed0279d4a096e58776817762b2", "lat": 38.90381466666667, "fusion_lon": 0.0, "fusion_lat": 0.0, "type": "electric_scooter", "name": "498a6fed0279d4a096e58776817762b2", "is_disabled": 0, "rental_uris": {"ios": "https://dc.lft.to/lastmile_qr_scan", "android": "https://dc.lft.to/lastmile_qr_scan"}, "is_reserved": 0}, {"lon": -77.03834883333333, "bike_id": "e63964d6f94afc587569271a37ae2033", "lat": 38.9148565, "fusion_lon": 0.0, "fusion_lat": 0.0, "type": "electric_scooter", "name": "e63964d6f94afc587569271a37ae2033", "is_disabled": 0, "rental_uris": {"ios": "https://dc.lft.to/lastmile_qr_scan", "android": "https://dc.lft.to/lastmile_qr_scan"}, "is_reserved": 0}, {"lon": -76.9361, "bike_id": "ee2a7a1fce20fed82acffeba2e6325a6", "lat": 38.89682116666667, "fusion_lon": 0.0, "fusion_lat": 0.0, "type": "electric_scooter", "name": "ee2a7a1fce20fed82acffeba2e6325a6", "is_disabled": 0, "rental_uris": {"ios": "https://dc.lft.to/lastmile_qr_scan", "android": "https://dc.lft.to/lastmile_qr_scan"}, "is_reserved": 0}, {"lon": -76.9635695, "bike_id": "6ace8a455635d3dc28e6704aad8c5f40", "lat": 38.9349985, "fusion_lon": 0.0, "fusion_lat": 0.0, "type": "electric_scooter", "name": "6ace8a455635d3dc28e6704aad8c5f40", "is_disabled": 0, "rental_uris": {"ios": "https://dc.lft.to/lastmile_qr_scan", "android": "https://dc.lft.to/lastmile_qr_scan"}, "is_reserved": 0}, {"lon": -77.0447505, "bike_id": "caca6b7bb81e84c80374e1d60ffa7e6b", "lat": 38.91868816666667, "fusion_lon": 0.0, "fusion_lat": 0.0, "type": "electric_scooter", "name": "caca6b7bb81e84c80374e1d60ffa7e6b", "is_disabled": 0, "rental_uris": {"ios": "https://dc.lft.to/lastmile_qr_scan", "android": "https://dc.lft.to/lastmile_qr_scan"}, "is_reserved": 0}, {"lon": -77.00058866666667, "bike_id": "ff8c6602bdbc3c72ef3728b8ae8ddd0c", "lat": 38.9242665, "fusion_lon": 0.0, "fusion_lat": 0.0, "type": "electric_scooter", "name": "ff8c6602bdbc3c72ef3728b8ae8ddd0c", "is_disabled": 0, "rental_uris": {"ios": "https://dc.lft.to/lastmile_qr_scan", "android": "https://dc.lft.to/lastmile_qr_scan"}, "is_reserved": 0}, {"lon": -77.00913783333333, "bike_id": "a85fde682be47b127d759a686b950881", "lat": 38.8278125, "fusion_lon": 0.0, "fusion_lat": 0.0, "type": "electric_bike", "name": "a85fde682be47b127d759a686b950881", "is_disabled": 0, "rental_uris": {"ios": "https://dc.lft.to/lastmile_qr_scan", "android": "https://dc.lft.to/lastmile_qr_scan"}, "is_reserved": 0}, {"lon": -76.99012966666666, "bike_id": "c56f084b4dcbcad82642504895268099", "lat": 38.945944833333336, "fusion_lon": 0.0, "fusion_lat": 0.0, "type": "electric_scooter", "name": "c56f084b4dcbcad82642504895268099", "is_disabled": 0, "rental_uris": {"ios": "https://dc.lft.to/lastmile_qr_scan", "android": "https://dc.lft.to/lastmile_qr_scan"}, "is_reserved": 0}, {"lon": -76.993666, "bike_id": "7fc8faaab621d328262ed62efee15628", "lat": 38.940249666666666, "fusion_lon": 0.0, "fusion_lat": 0.0, "type": "electric_scooter", "name": "7fc8faaab621d328262ed62efee15628", "is_disabled": 0, "rental_uris": {"ios": "https://dc.lft.to/lastmile_qr_scan", "android": "https://dc.lft.to/lastmile_qr_scan"}, "is_reserved": 0}, {"lon": -77.03865366666666, "bike_id": "d628c49cb6879dfa6049f8cfd0770ccc", "lat": 38.920070833333334, "fusion_lon": 0.0, "fusion_lat": 0.0, "type": "electric_scooter", "name": "d628c49cb6879dfa6049f8cfd0770ccc", "is_disabled": 0, "rental_uris": {"ios": "https://dc.lft.to/lastmile_qr_scan", "android": "https://dc.lft.to/lastmile_qr_scan"}, "is_reserved": 0}, {"lon": -77.0366185, "bike_id": "96bb595d6e73b841aa60ec5eff22e6a2", "lat": 38.929847333333335, "fusion_lon": 0.0, "fusion_lat": 0.0, "type": "electric_scooter", "name": "96bb595d6e73b841aa60ec5eff22e6a2", "is_disabled": 0, "rental_uris": {"ios": "https://dc.lft.to/lastmile_qr_scan", "android": "https://dc.lft.to/lastmile_qr_scan"}, "is_reserved": 0}, {"lon": -77.051421, "bike_id": "772af44904b8fcc6bf4166dbf593ae58", "lat": 38.898524333333334, "fusion_lon": 0.0, "fusion_lat": 0.0, "type": "electric_scooter", "name": "772af44904b8fcc6bf4166dbf593ae58", "is_disabled": 0, "rental_uris": {"ios": "https://dc.lft.to/lastmile_qr_scan", "android": "https://dc.lft.to/lastmile_qr_scan"}, "is_reserved": 0}, {"lon": -76.998485, "bike_id": "81c0abc605e5c6b06f1f26693524ed7c", "lat": 38.90101583333333, "fusion_lon": 0.0, "fusion_lat": 0.0, "type": "electric_scooter", "name": "81c0abc605e5c6b06f1f26693524ed7c", "is_disabled": 0, "rental_uris": {"ios": "https://dc.lft.to/lastmile_qr_scan", "android": "https://dc.lft.to/lastmile_qr_scan"}, "is_reserved": 0}, {"lon": -77.04977966666667, "bike_id": "6ae30099a396e28c760d70cdbce72ad5", "lat": 39.062935, "fusion_lon": 0.0, "fusion_lat": 0.0, "type": "electric_bike", "name": "6ae30099a396e28c760d70cdbce72ad5", "is_disabled": 0, "rental_uris": {"ios": "https://dc.lft.to/lastmile_qr_scan", "android": "https://dc.lft.to/lastmile_qr_scan"}, "is_reserved": 0}, {"lon": -77.02432216666666, "bike_id": "09a08067299676fee33213c9b1f53606", "lat": 38.92262133333333, "fusion_lon": 0.0, "fusion_lat": 0.0, "type": "electric_scooter", "name": "09a08067299676fee33213c9b1f53606", "is_disabled": 0, "rental_uris": {"ios": "https://dc.lft.to/lastmile_qr_scan", "android": "https://dc.lft.to/lastmile_qr_scan"}, "is_reserved": 0}, {"lon": -77.033108, "bike_id": "20156db110c5b578d0d90420b0a01996", "lat": 38.91562033333334, "fusion_lon": 0.0, "fusion_lat": 0.0, "type": "electric_scooter", "name": "20156db110c5b578d0d90420b0a01996", "is_disabled": 0, "rental_uris": {"ios": "https://dc.lft.to/lastmile_qr_scan", "android": "https://dc.lft.to/lastmile_qr_scan"}, "is_reserved": 0}, {"lon": -77.03722, "bike_id": "4b734f4c2bdafffb9a108cedaa5f9892", "lat": 38.913694166666666, "fusion_lon": 0.0, "fusion_lat": 0.0, "type": "electric_scooter", "name": "4b734f4c2bdafffb9a108cedaa5f9892", "is_disabled": 0, "rental_uris": {"ios": "https://dc.lft.to/lastmile_qr_scan", "android": "https://dc.lft.to/lastmile_qr_scan"}, "is_reserved": 0}, {"lon": -77.01158483333333, "bike_id": "ab41f289ceefed0f4a1beb95ef6adbd1", "lat": 38.91404566666667, "fusion_lon": 0.0, "fusion_lat": 0.0, "type": "electric_scooter", "name": "ab41f289ceefed0f4a1beb95ef6adbd1", "is_disabled": 0, "rental_uris": {"ios": "https://dc.lft.to/lastmile_qr_scan", "android": "https://dc.lft.to/lastmile_qr_scan"}, "is_reserved": 0}, {"lon": -77.02555083333333, "bike_id": "665d6782edb7611a9a6d7a902e2068e1", "lat": 38.91685183333333, "fusion_lon": 0.0, "fusion_lat": 0.0, "type": "electric_scooter", "name": "665d6782edb7611a9a6d7a902e2068e1", "is_disabled": 0, "rental_uris": {"ios": "https://dc.lft.to/lastmile_qr_scan", "android": "https://dc.lft.to/lastmile_qr_scan"}, "is_reserved": 0}, {"lon": -77.05859633333333, "bike_id": "67415862d243550a152b8e53781e5440", "lat": 38.936068, "fusion_lon": 0.0, "fusion_lat": 0.0, "type": "electric_scooter", "name": "67415862d243550a152b8e53781e5440", "is_disabled": 0, "rental_uris": {"ios": "https://dc.lft.to/lastmile_qr_scan", "android": "https://dc.lft.to/lastmile_qr_scan"}, "is_reserved": 0}, {"lon": -77.030734, "bike_id": "0372525abae926def9c21cd171e7b9ee", "lat": 38.902718, "fusion_lon": 0.0, "fusion_lat": 0.0, "type": "electric_scooter", "name": "0372525abae926def9c21cd171e7b9ee", "is_disabled": 0, "rental_uris": {"ios": "https://dc.lft.to/lastmile_qr_scan", "android": "https://dc.lft.to/lastmile_qr_scan"}, "is_reserved": 0}, {"lon": -77.05505783333334, "bike_id": "1dfdd2dcb8b52df09dbc644b8184e244", "lat": 38.899728833333334, "fusion_lon": 0.0, "fusion_lat": 0.0, "type": "electric_scooter", "name": "1dfdd2dcb8b52df09dbc644b8184e244", "is_disabled": 0, "rental_uris": {"ios": "https://dc.lft.to/lastmile_qr_scan", "android": "https://dc.lft.to/lastmile_qr_scan"}, "is_reserved": 0}, {"lon": -77.036539, "bike_id": "0342c161341231db6a3560f5ba7d3fd7", "lat": 38.92091933333333, "fusion_lon": 0.0, "fusion_lat": 0.0, "type": "electric_scooter", "name": "0342c161341231db6a3560f5ba7d3fd7", "is_disabled": 0, "rental_uris": {"ios": "https://dc.lft.to/lastmile_qr_scan", "android": "https://dc.lft.to/lastmile_qr_scan"}, "is_reserved": 0}, {"lon": -77.02128483333334, "bike_id": "9de46a7c713a1986b1f58e974e2fa463", "lat": 38.901026333333334, "fusion_lon": 0.0, "fusion_lat": 0.0, "type": "electric_scooter", "name": "9de46a7c713a1986b1f58e974e2fa463", "is_disabled": 0, "rental_uris": {"ios": "https://dc.lft.to/lastmile_qr_scan", "android": "https://dc.lft.to/lastmile_qr_scan"}, "is_reserved": 0}, {"lon": -77.02757166666666, "bike_id": "5fe3e1a2a46c3d7e08b7ff789b1de0a6", "lat": 38.94398283333334, "fusion_lon": 0.0, "fusion_lat": 0.0, "type": "electric_scooter", "name": "5fe3e1a2a46c3d7e08b7ff789b1de0a6", "is_disabled": 0, "rental_uris": {"ios": "https://dc.lft.to/lastmile_qr_scan", "android": "https://dc.lft.to/lastmile_qr_scan"}, "is_reserved": 0}, {"lon": -77.02643766666667, "bike_id": "3bb7cc0999855254e471d33016e0a2e1", "lat": 38.90945633333333, "fusion_lon": 0.0, "fusion_lat": 0.0, "type": "electric_scooter", "name": "3bb7cc0999855254e471d33016e0a2e1", "is_disabled": 0, "rental_uris": {"ios": "https://dc.lft.to/lastmile_qr_scan", "android": "https://dc.lft.to/lastmile_qr_scan"}, "is_reserved": 0}, {"lon": -77.02207066666666, "bike_id": "68aba4bf7c801e655f9bad7ac03e4c16", "lat": 38.909822, "fusion_lon": 0.0, "fusion_lat": 0.0, "type": "electric_scooter", "name": "68aba4bf7c801e655f9bad7ac03e4c16", "is_disabled": 0, "rental_uris": {"ios": "https://dc.lft.to/lastmile_qr_scan", "android": "https://dc.lft.to/lastmile_qr_scan"}, "is_reserved": 0}, {"lon": -77.00563916666667, "bike_id": "9117e6dadca1602408b6cbb994ad8ebb", "lat": 38.87441233333333, "fusion_lon": 0.0, "fusion_lat": 0.0, "type": "electric_scooter", "name": "9117e6dadca1602408b6cbb994ad8ebb", "is_disabled": 0, "rental_uris": {"ios": "https://dc.lft.to/lastmile_qr_scan", "android": "https://dc.lft.to/lastmile_qr_scan"}, "is_reserved": 0}, {"lon": -77.0332135, "bike_id": "fb04e9754683b18e2847598daa9c0680", "lat": 38.9156135, "fusion_lon": 0.0, "fusion_lat": 0.0, "type": "electric_scooter", "name": "fb04e9754683b18e2847598daa9c0680", "is_disabled": 0, "rental_uris": {"ios": "https://dc.lft.to/lastmile_qr_scan", "android": "https://dc.lft.to/lastmile_qr_scan"}, "is_reserved": 0}, {"lon": -76.98556933333333, "bike_id": "50013d50d258524937df253f599bd5d9", "lat": 38.91033766666666, "fusion_lon": 0.0, "fusion_lat": 0.0, "type": "electric_scooter", "name": "50013d50d258524937df253f599bd5d9", "is_disabled": 0, "rental_uris": {"ios": "https://dc.lft.to/lastmile_qr_scan", "android": "https://dc.lft.to/lastmile_qr_scan"}, "is_reserved": 0}, {"lon": -77.041214, "bike_id": "45b14e07a2f08008b17e24e1bb1f0758", "lat": 38.944084333333336, "fusion_lon": 0.0, "fusion_lat": 0.0, "type": "electric_bike", "name": "45b14e07a2f08008b17e24e1bb1f0758", "is_disabled": 0, "rental_uris": {"ios": "https://dc.lft.to/lastmile_qr_scan", "android": "https://dc.lft.to/lastmile_qr_scan"}, "is_reserved": 0}, {"lon": -77.026416, "bike_id": "f4b01164ad3beae6e25ab293d3fb1d56", "lat": 38.93384116666667, "fusion_lon": 0.0, "fusion_lat": 0.0, "type": "electric_scooter", "name": "f4b01164ad3beae6e25ab293d3fb1d56", "is_disabled": 0, "rental_uris": {"ios": "https://dc.lft.to/lastmile_qr_scan", "android": "https://dc.lft.to/lastmile_qr_scan"}, "is_reserved": 0}, {"lon": -77.08189583333333, "bike_id": "70f4bc6f79f906cb30c51dba394ff668", "lat": 38.9221255, "fusion_lon": 0.0, "fusion_lat": 0.0, "type": "electric_bike", "name": "70f4bc6f79f906cb30c51dba394ff668", "is_disabled": 0, "rental_uris": {"ios": "https://dc.lft.to/lastmile_qr_scan", "android": "https://dc.lft.to/lastmile_qr_scan"}, "is_reserved": 0}, {"lon": -77.01668216666667, "bike_id": "afeb8ea9af96094547c1877531c7cfdd", "lat": 38.881415833333335, "fusion_lon": 0.0, "fusion_lat": 0.0, "type": "electric_scooter", "name": "afeb8ea9af96094547c1877531c7cfdd", "is_disabled": 0, "rental_uris": {"ios": "https://dc.lft.to/lastmile_qr_scan", "android": "https://dc.lft.to/lastmile_qr_scan"}, "is_reserved": 0}, {"lon": -77.022801, "bike_id": "6b1f3edd2b8e6158edd611dfe057f00f", "lat": 38.90957866666667, "fusion_lon": 0.0, "fusion_lat": 0.0, "type": "electric_scooter", "name": "6b1f3edd2b8e6158edd611dfe057f00f", "is_disabled": 0, "rental_uris": {"ios": "https://dc.lft.to/lastmile_qr_scan", "android": "https://dc.lft.to/lastmile_qr_scan"}, "is_reserved": 0}, {"lon": -77.02978216666666, "bike_id": "7eb3f4567651a3f7b15c9f48b5f9535b", "lat": 38.932827333333336, "fusion_lon": 0.0, "fusion_lat": 0.0, "type": "electric_scooter", "name": "7eb3f4567651a3f7b15c9f48b5f9535b", "is_disabled": 0, "rental_uris": {"ios": "https://dc.lft.to/lastmile_qr_scan", "android": "https://dc.lft.to/lastmile_qr_scan"}, "is_reserved": 0}, {"lon": -77.0394405, "bike_id": "1bb70c681e2914d825cbfb23ec02264c", "lat": 38.930670166666665, "fusion_lon": 0.0, "fusion_lat": 0.0, "type": "electric_scooter", "name": "1bb70c681e2914d825cbfb23ec02264c", "is_disabled": 0, "rental_uris": {"ios": "https://dc.lft.to/lastmile_qr_scan", "android": "https://dc.lft.to/lastmile_qr_scan"}, "is_reserved": 0}, {"lon": -77.043357, "bike_id": "0994bc3ed802ad62ea48994a4e7a912b", "lat": 38.929655833333335, "fusion_lon": 0.0, "fusion_lat": 0.0, "type": "electric_scooter", "name": "0994bc3ed802ad62ea48994a4e7a912b", "is_disabled": 0, "rental_uris": {"ios": "https://dc.lft.to/lastmile_qr_scan", "android": "https://dc.lft.to/lastmile_qr_scan"}, "is_reserved": 0}, {"lon": -77.02312066666667, "bike_id": "742dc39fb419ca90de029afa83f42381", "lat": 38.91843733333333, "fusion_lon": 0.0, "fusion_lat": 0.0, "type": "electric_scooter", "name": "742dc39fb419ca90de029afa83f42381", "is_disabled": 0, "rental_uris": {"ios": "https://dc.lft.to/lastmile_qr_scan", "android": "https://dc.lft.to/lastmile_qr_scan"}, "is_reserved": 0}, {"lon": -76.9817935, "bike_id": "b5007b2477df57f68e573eb6ca026753", "lat": 38.895777, "fusion_lon": 0.0, "fusion_lat": 0.0, "type": "electric_scooter", "name": "b5007b2477df57f68e573eb6ca026753", "is_disabled": 0, "rental_uris": {"ios": "https://dc.lft.to/lastmile_qr_scan", "android": "https://dc.lft.to/lastmile_qr_scan"}, "is_reserved": 0}, {"lon": -77.03297866666666, "bike_id": "b41a4674974712f4ec04bc68fb86cb43", "lat": 38.89226016666667, "fusion_lon": 0.0, "fusion_lat": 0.0, "type": "electric_scooter", "name": "b41a4674974712f4ec04bc68fb86cb43", "is_disabled": 0, "rental_uris": {"ios": "https://dc.lft.to/lastmile_qr_scan", "android": "https://dc.lft.to/lastmile_qr_scan"}, "is_reserved": 0}, {"lon": -76.98364716666667, "bike_id": "5a78589e334b099f8633f7ef85de78e0", "lat": 38.8997755, "fusion_lon": 0.0, "fusion_lat": 0.0, "type": "electric_scooter", "name": "5a78589e334b099f8633f7ef85de78e0", "is_disabled": 0, "rental_uris": {"ios": "https://dc.lft.to/lastmile_qr_scan", "android": "https://dc.lft.to/lastmile_qr_scan"}, "is_reserved": 0}, {"lon": -77.042264, "bike_id": "7d8910409bfb49bd979f88c34445d4fa", "lat": 38.92185283333333, "fusion_lon": 0.0, "fusion_lat": 0.0, "type": "electric_scooter", "name": "7d8910409bfb49bd979f88c34445d4fa", "is_disabled": 0, "rental_uris": {"ios": "https://dc.lft.to/lastmile_qr_scan", "android": "https://dc.lft.to/lastmile_qr_scan"}, "is_reserved": 0}, {"lon": -77.02287766666667, "bike_id": "91595d03dd712295f0566a3ee4b4a790", "lat": 38.90975516666666, "fusion_lon": 0.0, "fusion_lat": 0.0, "type": "electric_scooter", "name": "91595d03dd712295f0566a3ee4b4a790", "is_disabled": 0, "rental_uris": {"ios": "https://dc.lft.to/lastmile_qr_scan", "android": "https://dc.lft.to/lastmile_qr_scan"}, "is_reserved": 0}, {"lon": -76.93367016666667, "bike_id": "c0e5cc09d0392574289a0d57ef6dd029", "lat": 38.89914, "fusion_lon": 0.0, "fusion_lat": 0.0, "type": "electric_scooter", "name": "c0e5cc09d0392574289a0d57ef6dd029", "is_disabled": 0, "rental_uris": {"ios": "https://dc.lft.to/lastmile_qr_scan", "android": "https://dc.lft.to/lastmile_qr_scan"}, "is_reserved": 0}, {"lon": -77.03542866666666, "bike_id": "bd40a33f480d333f922a6f704480e280", "lat": 38.9259135, "fusion_lon": 0.0, "fusion_lat": 0.0, "type": "electric_scooter", "name": "bd40a33f480d333f922a6f704480e280", "is_disabled": 0, "rental_uris": {"ios": "https://dc.lft.to/lastmile_qr_scan", "android": "https://dc.lft.to/lastmile_qr_scan"}, "is_reserved": 0}, {"lon": -77.01262283333334, "bike_id": "df3657dfe552ea2087294d7a26d4d619", "lat": 38.91542116666667, "fusion_lon": 0.0, "fusion_lat": 0.0, "type": "electric_bike", "name": "df3657dfe552ea2087294d7a26d4d619", "is_disabled": 0, "rental_uris": {"ios": "https://dc.lft.to/lastmile_qr_scan", "android": "https://dc.lft.to/lastmile_qr_scan"}, "is_reserved": 0}, {"lon": -77.02287716666666, "bike_id": "eca218be3ea7596083695f78e0d1450c", "lat": 38.90973283333334, "fusion_lon": 0.0, "fusion_lat": 0.0, "type": "electric_scooter", "name": "eca218be3ea7596083695f78e0d1450c", "is_disabled": 0, "rental_uris": {"ios": "https://dc.lft.to/lastmile_qr_scan", "android": "https://dc.lft.to/lastmile_qr_scan"}, "is_reserved": 0}, {"lon": -77.03469716666666, "bike_id": "5fb475367fb9e7cc0a7c5f6b0d4976fa", "lat": 38.921604333333335, "fusion_lon": 0.0, "fusion_lat": 0.0, "type": "electric_scooter", "name": "5fb475367fb9e7cc0a7c5f6b0d4976fa", "is_disabled": 0, "rental_uris": {"ios": "https://dc.lft.to/lastmile_qr_scan", "android": "https://dc.lft.to/lastmile_qr_scan"}, "is_reserved": 0}, {"lon": -76.99696016666667, "bike_id": "50b07f661498cc641161477fa5b26738", "lat": 38.9083735, "fusion_lon": 0.0, "fusion_lat": 0.0, "type": "electric_scooter", "name": "50b07f661498cc641161477fa5b26738", "is_disabled": 0, "rental_uris": {"ios": "https://dc.lft.to/lastmile_qr_scan", "android": "https://dc.lft.to/lastmile_qr_scan"}, "is_reserved": 0}, {"lon": -76.9729855, "bike_id": "ce7ac7e9f468851852ece63451c32933", "lat": 38.88745766666667, "fusion_lon": 0.0, "fusion_lat": 0.0, "type": "electric_scooter", "name": "ce7ac7e9f468851852ece63451c32933", "is_disabled": 0, "rental_uris": {"ios": "https://dc.lft.to/lastmile_qr_scan", "android": "https://dc.lft.to/lastmile_qr_scan"}, "is_reserved": 0}, {"lon": -77.03851816666666, "bike_id": "1523fef901133082548d36ad65ec475e", "lat": 38.902748, "fusion_lon": 0.0, "fusion_lat": 0.0, "type": "electric_scooter", "name": "1523fef901133082548d36ad65ec475e", "is_disabled": 0, "rental_uris": {"ios": "https://dc.lft.to/lastmile_qr_scan", "android": "https://dc.lft.to/lastmile_qr_scan"}, "is_reserved": 0}, {"lon": -77.03042266666667, "bike_id": "f73ea0c017d85903bafff22c0491763f", "lat": 38.88396183333333, "fusion_lon": 0.0, "fusion_lat": 0.0, "type": "electric_scooter", "name": "f73ea0c017d85903bafff22c0491763f", "is_disabled": 0, "rental_uris": {"ios": "https://dc.lft.to/lastmile_qr_scan", "android": "https://dc.lft.to/lastmile_qr_scan"}, "is_reserved": 0}, {"lon": -77.0274395, "bike_id": "c2a94ff879a1ce38fb71cdf128f2e3eb", "lat": 38.94182883333333, "fusion_lon": 0.0, "fusion_lat": 0.0, "type": "electric_scooter", "name": "c2a94ff879a1ce38fb71cdf128f2e3eb", "is_disabled": 0, "rental_uris": {"ios": "https://dc.lft.to/lastmile_qr_scan", "android": "https://dc.lft.to/lastmile_qr_scan"}, "is_reserved": 0}, {"lon": -76.99460016666667, "bike_id": "6bfe00c38270ec1f6d9b90d5d27044a4", "lat": 38.940661, "fusion_lon": 0.0, "fusion_lat": 0.0, "type": "electric_scooter", "name": "6bfe00c38270ec1f6d9b90d5d27044a4", "is_disabled": 0, "rental_uris": {"ios": "https://dc.lft.to/lastmile_qr_scan", "android": "https://dc.lft.to/lastmile_qr_scan"}, "is_reserved": 0}, {"lon": -77.03828366666667, "bike_id": "ccb6e7b66452b8fc939896b1f3b24534", "lat": 38.91693133333333, "fusion_lon": 0.0, "fusion_lat": 0.0, "type": "electric_scooter", "name": "ccb6e7b66452b8fc939896b1f3b24534", "is_disabled": 0, "rental_uris": {"ios": "https://dc.lft.to/lastmile_qr_scan", "android": "https://dc.lft.to/lastmile_qr_scan"}, "is_reserved": 0}, {"lon": -76.98801283333333, "bike_id": "193051cfe8729f8a0a7c20d1e8f8ec69", "lat": 38.86732533333333, "fusion_lon": 0.0, "fusion_lat": 0.0, "type": "electric_scooter", "name": "193051cfe8729f8a0a7c20d1e8f8ec69", "is_disabled": 0, "rental_uris": {"ios": "https://dc.lft.to/lastmile_qr_scan", "android": "https://dc.lft.to/lastmile_qr_scan"}, "is_reserved": 0}, {"lon": -76.976703, "bike_id": "22b6c0e70107bb526afb65df37837251", "lat": 38.952450166666665, "fusion_lon": 0.0, "fusion_lat": 0.0, "type": "electric_bike", "name": "22b6c0e70107bb526afb65df37837251", "is_disabled": 0, "rental_uris": {"ios": "https://dc.lft.to/lastmile_qr_scan", "android": "https://dc.lft.to/lastmile_qr_scan"}, "is_reserved": 0}, {"lon": -77.07916583333333, "bike_id": "c48187428fd7e59c6fa2376452081bb9", "lat": 38.930983833333336, "fusion_lon": 0.0, "fusion_lat": 0.0, "type": "electric_scooter", "name": "c48187428fd7e59c6fa2376452081bb9", "is_disabled": 0, "rental_uris": {"ios": "https://dc.lft.to/lastmile_qr_scan", "android": "https://dc.lft.to/lastmile_qr_scan"}, "is_reserved": 0}, {"lon": -77.03602333333333, "bike_id": "7e323a8d33b1be3c1f0c8086922484b2", "lat": 38.9394335, "fusion_lon": 0.0, "fusion_lat": 0.0, "type": "electric_scooter", "name": "7e323a8d33b1be3c1f0c8086922484b2", "is_disabled": 0, "rental_uris": {"ios": "https://dc.lft.to/lastmile_qr_scan", "android": "https://dc.lft.to/lastmile_qr_scan"}, "is_reserved": 0}, {"lon": -77.02442983333333, "bike_id": "d91d2224388b1cb65f47db5caabfc79d", "lat": 38.9251225, "fusion_lon": 0.0, "fusion_lat": 0.0, "type": "electric_scooter", "name": "d91d2224388b1cb65f47db5caabfc79d", "is_disabled": 0, "rental_uris": {"ios": "https://dc.lft.to/lastmile_qr_scan", "android": "https://dc.lft.to/lastmile_qr_scan"}, "is_reserved": 0}, {"lon": -77.00676566666667, "bike_id": "065949c67133e6f32abcedcd9c7f6bde", "lat": 38.90018883333333, "fusion_lon": 0.0, "fusion_lat": 0.0, "type": "electric_scooter", "name": "065949c67133e6f32abcedcd9c7f6bde", "is_disabled": 0, "rental_uris": {"ios": "https://dc.lft.to/lastmile_qr_scan", "android": "https://dc.lft.to/lastmile_qr_scan"}, "is_reserved": 0}, {"lon": -77.02416583333333, "bike_id": "b12a5ca344c0c67c329abb4213ac1018", "lat": 38.8922935, "fusion_lon": 0.0, "fusion_lat": 0.0, "type": "electric_scooter", "name": "b12a5ca344c0c67c329abb4213ac1018", "is_disabled": 0, "rental_uris": {"ios": "https://dc.lft.to/lastmile_qr_scan", "android": "https://dc.lft.to/lastmile_qr_scan"}, "is_reserved": 0}, {"lon": -77.018082, "bike_id": "0d4b3988228f7b7501de062cff8bc418", "lat": 38.90427316666667, "fusion_lon": 0.0, "fusion_lat": 0.0, "type": "electric_scooter", "name": "0d4b3988228f7b7501de062cff8bc418", "is_disabled": 0, "rental_uris": {"ios": "https://dc.lft.to/lastmile_qr_scan", "android": "https://dc.lft.to/lastmile_qr_scan"}, "is_reserved": 0}, {"lon": -76.981499, "bike_id": "dffd24757f90475bf3bb4c2f7f1c4212", "lat": 38.90321266666667, "fusion_lon": 0.0, "fusion_lat": 0.0, "type": "electric_scooter", "name": "dffd24757f90475bf3bb4c2f7f1c4212", "is_disabled": 0, "rental_uris": {"ios": "https://dc.lft.to/lastmile_qr_scan", "android": "https://dc.lft.to/lastmile_qr_scan"}, "is_reserved": 0}, {"lon": -77.03023633333333, "bike_id": "fbe8b48a278981250cfb098694b8d528", "lat": 38.89630066666667, "fusion_lon": 0.0, "fusion_lat": 0.0, "type": "electric_scooter", "name": "fbe8b48a278981250cfb098694b8d528", "is_disabled": 0, "rental_uris": {"ios": "https://dc.lft.to/lastmile_qr_scan", "android": "https://dc.lft.to/lastmile_qr_scan"}, "is_reserved": 0}, {"lon": -77.006087, "bike_id": "1b09ff1a2b80d43f7b41e2aa30b0b3f9", "lat": 38.900089666666666, "fusion_lon": 0.0, "fusion_lat": 0.0, "type": "electric_scooter", "name": "1b09ff1a2b80d43f7b41e2aa30b0b3f9", "is_disabled": 0, "rental_uris": {"ios": "https://dc.lft.to/lastmile_qr_scan", "android": "https://dc.lft.to/lastmile_qr_scan"}, "is_reserved": 0}, {"lon": -77.03854266666667, "bike_id": "78b8b0e1b2adb56d92d0d8a39ec2524d", "lat": 38.91626766666667, "fusion_lon": 0.0, "fusion_lat": 0.0, "type": "electric_scooter", "name": "78b8b0e1b2adb56d92d0d8a39ec2524d", "is_disabled": 0, "rental_uris": {"ios": "https://dc.lft.to/lastmile_qr_scan", "android": "https://dc.lft.to/lastmile_qr_scan"}, "is_reserved": 0}, {"lon": -77.02198716666666, "bike_id": "fd9b185ca0e785a35c335685b483fb5b", "lat": 38.9112025, "fusion_lon": 0.0, "fusion_lat": 0.0, "type": "electric_scooter", "name": "fd9b185ca0e785a35c335685b483fb5b", "is_disabled": 0, "rental_uris": {"ios": "https://dc.lft.to/lastmile_qr_scan", "android": "https://dc.lft.to/lastmile_qr_scan"}, "is_reserved": 0}, {"lon": -77.02217133333333, "bike_id": "618b54710f886f992c634f1405f21b5c", "lat": 38.940955, "fusion_lon": 0.0, "fusion_lat": 0.0, "type": "electric_scooter", "name": "618b54710f886f992c634f1405f21b5c", "is_disabled": 0, "rental_uris": {"ios": "https://dc.lft.to/lastmile_qr_scan", "android": "https://dc.lft.to/lastmile_qr_scan"}, "is_reserved": 0}, {"lon": -77.03588683333334, "bike_id": "f4fc7782494b1c0740976de0c1fb1f2e", "lat": 38.9367185, "fusion_lon": 0.0, "fusion_lat": 0.0, "type": "electric_scooter", "name": "f4fc7782494b1c0740976de0c1fb1f2e", "is_disabled": 0, "rental_uris": {"ios": "https://dc.lft.to/lastmile_qr_scan", "android": "https://dc.lft.to/lastmile_qr_scan"}, "is_reserved": 0}, {"lon": -77.034687, "bike_id": "741972d93ff780f5b726b46aafb77b01", "lat": 38.926463166666665, "fusion_lon": 0.0, "fusion_lat": 0.0, "type": "electric_scooter", "name": "741972d93ff780f5b726b46aafb77b01", "is_disabled": 0, "rental_uris": {"ios": "https://dc.lft.to/lastmile_qr_scan", "android": "https://dc.lft.to/lastmile_qr_scan"}, "is_reserved": 0}, {"lon": -76.9888285, "bike_id": "4cadb5b8c459f7acd0ed492796c0b65a", "lat": 38.86652616666667, "fusion_lon": 0.0, "fusion_lat": 0.0, "type": "electric_scooter", "name": "4cadb5b8c459f7acd0ed492796c0b65a", "is_disabled": 0, "rental_uris": {"ios": "https://dc.lft.to/lastmile_qr_scan", "android": "https://dc.lft.to/lastmile_qr_scan"}, "is_reserved": 0}, {"lon": -77.0234945, "bike_id": "9bc0c8c1152115a7749ad9f28d94c18c", "lat": 38.89616616666667, "fusion_lon": 0.0, "fusion_lat": 0.0, "type": "electric_scooter", "name": "9bc0c8c1152115a7749ad9f28d94c18c", "is_disabled": 0, "rental_uris": {"ios": "https://dc.lft.to/lastmile_qr_scan", "android": "https://dc.lft.to/lastmile_qr_scan"}, "is_reserved": 0}, {"lon": -77.03676433333334, "bike_id": "3539fdb3066e59c18984b31455302fcc", "lat": 38.908753833333336, "fusion_lon": 0.0, "fusion_lat": 0.0, "type": "electric_scooter", "name": "3539fdb3066e59c18984b31455302fcc", "is_disabled": 0, "rental_uris": {"ios": "https://dc.lft.to/lastmile_qr_scan", "android": "https://dc.lft.to/lastmile_qr_scan"}, "is_reserved": 0}, {"lon": -77.02406166666667, "bike_id": "f6bff9c0de8ac0964b64adf44f98f4c1", "lat": 38.936696, "fusion_lon": 0.0, "fusion_lat": 0.0, "type": "electric_scooter", "name": "f6bff9c0de8ac0964b64adf44f98f4c1", "is_disabled": 0, "rental_uris": {"ios": "https://dc.lft.to/lastmile_qr_scan", "android": "https://dc.lft.to/lastmile_qr_scan"}, "is_reserved": 0}, {"lon": -77.03076266666666, "bike_id": "ed257f2e45d7d1c92612677634ee8728", "lat": 38.8803745, "fusion_lon": 0.0, "fusion_lat": 0.0, "type": "electric_scooter", "name": "ed257f2e45d7d1c92612677634ee8728", "is_disabled": 0, "rental_uris": {"ios": "https://dc.lft.to/lastmile_qr_scan", "android": "https://dc.lft.to/lastmile_qr_scan"}, "is_reserved": 0}, {"lon": -77.02084883333333, "bike_id": "c5d4e1e88ed00db89f3ac8487f02c216", "lat": 38.899743, "fusion_lon": 0.0, "fusion_lat": 0.0, "type": "electric_scooter", "name": "c5d4e1e88ed00db89f3ac8487f02c216", "is_disabled": 0, "rental_uris": {"ios": "https://dc.lft.to/lastmile_qr_scan", "android": "https://dc.lft.to/lastmile_qr_scan"}, "is_reserved": 0}, {"lon": -77.04435916666667, "bike_id": "90b63f7d83d2a0ffe7262c3ef3e683f4", "lat": 38.918673166666665, "fusion_lon": 0.0, "fusion_lat": 0.0, "type": "electric_scooter", "name": "90b63f7d83d2a0ffe7262c3ef3e683f4", "is_disabled": 0, "rental_uris": {"ios": "https://dc.lft.to/lastmile_qr_scan", "android": "https://dc.lft.to/lastmile_qr_scan"}, "is_reserved": 0}, {"lon": -77.039916, "bike_id": "ea11518012a4b7ad9a90c35be475d6af", "lat": 38.92440116666667, "fusion_lon": 0.0, "fusion_lat": 0.0, "type": "electric_scooter", "name": "ea11518012a4b7ad9a90c35be475d6af", "is_disabled": 0, "rental_uris": {"ios": "https://dc.lft.to/lastmile_qr_scan", "android": "https://dc.lft.to/lastmile_qr_scan"}, "is_reserved": 0}, {"lon": -76.97754066666667, "bike_id": "66706f44c85f946caaa3c1138a132b0b", "lat": 38.8650425, "fusion_lon": 0.0, "fusion_lat": 0.0, "type": "electric_scooter", "name": "66706f44c85f946caaa3c1138a132b0b", "is_disabled": 0, "rental_uris": {"ios": "https://dc.lft.to/lastmile_qr_scan", "android": "https://dc.lft.to/lastmile_qr_scan"}, "is_reserved": 0}, {"lon": -77.04050733333334, "bike_id": "cd606d587885e251b46fb65c4c8530af", "lat": 38.914825, "fusion_lon": 0.0, "fusion_lat": 0.0, "type": "electric_scooter", "name": "cd606d587885e251b46fb65c4c8530af", "is_disabled": 0, "rental_uris": {"ios": "https://dc.lft.to/lastmile_qr_scan", "android": "https://dc.lft.to/lastmile_qr_scan"}, "is_reserved": 0}, {"lon": -77.041528, "bike_id": "94542b926f43d7ee17aab922ce216ea3", "lat": 38.9171475, "fusion_lon": 0.0, "fusion_lat": 0.0, "type": "electric_scooter", "name": "94542b926f43d7ee17aab922ce216ea3", "is_disabled": 0, "rental_uris": {"ios": "https://dc.lft.to/lastmile_qr_scan", "android": "https://dc.lft.to/lastmile_qr_scan"}, "is_reserved": 0}, {"lon": -77.01132383333334, "bike_id": "dfafec89aa58b635a9272ce039c682d1", "lat": 38.89462183333333, "fusion_lon": 0.0, "fusion_lat": 0.0, "type": "electric_scooter", "name": "dfafec89aa58b635a9272ce039c682d1", "is_disabled": 0, "rental_uris": {"ios": "https://dc.lft.to/lastmile_qr_scan", "android": "https://dc.lft.to/lastmile_qr_scan"}, "is_reserved": 0}, {"lon": -77.011601, "bike_id": "e60505e2faf28177a837ff74960b7d17", "lat": 38.89574533333333, "fusion_lon": 0.0, "fusion_lat": 0.0, "type": "electric_scooter", "name": "e60505e2faf28177a837ff74960b7d17", "is_disabled": 0, "rental_uris": {"ios": "https://dc.lft.to/lastmile_qr_scan", "android": "https://dc.lft.to/lastmile_qr_scan"}, "is_reserved": 0}, {"lon": -76.98846783333333, "bike_id": "713dcc6bf4c5c46564720fb5e79198b7", "lat": 38.901264833333336, "fusion_lon": 0.0, "fusion_lat": 0.0, "type": "electric_scooter", "name": "713dcc6bf4c5c46564720fb5e79198b7", "is_disabled": 0, "rental_uris": {"ios": "https://dc.lft.to/lastmile_qr_scan", "android": "https://dc.lft.to/lastmile_qr_scan"}, "is_reserved": 0}, {"lon": -77.01455683333333, "bike_id": "9e49630ef33747866d8636c2c1cc4a78", "lat": 38.905151833333335, "fusion_lon": 0.0, "fusion_lat": 0.0, "type": "electric_scooter", "name": "9e49630ef33747866d8636c2c1cc4a78", "is_disabled": 0, "rental_uris": {"ios": "https://dc.lft.to/lastmile_qr_scan", "android": "https://dc.lft.to/lastmile_qr_scan"}, "is_reserved": 0}, {"lon": -77.01781666666666, "bike_id": "4bc715ff83a254f162c3d5909262adc8", "lat": 38.91995566666667, "fusion_lon": 0.0, "fusion_lat": 0.0, "type": "electric_scooter", "name": "4bc715ff83a254f162c3d5909262adc8", "is_disabled": 0, "rental_uris": {"ios": "https://dc.lft.to/lastmile_qr_scan", "android": "https://dc.lft.to/lastmile_qr_scan"}, "is_reserved": 0}, {"lon": -77.12221516666666, "bike_id": "5c791ebf24a9b4d429d4c7a7a8d68835", "lat": 38.853012166666666, "fusion_lon": 0.0, "fusion_lat": 0.0, "type": "electric_bike", "name": "5c791ebf24a9b4d429d4c7a7a8d68835", "is_disabled": 0, "rental_uris": {"ios": "https://dc.lft.to/lastmile_qr_scan", "android": "https://dc.lft.to/lastmile_qr_scan"}, "is_reserved": 0}, {"lon": -77.049589, "bike_id": "168c24d098e0736f3fcb92a0bb71b142", "lat": 38.90069033333333, "fusion_lon": 0.0, "fusion_lat": 0.0, "type": "electric_scooter", "name": "168c24d098e0736f3fcb92a0bb71b142", "is_disabled": 0, "rental_uris": {"ios": "https://dc.lft.to/lastmile_qr_scan", "android": "https://dc.lft.to/lastmile_qr_scan"}, "is_reserved": 0}, {"lon": -76.99266683333333, "bike_id": "9c330e422bed0545c1423c1e241fb8c6", "lat": 38.8961095, "fusion_lon": 0.0, "fusion_lat": 0.0, "type": "electric_scooter", "name": "9c330e422bed0545c1423c1e241fb8c6", "is_disabled": 0, "rental_uris": {"ios": "https://dc.lft.to/lastmile_qr_scan", "android": "https://dc.lft.to/lastmile_qr_scan"}, "is_reserved": 0}, {"lon": -77.03194783333333, "bike_id": "0d7caff16f343be1530b3133bf5ca976", "lat": 38.93062833333333, "fusion_lon": 0.0, "fusion_lat": 0.0, "type": "electric_scooter", "name": "0d7caff16f343be1530b3133bf5ca976", "is_disabled": 0, "rental_uris": {"ios": "https://dc.lft.to/lastmile_qr_scan", "android": "https://dc.lft.to/lastmile_qr_scan"}, "is_reserved": 0}, {"lon": -77.02279066666667, "bike_id": "a6d76a199212bcdd4c96dff27035603e", "lat": 38.909551, "fusion_lon": 0.0, "fusion_lat": 0.0, "type": "electric_scooter", "name": "a6d76a199212bcdd4c96dff27035603e", "is_disabled": 0, "rental_uris": {"ios": "https://dc.lft.to/lastmile_qr_scan", "android": "https://dc.lft.to/lastmile_qr_scan"}, "is_reserved": 0}, {"lon": -76.9257425, "bike_id": "a475b0a7403c8398362ba51feecaa923", "lat": 38.897805, "fusion_lon": 0.0, "fusion_lat": 0.0, "type": "electric_scooter", "name": "a475b0a7403c8398362ba51feecaa923", "is_disabled": 0, "rental_uris": {"ios": "https://dc.lft.to/lastmile_qr_scan", "android": "https://dc.lft.to/lastmile_qr_scan"}, "is_reserved": 0}, {"lon": -76.97324433333333, "bike_id": "cc3d6617cf8d0825078d74122a1c244c", "lat": 38.904824166666664, "fusion_lon": 0.0, "fusion_lat": 0.0, "type": "electric_bike", "name": "cc3d6617cf8d0825078d74122a1c244c", "is_disabled": 0, "rental_uris": {"ios": "https://dc.lft.to/lastmile_qr_scan", "android": "https://dc.lft.to/lastmile_qr_scan"}, "is_reserved": 0}, {"lon": -77.057244, "bike_id": "6035e067eb1616e79ebcbbb4250e8a1a", "lat": 38.933578833333335, "fusion_lon": 0.0, "fusion_lat": 0.0, "type": "electric_scooter", "name": "6035e067eb1616e79ebcbbb4250e8a1a", "is_disabled": 0, "rental_uris": {"ios": "https://dc.lft.to/lastmile_qr_scan", "android": "https://dc.lft.to/lastmile_qr_scan"}, "is_reserved": 0}, {"lon": -77.027705, "bike_id": "0684fe19db50cc3ad06dce8dbe27c388", "lat": 38.93291833333333, "fusion_lon": 0.0, "fusion_lat": 0.0, "type": "electric_bike", "name": "0684fe19db50cc3ad06dce8dbe27c388", "is_disabled": 0, "rental_uris": {"ios": "https://dc.lft.to/lastmile_qr_scan", "android": "https://dc.lft.to/lastmile_qr_scan"}, "is_reserved": 0}, {"lon": -76.99791533333334, "bike_id": "6ae8d77fae7fc1bfa8d034e33a5dd367", "lat": 38.956415666666665, "fusion_lon": 0.0, "fusion_lat": 0.0, "type": "electric_bike", "name": "6ae8d77fae7fc1bfa8d034e33a5dd367", "is_disabled": 0, "rental_uris": {"ios": "https://dc.lft.to/lastmile_qr_scan", "android": "https://dc.lft.to/lastmile_qr_scan"}, "is_reserved": 0}, {"lon": -77.00439883333334, "bike_id": "0b3f5cf0ff6f0d2867e56fa53f091cb6", "lat": 38.874538, "fusion_lon": 0.0, "fusion_lat": 0.0, "type": "electric_scooter", "name": "0b3f5cf0ff6f0d2867e56fa53f091cb6", "is_disabled": 0, "rental_uris": {"ios": "https://dc.lft.to/lastmile_qr_scan", "android": "https://dc.lft.to/lastmile_qr_scan"}, "is_reserved": 0}, {"lon": -77.02131883333334, "bike_id": "9624cfd576a3b9e41211a3f87afaab9b", "lat": 38.9159715, "fusion_lon": 0.0, "fusion_lat": 0.0, "type": "electric_scooter", "name": "9624cfd576a3b9e41211a3f87afaab9b", "is_disabled": 0, "rental_uris": {"ios": "https://dc.lft.to/lastmile_qr_scan", "android": "https://dc.lft.to/lastmile_qr_scan"}, "is_reserved": 0}, {"lon": -77.02221666666667, "bike_id": "dc257cff29497ed4fdf69fd49337e697", "lat": 38.91069, "fusion_lon": 0.0, "fusion_lat": 0.0, "type": "electric_scooter", "name": "dc257cff29497ed4fdf69fd49337e697", "is_disabled": 0, "rental_uris": {"ios": "https://dc.lft.to/lastmile_qr_scan", "android": "https://dc.lft.to/lastmile_qr_scan"}, "is_reserved": 0}, {"lon": -76.97909333333334, "bike_id": "d51db49bc4154c029a02ce180bbef340", "lat": 38.92460583333333, "fusion_lon": 0.0, "fusion_lat": 0.0, "type": "electric_bike", "name": "d51db49bc4154c029a02ce180bbef340", "is_disabled": 0, "rental_uris": {"ios": "https://dc.lft.to/lastmile_qr_scan", "android": "https://dc.lft.to/lastmile_qr_scan"}, "is_reserved": 0}, {"lon": -77.06517816666667, "bike_id": "30a1954d65030bf7675b3ccf675302aa", "lat": 38.908840833333336, "fusion_lon": 0.0, "fusion_lat": 0.0, "type": "electric_scooter", "name": "30a1954d65030bf7675b3ccf675302aa", "is_disabled": 0, "rental_uris": {"ios": "https://dc.lft.to/lastmile_qr_scan", "android": "https://dc.lft.to/lastmile_qr_scan"}, "is_reserved": 0}, {"lon": -77.03220033333334, "bike_id": "19274efc78544c6c56fc33dcbdfa4d0c", "lat": 38.89675183333333, "fusion_lon": 0.0, "fusion_lat": 0.0, "type": "electric_scooter", "name": "19274efc78544c6c56fc33dcbdfa4d0c", "is_disabled": 0, "rental_uris": {"ios": "https://dc.lft.to/lastmile_qr_scan", "android": "https://dc.lft.to/lastmile_qr_scan"}, "is_reserved": 0}, {"lon": -76.94893966666666, "bike_id": "84bb3dc4f01a6079cbb5601f5581b7b6", "lat": 38.895267, "fusion_lon": 0.0, "fusion_lat": 0.0, "type": "electric_scooter", "name": "84bb3dc4f01a6079cbb5601f5581b7b6", "is_disabled": 0, "rental_uris": {"ios": "https://dc.lft.to/lastmile_qr_scan", "android": "https://dc.lft.to/lastmile_qr_scan"}, "is_reserved": 0}, {"lon": -76.99490466666667, "bike_id": "ce5160b71d159968a77c75b67c388737", "lat": 38.8990785, "fusion_lon": 0.0, "fusion_lat": 0.0, "type": "electric_scooter", "name": "ce5160b71d159968a77c75b67c388737", "is_disabled": 0, "rental_uris": {"ios": "https://dc.lft.to/lastmile_qr_scan", "android": "https://dc.lft.to/lastmile_qr_scan"}, "is_reserved": 0}, {"lon": -77.03208666666667, "bike_id": "582d4bf8ba4cf13e28ceaa5fd0f90f36", "lat": 38.91686466666667, "fusion_lon": 0.0, "fusion_lat": 0.0, "type": "electric_scooter", "name": "582d4bf8ba4cf13e28ceaa5fd0f90f36", "is_disabled": 0, "rental_uris": {"ios": "https://dc.lft.to/lastmile_qr_scan", "android": "https://dc.lft.to/lastmile_qr_scan"}, "is_reserved": 0}, {"lon": -77.0435575, "bike_id": "525cc464b606b685f79df1ca509d1ccb", "lat": 39.01538583333333, "fusion_lon": 0.0, "fusion_lat": 0.0, "type": "electric_bike", "name": "525cc464b606b685f79df1ca509d1ccb", "is_disabled": 0, "rental_uris": {"ios": "https://dc.lft.to/lastmile_qr_scan", "android": "https://dc.lft.to/lastmile_qr_scan"}, "is_reserved": 0}, {"lon": -77.02442, "bike_id": "022f326c9b815ab3c108d0cc09c6eeaf", "lat": 38.936001166666664, "fusion_lon": 0.0, "fusion_lat": 0.0, "type": "electric_scooter", "name": "022f326c9b815ab3c108d0cc09c6eeaf", "is_disabled": 0, "rental_uris": {"ios": "https://dc.lft.to/lastmile_qr_scan", "android": "https://dc.lft.to/lastmile_qr_scan"}, "is_reserved": 0}, {"lon": -77.03260033333333, "bike_id": "57bf296f1dd75b5a5b1474d74fd8dcd0", "lat": 38.93562, "fusion_lon": 0.0, "fusion_lat": 0.0, "type": "electric_scooter", "name": "57bf296f1dd75b5a5b1474d74fd8dcd0", "is_disabled": 0, "rental_uris": {"ios": "https://dc.lft.to/lastmile_qr_scan", "android": "https://dc.lft.to/lastmile_qr_scan"}, "is_reserved": 0}, {"lon": -77.03040983333334, "bike_id": "2d159706584cb3c8f63015bd947032d4", "lat": 38.9132905, "fusion_lon": 0.0, "fusion_lat": 0.0, "type": "electric_scooter", "name": "2d159706584cb3c8f63015bd947032d4", "is_disabled": 0, "rental_uris": {"ios": "https://dc.lft.to/lastmile_qr_scan", "android": "https://dc.lft.to/lastmile_qr_scan"}, "is_reserved": 0}, {"lon": -77.028101, "bike_id": "5924099a4788207e20d43af3414b0d12", "lat": 38.941918666666666, "fusion_lon": 0.0, "fusion_lat": 0.0, "type": "electric_scooter", "name": "5924099a4788207e20d43af3414b0d12", "is_disabled": 0, "rental_uris": {"ios": "https://dc.lft.to/lastmile_qr_scan", "android": "https://dc.lft.to/lastmile_qr_scan"}, "is_reserved": 0}, {"lon": -76.97007766666667, "bike_id": "4f4e810cba38c5e12d58ccda11b65f2a", "lat": 38.863666333333335, "fusion_lon": 0.0, "fusion_lat": 0.0, "type": "electric_bike", "name": "4f4e810cba38c5e12d58ccda11b65f2a", "is_disabled": 0, "rental_uris": {"ios": "https://dc.lft.to/lastmile_qr_scan", "android": "https://dc.lft.to/lastmile_qr_scan"}, "is_reserved": 0}, {"lon": -76.97839933333333, "bike_id": "0cae578eb316b805261a0b297ee4c679", "lat": 38.86568466666667, "fusion_lon": 0.0, "fusion_lat": 0.0, "type": "electric_scooter", "name": "0cae578eb316b805261a0b297ee4c679", "is_disabled": 0, "rental_uris": {"ios": "https://dc.lft.to/lastmile_qr_scan", "android": "https://dc.lft.to/lastmile_qr_scan"}, "is_reserved": 0}, {"lon": -77.04575466666667, "bike_id": "d9f99ef7c8bf22a51e54c7b9948a40d6", "lat": 38.918563, "fusion_lon": 0.0, "fusion_lat": 0.0, "type": "electric_scooter", "name": "d9f99ef7c8bf22a51e54c7b9948a40d6", "is_disabled": 0, "rental_uris": {"ios": "https://dc.lft.to/lastmile_qr_scan", "android": "https://dc.lft.to/lastmile_qr_scan"}, "is_reserved": 0}, {"lon": -77.11784383333334, "bike_id": "e8c119f4be9f8ab2aa39bf171ff60cd7", "lat": 39.054939, "fusion_lon": 0.0, "fusion_lat": 0.0, "type": "electric_bike", "name": "e8c119f4be9f8ab2aa39bf171ff60cd7", "is_disabled": 0, "rental_uris": {"ios": "https://dc.lft.to/lastmile_qr_scan", "android": "https://dc.lft.to/lastmile_qr_scan"}, "is_reserved": 0}, {"lon": -77.01856583333333, "bike_id": "a6eb60934326eb8fc784cbe5973002ad", "lat": 38.93028433333333, "fusion_lon": 0.0, "fusion_lat": 0.0, "type": "electric_bike", "name": "a6eb60934326eb8fc784cbe5973002ad", "is_disabled": 0, "rental_uris": {"ios": "https://dc.lft.to/lastmile_qr_scan", "android": "https://dc.lft.to/lastmile_qr_scan"}, "is_reserved": 0}, {"lon": -77.0328095, "bike_id": "e41829a537b23c68dbf1f7beedf41bb2", "lat": 38.93644416666667, "fusion_lon": 0.0, "fusion_lat": 0.0, "type": "electric_scooter", "name": "e41829a537b23c68dbf1f7beedf41bb2", "is_disabled": 0, "rental_uris": {"ios": "https://dc.lft.to/lastmile_qr_scan", "android": "https://dc.lft.to/lastmile_qr_scan"}, "is_reserved": 0}, {"lon": -77.17836, "bike_id": "9e175cc1ac902c5afd1b61ac31d22aab", "lat": 39.088575166666665, "fusion_lon": 0.0, "fusion_lat": 0.0, "type": "electric_bike", "name": "9e175cc1ac902c5afd1b61ac31d22aab", "is_disabled": 0, "rental_uris": {"ios": "https://dc.lft.to/lastmile_qr_scan", "android": "https://dc.lft.to/lastmile_qr_scan"}, "is_reserved": 0}, {"lon": -77.03287366666666, "bike_id": "7d7e2b380e13e15141602e3b5ed74a35", "lat": 38.95648716666667, "fusion_lon": 0.0, "fusion_lat": 0.0, "type": "electric_scooter", "name": "7d7e2b380e13e15141602e3b5ed74a35", "is_disabled": 0, "rental_uris": {"ios": "https://dc.lft.to/lastmile_qr_scan", "android": "https://dc.lft.to/lastmile_qr_scan"}, "is_reserved": 0}, {"lon": -77.078632, "bike_id": "176b8c9e85b7c69253da6bbf78654af2", "lat": 38.924654833333335, "fusion_lon": 0.0, "fusion_lat": 0.0, "type": "electric_scooter", "name": "176b8c9e85b7c69253da6bbf78654af2", "is_disabled": 0, "rental_uris": {"ios": "https://dc.lft.to/lastmile_qr_scan", "android": "https://dc.lft.to/lastmile_qr_scan"}, "is_reserved": 0}, {"lon": -76.99048533333334, "bike_id": "aa831f500cf92e96d5337ccf9f45d78a", "lat": 38.863793333333334, "fusion_lon": 0.0, "fusion_lat": 0.0, "type": "electric_scooter", "name": "aa831f500cf92e96d5337ccf9f45d78a", "is_disabled": 0, "rental_uris": {"ios": "https://dc.lft.to/lastmile_qr_scan", "android": "https://dc.lft.to/lastmile_qr_scan"}, "is_reserved": 0}, {"lon": -77.024787, "bike_id": "254ae34e657cbd78b5748d3bee925e16", "lat": 38.93619566666667, "fusion_lon": 0.0, "fusion_lat": 0.0, "type": "electric_scooter", "name": "254ae34e657cbd78b5748d3bee925e16", "is_disabled": 0, "rental_uris": {"ios": "https://dc.lft.to/lastmile_qr_scan", "android": "https://dc.lft.to/lastmile_qr_scan"}, "is_reserved": 0}, {"lon": -77.031814, "bike_id": "abda59de30be500ae637413c1749d466", "lat": 38.91683483333333, "fusion_lon": 0.0, "fusion_lat": 0.0, "type": "electric_scooter", "name": "abda59de30be500ae637413c1749d466", "is_disabled": 0, "rental_uris": {"ios": "https://dc.lft.to/lastmile_qr_scan", "android": "https://dc.lft.to/lastmile_qr_scan"}, "is_reserved": 0}, {"lon": -77.119154, "bike_id": "7eb6ed5c0829c9ae6b36f3c1357859d8", "lat": 38.8763525, "fusion_lon": 0.0, "fusion_lat": 0.0, "type": "electric_bike", "name": "7eb6ed5c0829c9ae6b36f3c1357859d8", "is_disabled": 0, "rental_uris": {"ios": "https://dc.lft.to/lastmile_qr_scan", "android": "https://dc.lft.to/lastmile_qr_scan"}, "is_reserved": 0}, {"lon": -77.01047966666667, "bike_id": "76e2112bb652ae286f58ef9b19e89fa3", "lat": 38.96349383333333, "fusion_lon": 0.0, "fusion_lat": 0.0, "type": "electric_scooter", "name": "76e2112bb652ae286f58ef9b19e89fa3", "is_disabled": 0, "rental_uris": {"ios": "https://dc.lft.to/lastmile_qr_scan", "android": "https://dc.lft.to/lastmile_qr_scan"}, "is_reserved": 0}, {"lon": -77.02193916666667, "bike_id": "f78240580ae42e4650919643027b7fc6", "lat": 38.915011166666666, "fusion_lon": 0.0, "fusion_lat": 0.0, "type": "electric_scooter", "name": "f78240580ae42e4650919643027b7fc6", "is_disabled": 0, "rental_uris": {"ios": "https://dc.lft.to/lastmile_qr_scan", "android": "https://dc.lft.to/lastmile_qr_scan"}, "is_reserved": 0}, {"lon": -77.0202785, "bike_id": "e05628f1439a7708700c036ed5a007e9", "lat": 38.916600333333335, "fusion_lon": 0.0, "fusion_lat": 0.0, "type": "electric_scooter", "name": "e05628f1439a7708700c036ed5a007e9", "is_disabled": 0, "rental_uris": {"ios": "https://dc.lft.to/lastmile_qr_scan", "android": "https://dc.lft.to/lastmile_qr_scan"}, "is_reserved": 0}, {"lon": -77.02134616666666, "bike_id": "11563e80b98cbed6ea56a15b0dc8c169", "lat": 38.91592166666667, "fusion_lon": 0.0, "fusion_lat": 0.0, "type": "electric_scooter", "name": "11563e80b98cbed6ea56a15b0dc8c169", "is_disabled": 0, "rental_uris": {"ios": "https://dc.lft.to/lastmile_qr_scan", "android": "https://dc.lft.to/lastmile_qr_scan"}, "is_reserved": 0}, {"lon": -77.00560816666666, "bike_id": "cfdceb7640f591b2897b7b3638897721", "lat": 38.874353, "fusion_lon": 0.0, "fusion_lat": 0.0, "type": "electric_scooter", "name": "cfdceb7640f591b2897b7b3638897721", "is_disabled": 0, "rental_uris": {"ios": "https://dc.lft.to/lastmile_qr_scan", "android": "https://dc.lft.to/lastmile_qr_scan"}, "is_reserved": 0}, {"lon": -77.03496, "bike_id": "b38a5bd25cafab64220ad7ade947cf07", "lat": 38.91475716666667, "fusion_lon": 0.0, "fusion_lat": 0.0, "type": "electric_scooter", "name": "b38a5bd25cafab64220ad7ade947cf07", "is_disabled": 0, "rental_uris": {"ios": "https://dc.lft.to/lastmile_qr_scan", "android": "https://dc.lft.to/lastmile_qr_scan"}, "is_reserved": 0}, {"lon": -77.0239415, "bike_id": "c6423555d422e580aac50946985320f5", "lat": 38.906973666666666, "fusion_lon": 0.0, "fusion_lat": 0.0, "type": "electric_scooter", "name": "c6423555d422e580aac50946985320f5", "is_disabled": 0, "rental_uris": {"ios": "https://dc.lft.to/lastmile_qr_scan", "android": "https://dc.lft.to/lastmile_qr_scan"}, "is_reserved": 0}, {"lon": -76.99668083333333, "bike_id": "456441be6ad7af018a37d06a1bed179b", "lat": 38.924891333333335, "fusion_lon": 0.0, "fusion_lat": 0.0, "type": "electric_bike", "name": "456441be6ad7af018a37d06a1bed179b", "is_disabled": 0, "rental_uris": {"ios": "https://dc.lft.to/lastmile_qr_scan", "android": "https://dc.lft.to/lastmile_qr_scan"}, "is_reserved": 0}, {"lon": -77.02179583333333, "bike_id": "6d5109f8141aa2e877459d746cdcb58f", "lat": 38.89491866666667, "fusion_lon": 0.0, "fusion_lat": 0.0, "type": "electric_scooter", "name": "6d5109f8141aa2e877459d746cdcb58f", "is_disabled": 0, "rental_uris": {"ios": "https://dc.lft.to/lastmile_qr_scan", "android": "https://dc.lft.to/lastmile_qr_scan"}, "is_reserved": 0}, {"lon": -77.0053265, "bike_id": "9f4f3206960788cca2bf02b8f76d3c45", "lat": 38.875435833333334, "fusion_lon": 0.0, "fusion_lat": 0.0, "type": "electric_scooter", "name": "9f4f3206960788cca2bf02b8f76d3c45", "is_disabled": 0, "rental_uris": {"ios": "https://dc.lft.to/lastmile_qr_scan", "android": "https://dc.lft.to/lastmile_qr_scan"}, "is_reserved": 0}, {"lon": -76.98525266666667, "bike_id": "064fe9e4f8410555288e9356f280b5c9", "lat": 38.8994675, "fusion_lon": 0.0, "fusion_lat": 0.0, "type": "electric_scooter", "name": "064fe9e4f8410555288e9356f280b5c9", "is_disabled": 0, "rental_uris": {"ios": "https://dc.lft.to/lastmile_qr_scan", "android": "https://dc.lft.to/lastmile_qr_scan"}, "is_reserved": 0}, {"lon": -77.02386816666667, "bike_id": "2038b186234b463c879cc8015bf5eaa6", "lat": 38.90634133333333, "fusion_lon": 0.0, "fusion_lat": 0.0, "type": "electric_scooter", "name": "2038b186234b463c879cc8015bf5eaa6", "is_disabled": 0, "rental_uris": {"ios": "https://dc.lft.to/lastmile_qr_scan", "android": "https://dc.lft.to/lastmile_qr_scan"}, "is_reserved": 0}, {"lon": -77.04329966666667, "bike_id": "728609c47a96dd16e95d4bfbde094d75", "lat": 38.918829, "fusion_lon": 0.0, "fusion_lat": 0.0, "type": "electric_scooter", "name": "728609c47a96dd16e95d4bfbde094d75", "is_disabled": 0, "rental_uris": {"ios": "https://dc.lft.to/lastmile_qr_scan", "android": "https://dc.lft.to/lastmile_qr_scan"}, "is_reserved": 0}, {"lon": -76.93277116666667, "bike_id": "78ed2813ef13205cc80419390abf890c", "lat": 38.954221, "fusion_lon": 0.0, "fusion_lat": 0.0, "type": "electric_bike", "name": "78ed2813ef13205cc80419390abf890c", "is_disabled": 0, "rental_uris": {"ios": "https://dc.lft.to/lastmile_qr_scan", "android": "https://dc.lft.to/lastmile_qr_scan"}, "is_reserved": 0}, {"lon": -77.02714133333333, "bike_id": "01b2fb6fcf12984ce03d8f5a541b6a94", "lat": 38.90070683333333, "fusion_lon": 0.0, "fusion_lat": 0.0, "type": "electric_scooter", "name": "01b2fb6fcf12984ce03d8f5a541b6a94", "is_disabled": 0, "rental_uris": {"ios": "https://dc.lft.to/lastmile_qr_scan", "android": "https://dc.lft.to/lastmile_qr_scan"}, "is_reserved": 0}, {"lon": -77.03152833333333, "bike_id": "10eb0c10b5e8fd33e8a38afe0d9d7e4d", "lat": 38.951622666666665, "fusion_lon": 0.0, "fusion_lat": 0.0, "type": "electric_bike", "name": "10eb0c10b5e8fd33e8a38afe0d9d7e4d", "is_disabled": 0, "rental_uris": {"ios": "https://dc.lft.to/lastmile_qr_scan", "android": "https://dc.lft.to/lastmile_qr_scan"}, "is_reserved": 0}, {"lon": -76.99645533333333, "bike_id": "b65922b2f74807a06e284d167e8914cb", "lat": 38.8872165, "fusion_lon": 0.0, "fusion_lat": 0.0, "type": "electric_scooter", "name": "b65922b2f74807a06e284d167e8914cb", "is_disabled": 0, "rental_uris": {"ios": "https://dc.lft.to/lastmile_qr_scan", "android": "https://dc.lft.to/lastmile_qr_scan"}, "is_reserved": 0}, {"lon": -77.02315866666666, "bike_id": "3b668e74f7188bcc1a65ea54219cbd0c", "lat": 38.955262166666664, "fusion_lon": 0.0, "fusion_lat": 0.0, "type": "electric_scooter", "name": "3b668e74f7188bcc1a65ea54219cbd0c", "is_disabled": 0, "rental_uris": {"ios": "https://dc.lft.to/lastmile_qr_scan", "android": "https://dc.lft.to/lastmile_qr_scan"}, "is_reserved": 0}, {"lon": -77.03282416666667, "bike_id": "fed32431dc0979a9d1e6a1979288241f", "lat": 38.912716833333334, "fusion_lon": 0.0, "fusion_lat": 0.0, "type": "electric_scooter", "name": "fed32431dc0979a9d1e6a1979288241f", "is_disabled": 0, "rental_uris": {"ios": "https://dc.lft.to/lastmile_qr_scan", "android": "https://dc.lft.to/lastmile_qr_scan"}, "is_reserved": 0}, {"lon": -76.99484183333334, "bike_id": "0981b30f7ca6cfddbc41e6f56258e39b", "lat": 38.915697333333334, "fusion_lon": 0.0, "fusion_lat": 0.0, "type": "electric_scooter", "name": "0981b30f7ca6cfddbc41e6f56258e39b", "is_disabled": 0, "rental_uris": {"ios": "https://dc.lft.to/lastmile_qr_scan", "android": "https://dc.lft.to/lastmile_qr_scan"}, "is_reserved": 0}, {"lon": -76.9548275, "bike_id": "56099c66161177fe5f12fde2929764a9", "lat": 38.884661666666666, "fusion_lon": 0.0, "fusion_lat": 0.0, "type": "electric_scooter", "name": "56099c66161177fe5f12fde2929764a9", "is_disabled": 0, "rental_uris": {"ios": "https://dc.lft.to/lastmile_qr_scan", "android": "https://dc.lft.to/lastmile_qr_scan"}, "is_reserved": 0}, {"lon": -76.98591033333334, "bike_id": "f06fb87c084ece151be8c3a813e25ee0", "lat": 38.90811866666667, "fusion_lon": 0.0, "fusion_lat": 0.0, "type": "electric_scooter", "name": "f06fb87c084ece151be8c3a813e25ee0", "is_disabled": 0, "rental_uris": {"ios": "https://dc.lft.to/lastmile_qr_scan", "android": "https://dc.lft.to/lastmile_qr_scan"}, "is_reserved": 0}, {"lon": -76.9826205, "bike_id": "404c42a7dff57348553bbe91dad9c4b4", "lat": 38.90852366666667, "fusion_lon": 0.0, "fusion_lat": 0.0, "type": "electric_scooter", "name": "404c42a7dff57348553bbe91dad9c4b4", "is_disabled": 0, "rental_uris": {"ios": "https://dc.lft.to/lastmile_qr_scan", "android": "https://dc.lft.to/lastmile_qr_scan"}, "is_reserved": 0}, {"lon": -77.007898, "bike_id": "5004ede9dbb2a2284a0dfe1d5038af9e", "lat": 38.8966775, "fusion_lon": 0.0, "fusion_lat": 0.0, "type": "electric_scooter", "name": "5004ede9dbb2a2284a0dfe1d5038af9e", "is_disabled": 0, "rental_uris": {"ios": "https://dc.lft.to/lastmile_qr_scan", "android": "https://dc.lft.to/lastmile_qr_scan"}, "is_reserved": 0}, {"lon": -77.02626733333334, "bike_id": "1c142ab04db236ce071ea56705f3fb32", "lat": 38.96225716666667, "fusion_lon": 0.0, "fusion_lat": 0.0, "type": "electric_bike", "name": "1c142ab04db236ce071ea56705f3fb32", "is_disabled": 0, "rental_uris": {"ios": "https://dc.lft.to/lastmile_qr_scan", "android": "https://dc.lft.to/lastmile_qr_scan"}, "is_reserved": 0}, {"lon": -76.988799, "bike_id": "e12f526318b8b0ae294c0a128461eeed", "lat": 38.866513, "fusion_lon": 0.0, "fusion_lat": 0.0, "type": "electric_scooter", "name": "e12f526318b8b0ae294c0a128461eeed", "is_disabled": 0, "rental_uris": {"ios": "https://dc.lft.to/lastmile_qr_scan", "android": "https://dc.lft.to/lastmile_qr_scan"}, "is_reserved": 0}, {"lon": -76.98891866666666, "bike_id": "f3269e77ac8f6abd0921e4ef5f0170cd", "lat": 38.91346983333333, "fusion_lon": 0.0, "fusion_lat": 0.0, "type": "electric_scooter", "name": "f3269e77ac8f6abd0921e4ef5f0170cd", "is_disabled": 0, "rental_uris": {"ios": "https://dc.lft.to/lastmile_qr_scan", "android": "https://dc.lft.to/lastmile_qr_scan"}, "is_reserved": 0}, {"lon": -76.93367333333333, "bike_id": "951a4e41b34096ee922cc003cc84f566", "lat": 38.899054166666666, "fusion_lon": 0.0, "fusion_lat": 0.0, "type": "electric_scooter", "name": "951a4e41b34096ee922cc003cc84f566", "is_disabled": 0, "rental_uris": {"ios": "https://dc.lft.to/lastmile_qr_scan", "android": "https://dc.lft.to/lastmile_qr_scan"}, "is_reserved": 0}, {"lon": -77.04015283333334, "bike_id": "76dae3486250ddec828c6109f99bb526", "lat": 38.923139666666664, "fusion_lon": 0.0, "fusion_lat": 0.0, "type": "electric_scooter", "name": "76dae3486250ddec828c6109f99bb526", "is_disabled": 0, "rental_uris": {"ios": "https://dc.lft.to/lastmile_qr_scan", "android": "https://dc.lft.to/lastmile_qr_scan"}, "is_reserved": 0}, {"lon": -76.98193166666667, "bike_id": "6a3ff57af062b1db8fad39c7c70fa971", "lat": 38.92603366666667, "fusion_lon": 0.0, "fusion_lat": 0.0, "type": "electric_scooter", "name": "6a3ff57af062b1db8fad39c7c70fa971", "is_disabled": 0, "rental_uris": {"ios": "https://dc.lft.to/lastmile_qr_scan", "android": "https://dc.lft.to/lastmile_qr_scan"}, "is_reserved": 0}, {"lon": -77.10086816666667, "bike_id": "baa998fa486d153df4164561edf9fa11", "lat": 38.95960483333333, "fusion_lon": 0.0, "fusion_lat": 0.0, "type": "electric_bike", "name": "baa998fa486d153df4164561edf9fa11", "is_disabled": 0, "rental_uris": {"ios": "https://dc.lft.to/lastmile_qr_scan", "android": "https://dc.lft.to/lastmile_qr_scan"}, "is_reserved": 0}, {"lon": -77.011528, "bike_id": "82c21f222676ff92c9a4ffcfb557541e", "lat": 38.914006, "fusion_lon": 0.0, "fusion_lat": 0.0, "type": "electric_scooter", "name": "82c21f222676ff92c9a4ffcfb557541e", "is_disabled": 0, "rental_uris": {"ios": "https://dc.lft.to/lastmile_qr_scan", "android": "https://dc.lft.to/lastmile_qr_scan"}, "is_reserved": 0}, {"lon": -76.99405083333333, "bike_id": "193b4c363a0237e12e04dfad47d7ba67", "lat": 38.8313805, "fusion_lon": 0.0, "fusion_lat": 0.0, "type": "electric_bike", "name": "193b4c363a0237e12e04dfad47d7ba67", "is_disabled": 0, "rental_uris": {"ios": "https://dc.lft.to/lastmile_qr_scan", "android": "https://dc.lft.to/lastmile_qr_scan"}, "is_reserved": 0}, {"lon": -77.037003, "bike_id": "19510c39ee399633ecdf247156ccc217", "lat": 38.9288595, "fusion_lon": 0.0, "fusion_lat": 0.0, "type": "electric_scooter", "name": "19510c39ee399633ecdf247156ccc217", "is_disabled": 0, "rental_uris": {"ios": "https://dc.lft.to/lastmile_qr_scan", "android": "https://dc.lft.to/lastmile_qr_scan"}, "is_reserved": 0}, {"lon": -76.95666483333333, "bike_id": "a5bcd91fa526c523d27c06a647868111", "lat": 38.946617833333335, "fusion_lon": 0.0, "fusion_lat": 0.0, "type": "electric_bike", "name": "a5bcd91fa526c523d27c06a647868111", "is_disabled": 0, "rental_uris": {"ios": "https://dc.lft.to/lastmile_qr_scan", "android": "https://dc.lft.to/lastmile_qr_scan"}, "is_reserved": 0}, {"lon": -77.02404433333334, "bike_id": "735e9370b566eb249ede97bfb4599bed", "lat": 38.906977166666664, "fusion_lon": 0.0, "fusion_lat": 0.0, "type": "electric_scooter", "name": "735e9370b566eb249ede97bfb4599bed", "is_disabled": 0, "rental_uris": {"ios": "https://dc.lft.to/lastmile_qr_scan", "android": "https://dc.lft.to/lastmile_qr_scan"}, "is_reserved": 0}, {"lon": -77.01556266666667, "bike_id": "a0940fcfc429f47447f19e9508da10e5", "lat": 38.883174833333335, "fusion_lon": 0.0, "fusion_lat": 0.0, "type": "electric_scooter", "name": "a0940fcfc429f47447f19e9508da10e5", "is_disabled": 0, "rental_uris": {"ios": "https://dc.lft.to/lastmile_qr_scan", "android": "https://dc.lft.to/lastmile_qr_scan"}, "is_reserved": 0}, {"lon": -76.94999283333334, "bike_id": "09ffd84e74b8e3902ed91b7f4b92efe2", "lat": 38.893861333333334, "fusion_lon": 0.0, "fusion_lat": 0.0, "type": "electric_scooter", "name": "09ffd84e74b8e3902ed91b7f4b92efe2", "is_disabled": 0, "rental_uris": {"ios": "https://dc.lft.to/lastmile_qr_scan", "android": "https://dc.lft.to/lastmile_qr_scan"}, "is_reserved": 0}, {"lon": -76.99752283333333, "bike_id": "3bc034abacb8b2d11ab7cd3755163cd0", "lat": 38.95009616666667, "fusion_lon": 0.0, "fusion_lat": 0.0, "type": "electric_bike", "name": "3bc034abacb8b2d11ab7cd3755163cd0", "is_disabled": 0, "rental_uris": {"ios": "https://dc.lft.to/lastmile_qr_scan", "android": "https://dc.lft.to/lastmile_qr_scan"}, "is_reserved": 0}, {"lon": -77.02701933333333, "bike_id": "8b6a539eb5ed0455cc530af9014e4907", "lat": 38.90460083333333, "fusion_lon": 0.0, "fusion_lat": 0.0, "type": "electric_scooter", "name": "8b6a539eb5ed0455cc530af9014e4907", "is_disabled": 0, "rental_uris": {"ios": "https://dc.lft.to/lastmile_qr_scan", "android": "https://dc.lft.to/lastmile_qr_scan"}, "is_reserved": 0}, {"lon": -76.97856166666666, "bike_id": "fef8c56e59bf06dd2c2c887686cf826f", "lat": 38.90723233333333, "fusion_lon": 0.0, "fusion_lat": 0.0, "type": "electric_scooter", "name": "fef8c56e59bf06dd2c2c887686cf826f", "is_disabled": 0, "rental_uris": {"ios": "https://dc.lft.to/lastmile_qr_scan", "android": "https://dc.lft.to/lastmile_qr_scan"}, "is_reserved": 0}, {"lon": -77.026173, "bike_id": "9fa1381c2fb602a891ee4be6ee0fc6a5", "lat": 38.91417383333334, "fusion_lon": 0.0, "fusion_lat": 0.0, "type": "electric_scooter", "name": "9fa1381c2fb602a891ee4be6ee0fc6a5", "is_disabled": 0, "rental_uris": {"ios": "https://dc.lft.to/lastmile_qr_scan", "android": "https://dc.lft.to/lastmile_qr_scan"}, "is_reserved": 0}, {"lon": -77.00622466666667, "bike_id": "d8723f476d170cfa2288410aee4a52b9", "lat": 38.8717155, "fusion_lon": 0.0, "fusion_lat": 0.0, "type": "electric_scooter", "name": "d8723f476d170cfa2288410aee4a52b9", "is_disabled": 0, "rental_uris": {"ios": "https://dc.lft.to/lastmile_qr_scan", "android": "https://dc.lft.to/lastmile_qr_scan"}, "is_reserved": 0}, {"lon": -77.04710416666667, "bike_id": "dbb52a9af2e318046898171c9066e11c", "lat": 38.9218255, "fusion_lon": 0.0, "fusion_lat": 0.0, "type": "electric_scooter", "name": "dbb52a9af2e318046898171c9066e11c", "is_disabled": 0, "rental_uris": {"ios": "https://dc.lft.to/lastmile_qr_scan", "android": "https://dc.lft.to/lastmile_qr_scan"}, "is_reserved": 0}, {"lon": -77.03516216666667, "bike_id": "8b6475794d05e74262a25213427f4f93", "lat": 38.92334316666667, "fusion_lon": 0.0, "fusion_lat": 0.0, "type": "electric_scooter", "name": "8b6475794d05e74262a25213427f4f93", "is_disabled": 0, "rental_uris": {"ios": "https://dc.lft.to/lastmile_qr_scan", "android": "https://dc.lft.to/lastmile_qr_scan"}, "is_reserved": 0}, {"lon": -77.01431116666667, "bike_id": "784ea451f99bf841b8504d26feae177e", "lat": 38.90536016666667, "fusion_lon": 0.0, "fusion_lat": 0.0, "type": "electric_scooter", "name": "784ea451f99bf841b8504d26feae177e", "is_disabled": 0, "rental_uris": {"ios": "https://dc.lft.to/lastmile_qr_scan", "android": "https://dc.lft.to/lastmile_qr_scan"}, "is_reserved": 0}, {"lon": -77.01093783333333, "bike_id": "cadcec656fd640430ecf119654b34920", "lat": 38.90847983333333, "fusion_lon": 0.0, "fusion_lat": 0.0, "type": "electric_scooter", "name": "cadcec656fd640430ecf119654b34920", "is_disabled": 0, "rental_uris": {"ios": "https://dc.lft.to/lastmile_qr_scan", "android": "https://dc.lft.to/lastmile_qr_scan"}, "is_reserved": 0}, {"lon": -77.03261783333333, "bike_id": "eb961d2a894618ed5caa8d77446bb049", "lat": 38.93771666666667, "fusion_lon": 0.0, "fusion_lat": 0.0, "type": "electric_scooter", "name": "eb961d2a894618ed5caa8d77446bb049", "is_disabled": 0, "rental_uris": {"ios": "https://dc.lft.to/lastmile_qr_scan", "android": "https://dc.lft.to/lastmile_qr_scan"}, "is_reserved": 0}, {"lon": -77.01534433333333, "bike_id": "32f3be8e39631d2682d0b0eab5abe84a", "lat": 38.883294166666666, "fusion_lon": 0.0, "fusion_lat": 0.0, "type": "electric_scooter", "name": "32f3be8e39631d2682d0b0eab5abe84a", "is_disabled": 0, "rental_uris": {"ios": "https://dc.lft.to/lastmile_qr_scan", "android": "https://dc.lft.to/lastmile_qr_scan"}, "is_reserved": 0}, {"lon": -77.04319283333334, "bike_id": "3f076749b119611c6d186476d15b176d", "lat": 38.918833666666664, "fusion_lon": 0.0, "fusion_lat": 0.0, "type": "electric_scooter", "name": "3f076749b119611c6d186476d15b176d", "is_disabled": 0, "rental_uris": {"ios": "https://dc.lft.to/lastmile_qr_scan", "android": "https://dc.lft.to/lastmile_qr_scan"}, "is_reserved": 0}, {"lon": -77.0198545, "bike_id": "709f22f2e74c63ad76768ac4ffee0ba1", "lat": 38.96028666666667, "fusion_lon": 0.0, "fusion_lat": 0.0, "type": "electric_scooter", "name": "709f22f2e74c63ad76768ac4ffee0ba1", "is_disabled": 0, "rental_uris": {"ios": "https://dc.lft.to/lastmile_qr_scan", "android": "https://dc.lft.to/lastmile_qr_scan"}, "is_reserved": 0}, {"lon": -76.98751416666667, "bike_id": "ff7d6570489550bbec52fe8861583c38", "lat": 38.90379683333333, "fusion_lon": 0.0, "fusion_lat": 0.0, "type": "electric_scooter", "name": "ff7d6570489550bbec52fe8861583c38", "is_disabled": 0, "rental_uris": {"ios": "https://dc.lft.to/lastmile_qr_scan", "android": "https://dc.lft.to/lastmile_qr_scan"}, "is_reserved": 0}, {"lon": -76.9499815, "bike_id": "73f3115d056b05c395662b42fc983c45", "lat": 38.89392, "fusion_lon": 0.0, "fusion_lat": 0.0, "type": "electric_scooter", "name": "73f3115d056b05c395662b42fc983c45", "is_disabled": 0, "rental_uris": {"ios": "https://dc.lft.to/lastmile_qr_scan", "android": "https://dc.lft.to/lastmile_qr_scan"}, "is_reserved": 0}, {"lon": -76.9853055, "bike_id": "4738a9a7d4fb9b7ed4bca5b984c08a06", "lat": 38.9102495, "fusion_lon": 0.0, "fusion_lat": 0.0, "type": "electric_scooter", "name": "4738a9a7d4fb9b7ed4bca5b984c08a06", "is_disabled": 0, "rental_uris": {"ios": "https://dc.lft.to/lastmile_qr_scan", "android": "https://dc.lft.to/lastmile_qr_scan"}, "is_reserved": 0}, {"lon": -76.9871015, "bike_id": "08eeef28e40c65e5eed39f53f8b2a850", "lat": 38.866943666666664, "fusion_lon": 0.0, "fusion_lat": 0.0, "type": "electric_scooter", "name": "08eeef28e40c65e5eed39f53f8b2a850", "is_disabled": 0, "rental_uris": {"ios": "https://dc.lft.to/lastmile_qr_scan", "android": "https://dc.lft.to/lastmile_qr_scan"}, "is_reserved": 0}, {"lon": -77.03167016666667, "bike_id": "3f0c309c94183f110e83efd9b8f82885", "lat": 38.88413283333333, "fusion_lon": 0.0, "fusion_lat": 0.0, "type": "electric_scooter", "name": "3f0c309c94183f110e83efd9b8f82885", "is_disabled": 0, "rental_uris": {"ios": "https://dc.lft.to/lastmile_qr_scan", "android": "https://dc.lft.to/lastmile_qr_scan"}, "is_reserved": 0}, {"lon": -76.93177433333334, "bike_id": "f3dfd749133a783b941262873e07ef9d", "lat": 38.8988075, "fusion_lon": 0.0, "fusion_lat": 0.0, "type": "electric_scooter", "name": "f3dfd749133a783b941262873e07ef9d", "is_disabled": 0, "rental_uris": {"ios": "https://dc.lft.to/lastmile_qr_scan", "android": "https://dc.lft.to/lastmile_qr_scan"}, "is_reserved": 0}, {"lon": -77.01410733333333, "bike_id": "f42ebbe4691ebb38b2aeca0fb10e87d7", "lat": 38.928224166666666, "fusion_lon": 0.0, "fusion_lat": 0.0, "type": "electric_scooter", "name": "f42ebbe4691ebb38b2aeca0fb10e87d7", "is_disabled": 0, "rental_uris": {"ios": "https://dc.lft.to/lastmile_qr_scan", "android": "https://dc.lft.to/lastmile_qr_scan"}, "is_reserved": 0}, {"lon": -77.0014025, "bike_id": "19488a881a011d4b5b4eb1e0d4a08c6d", "lat": 38.84278916666667, "fusion_lon": 0.0, "fusion_lat": 0.0, "type": "electric_scooter", "name": "19488a881a011d4b5b4eb1e0d4a08c6d", "is_disabled": 0, "rental_uris": {"ios": "https://dc.lft.to/lastmile_qr_scan", "android": "https://dc.lft.to/lastmile_qr_scan"}, "is_reserved": 0}, {"lon": -77.0187435, "bike_id": "20a1d4cf42a26bd991864e4855bb3833", "lat": 38.91578716666667, "fusion_lon": 0.0, "fusion_lat": 0.0, "type": "electric_scooter", "name": "20a1d4cf42a26bd991864e4855bb3833", "is_disabled": 0, "rental_uris": {"ios": "https://dc.lft.to/lastmile_qr_scan", "android": "https://dc.lft.to/lastmile_qr_scan"}, "is_reserved": 0}, {"lon": -77.0026915, "bike_id": "30684d32f14aa9ed0cbc5b9d4ca4a040", "lat": 38.911492833333334, "fusion_lon": 0.0, "fusion_lat": 0.0, "type": "electric_bike", "name": "30684d32f14aa9ed0cbc5b9d4ca4a040", "is_disabled": 0, "rental_uris": {"ios": "https://dc.lft.to/lastmile_qr_scan", "android": "https://dc.lft.to/lastmile_qr_scan"}, "is_reserved": 0}, {"lon": -76.98710416666667, "bike_id": "6b75b7f472831849732e1a16691704c7", "lat": 38.866985666666665, "fusion_lon": 0.0, "fusion_lat": 0.0, "type": "electric_scooter", "name": "6b75b7f472831849732e1a16691704c7", "is_disabled": 0, "rental_uris": {"ios": "https://dc.lft.to/lastmile_qr_scan", "android": "https://dc.lft.to/lastmile_qr_scan"}, "is_reserved": 0}, {"lon": -77.032224, "bike_id": "d855ec0dc70f3b0a84786df34bd797cb", "lat": 38.908881666666666, "fusion_lon": 0.0, "fusion_lat": 0.0, "type": "electric_scooter", "name": "d855ec0dc70f3b0a84786df34bd797cb", "is_disabled": 0, "rental_uris": {"ios": "https://dc.lft.to/lastmile_qr_scan", "android": "https://dc.lft.to/lastmile_qr_scan"}, "is_reserved": 0}, {"lon": -77.0322845, "bike_id": "04e864247464672557e957f925c3dc05", "lat": 38.929881, "fusion_lon": 0.0, "fusion_lat": 0.0, "type": "electric_scooter", "name": "04e864247464672557e957f925c3dc05", "is_disabled": 0, "rental_uris": {"ios": "https://dc.lft.to/lastmile_qr_scan", "android": "https://dc.lft.to/lastmile_qr_scan"}, "is_reserved": 0}, {"lon": -77.0268035, "bike_id": "ac3b8680739cfff647d5a051c2a0cfdd", "lat": 38.98486833333333, "fusion_lon": 0.0, "fusion_lat": 0.0, "type": "electric_scooter", "name": "ac3b8680739cfff647d5a051c2a0cfdd", "is_disabled": 0, "rental_uris": {"ios": "https://dc.lft.to/lastmile_qr_scan", "android": "https://dc.lft.to/lastmile_qr_scan"}, "is_reserved": 0}, {"lon": -77.02101533333334, "bike_id": "34286f27599244f88320518e44257d98", "lat": 38.921755166666664, "fusion_lon": 0.0, "fusion_lat": 0.0, "type": "electric_scooter", "name": "34286f27599244f88320518e44257d98", "is_disabled": 0, "rental_uris": {"ios": "https://dc.lft.to/lastmile_qr_scan", "android": "https://dc.lft.to/lastmile_qr_scan"}, "is_reserved": 0}, {"lon": -76.965201, "bike_id": "805ac003cf88776382787e78bedf1970", "lat": 38.876272666666665, "fusion_lon": 0.0, "fusion_lat": 0.0, "type": "electric_scooter", "name": "805ac003cf88776382787e78bedf1970", "is_disabled": 0, "rental_uris": {"ios": "https://dc.lft.to/lastmile_qr_scan", "android": "https://dc.lft.to/lastmile_qr_scan"}, "is_reserved": 0}, {"lon": -77.031318, "bike_id": "a23e817ff1eaf9e2b40aea68acd3c312", "lat": 38.91562533333333, "fusion_lon": 0.0, "fusion_lat": 0.0, "type": "electric_scooter", "name": "a23e817ff1eaf9e2b40aea68acd3c312", "is_disabled": 0, "rental_uris": {"ios": "https://dc.lft.to/lastmile_qr_scan", "android": "https://dc.lft.to/lastmile_qr_scan"}, "is_reserved": 0}, {"lon": -77.02792933333333, "bike_id": "654178ff42710be1f3f83c2a4e87dd5a", "lat": 38.96145816666667, "fusion_lon": 0.0, "fusion_lat": 0.0, "type": "electric_scooter", "name": "654178ff42710be1f3f83c2a4e87dd5a", "is_disabled": 0, "rental_uris": {"ios": "https://dc.lft.to/lastmile_qr_scan", "android": "https://dc.lft.to/lastmile_qr_scan"}, "is_reserved": 0}, {"lon": -77.05261, "bike_id": "2cae706ab13be2e16d4d255f64a44468", "lat": 38.89974466666666, "fusion_lon": 0.0, "fusion_lat": 0.0, "type": "electric_scooter", "name": "2cae706ab13be2e16d4d255f64a44468", "is_disabled": 0, "rental_uris": {"ios": "https://dc.lft.to/lastmile_qr_scan", "android": "https://dc.lft.to/lastmile_qr_scan"}, "is_reserved": 0}, {"lon": -77.0261015, "bike_id": "d5049c971b00b2fd7878daef5f7a6a6e", "lat": 38.929839333333334, "fusion_lon": 0.0, "fusion_lat": 0.0, "type": "electric_scooter", "name": "d5049c971b00b2fd7878daef5f7a6a6e", "is_disabled": 0, "rental_uris": {"ios": "https://dc.lft.to/lastmile_qr_scan", "android": "https://dc.lft.to/lastmile_qr_scan"}, "is_reserved": 0}, {"lon": -77.02323283333334, "bike_id": "3a3a10d9eb6c8e812f8e1a3d16fc1ef0", "lat": 38.92083, "fusion_lon": 0.0, "fusion_lat": 0.0, "type": "electric_scooter", "name": "3a3a10d9eb6c8e812f8e1a3d16fc1ef0", "is_disabled": 0, "rental_uris": {"ios": "https://dc.lft.to/lastmile_qr_scan", "android": "https://dc.lft.to/lastmile_qr_scan"}, "is_reserved": 0}, {"lon": -76.996806, "bike_id": "084aa3c65da1ccbac14f8b5895b69263", "lat": 38.886824833333336, "fusion_lon": 0.0, "fusion_lat": 0.0, "type": "electric_scooter", "name": "084aa3c65da1ccbac14f8b5895b69263", "is_disabled": 0, "rental_uris": {"ios": "https://dc.lft.to/lastmile_qr_scan", "android": "https://dc.lft.to/lastmile_qr_scan"}, "is_reserved": 0}, {"lon": -77.032111, "bike_id": "43e1a6cdff5d1e319a02ca569459207b", "lat": 38.909526166666666, "fusion_lon": 0.0, "fusion_lat": 0.0, "type": "electric_scooter", "name": "43e1a6cdff5d1e319a02ca569459207b", "is_disabled": 0, "rental_uris": {"ios": "https://dc.lft.to/lastmile_qr_scan", "android": "https://dc.lft.to/lastmile_qr_scan"}, "is_reserved": 0}, {"lon": -77.051826, "bike_id": "f7e67626aa0210497a3cad2b810030ee", "lat": 38.92424, "fusion_lon": 0.0, "fusion_lat": 0.0, "type": "electric_scooter", "name": "f7e67626aa0210497a3cad2b810030ee", "is_disabled": 0, "rental_uris": {"ios": "https://dc.lft.to/lastmile_qr_scan", "android": "https://dc.lft.to/lastmile_qr_scan"}, "is_reserved": 0}, {"lon": -77.0523665, "bike_id": "4743dab0728d72fd2a5ac61762e62cf2", "lat": 38.924707166666664, "fusion_lon": 0.0, "fusion_lat": 0.0, "type": "electric_scooter", "name": "4743dab0728d72fd2a5ac61762e62cf2", "is_disabled": 0, "rental_uris": {"ios": "https://dc.lft.to/lastmile_qr_scan", "android": "https://dc.lft.to/lastmile_qr_scan"}, "is_reserved": 0}, {"lon": -77.03261866666666, "bike_id": "f909d92e9c947bbe61078fa589264cfb", "lat": 38.92537133333333, "fusion_lon": 0.0, "fusion_lat": 0.0, "type": "electric_scooter", "name": "f909d92e9c947bbe61078fa589264cfb", "is_disabled": 0, "rental_uris": {"ios": "https://dc.lft.to/lastmile_qr_scan", "android": "https://dc.lft.to/lastmile_qr_scan"}, "is_reserved": 0}, {"lon": -77.0239905, "bike_id": "287793515137c51f0ab59acc6ea6feeb", "lat": 38.93391616666667, "fusion_lon": 0.0, "fusion_lat": 0.0, "type": "electric_scooter", "name": "287793515137c51f0ab59acc6ea6feeb", "is_disabled": 0, "rental_uris": {"ios": "https://dc.lft.to/lastmile_qr_scan", "android": "https://dc.lft.to/lastmile_qr_scan"}, "is_reserved": 0}, {"lon": -77.04247916666667, "bike_id": "22afde86963d8a83b13277618564ef74", "lat": 38.926352333333334, "fusion_lon": 0.0, "fusion_lat": 0.0, "type": "electric_scooter", "name": "22afde86963d8a83b13277618564ef74", "is_disabled": 0, "rental_uris": {"ios": "https://dc.lft.to/lastmile_qr_scan", "android": "https://dc.lft.to/lastmile_qr_scan"}, "is_reserved": 0}, {"lon": -77.0439985, "bike_id": "b671762ba04cdb1ed42a8c20282bf372", "lat": 38.933253, "fusion_lon": 0.0, "fusion_lat": 0.0, "type": "electric_scooter", "name": "b671762ba04cdb1ed42a8c20282bf372", "is_disabled": 0, "rental_uris": {"ios": "https://dc.lft.to/lastmile_qr_scan", "android": "https://dc.lft.to/lastmile_qr_scan"}, "is_reserved": 0}, {"lon": -77.04841316666666, "bike_id": "35f6d1af754039213bfa0991c20672aa", "lat": 38.90480016666667, "fusion_lon": 0.0, "fusion_lat": 0.0, "type": "electric_scooter", "name": "35f6d1af754039213bfa0991c20672aa", "is_disabled": 0, "rental_uris": {"ios": "https://dc.lft.to/lastmile_qr_scan", "android": "https://dc.lft.to/lastmile_qr_scan"}, "is_reserved": 0}, {"lon": -77.03251666666667, "bike_id": "eed2f6dc9bf85da90f26e691e11ff6d4", "lat": 38.9294955, "fusion_lon": 0.0, "fusion_lat": 0.0, "type": "electric_scooter", "name": "eed2f6dc9bf85da90f26e691e11ff6d4", "is_disabled": 0, "rental_uris": {"ios": "https://dc.lft.to/lastmile_qr_scan", "android": "https://dc.lft.to/lastmile_qr_scan"}, "is_reserved": 0}, {"lon": -77.007816, "bike_id": "a3bec8664795361b6c33a07ab8bdf203", "lat": 38.90646483333333, "fusion_lon": 0.0, "fusion_lat": 0.0, "type": "electric_scooter", "name": "a3bec8664795361b6c33a07ab8bdf203", "is_disabled": 0, "rental_uris": {"ios": "https://dc.lft.to/lastmile_qr_scan", "android": "https://dc.lft.to/lastmile_qr_scan"}, "is_reserved": 0}, {"lon": -77.0230765, "bike_id": "f8de97b48544610578fa63944fd383d9", "lat": 38.909559333333334, "fusion_lon": 0.0, "fusion_lat": 0.0, "type": "electric_scooter", "name": "f8de97b48544610578fa63944fd383d9", "is_disabled": 0, "rental_uris": {"ios": "https://dc.lft.to/lastmile_qr_scan", "android": "https://dc.lft.to/lastmile_qr_scan"}, "is_reserved": 0}, {"lon": -77.05277283333334, "bike_id": "363556b33eed86f70e2b82ebe3b17c79", "lat": 38.91016883333333, "fusion_lon": 0.0, "fusion_lat": 0.0, "type": "electric_scooter", "name": "363556b33eed86f70e2b82ebe3b17c79", "is_disabled": 0, "rental_uris": {"ios": "https://dc.lft.to/lastmile_qr_scan", "android": "https://dc.lft.to/lastmile_qr_scan"}, "is_reserved": 0}, {"lon": -77.04579016666666, "bike_id": "35b3989016aeeed679fbc54f2cf3c68b", "lat": 38.92140333333333, "fusion_lon": 0.0, "fusion_lat": 0.0, "type": "electric_scooter", "name": "35b3989016aeeed679fbc54f2cf3c68b", "is_disabled": 0, "rental_uris": {"ios": "https://dc.lft.to/lastmile_qr_scan", "android": "https://dc.lft.to/lastmile_qr_scan"}, "is_reserved": 0}, {"lon": -77.03180666666667, "bike_id": "5d80a5de7d465c7a8a7232754a4a32a4", "lat": 38.91124033333333, "fusion_lon": 0.0, "fusion_lat": 0.0, "type": "electric_scooter", "name": "5d80a5de7d465c7a8a7232754a4a32a4", "is_disabled": 0, "rental_uris": {"ios": "https://dc.lft.to/lastmile_qr_scan", "android": "https://dc.lft.to/lastmile_qr_scan"}, "is_reserved": 0}, {"lon": -77.02267816666667, "bike_id": "d3b387cd4337138e4cc8d6a311594e93", "lat": 38.93772083333333, "fusion_lon": 0.0, "fusion_lat": 0.0, "type": "electric_scooter", "name": "d3b387cd4337138e4cc8d6a311594e93", "is_disabled": 0, "rental_uris": {"ios": "https://dc.lft.to/lastmile_qr_scan", "android": "https://dc.lft.to/lastmile_qr_scan"}, "is_reserved": 0}, {"lon": -77.02789816666666, "bike_id": "5c6349ad8411a16ad18e163a29d4e510", "lat": 38.956792666666665, "fusion_lon": 0.0, "fusion_lat": 0.0, "type": "electric_scooter", "name": "5c6349ad8411a16ad18e163a29d4e510", "is_disabled": 0, "rental_uris": {"ios": "https://dc.lft.to/lastmile_qr_scan", "android": "https://dc.lft.to/lastmile_qr_scan"}, "is_reserved": 0}, {"lon": -77.02714983333334, "bike_id": "ac70f13bfb474024fb3e3a8db0fbd636", "lat": 38.906721, "fusion_lon": 0.0, "fusion_lat": 0.0, "type": "electric_scooter", "name": "ac70f13bfb474024fb3e3a8db0fbd636", "is_disabled": 0, "rental_uris": {"ios": "https://dc.lft.to/lastmile_qr_scan", "android": "https://dc.lft.to/lastmile_qr_scan"}, "is_reserved": 0}, {"lon": -77.00768166666667, "bike_id": "29aa1adb11213ee7f81d47c98aa01262", "lat": 38.87926216666666, "fusion_lon": 0.0, "fusion_lat": 0.0, "type": "electric_scooter", "name": "29aa1adb11213ee7f81d47c98aa01262", "is_disabled": 0, "rental_uris": {"ios": "https://dc.lft.to/lastmile_qr_scan", "android": "https://dc.lft.to/lastmile_qr_scan"}, "is_reserved": 0}, {"lon": -77.03089283333334, "bike_id": "108a358fcb8e8c95f5155aae787b0201", "lat": 38.91707783333333, "fusion_lon": 0.0, "fusion_lat": 0.0, "type": "electric_scooter", "name": "108a358fcb8e8c95f5155aae787b0201", "is_disabled": 0, "rental_uris": {"ios": "https://dc.lft.to/lastmile_qr_scan", "android": "https://dc.lft.to/lastmile_qr_scan"}, "is_reserved": 0}, {"lon": -77.02294533333334, "bike_id": "5a8fa04ee9dd283963fb633fd04d6be3", "lat": 38.9160105, "fusion_lon": 0.0, "fusion_lat": 0.0, "type": "electric_scooter", "name": "5a8fa04ee9dd283963fb633fd04d6be3", "is_disabled": 0, "rental_uris": {"ios": "https://dc.lft.to/lastmile_qr_scan", "android": "https://dc.lft.to/lastmile_qr_scan"}, "is_reserved": 0}, {"lon": -77.04740583333333, "bike_id": "1bc69db842b31479ba53d1192400171d", "lat": 38.917648166666666, "fusion_lon": 0.0, "fusion_lat": 0.0, "type": "electric_scooter", "name": "1bc69db842b31479ba53d1192400171d", "is_disabled": 0, "rental_uris": {"ios": "https://dc.lft.to/lastmile_qr_scan", "android": "https://dc.lft.to/lastmile_qr_scan"}, "is_reserved": 0}, {"lon": -77.026861, "bike_id": "4b15cc4fe98181b25283b1d1befe5b27", "lat": 38.90844033333333, "fusion_lon": 0.0, "fusion_lat": 0.0, "type": "electric_scooter", "name": "4b15cc4fe98181b25283b1d1befe5b27", "is_disabled": 0, "rental_uris": {"ios": "https://dc.lft.to/lastmile_qr_scan", "android": "https://dc.lft.to/lastmile_qr_scan"}, "is_reserved": 0}, {"lon": -77.02237033333333, "bike_id": "a76020ddaf7d58fe608e848d364c5ef0", "lat": 38.96202233333333, "fusion_lon": 0.0, "fusion_lat": 0.0, "type": "electric_scooter", "name": "a76020ddaf7d58fe608e848d364c5ef0", "is_disabled": 0, "rental_uris": {"ios": "https://dc.lft.to/lastmile_qr_scan", "android": "https://dc.lft.to/lastmile_qr_scan"}, "is_reserved": 0}, {"lon": -76.98226933333333, "bike_id": "0a6a0a4ccd728f8cc78f19bc562bcdda", "lat": 38.91645833333333, "fusion_lon": 0.0, "fusion_lat": 0.0, "type": "electric_scooter", "name": "0a6a0a4ccd728f8cc78f19bc562bcdda", "is_disabled": 0, "rental_uris": {"ios": "https://dc.lft.to/lastmile_qr_scan", "android": "https://dc.lft.to/lastmile_qr_scan"}, "is_reserved": 0}, {"lon": -77.01348, "bike_id": "ab886a6709407bc29be96a6e015326e8", "lat": 38.878123, "fusion_lon": 0.0, "fusion_lat": 0.0, "type": "electric_scooter", "name": "ab886a6709407bc29be96a6e015326e8", "is_disabled": 0, "rental_uris": {"ios": "https://dc.lft.to/lastmile_qr_scan", "android": "https://dc.lft.to/lastmile_qr_scan"}, "is_reserved": 0}, {"lon": -77.03804783333334, "bike_id": "f804800789fea51d344c63fff976593b", "lat": 38.93052983333333, "fusion_lon": 0.0, "fusion_lat": 0.0, "type": "electric_scooter", "name": "f804800789fea51d344c63fff976593b", "is_disabled": 0, "rental_uris": {"ios": "https://dc.lft.to/lastmile_qr_scan", "android": "https://dc.lft.to/lastmile_qr_scan"}, "is_reserved": 0}, {"lon": -77.02310866666667, "bike_id": "a53a522b1ebcdda258924e3a3b40144c", "lat": 38.909574166666665, "fusion_lon": 0.0, "fusion_lat": 0.0, "type": "electric_scooter", "name": "a53a522b1ebcdda258924e3a3b40144c", "is_disabled": 0, "rental_uris": {"ios": "https://dc.lft.to/lastmile_qr_scan", "android": "https://dc.lft.to/lastmile_qr_scan"}, "is_reserved": 0}, {"lon": -77.03445433333333, "bike_id": "5fe014943b265227b53309b541c1f917", "lat": 38.92727383333333, "fusion_lon": 0.0, "fusion_lat": 0.0, "type": "electric_scooter", "name": "5fe014943b265227b53309b541c1f917", "is_disabled": 0, "rental_uris": {"ios": "https://dc.lft.to/lastmile_qr_scan", "android": "https://dc.lft.to/lastmile_qr_scan"}, "is_reserved": 0}, {"lon": -76.985261, "bike_id": "b1d2aa11d103d6c2f1d0125b5645b708", "lat": 38.904562166666665, "fusion_lon": 0.0, "fusion_lat": 0.0, "type": "electric_scooter", "name": "b1d2aa11d103d6c2f1d0125b5645b708", "is_disabled": 0, "rental_uris": {"ios": "https://dc.lft.to/lastmile_qr_scan", "android": "https://dc.lft.to/lastmile_qr_scan"}, "is_reserved": 0}, {"lon": -77.04737933333334, "bike_id": "52d216cf89f48b59f1734d7222ddea1e", "lat": 38.91757883333333, "fusion_lon": 0.0, "fusion_lat": 0.0, "type": "electric_scooter", "name": "52d216cf89f48b59f1734d7222ddea1e", "is_disabled": 0, "rental_uris": {"ios": "https://dc.lft.to/lastmile_qr_scan", "android": "https://dc.lft.to/lastmile_qr_scan"}, "is_reserved": 0}, {"lon": -77.01893583333333, "bike_id": "298f8e08a09e4b225c74c12bb58c3f3f", "lat": 38.8993625, "fusion_lon": 0.0, "fusion_lat": 0.0, "type": "electric_bike", "name": "298f8e08a09e4b225c74c12bb58c3f3f", "is_disabled": 0, "rental_uris": {"ios": "https://dc.lft.to/lastmile_qr_scan", "android": "https://dc.lft.to/lastmile_qr_scan"}, "is_reserved": 0}, {"lon": -77.1170875, "bike_id": "6d95d4627fdaa0db873f837b4dfe8ba7", "lat": 38.867444166666665, "fusion_lon": 0.0, "fusion_lat": 0.0, "type": "electric_bike", "name": "6d95d4627fdaa0db873f837b4dfe8ba7", "is_disabled": 0, "rental_uris": {"ios": "https://dc.lft.to/lastmile_qr_scan", "android": "https://dc.lft.to/lastmile_qr_scan"}, "is_reserved": 0}, {"lon": -76.99808316666666, "bike_id": "96b487745afba533930736953acec7b4", "lat": 38.829187166666664, "fusion_lon": 0.0, "fusion_lat": 0.0, "type": "electric_bike", "name": "96b487745afba533930736953acec7b4", "is_disabled": 0, "rental_uris": {"ios": "https://dc.lft.to/lastmile_qr_scan", "android": "https://dc.lft.to/lastmile_qr_scan"}, "is_reserved": 0}, {"lon": -76.95749766666667, "bike_id": "948ab4c1ffca870ca064536f3fd1023f", "lat": 38.88422883333333, "fusion_lon": 0.0, "fusion_lat": 0.0, "type": "electric_scooter", "name": "948ab4c1ffca870ca064536f3fd1023f", "is_disabled": 0, "rental_uris": {"ios": "https://dc.lft.to/lastmile_qr_scan", "android": "https://dc.lft.to/lastmile_qr_scan"}, "is_reserved": 0}, {"lon": -77.04464666666667, "bike_id": "8ada56b529c9022158f4c78508a33ff1", "lat": 38.90788933333333, "fusion_lon": 0.0, "fusion_lat": 0.0, "type": "electric_scooter", "name": "8ada56b529c9022158f4c78508a33ff1", "is_disabled": 0, "rental_uris": {"ios": "https://dc.lft.to/lastmile_qr_scan", "android": "https://dc.lft.to/lastmile_qr_scan"}, "is_reserved": 0}, {"lon": -77.048091, "bike_id": "0e1e1dd7841b03077a905b1e3ba684a6", "lat": 38.90715383333333, "fusion_lon": 0.0, "fusion_lat": 0.0, "type": "electric_scooter", "name": "0e1e1dd7841b03077a905b1e3ba684a6", "is_disabled": 0, "rental_uris": {"ios": "https://dc.lft.to/lastmile_qr_scan", "android": "https://dc.lft.to/lastmile_qr_scan"}, "is_reserved": 0}, {"lon": -77.02357283333333, "bike_id": "cb3c481908c863c0e25c25aff1eb1dd3", "lat": 38.92221266666667, "fusion_lon": 0.0, "fusion_lat": 0.0, "type": "electric_scooter", "name": "cb3c481908c863c0e25c25aff1eb1dd3", "is_disabled": 0, "rental_uris": {"ios": "https://dc.lft.to/lastmile_qr_scan", "android": "https://dc.lft.to/lastmile_qr_scan"}, "is_reserved": 0}, {"lon": -76.99362766666667, "bike_id": "2ff688aac435f92b41bb2e297e28fb46", "lat": 38.900217166666664, "fusion_lon": 0.0, "fusion_lat": 0.0, "type": "electric_scooter", "name": "2ff688aac435f92b41bb2e297e28fb46", "is_disabled": 0, "rental_uris": {"ios": "https://dc.lft.to/lastmile_qr_scan", "android": "https://dc.lft.to/lastmile_qr_scan"}, "is_reserved": 0}, {"lon": -77.02443833333334, "bike_id": "96536cbe266fa82fad26268fee9047cc", "lat": 38.90732883333333, "fusion_lon": 0.0, "fusion_lat": 0.0, "type": "electric_scooter", "name": "96536cbe266fa82fad26268fee9047cc", "is_disabled": 0, "rental_uris": {"ios": "https://dc.lft.to/lastmile_qr_scan", "android": "https://dc.lft.to/lastmile_qr_scan"}, "is_reserved": 0}, {"lon": -77.0219985, "bike_id": "b1eb3388f71bd4be77cdd3ef36df67c0", "lat": 38.89361533333334, "fusion_lon": 0.0, "fusion_lat": 0.0, "type": "electric_scooter", "name": "b1eb3388f71bd4be77cdd3ef36df67c0", "is_disabled": 0, "rental_uris": {"ios": "https://dc.lft.to/lastmile_qr_scan", "android": "https://dc.lft.to/lastmile_qr_scan"}, "is_reserved": 0}, {"lon": -77.08457133333333, "bike_id": "e67c281e46d94d496627e73cda31ea85", "lat": 38.84819483333333, "fusion_lon": 0.0, "fusion_lat": 0.0, "type": "electric_bike", "name": "e67c281e46d94d496627e73cda31ea85", "is_disabled": 0, "rental_uris": {"ios": "https://dc.lft.to/lastmile_qr_scan", "android": "https://dc.lft.to/lastmile_qr_scan"}, "is_reserved": 0}, {"lon": -77.03812466666666, "bike_id": "98632042c4c53f26f2a24e94aff990bc", "lat": 38.9103515, "fusion_lon": 0.0, "fusion_lat": 0.0, "type": "electric_scooter", "name": "98632042c4c53f26f2a24e94aff990bc", "is_disabled": 0, "rental_uris": {"ios": "https://dc.lft.to/lastmile_qr_scan", "android": "https://dc.lft.to/lastmile_qr_scan"}, "is_reserved": 0}, {"lon": -77.01325733333333, "bike_id": "ddec4cef6a89ba70ef57c6e3657ccfc0", "lat": 38.87923033333333, "fusion_lon": 0.0, "fusion_lat": 0.0, "type": "electric_scooter", "name": "ddec4cef6a89ba70ef57c6e3657ccfc0", "is_disabled": 0, "rental_uris": {"ios": "https://dc.lft.to/lastmile_qr_scan", "android": "https://dc.lft.to/lastmile_qr_scan"}, "is_reserved": 0}, {"lon": -77.035042, "bike_id": "376150b069507e062480673f93dd9403", "lat": 38.93749583333334, "fusion_lon": 0.0, "fusion_lat": 0.0, "type": "electric_scooter", "name": "376150b069507e062480673f93dd9403", "is_disabled": 0, "rental_uris": {"ios": "https://dc.lft.to/lastmile_qr_scan", "android": "https://dc.lft.to/lastmile_qr_scan"}, "is_reserved": 0}, {"lon": -77.063415, "bike_id": "de106f8bc3a319ca54e2ab56b392c172", "lat": 38.906821, "fusion_lon": 0.0, "fusion_lat": 0.0, "type": "electric_scooter", "name": "de106f8bc3a319ca54e2ab56b392c172", "is_disabled": 0, "rental_uris": {"ios": "https://dc.lft.to/lastmile_qr_scan", "android": "https://dc.lft.to/lastmile_qr_scan"}, "is_reserved": 0}, {"lon": -77.031817, "bike_id": "d3d66b67accc31d5ea2f4839a68e8022", "lat": 38.908693166666666, "fusion_lon": 0.0, "fusion_lat": 0.0, "type": "electric_scooter", "name": "d3d66b67accc31d5ea2f4839a68e8022", "is_disabled": 0, "rental_uris": {"ios": "https://dc.lft.to/lastmile_qr_scan", "android": "https://dc.lft.to/lastmile_qr_scan"}, "is_reserved": 0}, {"lon": -77.055358, "bike_id": "fd52dc6bc9c0b3163aae72870e4b2ac5", "lat": 38.9342865, "fusion_lon": 0.0, "fusion_lat": 0.0, "type": "electric_scooter", "name": "fd52dc6bc9c0b3163aae72870e4b2ac5", "is_disabled": 0, "rental_uris": {"ios": "https://dc.lft.to/lastmile_qr_scan", "android": "https://dc.lft.to/lastmile_qr_scan"}, "is_reserved": 0}, {"lon": -77.04946066666666, "bike_id": "3a59e0d6cec6451cbc23c073b1168296", "lat": 38.897420833333335, "fusion_lon": 0.0, "fusion_lat": 0.0, "type": "electric_scooter", "name": "3a59e0d6cec6451cbc23c073b1168296", "is_disabled": 0, "rental_uris": {"ios": "https://dc.lft.to/lastmile_qr_scan", "android": "https://dc.lft.to/lastmile_qr_scan"}, "is_reserved": 0}, {"lon": -77.0389835, "bike_id": "7e8b51a7903c135cdb464f374453be59", "lat": 38.92352783333333, "fusion_lon": 0.0, "fusion_lat": 0.0, "type": "electric_scooter", "name": "7e8b51a7903c135cdb464f374453be59", "is_disabled": 0, "rental_uris": {"ios": "https://dc.lft.to/lastmile_qr_scan", "android": "https://dc.lft.to/lastmile_qr_scan"}, "is_reserved": 0}, {"lon": -77.02423033333334, "bike_id": "10239aab987800c79bb699a2d6ddf8bd", "lat": 38.926596, "fusion_lon": 0.0, "fusion_lat": 0.0, "type": "electric_scooter", "name": "10239aab987800c79bb699a2d6ddf8bd", "is_disabled": 0, "rental_uris": {"ios": "https://dc.lft.to/lastmile_qr_scan", "android": "https://dc.lft.to/lastmile_qr_scan"}, "is_reserved": 0}, {"lon": -77.03419133333334, "bike_id": "814be2d319549736c89a603e7e7c1f1b", "lat": 38.92243883333333, "fusion_lon": 0.0, "fusion_lat": 0.0, "type": "electric_scooter", "name": "814be2d319549736c89a603e7e7c1f1b", "is_disabled": 0, "rental_uris": {"ios": "https://dc.lft.to/lastmile_qr_scan", "android": "https://dc.lft.to/lastmile_qr_scan"}, "is_reserved": 0}, {"lon": -77.00359583333334, "bike_id": "71bd1caef0cf19cbe0fa9f0a869482bd", "lat": 38.9204605, "fusion_lon": 0.0, "fusion_lat": 0.0, "type": "electric_scooter", "name": "71bd1caef0cf19cbe0fa9f0a869482bd", "is_disabled": 0, "rental_uris": {"ios": "https://dc.lft.to/lastmile_qr_scan", "android": "https://dc.lft.to/lastmile_qr_scan"}, "is_reserved": 0}, {"lon": -77.03845183333334, "bike_id": "b4a356eb075eb5d2083bdb6426af9178", "lat": 38.914703333333335, "fusion_lon": 0.0, "fusion_lat": 0.0, "type": "electric_scooter", "name": "b4a356eb075eb5d2083bdb6426af9178", "is_disabled": 0, "rental_uris": {"ios": "https://dc.lft.to/lastmile_qr_scan", "android": "https://dc.lft.to/lastmile_qr_scan"}, "is_reserved": 0}, {"lon": -77.11601183333333, "bike_id": "ece3e193f351a10b6eb39436f3df002d", "lat": 38.854779666666666, "fusion_lon": 0.0, "fusion_lat": 0.0, "type": "electric_bike", "name": "ece3e193f351a10b6eb39436f3df002d", "is_disabled": 0, "rental_uris": {"ios": "https://dc.lft.to/lastmile_qr_scan", "android": "https://dc.lft.to/lastmile_qr_scan"}, "is_reserved": 0}, {"lon": -77.00430933333334, "bike_id": "fb2d50b639e89cda9ffde8e9f4218ba0", "lat": 38.87688566666667, "fusion_lon": 0.0, "fusion_lat": 0.0, "type": "electric_scooter", "name": "fb2d50b639e89cda9ffde8e9f4218ba0", "is_disabled": 0, "rental_uris": {"ios": "https://dc.lft.to/lastmile_qr_scan", "android": "https://dc.lft.to/lastmile_qr_scan"}, "is_reserved": 0}, {"lon": -77.02717716666666, "bike_id": "f60ae98971031fd9283625f08c3e8ecf", "lat": 38.90666233333334, "fusion_lon": 0.0, "fusion_lat": 0.0, "type": "electric_scooter", "name": "f60ae98971031fd9283625f08c3e8ecf", "is_disabled": 0, "rental_uris": {"ios": "https://dc.lft.to/lastmile_qr_scan", "android": "https://dc.lft.to/lastmile_qr_scan"}, "is_reserved": 0},