{"data": {"bikes": [{"rental_uris": {"ios": "https://dc.lft.to/lastmile_qr_scan", "android": "https://dc.lft.to/lastmile_qr_scan"}, "type": "electric_scooter", "name": "e3c7463c003ba9f139699624d4ecf6e1", "is_reserved": 0, "lon": -77.037254, "is_disabled": 0, "fusion_lat": 0.0, "lat": 38.92644633333333, "bike_id": "e3c7463c003ba9f139699624d4ecf6e1", "fusion_lon": 0.0}, {"rental_uris": {"ios": "https://dc.lft.to/lastmile_qr_scan", "android": "https://dc.lft.to/lastmile_qr_scan"}, "type": "electric_scooter", "name": "afe8592ffe69032e48087892daee7ac6", "is_reserved": 0, "lon": -76.99414883333333, "is_disabled": 0, "fusion_lat": 0.0, "lat": 38.87785566666667, "bike_id": "afe8592ffe69032e48087892daee7ac6", "fusion_lon": 0.0}, {"rental_uris": {"ios": "https://dc.lft.to/lastmile_qr_scan", "android": "https://dc.lft.to/lastmile_qr_scan"}, "type": "electric_scooter", "name": "db56a8dbf53145f0d76580fad178c5c0", "is_reserved": 0, "lon": -77.03476583333334, "is_disabled": 0, "fusion_lat": 0.0, "lat": 38.930259666666664, "bike_id": "db56a8dbf53145f0d76580fad178c5c0", "fusion_lon": 0.0}, {"rental_uris": {"ios": "https://dc.lft.to/lastmile_qr_scan", "android": "https://dc.lft.to/lastmile_qr_scan"}, "type": "electric_bike", "name": "ac2478cb113f386457f55b41b902874d", "is_reserved": 0, "lon": -76.90309066666667, "is_disabled": 0, "fusion_lat": 0.0, "lat": 39.00300433333334, "bike_id": "ac2478cb113f386457f55b41b902874d", "fusion_lon": 0.0}, {"rental_uris": {"ios": "https://dc.lft.to/lastmile_qr_scan", "android": "https://dc.lft.to/lastmile_qr_scan"}, "type": "electric_scooter", "name": "548527868eca5b988398e819b8d8e676", "is_reserved": 0, "lon": -77.02882983333333, "is_disabled": 0, "fusion_lat": 0.0, "lat": 38.9070445, "bike_id": "548527868eca5b988398e819b8d8e676", "fusion_lon": 0.0}, {"rental_uris": {"ios": "https://dc.lft.to/lastmile_qr_scan", "android": "https://dc.lft.to/lastmile_qr_scan"}, "type": "electric_scooter", "name": "44c9f6b57fe20e266d68598bfd69e01e", "is_reserved": 0, "lon": -77.035202, "is_disabled": 0, "fusion_lat": 0.0, "lat": 38.92223933333333, "bike_id": "44c9f6b57fe20e266d68598bfd69e01e", "fusion_lon": 0.0}, {"rental_uris": {"ios": "https://dc.lft.to/lastmile_qr_scan", "android": "https://dc.lft.to/lastmile_qr_scan"}, "type": "electric_scooter", "name": "c9151eccb450c6b10b10f868a997e507", "is_reserved": 0, "lon": -77.008767, "is_disabled": 0, "fusion_lat": 0.0, "lat": 38.912517666666666, "bike_id": "c9151eccb450c6b10b10f868a997e507", "fusion_lon": 0.0}, {"rental_uris": {"ios": "https://dc.lft.to/lastmile_qr_scan", "android": "https://dc.lft.to/lastmile_qr_scan"}, "type": "electric_scooter", "name": "b980ccd9929adbbf733484f308ac0628", "is_reserved": 0, "lon": -77.050638, "is_disabled": 0, "fusion_lat": 0.0, "lat": 38.92363916666667, "bike_id": "b980ccd9929adbbf733484f308ac0628", "fusion_lon": 0.0}, {"rental_uris": {"ios": "https://dc.lft.to/lastmile_qr_scan", "android": "https://dc.lft.to/lastmile_qr_scan"}, "type": "electric_scooter", "name": "f95fd2ce83d04dc7377c227283a831ae", "is_reserved": 0, "lon": -76.99843066666666, "is_disabled": 0, "fusion_lat": 0.0, "lat": 38.90298633333333, "bike_id": "f95fd2ce83d04dc7377c227283a831ae", "fusion_lon": 0.0}, {"rental_uris": {"ios": "https://dc.lft.to/lastmile_qr_scan", "android": "https://dc.lft.to/lastmile_qr_scan"}, "type": "electric_scooter", "name": "a71f1fe3888229978e264fb359e1eb7f", "is_reserved": 0, "lon": -77.00564416666667, "is_disabled": 0, "fusion_lat": 0.0, "lat": 38.909325, "bike_id": "a71f1fe3888229978e264fb359e1eb7f", "fusion_lon": 0.0}, {"rental_uris": {"ios": "https://dc.lft.to/lastmile_qr_scan", "android": "https://dc.lft.to/lastmile_qr_scan"}, "type": "electric_scooter", "name": "54ff2c09891ce8875f2c25a3ec48ca1f", "is_reserved": 0, "lon": -77.01198966666666, "is_disabled": 0, "fusion_lat": 0.0, "lat": 38.90024716666667, "bike_id": "54ff2c09891ce8875f2c25a3ec48ca1f", "fusion_lon": 0.0}, {"rental_uris": {"ios": "https://dc.lft.to/lastmile_qr_scan", "android": "https://dc.lft.to/lastmile_qr_scan"}, "type": "electric_scooter", "name": "fe8d6b72efa1ab1cae68e8fbfd633cc9", "is_reserved": 0, "lon": -77.02810466666666, "is_disabled": 0, "fusion_lat": 0.0, "lat": 38.892143833333336, "bike_id": "fe8d6b72efa1ab1cae68e8fbfd633cc9", "fusion_lon": 0.0}, {"rental_uris": {"ios": "https://dc.lft.to/lastmile_qr_scan", "android": "https://dc.lft.to/lastmile_qr_scan"}, "type": "electric_scooter", "name": "f4503dc4f6a83d1ecd924a54d4bbb4dd", "is_reserved": 0, "lon": -77.03277333333334, "is_disabled": 0, "fusion_lat": 0.0, "lat": 38.91997466666667, "bike_id": "f4503dc4f6a83d1ecd924a54d4bbb4dd", "fusion_lon": 0.0}, {"rental_uris": {"ios": "https://dc.lft.to/lastmile_qr_scan", "android": "https://dc.lft.to/lastmile_qr_scan"}, "type": "electric_scooter", "name": "dc4d9e6b93a4133652852424a55936a4", "is_reserved": 0, "lon": -77.045301, "is_disabled": 0, "fusion_lat": 0.0, "lat": 38.91910333333333, "bike_id": "dc4d9e6b93a4133652852424a55936a4", "fusion_lon": 0.0}, {"rental_uris": {"ios": "https://dc.lft.to/lastmile_qr_scan", "android": "https://dc.lft.to/lastmile_qr_scan"}, "type": "electric_scooter", "name": "5cbc60219a44c934a060f29c3ed2767b", "is_reserved": 0, "lon": -77.039101, "is_disabled": 0, "fusion_lat": 0.0, "lat": 38.91419483333333, "bike_id": "5cbc60219a44c934a060f29c3ed2767b", "fusion_lon": 0.0}, {"rental_uris": {"ios": "https://dc.lft.to/lastmile_qr_scan", "android": "https://dc.lft.to/lastmile_qr_scan"}, "type": "electric_scooter", "name": "f16fe66a320908c63209a1d037cb3be7", "is_reserved": 0, "lon": -77.03266366666666, "is_disabled": 0, "fusion_lat": 0.0, "lat": 38.91029566666667, "bike_id": "f16fe66a320908c63209a1d037cb3be7", "fusion_lon": 0.0}, {"rental_uris": {"ios": "https://dc.lft.to/lastmile_qr_scan", "android": "https://dc.lft.to/lastmile_qr_scan"}, "type": "electric_scooter", "name": "a1772fe35b8118496eb9ed2aa53f3d38", "is_reserved": 0, "lon": -77.03175933333333, "is_disabled": 0, "fusion_lat": 0.0, "lat": 38.91824033333333, "bike_id": "a1772fe35b8118496eb9ed2aa53f3d38", "fusion_lon": 0.0}, {"rental_uris": {"ios": "https://dc.lft.to/lastmile_qr_scan", "android": "https://dc.lft.to/lastmile_qr_scan"}, "type": "electric_scooter", "name": "c0a874e36f10063dc200677a3addce30", "is_reserved": 0, "lon": -77.03646416666666, "is_disabled": 0, "fusion_lat": 0.0, "lat": 38.925980333333335, "bike_id": "c0a874e36f10063dc200677a3addce30", "fusion_lon": 0.0}, {"rental_uris": {"ios": "https://dc.lft.to/lastmile_qr_scan", "android": "https://dc.lft.to/lastmile_qr_scan"}, "type": "electric_scooter", "name": "e5c4364bd3f857f8da1e9de5be4a133c", "is_reserved": 0, "lon": -77.04373483333333, "is_disabled": 0, "fusion_lat": 0.0, "lat": 38.93153233333334, "bike_id": "e5c4364bd3f857f8da1e9de5be4a133c", "fusion_lon": 0.0}, {"rental_uris": {"ios": "https://dc.lft.to/lastmile_qr_scan", "android": "https://dc.lft.to/lastmile_qr_scan"}, "type": "electric_scooter", "name": "e93d9bf9fe8c4bfe3d235b19da131870", "is_reserved": 0, "lon": -77.056413, "is_disabled": 0, "fusion_lat": 0.0, "lat": 38.93598216666667, "bike_id": "e93d9bf9fe8c4bfe3d235b19da131870", "fusion_lon": 0.0}, {"rental_uris": {"ios": "https://dc.lft.to/lastmile_qr_scan", "android": "https://dc.lft.to/lastmile_qr_scan"}, "type": "electric_scooter", "name": "e6aeae19059229216d3615d8a2cb045e", "is_reserved": 0, "lon": -77.04372466666666, "is_disabled": 0, "fusion_lat": 0.0, "lat": 38.91650533333333, "bike_id": "e6aeae19059229216d3615d8a2cb045e", "fusion_lon": 0.0}, {"rental_uris": {"ios": "https://dc.lft.to/lastmile_qr_scan", "android": "https://dc.lft.to/lastmile_qr_scan"}, "type": "electric_scooter", "name": "06c180450e49842ba59271f45530af00", "is_reserved": 0, "lon": -77.09358833333333, "is_disabled": 0, "fusion_lat": 0.0, "lat": 38.8839745, "bike_id": "06c180450e49842ba59271f45530af00", "fusion_lon": 0.0}, {"rental_uris": {"ios": "https://dc.lft.to/lastmile_qr_scan", "android": "https://dc.lft.to/lastmile_qr_scan"}, "type": "electric_scooter", "name": "75ee17c22bb055065589ddbec4bb0755", "is_reserved": 0, "lon": -77.03464366666667, "is_disabled": 0, "fusion_lat": 0.0, "lat": 38.9080235, "bike_id": "75ee17c22bb055065589ddbec4bb0755", "fusion_lon": 0.0}, {"rental_uris": {"ios": "https://dc.lft.to/lastmile_qr_scan", "android": "https://dc.lft.to/lastmile_qr_scan"}, "type": "electric_scooter", "name": "89039aa8fe3602521b7544c29b8b1e0c", "is_reserved": 0, "lon": -77.02893983333334, "is_disabled": 0, "fusion_lat": 0.0, "lat": 38.907181666666666, "bike_id": "89039aa8fe3602521b7544c29b8b1e0c", "fusion_lon": 0.0}, {"rental_uris": {"ios": "https://dc.lft.to/lastmile_qr_scan", "android": "https://dc.lft.to/lastmile_qr_scan"}, "type": "electric_scooter", "name": "01f1e49d8c5edd485869069152ce78a6", "is_reserved": 0, "lon": -77.01887716666667, "is_disabled": 0, "fusion_lat": 0.0, "lat": 38.89750133333333, "bike_id": "01f1e49d8c5edd485869069152ce78a6", "fusion_lon": 0.0}, {"rental_uris": {"ios": "https://dc.lft.to/lastmile_qr_scan", "android": "https://dc.lft.to/lastmile_qr_scan"}, "type": "electric_bike", "name": "bc04bfb198b0a5e9c68c0ab99f0f0071", "is_reserved": 0, "lon": -76.9497905, "is_disabled": 0, "fusion_lat": 0.0, "lat": 38.883002, "bike_id": "bc04bfb198b0a5e9c68c0ab99f0f0071", "fusion_lon": 0.0}, {"rental_uris": {"ios": "https://dc.lft.to/lastmile_qr_scan", "android": "https://dc.lft.to/lastmile_qr_scan"}, "type": "electric_scooter", "name": "5af21b07ec6ae528b8edfc13e498e72e", "is_reserved": 0, "lon": -77.02911916666666, "is_disabled": 0, "fusion_lat": 0.0, "lat": 38.94042, "bike_id": "5af21b07ec6ae528b8edfc13e498e72e", "fusion_lon": 0.0}, {"rental_uris": {"ios": "https://dc.lft.to/lastmile_qr_scan", "android": "https://dc.lft.to/lastmile_qr_scan"}, "type": "electric_bike", "name": "a29a701b16cf1ccb9fd40adee46dd490", "is_reserved": 0, "lon": -77.01230916666667, "is_disabled": 0, "fusion_lat": 0.0, "lat": 38.95091583333333, "bike_id": "a29a701b16cf1ccb9fd40adee46dd490", "fusion_lon": 0.0}, {"rental_uris": {"ios": "https://dc.lft.to/lastmile_qr_scan", "android": "https://dc.lft.to/lastmile_qr_scan"}, "type": "electric_scooter", "name": "0fe3a7d080bdb3729dd08ea2fdc7017e", "is_reserved": 0, "lon": -77.02828183333334, "is_disabled": 0, "fusion_lat": 0.0, "lat": 38.9026705, "bike_id": "0fe3a7d080bdb3729dd08ea2fdc7017e", "fusion_lon": 0.0}, {"rental_uris": {"ios": "https://dc.lft.to/lastmile_qr_scan", "android": "https://dc.lft.to/lastmile_qr_scan"}, "type": "electric_scooter", "name": "56558af5b2a62765265a6699c1fb422f", "is_reserved": 0, "lon": -76.98581733333333, "is_disabled": 0, "fusion_lat": 0.0, "lat": 38.85451316666666, "bike_id": "56558af5b2a62765265a6699c1fb422f", "fusion_lon": 0.0}, {"rental_uris": {"ios": "https://dc.lft.to/lastmile_qr_scan", "android": "https://dc.lft.to/lastmile_qr_scan"}, "type": "electric_bike", "name": "e830e95ef808a82cd2c2eb857c53c8c8", "is_reserved": 0, "lon": -77.000011, "is_disabled": 0, "fusion_lat": 0.0, "lat": 38.92390616666667, "bike_id": "e830e95ef808a82cd2c2eb857c53c8c8", "fusion_lon": 0.0}, {"rental_uris": {"ios": "https://dc.lft.to/lastmile_qr_scan", "android": "https://dc.lft.to/lastmile_qr_scan"}, "type": "electric_scooter", "name": "4dad2489c74f1d9101487c7ae5c1a95e", "is_reserved": 0, "lon": -77.02418366666667, "is_disabled": 0, "fusion_lat": 0.0, "lat": 38.90572566666667, "bike_id": "4dad2489c74f1d9101487c7ae5c1a95e", "fusion_lon": 0.0}, {"rental_uris": {"ios": "https://dc.lft.to/lastmile_qr_scan", "android": "https://dc.lft.to/lastmile_qr_scan"}, "type": "electric_scooter", "name": "093dd1475cb8f1de90f85f7c1136e442", "is_reserved": 0, "lon": -77.04120316666666, "is_disabled": 0, "fusion_lat": 0.0, "lat": 38.931052, "bike_id": "093dd1475cb8f1de90f85f7c1136e442", "fusion_lon": 0.0}, {"rental_uris": {"ios": "https://dc.lft.to/lastmile_qr_scan", "android": "https://dc.lft.to/lastmile_qr_scan"}, "type": "electric_scooter", "name": "da1e4343f9d278049f35b8ae97d35a6c", "is_reserved": 0, "lon": -77.02353316666667, "is_disabled": 0, "fusion_lat": 0.0, "lat": 38.945285166666665, "bike_id": "da1e4343f9d278049f35b8ae97d35a6c", "fusion_lon": 0.0}, {"rental_uris": {"ios": "https://dc.lft.to/lastmile_qr_scan", "android": "https://dc.lft.to/lastmile_qr_scan"}, "type": "electric_scooter", "name": "df89cefc8f55d9c557e77246dc978301", "is_reserved": 0, "lon": -77.04502833333333, "is_disabled": 0, "fusion_lat": 0.0, "lat": 38.892230166666664, "bike_id": "df89cefc8f55d9c557e77246dc978301", "fusion_lon": 0.0}, {"rental_uris": {"ios": "https://dc.lft.to/lastmile_qr_scan", "android": "https://dc.lft.to/lastmile_qr_scan"}, "type": "electric_scooter", "name": "dfffd59be7d56dc23dadbe8d4881daa5", "is_reserved": 0, "lon": -77.03023883333333, "is_disabled": 0, "fusion_lat": 0.0, "lat": 38.922441, "bike_id": "dfffd59be7d56dc23dadbe8d4881daa5", "fusion_lon": 0.0}, {"rental_uris": {"ios": "https://dc.lft.to/lastmile_qr_scan", "android": "https://dc.lft.to/lastmile_qr_scan"}, "type": "electric_scooter", "name": "94ae47117b7b03596cdab68bce0935db", "is_reserved": 0, "lon": -77.02712033333333, "is_disabled": 0, "fusion_lat": 0.0, "lat": 38.90597366666667, "bike_id": "94ae47117b7b03596cdab68bce0935db", "fusion_lon": 0.0}, {"rental_uris": {"ios": "https://dc.lft.to/lastmile_qr_scan", "android": "https://dc.lft.to/lastmile_qr_scan"}, "type": "electric_scooter", "name": "1f657e02fe485771f02058ebeb2d34e7", "is_reserved": 0, "lon": -77.02222583333334, "is_disabled": 0, "fusion_lat": 0.0, "lat": 38.8935275, "bike_id": "1f657e02fe485771f02058ebeb2d34e7", "fusion_lon": 0.0}, {"rental_uris": {"ios": "https://dc.lft.to/lastmile_qr_scan", "android": "https://dc.lft.to/lastmile_qr_scan"}, "type": "electric_scooter", "name": "4be20205ae4ab0e1c6e2c2e5d579b356", "is_reserved": 0, "lon": -77.03873116666666, "is_disabled": 0, "fusion_lat": 0.0, "lat": 38.921483, "bike_id": "4be20205ae4ab0e1c6e2c2e5d579b356", "fusion_lon": 0.0}, {"rental_uris": {"ios": "https://dc.lft.to/lastmile_qr_scan", "android": "https://dc.lft.to/lastmile_qr_scan"}, "type": "electric_scooter", "name": "4d04d9192bd329169bec6a21071b34da", "is_reserved": 0, "lon": -76.998698, "is_disabled": 0, "fusion_lat": 0.0, "lat": 38.900249333333335, "bike_id": "4d04d9192bd329169bec6a21071b34da", "fusion_lon": 0.0}, {"rental_uris": {"ios": "https://dc.lft.to/lastmile_qr_scan", "android": "https://dc.lft.to/lastmile_qr_scan"}, "type": "electric_scooter", "name": "67b43258c8ef6f3ca8ba08bd11175ed0", "is_reserved": 0, "lon": -77.0092865, "is_disabled": 0, "fusion_lat": 0.0, "lat": 38.896094833333336, "bike_id": "67b43258c8ef6f3ca8ba08bd11175ed0", "fusion_lon": 0.0}, {"rental_uris": {"ios": "https://dc.lft.to/lastmile_qr_scan", "android": "https://dc.lft.to/lastmile_qr_scan"}, "type": "electric_scooter", "name": "953b831cb65771dc1188316eddb91141", "is_reserved": 0, "lon": -77.05788783333334, "is_disabled": 0, "fusion_lat": 0.0, "lat": 38.905127, "bike_id": "953b831cb65771dc1188316eddb91141", "fusion_lon": 0.0}, {"rental_uris": {"ios": "https://dc.lft.to/lastmile_qr_scan", "android": "https://dc.lft.to/lastmile_qr_scan"}, "type": "electric_scooter", "name": "7dac0991f2c844432081c259a38d57b2", "is_reserved": 0, "lon": -77.03507666666667, "is_disabled": 0, "fusion_lat": 0.0, "lat": 38.92150133333333, "bike_id": "7dac0991f2c844432081c259a38d57b2", "fusion_lon": 0.0}, {"rental_uris": {"ios": "https://dc.lft.to/lastmile_qr_scan", "android": "https://dc.lft.to/lastmile_qr_scan"}, "type": "electric_scooter", "name": "4279602ac5354eb83449e50ea9e89083", "is_reserved": 0, "lon": -77.033278, "is_disabled": 0, "fusion_lat": 0.0, "lat": 38.919135833333335, "bike_id": "4279602ac5354eb83449e50ea9e89083", "fusion_lon": 0.0}, {"rental_uris": {"ios": "https://dc.lft.to/lastmile_qr_scan", "android": "https://dc.lft.to/lastmile_qr_scan"}, "type": "electric_scooter", "name": "8d16da8695c51300042546f91ccd8bdd", "is_reserved": 0, "lon": -76.99639516666667, "is_disabled": 0, "fusion_lat": 0.0, "lat": 38.8876875, "bike_id": "8d16da8695c51300042546f91ccd8bdd", "fusion_lon": 0.0}, {"rental_uris": {"ios": "https://dc.lft.to/lastmile_qr_scan", "android": "https://dc.lft.to/lastmile_qr_scan"}, "type": "electric_bike", "name": "1e7a1f8974cd9bfcf56617d6ffa3cbc2", "is_reserved": 0, "lon": -76.980956, "is_disabled": 0, "fusion_lat": 0.0, "lat": 38.9536105, "bike_id": "1e7a1f8974cd9bfcf56617d6ffa3cbc2", "fusion_lon": 0.0}, {"rental_uris": {"ios": "https://dc.lft.to/lastmile_qr_scan", "android": "https://dc.lft.to/lastmile_qr_scan"}, "type": "electric_scooter", "name": "31c33ba1357df47d0087db1f88cce74f", "is_reserved": 0, "lon": -77.02155716666667, "is_disabled": 0, "fusion_lat": 0.0, "lat": 38.88743216666667, "bike_id": "31c33ba1357df47d0087db1f88cce74f", "fusion_lon": 0.0}, {"rental_uris": {"ios": "https://dc.lft.to/lastmile_qr_scan", "android": "https://dc.lft.to/lastmile_qr_scan"}, "type": "electric_scooter", "name": "a60426e2af98b1065554c61a49dbd581", "is_reserved": 0, "lon": -76.97936483333334, "is_disabled": 0, "fusion_lat": 0.0, "lat": 38.906595833333334, "bike_id": "a60426e2af98b1065554c61a49dbd581", "fusion_lon": 0.0}, {"rental_uris": {"ios": "https://dc.lft.to/lastmile_qr_scan", "android": "https://dc.lft.to/lastmile_qr_scan"}, "type": "electric_scooter", "name": "7d626359ddf321ad8b5735a6ab28fa9e", "is_reserved": 0, "lon": -77.02633066666667, "is_disabled": 0, "fusion_lat": 0.0, "lat": 38.926819333333334, "bike_id": "7d626359ddf321ad8b5735a6ab28fa9e", "fusion_lon": 0.0}, {"rental_uris": {"ios": "https://dc.lft.to/lastmile_qr_scan", "android": "https://dc.lft.to/lastmile_qr_scan"}, "type": "electric_scooter", "name": "28894e5488ab48dbabd2501453a1fb3d", "is_reserved": 0, "lon": -76.952805, "is_disabled": 0, "fusion_lat": 0.0, "lat": 38.89025633333333, "bike_id": "28894e5488ab48dbabd2501453a1fb3d", "fusion_lon": 0.0}, {"rental_uris": {"ios": "https://dc.lft.to/lastmile_qr_scan", "android": "https://dc.lft.to/lastmile_qr_scan"}, "type": "electric_bike", "name": "93807b5049d481e86bb5e2b8d29d89a4", "is_reserved": 0, "lon": -76.99547216666667, "is_disabled": 0, "fusion_lat": 0.0, "lat": 38.83159416666667, "bike_id": "93807b5049d481e86bb5e2b8d29d89a4", "fusion_lon": 0.0}, {"rental_uris": {"ios": "https://dc.lft.to/lastmile_qr_scan", "android": "https://dc.lft.to/lastmile_qr_scan"}, "type": "electric_scooter", "name": "7c489f9cd0541194f45ca088474c2700", "is_reserved": 0, "lon": -77.009047, "is_disabled": 0, "fusion_lat": 0.0, "lat": 38.8988705, "bike_id": "7c489f9cd0541194f45ca088474c2700", "fusion_lon": 0.0}, {"rental_uris": {"ios": "https://dc.lft.to/lastmile_qr_scan", "android": "https://dc.lft.to/lastmile_qr_scan"}, "type": "electric_scooter", "name": "1d79ba196a5c50ad69c793f8f6a743ff", "is_reserved": 0, "lon": -77.02077083333333, "is_disabled": 0, "fusion_lat": 0.0, "lat": 38.9302875, "bike_id": "1d79ba196a5c50ad69c793f8f6a743ff", "fusion_lon": 0.0}, {"rental_uris": {"ios": "https://dc.lft.to/lastmile_qr_scan", "android": "https://dc.lft.to/lastmile_qr_scan"}, "type": "electric_scooter", "name": "e1af79ef6cfe0d7590616ad1ac4f89c5", "is_reserved": 0, "lon": -77.02091433333334, "is_disabled": 0, "fusion_lat": 0.0, "lat": 38.931155833333335, "bike_id": "e1af79ef6cfe0d7590616ad1ac4f89c5", "fusion_lon": 0.0}, {"rental_uris": {"ios": "https://dc.lft.to/lastmile_qr_scan", "android": "https://dc.lft.to/lastmile_qr_scan"}, "type": "electric_bike", "name": "7ae7e907a849689048c45971ed36f172", "is_reserved": 0, "lon": -77.00379466666666, "is_disabled": 0, "fusion_lat": 0.0, "lat": 38.83606433333333, "bike_id": "7ae7e907a849689048c45971ed36f172", "fusion_lon": 0.0}, {"rental_uris": {"ios": "https://dc.lft.to/lastmile_qr_scan", "android": "https://dc.lft.to/lastmile_qr_scan"}, "type": "electric_scooter", "name": "219ac91f47ce1f7dd53f80de0023ae0d", "is_reserved": 0, "lon": -77.02841066666667, "is_disabled": 0, "fusion_lat": 0.0, "lat": 38.887313, "bike_id": "219ac91f47ce1f7dd53f80de0023ae0d", "fusion_lon": 0.0}, {"rental_uris": {"ios": "https://dc.lft.to/lastmile_qr_scan", "android": "https://dc.lft.to/lastmile_qr_scan"}, "type": "electric_scooter", "name": "8bf09bb460661fe06c846e54254b64ab", "is_reserved": 0, "lon": -77.00191683333334, "is_disabled": 0, "fusion_lat": 0.0, "lat": 38.9079115, "bike_id": "8bf09bb460661fe06c846e54254b64ab", "fusion_lon": 0.0}, {"rental_uris": {"ios": "https://dc.lft.to/lastmile_qr_scan", "android": "https://dc.lft.to/lastmile_qr_scan"}, "type": "electric_scooter", "name": "76ebe15d3a615bbc0216b22045115501", "is_reserved": 0, "lon": -77.02744516666667, "is_disabled": 0, "fusion_lat": 0.0, "lat": 38.92968166666667, "bike_id": "76ebe15d3a615bbc0216b22045115501", "fusion_lon": 0.0}, {"rental_uris": {"ios": "https://dc.lft.to/lastmile_qr_scan", "android": "https://dc.lft.to/lastmile_qr_scan"}, "type": "electric_scooter", "name": "44928d0659649f7d4acd97351593ddec", "is_reserved": 0, "lon": -77.04127483333333, "is_disabled": 0, "fusion_lat": 0.0, "lat": 38.934087, "bike_id": "44928d0659649f7d4acd97351593ddec", "fusion_lon": 0.0}, {"rental_uris": {"ios": "https://dc.lft.to/lastmile_qr_scan", "android": "https://dc.lft.to/lastmile_qr_scan"}, "type": "electric_scooter", "name": "351b98ddf3613f070e04bae022f1e863", "is_reserved": 0, "lon": -77.01639216666666, "is_disabled": 0, "fusion_lat": 0.0, "lat": 38.902434, "bike_id": "351b98ddf3613f070e04bae022f1e863", "fusion_lon": 0.0}, {"rental_uris": {"ios": "https://dc.lft.to/lastmile_qr_scan", "android": "https://dc.lft.to/lastmile_qr_scan"}, "type": "electric_bike", "name": "82b4b4941e673ec3c66ca986b2ee5ebc", "is_reserved": 0, "lon": -77.03377366666666, "is_disabled": 0, "fusion_lat": 0.0, "lat": 38.9288445, "bike_id": "82b4b4941e673ec3c66ca986b2ee5ebc", "fusion_lon": 0.0}, {"rental_uris": {"ios": "https://dc.lft.to/lastmile_qr_scan", "android": "https://dc.lft.to/lastmile_qr_scan"}, "type": "electric_bike", "name": "2f03a5267f3ca95626c0486ea08dbc60", "is_reserved": 0, "lon": -76.963278, "is_disabled": 0, "fusion_lat": 0.0, "lat": 38.93897783333333, "bike_id": "2f03a5267f3ca95626c0486ea08dbc60", "fusion_lon": 0.0}, {"rental_uris": {"ios": "https://dc.lft.to/lastmile_qr_scan", "android": "https://dc.lft.to/lastmile_qr_scan"}, "type": "electric_bike", "name": "2bd1db6adb377fce1da95cbedd9310f8", "is_reserved": 0, "lon": -77.08146616666667, "is_disabled": 0, "fusion_lat": 0.0, "lat": 38.822981166666665, "bike_id": "2bd1db6adb377fce1da95cbedd9310f8", "fusion_lon": 0.0}, {"rental_uris": {"ios": "https://dc.lft.to/lastmile_qr_scan", "android": "https://dc.lft.to/lastmile_qr_scan"}, "type": "electric_scooter", "name": "b2184b372661101253b2933631bce97a", "is_reserved": 0, "lon": -77.03866883333333, "is_disabled": 0, "fusion_lat": 0.0, "lat": 38.90814266666667, "bike_id": "b2184b372661101253b2933631bce97a", "fusion_lon": 0.0}, {"rental_uris": {"ios": "https://dc.lft.to/lastmile_qr_scan", "android": "https://dc.lft.to/lastmile_qr_scan"}, "type": "electric_scooter", "name": "91f318395b472586a43c55b9b3b438da", "is_reserved": 0, "lon": -77.02319116666666, "is_disabled": 0, "fusion_lat": 0.0, "lat": 38.92781333333333, "bike_id": "91f318395b472586a43c55b9b3b438da", "fusion_lon": 0.0}, {"rental_uris": {"ios": "https://dc.lft.to/lastmile_qr_scan", "android": "https://dc.lft.to/lastmile_qr_scan"}, "type": "electric_scooter", "name": "672eb19022a5782f1846d9b1d6eeb71d", "is_reserved": 0, "lon": -77.00606083333334, "is_disabled": 0, "fusion_lat": 0.0, "lat": 38.905648, "bike_id": "672eb19022a5782f1846d9b1d6eeb71d", "fusion_lon": 0.0}, {"rental_uris": {"ios": "https://dc.lft.to/lastmile_qr_scan", "android": "https://dc.lft.to/lastmile_qr_scan"}, "type": "electric_scooter", "name": "409726797893bc9550720b178faf4f8f", "is_reserved": 0, "lon": -77.036212, "is_disabled": 0, "fusion_lat": 0.0, "lat": 38.903431, "bike_id": "409726797893bc9550720b178faf4f8f", "fusion_lon": 0.0}, {"rental_uris": {"ios": "https://dc.lft.to/lastmile_qr_scan", "android": "https://dc.lft.to/lastmile_qr_scan"}, "type": "electric_scooter", "name": "a24331a4dbf1ac944167d6865e613952", "is_reserved": 0, "lon": -77.03882566666667, "is_disabled": 0, "fusion_lat": 0.0, "lat": 38.93313116666667, "bike_id": "a24331a4dbf1ac944167d6865e613952", "fusion_lon": 0.0}, {"rental_uris": {"ios": "https://dc.lft.to/lastmile_qr_scan", "android": "https://dc.lft.to/lastmile_qr_scan"}, "type": "electric_bike", "name": "c4e9fb73d0fbffa87a77aaa0fa558283", "is_reserved": 0, "lon": -77.0897535, "is_disabled": 0, "fusion_lat": 0.0, "lat": 38.911692333333335, "bike_id": "c4e9fb73d0fbffa87a77aaa0fa558283", "fusion_lon": 0.0}, {"rental_uris": {"ios": "https://dc.lft.to/lastmile_qr_scan", "android": "https://dc.lft.to/lastmile_qr_scan"}, "type": "electric_scooter", "name": "a2194f2209576ef482854101aeb4b660", "is_reserved": 0, "lon": -77.01085216666667, "is_disabled": 0, "fusion_lat": 0.0, "lat": 38.90333283333333, "bike_id": "a2194f2209576ef482854101aeb4b660", "fusion_lon": 0.0}, {"rental_uris": {"ios": "https://dc.lft.to/lastmile_qr_scan", "android": "https://dc.lft.to/lastmile_qr_scan"}, "type": "electric_scooter", "name": "76ad2e46f1f308f7db62bb21ebdd3edb", "is_reserved": 0, "lon": -77.03426133333333, "is_disabled": 0, "fusion_lat": 0.0, "lat": 38.90256466666666, "bike_id": "76ad2e46f1f308f7db62bb21ebdd3edb", "fusion_lon": 0.0}, {"rental_uris": {"ios": "https://dc.lft.to/lastmile_qr_scan", "android": "https://dc.lft.to/lastmile_qr_scan"}, "type": "electric_scooter", "name": "261937d93483a172bdbe5a49b304f480", "is_reserved": 0, "lon": -77.03870516666667, "is_disabled": 0, "fusion_lat": 0.0, "lat": 38.915654833333335, "bike_id": "261937d93483a172bdbe5a49b304f480", "fusion_lon": 0.0}, {"rental_uris": {"ios": "https://dc.lft.to/lastmile_qr_scan", "android": "https://dc.lft.to/lastmile_qr_scan"}, "type": "electric_scooter", "name": "0a4333580d47bbf21bebc512613b8c62", "is_reserved": 0, "lon": -77.0431875, "is_disabled": 0, "fusion_lat": 0.0, "lat": 38.917846, "bike_id": "0a4333580d47bbf21bebc512613b8c62", "fusion_lon": 0.0}, {"rental_uris": {"ios": "https://dc.lft.to/lastmile_qr_scan", "android": "https://dc.lft.to/lastmile_qr_scan"}, "type": "electric_scooter", "name": "6f7ab472e44f00294d80190452061fe2", "is_reserved": 0, "lon": -77.0163845, "is_disabled": 0, "fusion_lat": 0.0, "lat": 38.903787333333334, "bike_id": "6f7ab472e44f00294d80190452061fe2", "fusion_lon": 0.0}, {"rental_uris": {"ios": "https://dc.lft.to/lastmile_qr_scan", "android": "https://dc.lft.to/lastmile_qr_scan"}, "type": "electric_scooter", "name": "efadc960f2105c1114729c900a2dddd8", "is_reserved": 0, "lon": -77.02178433333333, "is_disabled": 0, "fusion_lat": 0.0, "lat": 38.91786333333334, "bike_id": "efadc960f2105c1114729c900a2dddd8", "fusion_lon": 0.0}, {"rental_uris": {"ios": "https://dc.lft.to/lastmile_qr_scan", "android": "https://dc.lft.to/lastmile_qr_scan"}, "type": "electric_scooter", "name": "cc872ace371b1e9215e9fc99714faa05", "is_reserved": 0, "lon": -77.0281645, "is_disabled": 0, "fusion_lat": 0.0, "lat": 38.909339, "bike_id": "cc872ace371b1e9215e9fc99714faa05", "fusion_lon": 0.0}, {"rental_uris": {"ios": "https://dc.lft.to/lastmile_qr_scan", "android": "https://dc.lft.to/lastmile_qr_scan"}, "type": "electric_scooter", "name": "d437a0b56eb8b3c1e508de04d4f6d2d2", "is_reserved": 0, "lon": -77.04349116666667, "is_disabled": 0, "fusion_lat": 0.0, "lat": 38.9079275, "bike_id": "d437a0b56eb8b3c1e508de04d4f6d2d2", "fusion_lon": 0.0}, {"rental_uris": {"ios": "https://dc.lft.to/lastmile_qr_scan", "android": "https://dc.lft.to/lastmile_qr_scan"}, "type": "electric_scooter", "name": "0eb47c93ac9bb86b3d275ce23fca9d9f", "is_reserved": 0, "lon": -77.02741816666666, "is_disabled": 0, "fusion_lat": 0.0, "lat": 38.904784666666664, "bike_id": "0eb47c93ac9bb86b3d275ce23fca9d9f", "fusion_lon": 0.0}, {"rental_uris": {"ios": "https://dc.lft.to/lastmile_qr_scan", "android": "https://dc.lft.to/lastmile_qr_scan"}, "type": "electric_scooter", "name": "409661b4f920ddb8c01466bd39c8bc84", "is_reserved": 0, "lon": -77.011561, "is_disabled": 0, "fusion_lat": 0.0, "lat": 38.9110015, "bike_id": "409661b4f920ddb8c01466bd39c8bc84", "fusion_lon": 0.0}, {"rental_uris": {"ios": "https://dc.lft.to/lastmile_qr_scan", "android": "https://dc.lft.to/lastmile_qr_scan"}, "type": "electric_scooter", "name": "2c1eeec015f76ea9cf3d9d3cae85de1b", "is_reserved": 0, "lon": -77.07823883333333, "is_disabled": 0, "fusion_lat": 0.0, "lat": 38.9226065, "bike_id": "2c1eeec015f76ea9cf3d9d3cae85de1b", "fusion_lon": 0.0}, {"rental_uris": {"ios": "https://dc.lft.to/lastmile_qr_scan", "android": "https://dc.lft.to/lastmile_qr_scan"}, "type": "electric_scooter", "name": "93362d4e088dd0d22737473e793c8233", "is_reserved": 0, "lon": -77.0014905, "is_disabled": 0, "fusion_lat": 0.0, "lat": 38.87498016666667, "bike_id": "93362d4e088dd0d22737473e793c8233", "fusion_lon": 0.0}, {"rental_uris": {"ios": "https://dc.lft.to/lastmile_qr_scan", "android": "https://dc.lft.to/lastmile_qr_scan"}, "type": "electric_scooter", "name": "4ddcc53175b7d93644fad8b744a8d943", "is_reserved": 0, "lon": -77.02688566666667, "is_disabled": 0, "fusion_lat": 0.0, "lat": 38.900732833333336, "bike_id": "4ddcc53175b7d93644fad8b744a8d943", "fusion_lon": 0.0}, {"rental_uris": {"ios": "https://dc.lft.to/lastmile_qr_scan", "android": "https://dc.lft.to/lastmile_qr_scan"}, "type": "electric_bike", "name": "5260bddf38b4c6770d08b584fd74dd9f", "is_reserved": 0, "lon": -77.0898135, "is_disabled": 0, "fusion_lat": 0.0, "lat": 38.911765, "bike_id": "5260bddf38b4c6770d08b584fd74dd9f", "fusion_lon": 0.0}, {"rental_uris": {"ios": "https://dc.lft.to/lastmile_qr_scan", "android": "https://dc.lft.to/lastmile_qr_scan"}, "type": "electric_scooter", "name": "55e889401158833e315c358834fe2558", "is_reserved": 0, "lon": -77.01196333333333, "is_disabled": 0, "fusion_lat": 0.0, "lat": 38.90023466666667, "bike_id": "55e889401158833e315c358834fe2558", "fusion_lon": 0.0}, {"rental_uris": {"ios": "https://dc.lft.to/lastmile_qr_scan", "android": "https://dc.lft.to/lastmile_qr_scan"}, "type": "electric_scooter", "name": "2b3b4df3ab8b657867fd86b516492e50", "is_reserved": 0, "lon": -77.007065, "is_disabled": 0, "fusion_lat": 0.0, "lat": 38.90029533333333, "bike_id": "2b3b4df3ab8b657867fd86b516492e50", "fusion_lon": 0.0}, {"rental_uris": {"ios": "https://dc.lft.to/lastmile_qr_scan", "android": "https://dc.lft.to/lastmile_qr_scan"}, "type": "electric_scooter", "name": "a00b692c0df4302eb183bdda18759ed0", "is_reserved": 0, "lon": -77.03956916666667, "is_disabled": 0, "fusion_lat": 0.0, "lat": 38.898236, "bike_id": "a00b692c0df4302eb183bdda18759ed0", "fusion_lon": 0.0}, {"rental_uris": {"ios": "https://dc.lft.to/lastmile_qr_scan", "android": "https://dc.lft.to/lastmile_qr_scan"}, "type": "electric_scooter", "name": "8ed46cff02244487e95ad7d99e976bdf", "is_reserved": 0, "lon": -77.03839983333333, "is_disabled": 0, "fusion_lat": 0.0, "lat": 38.90755566666667, "bike_id": "8ed46cff02244487e95ad7d99e976bdf", "fusion_lon": 0.0}, {"rental_uris": {"ios": "https://dc.lft.to/lastmile_qr_scan", "android": "https://dc.lft.to/lastmile_qr_scan"}, "type": "electric_scooter", "name": "770938f5d75c116d1ed4eb840df91c09", "is_reserved": 0, "lon": -77.02487733333334, "is_disabled": 0, "fusion_lat": 0.0, "lat": 38.90171983333333, "bike_id": "770938f5d75c116d1ed4eb840df91c09", "fusion_lon": 0.0}, {"rental_uris": {"ios": "https://dc.lft.to/lastmile_qr_scan", "android": "https://dc.lft.to/lastmile_qr_scan"}, "type": "electric_scooter", "name": "466389f5af808a5a5e3b574f45375cd0", "is_reserved": 0, "lon": -77.04803033333333, "is_disabled": 0, "fusion_lat": 0.0, "lat": 38.892209666666666, "bike_id": "466389f5af808a5a5e3b574f45375cd0", "fusion_lon": 0.0}, {"rental_uris": {"ios": "https://dc.lft.to/lastmile_qr_scan", "android": "https://dc.lft.to/lastmile_qr_scan"}, "type": "electric_scooter", "name": "4533b4b304f3b018f12a7ee27d97e66d", "is_reserved": 0, "lon": -77.0199485, "is_disabled": 0, "fusion_lat": 0.0, "lat": 38.93075533333333, "bike_id": "4533b4b304f3b018f12a7ee27d97e66d", "fusion_lon": 0.0}, {"rental_uris": {"ios": "https://dc.lft.to/lastmile_qr_scan", "android": "https://dc.lft.to/lastmile_qr_scan"}, "type": "electric_scooter", "name": "6ae107f18341c69b629392c116b96603", "is_reserved": 0, "lon": -77.02391716666666, "is_disabled": 0, "fusion_lat": 0.0, "lat": 38.926022, "bike_id": "6ae107f18341c69b629392c116b96603", "fusion_lon": 0.0}, {"rental_uris": {"ios": "https://dc.lft.to/lastmile_qr_scan", "android": "https://dc.lft.to/lastmile_qr_scan"}, "type": "electric_scooter", "name": "7780ca4ca77b4f3e9dd6c681924b16b6", "is_reserved": 0, "lon": -77.01127183333334, "is_disabled": 0, "fusion_lat": 0.0, "lat": 38.9000445, "bike_id": "7780ca4ca77b4f3e9dd6c681924b16b6", "fusion_lon": 0.0}, {"rental_uris": {"ios": "https://dc.lft.to/lastmile_qr_scan", "android": "https://dc.lft.to/lastmile_qr_scan"}, "type": "electric_scooter", "name": "f17d929525f0115f09fe6390aa9906a6", "is_reserved": 0, "lon": -77.03253516666666, "is_disabled": 0, "fusion_lat": 0.0, "lat": 38.904433, "bike_id": "f17d929525f0115f09fe6390aa9906a6", "fusion_lon": 0.0}, {"rental_uris": {"ios": "https://dc.lft.to/lastmile_qr_scan", "android": "https://dc.lft.to/lastmile_qr_scan"}, "type": "electric_scooter", "name": "8d24032b7dcfb88d6828f6f9982ef3ea", "is_reserved": 0, "lon": -77.06607233333334, "is_disabled": 0, "fusion_lat": 0.0, "lat": 38.9110955, "bike_id": "8d24032b7dcfb88d6828f6f9982ef3ea", "fusion_lon": 0.0}, {"rental_uris": {"ios": "https://dc.lft.to/lastmile_qr_scan", "android": "https://dc.lft.to/lastmile_qr_scan"}, "type": "electric_scooter", "name": "fc063cdcac2d95030669ba9cfcc9a5c7", "is_reserved": 0, "lon": -77.04752466666666, "is_disabled": 0, "fusion_lat": 0.0, "lat": 38.89593433333334, "bike_id": "fc063cdcac2d95030669ba9cfcc9a5c7", "fusion_lon": 0.0}, {"rental_uris": {"ios": "https://dc.lft.to/lastmile_qr_scan", "android": "https://dc.lft.to/lastmile_qr_scan"}, "type": "electric_scooter", "name": "e6ac0594d6a40a302884883c2d3e2736", "is_reserved": 0, "lon": -77.04668583333333, "is_disabled": 0, "fusion_lat": 0.0, "lat": 38.892828, "bike_id": "e6ac0594d6a40a302884883c2d3e2736", "fusion_lon": 0.0}, {"rental_uris": {"ios": "https://dc.lft.to/lastmile_qr_scan", "android": "https://dc.lft.to/lastmile_qr_scan"}, "type": "electric_scooter", "name": "3a5463b39c017c9d6c6bb85a6a443182", "is_reserved": 0, "lon": -77.051234, "is_disabled": 0, "fusion_lat": 0.0, "lat": 38.925273833333335, "bike_id": "3a5463b39c017c9d6c6bb85a6a443182", "fusion_lon": 0.0}, {"rental_uris": {"ios": "https://dc.lft.to/lastmile_qr_scan", "android": "https://dc.lft.to/lastmile_qr_scan"}, "type": "electric_scooter", "name": "69ec8357748058622d847103971423b2", "is_reserved": 0, "lon": -77.04603516666667, "is_disabled": 0, "fusion_lat": 0.0, "lat": 38.923381, "bike_id": "69ec8357748058622d847103971423b2", "fusion_lon": 0.0}, {"rental_uris": {"ios": "https://dc.lft.to/lastmile_qr_scan", "android": "https://dc.lft.to/lastmile_qr_scan"}, "type": "electric_bike", "name": "2cb5b436fb096fe43e4670cfd64b1447", "is_reserved": 0, "lon": -76.99919066666666, "is_disabled": 0, "fusion_lat": 0.0, "lat": 38.994710166666664, "bike_id": "2cb5b436fb096fe43e4670cfd64b1447", "fusion_lon": 0.0}, {"rental_uris": {"ios": "https://dc.lft.to/lastmile_qr_scan", "android": "https://dc.lft.to/lastmile_qr_scan"}, "type": "electric_scooter", "name": "9594a6d0b6a276bf04cc4a7b381d1c82", "is_reserved": 0, "lon": -77.0174895, "is_disabled": 0, "fusion_lat": 0.0, "lat": 38.914157, "bike_id": "9594a6d0b6a276bf04cc4a7b381d1c82", "fusion_lon": 0.0}, {"rental_uris": {"ios": "https://dc.lft.to/lastmile_qr_scan", "android": "https://dc.lft.to/lastmile_qr_scan"}, "type": "electric_scooter", "name": "1c637134acc4a385e8a3955cf1061a74", "is_reserved": 0, "lon": -77.0684695, "is_disabled": 0, "fusion_lat": 0.0, "lat": 38.952789333333335, "bike_id": "1c637134acc4a385e8a3955cf1061a74", "fusion_lon": 0.0}, {"rental_uris": {"ios": "https://dc.lft.to/lastmile_qr_scan", "android": "https://dc.lft.to/lastmile_qr_scan"}, "type": "electric_scooter", "name": "ef1a03cd8bad2244eda64876d6bc6f64", "is_reserved": 0, "lon": -77.04174483333334, "is_disabled": 0, "fusion_lat": 0.0, "lat": 38.9110825, "bike_id": "ef1a03cd8bad2244eda64876d6bc6f64", "fusion_lon": 0.0}, {"rental_uris": {"ios": "https://dc.lft.to/lastmile_qr_scan", "android": "https://dc.lft.to/lastmile_qr_scan"}, "type": "electric_scooter", "name": "b63ed36bee147ea82e6e89345fa1eeb2", "is_reserved": 0, "lon": -76.99492816666667, "is_disabled": 0, "fusion_lat": 0.0, "lat": 38.89970983333333, "bike_id": "b63ed36bee147ea82e6e89345fa1eeb2", "fusion_lon": 0.0}, {"rental_uris": {"ios": "https://dc.lft.to/lastmile_qr_scan", "android": "https://dc.lft.to/lastmile_qr_scan"}, "type": "electric_scooter", "name": "f713c1206c06d91944b4274184b8cbb5", "is_reserved": 0, "lon": -76.99173683333333, "is_disabled": 0, "fusion_lat": 0.0, "lat": 38.90260216666667, "bike_id": "f713c1206c06d91944b4274184b8cbb5", "fusion_lon": 0.0}, {"rental_uris": {"ios": "https://dc.lft.to/lastmile_qr_scan", "android": "https://dc.lft.to/lastmile_qr_scan"}, "type": "electric_scooter", "name": "aa3b52481a458b19a95943872b9f1654", "is_reserved": 0, "lon": -77.02697633333334, "is_disabled": 0, "fusion_lat": 0.0, "lat": 38.924830166666666, "bike_id": "aa3b52481a458b19a95943872b9f1654", "fusion_lon": 0.0}, {"rental_uris": {"ios": "https://dc.lft.to/lastmile_qr_scan", "android": "https://dc.lft.to/lastmile_qr_scan"}, "type": "electric_scooter", "name": "0a7aa0ad1b5ab97400d8cfc1ae73a16b", "is_reserved": 0, "lon": -77.04530333333334, "is_disabled": 0, "fusion_lat": 0.0, "lat": 38.9110945, "bike_id": "0a7aa0ad1b5ab97400d8cfc1ae73a16b", "fusion_lon": 0.0}, {"rental_uris": {"ios": "https://dc.lft.to/lastmile_qr_scan", "android": "https://dc.lft.to/lastmile_qr_scan"}, "type": "electric_scooter", "name": "8e15f1a57bb6afa0f8b1980ab869cf34", "is_reserved": 0, "lon": -77.00621216666667, "is_disabled": 0, "fusion_lat": 0.0, "lat": 38.878490166666666, "bike_id": "8e15f1a57bb6afa0f8b1980ab869cf34", "fusion_lon": 0.0}, {"rental_uris": {"ios": "https://dc.lft.to/lastmile_qr_scan", "android": "https://dc.lft.to/lastmile_qr_scan"}, "type": "electric_scooter", "name": "232f1c46e4cb14bf98fce93bbef31ab9", "is_reserved": 0, "lon": -76.99378933333334, "is_disabled": 0, "fusion_lat": 0.0, "lat": 38.89336933333333, "bike_id": "232f1c46e4cb14bf98fce93bbef31ab9", "fusion_lon": 0.0}, {"rental_uris": {"ios": "https://dc.lft.to/lastmile_qr_scan", "android": "https://dc.lft.to/lastmile_qr_scan"}, "type": "electric_scooter", "name": "9c50da5dd3b1d026d90a92db20e3bfe0", "is_reserved": 0, "lon": -77.02477583333334, "is_disabled": 0, "fusion_lat": 0.0, "lat": 38.91817733333333, "bike_id": "9c50da5dd3b1d026d90a92db20e3bfe0", "fusion_lon": 0.0}, {"rental_uris": {"ios": "https://dc.lft.to/lastmile_qr_scan", "android": "https://dc.lft.to/lastmile_qr_scan"}, "type": "electric_scooter", "name": "044f9d33bb7eb7cd3a3a6ab71f1d7faa", "is_reserved": 0, "lon": -77.06478333333334, "is_disabled": 0, "fusion_lat": 0.0, "lat": 38.927017, "bike_id": "044f9d33bb7eb7cd3a3a6ab71f1d7faa", "fusion_lon": 0.0}, {"rental_uris": {"ios": "https://dc.lft.to/lastmile_qr_scan", "android": "https://dc.lft.to/lastmile_qr_scan"}, "type": "electric_scooter", "name": "a959f838066f06914f643ebe586ad51c", "is_reserved": 0, "lon": -77.019743, "is_disabled": 0, "fusion_lat": 0.0, "lat": 38.92254583333333, "bike_id": "a959f838066f06914f643ebe586ad51c", "fusion_lon": 0.0}, {"rental_uris": {"ios": "https://dc.lft.to/lastmile_qr_scan", "android": "https://dc.lft.to/lastmile_qr_scan"}, "type": "electric_scooter", "name": "8751cbfada106237496509b69459e9c8", "is_reserved": 0, "lon": -76.99163633333333, "is_disabled": 0, "fusion_lat": 0.0, "lat": 38.88818283333333, "bike_id": "8751cbfada106237496509b69459e9c8", "fusion_lon": 0.0}, {"rental_uris": {"ios": "https://dc.lft.to/lastmile_qr_scan", "android": "https://dc.lft.to/lastmile_qr_scan"}, "type": "electric_scooter", "name": "441cf4a7203f4d2d1ce95f902c04a9fa", "is_reserved": 0, "lon": -77.02401183333333, "is_disabled": 0, "fusion_lat": 0.0, "lat": 38.938159, "bike_id": "441cf4a7203f4d2d1ce95f902c04a9fa", "fusion_lon": 0.0}, {"rental_uris": {"ios": "https://dc.lft.to/lastmile_qr_scan", "android": "https://dc.lft.to/lastmile_qr_scan"}, "type": "electric_scooter", "name": "f13834a77c5541ba60a3389992a9ed11", "is_reserved": 0, "lon": -76.99873633333333, "is_disabled": 0, "fusion_lat": 0.0, "lat": 38.90032583333333, "bike_id": "f13834a77c5541ba60a3389992a9ed11", "fusion_lon": 0.0}, {"rental_uris": {"ios": "https://dc.lft.to/lastmile_qr_scan", "android": "https://dc.lft.to/lastmile_qr_scan"}, "type": "electric_scooter", "name": "678e42661f6083c45767cbabfac82be1", "is_reserved": 0, "lon": -77.04230616666666, "is_disabled": 0, "fusion_lat": 0.0, "lat": 38.91106216666667, "bike_id": "678e42661f6083c45767cbabfac82be1", "fusion_lon": 0.0}, {"rental_uris": {"ios": "https://dc.lft.to/lastmile_qr_scan", "android": "https://dc.lft.to/lastmile_qr_scan"}, "type": "electric_scooter", "name": "e5ca96fb0e918714c110f9f46740665b", "is_reserved": 0, "lon": -76.95258566666666, "is_disabled": 0, "fusion_lat": 0.0, "lat": 38.8927415, "bike_id": "e5ca96fb0e918714c110f9f46740665b", "fusion_lon": 0.0}, {"rental_uris": {"ios": "https://dc.lft.to/lastmile_qr_scan", "android": "https://dc.lft.to/lastmile_qr_scan"}, "type": "electric_scooter", "name": "151bea9a0bba7538250e23547e179808", "is_reserved": 0, "lon": -77.0282615, "is_disabled": 0, "fusion_lat": 0.0, "lat": 38.893555166666665, "bike_id": "151bea9a0bba7538250e23547e179808", "fusion_lon": 0.0}, {"rental_uris": {"ios": "https://dc.lft.to/lastmile_qr_scan", "android": "https://dc.lft.to/lastmile_qr_scan"}, "type": "electric_scooter", "name": "bbaaa0ed483a481455b8aa6d8998259a", "is_reserved": 0, "lon": -76.94652733333334, "is_disabled": 0, "fusion_lat": 0.0, "lat": 38.898259833333334, "bike_id": "bbaaa0ed483a481455b8aa6d8998259a", "fusion_lon": 0.0}, {"rental_uris": {"ios": "https://dc.lft.to/lastmile_qr_scan", "android": "https://dc.lft.to/lastmile_qr_scan"}, "type": "electric_scooter", "name": "fe5649e8cd33c44d47927bc16944b18d", "is_reserved": 0, "lon": -77.03618616666667, "is_disabled": 0, "fusion_lat": 0.0, "lat": 38.92332966666667, "bike_id": "fe5649e8cd33c44d47927bc16944b18d", "fusion_lon": 0.0}, {"rental_uris": {"ios": "https://dc.lft.to/lastmile_qr_scan", "android": "https://dc.lft.to/lastmile_qr_scan"}, "type": "electric_scooter", "name": "c0549d85e0b6ce041592be18a1d177b0", "is_reserved": 0, "lon": -76.94384, "is_disabled": 0, "fusion_lat": 0.0, "lat": 38.891135, "bike_id": "c0549d85e0b6ce041592be18a1d177b0", "fusion_lon": 0.0}, {"rental_uris": {"ios": "https://dc.lft.to/lastmile_qr_scan", "android": "https://dc.lft.to/lastmile_qr_scan"}, "type": "electric_scooter", "name": "c48c9320341047ca75476183d5863dc3", "is_reserved": 0, "lon": -77.02475133333333, "is_disabled": 0, "fusion_lat": 0.0, "lat": 38.918153833333335, "bike_id": "c48c9320341047ca75476183d5863dc3", "fusion_lon": 0.0}, {"rental_uris": {"ios": "https://dc.lft.to/lastmile_qr_scan", "android": "https://dc.lft.to/lastmile_qr_scan"}, "type": "electric_scooter", "name": "f3df163ab6e3494dca5dff2a587acb10", "is_reserved": 0, "lon": -77.036625, "is_disabled": 0, "fusion_lat": 0.0, "lat": 38.922893, "bike_id": "f3df163ab6e3494dca5dff2a587acb10", "fusion_lon": 0.0}, {"rental_uris": {"ios": "https://dc.lft.to/lastmile_qr_scan", "android": "https://dc.lft.to/lastmile_qr_scan"}, "type": "electric_scooter", "name": "45c2bc54be54e4424527137635440ca8", "is_reserved": 0, "lon": -77.03856333333333, "is_disabled": 0, "fusion_lat": 0.0, "lat": 38.91090666666667, "bike_id": "45c2bc54be54e4424527137635440ca8", "fusion_lon": 0.0}, {"rental_uris": {"ios": "https://dc.lft.to/lastmile_qr_scan", "android": "https://dc.lft.to/lastmile_qr_scan"}, "type": "electric_bike", "name": "698a45a67e6a5fafa500c4a66ca470da", "is_reserved": 0, "lon": -77.07015816666667, "is_disabled": 0, "fusion_lat": 0.0, "lat": 38.84111266666667, "bike_id": "698a45a67e6a5fafa500c4a66ca470da", "fusion_lon": 0.0}, {"rental_uris": {"ios": "https://dc.lft.to/lastmile_qr_scan", "android": "https://dc.lft.to/lastmile_qr_scan"}, "type": "electric_scooter", "name": "d3844832c27e3b46c677d44d2f51c8e2", "is_reserved": 0, "lon": -77.065068, "is_disabled": 0, "fusion_lat": 0.0, "lat": 38.90523266666667, "bike_id": "d3844832c27e3b46c677d44d2f51c8e2", "fusion_lon": 0.0}, {"rental_uris": {"ios": "https://dc.lft.to/lastmile_qr_scan", "android": "https://dc.lft.to/lastmile_qr_scan"}, "type": "electric_scooter", "name": "194f4c7983784e7f9fc1e3a9060e295e", "is_reserved": 0, "lon": -77.038206, "is_disabled": 0, "fusion_lat": 0.0, "lat": 38.93061316666667, "bike_id": "194f4c7983784e7f9fc1e3a9060e295e", "fusion_lon": 0.0}, {"rental_uris": {"ios": "https://dc.lft.to/lastmile_qr_scan", "android": "https://dc.lft.to/lastmile_qr_scan"}, "type": "electric_bike", "name": "8f7014fd85c164a83a3af92c721b6961", "is_reserved": 0, "lon": -77.08369416666666, "is_disabled": 0, "fusion_lat": 0.0, "lat": 38.854207, "bike_id": "8f7014fd85c164a83a3af92c721b6961", "fusion_lon": 0.0}, {"rental_uris": {"ios": "https://dc.lft.to/lastmile_qr_scan", "android": "https://dc.lft.to/lastmile_qr_scan"}, "type": "electric_scooter", "name": "8f6e49a92895858b4b5268173f4bb82c", "is_reserved": 0, "lon": -76.93742083333333, "is_disabled": 0, "fusion_lat": 0.0, "lat": 38.8901025, "bike_id": "8f6e49a92895858b4b5268173f4bb82c", "fusion_lon": 0.0}, {"rental_uris": {"ios": "https://dc.lft.to/lastmile_qr_scan", "android": "https://dc.lft.to/lastmile_qr_scan"}, "type": "electric_scooter", "name": "71f90413f5b27d63b679b1fd500c4772", "is_reserved": 0, "lon": -77.02294866666666, "is_disabled": 0, "fusion_lat": 0.0, "lat": 38.898475, "bike_id": "71f90413f5b27d63b679b1fd500c4772", "fusion_lon": 0.0}, {"rental_uris": {"ios": "https://dc.lft.to/lastmile_qr_scan", "android": "https://dc.lft.to/lastmile_qr_scan"}, "type": "electric_scooter", "name": "e26fa956030bae266dda716e5d4b2d26", "is_reserved": 0, "lon": -77.02837483333333, "is_disabled": 0, "fusion_lat": 0.0, "lat": 38.88736183333333, "bike_id": "e26fa956030bae266dda716e5d4b2d26", "fusion_lon": 0.0}, {"rental_uris": {"ios": "https://dc.lft.to/lastmile_qr_scan", "android": "https://dc.lft.to/lastmile_qr_scan"}, "type": "electric_scooter", "name": "1a3c60f9e7c4687fa3dd4869a8eafa9f", "is_reserved": 0, "lon": -77.04837566666667, "is_disabled": 0, "fusion_lat": 0.0, "lat": 38.909702833333334, "bike_id": "1a3c60f9e7c4687fa3dd4869a8eafa9f", "fusion_lon": 0.0}, {"rental_uris": {"ios": "https://dc.lft.to/lastmile_qr_scan", "android": "https://dc.lft.to/lastmile_qr_scan"}, "type": "electric_bike", "name": "37a66ee850677ac136b7caf37c3ac14f", "is_reserved": 0, "lon": -76.97703033333333, "is_disabled": 0, "fusion_lat": 0.0, "lat": 38.82207483333333, "bike_id": "37a66ee850677ac136b7caf37c3ac14f", "fusion_lon": 0.0}, {"rental_uris": {"ios": "https://dc.lft.to/lastmile_qr_scan", "android": "https://dc.lft.to/lastmile_qr_scan"}, "type": "electric_scooter", "name": "02b3dbeb11ded4b4bb1b8e98b796246d", "is_reserved": 0, "lon": -77.04067783333333, "is_disabled": 0, "fusion_lat": 0.0, "lat": 38.91591666666667, "bike_id": "02b3dbeb11ded4b4bb1b8e98b796246d", "fusion_lon": 0.0}, {"rental_uris": {"ios": "https://dc.lft.to/lastmile_qr_scan", "android": "https://dc.lft.to/lastmile_qr_scan"}, "type": "electric_scooter", "name": "92af6f7be5cc194cc272bc8dea7d364d", "is_reserved": 0, "lon": -76.99734783333334, "is_disabled": 0, "fusion_lat": 0.0, "lat": 38.92057, "bike_id": "92af6f7be5cc194cc272bc8dea7d364d", "fusion_lon": 0.0}, {"rental_uris": {"ios": "https://dc.lft.to/lastmile_qr_scan", "android": "https://dc.lft.to/lastmile_qr_scan"}, "type": "electric_scooter", "name": "f68d5d19be9f183baed1c26394978625", "is_reserved": 0, "lon": -77.03856083333334, "is_disabled": 0, "fusion_lat": 0.0, "lat": 38.924719, "bike_id": "f68d5d19be9f183baed1c26394978625", "fusion_lon": 0.0}, {"rental_uris": {"ios": "https://dc.lft.to/lastmile_qr_scan", "android": "https://dc.lft.to/lastmile_qr_scan"}, "type": "electric_scooter", "name": "597b6a5b0fdba427a9796bf5f30bf47e", "is_reserved": 0, "lon": -76.9654615, "is_disabled": 0, "fusion_lat": 0.0, "lat": 38.87887083333333, "bike_id": "597b6a5b0fdba427a9796bf5f30bf47e", "fusion_lon": 0.0}, {"rental_uris": {"ios": "https://dc.lft.to/lastmile_qr_scan", "android": "https://dc.lft.to/lastmile_qr_scan"}, "type": "electric_scooter", "name": "5568b56c4fd4a67fa449be77b65fae32", "is_reserved": 0, "lon": -77.0437825, "is_disabled": 0, "fusion_lat": 0.0, "lat": 38.897343, "bike_id": "5568b56c4fd4a67fa449be77b65fae32", "fusion_lon": 0.0}, {"rental_uris": {"ios": "https://dc.lft.to/lastmile_qr_scan", "android": "https://dc.lft.to/lastmile_qr_scan"}, "type": "electric_bike", "name": "6158b69636079ed4f9e5a6a55dac3068", "is_reserved": 0, "lon": -76.98358233333333, "is_disabled": 0, "fusion_lat": 0.0, "lat": 38.9148555, "bike_id": "6158b69636079ed4f9e5a6a55dac3068", "fusion_lon": 0.0}, {"rental_uris": {"ios": "https://dc.lft.to/lastmile_qr_scan", "android": "https://dc.lft.to/lastmile_qr_scan"}, "type": "electric_bike", "name": "75ebc8fe5db4dde5ad07a477d17ba0cc", "is_reserved": 0, "lon": -77.0054685, "is_disabled": 0, "fusion_lat": 0.0, "lat": 38.879353, "bike_id": "75ebc8fe5db4dde5ad07a477d17ba0cc", "fusion_lon": 0.0}, {"rental_uris": {"ios": "https://dc.lft.to/lastmile_qr_scan", "android": "https://dc.lft.to/lastmile_qr_scan"}, "type": "electric_bike", "name": "345ffb9f100b16d4a5a49be660e09490", "is_reserved": 0, "lon": -77.02823, "is_disabled": 0, "fusion_lat": 0.0, "lat": 38.96564333333333, "bike_id": "345ffb9f100b16d4a5a49be660e09490", "fusion_lon": 0.0}, {"rental_uris": {"ios": "https://dc.lft.to/lastmile_qr_scan", "android": "https://dc.lft.to/lastmile_qr_scan"}, "type": "electric_scooter", "name": "3e881dee9c44a3db4fad9ca2119f3a46", "is_reserved": 0, "lon": -77.029125, "is_disabled": 0, "fusion_lat": 0.0, "lat": 38.93458966666667, "bike_id": "3e881dee9c44a3db4fad9ca2119f3a46", "fusion_lon": 0.0}, {"rental_uris": {"ios": "https://dc.lft.to/lastmile_qr_scan", "android": "https://dc.lft.to/lastmile_qr_scan"}, "type": "electric_scooter", "name": "f7067d7a877bcbdbee4b725fc1f9a3a2", "is_reserved": 0, "lon": -77.08592833333333, "is_disabled": 0, "fusion_lat": 0.0, "lat": 38.908643833333336, "bike_id": "f7067d7a877bcbdbee4b725fc1f9a3a2", "fusion_lon": 0.0}, {"rental_uris": {"ios": "https://dc.lft.to/lastmile_qr_scan", "android": "https://dc.lft.to/lastmile_qr_scan"}, "type": "electric_scooter", "name": "256deaa5e52781f268955c3b406a2bd1", "is_reserved": 0, "lon": -77.04825516666666, "is_disabled": 0, "fusion_lat": 0.0, "lat": 38.90044983333333, "bike_id": "256deaa5e52781f268955c3b406a2bd1", "fusion_lon": 0.0}, {"rental_uris": {"ios": "https://dc.lft.to/lastmile_qr_scan", "android": "https://dc.lft.to/lastmile_qr_scan"}, "type": "electric_scooter", "name": "e389449662225f446ac91c8946736cf7", "is_reserved": 0, "lon": -76.98497166666667, "is_disabled": 0, "fusion_lat": 0.0, "lat": 38.92006266666667, "bike_id": "e389449662225f446ac91c8946736cf7", "fusion_lon": 0.0}, {"rental_uris": {"ios": "https://dc.lft.to/lastmile_qr_scan", "android": "https://dc.lft.to/lastmile_qr_scan"}, "type": "electric_scooter", "name": "9c931198905343b9b9450fa4881695e1", "is_reserved": 0, "lon": -77.03731333333333, "is_disabled": 0, "fusion_lat": 0.0, "lat": 38.9202515, "bike_id": "9c931198905343b9b9450fa4881695e1", "fusion_lon": 0.0}, {"rental_uris": {"ios": "https://dc.lft.to/lastmile_qr_scan", "android": "https://dc.lft.to/lastmile_qr_scan"}, "type": "electric_scooter", "name": "af15fe9de6203c233a1d2a99aec4f14f", "is_reserved": 0, "lon": -76.98541566666667, "is_disabled": 0, "fusion_lat": 0.0, "lat": 38.858483, "bike_id": "af15fe9de6203c233a1d2a99aec4f14f", "fusion_lon": 0.0}, {"rental_uris": {"ios": "https://dc.lft.to/lastmile_qr_scan", "android": "https://dc.lft.to/lastmile_qr_scan"}, "type": "electric_scooter", "name": "610110b2c3ea6c636c8a47927fb6b7d8", "is_reserved": 0, "lon": -76.92664533333334, "is_disabled": 0, "fusion_lat": 0.0, "lat": 38.8823585, "bike_id": "610110b2c3ea6c636c8a47927fb6b7d8", "fusion_lon": 0.0}, {"rental_uris": {"ios": "https://dc.lft.to/lastmile_qr_scan", "android": "https://dc.lft.to/lastmile_qr_scan"}, "type": "electric_scooter", "name": "277734f95d094e0740eaa5e615842980", "is_reserved": 0, "lon": -77.01192333333333, "is_disabled": 0, "fusion_lat": 0.0, "lat": 38.897146666666664, "bike_id": "277734f95d094e0740eaa5e615842980", "fusion_lon": 0.0}, {"rental_uris": {"ios": "https://dc.lft.to/lastmile_qr_scan", "android": "https://dc.lft.to/lastmile_qr_scan"}, "type": "electric_scooter", "name": "7d06cac5847f12f5f578384285d5fa4b", "is_reserved": 0, "lon": -77.00875933333333, "is_disabled": 0, "fusion_lat": 0.0, "lat": 38.911776833333334, "bike_id": "7d06cac5847f12f5f578384285d5fa4b", "fusion_lon": 0.0}, {"rental_uris": {"ios": "https://dc.lft.to/lastmile_qr_scan", "android": "https://dc.lft.to/lastmile_qr_scan"}, "type": "electric_scooter", "name": "4b4b47eec6e55acd35ebaa21e38fd754", "is_reserved": 0, "lon": -77.03022616666667, "is_disabled": 0, "fusion_lat": 0.0, "lat": 38.878521166666665, "bike_id": "4b4b47eec6e55acd35ebaa21e38fd754", "fusion_lon": 0.0}, {"rental_uris": {"ios": "https://dc.lft.to/lastmile_qr_scan", "android": "https://dc.lft.to/lastmile_qr_scan"}, "type": "electric_scooter", "name": "4399fcd2769a7b683b024fdd4ae610ee", "is_reserved": 0, "lon": -77.024142, "is_disabled": 0, "fusion_lat": 0.0, "lat": 38.928073166666664, "bike_id": "4399fcd2769a7b683b024fdd4ae610ee", "fusion_lon": 0.0}, {"rental_uris": {"ios": "https://dc.lft.to/lastmile_qr_scan", "android": "https://dc.lft.to/lastmile_qr_scan"}, "type": "electric_scooter", "name": "a17c43f97555d00104b0ec63a48ff3ce", "is_reserved": 0, "lon": -76.985356, "is_disabled": 0, "fusion_lat": 0.0, "lat": 38.858543833333336, "bike_id": "a17c43f97555d00104b0ec63a48ff3ce", "fusion_lon": 0.0}, {"rental_uris": {"ios": "https://dc.lft.to/lastmile_qr_scan", "android": "https://dc.lft.to/lastmile_qr_scan"}, "type": "electric_scooter", "name": "f534e135fdc1ea24fff570273d0dbde0", "is_reserved": 0, "lon": -77.0230005, "is_disabled": 0, "fusion_lat": 0.0, "lat": 38.898466166666665, "bike_id": "f534e135fdc1ea24fff570273d0dbde0", "fusion_lon": 0.0}, {"rental_uris": {"ios": "https://dc.lft.to/lastmile_qr_scan", "android": "https://dc.lft.to/lastmile_qr_scan"}, "type": "electric_scooter", "name": "e449a729483e539f87649830da8b8acf", "is_reserved": 0, "lon": -77.031525, "is_disabled": 0, "fusion_lat": 0.0, "lat": 38.90592066666667, "bike_id": "e449a729483e539f87649830da8b8acf", "fusion_lon": 0.0}, {"rental_uris": {"ios": "https://dc.lft.to/lastmile_qr_scan", "android": "https://dc.lft.to/lastmile_qr_scan"}, "type": "electric_scooter", "name": "c69be6e09a4721ac44f181868476b7ac", "is_reserved": 0, "lon": -77.00364216666667, "is_disabled": 0, "fusion_lat": 0.0, "lat": 38.8767785, "bike_id": "c69be6e09a4721ac44f181868476b7ac", "fusion_lon": 0.0}, {"rental_uris": {"ios": "https://dc.lft.to/lastmile_qr_scan", "android": "https://dc.lft.to/lastmile_qr_scan"}, "type": "electric_scooter", "name": "c5b39fbd58f192e06f987bad20aabb66", "is_reserved": 0, "lon": -77.04524466666666, "is_disabled": 0, "fusion_lat": 0.0, "lat": 38.911100833333336, "bike_id": "c5b39fbd58f192e06f987bad20aabb66", "fusion_lon": 0.0}, {"rental_uris": {"ios": "https://dc.lft.to/lastmile_qr_scan", "android": "https://dc.lft.to/lastmile_qr_scan"}, "type": "electric_scooter", "name": "401fb35f2dd3a4c4acee9aa6f8a5f8ce", "is_reserved": 0, "lon": -77.0317895, "is_disabled": 0, "fusion_lat": 0.0, "lat": 38.92899516666667, "bike_id": "401fb35f2dd3a4c4acee9aa6f8a5f8ce", "fusion_lon": 0.0}, {"rental_uris": {"ios": "https://dc.lft.to/lastmile_qr_scan", "android": "https://dc.lft.to/lastmile_qr_scan"}, "type": "electric_scooter", "name": "3a6404fa5700081dbffc83c6fa704448", "is_reserved": 0, "lon": -77.00220733333333, "is_disabled": 0, "fusion_lat": 0.0, "lat": 38.89448866666667, "bike_id": "3a6404fa5700081dbffc83c6fa704448", "fusion_lon": 0.0}, {"rental_uris": {"ios": "https://dc.lft.to/lastmile_qr_scan", "android": "https://dc.lft.to/lastmile_qr_scan"}, "type": "electric_scooter", "name": "86fb8961db75fdf77a57a96c1f49bbfe", "is_reserved": 0, "lon": -77.00275416666666, "is_disabled": 0, "fusion_lat": 0.0, "lat": 38.887676, "bike_id": "86fb8961db75fdf77a57a96c1f49bbfe", "fusion_lon": 0.0}, {"rental_uris": {"ios": "https://dc.lft.to/lastmile_qr_scan", "android": "https://dc.lft.to/lastmile_qr_scan"}, "type": "electric_scooter", "name": "ae3c615e6221372d3ed686752cd49ae1", "is_reserved": 0, "lon": -77.0344835, "is_disabled": 0, "fusion_lat": 0.0, "lat": 38.90733616666667, "bike_id": "ae3c615e6221372d3ed686752cd49ae1", "fusion_lon": 0.0}, {"rental_uris": {"ios": "https://dc.lft.to/lastmile_qr_scan", "android": "https://dc.lft.to/lastmile_qr_scan"}, "type": "electric_scooter", "name": "06c68dec96b1fe154a0ec3c7d8e74dd9", "is_reserved": 0, "lon": -77.033712, "is_disabled": 0, "fusion_lat": 0.0, "lat": 38.93863433333333, "bike_id": "06c68dec96b1fe154a0ec3c7d8e74dd9", "fusion_lon": 0.0}, {"rental_uris": {"ios": "https://dc.lft.to/lastmile_qr_scan", "android": "https://dc.lft.to/lastmile_qr_scan"}, "type": "electric_bike", "name": "de8eb1769469135ca472b20b4a4bcba1", "is_reserved": 0, "lon": -77.10078116666666, "is_disabled": 0, "fusion_lat": 0.0, "lat": 38.85738383333333, "bike_id": "de8eb1769469135ca472b20b4a4bcba1", "fusion_lon": 0.0}, {"rental_uris": {"ios": "https://dc.lft.to/lastmile_qr_scan", "android": "https://dc.lft.to/lastmile_qr_scan"}, "type": "electric_scooter", "name": "98f20da8f1cbe0ff3cf44a3f1f5b5cc2", "is_reserved": 0, "lon": -77.044941, "is_disabled": 0, "fusion_lat": 0.0, "lat": 38.9158, "bike_id": "98f20da8f1cbe0ff3cf44a3f1f5b5cc2", "fusion_lon": 0.0}, {"rental_uris": {"ios": "https://dc.lft.to/lastmile_qr_scan", "android": "https://dc.lft.to/lastmile_qr_scan"}, "type": "electric_scooter", "name": "8c9242fbc9607e1821eabb029468eb48", "is_reserved": 0, "lon": -77.04503483333333, "is_disabled": 0, "fusion_lat": 0.0, "lat": 38.89735733333333, "bike_id": "8c9242fbc9607e1821eabb029468eb48", "fusion_lon": 0.0}, {"rental_uris": {"ios": "https://dc.lft.to/lastmile_qr_scan", "android": "https://dc.lft.to/lastmile_qr_scan"}, "type": "electric_scooter", "name": "9e03b8b8f0c76364cd75f3eaf0a85cd6", "is_reserved": 0, "lon": -77.01709416666667, "is_disabled": 0, "fusion_lat": 0.0, "lat": 38.904708166666666, "bike_id": "9e03b8b8f0c76364cd75f3eaf0a85cd6", "fusion_lon": 0.0}, {"rental_uris": {"ios": "https://dc.lft.to/lastmile_qr_scan", "android": "https://dc.lft.to/lastmile_qr_scan"}, "type": "electric_scooter", "name": "83da3823fe1c73b601e12dda29d6c19f", "is_reserved": 0, "lon": -77.01766166666667, "is_disabled": 0, "fusion_lat": 0.0, "lat": 38.886153666666665, "bike_id": "83da3823fe1c73b601e12dda29d6c19f", "fusion_lon": 0.0}, {"rental_uris": {"ios": "https://dc.lft.to/lastmile_qr_scan", "android": "https://dc.lft.to/lastmile_qr_scan"}, "type": "electric_scooter", "name": "50e38a027d585e3e2e1baff390e64bc9", "is_reserved": 0, "lon": -77.025962, "is_disabled": 0, "fusion_lat": 0.0, "lat": 38.91401, "bike_id": "50e38a027d585e3e2e1baff390e64bc9", "fusion_lon": 0.0}, {"rental_uris": {"ios": "https://dc.lft.to/lastmile_qr_scan", "android": "https://dc.lft.to/lastmile_qr_scan"}, "type": "electric_bike", "name": "13801909d4d3bb53a8401be34ecc8962", "is_reserved": 0, "lon": -76.98819433333334, "is_disabled": 0, "fusion_lat": 0.0, "lat": 38.84278916666667, "bike_id": "13801909d4d3bb53a8401be34ecc8962", "fusion_lon": 0.0}, {"rental_uris": {"ios": "https://dc.lft.to/lastmile_qr_scan", "android": "https://dc.lft.to/lastmile_qr_scan"}, "type": "electric_scooter", "name": "fc219d1972d02aa640ecb37ee279db68", "is_reserved": 0, "lon": -76.98340016666667, "is_disabled": 0, "fusion_lat": 0.0, "lat": 38.90094216666667, "bike_id": "fc219d1972d02aa640ecb37ee279db68", "fusion_lon": 0.0}, {"rental_uris": {"ios": "https://dc.lft.to/lastmile_qr_scan", "android": "https://dc.lft.to/lastmile_qr_scan"}, "type": "electric_scooter", "name": "5331d08432f81b0e4d32576fa7a9cb63", "is_reserved": 0, "lon": -77.046518, "is_disabled": 0, "fusion_lat": 0.0, "lat": 38.897402666666665, "bike_id": "5331d08432f81b0e4d32576fa7a9cb63", "fusion_lon": 0.0}, {"rental_uris": {"ios": "https://dc.lft.to/lastmile_qr_scan", "android": "https://dc.lft.to/lastmile_qr_scan"}, "type": "electric_scooter", "name": "55d889650abe68dfa05ddcefb220d9d8", "is_reserved": 0, "lon": -77.03822566666666, "is_disabled": 0, "fusion_lat": 0.0, "lat": 38.914927, "bike_id": "55d889650abe68dfa05ddcefb220d9d8", "fusion_lon": 0.0}, {"rental_uris": {"ios": "https://dc.lft.to/lastmile_qr_scan", "android": "https://dc.lft.to/lastmile_qr_scan"}, "type": "electric_scooter", "name": "d6c1a69375e9ddd72e008c45618033a7", "is_reserved": 0, "lon": -77.02827983333333, "is_disabled": 0, "fusion_lat": 0.0, "lat": 38.89977733333333, "bike_id": "d6c1a69375e9ddd72e008c45618033a7", "fusion_lon": 0.0}, {"rental_uris": {"ios": "https://dc.lft.to/lastmile_qr_scan", "android": "https://dc.lft.to/lastmile_qr_scan"}, "type": "electric_scooter", "name": "248f666fa4e0bb047a0b3cb5c03f2fe5", "is_reserved": 0, "lon": -77.02328683333333, "is_disabled": 0, "fusion_lat": 0.0, "lat": 38.91841466666666, "bike_id": "248f666fa4e0bb047a0b3cb5c03f2fe5", "fusion_lon": 0.0}, {"rental_uris": {"ios": "https://dc.lft.to/lastmile_qr_scan", "android": "https://dc.lft.to/lastmile_qr_scan"}, "type": "electric_scooter", "name": "8f58236e49cb2144d54eb53714376bd8", "is_reserved": 0, "lon": -77.03448333333333, "is_disabled": 0, "fusion_lat": 0.0, "lat": 38.907327, "bike_id": "8f58236e49cb2144d54eb53714376bd8", "fusion_lon": 0.0}, {"rental_uris": {"ios": "https://dc.lft.to/lastmile_qr_scan", "android": "https://dc.lft.to/lastmile_qr_scan"}, "type": "electric_scooter", "name": "9c7cbe788acc2735dfb4bfe62ec3e381", "is_reserved": 0, "lon": -77.057257, "is_disabled": 0, "fusion_lat": 0.0, "lat": 38.9335515, "bike_id": "9c7cbe788acc2735dfb4bfe62ec3e381", "fusion_lon": 0.0}, {"rental_uris": {"ios": "https://dc.lft.to/lastmile_qr_scan", "android": "https://dc.lft.to/lastmile_qr_scan"}, "type": "electric_scooter", "name": "1452f9eb39af76ef2a5bd51150d6153e", "is_reserved": 0, "lon": -77.02863416666666, "is_disabled": 0, "fusion_lat": 0.0, "lat": 38.912555833333336, "bike_id": "1452f9eb39af76ef2a5bd51150d6153e", "fusion_lon": 0.0}, {"rental_uris": {"ios": "https://dc.lft.to/lastmile_qr_scan", "android": "https://dc.lft.to/lastmile_qr_scan"}, "type": "electric_scooter", "name": "1bf19081279461744ee7d064abd7480a", "is_reserved": 0, "lon": -77.03798566666667, "is_disabled": 0, "fusion_lat": 0.0, "lat": 38.935919, "bike_id": "1bf19081279461744ee7d064abd7480a", "fusion_lon": 0.0}, {"rental_uris": {"ios": "https://dc.lft.to/lastmile_qr_scan", "android": "https://dc.lft.to/lastmile_qr_scan"}, "type": "electric_scooter", "name": "961d05ae544b176d531c59524563d1a2", "is_reserved": 0, "lon": -77.01780433333333, "is_disabled": 0, "fusion_lat": 0.0, "lat": 38.90372333333333, "bike_id": "961d05ae544b176d531c59524563d1a2", "fusion_lon": 0.0}, {"rental_uris": {"ios": "https://dc.lft.to/lastmile_qr_scan", "android": "https://dc.lft.to/lastmile_qr_scan"}, "type": "electric_scooter", "name": "6b3024110890ed3265736b61378a6a1a", "is_reserved": 0, "lon": -77.0007005, "is_disabled": 0, "fusion_lat": 0.0, "lat": 38.876822833333335, "bike_id": "6b3024110890ed3265736b61378a6a1a", "fusion_lon": 0.0}, {"rental_uris": {"ios": "https://dc.lft.to/lastmile_qr_scan", "android": "https://dc.lft.to/lastmile_qr_scan"}, "type": "electric_scooter", "name": "ae7bbebcd4717a65352a4be9b4e09f94", "is_reserved": 0, "lon": -77.0337, "is_disabled": 0, "fusion_lat": 0.0, "lat": 38.911070333333335, "bike_id": "ae7bbebcd4717a65352a4be9b4e09f94", "fusion_lon": 0.0}, {"rental_uris": {"ios": "https://dc.lft.to/lastmile_qr_scan", "android": "https://dc.lft.to/lastmile_qr_scan"}, "type": "electric_scooter", "name": "fc156b931183da2fb330cb2ad6a8b0fe", "is_reserved": 0, "lon": -77.02820633333333, "is_disabled": 0, "fusion_lat": 0.0, "lat": 38.8989735, "bike_id": "fc156b931183da2fb330cb2ad6a8b0fe", "fusion_lon": 0.0}, {"rental_uris": {"ios": "https://dc.lft.to/lastmile_qr_scan", "android": "https://dc.lft.to/lastmile_qr_scan"}, "type": "electric_scooter", "name": "eb4a9227b56ccefe69630555ed4f8031", "is_reserved": 0, "lon": -77.04525616666666, "is_disabled": 0, "fusion_lat": 0.0, "lat": 38.9232055, "bike_id": "eb4a9227b56ccefe69630555ed4f8031", "fusion_lon": 0.0}, {"rental_uris": {"ios": "https://dc.lft.to/lastmile_qr_scan", "android": "https://dc.lft.to/lastmile_qr_scan"}, "type": "electric_scooter", "name": "6263edf3556c327d67b661e5f56fb507", "is_reserved": 0, "lon": -77.03867016666666, "is_disabled": 0, "fusion_lat": 0.0, "lat": 38.921454833333335, "bike_id": "6263edf3556c327d67b661e5f56fb507", "fusion_lon": 0.0}, {"rental_uris": {"ios": "https://dc.lft.to/lastmile_qr_scan", "android": "https://dc.lft.to/lastmile_qr_scan"}, "type": "electric_scooter", "name": "aa7f9a9c0f188f923fe230125015e629", "is_reserved": 0, "lon": -77.033375, "is_disabled": 0, "fusion_lat": 0.0, "lat": 38.91921333333333, "bike_id": "aa7f9a9c0f188f923fe230125015e629", "fusion_lon": 0.0}, {"rental_uris": {"ios": "https://dc.lft.to/lastmile_qr_scan", "android": "https://dc.lft.to/lastmile_qr_scan"}, "type": "electric_scooter", "name": "84cfde07f599d3b1ed1ad3cfb7a0e384", "is_reserved": 0, "lon": -77.02110166666667, "is_disabled": 0, "fusion_lat": 0.0, "lat": 38.9269115, "bike_id": "84cfde07f599d3b1ed1ad3cfb7a0e384", "fusion_lon": 0.0}, {"rental_uris": {"ios": "https://dc.lft.to/lastmile_qr_scan", "android": "https://dc.lft.to/lastmile_qr_scan"}, "type": "electric_scooter", "name": "f1af21775495e7fc2e8cdc8259b909cf", "is_reserved": 0, "lon": -77.034454, "is_disabled": 0, "fusion_lat": 0.0, "lat": 38.918045666666664, "bike_id": "f1af21775495e7fc2e8cdc8259b909cf", "fusion_lon": 0.0}, {"rental_uris": {"ios": "https://dc.lft.to/lastmile_qr_scan", "android": "https://dc.lft.to/lastmile_qr_scan"}, "type": "electric_scooter", "name": "170352c8b9e8f977c54cbc0621679075", "is_reserved": 0, "lon": -77.0296295, "is_disabled": 0, "fusion_lat": 0.0, "lat": 38.90421833333333, "bike_id": "170352c8b9e8f977c54cbc0621679075", "fusion_lon": 0.0}, {"rental_uris": {"ios": "https://dc.lft.to/lastmile_qr_scan", "android": "https://dc.lft.to/lastmile_qr_scan"}, "type": "electric_scooter", "name": "6374d25724de39f6355430a1bccdf17d", "is_reserved": 0, "lon": -76.98538516666666, "is_disabled": 0, "fusion_lat": 0.0, "lat": 38.91288766666667, "bike_id": "6374d25724de39f6355430a1bccdf17d", "fusion_lon": 0.0}, {"rental_uris": {"ios": "https://dc.lft.to/lastmile_qr_scan", "android": "https://dc.lft.to/lastmile_qr_scan"}, "type": "electric_scooter", "name": "8dd3c0f19060830bb4f858378a82ae1e", "is_reserved": 0, "lon": -77.06286783333333, "is_disabled": 0, "fusion_lat": 0.0, "lat": 38.91234083333333, "bike_id": "8dd3c0f19060830bb4f858378a82ae1e", "fusion_lon": 0.0}, {"rental_uris": {"ios": "https://dc.lft.to/lastmile_qr_scan", "android": "https://dc.lft.to/lastmile_qr_scan"}, "type": "electric_scooter", "name": "dc59356d15fc2b08aab47f9d9226fbd0", "is_reserved": 0, "lon": -77.02608283333333, "is_disabled": 0, "fusion_lat": 0.0, "lat": 38.924168, "bike_id": "dc59356d15fc2b08aab47f9d9226fbd0", "fusion_lon": 0.0}, {"rental_uris": {"ios": "https://dc.lft.to/lastmile_qr_scan", "android": "https://dc.lft.to/lastmile_qr_scan"}, "type": "electric_bike", "name": "2abc4310c855d28ad53357b3d89a6875", "is_reserved": 0, "lon": -77.05169933333333, "is_disabled": 0, "fusion_lat": 0.0, "lat": 38.8444365, "bike_id": "2abc4310c855d28ad53357b3d89a6875", "fusion_lon": 0.0}, {"rental_uris": {"ios": "https://dc.lft.to/lastmile_qr_scan", "android": "https://dc.lft.to/lastmile_qr_scan"}, "type": "electric_scooter", "name": "febd49445716bc9d9cde1edfee1d0ecd", "is_reserved": 0, "lon": -77.0440535, "is_disabled": 0, "fusion_lat": 0.0, "lat": 38.92950366666667, "bike_id": "febd49445716bc9d9cde1edfee1d0ecd", "fusion_lon": 0.0}, {"rental_uris": {"ios": "https://dc.lft.to/lastmile_qr_scan", "android": "https://dc.lft.to/lastmile_qr_scan"}, "type": "electric_scooter", "name": "c950351c48d4c9ba340cde0a45b80192", "is_reserved": 0, "lon": -76.93217583333333, "is_disabled": 0, "fusion_lat": 0.0, "lat": 38.896725333333336, "bike_id": "c950351c48d4c9ba340cde0a45b80192", "fusion_lon": 0.0}, {"rental_uris": {"ios": "https://dc.lft.to/lastmile_qr_scan", "android": "https://dc.lft.to/lastmile_qr_scan"}, "type": "electric_scooter", "name": "e204e36bf9306b4da7a5b0a276cc72e3", "is_reserved": 0, "lon": -76.99952116666667, "is_disabled": 0, "fusion_lat": 0.0, "lat": 38.891686666666665, "bike_id": "e204e36bf9306b4da7a5b0a276cc72e3", "fusion_lon": 0.0}, {"rental_uris": {"ios": "https://dc.lft.to/lastmile_qr_scan", "android": "https://dc.lft.to/lastmile_qr_scan"}, "type": "electric_bike", "name": "aa292e0a4bb9313565a2aa5f1a07f8f6", "is_reserved": 0, "lon": -77.00409833333333, "is_disabled": 0, "fusion_lat": 0.0, "lat": 38.9854515, "bike_id": "aa292e0a4bb9313565a2aa5f1a07f8f6", "fusion_lon": 0.0}, {"rental_uris": {"ios": "https://dc.lft.to/lastmile_qr_scan", "android": "https://dc.lft.to/lastmile_qr_scan"}, "type": "electric_scooter", "name": "c8ab695bb8d0a982aa16cf8fbee41392", "is_reserved": 0, "lon": -77.025534, "is_disabled": 0, "fusion_lat": 0.0, "lat": 38.93096083333333, "bike_id": "c8ab695bb8d0a982aa16cf8fbee41392", "fusion_lon": 0.0}, {"rental_uris": {"ios": "https://dc.lft.to/lastmile_qr_scan", "android": "https://dc.lft.to/lastmile_qr_scan"}, "type": "electric_bike", "name": "535245babe911056bd37522caeb25d99", "is_reserved": 0, "lon": -77.09822766666667, "is_disabled": 0, "fusion_lat": 0.0, "lat": 38.850228666666666, "bike_id": "535245babe911056bd37522caeb25d99", "fusion_lon": 0.0}, {"rental_uris": {"ios": "https://dc.lft.to/lastmile_qr_scan", "android": "https://dc.lft.to/lastmile_qr_scan"}, "type": "electric_scooter", "name": "68ba595c2b1e9d3e8606e50a0bc88387", "is_reserved": 0, "lon": -77.044881, "is_disabled": 0, "fusion_lat": 0.0, "lat": 38.9185405, "bike_id": "68ba595c2b1e9d3e8606e50a0bc88387", "fusion_lon": 0.0}, {"rental_uris": {"ios": "https://dc.lft.to/lastmile_qr_scan", "android": "https://dc.lft.to/lastmile_qr_scan"}, "type": "electric_scooter", "name": "a3195d6561a9598b89d7c12d5a8017f7", "is_reserved": 0, "lon": -77.0134875, "is_disabled": 0, "fusion_lat": 0.0, "lat": 38.89615833333333, "bike_id": "a3195d6561a9598b89d7c12d5a8017f7", "fusion_lon": 0.0}, {"rental_uris": {"ios": "https://dc.lft.to/lastmile_qr_scan", "android": "https://dc.lft.to/lastmile_qr_scan"}, "type": "electric_scooter", "name": "ace14409cd60f90289e77a9b175fcbd4", "is_reserved": 0, "lon": -77.04263583333334, "is_disabled": 0, "fusion_lat": 0.0, "lat": 38.9043685, "bike_id": "ace14409cd60f90289e77a9b175fcbd4", "fusion_lon": 0.0}, {"rental_uris": {"ios": "https://dc.lft.to/lastmile_qr_scan", "android": "https://dc.lft.to/lastmile_qr_scan"}, "type": "electric_scooter", "name": "72ca8c0065df4e3e57a636e275653823", "is_reserved": 0, "lon": -76.948711, "is_disabled": 0, "fusion_lat": 0.0, "lat": 38.89489866666667, "bike_id": "72ca8c0065df4e3e57a636e275653823", "fusion_lon": 0.0}, {"rental_uris": {"ios": "https://dc.lft.to/lastmile_qr_scan", "android": "https://dc.lft.to/lastmile_qr_scan"}, "type": "electric_scooter", "name": "0df819ec24181d833473bca53783576d", "is_reserved": 0, "lon": -76.92641083333334, "is_disabled": 0, "fusion_lat": 0.0, "lat": 38.8836815, "bike_id": "0df819ec24181d833473bca53783576d", "fusion_lon": 0.0}, {"rental_uris": {"ios": "https://dc.lft.to/lastmile_qr_scan", "android": "https://dc.lft.to/lastmile_qr_scan"}, "type": "electric_scooter", "name": "0c3929e54e1ded2179f12f9c10f74fd9", "is_reserved": 0, "lon": -77.04777466666667, "is_disabled": 0, "fusion_lat": 0.0, "lat": 38.90856016666667, "bike_id": "0c3929e54e1ded2179f12f9c10f74fd9", "fusion_lon": 0.0}, {"rental_uris": {"ios": "https://dc.lft.to/lastmile_qr_scan", "android": "https://dc.lft.to/lastmile_qr_scan"}, "type": "electric_scooter", "name": "a4b66d9dbe3b4bb9e3a9836c92712fb8", "is_reserved": 0, "lon": -77.05030116666667, "is_disabled": 0, "fusion_lat": 0.0, "lat": 38.896775833333336, "bike_id": "a4b66d9dbe3b4bb9e3a9836c92712fb8", "fusion_lon": 0.0}, {"rental_uris": {"ios": "https://dc.lft.to/lastmile_qr_scan", "android": "https://dc.lft.to/lastmile_qr_scan"}, "type": "electric_scooter", "name": "31306898d9685f843e292523e6cf40c5", "is_reserved": 0, "lon": -77.0362545, "is_disabled": 0, "fusion_lat": 0.0, "lat": 38.903570333333334, "bike_id": "31306898d9685f843e292523e6cf40c5", "fusion_lon": 0.0}, {"rental_uris": {"ios": "https://dc.lft.to/lastmile_qr_scan", "android": "https://dc.lft.to/lastmile_qr_scan"}, "type": "electric_scooter", "name": "36434e39d08bee1b22f8932eab5bd618", "is_reserved": 0, "lon": -76.98540133333333, "is_disabled": 0, "fusion_lat": 0.0, "lat": 38.91291433333333, "bike_id": "36434e39d08bee1b22f8932eab5bd618", "fusion_lon": 0.0}, {"rental_uris": {"ios": "https://dc.lft.to/lastmile_qr_scan", "android": "https://dc.lft.to/lastmile_qr_scan"}, "type": "electric_scooter", "name": "1b58fdec50df7dbeb0b5b8a507e5c193", "is_reserved": 0, "lon": -77.00605366666667, "is_disabled": 0, "fusion_lat": 0.0, "lat": 38.87572483333334, "bike_id": "1b58fdec50df7dbeb0b5b8a507e5c193", "fusion_lon": 0.0}, {"rental_uris": {"ios": "https://dc.lft.to/lastmile_qr_scan", "android": "https://dc.lft.to/lastmile_qr_scan"}, "type": "electric_scooter", "name": "e7b8f7dc7db9891320e4f35eed4ae0cd", "is_reserved": 0, "lon": -77.04569183333334, "is_disabled": 0, "fusion_lat": 0.0, "lat": 38.913196666666664, "bike_id": "e7b8f7dc7db9891320e4f35eed4ae0cd", "fusion_lon": 0.0}, {"rental_uris": {"ios": "https://dc.lft.to/lastmile_qr_scan", "android": "https://dc.lft.to/lastmile_qr_scan"}, "type": "electric_scooter", "name": "f9beaf7b4d25f2b311685b0e86039584", "is_reserved": 0, "lon": -77.03323083333333, "is_disabled": 0, "fusion_lat": 0.0, "lat": 38.887808166666666, "bike_id": "f9beaf7b4d25f2b311685b0e86039584", "fusion_lon": 0.0}, {"rental_uris": {"ios": "https://dc.lft.to/lastmile_qr_scan", "android": "https://dc.lft.to/lastmile_qr_scan"}, "type": "electric_scooter", "name": "ae98e291480bdbc67d4b67b4fe0215b6", "is_reserved": 0, "lon": -77.0275295, "is_disabled": 0, "fusion_lat": 0.0, "lat": 38.957809833333336, "bike_id": "ae98e291480bdbc67d4b67b4fe0215b6", "fusion_lon": 0.0}, {"rental_uris": {"ios": "https://dc.lft.to/lastmile_qr_scan", "android": "https://dc.lft.to/lastmile_qr_scan"}, "type": "electric_scooter", "name": "d6202447ac10f81fb69bbda9117f22e6", "is_reserved": 0, "lon": -77.02355583333333, "is_disabled": 0, "fusion_lat": 0.0, "lat": 38.942033333333335, "bike_id": "d6202447ac10f81fb69bbda9117f22e6", "fusion_lon": 0.0}, {"rental_uris": {"ios": "https://dc.lft.to/lastmile_qr_scan", "android": "https://dc.lft.to/lastmile_qr_scan"}, "type": "electric_scooter", "name": "3316654cc87ff27929981549e3651a2f", "is_reserved": 0, "lon": -77.01451683333333, "is_disabled": 0, "fusion_lat": 0.0, "lat": 38.917738166666666, "bike_id": "3316654cc87ff27929981549e3651a2f", "fusion_lon": 0.0}, {"rental_uris": {"ios": "https://dc.lft.to/lastmile_qr_scan", "android": "https://dc.lft.to/lastmile_qr_scan"}, "type": "electric_scooter", "name": "e6983eefbaf1b6f769168f0a694b7966", "is_reserved": 0, "lon": -77.00577066666666, "is_disabled": 0, "fusion_lat": 0.0, "lat": 38.906836, "bike_id": "e6983eefbaf1b6f769168f0a694b7966", "fusion_lon": 0.0}, {"rental_uris": {"ios": "https://dc.lft.to/lastmile_qr_scan", "android": "https://dc.lft.to/lastmile_qr_scan"}, "type": "electric_scooter", "name": "27e6f1f3f092e1383bd57e5ceacbf870", "is_reserved": 0, "lon": -76.928955, "is_disabled": 0, "fusion_lat": 0.0, "lat": 38.87944016666667, "bike_id": "27e6f1f3f092e1383bd57e5ceacbf870", "fusion_lon": 0.0}, {"rental_uris": {"ios": "https://dc.lft.to/lastmile_qr_scan", "android": "https://dc.lft.to/lastmile_qr_scan"}, "type": "electric_scooter", "name": "fcb6e6bb61cd53f1a394bdfb8fe11241", "is_reserved": 0, "lon": -77.00047566666667, "is_disabled": 0, "fusion_lat": 0.0, "lat": 38.90017366666667, "bike_id": "fcb6e6bb61cd53f1a394bdfb8fe11241", "fusion_lon": 0.0}, {"rental_uris": {"ios": "https://dc.lft.to/lastmile_qr_scan", "android": "https://dc.lft.to/lastmile_qr_scan"}, "type": "electric_scooter", "name": "2304cbd7b2c861fd1e01cd9f01fc1e9f", "is_reserved": 0, "lon": -77.04033483333333, "is_disabled": 0, "fusion_lat": 0.0, "lat": 38.924596666666666, "bike_id": "2304cbd7b2c861fd1e01cd9f01fc1e9f", "fusion_lon": 0.0}, {"rental_uris": {"ios": "https://dc.lft.to/lastmile_qr_scan", "android": "https://dc.lft.to/lastmile_qr_scan"}, "type": "electric_scooter", "name": "a1bc03e32ada4b19db84e0f6935e8776", "is_reserved": 0, "lon": -76.9849235, "is_disabled": 0, "fusion_lat": 0.0, "lat": 38.9036535, "bike_id": "a1bc03e32ada4b19db84e0f6935e8776", "fusion_lon": 0.0}, {"rental_uris": {"ios": "https://dc.lft.to/lastmile_qr_scan", "android": "https://dc.lft.to/lastmile_qr_scan"}, "type": "electric_scooter", "name": "36404be5e41624184cf2bf69a87111f9", "is_reserved": 0, "lon": -77.01148733333333, "is_disabled": 0, "fusion_lat": 0.0, "lat": 38.9065165, "bike_id": "36404be5e41624184cf2bf69a87111f9", "fusion_lon": 0.0}, {"rental_uris": {"ios": "https://dc.lft.to/lastmile_qr_scan", "android": "https://dc.lft.to/lastmile_qr_scan"}, "type": "electric_scooter", "name": "ee051c69cc193dc6c2b82b7af47e9a27", "is_reserved": 0, "lon": -77.03667416666667, "is_disabled": 0, "fusion_lat": 0.0, "lat": 38.92363133333333, "bike_id": "ee051c69cc193dc6c2b82b7af47e9a27", "fusion_lon": 0.0}, {"rental_uris": {"ios": "https://dc.lft.to/lastmile_qr_scan", "android": "https://dc.lft.to/lastmile_qr_scan"}, "type": "electric_scooter", "name": "8793e3a30450b5f0330f47f00f560e61", "is_reserved": 0, "lon": -77.032622, "is_disabled": 0, "fusion_lat": 0.0, "lat": 38.90443766666667, "bike_id": "8793e3a30450b5f0330f47f00f560e61", "fusion_lon": 0.0}, {"rental_uris": {"ios": "https://dc.lft.to/lastmile_qr_scan", "android": "https://dc.lft.to/lastmile_qr_scan"}, "type": "electric_bike", "name": "56886cc8703581fc0f7abbd9b1b3191a", "is_reserved": 0, "lon": -76.99554566666667, "is_disabled": 0, "fusion_lat": 0.0, "lat": 38.86217966666667, "bike_id": "56886cc8703581fc0f7abbd9b1b3191a", "fusion_lon": 0.0}, {"rental_uris": {"ios": "https://dc.lft.to/lastmile_qr_scan", "android": "https://dc.lft.to/lastmile_qr_scan"}, "type": "electric_scooter", "name": "94c51ab4701b891185bbe643aefdcc64", "is_reserved": 0, "lon": -77.05027516666667, "is_disabled": 0, "fusion_lat": 0.0, "lat": 38.89655483333333, "bike_id": "94c51ab4701b891185bbe643aefdcc64", "fusion_lon": 0.0}, {"rental_uris": {"ios": "https://dc.lft.to/lastmile_qr_scan", "android": "https://dc.lft.to/lastmile_qr_scan"}, "type": "electric_bike", "name": "37a1e678aaa51c7d617d8d7c5b61c65b", "is_reserved": 0, "lon": -76.90742433333334, "is_disabled": 0, "fusion_lat": 0.0, "lat": 38.896197, "bike_id": "37a1e678aaa51c7d617d8d7c5b61c65b", "fusion_lon": 0.0}, {"rental_uris": {"ios": "https://dc.lft.to/lastmile_qr_scan", "android": "https://dc.lft.to/lastmile_qr_scan"}, "type": "electric_scooter", "name": "fa0c1465041ea8d59bb7553a8b76b69a", "is_reserved": 0, "lon": -77.025813, "is_disabled": 0, "fusion_lat": 0.0, "lat": 38.88713766666667, "bike_id": "fa0c1465041ea8d59bb7553a8b76b69a", "fusion_lon": 0.0}, {"rental_uris": {"ios": "https://dc.lft.to/lastmile_qr_scan", "android": "https://dc.lft.to/lastmile_qr_scan"}, "type": "electric_scooter", "name": "bec37b565a9bc6c910a4859871199a8b", "is_reserved": 0, "lon": -77.00751183333334, "is_disabled": 0, "fusion_lat": 0.0, "lat": 38.878341, "bike_id": "bec37b565a9bc6c910a4859871199a8b", "fusion_lon": 0.0}, {"rental_uris": {"ios": "https://dc.lft.to/lastmile_qr_scan", "android": "https://dc.lft.to/lastmile_qr_scan"}, "type": "electric_scooter", "name": "63db71b6bf00d8c7a8fe9fbbf2641c0e", "is_reserved": 0, "lon": -77.02017616666667, "is_disabled": 0, "fusion_lat": 0.0, "lat": 38.911181166666665, "bike_id": "63db71b6bf00d8c7a8fe9fbbf2641c0e", "fusion_lon": 0.0}, {"rental_uris": {"ios": "https://dc.lft.to/lastmile_qr_scan", "android": "https://dc.lft.to/lastmile_qr_scan"}, "type": "electric_scooter", "name": "cbc59e16c739c09405746a8cec13b3b3", "is_reserved": 0, "lon": -77.02182033333334, "is_disabled": 0, "fusion_lat": 0.0, "lat": 38.91124533333333, "bike_id": "cbc59e16c739c09405746a8cec13b3b3", "fusion_lon": 0.0}, {"rental_uris": {"ios": "https://dc.lft.to/lastmile_qr_scan", "android": "https://dc.lft.to/lastmile_qr_scan"}, "type": "electric_scooter", "name": "5ade4b19ed4a519290874a4bc2813bdc", "is_reserved": 0, "lon": -77.03022933333334, "is_disabled": 0, "fusion_lat": 0.0, "lat": 38.878478, "bike_id": "5ade4b19ed4a519290874a4bc2813bdc", "fusion_lon": 0.0}, {"rental_uris": {"ios": "https://dc.lft.to/lastmile_qr_scan", "android": "https://dc.lft.to/lastmile_qr_scan"}, "type": "electric_scooter", "name": "121a1c671de4670f17c27c1d67f37a95", "is_reserved": 0, "lon": -77.0075045, "is_disabled": 0, "fusion_lat": 0.0, "lat": 38.8988705, "bike_id": "121a1c671de4670f17c27c1d67f37a95", "fusion_lon": 0.0}, {"rental_uris": {"ios": "https://dc.lft.to/lastmile_qr_scan", "android": "https://dc.lft.to/lastmile_qr_scan"}, "type": "electric_scooter", "name": "42729eea768642c226223c84fd8578a7", "is_reserved": 0, "lon": -77.05755233333333, "is_disabled": 0, "fusion_lat": 0.0, "lat": 38.92502483333333, "bike_id": "42729eea768642c226223c84fd8578a7", "fusion_lon": 0.0}, {"rental_uris": {"ios": "https://dc.lft.to/lastmile_qr_scan", "android": "https://dc.lft.to/lastmile_qr_scan"}, "type": "electric_scooter", "name": "094a19cd2f8e603852353402c96ae222", "is_reserved": 0, "lon": -77.04618, "is_disabled": 0, "fusion_lat": 0.0, "lat": 38.90587283333333, "bike_id": "094a19cd2f8e603852353402c96ae222", "fusion_lon": 0.0}, {"rental_uris": {"ios": "https://dc.lft.to/lastmile_qr_scan", "android": "https://dc.lft.to/lastmile_qr_scan"}, "type": "electric_bike", "name": "de30940a53a9226a92a592239714f27d", "is_reserved": 0, "lon": -76.98016566666666, "is_disabled": 0, "fusion_lat": 0.0, "lat": 38.85319616666666, "bike_id": "de30940a53a9226a92a592239714f27d", "fusion_lon": 0.0}, {"rental_uris": {"ios": "https://dc.lft.to/lastmile_qr_scan", "android": "https://dc.lft.to/lastmile_qr_scan"}, "type": "electric_scooter", "name": "2f2f1c2bc4ea6e84de9d0356380bbb9f", "is_reserved": 0, "lon": -77.0056755, "is_disabled": 0, "fusion_lat": 0.0, "lat": 38.8784335, "bike_id": "2f2f1c2bc4ea6e84de9d0356380bbb9f", "fusion_lon": 0.0}, {"rental_uris": {"ios": "https://dc.lft.to/lastmile_qr_scan", "android": "https://dc.lft.to/lastmile_qr_scan"}, "type": "electric_scooter", "name": "a9555537e90134d78ea424fa9834eb01", "is_reserved": 0, "lon": -77.04175516666666, "is_disabled": 0, "fusion_lat": 0.0, "lat": 38.91607666666667, "bike_id": "a9555537e90134d78ea424fa9834eb01", "fusion_lon": 0.0}, {"rental_uris": {"ios": "https://dc.lft.to/lastmile_qr_scan", "android": "https://dc.lft.to/lastmile_qr_scan"}, "type": "electric_scooter", "name": "235120736b5d59f04a918f0e04693264", "is_reserved": 0, "lon": -77.00743633333333, "is_disabled": 0, "fusion_lat": 0.0, "lat": 38.91613133333333, "bike_id": "235120736b5d59f04a918f0e04693264", "fusion_lon": 0.0}, {"rental_uris": {"ios": "https://dc.lft.to/lastmile_qr_scan", "android": "https://dc.lft.to/lastmile_qr_scan"}, "type": "electric_scooter", "name": "8a058902e87284e29abf551f11fbbfbb", "is_reserved": 0, "lon": -77.04568633333334, "is_disabled": 0, "fusion_lat": 0.0, "lat": 38.920705, "bike_id": "8a058902e87284e29abf551f11fbbfbb", "fusion_lon": 0.0}, {"rental_uris": {"ios": "https://dc.lft.to/lastmile_qr_scan", "android": "https://dc.lft.to/lastmile_qr_scan"}, "type": "electric_scooter", "name": "d61b29eb1205459924749347806578fc", "is_reserved": 0, "lon": -77.024273, "is_disabled": 0, "fusion_lat": 0.0, "lat": 38.9213995, "bike_id": "d61b29eb1205459924749347806578fc", "fusion_lon": 0.0}, {"rental_uris": {"ios": "https://dc.lft.to/lastmile_qr_scan", "android": "https://dc.lft.to/lastmile_qr_scan"}, "type": "electric_bike", "name": "e0461f71b2f0fc00e75dd059898fe95b", "is_reserved": 0, "lon": -76.98251366666666, "is_disabled": 0, "fusion_lat": 0.0, "lat": 38.9524305, "bike_id": "e0461f71b2f0fc00e75dd059898fe95b", "fusion_lon": 0.0}, {"rental_uris": {"ios": "https://dc.lft.to/lastmile_qr_scan", "android": "https://dc.lft.to/lastmile_qr_scan"}, "type": "electric_scooter", "name": "6015e5e1383a9eec64f4851e331140ee", "is_reserved": 0, "lon": -77.03822383333333, "is_disabled": 0, "fusion_lat": 0.0, "lat": 38.9141855, "bike_id": "6015e5e1383a9eec64f4851e331140ee", "fusion_lon": 0.0}, {"rental_uris": {"ios": "https://dc.lft.to/lastmile_qr_scan", "android": "https://dc.lft.to/lastmile_qr_scan"}, "type": "electric_scooter", "name": "c0fbd9f15d9a5ecd75539e79eb7aba7b", "is_reserved": 0, "lon": -77.0196185, "is_disabled": 0, "fusion_lat": 0.0, "lat": 38.92327733333333, "bike_id": "c0fbd9f15d9a5ecd75539e79eb7aba7b", "fusion_lon": 0.0}, {"rental_uris": {"ios": "https://dc.lft.to/lastmile_qr_scan", "android": "https://dc.lft.to/lastmile_qr_scan"}, "type": "electric_scooter", "name": "59843651f606b9226ab2be1e3906d67b", "is_reserved": 0, "lon": -76.9815825, "is_disabled": 0, "fusion_lat": 0.0, "lat": 38.8994025, "bike_id": "59843651f606b9226ab2be1e3906d67b", "fusion_lon": 0.0}, {"rental_uris": {"ios": "https://dc.lft.to/lastmile_qr_scan", "android": "https://dc.lft.to/lastmile_qr_scan"}, "type": "electric_scooter", "name": "5076b7262cdc92c06dc8d17beb7b759b", "is_reserved": 0, "lon": -77.04084416666667, "is_disabled": 0, "fusion_lat": 0.0, "lat": 38.94786033333333, "bike_id": "5076b7262cdc92c06dc8d17beb7b759b", "fusion_lon": 0.0}, {"rental_uris": {"ios": "https://dc.lft.to/lastmile_qr_scan", "android": "https://dc.lft.to/lastmile_qr_scan"}, "type": "electric_scooter", "name": "45be2449bb24031aa47490f5a4819a7c", "is_reserved": 0, "lon": -77.03209483333333, "is_disabled": 0, "fusion_lat": 0.0, "lat": 38.921890833333336, "bike_id": "45be2449bb24031aa47490f5a4819a7c", "fusion_lon": 0.0}, {"rental_uris": {"ios": "https://dc.lft.to/lastmile_qr_scan", "android": "https://dc.lft.to/lastmile_qr_scan"}, "type": "electric_scooter", "name": "aa870237c360fdab65e9e449efe9a26c", "is_reserved": 0, "lon": -77.0062655, "is_disabled": 0, "fusion_lat": 0.0, "lat": 38.871718333333334, "bike_id": "aa870237c360fdab65e9e449efe9a26c", "fusion_lon": 0.0}, {"rental_uris": {"ios": "https://dc.lft.to/lastmile_qr_scan", "android": "https://dc.lft.to/lastmile_qr_scan"}, "type": "electric_scooter", "name": "85719c307a0528399afed2438ddca768", "is_reserved": 0, "lon": -77.03663483333334, "is_disabled": 0, "fusion_lat": 0.0, "lat": 38.92116866666667, "bike_id": "85719c307a0528399afed2438ddca768", "fusion_lon": 0.0}, {"rental_uris": {"ios": "https://dc.lft.to/lastmile_qr_scan", "android": "https://dc.lft.to/lastmile_qr_scan"}, "type": "electric_scooter", "name": "c44e1e30b2eda9754063363d1e46243a", "is_reserved": 0, "lon": -76.9911505, "is_disabled": 0, "fusion_lat": 0.0, "lat": 38.90902616666666, "bike_id": "c44e1e30b2eda9754063363d1e46243a", "fusion_lon": 0.0}, {"rental_uris": {"ios": "https://dc.lft.to/lastmile_qr_scan", "android": "https://dc.lft.to/lastmile_qr_scan"}, "type": "electric_scooter", "name": "869dafc2f456f68632ed1bb9b04900a2", "is_reserved": 0, "lon": -77.0272685, "is_disabled": 0, "fusion_lat": 0.0, "lat": 38.93456366666667, "bike_id": "869dafc2f456f68632ed1bb9b04900a2", "fusion_lon": 0.0}, {"rental_uris": {"ios": "https://dc.lft.to/lastmile_qr_scan", "android": "https://dc.lft.to/lastmile_qr_scan"}, "type": "electric_scooter", "name": "0baa3eb2ad32970ff6244b7a2f6eef8a", "is_reserved": 0, "lon": -77.00361533333333, "is_disabled": 0, "fusion_lat": 0.0, "lat": 38.87685166666667, "bike_id": "0baa3eb2ad32970ff6244b7a2f6eef8a", "fusion_lon": 0.0}, {"rental_uris": {"ios": "https://dc.lft.to/lastmile_qr_scan", "android": "https://dc.lft.to/lastmile_qr_scan"}, "type": "electric_scooter", "name": "50f96eb7cf1a0216a309d9526ceae64f", "is_reserved": 0, "lon": -77.01986333333333, "is_disabled": 0, "fusion_lat": 0.0, "lat": 38.876092666666665, "bike_id": "50f96eb7cf1a0216a309d9526ceae64f", "fusion_lon": 0.0}, {"rental_uris": {"ios": "https://dc.lft.to/lastmile_qr_scan", "android": "https://dc.lft.to/lastmile_qr_scan"}, "type": "electric_scooter", "name": "4ca0e220172e1931b9e23ce1506c3209", "is_reserved": 0, "lon": -77.03864783333333, "is_disabled": 0, "fusion_lat": 0.0, "lat": 38.91263283333333, "bike_id": "4ca0e220172e1931b9e23ce1506c3209", "fusion_lon": 0.0}, {"rental_uris": {"ios": "https://dc.lft.to/lastmile_qr_scan", "android": "https://dc.lft.to/lastmile_qr_scan"}, "type": "electric_bike", "name": "c5bfc06bc92d2f5a604029736b4944cb", "is_reserved": 0, "lon": -77.128412, "is_disabled": 0, "fusion_lat": 0.0, "lat": 38.800529, "bike_id": "c5bfc06bc92d2f5a604029736b4944cb", "fusion_lon": 0.0}, {"rental_uris": {"ios": "https://dc.lft.to/lastmile_qr_scan", "android": "https://dc.lft.to/lastmile_qr_scan"}, "type": "electric_scooter", "name": "53901a7603f97565c24e2a8b78296eff", "is_reserved": 0, "lon": -77.00224133333333, "is_disabled": 0, "fusion_lat": 0.0, "lat": 38.9005725, "bike_id": "53901a7603f97565c24e2a8b78296eff", "fusion_lon": 0.0}, {"rental_uris": {"ios": "https://dc.lft.to/lastmile_qr_scan", "android": "https://dc.lft.to/lastmile_qr_scan"}, "type": "electric_scooter", "name": "e0342ec65fc91f30c6b50f099fd3d0c8", "is_reserved": 0, "lon": -77.0296415, "is_disabled": 0, "fusion_lat": 0.0, "lat": 38.90257116666667, "bike_id": "e0342ec65fc91f30c6b50f099fd3d0c8", "fusion_lon": 0.0}, {"rental_uris": {"ios": "https://dc.lft.to/lastmile_qr_scan", "android": "https://dc.lft.to/lastmile_qr_scan"}, "type": "electric_bike", "name": "9f191467660a75a1e80a10a307765e6f", "is_reserved": 0, "lon": -77.13236316666666, "is_disabled": 0, "fusion_lat": 0.0, "lat": 38.80452533333333, "bike_id": "9f191467660a75a1e80a10a307765e6f", "fusion_lon": 0.0}, {"rental_uris": {"ios": "https://dc.lft.to/lastmile_qr_scan", "android": "https://dc.lft.to/lastmile_qr_scan"}, "type": "electric_bike", "name": "98e335b304b9a0731c9d490afcf0a9a3", "is_reserved": 0, "lon": -76.983487, "is_disabled": 0, "fusion_lat": 0.0, "lat": 38.86264283333333, "bike_id": "98e335b304b9a0731c9d490afcf0a9a3", "fusion_lon": 0.0}, {"rental_uris": {"ios": "https://dc.lft.to/lastmile_qr_scan", "android": "https://dc.lft.to/lastmile_qr_scan"}, "type": "electric_scooter", "name": "19848439434a8b0192a653d608797982", "is_reserved": 0, "lon": -77.06667316666666, "is_disabled": 0, "fusion_lat": 0.0, "lat": 38.903805166666665, "bike_id": "19848439434a8b0192a653d608797982", "fusion_lon": 0.0}, {"rental_uris": {"ios": "https://dc.lft.to/lastmile_qr_scan", "android": "https://dc.lft.to/lastmile_qr_scan"}, "type": "electric_scooter", "name": "5b09013e6ebe006d6c0a0dc75969030b", "is_reserved": 0, "lon": -77.0188275, "is_disabled": 0, "fusion_lat": 0.0, "lat": 38.90236983333333, "bike_id": "5b09013e6ebe006d6c0a0dc75969030b", "fusion_lon": 0.0}, {"rental_uris": {"ios": "https://dc.lft.to/lastmile_qr_scan", "android": "https://dc.lft.to/lastmile_qr_scan"}, "type": "electric_bike", "name": "fc04fdb86332e6e8096df11e59cd893b", "is_reserved": 0, "lon": -76.91806233333334, "is_disabled": 0, "fusion_lat": 0.0, "lat": 39.0000155, "bike_id": "fc04fdb86332e6e8096df11e59cd893b", "fusion_lon": 0.0}, {"rental_uris": {"ios": "https://dc.lft.to/lastmile_qr_scan", "android": "https://dc.lft.to/lastmile_qr_scan"}, "type": "electric_scooter", "name": "c1ef45e307c3d0f52338f460cfe70949", "is_reserved": 0, "lon": -77.02635866666667, "is_disabled": 0, "fusion_lat": 0.0, "lat": 38.92478583333333, "bike_id": "c1ef45e307c3d0f52338f460cfe70949", "fusion_lon": 0.0}, {"rental_uris": {"ios": "https://dc.lft.to/lastmile_qr_scan", "android": "https://dc.lft.to/lastmile_qr_scan"}, "type": "electric_scooter", "name": "2dfb0f43519f86d1ba4d812865621cf4", "is_reserved": 0, "lon": -77.00050633333333, "is_disabled": 0, "fusion_lat": 0.0, "lat": 38.87923833333333, "bike_id": "2dfb0f43519f86d1ba4d812865621cf4", "fusion_lon": 0.0}, {"rental_uris": {"ios": "https://dc.lft.to/lastmile_qr_scan", "android": "https://dc.lft.to/lastmile_qr_scan"}, "type": "electric_scooter", "name": "b75627379cd0b1013c7732fa81f1fa37", "is_reserved": 0, "lon": -77.02709816666666, "is_disabled": 0, "fusion_lat": 0.0, "lat": 38.917661, "bike_id": "b75627379cd0b1013c7732fa81f1fa37", "fusion_lon": 0.0}, {"rental_uris": {"ios": "https://dc.lft.to/lastmile_qr_scan", "android": "https://dc.lft.to/lastmile_qr_scan"}, "type": "electric_scooter", "name": "c11c1f0eccc215b719658349a5febd70", "is_reserved": 0, "lon": -77.04361533333334, "is_disabled": 0, "fusion_lat": 0.0, "lat": 38.92239166666667, "bike_id": "c11c1f0eccc215b719658349a5febd70", "fusion_lon": 0.0}, {"rental_uris": {"ios": "https://dc.lft.to/lastmile_qr_scan", "android": "https://dc.lft.to/lastmile_qr_scan"}, "type": "electric_scooter", "name": "0e322d289b295063142ec5c841967221", "is_reserved": 0, "lon": -77.03170483333334, "is_disabled": 0, "fusion_lat": 0.0, "lat": 38.9133785, "bike_id": "0e322d289b295063142ec5c841967221", "fusion_lon": 0.0}, {"rental_uris": {"ios": "https://dc.lft.to/lastmile_qr_scan", "android": "https://dc.lft.to/lastmile_qr_scan"}, "type": "electric_scooter", "name": "6923751bd62060da662a466fb2ffba1a", "is_reserved": 0, "lon": -77.04172683333333, "is_disabled": 0, "fusion_lat": 0.0, "lat": 38.91187333333333, "bike_id": "6923751bd62060da662a466fb2ffba1a", "fusion_lon": 0.0}, {"rental_uris": {"ios": "https://dc.lft.to/lastmile_qr_scan", "android": "https://dc.lft.to/lastmile_qr_scan"}, "type": "electric_scooter", "name": "5c90baa655246b58163e9e2184ceed2e", "is_reserved": 0, "lon": -77.0385275, "is_disabled": 0, "fusion_lat": 0.0, "lat": 38.92640016666667, "bike_id": "5c90baa655246b58163e9e2184ceed2e", "fusion_lon": 0.0}, {"rental_uris": {"ios": "https://dc.lft.to/lastmile_qr_scan", "android": "https://dc.lft.to/lastmile_qr_scan"}, "type": "electric_scooter", "name": "7a7ff5cf1685b1acf2627dedc7593f22", "is_reserved": 0, "lon": -77.00629533333333, "is_disabled": 0, "fusion_lat": 0.0, "lat": 38.871799333333335, "bike_id": "7a7ff5cf1685b1acf2627dedc7593f22", "fusion_lon": 0.0}, {"rental_uris": {"ios": "https://dc.lft.to/lastmile_qr_scan", "android": "https://dc.lft.to/lastmile_qr_scan"}, "type": "electric_scooter", "name": "f1c137d21a15d0441c6138e7080d0e6f", "is_reserved": 0, "lon": -77.02693416666666, "is_disabled": 0, "fusion_lat": 0.0, "lat": 38.90842816666667, "bike_id": "f1c137d21a15d0441c6138e7080d0e6f", "fusion_lon": 0.0}, {"rental_uris": {"ios": "https://dc.lft.to/lastmile_qr_scan", "android": "https://dc.lft.to/lastmile_qr_scan"}, "type": "electric_scooter", "name": "2f690cd0cd37faa40a78c72a07c2fa86", "is_reserved": 0, "lon": -77.0179935, "is_disabled": 0, "fusion_lat": 0.0, "lat": 38.8860065, "bike_id": "2f690cd0cd37faa40a78c72a07c2fa86", "fusion_lon": 0.0}, {"rental_uris": {"ios": "https://dc.lft.to/lastmile_qr_scan", "android": "https://dc.lft.to/lastmile_qr_scan"}, "type": "electric_scooter", "name": "d95a237a579e18682ed985b87fa9bc07", "is_reserved": 0, "lon": -77.03276533333333, "is_disabled": 0, "fusion_lat": 0.0, "lat": 38.93251383333333, "bike_id": "d95a237a579e18682ed985b87fa9bc07", "fusion_lon": 0.0}, {"rental_uris": {"ios": "https://dc.lft.to/lastmile_qr_scan", "android": "https://dc.lft.to/lastmile_qr_scan"}, "type": "electric_bike", "name": "d186dc35fcbb418a1ea1649ea9a6263a", "is_reserved": 0, "lon": -77.01853916666667, "is_disabled": 0, "fusion_lat": 0.0, "lat": 38.931125333333334, "bike_id": "d186dc35fcbb418a1ea1649ea9a6263a", "fusion_lon": 0.0}, {"rental_uris": {"ios": "https://dc.lft.to/lastmile_qr_scan", "android": "https://dc.lft.to/lastmile_qr_scan"}, "type": "electric_scooter", "name": "9f82beb371b45990d4c2728a442ab898", "is_reserved": 0, "lon": -77.00158516666667, "is_disabled": 0, "fusion_lat": 0.0, "lat": 38.821341, "bike_id": "9f82beb371b45990d4c2728a442ab898", "fusion_lon": 0.0}, {"rental_uris": {"ios": "https://dc.lft.to/lastmile_qr_scan", "android": "https://dc.lft.to/lastmile_qr_scan"}, "type": "electric_scooter", "name": "403178d94cc2fbf91b4886c827bd33ab", "is_reserved": 0, "lon": -77.03272916666667, "is_disabled": 0, "fusion_lat": 0.0, "lat": 38.92901583333333, "bike_id": "403178d94cc2fbf91b4886c827bd33ab", "fusion_lon": 0.0}, {"rental_uris": {"ios": "https://dc.lft.to/lastmile_qr_scan", "android": "https://dc.lft.to/lastmile_qr_scan"}, "type": "electric_scooter", "name": "7fd50869c3296469b37f125a8c2ac792", "is_reserved": 0, "lon": -77.07574133333334, "is_disabled": 0, "fusion_lat": 0.0, "lat": 38.906475, "bike_id": "7fd50869c3296469b37f125a8c2ac792", "fusion_lon": 0.0}, {"rental_uris": {"ios": "https://dc.lft.to/lastmile_qr_scan", "android": "https://dc.lft.to/lastmile_qr_scan"}, "type": "electric_bike", "name": "cf5b26f24ef4b7e6bc362c6088f34dc9", "is_reserved": 0, "lon": -76.95159433333333, "is_disabled": 0, "fusion_lat": 0.0, "lat": 39.08438366666667, "bike_id": "cf5b26f24ef4b7e6bc362c6088f34dc9", "fusion_lon": 0.0}, {"rental_uris": {"ios": "https://dc.lft.to/lastmile_qr_scan", "android": "https://dc.lft.to/lastmile_qr_scan"}, "type": "electric_scooter", "name": "f62dd476d28f613b6f59a3f2f4699a9f", "is_reserved": 0, "lon": -77.07232516666667, "is_disabled": 0, "fusion_lat": 0.0, "lat": 38.93455983333333, "bike_id": "f62dd476d28f613b6f59a3f2f4699a9f", "fusion_lon": 0.0}, {"rental_uris": {"ios": "https://dc.lft.to/lastmile_qr_scan", "android": "https://dc.lft.to/lastmile_qr_scan"}, "type": "electric_scooter", "name": "d531b8b98b69b3dcee7f35ec436c7917", "is_reserved": 0, "lon": -77.026432, "is_disabled": 0, "fusion_lat": 0.0, "lat": 38.895804, "bike_id": "d531b8b98b69b3dcee7f35ec436c7917", "fusion_lon": 0.0}, {"rental_uris": {"ios": "https://dc.lft.to/lastmile_qr_scan", "android": "https://dc.lft.to/lastmile_qr_scan"}, "type": "electric_scooter", "name": "4db5a53738f61f16b8de3e4690d538c5", "is_reserved": 0, "lon": -77.02230933333334, "is_disabled": 0, "fusion_lat": 0.0, "lat": 38.891978, "bike_id": "4db5a53738f61f16b8de3e4690d538c5", "fusion_lon": 0.0}, {"rental_uris": {"ios": "https://dc.lft.to/lastmile_qr_scan", "android": "https://dc.lft.to/lastmile_qr_scan"}, "type": "electric_scooter", "name": "de98e9034e33b66d058da6b2e128f655", "is_reserved": 0, "lon": -77.013417, "is_disabled": 0, "fusion_lat": 0.0, "lat": 38.919151666666664, "bike_id": "de98e9034e33b66d058da6b2e128f655", "fusion_lon": 0.0}, {"rental_uris": {"ios": "https://dc.lft.to/lastmile_qr_scan", "android": "https://dc.lft.to/lastmile_qr_scan"}, "type": "electric_scooter", "name": "2a2a8c3c9bbf8e94dc88998b6e8aac11", "is_reserved": 0, "lon": -77.01950366666667, "is_disabled": 0, "fusion_lat": 0.0, "lat": 38.95049616666667, "bike_id": "2a2a8c3c9bbf8e94dc88998b6e8aac11", "fusion_lon": 0.0}, {"rental_uris": {"ios": "https://dc.lft.to/lastmile_qr_scan", "android": "https://dc.lft.to/lastmile_qr_scan"}, "type": "electric_scooter", "name": "d7b58b3edff69c89f8a92f6c7ed9dfb7", "is_reserved": 0, "lon": -77.02389033333333, "is_disabled": 0, "fusion_lat": 0.0, "lat": 38.90974083333333, "bike_id": "d7b58b3edff69c89f8a92f6c7ed9dfb7", "fusion_lon": 0.0}, {"rental_uris": {"ios": "https://dc.lft.to/lastmile_qr_scan", "android": "https://dc.lft.to/lastmile_qr_scan"}, "type": "electric_scooter", "name": "eb96b075e26800d61f41f9704da47af1", "is_reserved": 0, "lon": -77.04697616666667, "is_disabled": 0, "fusion_lat": 0.0, "lat": 38.920634, "bike_id": "eb96b075e26800d61f41f9704da47af1", "fusion_lon": 0.0}, {"rental_uris": {"ios": "https://dc.lft.to/lastmile_qr_scan", "android": "https://dc.lft.to/lastmile_qr_scan"}, "type": "electric_scooter", "name": "7b02bb181ae91392e2e6238cef19978f", "is_reserved": 0, "lon": -77.01186066666666, "is_disabled": 0, "fusion_lat": 0.0, "lat": 38.9515475, "bike_id": "7b02bb181ae91392e2e6238cef19978f", "fusion_lon": 0.0}, {"rental_uris": {"ios": "https://dc.lft.to/lastmile_qr_scan", "android": "https://dc.lft.to/lastmile_qr_scan"},