{"data": {"bikes": [{"fusion_lat": 0.0, "fusion_lon": 0.0, "is_disabled": 0, "type": "electric_scooter", "rental_uris": {"ios": "https://dc.lft.to/lastmile_qr_scan", "android": "https://dc.lft.to/lastmile_qr_scan"}, "lat": 38.900184333333335, "name": "5497debb42bbe395fbcc7fd6f8eb6425", "lon": -77.030441, "is_reserved": 0, "bike_id": "5497debb42bbe395fbcc7fd6f8eb6425"}, {"fusion_lat": 0.0, "fusion_lon": 0.0, "is_disabled": 0, "type": "electric_scooter", "rental_uris": {"ios": "https://dc.lft.to/lastmile_qr_scan", "android": "https://dc.lft.to/lastmile_qr_scan"}, "lat": 38.900452, "name": "7bb9b0907534648aa58c249e0a8c9903", "lon": -77.00898983333333, "is_reserved": 0, "bike_id": "7bb9b0907534648aa58c249e0a8c9903"}, {"fusion_lat": 0.0, "fusion_lon": 0.0, "is_disabled": 0, "type": "electric_scooter", "rental_uris": {"ios": "https://dc.lft.to/lastmile_qr_scan", "android": "https://dc.lft.to/lastmile_qr_scan"}, "lat": 38.89477683333333, "name": "78f25f9f8fa30f02037498c595777610", "lon": -77.0216745, "is_reserved": 0, "bike_id": "78f25f9f8fa30f02037498c595777610"}, {"fusion_lat": 0.0, "fusion_lon": 0.0, "is_disabled": 0, "type": "electric_scooter", "rental_uris": {"ios": "https://dc.lft.to/lastmile_qr_scan", "android": "https://dc.lft.to/lastmile_qr_scan"}, "lat": 38.8772015, "name": "509d04c2db67298d8311ff27bc31f8dd", "lon": -77.003422, "is_reserved": 0, "bike_id": "509d04c2db67298d8311ff27bc31f8dd"}, {"fusion_lat": 0.0, "fusion_lon": 0.0, "is_disabled": 0, "type": "electric_bike", "rental_uris": {"ios": "https://dc.lft.to/lastmile_qr_scan", "android": "https://dc.lft.to/lastmile_qr_scan"}, "lat": 38.98298666666667, "name": "3fc3df1a10c774c07ca95721b83d8ae8", "lon": -76.94546416666667, "is_reserved": 0, "bike_id": "3fc3df1a10c774c07ca95721b83d8ae8"}, {"fusion_lat": 0.0, "fusion_lon": 0.0, "is_disabled": 0, "type": "electric_bike", "rental_uris": {"ios": "https://dc.lft.to/lastmile_qr_scan", "android": "https://dc.lft.to/lastmile_qr_scan"}, "lat": 38.9978375, "name": "a21308b888129898124f81fbb2ac38d0", "lon": -77.00763966666666, "is_reserved": 0, "bike_id": "a21308b888129898124f81fbb2ac38d0"}, {"fusion_lat": 0.0, "fusion_lon": 0.0, "is_disabled": 0, "type": "electric_bike", "rental_uris": {"ios": "https://dc.lft.to/lastmile_qr_scan", "android": "https://dc.lft.to/lastmile_qr_scan"}, "lat": 38.884617166666665, "name": "a4737f8dbb30b0a2ceb1c974d214d9ac", "lon": -76.95243383333333, "is_reserved": 0, "bike_id": "a4737f8dbb30b0a2ceb1c974d214d9ac"}, {"fusion_lat": 0.0, "fusion_lon": 0.0, "is_disabled": 0, "type": "electric_scooter", "rental_uris": {"ios": "https://dc.lft.to/lastmile_qr_scan", "android": "https://dc.lft.to/lastmile_qr_scan"}, "lat": 38.91763533333334, "name": "46a9f46fa79622107a8dccfec675d63c", "lon": -77.09665633333333, "is_reserved": 0, "bike_id": "46a9f46fa79622107a8dccfec675d63c"}, {"fusion_lat": 0.0, "fusion_lon": 0.0, "is_disabled": 0, "type": "electric_scooter", "rental_uris": {"ios": "https://dc.lft.to/lastmile_qr_scan", "android": "https://dc.lft.to/lastmile_qr_scan"}, "lat": 38.934332, "name": "70a1b9be432c6f64cd7f8652b5944b72", "lon": -77.04003533333334, "is_reserved": 0, "bike_id": "70a1b9be432c6f64cd7f8652b5944b72"}, {"fusion_lat": 0.0, "fusion_lon": 0.0, "is_disabled": 0, "type": "electric_scooter", "rental_uris": {"ios": "https://dc.lft.to/lastmile_qr_scan", "android": "https://dc.lft.to/lastmile_qr_scan"}, "lat": 38.87691783333333, "name": "5d37f7d5c9bb5f8f48b919c4d9189056", "lon": -77.00063583333333, "is_reserved": 0, "bike_id": "5d37f7d5c9bb5f8f48b919c4d9189056"}, {"fusion_lat": 0.0, "fusion_lon": 0.0, "is_disabled": 0, "type": "electric_scooter", "rental_uris": {"ios": "https://dc.lft.to/lastmile_qr_scan", "android": "https://dc.lft.to/lastmile_qr_scan"}, "lat": 38.878594166666666, "name": "c04f8b4bef36be35c30fdd050193fbe3", "lon": -76.93754233333334, "is_reserved": 0, "bike_id": "c04f8b4bef36be35c30fdd050193fbe3"}, {"fusion_lat": 0.0, "fusion_lon": 0.0, "is_disabled": 0, "type": "electric_scooter", "rental_uris": {"ios": "https://dc.lft.to/lastmile_qr_scan", "android": "https://dc.lft.to/lastmile_qr_scan"}, "lat": 38.928603833333334, "name": "cab7e9f46d5a4fbce00bdf6c993df4b6", "lon": -77.01392466666667, "is_reserved": 0, "bike_id": "cab7e9f46d5a4fbce00bdf6c993df4b6"}, {"fusion_lat": 0.0, "fusion_lon": 0.0, "is_disabled": 0, "type": "electric_scooter", "rental_uris": {"ios": "https://dc.lft.to/lastmile_qr_scan", "android": "https://dc.lft.to/lastmile_qr_scan"}, "lat": 38.885126166666666, "name": "183689edacb8a60b6f6dd7537749d554", "lon": -77.01559283333333, "is_reserved": 0, "bike_id": "183689edacb8a60b6f6dd7537749d554"}, {"fusion_lat": 0.0, "fusion_lon": 0.0, "is_disabled": 0, "type": "electric_bike", "rental_uris": {"ios": "https://dc.lft.to/lastmile_qr_scan", "android": "https://dc.lft.to/lastmile_qr_scan"}, "lat": 38.838188833333334, "name": "f33dc1e486f7270656973686e841d275", "lon": -76.99679, "is_reserved": 0, "bike_id": "f33dc1e486f7270656973686e841d275"}, {"fusion_lat": 0.0, "fusion_lon": 0.0, "is_disabled": 0, "type": "electric_scooter", "rental_uris": {"ios": "https://dc.lft.to/lastmile_qr_scan", "android": "https://dc.lft.to/lastmile_qr_scan"}, "lat": 38.90800516666667, "name": "0b6015302707306853c4396e7a132667", "lon": -77.03825983333333, "is_reserved": 0, "bike_id": "0b6015302707306853c4396e7a132667"}, {"fusion_lat": 0.0, "fusion_lon": 0.0, "is_disabled": 0, "type": "electric_scooter", "rental_uris": {"ios": "https://dc.lft.to/lastmile_qr_scan", "android": "https://dc.lft.to/lastmile_qr_scan"}, "lat": 38.91673383333333, "name": "d71ece4e684d08038422fced1bb9033f", "lon": -77.02413816666666, "is_reserved": 0, "bike_id": "d71ece4e684d08038422fced1bb9033f"}, {"fusion_lat": 0.0, "fusion_lon": 0.0, "is_disabled": 0, "type": "electric_scooter", "rental_uris": {"ios": "https://dc.lft.to/lastmile_qr_scan", "android": "https://dc.lft.to/lastmile_qr_scan"}, "lat": 38.89661916666667, "name": "f2270512ec1efadb4b4287efdf9ac8ee", "lon": -77.02714933333333, "is_reserved": 0, "bike_id": "f2270512ec1efadb4b4287efdf9ac8ee"}, {"fusion_lat": 0.0, "fusion_lon": 0.0, "is_disabled": 0, "type": "electric_scooter", "rental_uris": {"ios": "https://dc.lft.to/lastmile_qr_scan", "android": "https://dc.lft.to/lastmile_qr_scan"}, "lat": 38.8750415, "name": "aea5e52f19bf625fc9dae3428f8b09e7", "lon": -77.00045016666667, "is_reserved": 0, "bike_id": "aea5e52f19bf625fc9dae3428f8b09e7"}, {"fusion_lat": 0.0, "fusion_lon": 0.0, "is_disabled": 0, "type": "electric_scooter", "rental_uris": {"ios": "https://dc.lft.to/lastmile_qr_scan", "android": "https://dc.lft.to/lastmile_qr_scan"}, "lat": 38.936392, "name": "2aba88b49f1a7423c243bf463b638682", "lon": -77.03656166666667, "is_reserved": 0, "bike_id": "2aba88b49f1a7423c243bf463b638682"}, {"fusion_lat": 0.0, "fusion_lon": 0.0, "is_disabled": 0, "type": "electric_scooter", "rental_uris": {"ios": "https://dc.lft.to/lastmile_qr_scan", "android": "https://dc.lft.to/lastmile_qr_scan"}, "lat": 38.91448616666667, "name": "147b4df9412e374138838b2017f4822e", "lon": -77.04588783333334, "is_reserved": 0, "bike_id": "147b4df9412e374138838b2017f4822e"}, {"fusion_lat": 0.0, "fusion_lon": 0.0, "is_disabled": 0, "type": "electric_scooter", "rental_uris": {"ios": "https://dc.lft.to/lastmile_qr_scan", "android": "https://dc.lft.to/lastmile_qr_scan"}, "lat": 38.84423366666667, "name": "68023b4fb9ffd92ca59cbc093f36e0ea", "lon": -76.98854299999999, "is_reserved": 0, "bike_id": "68023b4fb9ffd92ca59cbc093f36e0ea"}, {"fusion_lat": 0.0, "fusion_lon": 0.0, "is_disabled": 0, "type": "electric_scooter", "rental_uris": {"ios": "https://dc.lft.to/lastmile_qr_scan", "android": "https://dc.lft.to/lastmile_qr_scan"}, "lat": 38.90224533333333, "name": "d027b4f81c007703a7d18bb436e3b7ca", "lon": -77.06036283333333, "is_reserved": 0, "bike_id": "d027b4f81c007703a7d18bb436e3b7ca"}, {"fusion_lat": 0.0, "fusion_lon": 0.0, "is_disabled": 0, "type": "electric_scooter", "rental_uris": {"ios": "https://dc.lft.to/lastmile_qr_scan", "android": "https://dc.lft.to/lastmile_qr_scan"}, "lat": 38.923758, "name": "8e11e94bf81ad0d520ae8fab21cdeac2", "lon": -77.02643166666667, "is_reserved": 0, "bike_id": "8e11e94bf81ad0d520ae8fab21cdeac2"}, {"fusion_lat": 0.0, "fusion_lon": 0.0, "is_disabled": 0, "type": "electric_scooter", "rental_uris": {"ios": "https://dc.lft.to/lastmile_qr_scan", "android": "https://dc.lft.to/lastmile_qr_scan"}, "lat": 38.90402666666667, "name": "9bfad3049b433ab7c901a5abb942ac0f", "lon": -77.06837133333333, "is_reserved": 0, "bike_id": "9bfad3049b433ab7c901a5abb942ac0f"}, {"fusion_lat": 0.0, "fusion_lon": 0.0, "is_disabled": 0, "type": "electric_scooter", "rental_uris": {"ios": "https://dc.lft.to/lastmile_qr_scan", "android": "https://dc.lft.to/lastmile_qr_scan"}, "lat": 38.906993, "name": "953c33b33440c665166c28989a8b78c1", "lon": -77.02392916666666, "is_reserved": 0, "bike_id": "953c33b33440c665166c28989a8b78c1"}, {"fusion_lat": 0.0, "fusion_lon": 0.0, "is_disabled": 0, "type": "electric_scooter", "rental_uris": {"ios": "https://dc.lft.to/lastmile_qr_scan", "android": "https://dc.lft.to/lastmile_qr_scan"}, "lat": 38.92667433333333, "name": "d5afc1701a1b94d2286b60aa8a37647a", "lon": -77.01502283333333, "is_reserved": 0, "bike_id": "d5afc1701a1b94d2286b60aa8a37647a"}, {"fusion_lat": 0.0, "fusion_lon": 0.0, "is_disabled": 0, "type": "electric_scooter", "rental_uris": {"ios": "https://dc.lft.to/lastmile_qr_scan", "android": "https://dc.lft.to/lastmile_qr_scan"}, "lat": 38.9014075, "name": "75bf34709f4763013902bf710636f931", "lon": -77.0285635, "is_reserved": 0, "bike_id": "75bf34709f4763013902bf710636f931"}, {"fusion_lat": 0.0, "fusion_lon": 0.0, "is_disabled": 0, "type": "electric_scooter", "rental_uris": {"ios": "https://dc.lft.to/lastmile_qr_scan", "android": "https://dc.lft.to/lastmile_qr_scan"}, "lat": 38.896278333333335, "name": "3cbbf803d09e5959775d36a2cd706abd", "lon": -76.9296275, "is_reserved": 0, "bike_id": "3cbbf803d09e5959775d36a2cd706abd"}, {"fusion_lat": 0.0, "fusion_lon": 0.0, "is_disabled": 0, "type": "electric_scooter", "rental_uris": {"ios": "https://dc.lft.to/lastmile_qr_scan", "android": "https://dc.lft.to/lastmile_qr_scan"}, "lat": 38.91765616666667, "name": "3cee5a5cacaeee60d9494c43d2a5855d", "lon": -77.028118, "is_reserved": 0, "bike_id": "3cee5a5cacaeee60d9494c43d2a5855d"}, {"fusion_lat": 0.0, "fusion_lon": 0.0, "is_disabled": 0, "type": "electric_scooter", "rental_uris": {"ios": "https://dc.lft.to/lastmile_qr_scan", "android": "https://dc.lft.to/lastmile_qr_scan"}, "lat": 38.86436633333334, "name": "831bb5992f298b0d89594a2cfeae308f", "lon": -76.98989133333333, "is_reserved": 0, "bike_id": "831bb5992f298b0d89594a2cfeae308f"}, {"fusion_lat": 0.0, "fusion_lon": 0.0, "is_disabled": 0, "type": "electric_scooter", "rental_uris": {"ios": "https://dc.lft.to/lastmile_qr_scan", "android": "https://dc.lft.to/lastmile_qr_scan"}, "lat": 38.8864095, "name": "cb7bf7cf011a38da10275b1c9f95dbe0", "lon": -77.0033755, "is_reserved": 0, "bike_id": "cb7bf7cf011a38da10275b1c9f95dbe0"}, {"fusion_lat": 0.0, "fusion_lon": 0.0, "is_disabled": 0, "type": "electric_bike", "rental_uris": {"ios": "https://dc.lft.to/lastmile_qr_scan", "android": "https://dc.lft.to/lastmile_qr_scan"}, "lat": 38.865777666666666, "name": "bfb6f6b82e91ed0d31a91be018e52148", "lon": -77.12931366666666, "is_reserved": 0, "bike_id": "bfb6f6b82e91ed0d31a91be018e52148"}, {"fusion_lat": 0.0, "fusion_lon": 0.0, "is_disabled": 0, "type": "electric_scooter", "rental_uris": {"ios": "https://dc.lft.to/lastmile_qr_scan", "android": "https://dc.lft.to/lastmile_qr_scan"}, "lat": 38.92136383333333, "name": "1d5e5bf6dd01df8096fbe919ed1fff53", "lon": -77.00928066666667, "is_reserved": 0, "bike_id": "1d5e5bf6dd01df8096fbe919ed1fff53"}, {"fusion_lat": 0.0, "fusion_lon": 0.0, "is_disabled": 0, "type": "electric_scooter", "rental_uris": {"ios": "https://dc.lft.to/lastmile_qr_scan", "android": "https://dc.lft.to/lastmile_qr_scan"}, "lat": 38.92446983333333, "name": "19b56743715b13a14bc6e6d6ca0d4b4d", "lon": -77.0213315, "is_reserved": 0, "bike_id": "19b56743715b13a14bc6e6d6ca0d4b4d"}, {"fusion_lat": 0.0, "fusion_lon": 0.0, "is_disabled": 0, "type": "electric_scooter", "rental_uris": {"ios": "https://dc.lft.to/lastmile_qr_scan", "android": "https://dc.lft.to/lastmile_qr_scan"}, "lat": 38.92030416666667, "name": "c74d23e5a81b871c77d7e39f5179d06a", "lon": -77.04181783333334, "is_reserved": 0, "bike_id": "c74d23e5a81b871c77d7e39f5179d06a"}, {"fusion_lat": 0.0, "fusion_lon": 0.0, "is_disabled": 0, "type": "electric_scooter", "rental_uris": {"ios": "https://dc.lft.to/lastmile_qr_scan", "android": "https://dc.lft.to/lastmile_qr_scan"}, "lat": 38.894132166666665, "name": "9b0bdea044f34c8674bf273d9790f90f", "lon": -77.03177316666667, "is_reserved": 0, "bike_id": "9b0bdea044f34c8674bf273d9790f90f"}, {"fusion_lat": 0.0, "fusion_lon": 0.0, "is_disabled": 0, "type": "electric_scooter", "rental_uris": {"ios": "https://dc.lft.to/lastmile_qr_scan", "android": "https://dc.lft.to/lastmile_qr_scan"}, "lat": 38.91932533333333, "name": "3a2ff0a190c10ca0647630b63628d619", "lon": -77.019047, "is_reserved": 0, "bike_id": "3a2ff0a190c10ca0647630b63628d619"}, {"fusion_lat": 0.0, "fusion_lon": 0.0, "is_disabled": 0, "type": "electric_scooter", "rental_uris": {"ios": "https://dc.lft.to/lastmile_qr_scan", "android": "https://dc.lft.to/lastmile_qr_scan"}, "lat": 38.91251333333334, "name": "02801cf6c215291bd7f915843e1dcd84", "lon": -77.041589, "is_reserved": 0, "bike_id": "02801cf6c215291bd7f915843e1dcd84"}, {"fusion_lat": 0.0, "fusion_lon": 0.0, "is_disabled": 0, "type": "electric_scooter", "rental_uris": {"ios": "https://dc.lft.to/lastmile_qr_scan", "android": "https://dc.lft.to/lastmile_qr_scan"}, "lat": 38.906973666666666, "name": "c818f7464b732bd7e4cc465653042f99", "lon": -77.02398, "is_reserved": 0, "bike_id": "c818f7464b732bd7e4cc465653042f99"}, {"fusion_lat": 0.0, "fusion_lon": 0.0, "is_disabled": 0, "type": "electric_scooter", "rental_uris": {"ios": "https://dc.lft.to/lastmile_qr_scan", "android": "https://dc.lft.to/lastmile_qr_scan"}, "lat": 38.948036333333334, "name": "648c2deedade0aa162fb99376a618556", "lon": -77.07906916666667, "is_reserved": 0, "bike_id": "648c2deedade0aa162fb99376a618556"}, {"fusion_lat": 0.0, "fusion_lon": 0.0, "is_disabled": 0, "type": "electric_scooter", "rental_uris": {"ios": "https://dc.lft.to/lastmile_qr_scan", "android": "https://dc.lft.to/lastmile_qr_scan"}, "lat": 38.87643933333333, "name": "908a6baff50228f870b7b50d0924991f", "lon": -77.0158455, "is_reserved": 0, "bike_id": "908a6baff50228f870b7b50d0924991f"}, {"fusion_lat": 0.0, "fusion_lon": 0.0, "is_disabled": 0, "type": "electric_scooter", "rental_uris": {"ios": "https://dc.lft.to/lastmile_qr_scan", "android": "https://dc.lft.to/lastmile_qr_scan"}, "lat": 38.922157166666665, "name": "dc7e68e780cda5839bf4a89551bcd09f", "lon": -77.026629, "is_reserved": 0, "bike_id": "dc7e68e780cda5839bf4a89551bcd09f"}, {"fusion_lat": 0.0, "fusion_lon": 0.0, "is_disabled": 0, "type": "electric_scooter", "rental_uris": {"ios": "https://dc.lft.to/lastmile_qr_scan", "android": "https://dc.lft.to/lastmile_qr_scan"}, "lat": 38.9321685, "name": "f66711910d25f9512bad448a9512bf12", "lon": -76.999806, "is_reserved": 0, "bike_id": "f66711910d25f9512bad448a9512bf12"}, {"fusion_lat": 0.0, "fusion_lon": 0.0, "is_disabled": 0, "type": "electric_scooter", "rental_uris": {"ios": "https://dc.lft.to/lastmile_qr_scan", "android": "https://dc.lft.to/lastmile_qr_scan"}, "lat": 38.943029833333334, "name": "9795548e632ffd99f5192b5d5dcf4008", "lon": -77.025277, "is_reserved": 0, "bike_id": "9795548e632ffd99f5192b5d5dcf4008"}, {"fusion_lat": 0.0, "fusion_lon": 0.0, "is_disabled": 0, "type": "electric_scooter", "rental_uris": {"ios": "https://dc.lft.to/lastmile_qr_scan", "android": "https://dc.lft.to/lastmile_qr_scan"}, "lat": 38.855645, "name": "e52923a8ee323e346f61251e5e38508f", "lon": -76.9907585, "is_reserved": 0, "bike_id": "e52923a8ee323e346f61251e5e38508f"}, {"fusion_lat": 0.0, "fusion_lon": 0.0, "is_disabled": 0, "type": "electric_scooter", "rental_uris": {"ios": "https://dc.lft.to/lastmile_qr_scan", "android": "https://dc.lft.to/lastmile_qr_scan"}, "lat": 38.885396, "name": "22944d4d24cc2dfdd2ed361e91177f81", "lon": -76.978884, "is_reserved": 0, "bike_id": "22944d4d24cc2dfdd2ed361e91177f81"}, {"fusion_lat": 0.0, "fusion_lon": 0.0, "is_disabled": 0, "type": "electric_scooter", "rental_uris": {"ios": "https://dc.lft.to/lastmile_qr_scan", "android": "https://dc.lft.to/lastmile_qr_scan"}, "lat": 38.92335766666667, "name": "e1b102950c17bd7aaca526ddaf88e3a9", "lon": -77.04449966666667, "is_reserved": 0, "bike_id": "e1b102950c17bd7aaca526ddaf88e3a9"}, {"fusion_lat": 0.0, "fusion_lon": 0.0, "is_disabled": 0, "type": "electric_scooter", "rental_uris": {"ios": "https://dc.lft.to/lastmile_qr_scan", "android": "https://dc.lft.to/lastmile_qr_scan"}, "lat": 38.89225033333334, "name": "aaae59f6691c13e3dc2a9fb14611cd31", "lon": -77.021768, "is_reserved": 0, "bike_id": "aaae59f6691c13e3dc2a9fb14611cd31"}, {"fusion_lat": 0.0, "fusion_lon": 0.0, "is_disabled": 0, "type": "electric_bike", "rental_uris": {"ios": "https://dc.lft.to/lastmile_qr_scan", "android": "https://dc.lft.to/lastmile_qr_scan"}, "lat": 38.864773666666665, "name": "cd5f75ee257393313f69a48e79ef198d", "lon": -77.05463883333333, "is_reserved": 0, "bike_id": "cd5f75ee257393313f69a48e79ef198d"}, {"fusion_lat": 0.0, "fusion_lon": 0.0, "is_disabled": 0, "type": "electric_scooter", "rental_uris": {"ios": "https://dc.lft.to/lastmile_qr_scan", "android": "https://dc.lft.to/lastmile_qr_scan"}, "lat": 38.91693816666667, "name": "2c1c2e680b2167873f6088738c07afd2", "lon": -77.02591866666667, "is_reserved": 0, "bike_id": "2c1c2e680b2167873f6088738c07afd2"}, {"fusion_lat": 0.0, "fusion_lon": 0.0, "is_disabled": 0, "type": "electric_scooter", "rental_uris": {"ios": "https://dc.lft.to/lastmile_qr_scan", "android": "https://dc.lft.to/lastmile_qr_scan"}, "lat": 38.90546116666667, "name": "d5113dbef33900054a5e71bc08bc3a93", "lon": -77.022126, "is_reserved": 0, "bike_id": "d5113dbef33900054a5e71bc08bc3a93"}, {"fusion_lat": 0.0, "fusion_lon": 0.0, "is_disabled": 0, "type": "electric_scooter", "rental_uris": {"ios": "https://dc.lft.to/lastmile_qr_scan", "android": "https://dc.lft.to/lastmile_qr_scan"}, "lat": 38.891361833333335, "name": "81ed81f1d26c06ab3a2cf8c366ab8507", "lon": -76.98372716666667, "is_reserved": 0, "bike_id": "81ed81f1d26c06ab3a2cf8c366ab8507"}, {"fusion_lat": 0.0, "fusion_lon": 0.0, "is_disabled": 0, "type": "electric_scooter", "rental_uris": {"ios": "https://dc.lft.to/lastmile_qr_scan", "android": "https://dc.lft.to/lastmile_qr_scan"}, "lat": 38.895438666666664, "name": "53b70889bf20da2aeed32f17690fcc18", "lon": -76.98335433333334, "is_reserved": 0, "bike_id": "53b70889bf20da2aeed32f17690fcc18"}, {"fusion_lat": 0.0, "fusion_lon": 0.0, "is_disabled": 0, "type": "electric_scooter", "rental_uris": {"ios": "https://dc.lft.to/lastmile_qr_scan", "android": "https://dc.lft.to/lastmile_qr_scan"}, "lat": 38.871135333333335, "name": "8953779b18d518dec512c377db7aa7a1", "lon": -77.0075495, "is_reserved": 0, "bike_id": "8953779b18d518dec512c377db7aa7a1"}, {"fusion_lat": 0.0, "fusion_lon": 0.0, "is_disabled": 0, "type": "electric_scooter", "rental_uris": {"ios": "https://dc.lft.to/lastmile_qr_scan", "android": "https://dc.lft.to/lastmile_qr_scan"}, "lat": 38.902922333333336, "name": "335de41e380a6befad00f31e207cc14e", "lon": -77.03657033333333, "is_reserved": 0, "bike_id": "335de41e380a6befad00f31e207cc14e"}, {"fusion_lat": 0.0, "fusion_lon": 0.0, "is_disabled": 0, "type": "electric_scooter", "rental_uris": {"ios": "https://dc.lft.to/lastmile_qr_scan", "android": "https://dc.lft.to/lastmile_qr_scan"}, "lat": 38.90638083333333, "name": "932c6e5ee662af4f8ee0a1354f26c7ce", "lon": -77.04998266666666, "is_reserved": 0, "bike_id": "932c6e5ee662af4f8ee0a1354f26c7ce"}, {"fusion_lat": 0.0, "fusion_lon": 0.0, "is_disabled": 0, "type": "electric_scooter", "rental_uris": {"ios": "https://dc.lft.to/lastmile_qr_scan", "android": "https://dc.lft.to/lastmile_qr_scan"}, "lat": 38.915289666666666, "name": "349b6381480ebfca814127def6f455fd", "lon": -77.01843, "is_reserved": 0, "bike_id": "349b6381480ebfca814127def6f455fd"}, {"fusion_lat": 0.0, "fusion_lon": 0.0, "is_disabled": 0, "type": "electric_scooter", "rental_uris": {"ios": "https://dc.lft.to/lastmile_qr_scan", "android": "https://dc.lft.to/lastmile_qr_scan"}, "lat": 38.91943666666667, "name": "db9e9aecd9465e744cb85a745e2eb11d", "lon": -77.01795133333333, "is_reserved": 0, "bike_id": "db9e9aecd9465e744cb85a745e2eb11d"}, {"fusion_lat": 0.0, "fusion_lon": 0.0, "is_disabled": 0, "type": "electric_scooter", "rental_uris": {"ios": "https://dc.lft.to/lastmile_qr_scan", "android": "https://dc.lft.to/lastmile_qr_scan"}, "lat": 38.902856, "name": "41e30790927769b88c171b7cb51b061f", "lon": -77.0226895, "is_reserved": 0, "bike_id": "41e30790927769b88c171b7cb51b061f"}, {"fusion_lat": 0.0, "fusion_lon": 0.0, "is_disabled": 0, "type": "electric_scooter", "rental_uris": {"ios": "https://dc.lft.to/lastmile_qr_scan", "android": "https://dc.lft.to/lastmile_qr_scan"}, "lat": 38.93410883333333, "name": "3a1b6bb000a343d27e92f77638db78ef", "lon": -77.04324716666666, "is_reserved": 0, "bike_id": "3a1b6bb000a343d27e92f77638db78ef"}, {"fusion_lat": 0.0, "fusion_lon": 0.0, "is_disabled": 0, "type": "electric_scooter", "rental_uris": {"ios": "https://dc.lft.to/lastmile_qr_scan", "android": "https://dc.lft.to/lastmile_qr_scan"}, "lat": 38.92326516666667, "name": "c953ef91a488e94d38adcf70e69d91d5", "lon": -77.01957383333334, "is_reserved": 0, "bike_id": "c953ef91a488e94d38adcf70e69d91d5"}, {"fusion_lat": 0.0, "fusion_lon": 0.0, "is_disabled": 0, "type": "electric_scooter", "rental_uris": {"ios": "https://dc.lft.to/lastmile_qr_scan", "android": "https://dc.lft.to/lastmile_qr_scan"}, "lat": 38.921089333333335, "name": "9ed1d36dfdec11017c62446de2a30345", "lon": -77.0176325, "is_reserved": 0, "bike_id": "9ed1d36dfdec11017c62446de2a30345"}, {"fusion_lat": 0.0, "fusion_lon": 0.0, "is_disabled": 0, "type": "electric_scooter", "rental_uris": {"ios": "https://dc.lft.to/lastmile_qr_scan", "android": "https://dc.lft.to/lastmile_qr_scan"}, "lat": 38.91062133333333, "name": "dd2670b8d2bf3c79208129634d8ff22a", "lon": -77.04876166666666, "is_reserved": 0, "bike_id": "dd2670b8d2bf3c79208129634d8ff22a"}, {"fusion_lat": 0.0, "fusion_lon": 0.0, "is_disabled": 0, "type": "electric_scooter", "rental_uris": {"ios": "https://dc.lft.to/lastmile_qr_scan", "android": "https://dc.lft.to/lastmile_qr_scan"}, "lat": 38.9501765, "name": "b0fe6ede9e963ca4cfc08af1f4e1b212", "lon": -77.06697916666667, "is_reserved": 0, "bike_id": "b0fe6ede9e963ca4cfc08af1f4e1b212"}, {"fusion_lat": 0.0, "fusion_lon": 0.0, "is_disabled": 0, "type": "electric_scooter", "rental_uris": {"ios": "https://dc.lft.to/lastmile_qr_scan", "android": "https://dc.lft.to/lastmile_qr_scan"}, "lat": 38.912639666666664, "name": "dd31139737ad7b34bf04eccdb2c948ba", "lon": -77.04877, "is_reserved": 0, "bike_id": "dd31139737ad7b34bf04eccdb2c948ba"}, {"fusion_lat": 0.0, "fusion_lon": 0.0, "is_disabled": 0, "type": "electric_bike", "rental_uris": {"ios": "https://dc.lft.to/lastmile_qr_scan", "android": "https://dc.lft.to/lastmile_qr_scan"}, "lat": 38.855120166666666, "name": "6af5bb0feb6a378b6eed206ea52024d5", "lon": -76.984294, "is_reserved": 0, "bike_id": "6af5bb0feb6a378b6eed206ea52024d5"}, {"fusion_lat": 0.0, "fusion_lon": 0.0, "is_disabled": 0, "type": "electric_scooter", "rental_uris": {"ios": "https://dc.lft.to/lastmile_qr_scan", "android": "https://dc.lft.to/lastmile_qr_scan"}, "lat": 38.91625583333333, "name": "af123462ca478a7700d4ac65c3a0f307", "lon": -77.00346233333333, "is_reserved": 0, "bike_id": "af123462ca478a7700d4ac65c3a0f307"}, {"fusion_lat": 0.0, "fusion_lon": 0.0, "is_disabled": 0, "type": "electric_scooter", "rental_uris": {"ios": "https://dc.lft.to/lastmile_qr_scan", "android": "https://dc.lft.to/lastmile_qr_scan"}, "lat": 38.9234415, "name": "1ebd8c4c9b41b387d2b57dfe55e5c6e9", "lon": -77.0335315, "is_reserved": 0, "bike_id": "1ebd8c4c9b41b387d2b57dfe55e5c6e9"}, {"fusion_lat": 0.0, "fusion_lon": 0.0, "is_disabled": 0, "type": "electric_bike", "rental_uris": {"ios": "https://dc.lft.to/lastmile_qr_scan", "android": "https://dc.lft.to/lastmile_qr_scan"}, "lat": 38.873195333333335, "name": "cbec923f05808e9aeb685e2486e09671", "lon": -77.114094, "is_reserved": 0, "bike_id": "cbec923f05808e9aeb685e2486e09671"}, {"fusion_lat": 0.0, "fusion_lon": 0.0, "is_disabled": 0, "type": "electric_scooter", "rental_uris": {"ios": "https://dc.lft.to/lastmile_qr_scan", "android": "https://dc.lft.to/lastmile_qr_scan"}, "lat": 38.909261666666666, "name": "5c88441437279d76c414d24a7dfe4f5e", "lon": -77.04211316666667, "is_reserved": 0, "bike_id": "5c88441437279d76c414d24a7dfe4f5e"}, {"fusion_lat": 0.0, "fusion_lon": 0.0, "is_disabled": 0, "type": "electric_scooter", "rental_uris": {"ios": "https://dc.lft.to/lastmile_qr_scan", "android": "https://dc.lft.to/lastmile_qr_scan"}, "lat": 38.94198766666667, "name": "9ceda465928a83031887e71d95802cce", "lon": -77.023499, "is_reserved": 0, "bike_id": "9ceda465928a83031887e71d95802cce"}, {"fusion_lat": 0.0, "fusion_lon": 0.0, "is_disabled": 0, "type": "electric_bike", "rental_uris": {"ios": "https://dc.lft.to/lastmile_qr_scan", "android": "https://dc.lft.to/lastmile_qr_scan"}, "lat": 38.932105, "name": "ec9106da7c61d0e10d5678ec8f6fbca4", "lon": -76.99498366666667, "is_reserved": 0, "bike_id": "ec9106da7c61d0e10d5678ec8f6fbca4"}, {"fusion_lat": 0.0, "fusion_lon": 0.0, "is_disabled": 0, "type": "electric_scooter", "rental_uris": {"ios": "https://dc.lft.to/lastmile_qr_scan", "android": "https://dc.lft.to/lastmile_qr_scan"}, "lat": 38.89675366666667, "name": "33e9c269bd3053138b60bb162fc3dd1e", "lon": -77.005137, "is_reserved": 0, "bike_id": "33e9c269bd3053138b60bb162fc3dd1e"}, {"fusion_lat": 0.0, "fusion_lon": 0.0, "is_disabled": 0, "type": "electric_scooter", "rental_uris": {"ios": "https://dc.lft.to/lastmile_qr_scan", "android": "https://dc.lft.to/lastmile_qr_scan"}, "lat": 38.87945916666666, "name": "333892ab64af4306356a37f273bd7c34", "lon": -76.9289405, "is_reserved": 0, "bike_id": "333892ab64af4306356a37f273bd7c34"}, {"fusion_lat": 0.0, "fusion_lon": 0.0, "is_disabled": 0, "type": "electric_scooter", "rental_uris": {"ios": "https://dc.lft.to/lastmile_qr_scan", "android": "https://dc.lft.to/lastmile_qr_scan"}, "lat": 38.899626, "name": "4f7f7907a3d7e7d647ab765159e92c34", "lon": -77.045102, "is_reserved": 0, "bike_id": "4f7f7907a3d7e7d647ab765159e92c34"}, {"fusion_lat": 0.0, "fusion_lon": 0.0, "is_disabled": 0, "type": "electric_scooter", "rental_uris": {"ios": "https://dc.lft.to/lastmile_qr_scan", "android": "https://dc.lft.to/lastmile_qr_scan"}, "lat": 38.90845266666667, "name": "7777e95182d73f717586fb4388c38461", "lon": -77.06340783333333, "is_reserved": 0, "bike_id": "7777e95182d73f717586fb4388c38461"}, {"fusion_lat": 0.0, "fusion_lon": 0.0, "is_disabled": 0, "type": "electric_scooter", "rental_uris": {"ios": "https://dc.lft.to/lastmile_qr_scan", "android": "https://dc.lft.to/lastmile_qr_scan"}, "lat": 38.92020333333333, "name": "dd6820c2fe0f942b6a6c839f61b732d4", "lon": -77.0636525, "is_reserved": 0, "bike_id": "dd6820c2fe0f942b6a6c839f61b732d4"}, {"fusion_lat": 0.0, "fusion_lon": 0.0, "is_disabled": 0, "type": "electric_scooter", "rental_uris": {"ios": "https://dc.lft.to/lastmile_qr_scan", "android": "https://dc.lft.to/lastmile_qr_scan"}, "lat": 38.8926615, "name": "65d60b18f53d9672cea7486d6f0f143e", "lon": -76.98370733333333, "is_reserved": 0, "bike_id": "65d60b18f53d9672cea7486d6f0f143e"}, {"fusion_lat": 0.0, "fusion_lon": 0.0, "is_disabled": 0, "type": "electric_scooter", "rental_uris": {"ios": "https://dc.lft.to/lastmile_qr_scan", "android": "https://dc.lft.to/lastmile_qr_scan"}, "lat": 38.87376116666667, "name": "288b422b318c75a3fcfa0de3bfccb8b6", "lon": -77.00051466666666, "is_reserved": 0, "bike_id": "288b422b318c75a3fcfa0de3bfccb8b6"}, {"fusion_lat": 0.0, "fusion_lon": 0.0, "is_disabled": 0, "type": "electric_scooter", "rental_uris": {"ios": "https://dc.lft.to/lastmile_qr_scan", "android": "https://dc.lft.to/lastmile_qr_scan"}, "lat": 38.898674666666665, "name": "b7088256d41cf2240e64d5cbb4955aa4", "lon": -77.03937183333333, "is_reserved": 0, "bike_id": "b7088256d41cf2240e64d5cbb4955aa4"}, {"fusion_lat": 0.0, "fusion_lon": 0.0, "is_disabled": 0, "type": "electric_scooter", "rental_uris": {"ios": "https://dc.lft.to/lastmile_qr_scan", "android": "https://dc.lft.to/lastmile_qr_scan"}, "lat": 38.900598333333335, "name": "d07c5da3d5879002fd85687fdf4e7ffc", "lon": -76.99845983333333, "is_reserved": 0, "bike_id": "d07c5da3d5879002fd85687fdf4e7ffc"}, {"fusion_lat": 0.0, "fusion_lon": 0.0, "is_disabled": 0, "type": "electric_scooter", "rental_uris": {"ios": "https://dc.lft.to/lastmile_qr_scan", "android": "https://dc.lft.to/lastmile_qr_scan"}, "lat": 38.9000945, "name": "ad8ea21d3ca0b5f046ea99d0a59c463c", "lon": -77.00035616666666, "is_reserved": 0, "bike_id": "ad8ea21d3ca0b5f046ea99d0a59c463c"}, {"fusion_lat": 0.0, "fusion_lon": 0.0, "is_disabled": 0, "type": "electric_scooter", "rental_uris": {"ios": "https://dc.lft.to/lastmile_qr_scan", "android": "https://dc.lft.to/lastmile_qr_scan"}, "lat": 38.903612333333335, "name": "0c2143cd2319af79c4f1f281f09dbbb4", "lon": -77.02393916666666, "is_reserved": 0, "bike_id": "0c2143cd2319af79c4f1f281f09dbbb4"}, {"fusion_lat": 0.0, "fusion_lon": 0.0, "is_disabled": 0, "type": "electric_scooter", "rental_uris": {"ios": "https://dc.lft.to/lastmile_qr_scan", "android": "https://dc.lft.to/lastmile_qr_scan"}, "lat": 38.896880333333335, "name": "fb986a66ff2b649db88d2a094ad127b5", "lon": -77.02725133333334, "is_reserved": 0, "bike_id": "fb986a66ff2b649db88d2a094ad127b5"}, {"fusion_lat": 0.0, "fusion_lon": 0.0, "is_disabled": 0, "type": "electric_scooter", "rental_uris": {"ios": "https://dc.lft.to/lastmile_qr_scan", "android": "https://dc.lft.to/lastmile_qr_scan"}, "lat": 38.91719766666667, "name": "3019df81eb37e3297cc1131bcfed1bdf", "lon": -77.038597, "is_reserved": 0, "bike_id": "3019df81eb37e3297cc1131bcfed1bdf"}, {"fusion_lat": 0.0, "fusion_lon": 0.0, "is_disabled": 0, "type": "electric_scooter", "rental_uris": {"ios": "https://dc.lft.to/lastmile_qr_scan", "android": "https://dc.lft.to/lastmile_qr_scan"}, "lat": 38.91662933333333, "name": "0961c2dd3f8345165c438c4838ed6671", "lon": -77.03855783333333, "is_reserved": 0, "bike_id": "0961c2dd3f8345165c438c4838ed6671"}, {"fusion_lat": 0.0, "fusion_lon": 0.0, "is_disabled": 0, "type": "electric_scooter", "rental_uris": {"ios": "https://dc.lft.to/lastmile_qr_scan", "android": "https://dc.lft.to/lastmile_qr_scan"}, "lat": 38.970050666666666, "name": "0a3b2130ee9f0cb88cdc8fe13a852f1c", "lon": -77.02549716666667, "is_reserved": 0, "bike_id": "0a3b2130ee9f0cb88cdc8fe13a852f1c"}, {"fusion_lat": 0.0, "fusion_lon": 0.0, "is_disabled": 0, "type": "electric_scooter", "rental_uris": {"ios": "https://dc.lft.to/lastmile_qr_scan", "android": "https://dc.lft.to/lastmile_qr_scan"}, "lat": 38.90380716666667, "name": "a62ab9c78e4fb7a4c872a5c7467b7413", "lon": -77.0456055, "is_reserved": 0, "bike_id": "a62ab9c78e4fb7a4c872a5c7467b7413"}, {"fusion_lat": 0.0, "fusion_lon": 0.0, "is_disabled": 0, "type": "electric_bike", "rental_uris": {"ios": "https://dc.lft.to/lastmile_qr_scan", "android": "https://dc.lft.to/lastmile_qr_scan"}, "lat": 38.856184166666665, "name": "baabdfe777feb27aa6dbcfbda5f46464", "lon": -76.9615295, "is_reserved": 0, "bike_id": "baabdfe777feb27aa6dbcfbda5f46464"}, {"fusion_lat": 0.0, "fusion_lon": 0.0, "is_disabled": 0, "type": "electric_scooter", "rental_uris": {"ios": "https://dc.lft.to/lastmile_qr_scan", "android": "https://dc.lft.to/lastmile_qr_scan"}, "lat": 38.895293, "name": "14ca66f1b9ee45261c0c3dc687490102", "lon": -77.03978133333334, "is_reserved": 0, "bike_id": "14ca66f1b9ee45261c0c3dc687490102"}, {"fusion_lat": 0.0, "fusion_lon": 0.0, "is_disabled": 0, "type": "electric_scooter", "rental_uris": {"ios": "https://dc.lft.to/lastmile_qr_scan", "android": "https://dc.lft.to/lastmile_qr_scan"}, "lat": 38.90325, "name": "41230f8ce48024649b8c445d7b663501", "lon": -77.04492266666666, "is_reserved": 0, "bike_id": "41230f8ce48024649b8c445d7b663501"}, {"fusion_lat": 0.0, "fusion_lon": 0.0, "is_disabled": 0, "type": "electric_scooter", "rental_uris": {"ios": "https://dc.lft.to/lastmile_qr_scan", "android": "https://dc.lft.to/lastmile_qr_scan"}, "lat": 38.916613, "name": "ba827a1b234865cdbd00be6d84b9a77a", "lon": -77.00933983333333, "is_reserved": 0, "bike_id": "ba827a1b234865cdbd00be6d84b9a77a"}, {"fusion_lat": 0.0, "fusion_lon": 0.0, "is_disabled": 0, "type": "electric_scooter", "rental_uris": {"ios": "https://dc.lft.to/lastmile_qr_scan", "android": "https://dc.lft.to/lastmile_qr_scan"}, "lat": 38.897304166666665, "name": "7a996a121bceec35325fe50db8d47996", "lon": -77.02891183333334, "is_reserved": 0, "bike_id": "7a996a121bceec35325fe50db8d47996"}, {"fusion_lat": 0.0, "fusion_lon": 0.0, "is_disabled": 0, "type": "electric_scooter", "rental_uris": {"ios": "https://dc.lft.to/lastmile_qr_scan", "android": "https://dc.lft.to/lastmile_qr_scan"}, "lat": 38.87674416666667, "name": "c13cff2572e6c7e6c4202d7094ce4997", "lon": -77.007439, "is_reserved": 0, "bike_id": "c13cff2572e6c7e6c4202d7094ce4997"}, {"fusion_lat": 0.0, "fusion_lon": 0.0, "is_disabled": 0, "type": "electric_scooter", "rental_uris": {"ios": "https://dc.lft.to/lastmile_qr_scan", "android": "https://dc.lft.to/lastmile_qr_scan"}, "lat": 38.88501983333333, "name": "5cd644fd4832a757c05f354ce2e11ce1", "lon": -76.99748583333333, "is_reserved": 0, "bike_id": "5cd644fd4832a757c05f354ce2e11ce1"}, {"fusion_lat": 0.0, "fusion_lon": 0.0, "is_disabled": 0, "type": "electric_scooter", "rental_uris": {"ios": "https://dc.lft.to/lastmile_qr_scan", "android": "https://dc.lft.to/lastmile_qr_scan"}, "lat": 38.98268516666667, "name": "30d4ee982438893853269e6295b3606a", "lon": -77.02601716666666, "is_reserved": 0, "bike_id": "30d4ee982438893853269e6295b3606a"}, {"fusion_lat": 0.0, "fusion_lon": 0.0, "is_disabled": 0, "type": "electric_scooter", "rental_uris": {"ios": "https://dc.lft.to/lastmile_qr_scan", "android": "https://dc.lft.to/lastmile_qr_scan"}, "lat": 38.9161665, "name": "35ec673e4762e7bc1290b3328ac50360", "lon": -77.02308266666667, "is_reserved": 0, "bike_id": "35ec673e4762e7bc1290b3328ac50360"}, {"fusion_lat": 0.0, "fusion_lon": 0.0, "is_disabled": 0, "type": "electric_bike", "rental_uris": {"ios": "https://dc.lft.to/lastmile_qr_scan", "android": "https://dc.lft.to/lastmile_qr_scan"}, "lat": 38.93971783333333, "name": "8097b7de45d5d08bfdb9896a5e484bf9", "lon": -77.03755933333333, "is_reserved": 0, "bike_id": "8097b7de45d5d08bfdb9896a5e484bf9"}, {"fusion_lat": 0.0, "fusion_lon": 0.0, "is_disabled": 0, "type": "electric_scooter", "rental_uris": {"ios": "https://dc.lft.to/lastmile_qr_scan", "android": "https://dc.lft.to/lastmile_qr_scan"}, "lat": 38.8979265, "name": "ad4d6b7bca874fc95c376ac69de1e343", "lon": -77.011925, "is_reserved": 0, "bike_id": "ad4d6b7bca874fc95c376ac69de1e343"}, {"fusion_lat": 0.0, "fusion_lon": 0.0, "is_disabled": 0, "type": "electric_scooter", "rental_uris": {"ios": "https://dc.lft.to/lastmile_qr_scan", "android": "https://dc.lft.to/lastmile_qr_scan"}, "lat": 38.931060333333335, "name": "da1a633b04565b7952ec634bb929294b", "lon": -77.02643083333334, "is_reserved": 0, "bike_id": "da1a633b04565b7952ec634bb929294b"}, {"fusion_lat": 0.0, "fusion_lon": 0.0, "is_disabled": 0, "type": "electric_scooter", "rental_uris": {"ios": "https://dc.lft.to/lastmile_qr_scan", "android": "https://dc.lft.to/lastmile_qr_scan"}, "lat": 38.92526, "name": "bdb5a7c145810817f7312cf1ccfb24aa", "lon": -77.02580433333334, "is_reserved": 0, "bike_id": "bdb5a7c145810817f7312cf1ccfb24aa"}, {"fusion_lat": 0.0, "fusion_lon": 0.0, "is_disabled": 0, "type": "electric_scooter", "rental_uris": {"ios": "https://dc.lft.to/lastmile_qr_scan", "android": "https://dc.lft.to/lastmile_qr_scan"}, "lat": 38.951513166666665, "name": "d22fb48e74500c781f77187ca44718de", "lon": -77.01868066666667, "is_reserved": 0, "bike_id": "d22fb48e74500c781f77187ca44718de"}, {"fusion_lat": 0.0, "fusion_lon": 0.0, "is_disabled": 0, "type": "electric_scooter", "rental_uris": {"ios": "https://dc.lft.to/lastmile_qr_scan", "android": "https://dc.lft.to/lastmile_qr_scan"}, "lat": 38.9179945, "name": "732e7c6532245a59fb15cfc9415c1a8f", "lon": -77.03205416666667, "is_reserved": 0, "bike_id": "732e7c6532245a59fb15cfc9415c1a8f"}, {"fusion_lat": 0.0, "fusion_lon": 0.0, "is_disabled": 0, "type": "electric_scooter", "rental_uris": {"ios": "https://dc.lft.to/lastmile_qr_scan", "android": "https://dc.lft.to/lastmile_qr_scan"}, "lat": 38.90142383333333, "name": "af908a4ee79d86575477b8324b99324c", "lon": -77.03892783333333, "is_reserved": 0, "bike_id": "af908a4ee79d86575477b8324b99324c"}, {"fusion_lat": 0.0, "fusion_lon": 0.0, "is_disabled": 0, "type": "electric_scooter", "rental_uris": {"ios": "https://dc.lft.to/lastmile_qr_scan", "android": "https://dc.lft.to/lastmile_qr_scan"}, "lat": 38.907483166666665, "name": "9175bfe9a4ebc17b6ceff97f0b33b5e9", "lon": -77.00751766666667, "is_reserved": 0, "bike_id": "9175bfe9a4ebc17b6ceff97f0b33b5e9"}, {"fusion_lat": 0.0, "fusion_lon": 0.0, "is_disabled": 0, "type": "electric_scooter", "rental_uris": {"ios": "https://dc.lft.to/lastmile_qr_scan", "android": "https://dc.lft.to/lastmile_qr_scan"}, "lat": 38.922836833333335, "name": "f96070324de995e644e0d58871c57fc3", "lon": -77.042796, "is_reserved": 0, "bike_id": "f96070324de995e644e0d58871c57fc3"}, {"fusion_lat": 0.0, "fusion_lon": 0.0, "is_disabled": 0, "type": "electric_scooter", "rental_uris": {"ios": "https://dc.lft.to/lastmile_qr_scan", "android": "https://dc.lft.to/lastmile_qr_scan"}, "lat": 38.91373766666667, "name": "eca567d7d6f54bcf17920804690aca9d", "lon": -77.00828666666666, "is_reserved": 0, "bike_id": "eca567d7d6f54bcf17920804690aca9d"}, {"fusion_lat": 0.0, "fusion_lon": 0.0, "is_disabled": 0, "type": "electric_scooter", "rental_uris": {"ios": "https://dc.lft.to/lastmile_qr_scan", "android": "https://dc.lft.to/lastmile_qr_scan"}, "lat": 38.90257016666666, "name": "8fb1a09968d9a36f586a4a92ff27c64f", "lon": -77.05160933333333, "is_reserved": 0, "bike_id": "8fb1a09968d9a36f586a4a92ff27c64f"}, {"fusion_lat": 0.0, "fusion_lon": 0.0, "is_disabled": 0, "type": "electric_scooter", "rental_uris": {"ios": "https://dc.lft.to/lastmile_qr_scan", "android": "https://dc.lft.to/lastmile_qr_scan"}, "lat": 38.9072575, "name": "f3448c81e0c3283f550255be071ff476", "lon": -77.038392, "is_reserved": 0, "bike_id": "f3448c81e0c3283f550255be071ff476"}, {"fusion_lat": 0.0, "fusion_lon": 0.0, "is_disabled": 0, "type": "electric_scooter", "rental_uris": {"ios": "https://dc.lft.to/lastmile_qr_scan", "android": "https://dc.lft.to/lastmile_qr_scan"}, "lat": 38.91714416666667, "name": "5d44852a69f31ffe07206689fd90af7a", "lon": -77.023975, "is_reserved": 0, "bike_id": "5d44852a69f31ffe07206689fd90af7a"}, {"fusion_lat": 0.0, "fusion_lon": 0.0, "is_disabled": 0, "type": "electric_scooter", "rental_uris": {"ios": "https://dc.lft.to/lastmile_qr_scan", "android": "https://dc.lft.to/lastmile_qr_scan"}, "lat": 38.925286166666666, "name": "dfd2504d10df20a018132b99438dc25d", "lon": -77.0074245, "is_reserved": 0, "bike_id": "dfd2504d10df20a018132b99438dc25d"}, {"fusion_lat": 0.0, "fusion_lon": 0.0, "is_disabled": 0, "type": "electric_scooter", "rental_uris": {"ios": "https://dc.lft.to/lastmile_qr_scan", "android": "https://dc.lft.to/lastmile_qr_scan"}, "lat": 38.908530666666664, "name": "69956f821e2fdf824bb3354d03c610b8", "lon": -77.02059716666666, "is_reserved": 0, "bike_id": "69956f821e2fdf824bb3354d03c610b8"}, {"fusion_lat": 0.0, "fusion_lon": 0.0, "is_disabled": 0, "type": "electric_bike", "rental_uris": {"ios": "https://dc.lft.to/lastmile_qr_scan", "android": "https://dc.lft.to/lastmile_qr_scan"}, "lat": 38.896187166666664, "name": "a9980e24ababf21984256cc55ec5d2ee", "lon": -76.90749916666667, "is_reserved": 0, "bike_id": "a9980e24ababf21984256cc55ec5d2ee"}, {"fusion_lat": 0.0, "fusion_lon": 0.0, "is_disabled": 0, "type": "electric_scooter", "rental_uris": {"ios": "https://dc.lft.to/lastmile_qr_scan", "android": "https://dc.lft.to/lastmile_qr_scan"}, "lat": 38.916141333333336, "name": "4628a3ab5eb9b07db18947cdc6907357", "lon": -77.0487795, "is_reserved": 0, "bike_id": "4628a3ab5eb9b07db18947cdc6907357"}, {"fusion_lat": 0.0, "fusion_lon": 0.0, "is_disabled": 0, "type": "electric_scooter", "rental_uris": {"ios": "https://dc.lft.to/lastmile_qr_scan", "android": "https://dc.lft.to/lastmile_qr_scan"}, "lat": 38.9239265, "name": "06e0c4d4e9fad517a08ce49d1323c268", "lon": -77.02729433333333, "is_reserved": 0, "bike_id": "06e0c4d4e9fad517a08ce49d1323c268"}, {"fusion_lat": 0.0, "fusion_lon": 0.0, "is_disabled": 0, "type": "electric_scooter", "rental_uris": {"ios": "https://dc.lft.to/lastmile_qr_scan", "android": "https://dc.lft.to/lastmile_qr_scan"}, "lat": 38.884775, "name": "98a2b29440ddc86d156a19110bd476e2", "lon": -77.03211183333333, "is_reserved": 0, "bike_id": "98a2b29440ddc86d156a19110bd476e2"}, {"fusion_lat": 0.0, "fusion_lon": 0.0, "is_disabled": 0, "type": "electric_scooter", "rental_uris": {"ios": "https://dc.lft.to/lastmile_qr_scan", "android": "https://dc.lft.to/lastmile_qr_scan"}, "lat": 38.93858516666667, "name": "371f0554768e02095908aa6d20c7ac37", "lon": -77.02466183333334, "is_reserved": 0, "bike_id": "371f0554768e02095908aa6d20c7ac37"}, {"fusion_lat": 0.0, "fusion_lon": 0.0, "is_disabled": 0, "type": "electric_scooter", "rental_uris": {"ios": "https://dc.lft.to/lastmile_qr_scan", "android": "https://dc.lft.to/lastmile_qr_scan"}, "lat": 38.8747165, "name": "09857ca51d00afec8c189257320ffcc0", "lon": -77.0053105, "is_reserved": 0, "bike_id": "09857ca51d00afec8c189257320ffcc0"}, {"fusion_lat": 0.0, "fusion_lon": 0.0, "is_disabled": 0, "type": "electric_scooter", "rental_uris": {"ios": "https://dc.lft.to/lastmile_qr_scan", "android": "https://dc.lft.to/lastmile_qr_scan"}, "lat": 38.93087383333334, "name": "f1115058c5032c7bf4ec356a67a7e580", "lon": -77.02814133333334, "is_reserved": 0, "bike_id": "f1115058c5032c7bf4ec356a67a7e580"}, {"fusion_lat": 0.0, "fusion_lon": 0.0, "is_disabled": 0, "type": "electric_scooter", "rental_uris": {"ios": "https://dc.lft.to/lastmile_qr_scan", "android": "https://dc.lft.to/lastmile_qr_scan"}, "lat": 38.914224, "name": "d1a110ddd324ad22b0c08ed0bc3e1582", "lon": -77.0318415, "is_reserved": 0, "bike_id": "d1a110ddd324ad22b0c08ed0bc3e1582"}, {"fusion_lat": 0.0, "fusion_lon": 0.0, "is_disabled": 0, "type": "electric_scooter", "rental_uris": {"ios": "https://dc.lft.to/lastmile_qr_scan", "android": "https://dc.lft.to/lastmile_qr_scan"}, "lat": 38.923212, "name": "5a837ffc395202dbf860b213404e5db6", "lon": -77.02114033333334, "is_reserved": 0, "bike_id": "5a837ffc395202dbf860b213404e5db6"}, {"fusion_lat": 0.0, "fusion_lon": 0.0, "is_disabled": 0, "type": "electric_scooter", "rental_uris": {"ios": "https://dc.lft.to/lastmile_qr_scan", "android": "https://dc.lft.to/lastmile_qr_scan"}, "lat": 38.938251666666666, "name": "f7dede5ec231a08fe5357fc1b386beb6", "lon": -76.98615483333333, "is_reserved": 0, "bike_id": "f7dede5ec231a08fe5357fc1b386beb6"}, {"fusion_lat": 0.0, "fusion_lon": 0.0, "is_disabled": 0, "type": "electric_scooter", "rental_uris": {"ios": "https://dc.lft.to/lastmile_qr_scan", "android": "https://dc.lft.to/lastmile_qr_scan"}, "lat": 38.88735233333333, "name": "5bc7966a09de5b7ad9db0f9c506f9c6f", "lon": -77.015142, "is_reserved": 0, "bike_id": "5bc7966a09de5b7ad9db0f9c506f9c6f"}, {"fusion_lat": 0.0, "fusion_lon": 0.0, "is_disabled": 0, "type": "electric_scooter", "rental_uris": {"ios": "https://dc.lft.to/lastmile_qr_scan", "android": "https://dc.lft.to/lastmile_qr_scan"}, "lat": 38.9185305, "name": "1ab741a516167a4fbb57a1a5cc9bba97", "lon": -77.03887883333333, "is_reserved": 0, "bike_id": "1ab741a516167a4fbb57a1a5cc9bba97"}, {"fusion_lat": 0.0, "fusion_lon": 0.0, "is_disabled": 0, "type": "electric_scooter", "rental_uris": {"ios": "https://dc.lft.to/lastmile_qr_scan", "android": "https://dc.lft.to/lastmile_qr_scan"}, "lat": 38.89914666666667, "name": "33c4c72dd16650dd1ec24cf890bee952", "lon": -77.03303566666666, "is_reserved": 0, "bike_id": "33c4c72dd16650dd1ec24cf890bee952"}, {"fusion_lat": 0.0, "fusion_lon": 0.0, "is_disabled": 0, "type": "electric_scooter", "rental_uris": {"ios": "https://dc.lft.to/lastmile_qr_scan", "android": "https://dc.lft.to/lastmile_qr_scan"}, "lat": 38.898817, "name": "cd85a5254cba3a0fd2a3b25fc68c522b", "lon": -77.02729833333333, "is_reserved": 0, "bike_id": "cd85a5254cba3a0fd2a3b25fc68c522b"}, {"fusion_lat": 0.0, "fusion_lon": 0.0, "is_disabled": 0, "type": "electric_scooter", "rental_uris": {"ios": "https://dc.lft.to/lastmile_qr_scan", "android": "https://dc.lft.to/lastmile_qr_scan"}, "lat": 38.93179383333333, "name": "ee999c32c7ea6d26900d9e8c91945430", "lon": -77.0365445, "is_reserved": 0, "bike_id": "ee999c32c7ea6d26900d9e8c91945430"}, {"fusion_lat": 0.0, "fusion_lon": 0.0, "is_disabled": 0, "type": "electric_scooter", "rental_uris": {"ios": "https://dc.lft.to/lastmile_qr_scan", "android": "https://dc.lft.to/lastmile_qr_scan"}, "lat": 38.91946683333333, "name": "b15dd0c6e820948b49e4069159021b65", "lon": -77.0179685, "is_reserved": 0, "bike_id": "b15dd0c6e820948b49e4069159021b65"}, {"fusion_lat": 0.0, "fusion_lon": 0.0, "is_disabled": 0, "type": "electric_scooter", "rental_uris": {"ios": "https://dc.lft.to/lastmile_qr_scan", "android": "https://dc.lft.to/lastmile_qr_scan"}, "lat": 38.89340766666667, "name": "44afe6b6bc6fc05dea630995eda18dd4", "lon": -77.04657816666666, "is_reserved": 0, "bike_id": "44afe6b6bc6fc05dea630995eda18dd4"}, {"fusion_lat": 0.0, "fusion_lon": 0.0, "is_disabled": 0, "type": "electric_bike", "rental_uris": {"ios": "https://dc.lft.to/lastmile_qr_scan", "android": "https://dc.lft.to/lastmile_qr_scan"}, "lat": 38.953581, "name": "fb3eb9bc0227179e9755dbeeeba9ae4c", "lon": -76.98094083333334, "is_reserved": 0, "bike_id": "fb3eb9bc0227179e9755dbeeeba9ae4c"}, {"fusion_lat": 0.0, "fusion_lon": 0.0, "is_disabled": 0, "type": "electric_scooter", "rental_uris": {"ios": "https://dc.lft.to/lastmile_qr_scan", "android": "https://dc.lft.to/lastmile_qr_scan"}, "lat": 38.897391, "name": "bbd1f6b27bf1c3f5e6309eaeb5b6b790", "lon": -77.04689866666666, "is_reserved": 0, "bike_id": "bbd1f6b27bf1c3f5e6309eaeb5b6b790"}, {"fusion_lat": 0.0, "fusion_lon": 0.0, "is_disabled": 0, "type": "electric_scooter", "rental_uris": {"ios": "https://dc.lft.to/lastmile_qr_scan", "android": "https://dc.lft.to/lastmile_qr_scan"}, "lat": 38.932293666666666, "name": "4fb3c048f01ee904b81f4c4de1260f43", "lon": -76.962122, "is_reserved": 0, "bike_id": "4fb3c048f01ee904b81f4c4de1260f43"}, {"fusion_lat": 0.0, "fusion_lon": 0.0, "is_disabled": 0, "type": "electric_bike", "rental_uris": {"ios": "https://dc.lft.to/lastmile_qr_scan", "android": "https://dc.lft.to/lastmile_qr_scan"}, "lat": 38.87760266666667, "name": "cc4ec2a450927e54a132d1d61a7e9df5", "lon": -77.14851683333333, "is_reserved": 0, "bike_id": "cc4ec2a450927e54a132d1d61a7e9df5"}, {"fusion_lat": 0.0, "fusion_lon": 0.0, "is_disabled": 0, "type": "electric_scooter", "rental_uris": {"ios": "https://dc.lft.to/lastmile_qr_scan", "android": "https://dc.lft.to/lastmile_qr_scan"}, "lat": 38.90008566666667, "name": "f9c9bf531df77f8bc72482ed6e7fc17d", "lon": -77.0414055, "is_reserved": 0, "bike_id": "f9c9bf531df77f8bc72482ed6e7fc17d"}, {"fusion_lat": 0.0, "fusion_lon": 0.0, "is_disabled": 0, "type": "electric_scooter", "rental_uris": {"ios": "https://dc.lft.to/lastmile_qr_scan", "android": "https://dc.lft.to/lastmile_qr_scan"}, "lat": 38.8823975, "name": "bda1e5f38324ba014a5b681461e80de2", "lon": -76.99507633333333, "is_reserved": 0, "bike_id": "bda1e5f38324ba014a5b681461e80de2"}, {"fusion_lat": 0.0, "fusion_lon": 0.0, "is_disabled": 0, "type": "electric_scooter", "rental_uris": {"ios": "https://dc.lft.to/lastmile_qr_scan", "android": "https://dc.lft.to/lastmile_qr_scan"}, "lat": 38.858526499999996, "name": "820db2a034f6c442b4657500a9418b34", "lon": -76.98533983333333, "is_reserved": 0, "bike_id": "820db2a034f6c442b4657500a9418b34"}, {"fusion_lat": 0.0, "fusion_lon": 0.0, "is_disabled": 0, "type": "electric_bike", "rental_uris": {"ios": "https://dc.lft.to/lastmile_qr_scan", "android": "https://dc.lft.to/lastmile_qr_scan"}, "lat": 38.8573805, "name": "95c09bb0d1d4a8f24a41c6fb70c4dfbe", "lon": -77.10074133333333, "is_reserved": 0, "bike_id": "95c09bb0d1d4a8f24a41c6fb70c4dfbe"}, {"fusion_lat": 0.0, "fusion_lon": 0.0, "is_disabled": 0, "type": "electric_scooter", "rental_uris": {"ios": "https://dc.lft.to/lastmile_qr_scan", "android": "https://dc.lft.to/lastmile_qr_scan"}, "lat": 38.877512333333335, "name": "7f26fc1fd379b69f784b6e447f66a629", "lon": -77.00381683333333, "is_reserved": 0, "bike_id": "7f26fc1fd379b69f784b6e447f66a629"}, {"fusion_lat": 0.0, "fusion_lon": 0.0, "is_disabled": 0, "type": "electric_scooter", "rental_uris": {"ios": "https://dc.lft.to/lastmile_qr_scan", "android": "https://dc.lft.to/lastmile_qr_scan"}, "lat": 38.902857833333336, "name": "e2d3381f79eea875af32cfe5ec231ddc", "lon": -77.0384125, "is_reserved": 0, "bike_id": "e2d3381f79eea875af32cfe5ec231ddc"}, {"fusion_lat": 0.0, "fusion_lon": 0.0, "is_disabled": 0, "type": "electric_scooter", "rental_uris": {"ios": "https://dc.lft.to/lastmile_qr_scan", "android": "https://dc.lft.to/lastmile_qr_scan"}, "lat": 38.92913466666667, "name": "130f9da10c85d60b0fa09b3700c176d7", "lon": -77.03175466666667, "is_reserved": 0, "bike_id": "130f9da10c85d60b0fa09b3700c176d7"}, {"fusion_lat": 0.0, "fusion_lon": 0.0, "is_disabled": 0, "type": "electric_scooter", "rental_uris": {"ios": "https://dc.lft.to/lastmile_qr_scan", "android": "https://dc.lft.to/lastmile_qr_scan"}, "lat": 38.912512666666665, "name": "8b1ca3e1517262dddd669033d9b14b82", "lon": -77.04160583333334, "is_reserved": 0, "bike_id": "8b1ca3e1517262dddd669033d9b14b82"}, {"fusion_lat": 0.0, "fusion_lon": 0.0, "is_disabled": 0, "type": "electric_scooter", "rental_uris": {"ios": "https://dc.lft.to/lastmile_qr_scan", "android": "https://dc.lft.to/lastmile_qr_scan"}, "lat": 38.91055766666667, "name": "598e1693ccc433c311c66556cf7604f8", "lon": -77.04420316666666, "is_reserved": 0, "bike_id": "598e1693ccc433c311c66556cf7604f8"}, {"fusion_lat": 0.0, "fusion_lon": 0.0, "is_disabled": 0, "type": "electric_scooter", "rental_uris": {"ios": "https://dc.lft.to/lastmile_qr_scan", "android": "https://dc.lft.to/lastmile_qr_scan"}, "lat": 38.902441333333336, "name": "90384609aab4753f8650ec3d0dae6f0b", "lon": -77.026486, "is_reserved": 0, "bike_id": "90384609aab4753f8650ec3d0dae6f0b"}, {"fusion_lat": 0.0, "fusion_lon": 0.0, "is_disabled": 0, "type": "electric_bike", "rental_uris": {"ios": "https://dc.lft.to/lastmile_qr_scan", "android": "https://dc.lft.to/lastmile_qr_scan"}, "lat": 38.98542, "name": "4b2641fd39060e610fbff10c3e66b583", "lon": -77.00407233333334, "is_reserved": 0, "bike_id": "4b2641fd39060e610fbff10c3e66b583"}, {"fusion_lat": 0.0, "fusion_lon": 0.0, "is_disabled": 0, "type": "electric_scooter", "rental_uris": {"ios": "https://dc.lft.to/lastmile_qr_scan", "android": "https://dc.lft.to/lastmile_qr_scan"}, "lat": 38.923649, "name": "2f965bd9918e268848a894eb53a7fc2c", "lon": -77.051297, "is_reserved": 0, "bike_id": "2f965bd9918e268848a894eb53a7fc2c"}, {"fusion_lat": 0.0, "fusion_lon": 0.0, "is_disabled": 0, "type": "electric_scooter", "rental_uris": {"ios": "https://dc.lft.to/lastmile_qr_scan", "android": "https://dc.lft.to/lastmile_qr_scan"}, "lat": 38.898439833333335, "name": "f5d857e23332c03a1f83fab50e995888", "lon": -76.93811866666667, "is_reserved": 0, "bike_id": "f5d857e23332c03a1f83fab50e995888"}, {"fusion_lat": 0.0, "fusion_lon": 0.0, "is_disabled": 0, "type": "electric_scooter", "rental_uris": {"ios": "https://dc.lft.to/lastmile_qr_scan", "android": "https://dc.lft.to/lastmile_qr_scan"}, "lat": 38.899618833333335, "name": "e718c30730381a59461984d4a355284a", "lon": -77.04522683333333, "is_reserved": 0, "bike_id": "e718c30730381a59461984d4a355284a"}, {"fusion_lat": 0.0, "fusion_lon": 0.0, "is_disabled": 0, "type": "electric_scooter", "rental_uris": {"ios": "https://dc.lft.to/lastmile_qr_scan", "android": "https://dc.lft.to/lastmile_qr_scan"}, "lat": 38.8988305, "name": "aca92a36af936daa037f13e558f87ab1", "lon": -77.00779966666667, "is_reserved": 0, "bike_id": "aca92a36af936daa037f13e558f87ab1"}, {"fusion_lat": 0.0, "fusion_lon": 0.0, "is_disabled": 0, "type": "electric_scooter", "rental_uris": {"ios": "https://dc.lft.to/lastmile_qr_scan", "android": "https://dc.lft.to/lastmile_qr_scan"}, "lat": 38.90611633333333, "name": "7fb1f88aa187e81223888d988fe5aa86", "lon": -77.01885766666666, "is_reserved": 0, "bike_id": "7fb1f88aa187e81223888d988fe5aa86"}, {"fusion_lat": 0.0, "fusion_lon": 0.0, "is_disabled": 0, "type": "electric_scooter", "rental_uris": {"ios": "https://dc.lft.to/lastmile_qr_scan", "android": "https://dc.lft.to/lastmile_qr_scan"}, "lat": 38.8989245, "name": "6f3b27797846cc516b730c5802cdc301", "lon": -77.043356, "is_reserved": 0, "bike_id": "6f3b27797846cc516b730c5802cdc301"}, {"fusion_lat": 0.0, "fusion_lon": 0.0, "is_disabled": 0, "type": "electric_bike", "rental_uris": {"ios": "https://dc.lft.to/lastmile_qr_scan", "android": "https://dc.lft.to/lastmile_qr_scan"}, "lat": 38.8502275, "name": "2dbedce802c95d3dee5b6bdaf2d8f848", "lon": -77.09820216666667, "is_reserved": 0, "bike_id": "2dbedce802c95d3dee5b6bdaf2d8f848"}, {"fusion_lat": 0.0, "fusion_lon": 0.0, "is_disabled": 0, "type": "electric_scooter", "rental_uris": {"ios": "https://dc.lft.to/lastmile_qr_scan", "android": "https://dc.lft.to/lastmile_qr_scan"}, "lat": 38.9215305, "name": "3a45c97f17b4d0c803d8e96c656e9801", "lon": -77.03359433333334, "is_reserved": 0, "bike_id": "3a45c97f17b4d0c803d8e96c656e9801"}, {"fusion_lat": 0.0, "fusion_lon": 0.0, "is_disabled": 0, "type": "electric_scooter", "rental_uris": {"ios": "https://dc.lft.to/lastmile_qr_scan", "android": "https://dc.lft.to/lastmile_qr_scan"}, "lat": 38.891696333333336, "name": "875655888bd6f633ff0d1ffee5173586", "lon": -76.99942, "is_reserved": 0, "bike_id": "875655888bd6f633ff0d1ffee5173586"}, {"fusion_lat": 0.0, "fusion_lon": 0.0, "is_disabled": 0, "type": "electric_scooter", "rental_uris": {"ios": "https://dc.lft.to/lastmile_qr_scan", "android": "https://dc.lft.to/lastmile_qr_scan"}, "lat": 38.89618183333333, "name": "0f38b7e3e84baed1f40a13e7d0df6233", "lon": -77.01324733333334, "is_reserved": 0, "bike_id": "0f38b7e3e84baed1f40a13e7d0df6233"}, {"fusion_lat": 0.0, "fusion_lon": 0.0, "is_disabled": 0, "type": "electric_scooter", "rental_uris": {"ios": "https://dc.lft.to/lastmile_qr_scan", "android": "https://dc.lft.to/lastmile_qr_scan"}, "lat": 38.85728316666667, "name": "53e92cb94381e80740f6338e9f878dd6", "lon": -76.99106216666667, "is_reserved": 0, "bike_id": "53e92cb94381e80740f6338e9f878dd6"}, {"fusion_lat": 0.0, "fusion_lon": 0.0, "is_disabled": 0, "type": "electric_scooter", "rental_uris": {"ios": "https://dc.lft.to/lastmile_qr_scan", "android": "https://dc.lft.to/lastmile_qr_scan"}, "lat": 38.90890366666667, "name": "0b6855ef2264836691a557033655131d", "lon": -77.04134966666666, "is_reserved": 0, "bike_id": "0b6855ef2264836691a557033655131d"}, {"fusion_lat": 0.0, "fusion_lon": 0.0, "is_disabled": 0, "type": "electric_scooter", "rental_uris": {"ios": "https://dc.lft.to/lastmile_qr_scan", "android": "https://dc.lft.to/lastmile_qr_scan"}, "lat": 38.92221966666666, "name": "6aabca9deb7a0eadb8e897ef49c04bb5", "lon": -77.0433165, "is_reserved": 0, "bike_id": "6aabca9deb7a0eadb8e897ef49c04bb5"}, {"fusion_lat": 0.0, "fusion_lon": 0.0, "is_disabled": 0, "type": "electric_scooter", "rental_uris": {"ios": "https://dc.lft.to/lastmile_qr_scan", "android": "https://dc.lft.to/lastmile_qr_scan"}, "lat": 38.925458, "name": "d41e979e8e37fb10787337b3939ef785", "lon": -77.03405466666666, "is_reserved": 0, "bike_id": "d41e979e8e37fb10787337b3939ef785"}, {"fusion_lat": 0.0, "fusion_lon": 0.0, "is_disabled": 0, "type": "electric_scooter", "rental_uris": {"ios": "https://dc.lft.to/lastmile_qr_scan", "android": "https://dc.lft.to/lastmile_qr_scan"}, "lat": 38.9053285, "name": "671422bdb53521399ff3d485d7d51c54", "lon": -76.99625133333333, "is_reserved": 0, "bike_id": "671422bdb53521399ff3d485d7d51c54"}, {"fusion_lat": 0.0, "fusion_lon": 0.0, "is_disabled": 0, "type": "electric_scooter", "rental_uris": {"ios": "https://dc.lft.to/lastmile_qr_scan", "android": "https://dc.lft.to/lastmile_qr_scan"}, "lat": 38.92468133333333, "name": "f900ef78730a404287a7032d5e0d9063", "lon": -77.022039, "is_reserved": 0, "bike_id": "f900ef78730a404287a7032d5e0d9063"}, {"fusion_lat": 0.0, "fusion_lon": 0.0, "is_disabled": 0, "type": "electric_scooter", "rental_uris": {"ios": "https://dc.lft.to/lastmile_qr_scan", "android": "https://dc.lft.to/lastmile_qr_scan"}, "lat": 38.902795166666664, "name": "dfad90650befd110b753ab6d67164a11", "lon": -77.03938633333334, "is_reserved": 0, "bike_id": "dfad90650befd110b753ab6d67164a11"}, {"fusion_lat": 0.0, "fusion_lon": 0.0, "is_disabled": 0, "type": "electric_scooter", "rental_uris": {"ios": "https://dc.lft.to/lastmile_qr_scan", "android": "https://dc.lft.to/lastmile_qr_scan"}, "lat": 38.902971666666666, "name": "3a99911eb73963acf35093b1211e2251", "lon": -77.03844266666667, "is_reserved": 0, "bike_id": "3a99911eb73963acf35093b1211e2251"}, {"fusion_lat": 0.0, "fusion_lon": 0.0, "is_disabled": 0, "type": "electric_scooter", "rental_uris": {"ios": "https://dc.lft.to/lastmile_qr_scan", "android": "https://dc.lft.to/lastmile_qr_scan"}, "lat": 38.919600333333335, "name": "9b582c29c2474a10b0ab6d0c41d30e83", "lon": -77.04246666666667, "is_reserved": 0, "bike_id": "9b582c29c2474a10b0ab6d0c41d30e83"}, {"fusion_lat": 0.0, "fusion_lon": 0.0, "is_disabled": 0, "type": "electric_scooter", "rental_uris": {"ios": "https://dc.lft.to/lastmile_qr_scan", "android": "https://dc.lft.to/lastmile_qr_scan"}, "lat": 38.88604133333333, "name": "51513886851ee2c27d27bf73d16a95a8", "lon": -77.0031955, "is_reserved": 0, "bike_id": "51513886851ee2c27d27bf73d16a95a8"}, {"fusion_lat": 0.0, "fusion_lon": 0.0, "is_disabled": 0, "type": "electric_scooter", "rental_uris": {"ios": "https://dc.lft.to/lastmile_qr_scan", "android": "https://dc.lft.to/lastmile_qr_scan"}, "lat": 38.862319, "name": "5730c365173d4ac4cf053ff48a7ea7e9", "lon": -76.99481733333333, "is_reserved": 0, "bike_id": "5730c365173d4ac4cf053ff48a7ea7e9"}, {"fusion_lat": 0.0, "fusion_lon": 0.0, "is_disabled": 0, "type": "electric_scooter", "rental_uris": {"ios": "https://dc.lft.to/lastmile_qr_scan", "android": "https://dc.lft.to/lastmile_qr_scan"}, "lat": 38.902491833333336, "name": "1aecaa297476b5bff5eeb4ff5096c729", "lon": -77.03420283333334, "is_reserved": 0, "bike_id": "1aecaa297476b5bff5eeb4ff5096c729"}, {"fusion_lat": 0.0, "fusion_lon": 0.0, "is_disabled": 0, "type": "electric_bike", "rental_uris": {"ios": "https://dc.lft.to/lastmile_qr_scan", "android": "https://dc.lft.to/lastmile_qr_scan"}, "lat": 38.96163966666667, "name": "8a100191b4992ddb9e27ae367a5a65f8", "lon": -77.01356633333333, "is_reserved": 0, "bike_id": "8a100191b4992ddb9e27ae367a5a65f8"}, {"fusion_lat": 0.0, "fusion_lon": 0.0, "is_disabled": 0, "type": "electric_scooter", "rental_uris": {"ios": "https://dc.lft.to/lastmile_qr_scan", "android": "https://dc.lft.to/lastmile_qr_scan"}, "lat": 38.899555166666666, "name": "06b3de6d146a96dd653f5adcd6663a6a", "lon": -77.04555733333333, "is_reserved": 0, "bike_id": "06b3de6d146a96dd653f5adcd6663a6a"}, {"fusion_lat": 0.0, "fusion_lon": 0.0, "is_disabled": 0, "type": "electric_scooter", "rental_uris": {"ios": "https://dc.lft.to/lastmile_qr_scan", "android": "https://dc.lft.to/lastmile_qr_scan"}, "lat": 38.900756333333334, "name": "f030f73e9394c720b65ed69165fc70a4", "lon": -77.04556716666667, "is_reserved": 0, "bike_id": "f030f73e9394c720b65ed69165fc70a4"}, {"fusion_lat": 0.0, "fusion_lon": 0.0, "is_disabled": 0, "type": "electric_scooter", "rental_uris": {"ios": "https://dc.lft.to/lastmile_qr_scan", "android": "https://dc.lft.to/lastmile_qr_scan"}, "lat": 38.906688833333334, "name": "17a763d950cc5529c448f6ac591c2be3", "lon": -77.037605, "is_reserved": 0, "bike_id": "17a763d950cc5529c448f6ac591c2be3"}, {"fusion_lat": 0.0, "fusion_lon": 0.0, "is_disabled": 0, "type": "electric_scooter", "rental_uris": {"ios": "https://dc.lft.to/lastmile_qr_scan", "android": "https://dc.lft.to/lastmile_qr_scan"}, "lat": 38.8923035, "name": "52d2d48a7bd7030d0bd8750aa0d2df1f", "lon": -77.0220495, "is_reserved": 0, "bike_id": "52d2d48a7bd7030d0bd8750aa0d2df1f"}, {"fusion_lat": 0.0, "fusion_lon": 0.0, "is_disabled": 0, "type": "electric_scooter", "rental_uris": {"ios": "https://dc.lft.to/lastmile_qr_scan", "android": "https://dc.lft.to/lastmile_qr_scan"}, "lat": 38.901010166666666, "name": "554f486dce6d1872a87baf126f95e7a9", "lon": -77.04875783333334, "is_reserved": 0, "bike_id": "554f486dce6d1872a87baf126f95e7a9"}, {"fusion_lat": 0.0, "fusion_lon": 0.0, "is_disabled": 0, "type": "electric_scooter", "rental_uris": {"ios": "https://dc.lft.to/lastmile_qr_scan", "android": "https://dc.lft.to/lastmile_qr_scan"}, "lat": 38.9000735, "name": "c013edc663c396355e1b2efc542d6ced", "lon": -77.03312533333333, "is_reserved": 0, "bike_id": "c013edc663c396355e1b2efc542d6ced"}, {"fusion_lat": 0.0, "fusion_lon": 0.0, "is_disabled": 0, "type": "electric_bike", "rental_uris": {"ios": "https://dc.lft.to/lastmile_qr_scan", "android": "https://dc.lft.to/lastmile_qr_scan"}, "lat": 38.8532755, "name": "20c829992b80abfe14a94cf252cf38f7", "lon": -76.9801025, "is_reserved": 0, "bike_id": "20c829992b80abfe14a94cf252cf38f7"}, {"fusion_lat": 0.0, "fusion_lon": 0.0, "is_disabled": 0, "type": "electric_scooter", "rental_uris": {"ios": "https://dc.lft.to/lastmile_qr_scan", "android": "https://dc.lft.to/lastmile_qr_scan"}, "lat": 38.89899333333334, "name": "ab73b24f56441e66e2c4308e247e7a12", "lon": -77.03317716666666, "is_reserved": 0, "bike_id": "ab73b24f56441e66e2c4308e247e7a12"}, {"fusion_lat": 0.0, "fusion_lon": 0.0, "is_disabled": 0, "type": "electric_scooter", "rental_uris": {"ios": "https://dc.lft.to/lastmile_qr_scan", "android": "https://dc.lft.to/lastmile_qr_scan"}, "lat": 38.92506933333333, "name": "82dca9a305013f6d6369e232565a2639", "lon": -77.0378775, "is_reserved": 0, "bike_id": "82dca9a305013f6d6369e232565a2639"}, {"fusion_lat": 0.0, "fusion_lon": 0.0, "is_disabled": 0, "type": "electric_scooter", "rental_uris": {"ios": "https://dc.lft.to/lastmile_qr_scan", "android": "https://dc.lft.to/lastmile_qr_scan"}, "lat": 38.91273483333333, "name": "e65d80fb3c6e9ddbf23daef3e6e72725", "lon": -77.04499533333333, "is_reserved": 0, "bike_id": "e65d80fb3c6e9ddbf23daef3e6e72725"}, {"fusion_lat": 0.0, "fusion_lon": 0.0, "is_disabled": 0, "type": "electric_bike", "rental_uris": {"ios": "https://dc.lft.to/lastmile_qr_scan", "android": "https://dc.lft.to/lastmile_qr_scan"}, "lat": 38.95242233333333, "name": "6ae1ee7f56a6ebc79b13a38242ad9bc7", "lon": -76.98246066666667, "is_reserved": 0, "bike_id": "6ae1ee7f56a6ebc79b13a38242ad9bc7"}, {"fusion_lat": 0.0, "fusion_lon": 0.0, "is_disabled": 0, "type": "electric_scooter", "rental_uris": {"ios": "https://dc.lft.to/lastmile_qr_scan", "android": "https://dc.lft.to/lastmile_qr_scan"}, "lat": 38.87639883333333, "name": "0152a671c02a6d1e6d66c9652619e7bb", "lon": -77.00525133333333, "is_reserved": 0, "bike_id": "0152a671c02a6d1e6d66c9652619e7bb"}, {"fusion_lat": 0.0, "fusion_lon": 0.0, "is_disabled": 0, "type": "electric_scooter", "rental_uris": {"ios": "https://dc.lft.to/lastmile_qr_scan", "android": "https://dc.lft.to/lastmile_qr_scan"}, "lat": 38.91111, "name": "b8b1953e815efad0f80fd2e119fb1c4c", "lon": -77.0422975, "is_reserved": 0, "bike_id": "b8b1953e815efad0f80fd2e119fb1c4c"}, {"fusion_lat": 0.0, "fusion_lon": 0.0, "is_disabled": 0, "type": "electric_scooter", "rental_uris": {"ios": "https://dc.lft.to/lastmile_qr_scan", "android": "https://dc.lft.to/lastmile_qr_scan"}, "lat": 38.933725333333335, "name": "112242228b75823b83f0f7da899c43c6", "lon": -77.02431283333334, "is_reserved": 0, "bike_id": "112242228b75823b83f0f7da899c43c6"}, {"fusion_lat": 0.0, "fusion_lon": 0.0, "is_disabled": 0, "type": "electric_scooter", "rental_uris": {"ios": "https://dc.lft.to/lastmile_qr_scan", "android": "https://dc.lft.to/lastmile_qr_scan"}, "lat": 38.921292, "name": "1b3f8486ae8142ca08b9209f4791447a", "lon": -77.04214, "is_reserved": 0, "bike_id": "1b3f8486ae8142ca08b9209f4791447a"}, {"fusion_lat": 0.0, "fusion_lon": 0.0, "is_disabled": 0, "type": "electric_scooter", "rental_uris": {"ios": "https://dc.lft.to/lastmile_qr_scan", "android": "https://dc.lft.to/lastmile_qr_scan"}, "lat": 38.918065166666665, "name": "6e0c9acf87b9f31542794d904eba37af", "lon": -77.040346, "is_reserved": 0, "bike_id": "6e0c9acf87b9f31542794d904eba37af"}, {"fusion_lat": 0.0, "fusion_lon": 0.0, "is_disabled": 0, "type": "electric_scooter", "rental_uris": {"ios": "https://dc.lft.to/lastmile_qr_scan", "android": "https://dc.lft.to/lastmile_qr_scan"}, "lat": 38.90383383333333, "name": "62e973e779d72f72bded5e489d0154f6", "lon": -77.04162466666666, "is_reserved": 0, "bike_id": "62e973e779d72f72bded5e489d0154f6"}, {"fusion_lat": 0.0, "fusion_lon": 0.0, "is_disabled": 0, "type": "electric_scooter", "rental_uris": {"ios": "https://dc.lft.to/lastmile_qr_scan", "android": "https://dc.lft.to/lastmile_qr_scan"}, "lat": 38.912855, "name": "2806f962891511c8b3978e391dc8ef52", "lon": -77.04023233333334, "is_reserved": 0, "bike_id": "2806f962891511c8b3978e391dc8ef52"}, {"fusion_lat": 0.0, "fusion_lon": 0.0, "is_disabled": 0, "type": "electric_bike", "rental_uris": {"ios": "https://dc.lft.to/lastmile_qr_scan", "android": "https://dc.lft.to/lastmile_qr_scan"}, "lat": 38.900293166666664, "name": "9f03c266ef424260db0067cba254389e", "lon": -77.03008966666667, "is_reserved": 0, "bike_id": "9f03c266ef424260db0067cba254389e"}, {"fusion_lat": 0.0, "fusion_lon": 0.0, "is_disabled": 0, "type": "electric_scooter", "rental_uris": {"ios": "https://dc.lft.to/lastmile_qr_scan", "android": "https://dc.lft.to/lastmile_qr_scan"}, "lat": 38.90725616666667, "name": "699667b0ab3eee0f4b9681f84e05d57a", "lon": -77.02934266666666, "is_reserved": 0, "bike_id": "699667b0ab3eee0f4b9681f84e05d57a"}, {"fusion_lat": 0.0, "fusion_lon": 0.0, "is_disabled": 0, "type": "electric_scooter", "rental_uris": {"ios": "https://dc.lft.to/lastmile_qr_scan", "android": "https://dc.lft.to/lastmile_qr_scan"}, "lat": 38.92200166666667, "name": "a944e37fd7455a3bdd4b89a3f2888b27", "lon": -77.0730775, "is_reserved": 0, "bike_id": "a944e37fd7455a3bdd4b89a3f2888b27"}, {"fusion_lat": 0.0, "fusion_lon": 0.0, "is_disabled": 0, "type": "electric_scooter", "rental_uris": {"ios": "https://dc.lft.to/lastmile_qr_scan", "android": "https://dc.lft.to/lastmile_qr_scan"}, "lat": 38.92469283333333, "name": "c77c2b797c642964c6657f990f300e4b", "lon": -77.03369283333333, "is_reserved": 0, "bike_id": "c77c2b797c642964c6657f990f300e4b"}, {"fusion_lat": 0.0, "fusion_lon": 0.0, "is_disabled": 0, "type": "electric_scooter", "rental_uris": {"ios": "https://dc.lft.to/lastmile_qr_scan", "android": "https://dc.lft.to/lastmile_qr_scan"}, "lat": 38.905206166666666, "name": "f6bf86ac946d8fe032168af4d0da01b0", "lon": -77.04884416666667, "is_reserved": 0, "bike_id": "f6bf86ac946d8fe032168af4d0da01b0"}, {"fusion_lat": 0.0, "fusion_lon": 0.0, "is_disabled": 0, "type": "electric_scooter", "rental_uris": {"ios": "https://dc.lft.to/lastmile_qr_scan", "android": "https://dc.lft.to/lastmile_qr_scan"}, "lat": 38.893617, "name": "12652b36593a2e4ef853839d77fbbf24", "lon": -77.01511633333334, "is_reserved": 0, "bike_id": "12652b36593a2e4ef853839d77fbbf24"}, {"fusion_lat": 0.0, "fusion_lon": 0.0, "is_disabled": 0, "type": "electric_scooter", "rental_uris": {"ios": "https://dc.lft.to/lastmile_qr_scan", "android": "https://dc.lft.to/lastmile_qr_scan"}, "lat": 38.905197, "name": "d69d6ca3d29b706151c56da2a2e7504a", "lon": -77.040625, "is_reserved": 0, "bike_id": "d69d6ca3d29b706151c56da2a2e7504a"}, {"fusion_lat": 0.0, "fusion_lon": 0.0, "is_disabled": 0, "type": "electric_scooter", "rental_uris": {"ios": "https://dc.lft.to/lastmile_qr_scan", "android": "https://dc.lft.to/lastmile_qr_scan"}, "lat": 38.9002015, "name": "a94a5cee2c1bd5b2861e89073781c6e1", "lon": -77.01181416666667, "is_reserved": 0, "bike_id": "a94a5cee2c1bd5b2861e89073781c6e1"}, {"fusion_lat": 0.0, "fusion_lon": 0.0, "is_disabled": 0, "type": "electric_scooter", "rental_uris": {"ios": "https://dc.lft.to/lastmile_qr_scan", "android": "https://dc.lft.to/lastmile_qr_scan"}, "lat": 38.9034, "name": "3ab4d8df4b4ecd34a416c673480195af", "lon": -77.03853883333333, "is_reserved": 0, "bike_id": "3ab4d8df4b4ecd34a416c673480195af"}, {"fusion_lat": 0.0, "fusion_lon": 0.0, "is_disabled": 0, "type": "electric_scooter", "rental_uris": {"ios": "https://dc.lft.to/lastmile_qr_scan", "android": "https://dc.lft.to/lastmile_qr_scan"}, "lat": 38.92283833333333, "name": "d52c4f16c8321f219afe205d16199f4b", "lon": -77.04226833333334, "is_reserved": 0, "bike_id": "d52c4f16c8321f219afe205d16199f4b"}, {"fusion_lat": 0.0, "fusion_lon": 0.0, "is_disabled": 0, "type": "electric_scooter", "rental_uris": {"ios": "https://dc.lft.to/lastmile_qr_scan", "android": "https://dc.lft.to/lastmile_qr_scan"}, "lat": 38.89264933333333, "name": "93d3aef4cc0a5eb515f54584a15e3bbf", "lon": -76.9837065, "is_reserved": 0, "bike_id": "93d3aef4cc0a5eb515f54584a15e3bbf"}, {"fusion_lat": 0.0, "fusion_lon": 0.0, "is_disabled": 0, "type": "electric_scooter", "rental_uris": {"ios": "https://dc.lft.to/lastmile_qr_scan", "android": "https://dc.lft.to/lastmile_qr_scan"}, "lat": 38.90362666666667, "name": "f2194ca086a9d5a6cc491596c068e906", "lon": -77.04247483333333, "is_reserved": 0, "bike_id": "f2194ca086a9d5a6cc491596c068e906"}, {"fusion_lat": 0.0, "fusion_lon": 0.0, "is_disabled": 0, "type": "electric_scooter", "rental_uris": {"ios": "https://dc.lft.to/lastmile_qr_scan", "android": "https://dc.lft.to/lastmile_qr_scan"}, "lat": 38.921833666666664, "name": "f70508779b306e0939eda32b0059e709", "lon": -77.02663666666666, "is_reserved": 0, "bike_id": "f70508779b306e0939eda32b0059e709"}, {"fusion_lat": 0.0, "fusion_lon": 0.0, "is_disabled": 0, "type": "electric_scooter", "rental_uris": {"ios": "https://dc.lft.to/lastmile_qr_scan", "android": "https://dc.lft.to/lastmile_qr_scan"}, "lat": 38.900301, "name": "c636e20cca3ce3be21d45c972d18bf9f", "lon": -76.9885865, "is_reserved": 0, "bike_id": "c636e20cca3ce3be21d45c972d18bf9f"}, {"fusion_lat": 0.0, "fusion_lon": 0.0, "is_disabled": 0, "type": "electric_bike", "rental_uris": {"ios": "https://dc.lft.to/lastmile_qr_scan", "android": "https://dc.lft.to/lastmile_qr_scan"}, "lat": 38.84193, "name": "9a63dd3e3f4962fcb34810c1c9ead719", "lon": -77.07751583333334, "is_reserved": 0, "bike_id": "9a63dd3e3f4962fcb34810c1c9ead719"}, {"fusion_lat": 0.0, "fusion_lon": 0.0, "is_disabled": 0, "type": "electric_scooter", "rental_uris": {"ios": "https://dc.lft.to/lastmile_qr_scan", "android": "https://dc.lft.to/lastmile_qr_scan"}, "lat": 38.927115666666666, "name": "73841885cbccada73891c090cd6a3c05", "lon": -77.021007, "is_reserved": 0, "bike_id": "73841885cbccada73891c090cd6a3c05"}, {"fusion_lat": 0.0, "fusion_lon": 0.0, "is_disabled": 0, "type": "electric_scooter", "rental_uris": {"ios": "https://dc.lft.to/lastmile_qr_scan", "android": "https://dc.lft.to/lastmile_qr_scan"}, "lat": 38.9168285, "name": "58657fda88f298514c923e1b3d8fe313", "lon": -77.04139616666667, "is_reserved": 0, "bike_id": "58657fda88f298514c923e1b3d8fe313"}, {"fusion_lat": 0.0, "fusion_lon": 0.0, "is_disabled": 0, "type": "electric_scooter", "rental_uris": {"ios": "https://dc.lft.to/lastmile_qr_scan", "android": "https://dc.lft.to/lastmile_qr_scan"}, "lat": 38.925157166666665, "name": "768b935d25a6b1fa97f96b9e595ca20a", "lon": -77.02357466666666, "is_reserved": 0, "bike_id": "768b935d25a6b1fa97f96b9e595ca20a"}, {"fusion_lat": 0.0, "fusion_lon": 0.0, "is_disabled": 0, "type": "electric_scooter", "rental_uris": {"ios": "https://dc.lft.to/lastmile_qr_scan", "android": "https://dc.lft.to/lastmile_qr_scan"}, "lat": 38.8936615, "name": "4e9ae8b3de4afc8d5a788f5984408b79", "lon": -76.9880345, "is_reserved": 0, "bike_id": "4e9ae8b3de4afc8d5a788f5984408b79"}, {"fusion_lat": 0.0, "fusion_lon": 0.0, "is_disabled": 0, "type": "electric_bike", "rental_uris": {"ios": "https://dc.lft.to/lastmile_qr_scan", "android": "https://dc.lft.to/lastmile_qr_scan"}, "lat": 38.815452, "name": "62d6781355c9099ef32025a613f10e5e", "lon": -77.04640583333334, "is_reserved": 0, "bike_id": "62d6781355c9099ef32025a613f10e5e"}, {"fusion_lat": 0.0, "fusion_lon": 0.0, "is_disabled": 0, "type": "electric_scooter", "rental_uris": {"ios": "https://dc.lft.to/lastmile_qr_scan", "android": "https://dc.lft.to/lastmile_qr_scan"}, "lat": 38.8979235, "name": "5c0dbed4023b0e858d470612b1284355", "lon": -76.979602, "is_reserved": 0, "bike_id": "5c0dbed4023b0e858d470612b1284355"}, {"fusion_lat": 0.0, "fusion_lon": 0.0, "is_disabled": 0, "type": "electric_scooter", "rental_uris": {"ios": "https://dc.lft.to/lastmile_qr_scan", "android": "https://dc.lft.to/lastmile_qr_scan"}, "lat": 38.89546516666667, "name": "2d364c971eea5ca566ca1093a241d406", "lon": -76.98337916666667, "is_reserved": 0, "bike_id": "2d364c971eea5ca566ca1093a241d406"}, {"fusion_lat": 0.0, "fusion_lon": 0.0, "is_disabled": 0, "type": "electric_scooter", "rental_uris": {"ios": "https://dc.lft.to/lastmile_qr_scan", "android": "https://dc.lft.to/lastmile_qr_scan"}, "lat": 38.90248416666667, "name": "af400e2aafa77e02f317c690db6faa76", "lon": -77.02640183333334, "is_reserved": 0, "bike_id": "af400e2aafa77e02f317c690db6faa76"}, {"fusion_lat": 0.0, "fusion_lon": 0.0, "is_disabled": 0, "type": "electric_bike", "rental_uris": {"ios": "https://dc.lft.to/lastmile_qr_scan", "android": "https://dc.lft.to/lastmile_qr_scan"}, "lat": 38.79984816666666, "name": "d64de32f4155888276b4f2f23825c529", "lon": -77.1297765, "is_reserved": 0, "bike_id": "d64de32f4155888276b4f2f23825c529"}, {"fusion_lat": 0.0, "fusion_lon": 0.0, "is_disabled": 0, "type": "electric_bike", "rental_uris": {"ios": "https://dc.lft.to/lastmile_qr_scan", "android": "https://dc.lft.to/lastmile_qr_scan"}, "lat": 38.90701283333333, "name": "43ced58c47c0561ad8ba68725c60bf85", "lon": -76.95253083333333, "is_reserved": 0, "bike_id": "43ced58c47c0561ad8ba68725c60bf85"}, {"fusion_lat": 0.0, "fusion_lon": 0.0, "is_disabled": 0, "type": "electric_scooter", "rental_uris": {"ios": "https://dc.lft.to/lastmile_qr_scan", "android": "https://dc.lft.to/lastmile_qr_scan"}, "lat": 38.906060333333336, "name": "521cd4032de29ac220725781e25412c8", "lon": -77.04035066666667, "is_reserved": 0, "bike_id": "521cd4032de29ac220725781e25412c8"}, {"fusion_lat": 0.0, "fusion_lon": 0.0, "is_disabled": 0, "type": "electric_scooter", "rental_uris": {"ios": "https://dc.lft.to/lastmile_qr_scan", "android": "https://dc.lft.to/lastmile_qr_scan"}, "lat": 38.873984166666666, "name": "ceb7e00f7a960993779a2564e77af4bf", "lon": -77.00019716666667, "is_reserved": 0, "bike_id": "ceb7e00f7a960993779a2564e77af4bf"}, {"fusion_lat": 0.0, "fusion_lon": 0.0, "is_disabled": 0, "type": "electric_scooter", "rental_uris": {"ios": "https://dc.lft.to/lastmile_qr_scan", "android": "https://dc.lft.to/lastmile_qr_scan"}, "lat": 38.931489, "name": "875ceefa802980d38b6b3b42dfeb49c7", "lon": -77.03276233333334, "is_reserved": 0, "bike_id": "875ceefa802980d38b6b3b42dfeb49c7"}, {"fusion_lat": 0.0, "fusion_lon": 0.0, "is_disabled": 0, "type": "electric_scooter", "rental_uris": {"ios": "https://dc.lft.to/lastmile_qr_scan", "android": "https://dc.lft.to/lastmile_qr_scan"}, "lat": 38.9110865, "name": "7a5b200008b95f704ede95f264108ae0", "lon": -77.01388416666667, "is_reserved": 0, "bike_id": "7a5b200008b95f704ede95f264108ae0"}, {"fusion_lat": 0.0, "fusion_lon": 0.0, "is_disabled": 0, "type": "electric_scooter", "rental_uris": {"ios": "https://dc.lft.to/lastmile_qr_scan", "android": "https://dc.lft.to/lastmile_qr_scan"}, "lat": 38.89354866666667, "name": "149bd381f407203e5a6fbf7f0f0cfccb", "lon": -77.00336366666667, "is_reserved": 0, "bike_id": "149bd381f407203e5a6fbf7f0f0cfccb"}, {"fusion_lat": 0.0, "fusion_lon": 0.0, "is_disabled": 0, "type": "electric_scooter", "rental_uris": {"ios": "https://dc.lft.to/lastmile_qr_scan", "android": "https://dc.lft.to/lastmile_qr_scan"}, "lat": 38.900454833333335, "name": "7fd1d45c0b220b500d8f688200e045cd", "lon": -77.03177466666666, "is_reserved": 0, "bike_id": "7fd1d45c0b220b500d8f688200e045cd"}, {"fusion_lat": 0.0, "fusion_lon": 0.0, "is_disabled": 0, "type": "electric_scooter", "rental_uris": {"ios": "https://dc.lft.to/lastmile_qr_scan", "android": "https://dc.lft.to/lastmile_qr_scan"}, "lat": 38.89656516666667, "name": "116596a7ca16219962829854a49804fb", "lon": -77.04336516666666, "is_reserved": 0, "bike_id": "116596a7ca16219962829854a49804fb"}, {"fusion_lat": 0.0, "fusion_lon": 0.0, "is_disabled": 0, "type": "electric_scooter", "rental_uris": {"ios": "https://dc.lft.to/lastmile_qr_scan", "android": "https://dc.lft.to/lastmile_qr_scan"}, "lat": 38.9275395, "name": "dcad4fd9e465da06c1256e93180321e5", "lon": -77.033621, "is_reserved": 0, "bike_id": "dcad4fd9e465da06c1256e93180321e5"}, {"fusion_lat": 0.0, "fusion_lon": 0.0, "is_disabled": 0, "type": "electric_scooter", "rental_uris": {"ios": "https://dc.lft.to/lastmile_qr_scan", "android": "https://dc.lft.to/lastmile_qr_scan"}, "lat": 38.893328833333335, "name": "081484e339240ab6aad19575267fea7b", "lon": -77.032145, "is_reserved": 0, "bike_id": "081484e339240ab6aad19575267fea7b"}, {"fusion_lat": 0.0, "fusion_lon": 0.0, "is_disabled": 0, "type": "electric_scooter", "rental_uris": {"ios": "https://dc.lft.to/lastmile_qr_scan", "android": "https://dc.lft.to/lastmile_qr_scan"}, "lat": 38.905366, "name": "87073d74d3df2c0456b2c08777688265", "lon": -77.03751483333333, "is_reserved": 0, "bike_id": "87073d74d3df2c0456b2c08777688265"}, {"fusion_lat": 0.0, "fusion_lon": 0.0, "is_disabled": 0, "type": "electric_bike", "rental_uris": {"ios": "https://dc.lft.to/lastmile_qr_scan", "android": "https://dc.lft.to/lastmile_qr_scan"}, "lat": 38.922321333333336, "name": "a81008c42f89fe44533d9f060d474dc4", "lon": -77.02827833333333, "is_reserved": 0, "bike_id": "a81008c42f89fe44533d9f060d474dc4"}, {"fusion_lat": 0.0, "fusion_lon": 0.0, "is_disabled": 0, "type": "electric_scooter", "rental_uris": {"ios": "https://dc.lft.to/lastmile_qr_scan", "android": "https://dc.lft.to/lastmile_qr_scan"}, "lat": 38.907943, "name": "ce3266ae2cca7115b23b48ce86ee0fa0", "lon": -77.03831216666667, "is_reserved": 0, "bike_id": "ce3266ae2cca7115b23b48ce86ee0fa0"}, {"fusion_lat": 0.0, "fusion_lon": 0.0, "is_disabled": 0, "type": "electric_scooter", "rental_uris": {"ios": "https://dc.lft.to/lastmile_qr_scan", "android": "https://dc.lft.to/lastmile_qr_scan"}, "lat": 38.880353166666666, "name": "bd18db59f2ea8735673014ac223636dc", "lon": -77.02508166666667, "is_reserved": 0, "bike_id": "bd18db59f2ea8735673014ac223636dc"}, {"fusion_lat": 0.0, "fusion_lon": 0.0, "is_disabled": 0, "type": "electric_scooter", "rental_uris": {"ios": "https://dc.lft.to/lastmile_qr_scan", "android": "https://dc.lft.to/lastmile_qr_scan"}, "lat": 38.85511833333333, "name": "ca387d29202c332c427a65a46aeeead5", "lon": -76.9864925, "is_reserved": 0, "bike_id": "ca387d29202c332c427a65a46aeeead5"}, {"fusion_lat": 0.0, "fusion_lon": 0.0, "is_disabled": 0, "type": "electric_scooter", "rental_uris": {"ios": "https://dc.lft.to/lastmile_qr_scan", "android": "https://dc.lft.to/lastmile_qr_scan"}, "lat": 38.905802666666666, "name": "786520797b4d930665256df745dc75ef", "lon": -77.0437875, "is_reserved": 0, "bike_id": "786520797b4d930665256df745dc75ef"}, {"fusion_lat": 0.0, "fusion_lon": 0.0, "is_disabled": 0, "type": "electric_scooter", "rental_uris": {"ios": "https://dc.lft.to/lastmile_qr_scan", "android": "https://dc.lft.to/lastmile_qr_scan"}, "lat": 38.903897, "name": "cef750bd2edcbaa2824854c27dffb3c3", "lon": -77.045036, "is_reserved": 0, "bike_id": "cef750bd2edcbaa2824854c27dffb3c3"}, {"fusion_lat": 0.0, "fusion_lon": 0.0, "is_disabled": 0, "type": "electric_scooter", "rental_uris": {"ios": "https://dc.lft.to/lastmile_qr_scan", "android": "https://dc.lft.to/lastmile_qr_scan"}, "lat": 38.918518166666665, "name": "d359826fa073a62991b31bd420d4dd3b", "lon": -77.03217283333333, "is_reserved": 0, "bike_id": "d359826fa073a62991b31bd420d4dd3b"}, {"fusion_lat": 0.0, "fusion_lon": 0.0, "is_disabled": 0, "type": "electric_scooter", "rental_uris": {"ios": "https://dc.lft.to/lastmile_qr_scan", "android": "https://dc.lft.to/lastmile_qr_scan"}, "lat": 38.900505833333334, "name": "3e18a3a25a09c0ee3786caf72492cf5a", "lon": -77.01987166666666, "is_reserved": 0, "bike_id": "3e18a3a25a09c0ee3786caf72492cf5a"}, {"fusion_lat": 0.0, "fusion_lon": 0.0, "is_disabled": 0, "type": "electric_scooter", "rental_uris": {"ios": "https://dc.lft.to/lastmile_qr_scan", "android": "https://dc.lft.to/lastmile_qr_scan"}, "lat": 38.912577, "name": "cdc29fa5b8c170bfc819e1ade84efc09", "lon": -76.983521, "is_reserved": 0, "bike_id": "cdc29fa5b8c170bfc819e1ade84efc09"}, {"fusion_lat": 0.0, "fusion_lon": 0.0, "is_disabled": 0, "type": "electric_scooter", "rental_uris": {"ios": "https://dc.lft.to/lastmile_qr_scan", "android": "https://dc.lft.to/lastmile_qr_scan"}, "lat": 38.91351066666667, "name": "3d36bd8de216f7cd013f2bb3d3d1b31e", "lon": -77.03181883333333, "is_reserved": 0, "bike_id": "3d36bd8de216f7cd013f2bb3d3d1b31e"}, {"fusion_lat": 0.0, "fusion_lon": 0.0, "is_disabled": 0, "type": "electric_scooter", "rental_uris": {"ios": "https://dc.lft.to/lastmile_qr_scan", "android": "https://dc.lft.to/lastmile_qr_scan"}, "lat": 38.898264833333336, "name": "84b190d9b9fd3419f22603e773f39457", "lon": -76.94653483333333, "is_reserved": 0, "bike_id": "84b190d9b9fd3419f22603e773f39457"}, {"fusion_lat": 0.0, "fusion_lon": 0.0, "is_disabled": 0, "type": "electric_scooter", "rental_uris": {"ios": "https://dc.lft.to/lastmile_qr_scan", "android": "https://dc.lft.to/lastmile_qr_scan"}, "lat": 38.90375133333333, "name": "23f108940aae09e7273523583576dd1e", "lon": -77.05361783333333, "is_reserved": 0, "bike_id": "23f108940aae09e7273523583576dd1e"}, {"fusion_lat": 0.0, "fusion_lon": 0.0, "is_disabled": 0, "type": "electric_scooter", "rental_uris": {"ios": "https://dc.lft.to/lastmile_qr_scan", "android": "https://dc.lft.to/lastmile_qr_scan"}, "lat": 38.90539183333333, "name": "c6623e151705f84aa2f01a0afb7d92e4", "lon": -77.022293, "is_reserved": 0, "bike_id": "c6623e151705f84aa2f01a0afb7d92e4"}, {"fusion_lat": 0.0, "fusion_lon": 0.0, "is_disabled": 0, "type": "electric_scooter", "rental_uris": {"ios": "https://dc.lft.to/lastmile_qr_scan", "android": "https://dc.lft.to/lastmile_qr_scan"}, "lat": 38.923115, "name": "4f8a2f943cebf6dee2b4620ff202015b", "lon": -77.031199, "is_reserved": 0, "bike_id": "4f8a2f943cebf6dee2b4620ff202015b"}, {"fusion_lat": 0.0, "fusion_lon": 0.0, "is_disabled": 0, "type": "electric_scooter", "rental_uris": {"ios": "https://dc.lft.to/lastmile_qr_scan", "android": "https://dc.lft.to/lastmile_qr_scan"}, "lat": 38.895308, "name": "7744981785bb3a680d78a05af13bd7e2", "lon": -76.94930533333333, "is_reserved": 0, "bike_id": "7744981785bb3a680d78a05af13bd7e2"}, {"fusion_lat": 0.0, "fusion_lon": 0.0, "is_disabled": 0, "type": "electric_bike", "rental_uris": {"ios": "https://dc.lft.to/lastmile_qr_scan", "android": "https://dc.lft.to/lastmile_qr_scan"}, "lat": 38.98042516666667, "name": "2efaa3fb4541dbfdc8d1849985a85e56", "lon": -76.95794, "is_reserved": 0, "bike_id": "2efaa3fb4541dbfdc8d1849985a85e56"}, {"fusion_lat": 0.0, "fusion_lon": 0.0, "is_disabled": 0, "type": "electric_bike", "rental_uris": {"ios": "https://dc.lft.to/lastmile_qr_scan", "android": "https://dc.lft.to/lastmile_qr_scan"}, "lat": 38.955974833333336, "name": "697362efb7c6b7e7b236addbaae7f129", "lon": -77.010097, "is_reserved": 0, "bike_id": "697362efb7c6b7e7b236addbaae7f129"}, {"fusion_lat": 0.0, "fusion_lon": 0.0, "is_disabled": 0, "type": "electric_scooter", "rental_uris": {"ios": "https://dc.lft.to/lastmile_qr_scan", "android": "https://dc.lft.to/lastmile_qr_scan"}, "lat": 38.944187666666664, "name": "542335e14b4128cb977acc3dba50cc18", "lon": -76.97567333333333, "is_reserved": 0, "bike_id": "542335e14b4128cb977acc3dba50cc18"}, {"fusion_lat": 0.0, "fusion_lon": 0.0, "is_disabled": 0, "type": "electric_scooter", "rental_uris": {"ios": "https://dc.lft.to/lastmile_qr_scan", "android": "https://dc.lft.to/lastmile_qr_scan"}, "lat": 38.960898, "name": "33ceafede8cfd33b32c3a29a5c869ff1", "lon": -77.07336616666667, "is_reserved": 0, "bike_id": "33ceafede8cfd33b32c3a29a5c869ff1"}, {"fusion_lat": 0.0, "fusion_lon": 0.0, "is_disabled": 0, "type": "electric_scooter", "rental_uris": {"ios": "https://dc.lft.to/lastmile_qr_scan", "android": "https://dc.lft.to/lastmile_qr_scan"}, "lat": 38.903767, "name": "6cc8844ef5277301533a692e81076194", "lon": -77.0449045, "is_reserved": 0, "bike_id": "6cc8844ef5277301533a692e81076194"}, {"fusion_lat": 0.0, "fusion_lon": 0.0, "is_disabled": 0, "type": "electric_bike", "rental_uris": {"ios": "https://dc.lft.to/lastmile_qr_scan", "android": "https://dc.lft.to/lastmile_qr_scan"}, "lat": 38.9950235, "name": "7815480137e4971832df052e2da9693a", "lon": -77.00132733333334, "is_reserved": 0, "bike_id": "7815480137e4971832df052e2da9693a"}, {"fusion_lat": 0.0, "fusion_lon": 0.0, "is_disabled": 0, "type": "electric_scooter", "rental_uris": {"ios": "https://dc.lft.to/lastmile_qr_scan", "android": "https://dc.lft.to/lastmile_qr_scan"}, "lat": 38.94017016666667, "name": "77c20cfbae541f5f6b520eff16180be7", "lon": -77.0615105, "is_reserved": 0, "bike_id": "77c20cfbae541f5f6b520eff16180be7"}, {"fusion_lat": 0.0, "fusion_lon": 0.0, "is_disabled": 0, "type": "electric_scooter", "rental_uris": {"ios": "https://dc.lft.to/lastmile_qr_scan", "android": "https://dc.lft.to/lastmile_qr_scan"}, "lat": 38.9151285, "name": "a32db77304a06a9dbb9e244a2a4edda4", "lon": -77.04628016666666, "is_reserved": 0, "bike_id": "a32db77304a06a9dbb9e244a2a4edda4"}, {"fusion_lat": 0.0, "fusion_lon": 0.0, "is_disabled": 0, "type": "electric_scooter", "rental_uris": {"ios": "https://dc.lft.to/lastmile_qr_scan", "android": "https://dc.lft.to/lastmile_qr_scan"}, "lat": 38.92753783333333, "name": "61e86b19992acbdf34f770a1487098de", "lon": -77.03546833333333, "is_reserved": 0, "bike_id": "61e86b19992acbdf34f770a1487098de"}, {"fusion_lat": 0.0, "fusion_lon": 0.0, "is_disabled": 0, "type": "electric_scooter", "rental_uris": {"ios": "https://dc.lft.to/lastmile_qr_scan", "android": "https://dc.lft.to/lastmile_qr_scan"}, "lat": 38.903518166666665, "name": "e318436e273ebf411a16129be7a78412", "lon": -77.03650066666667, "is_reserved": 0, "bike_id": "e318436e273ebf411a16129be7a78412"}, {"fusion_lat": 0.0, "fusion_lon": 0.0, "is_disabled": 0, "type": "electric_scooter", "rental_uris": {"ios": "https://dc.lft.to/lastmile_qr_scan", "android": "https://dc.lft.to/lastmile_qr_scan"}, "lat": 38.93177433333334, "name": "5385ed5f1bf80f6f061fbf9a6dc522d0", "lon": -77.03870066666667, "is_reserved": 0, "bike_id": "5385ed5f1bf80f6f061fbf9a6dc522d0"}, {"fusion_lat": 0.0, "fusion_lon": 0.0, "is_disabled": 0, "type": "electric_scooter", "rental_uris": {"ios": "https://dc.lft.to/lastmile_qr_scan", "android": "https://dc.lft.to/lastmile_qr_scan"}, "lat": 38.91118483333333, "name": "f0fa8babf2b9af5b07593023df9a1d0c", "lon": -77.04232383333333, "is_reserved": 0, "bike_id": "f0fa8babf2b9af5b07593023df9a1d0c"}, {"fusion_lat": 0.0, "fusion_lon": 0.0, "is_disabled": 0, "type": "electric_scooter", "rental_uris": {"ios": "https://dc.lft.to/lastmile_qr_scan", "android": "https://dc.lft.to/lastmile_qr_scan"}, "lat": 38.901503, "name": "d6a03f68a95b0a50c940e78e1b786672", "lon": -77.05911516666667, "is_reserved": 0, "bike_id": "d6a03f68a95b0a50c940e78e1b786672"}, {"fusion_lat": 0.0, "fusion_lon": 0.0, "is_disabled": 0, "type": "electric_bike", "rental_uris": {"ios": "https://dc.lft.to/lastmile_qr_scan", "android": "https://dc.lft.to/lastmile_qr_scan"}, "lat": 38.9001875, "name": "0f31297acde8061805fb845abf2a7eef", "lon": -77.03006316666666, "is_reserved": 0, "bike_id": "0f31297acde8061805fb845abf2a7eef"}, {"fusion_lat": 0.0, "fusion_lon": 0.0, "is_disabled": 0, "type": "electric_scooter", "rental_uris": {"ios": "https://dc.lft.to/lastmile_qr_scan", "android": "https://dc.lft.to/lastmile_qr_scan"}, "lat": 38.8955445, "name": "22e302ad2ab2f3d042d05001c4e0898f", "lon": -77.0091125, "is_reserved": 0, "bike_id": "22e302ad2ab2f3d042d05001c4e0898f"}, {"fusion_lat": 0.0, "fusion_lon": 0.0, "is_disabled": 0, "type": "electric_scooter", "rental_uris": {"ios": "https://dc.lft.to/lastmile_qr_scan", "android": "https://dc.lft.to/lastmile_qr_scan"}, "lat": 38.91402, "name": "def1e43a1f9dc9e0b5b5f1a5a092b565", "lon": -77.01817016666666, "is_reserved": 0, "bike_id": "def1e43a1f9dc9e0b5b5f1a5a092b565"}, {"fusion_lat": 0.0, "fusion_lon": 0.0, "is_disabled": 0, "type": "electric_scooter", "rental_uris": {"ios": "https://dc.lft.to/lastmile_qr_scan", "android": "https://dc.lft.to/lastmile_qr_scan"}, "lat": 38.93603316666667, "name": "74a6f1c6c96b4db85cc730c791244f3d", "lon": -77.0288685, "is_reserved": 0, "bike_id": "74a6f1c6c96b4db85cc730c791244f3d"}, {"fusion_lat": 0.0, "fusion_lon": 0.0, "is_disabled": 0, "type": "electric_scooter", "rental_uris": {"ios": "https://dc.lft.to/lastmile_qr_scan", "android": "https://dc.lft.to/lastmile_qr_scan"}, "lat": 38.91108916666666, "name": "f9cf17a278c8d0e9a53910e5d00c4232", "lon": -77.02172816666666, "is_reserved": 0, "bike_id": "f9cf17a278c8d0e9a53910e5d00c4232"}, {"fusion_lat": 0.0, "fusion_lon": 0.0, "is_disabled": 0, "type": "electric_scooter", "rental_uris": {"ios": "https://dc.lft.to/lastmile_qr_scan", "android": "https://dc.lft.to/lastmile_qr_scan"}, "lat": 38.89839966666667, "name": "0b9f71f42188e2df0e8c031d7fb86019", "lon": -77.0227205, "is_reserved": 0, "bike_id": "0b9f71f42188e2df0e8c031d7fb86019"}, {"fusion_lat": 0.0, "fusion_lon": 0.0, "is_disabled": 0, "type": "electric_scooter", "rental_uris": {"ios": "https://dc.lft.to/lastmile_qr_scan", "android": "https://dc.lft.to/lastmile_qr_scan"}, "lat": 38.90334883333333, "name": "3c55e74cee24ff8293af4a95e043c2b1", "lon": -77.01079716666666, "is_reserved": 0, "bike_id": "3c55e74cee24ff8293af4a95e043c2b1"}, {"fusion_lat": 0.0, "fusion_lon": 0.0, "is_disabled": 0, "type": "electric_scooter", "rental_uris": {"ios": "https://dc.lft.to/lastmile_qr_scan", "android": "https://dc.lft.to/lastmile_qr_scan"}, "lat": 38.897921, "name": "340c5721c90667d1b8c513df2b7eda5c", "lon": -77.029784, "is_reserved": 0, "bike_id": "340c5721c90667d1b8c513df2b7eda5c"}, {"fusion_lat": 0.0, "fusion_lon": 0.0, "is_disabled": 0, "type": "electric_scooter", "rental_uris": {"ios": "https://dc.lft.to/lastmile_qr_scan", "android": "https://dc.lft.to/lastmile_qr_scan"}, "lat": 38.887467666666666, "name": "6b9074b370b8ef7b9ccc71b6a5e1b1e4", "lon": -77.01623266666667, "is_reserved": 0, "bike_id": "6b9074b370b8ef7b9ccc71b6a5e1b1e4"}, {"fusion_lat": 0.0, "fusion_lon": 0.0, "is_disabled": 0, "type": "electric_scooter", "rental_uris": {"ios": "https://dc.lft.to/lastmile_qr_scan", "android": "https://dc.lft.to/lastmile_qr_scan"}, "lat": 38.91394666666667, "name": "87b3cceaf8cbb3482a517839c0c27702", "lon": -77.0344585, "is_reserved": 0, "bike_id": "87b3cceaf8cbb3482a517839c0c27702"}, {"fusion_lat": 0.0, "fusion_lon": 0.0, "is_disabled": 0, "type": "electric_scooter", "rental_uris": {"ios": "https://dc.lft.to/lastmile_qr_scan", "android": "https://dc.lft.to/lastmile_qr_scan"}, "lat": 38.894387, "name": "6c57800f3099d632674a261154114710", "lon": -76.98080416666667, "is_reserved": 0, "bike_id": "6c57800f3099d632674a261154114710"}, {"fusion_lat": 0.0, "fusion_lon": 0.0, "is_disabled": 0, "type": "electric_scooter", "rental_uris": {"ios": "https://dc.lft.to/lastmile_qr_scan", "android": "https://dc.lft.to/lastmile_qr_scan"}, "lat": 38.90042066666667, "name": "9249148407cd93d4af83e41bcceb5a2b", "lon": -77.033612, "is_reserved": 0, "bike_id": "9249148407cd93d4af83e41bcceb5a2b"}, {"fusion_lat": 0.0, "fusion_lon": 0.0, "is_disabled": 0, "type": "electric_scooter", "rental_uris": {"ios": "https://dc.lft.to/lastmile_qr_scan", "android": "https://dc.lft.to/lastmile_qr_scan"}, "lat": 38.9081365, "name": "9214d43070fc72d7e7747cce8299fc65", "lon": -77.03950866666666, "is_reserved": 0, "bike_id": "9214d43070fc72d7e7747cce8299fc65"}, {"fusion_lat": 0.0, "fusion_lon": 0.0, "is_disabled": 0, "type": "electric_scooter", "rental_uris": {"ios": "https://dc.lft.to/lastmile_qr_scan", "android": "https://dc.lft.to/lastmile_qr_scan"}, "lat": 38.91251066666667, "name": "a184ec552b10548e4dc246d8540fb874", "lon": -77.04158583333333, "is_reserved": 0, "bike_id": "a184ec552b10548e4dc246d8540fb874"}, {"fusion_lat": 0.0, "fusion_lon": 0.0, "is_disabled": 0, "type": "electric_scooter", "rental_uris": {"ios": "https://dc.lft.to/lastmile_qr_scan", "android": "https://dc.lft.to/lastmile_qr_scan"}, "lat": 38.93082116666667, "name": "45b0fb3b7e9da09f6f759c9986a9013f", "lon": -77.0268775, "is_reserved": 0, "bike_id": "45b0fb3b7e9da09f6f759c9986a9013f"}, {"fusion_lat": 0.0, "fusion_lon": 0.0, "is_disabled": 0, "type": "electric_bike", "rental_uris": {"ios": "https://dc.lft.to/lastmile_qr_scan", "android": "https://dc.lft.to/lastmile_qr_scan"}, "lat": 39.02622933333333, "name": "1656c9af390d0c03e00d4b0aa61332bd", "lon": -77.02010016666667, "is_reserved": 0, "bike_id": "1656c9af390d0c03e00d4b0aa61332bd"}, {"fusion_lat": 0.0, "fusion_lon": 0.0, "is_disabled": 0, "type": "electric_bike", "rental_uris": {"ios": "https://dc.lft.to/lastmile_qr_scan", "android": "https://dc.lft.to/lastmile_qr_scan"}, "lat": 38.866823333333336, "name": "e0ac26d0bca90b1b8c6d93aeeef2c541", "lon": -76.98501916666666, "is_reserved": 0, "bike_id": "e0ac26d0bca90b1b8c6d93aeeef2c541"}, {"fusion_lat": 0.0, "fusion_lon": 0.0, "is_disabled": 0, "type": "electric_scooter", "rental_uris": {"ios": "https://dc.lft.to/lastmile_qr_scan", "android": "https://dc.lft.to/lastmile_qr_scan"}, "lat": 38.9267035, "name": "5806ee3929b352794ce444b144280f70", "lon": -77.01513916666667, "is_reserved": 0, "bike_id": "5806ee3929b352794ce444b144280f70"}, {"fusion_lat": 0.0, "fusion_lon": 0.0, "is_disabled": 0, "type": "electric_bike", "rental_uris": {"ios": "https://dc.lft.to/lastmile_qr_scan", "android": "https://dc.lft.to/lastmile_qr_scan"}, "lat": 38.83103783333333, "name": "d7573cf101c0d076d87062fb43095a3e", "lon": -77.1128285, "is_reserved": 0, "bike_id": "d7573cf101c0d076d87062fb43095a3e"}, {"fusion_lat": 0.0, "fusion_lon": 0.0, "is_disabled": 0, "type": "electric_scooter", "rental_uris": {"ios": "https://dc.lft.to/lastmile_qr_scan", "android": "https://dc.lft.to/lastmile_qr_scan"}, "lat": 38.894672, "name": "077d50f6ac9089d9145e481deb1ca511", "lon": -77.02318533333333, "is_reserved": 0, "bike_id": "077d50f6ac9089d9145e481deb1ca511"}, {"fusion_lat": 0.0, "fusion_lon": 0.0, "is_disabled": 0, "type": "electric_scooter", "rental_uris": {"ios": "https://dc.lft.to/lastmile_qr_scan", "android": "https://dc.lft.to/lastmile_qr_scan"}, "lat": 38.91622066666667, "name": "1c35558c45161d83554cb01d021a9e8d", "lon": -77.02307166666667, "is_reserved": 0, "bike_id": "1c35558c45161d83554cb01d021a9e8d"}, {"fusion_lat": 0.0, "fusion_lon": 0.0, "is_disabled": 0, "type": "electric_scooter", "rental_uris": {"ios": "https://dc.lft.to/lastmile_qr_scan", "android": "https://dc.lft.to/lastmile_qr_scan"}, "lat": 38.915623833333335, "name": "46e7e15098f3a4042e72fe67fb330d89", "lon": -77.00819366666667, "is_reserved": 0, "bike_id": "46e7e15098f3a4042e72fe67fb330d89"}, {"fusion_lat": 0.0, "fusion_lon": 0.0, "is_disabled": 0, "type": "electric_scooter", "rental_uris": {"ios": "https://dc.lft.to/lastmile_qr_scan", "android": "https://dc.lft.to/lastmile_qr_scan"}, "lat": 38.930697333333335, "name": "d93d87be441986440555ca3f2d48c2fe", "lon": -77.04134816666667, "is_reserved": 0, "bike_id": "d93d87be441986440555ca3f2d48c2fe"}, {"fusion_lat": 0.0, "fusion_lon": 0.0, "is_disabled": 0, "type": "electric_scooter", "rental_uris": {"ios": "https://dc.lft.to/lastmile_qr_scan", "android": "https://dc.lft.to/lastmile_qr_scan"}, "lat": 38.9037275, "name": "2d459ec6853201e59dea6ef996d9dbbc", "lon": -77.0371785, "is_reserved": 0, "bike_id": "2d459ec6853201e59dea6ef996d9dbbc"}, {"fusion_lat": 0.0, "fusion_lon": 0.0, "is_disabled": 0, "type": "electric_bike", "rental_uris": {"ios": "https://dc.lft.to/lastmile_qr_scan", "android": "https://dc.lft.to/lastmile_qr_scan"}, "lat": 38.865611, "name": "98a9aa3c02ca4e42ddb7b5eaa6775be4", "lon": -76.9733115, "is_reserved": 0, "bike_id": "98a9aa3c02ca4e42ddb7b5eaa6775be4"}, {"fusion_lat": 0.0, "fusion_lon": 0.0, "is_disabled": 0, "type": "electric_scooter", "rental_uris": {"ios": "https://dc.lft.to/lastmile_qr_scan", "android": "https://dc.lft.to/lastmile_qr_scan"}, "lat": 38.903983, "name": "250ab649b8be21a1b4fb65efd812fd13", "lon": -77.03840716666667, "is_reserved": 0, "bike_id": "250ab649b8be21a1b4fb65efd812fd13"}, {"fusion_lat": 0.0, "fusion_lon": 0.0, "is_disabled": 0, "type": "electric_scooter", "rental_uris": {"ios": "https://dc.lft.to/lastmile_qr_scan", "android": "https://dc.lft.to/lastmile_qr_scan"}, "lat": 38.881150833333336, "name": "194b6a0f91ba200c04c5153bace9acbf", "lon": -77.00064816666666, "is_reserved": 0, "bike_id": "194b6a0f91ba200c04c5153bace9acbf"}, {"fusion_lat": 0.0, "fusion_lon": 0.0, "is_disabled": 0, "type": "electric_scooter", "rental_uris": {"ios": "https://dc.lft.to/lastmile_qr_scan", "android": "https://dc.lft.to/lastmile_qr_scan"}, "lat": 38.9306065, "name": "99dc4e584d0e6666bc3b15235ad5fdd5", "lon": -77.02325716666667, "is_reserved": 0, "bike_id": "99dc4e584d0e6666bc3b15235ad5fdd5"}, {"fusion_lat": 0.0, "fusion_lon": 0.0, "is_disabled": 0, "type": "electric_scooter", "rental_uris": {"ios": "https://dc.lft.to/lastmile_qr_scan", "android": "https://dc.lft.to/lastmile_qr_scan"}, "lat": 38.905125166666664, "name": "fa9f28b79e3f84cc01da3c99e985aed4", "lon": -77.034576, "is_reserved": 0, "bike_id": "fa9f28b79e3f84cc01da3c99e985aed4"}, {"fusion_lat": 0.0, "fusion_lon": 0.0, "is_disabled": 0, "type": "electric_scooter", "rental_uris": {"ios": "https://dc.lft.to/lastmile_qr_scan", "android": "https://dc.lft.to/lastmile_qr_scan"}, "lat": 38.920637666666664, "name": "6813536d271d1c5ad3bcce0e71d75224", "lon": -76.99905833333334, "is_reserved": 0, "bike_id": "6813536d271d1c5ad3bcce0e71d75224"}, {"fusion_lat": 0.0, "fusion_lon": 0.0, "is_disabled": 0, "type": "electric_scooter", "rental_uris": {"ios": "https://dc.lft.to/lastmile_qr_scan", "android": "https://dc.lft.to/lastmile_qr_scan"}, "lat": 38.91805383333333, "name": "5afd2e9eb8935f04c998f833c04a66d9", "lon": -77.02504583333334, "is_reserved": 0, "bike_id": "5afd2e9eb8935f04c998f833c04a66d9"}, {"fusion_lat": 0.0, "fusion_lon": 0.0, "is_disabled": 0, "type": "electric_scooter", "rental_uris": {"ios": "https://dc.lft.to/lastmile_qr_scan", "android": "https://dc.lft.to/lastmile_qr_scan"}, "lat": 38.89342216666667, "name": "1232fbd752157cf06da2cb0a2f5ee575", "lon": -77.0319725, "is_reserved": 0, "bike_id": "1232fbd752157cf06da2cb0a2f5ee575"}, {"fusion_lat": 0.0, "fusion_lon": 0.0, "is_disabled": 0, "type": "electric_scooter", "rental_uris": {"ios": "https://dc.lft.to/lastmile_qr_scan", "android": "https://dc.lft.to/lastmile_qr_scan"}, "lat": 38.906065166666664, "name": "9da193f6a803bf7817eff8e26c3415de", "lon": -77.02104633333333, "is_reserved": 0, "bike_id": "9da193f6a803bf7817eff8e26c3415de"}, {"fusion_lat": 0.0, "fusion_lon": 0.0, "is_disabled": 0, "type": "electric_scooter", "rental_uris": {"ios": "https://dc.lft.to/lastmile_qr_scan", "android": "https://dc.lft.to/lastmile_qr_scan"}, "lat": 38.92572933333334, "name": "1c38ae2f914f9e6154d7bb46d14dfec9", "lon": -77.0283725, "is_reserved": 0, "bike_id": "1c38ae2f914f9e6154d7bb46d14dfec9"},