{"data": {"bikes": [{"bike_id": "084395ce0b9b42c01784ee45e70c3dbe", "lat": 38.89533933333333, "is_reserved": 0, "fusion_lat": 0.0, "rental_uris": {"android": "https://dc.lft.to/lastmile_qr_scan", "ios": "https://dc.lft.to/lastmile_qr_scan"}, "fusion_lon": 0.0, "name": "084395ce0b9b42c01784ee45e70c3dbe", "lon": -77.024161, "is_disabled": 0, "type": "electric_scooter"}, {"bike_id": "b35334b9d6c1c5709e07d257bd72e2bf", "lat": 38.9083305, "is_reserved": 0, "fusion_lat": 0.0, "rental_uris": {"android": "https://dc.lft.to/lastmile_qr_scan", "ios": "https://dc.lft.to/lastmile_qr_scan"}, "fusion_lon": 0.0, "name": "b35334b9d6c1c5709e07d257bd72e2bf", "lon": -77.04365383333334, "is_disabled": 0, "type": "electric_scooter"}, {"bike_id": "ad04a4911525280abaa1ca1537e0b672", "lat": 38.92515083333333, "is_reserved": 0, "fusion_lat": 0.0, "rental_uris": {"android": "https://dc.lft.to/lastmile_qr_scan", "ios": "https://dc.lft.to/lastmile_qr_scan"}, "fusion_lon": 0.0, "name": "ad04a4911525280abaa1ca1537e0b672", "lon": -77.02360316666666, "is_disabled": 0, "type": "electric_scooter"}, {"bike_id": "0aaa204a7b131c12302881d1b02a6895", "lat": 38.91630683333333, "is_reserved": 0, "fusion_lat": 0.0, "rental_uris": {"android": "https://dc.lft.to/lastmile_qr_scan", "ios": "https://dc.lft.to/lastmile_qr_scan"}, "fusion_lon": 0.0, "name": "0aaa204a7b131c12302881d1b02a6895", "lon": -77.0304855, "is_disabled": 0, "type": "electric_scooter"}, {"bike_id": "bb3a33d097320fd713a30465d90cd5f9", "lat": 38.937040333333336, "is_reserved": 0, "fusion_lat": 0.0, "rental_uris": {"android": "https://dc.lft.to/lastmile_qr_scan", "ios": "https://dc.lft.to/lastmile_qr_scan"}, "fusion_lon": 0.0, "name": "bb3a33d097320fd713a30465d90cd5f9", "lon": -77.02405233333333, "is_disabled": 0, "type": "electric_scooter"}, {"bike_id": "03ba8c31c8cb8509559061a93108f666", "lat": 38.92204783333333, "is_reserved": 0, "fusion_lat": 0.0, "rental_uris": {"android": "https://dc.lft.to/lastmile_qr_scan", "ios": "https://dc.lft.to/lastmile_qr_scan"}, "fusion_lon": 0.0, "name": "03ba8c31c8cb8509559061a93108f666", "lon": -77.03395916666666, "is_disabled": 0, "type": "electric_scooter"}, {"bike_id": "cc34f8571cd395c1789fada181842cf3", "lat": 38.87376716666667, "is_reserved": 0, "fusion_lat": 0.0, "rental_uris": {"android": "https://dc.lft.to/lastmile_qr_scan", "ios": "https://dc.lft.to/lastmile_qr_scan"}, "fusion_lon": 0.0, "name": "cc34f8571cd395c1789fada181842cf3", "lon": -77.0006655, "is_disabled": 0, "type": "electric_scooter"}, {"bike_id": "eb3c5dd8db8cf41e8906560a6a55c19c", "lat": 38.89235, "is_reserved": 0, "fusion_lat": 0.0, "rental_uris": {"android": "https://dc.lft.to/lastmile_qr_scan", "ios": "https://dc.lft.to/lastmile_qr_scan"}, "fusion_lon": 0.0, "name": "eb3c5dd8db8cf41e8906560a6a55c19c", "lon": -77.04162133333334, "is_disabled": 0, "type": "electric_scooter"}, {"bike_id": "41ea7cbbf955e555d39c3b60ef0715a8", "lat": 38.910274, "is_reserved": 0, "fusion_lat": 0.0, "rental_uris": {"android": "https://dc.lft.to/lastmile_qr_scan", "ios": "https://dc.lft.to/lastmile_qr_scan"}, "fusion_lon": 0.0, "name": "41ea7cbbf955e555d39c3b60ef0715a8", "lon": -77.0276205, "is_disabled": 0, "type": "electric_scooter"}, {"bike_id": "7e82f926e68f145decff2dc8e0c3c356", "lat": 38.902224333333336, "is_reserved": 0, "fusion_lat": 0.0, "rental_uris": {"android": "https://dc.lft.to/lastmile_qr_scan", "ios": "https://dc.lft.to/lastmile_qr_scan"}, "fusion_lon": 0.0, "name": "7e82f926e68f145decff2dc8e0c3c356", "lon": -77.02314366666667, "is_disabled": 0, "type": "electric_scooter"}, {"bike_id": "6204d58dfca3a052e5f581aa3d35f171", "lat": 38.9170975, "is_reserved": 0, "fusion_lat": 0.0, "rental_uris": {"android": "https://dc.lft.to/lastmile_qr_scan", "ios": "https://dc.lft.to/lastmile_qr_scan"}, "fusion_lon": 0.0, "name": "6204d58dfca3a052e5f581aa3d35f171", "lon": -77.034765, "is_disabled": 0, "type": "electric_scooter"}, {"bike_id": "eb21adc73d942a7e22d36bee9512b5e9", "lat": 38.92064516666667, "is_reserved": 0, "fusion_lat": 0.0, "rental_uris": {"android": "https://dc.lft.to/lastmile_qr_scan", "ios": "https://dc.lft.to/lastmile_qr_scan"}, "fusion_lon": 0.0, "name": "eb21adc73d942a7e22d36bee9512b5e9", "lon": -77.01477916666667, "is_disabled": 0, "type": "electric_scooter"}, {"bike_id": "7ebdf40f56c0dc90bdfecabf89ee633b", "lat": 38.89731183333333, "is_reserved": 0, "fusion_lat": 0.0, "rental_uris": {"android": "https://dc.lft.to/lastmile_qr_scan", "ios": "https://dc.lft.to/lastmile_qr_scan"}, "fusion_lon": 0.0, "name": "7ebdf40f56c0dc90bdfecabf89ee633b", "lon": -77.017662, "is_disabled": 0, "type": "electric_scooter"}, {"bike_id": "309a991d2a8819da8056963077796430", "lat": 38.916927, "is_reserved": 0, "fusion_lat": 0.0, "rental_uris": {"android": "https://dc.lft.to/lastmile_qr_scan", "ios": "https://dc.lft.to/lastmile_qr_scan"}, "fusion_lon": 0.0, "name": "309a991d2a8819da8056963077796430", "lon": -77.0296255, "is_disabled": 0, "type": "electric_scooter"}, {"bike_id": "2f56543ab1a671abfb03667d00f9012f", "lat": 38.89741766666667, "is_reserved": 0, "fusion_lat": 0.0, "rental_uris": {"android": "https://dc.lft.to/lastmile_qr_scan", "ios": "https://dc.lft.to/lastmile_qr_scan"}, "fusion_lon": 0.0, "name": "2f56543ab1a671abfb03667d00f9012f", "lon": -77.02461433333333, "is_disabled": 0, "type": "electric_scooter"}, {"bike_id": "9501a0307dbc3c9ccc5c1945114d3ec5", "lat": 38.93296016666667, "is_reserved": 0, "fusion_lat": 0.0, "rental_uris": {"android": "https://dc.lft.to/lastmile_qr_scan", "ios": "https://dc.lft.to/lastmile_qr_scan"}, "fusion_lon": 0.0, "name": "9501a0307dbc3c9ccc5c1945114d3ec5", "lon": -77.0854535, "is_disabled": 0, "type": "electric_scooter"}, {"bike_id": "c1fde9e48eea213f051c475e6909866d", "lat": 38.911118333333334, "is_reserved": 0, "fusion_lat": 0.0, "rental_uris": {"android": "https://dc.lft.to/lastmile_qr_scan", "ios": "https://dc.lft.to/lastmile_qr_scan"}, "fusion_lon": 0.0, "name": "c1fde9e48eea213f051c475e6909866d", "lon": -77.04506783333333, "is_disabled": 0, "type": "electric_scooter"}, {"bike_id": "6779fba841f863daf64f31d9e38ad5a4", "lat": 38.872436666666665, "is_reserved": 0, "fusion_lat": 0.0, "rental_uris": {"android": "https://dc.lft.to/lastmile_qr_scan", "ios": "https://dc.lft.to/lastmile_qr_scan"}, "fusion_lon": 0.0, "name": "6779fba841f863daf64f31d9e38ad5a4", "lon": -76.9772675, "is_disabled": 0, "type": "electric_scooter"}, {"bike_id": "c38a797e4e94edd8a680309133d22d67", "lat": 38.9240785, "is_reserved": 0, "fusion_lat": 0.0, "rental_uris": {"android": "https://dc.lft.to/lastmile_qr_scan", "ios": "https://dc.lft.to/lastmile_qr_scan"}, "fusion_lon": 0.0, "name": "c38a797e4e94edd8a680309133d22d67", "lon": -77.02079633333334, "is_disabled": 0, "type": "electric_scooter"}, {"bike_id": "ce461cccd295f829ed67cc4088e19115", "lat": 38.90963416666666, "is_reserved": 0, "fusion_lat": 0.0, "rental_uris": {"android": "https://dc.lft.to/lastmile_qr_scan", "ios": "https://dc.lft.to/lastmile_qr_scan"}, "fusion_lon": 0.0, "name": "ce461cccd295f829ed67cc4088e19115", "lon": -77.02408033333333, "is_disabled": 0, "type": "electric_scooter"}, {"bike_id": "e537363784477357788ab206d4fe6d3b", "lat": 38.87374783333333, "is_reserved": 0, "fusion_lat": 0.0, "rental_uris": {"android": "https://dc.lft.to/lastmile_qr_scan", "ios": "https://dc.lft.to/lastmile_qr_scan"}, "fusion_lon": 0.0, "name": "e537363784477357788ab206d4fe6d3b", "lon": -77.00071883333334, "is_disabled": 0, "type": "electric_scooter"}, {"bike_id": "05683c5fda26971678ed81ea930b7412", "lat": 38.885355, "is_reserved": 0, "fusion_lat": 0.0, "rental_uris": {"android": "https://dc.lft.to/lastmile_qr_scan", "ios": "https://dc.lft.to/lastmile_qr_scan"}, "fusion_lon": 0.0, "name": "05683c5fda26971678ed81ea930b7412", "lon": -76.99824833333334, "is_disabled": 0, "type": "electric_scooter"}, {"bike_id": "fbbe128643d9aac2a9090f0028adea4a", "lat": 38.91554166666667, "is_reserved": 0, "fusion_lat": 0.0, "rental_uris": {"android": "https://dc.lft.to/lastmile_qr_scan", "ios": "https://dc.lft.to/lastmile_qr_scan"}, "fusion_lon": 0.0, "name": "fbbe128643d9aac2a9090f0028adea4a", "lon": -77.0064975, "is_disabled": 0, "type": "electric_scooter"}, {"bike_id": "9a59c17c9f278d95dfcfbfaafc76bb37", "lat": 38.91184716666667, "is_reserved": 0, "fusion_lat": 0.0, "rental_uris": {"android": "https://dc.lft.to/lastmile_qr_scan", "ios": "https://dc.lft.to/lastmile_qr_scan"}, "fusion_lon": 0.0, "name": "9a59c17c9f278d95dfcfbfaafc76bb37", "lon": -77.01214483333334, "is_disabled": 0, "type": "electric_scooter"}, {"bike_id": "b45cee065236f49a92d5baa9393d4e40", "lat": 38.9013985, "is_reserved": 0, "fusion_lat": 0.0, "rental_uris": {"android": "https://dc.lft.to/lastmile_qr_scan", "ios": "https://dc.lft.to/lastmile_qr_scan"}, "fusion_lon": 0.0, "name": "b45cee065236f49a92d5baa9393d4e40", "lon": -77.028021, "is_disabled": 0, "type": "electric_scooter"}, {"bike_id": "6230a41af7d249f1aa40a98952b85af5", "lat": 38.923485, "is_reserved": 0, "fusion_lat": 0.0, "rental_uris": {"android": "https://dc.lft.to/lastmile_qr_scan", "ios": "https://dc.lft.to/lastmile_qr_scan"}, "fusion_lon": 0.0, "name": "6230a41af7d249f1aa40a98952b85af5", "lon": -77.05120816666667, "is_disabled": 0, "type": "electric_scooter"}, {"bike_id": "2a17c7dac5b1ec2b3f1ddc01e0703e83", "lat": 38.91742583333333, "is_reserved": 0, "fusion_lat": 0.0, "rental_uris": {"android": "https://dc.lft.to/lastmile_qr_scan", "ios": "https://dc.lft.to/lastmile_qr_scan"}, "fusion_lon": 0.0, "name": "2a17c7dac5b1ec2b3f1ddc01e0703e83", "lon": -77.03169133333333, "is_disabled": 0, "type": "electric_scooter"}, {"bike_id": "2e88bc57daf21fa2a5de1ee551081abc", "lat": 38.9579385, "is_reserved": 0, "fusion_lat": 0.0, "rental_uris": {"android": "https://dc.lft.to/lastmile_qr_scan", "ios": "https://dc.lft.to/lastmile_qr_scan"}, "fusion_lon": 0.0, "name": "2e88bc57daf21fa2a5de1ee551081abc", "lon": -77.03220016666667, "is_disabled": 0, "type": "electric_scooter"}, {"bike_id": "1c148f46c9d092c5f681748f237069d5", "lat": 38.97399466666667, "is_reserved": 0, "fusion_lat": 0.0, "rental_uris": {"android": "https://dc.lft.to/lastmile_qr_scan", "ios": "https://dc.lft.to/lastmile_qr_scan"}, "fusion_lon": 0.0, "name": "1c148f46c9d092c5f681748f237069d5", "lon": -77.064567, "is_disabled": 0, "type": "electric_bike"}, {"bike_id": "9a12b73d59abb4f5e39d88a2c360ce5e", "lat": 38.925099, "is_reserved": 0, "fusion_lat": 0.0, "rental_uris": {"android": "https://dc.lft.to/lastmile_qr_scan", "ios": "https://dc.lft.to/lastmile_qr_scan"}, "fusion_lon": 0.0, "name": "9a12b73d59abb4f5e39d88a2c360ce5e", "lon": -77.0022445, "is_disabled": 0, "type": "electric_scooter"}, {"bike_id": "df558b6b43103982b048f74a1eec2a18", "lat": 38.913912333333336, "is_reserved": 0, "fusion_lat": 0.0, "rental_uris": {"android": "https://dc.lft.to/lastmile_qr_scan", "ios": "https://dc.lft.to/lastmile_qr_scan"}, "fusion_lon": 0.0, "name": "df558b6b43103982b048f74a1eec2a18", "lon": -77.04609516666666, "is_disabled": 0, "type": "electric_scooter"}, {"bike_id": "5311d5e73e5270285ef0f221b2331fe6", "lat": 38.92023533333333, "is_reserved": 0, "fusion_lat": 0.0, "rental_uris": {"android": "https://dc.lft.to/lastmile_qr_scan", "ios": "https://dc.lft.to/lastmile_qr_scan"}, "fusion_lon": 0.0, "name": "5311d5e73e5270285ef0f221b2331fe6", "lon": -77.01791833333333, "is_disabled": 0, "type": "electric_scooter"}, {"bike_id": "80591fe9b39259c05b737b8bbaa2855f", "lat": 38.893893166666665, "is_reserved": 0, "fusion_lat": 0.0, "rental_uris": {"android": "https://dc.lft.to/lastmile_qr_scan", "ios": "https://dc.lft.to/lastmile_qr_scan"}, "fusion_lon": 0.0, "name": "80591fe9b39259c05b737b8bbaa2855f", "lon": -77.0226875, "is_disabled": 0, "type": "electric_scooter"}, {"bike_id": "75a330f294bb2dc34593c30743f7b4f2", "lat": 38.89853183333334, "is_reserved": 0, "fusion_lat": 0.0, "rental_uris": {"android": "https://dc.lft.to/lastmile_qr_scan", "ios": "https://dc.lft.to/lastmile_qr_scan"}, "fusion_lon": 0.0, "name": "75a330f294bb2dc34593c30743f7b4f2", "lon": -76.92906766666667, "is_disabled": 0, "type": "electric_scooter"}, {"bike_id": "2c90e88ddfd851821669c63c5af16bb4", "lat": 38.91825333333333, "is_reserved": 0, "fusion_lat": 0.0, "rental_uris": {"android": "https://dc.lft.to/lastmile_qr_scan", "ios": "https://dc.lft.to/lastmile_qr_scan"}, "fusion_lon": 0.0, "name": "2c90e88ddfd851821669c63c5af16bb4", "lon": -77.04927166666667, "is_disabled": 0, "type": "electric_scooter"}, {"bike_id": "eb121aabfcb130681180bb435417fed7", "lat": 38.94823016666667, "is_reserved": 0, "fusion_lat": 0.0, "rental_uris": {"android": "https://dc.lft.to/lastmile_qr_scan", "ios": "https://dc.lft.to/lastmile_qr_scan"}, "fusion_lon": 0.0, "name": "eb121aabfcb130681180bb435417fed7", "lon": -77.0248725, "is_disabled": 0, "type": "electric_scooter"}, {"bike_id": "1eb2ad4d3922c3af895ac825f1cfd1f7", "lat": 38.902610333333335, "is_reserved": 0, "fusion_lat": 0.0, "rental_uris": {"android": "https://dc.lft.to/lastmile_qr_scan", "ios": "https://dc.lft.to/lastmile_qr_scan"}, "fusion_lon": 0.0, "name": "1eb2ad4d3922c3af895ac825f1cfd1f7", "lon": -77.03431, "is_disabled": 0, "type": "electric_scooter"}, {"bike_id": "da0155657870845dfe85308172bae691", "lat": 38.9142775, "is_reserved": 0, "fusion_lat": 0.0, "rental_uris": {"android": "https://dc.lft.to/lastmile_qr_scan", "ios": "https://dc.lft.to/lastmile_qr_scan"}, "fusion_lon": 0.0, "name": "da0155657870845dfe85308172bae691", "lon": -77.0318705, "is_disabled": 0, "type": "electric_scooter"}, {"bike_id": "cb846bcb24afe0bdd53814a60ab7f682", "lat": 38.903565, "is_reserved": 0, "fusion_lat": 0.0, "rental_uris": {"android": "https://dc.lft.to/lastmile_qr_scan", "ios": "https://dc.lft.to/lastmile_qr_scan"}, "fusion_lon": 0.0, "name": "cb846bcb24afe0bdd53814a60ab7f682", "lon": -77.04503833333334, "is_disabled": 0, "type": "electric_bike"}, {"bike_id": "6715902a29a62e7fea6b6626599f7045", "lat": 38.92250466666667, "is_reserved": 0, "fusion_lat": 0.0, "rental_uris": {"android": "https://dc.lft.to/lastmile_qr_scan", "ios": "https://dc.lft.to/lastmile_qr_scan"}, "fusion_lon": 0.0, "name": "6715902a29a62e7fea6b6626599f7045", "lon": -77.0427265, "is_disabled": 0, "type": "electric_scooter"}, {"bike_id": "317c25f291d00cd1445da1f8c1ae925a", "lat": 38.912671833333334, "is_reserved": 0, "fusion_lat": 0.0, "rental_uris": {"android": "https://dc.lft.to/lastmile_qr_scan", "ios": "https://dc.lft.to/lastmile_qr_scan"}, "fusion_lon": 0.0, "name": "317c25f291d00cd1445da1f8c1ae925a", "lon": -77.02214533333333, "is_disabled": 0, "type": "electric_scooter"}, {"bike_id": "cd3223643a84aa3e2c9b7da490224206", "lat": 38.93055183333333, "is_reserved": 0, "fusion_lat": 0.0, "rental_uris": {"android": "https://dc.lft.to/lastmile_qr_scan", "ios": "https://dc.lft.to/lastmile_qr_scan"}, "fusion_lon": 0.0, "name": "cd3223643a84aa3e2c9b7da490224206", "lon": -77.04262433333334, "is_disabled": 0, "type": "electric_scooter"}, {"bike_id": "f408353ebe38ab910670455345cc6852", "lat": 38.9068135, "is_reserved": 0, "fusion_lat": 0.0, "rental_uris": {"android": "https://dc.lft.to/lastmile_qr_scan", "ios": "https://dc.lft.to/lastmile_qr_scan"}, "fusion_lon": 0.0, "name": "f408353ebe38ab910670455345cc6852", "lon": -76.9799895, "is_disabled": 0, "type": "electric_scooter"}, {"bike_id": "60cbfc2deef1f973731fabacdc385da7", "lat": 38.877051333333334, "is_reserved": 0, "fusion_lat": 0.0, "rental_uris": {"android": "https://dc.lft.to/lastmile_qr_scan", "ios": "https://dc.lft.to/lastmile_qr_scan"}, "fusion_lon": 0.0, "name": "60cbfc2deef1f973731fabacdc385da7", "lon": -77.01763033333333, "is_disabled": 0, "type": "electric_scooter"}, {"bike_id": "9a63c69700df5d1716d62ee27c0abfbc", "lat": 38.88397633333334, "is_reserved": 0, "fusion_lat": 0.0, "rental_uris": {"android": "https://dc.lft.to/lastmile_qr_scan", "ios": "https://dc.lft.to/lastmile_qr_scan"}, "fusion_lon": 0.0, "name": "9a63c69700df5d1716d62ee27c0abfbc", "lon": -77.02006133333333, "is_disabled": 0, "type": "electric_scooter"}, {"bike_id": "15a95ecd8c10e1ebfc9ae9e1a812995d", "lat": 38.920542833333336, "is_reserved": 0, "fusion_lat": 0.0, "rental_uris": {"android": "https://dc.lft.to/lastmile_qr_scan", "ios": "https://dc.lft.to/lastmile_qr_scan"}, "fusion_lon": 0.0, "name": "15a95ecd8c10e1ebfc9ae9e1a812995d", "lon": -77.03344966666667, "is_disabled": 0, "type": "electric_scooter"}, {"bike_id": "a0e57e4f7abb9c11ab757698ae60ab77", "lat": 38.851769166666664, "is_reserved": 0, "fusion_lat": 0.0, "rental_uris": {"android": "https://dc.lft.to/lastmile_qr_scan", "ios": "https://dc.lft.to/lastmile_qr_scan"}, "fusion_lon": 0.0, "name": "a0e57e4f7abb9c11ab757698ae60ab77", "lon": -76.9958195, "is_disabled": 0, "type": "electric_scooter"}, {"bike_id": "81b68ec621b631cd4e216d74c7ff4654", "lat": 38.89359066666667, "is_reserved": 0, "fusion_lat": 0.0, "rental_uris": {"android": "https://dc.lft.to/lastmile_qr_scan", "ios": "https://dc.lft.to/lastmile_qr_scan"}, "fusion_lon": 0.0, "name": "81b68ec621b631cd4e216d74c7ff4654", "lon": -77.02218533333334, "is_disabled": 0, "type": "electric_scooter"}, {"bike_id": "d6d8cd14d78e674d97bf366fb83b00f5", "lat": 38.905495, "is_reserved": 0, "fusion_lat": 0.0, "rental_uris": {"android": "https://dc.lft.to/lastmile_qr_scan", "ios": "https://dc.lft.to/lastmile_qr_scan"}, "fusion_lon": 0.0, "name": "d6d8cd14d78e674d97bf366fb83b00f5", "lon": -77.044914, "is_disabled": 0, "type": "electric_scooter"}, {"bike_id": "a9ca942f494857fd5db047e4630c92b2", "lat": 38.89871466666666, "is_reserved": 0, "fusion_lat": 0.0, "rental_uris": {"android": "https://dc.lft.to/lastmile_qr_scan", "ios": "https://dc.lft.to/lastmile_qr_scan"}, "fusion_lon": 0.0, "name": "a9ca942f494857fd5db047e4630c92b2", "lon": -77.02167233333333, "is_disabled": 0, "type": "electric_scooter"}, {"bike_id": "53807f2eeca019a6f93eea52d345d3ce", "lat": 38.92475566666667, "is_reserved": 0, "fusion_lat": 0.0, "rental_uris": {"android": "https://dc.lft.to/lastmile_qr_scan", "ios": "https://dc.lft.to/lastmile_qr_scan"}, "fusion_lon": 0.0, "name": "53807f2eeca019a6f93eea52d345d3ce", "lon": -77.02896266666667, "is_disabled": 0, "type": "electric_scooter"}, {"bike_id": "cece2205faf5467b644cb92b91f47017", "lat": 38.91010766666667, "is_reserved": 0, "fusion_lat": 0.0, "rental_uris": {"android": "https://dc.lft.to/lastmile_qr_scan", "ios": "https://dc.lft.to/lastmile_qr_scan"}, "fusion_lon": 0.0, "name": "cece2205faf5467b644cb92b91f47017", "lon": -77.04504866666667, "is_disabled": 0, "type": "electric_scooter"}, {"bike_id": "1e0206c977d0905e1cf3dac2d663204e", "lat": 38.89489283333333, "is_reserved": 0, "fusion_lat": 0.0, "rental_uris": {"android": "https://dc.lft.to/lastmile_qr_scan", "ios": "https://dc.lft.to/lastmile_qr_scan"}, "fusion_lon": 0.0, "name": "1e0206c977d0905e1cf3dac2d663204e", "lon": -77.02181383333334, "is_disabled": 0, "type": "electric_scooter"}, {"bike_id": "b78b6c590cdf947d4479257e120abaa7", "lat": 38.917418833333336, "is_reserved": 0, "fusion_lat": 0.0, "rental_uris": {"android": "https://dc.lft.to/lastmile_qr_scan", "ios": "https://dc.lft.to/lastmile_qr_scan"}, "fusion_lon": 0.0, "name": "b78b6c590cdf947d4479257e120abaa7", "lon": -77.0211705, "is_disabled": 0, "type": "electric_scooter"}, {"bike_id": "7ad09df07851387745c9b76d6837d2ea", "lat": 38.927001833333335, "is_reserved": 0, "fusion_lat": 0.0, "rental_uris": {"android": "https://dc.lft.to/lastmile_qr_scan", "ios": "https://dc.lft.to/lastmile_qr_scan"}, "fusion_lon": 0.0, "name": "7ad09df07851387745c9b76d6837d2ea", "lon": -77.03570416666666, "is_disabled": 0, "type": "electric_scooter"}, {"bike_id": "c9c1efa8ac9de5baba7c745ed06231d0", "lat": 38.844328, "is_reserved": 0, "fusion_lat": 0.0, "rental_uris": {"android": "https://dc.lft.to/lastmile_qr_scan", "ios": "https://dc.lft.to/lastmile_qr_scan"}, "fusion_lon": 0.0, "name": "c9c1efa8ac9de5baba7c745ed06231d0", "lon": -76.998699, "is_disabled": 0, "type": "electric_scooter"}, {"bike_id": "4be9038072d35a28b7723fd4f623f3d2", "lat": 38.916954833333335, "is_reserved": 0, "fusion_lat": 0.0, "rental_uris": {"android": "https://dc.lft.to/lastmile_qr_scan", "ios": "https://dc.lft.to/lastmile_qr_scan"}, "fusion_lon": 0.0, "name": "4be9038072d35a28b7723fd4f623f3d2", "lon": -77.02600083333333, "is_disabled": 0, "type": "electric_scooter"}, {"bike_id": "dcbdbf2582356702b7428c5e7187d9c9", "lat": 38.9500425, "is_reserved": 0, "fusion_lat": 0.0, "rental_uris": {"android": "https://dc.lft.to/lastmile_qr_scan", "ios": "https://dc.lft.to/lastmile_qr_scan"}, "fusion_lon": 0.0, "name": "dcbdbf2582356702b7428c5e7187d9c9", "lon": -77.01843033333333, "is_disabled": 0, "type": "electric_scooter"}, {"bike_id": "c8a8d1c265ad2e191d1268ed23302040", "lat": 38.85518783333333, "is_reserved": 0, "fusion_lat": 0.0, "rental_uris": {"android": "https://dc.lft.to/lastmile_qr_scan", "ios": "https://dc.lft.to/lastmile_qr_scan"}, "fusion_lon": 0.0, "name": "c8a8d1c265ad2e191d1268ed23302040", "lon": -77.12045816666667, "is_disabled": 0, "type": "electric_bike"}, {"bike_id": "3bac8abbed70045ee77bbdc1137abe2e", "lat": 38.916879333333334, "is_reserved": 0, "fusion_lat": 0.0, "rental_uris": {"android": "https://dc.lft.to/lastmile_qr_scan", "ios": "https://dc.lft.to/lastmile_qr_scan"}, "fusion_lon": 0.0, "name": "3bac8abbed70045ee77bbdc1137abe2e", "lon": -77.02971183333334, "is_disabled": 0, "type": "electric_scooter"}, {"bike_id": "4e9680c3182653916ab8c009e6ffbd0b", "lat": 38.899033, "is_reserved": 0, "fusion_lat": 0.0, "rental_uris": {"android": "https://dc.lft.to/lastmile_qr_scan", "ios": "https://dc.lft.to/lastmile_qr_scan"}, "fusion_lon": 0.0, "name": "4e9680c3182653916ab8c009e6ffbd0b", "lon": -77.03298183333334, "is_disabled": 0, "type": "electric_scooter"}, {"bike_id": "0e2e3ebc6714db07a80bc78548941824", "lat": 38.885252666666666, "is_reserved": 0, "fusion_lat": 0.0, "rental_uris": {"android": "https://dc.lft.to/lastmile_qr_scan", "ios": "https://dc.lft.to/lastmile_qr_scan"}, "fusion_lon": 0.0, "name": "0e2e3ebc6714db07a80bc78548941824", "lon": -76.99084966666666, "is_disabled": 0, "type": "electric_scooter"}, {"bike_id": "782a35ae14fb2e435640e5e5fa5587c1", "lat": 38.902645, "is_reserved": 0, "fusion_lat": 0.0, "rental_uris": {"android": "https://dc.lft.to/lastmile_qr_scan", "ios": "https://dc.lft.to/lastmile_qr_scan"}, "fusion_lon": 0.0, "name": "782a35ae14fb2e435640e5e5fa5587c1", "lon": -77.03943866666667, "is_disabled": 0, "type": "electric_scooter"}, {"bike_id": "44145929cebc3d01b73c93be72f3f223", "lat": 38.92045566666667, "is_reserved": 0, "fusion_lat": 0.0, "rental_uris": {"android": "https://dc.lft.to/lastmile_qr_scan", "ios": "https://dc.lft.to/lastmile_qr_scan"}, "fusion_lon": 0.0, "name": "44145929cebc3d01b73c93be72f3f223", "lon": -77.017702, "is_disabled": 0, "type": "electric_scooter"}, {"bike_id": "741cb85c00dfd7e10452a348e7461377", "lat": 38.908679666666664, "is_reserved": 0, "fusion_lat": 0.0, "rental_uris": {"android": "https://dc.lft.to/lastmile_qr_scan", "ios": "https://dc.lft.to/lastmile_qr_scan"}, "fusion_lon": 0.0, "name": "741cb85c00dfd7e10452a348e7461377", "lon": -76.99784466666667, "is_disabled": 0, "type": "electric_scooter"}, {"bike_id": "3911cb0a50aa562af9ed57d2754e706d", "lat": 38.899783166666666, "is_reserved": 0, "fusion_lat": 0.0, "rental_uris": {"android": "https://dc.lft.to/lastmile_qr_scan", "ios": "https://dc.lft.to/lastmile_qr_scan"}, "fusion_lon": 0.0, "name": "3911cb0a50aa562af9ed57d2754e706d", "lon": -76.9961695, "is_disabled": 0, "type": "electric_scooter"}, {"bike_id": "9457c12014f704389201d2f48ae51886", "lat": 38.9288885, "is_reserved": 0, "fusion_lat": 0.0, "rental_uris": {"android": "https://dc.lft.to/lastmile_qr_scan", "ios": "https://dc.lft.to/lastmile_qr_scan"}, "fusion_lon": 0.0, "name": "9457c12014f704389201d2f48ae51886", "lon": -77.037296, "is_disabled": 0, "type": "electric_scooter"}, {"bike_id": "bcc57af1f0d583b157d1ccee323f7b4f", "lat": 38.96555033333333, "is_reserved": 0, "fusion_lat": 0.0, "rental_uris": {"android": "https://dc.lft.to/lastmile_qr_scan", "ios": "https://dc.lft.to/lastmile_qr_scan"}, "fusion_lon": 0.0, "name": "bcc57af1f0d583b157d1ccee323f7b4f", "lon": -77.03627083333333, "is_disabled": 0, "type": "electric_scooter"}, {"bike_id": "bf5ad7fb67872a6d80ab7c53dc85785a", "lat": 38.90549866666667, "is_reserved": 0, "fusion_lat": 0.0, "rental_uris": {"android": "https://dc.lft.to/lastmile_qr_scan", "ios": "https://dc.lft.to/lastmile_qr_scan"}, "fusion_lon": 0.0, "name": "bf5ad7fb67872a6d80ab7c53dc85785a", "lon": -77.04481366666667, "is_disabled": 0, "type": "electric_scooter"}, {"bike_id": "6f4454a60fb763c347485bb597445546", "lat": 38.924554, "is_reserved": 0, "fusion_lat": 0.0, "rental_uris": {"android": "https://dc.lft.to/lastmile_qr_scan", "ios": "https://dc.lft.to/lastmile_qr_scan"}, "fusion_lon": 0.0, "name": "6f4454a60fb763c347485bb597445546", "lon": -77.03964633333334, "is_disabled": 0, "type": "electric_scooter"}, {"bike_id": "982d535998ba3747565790616a629258", "lat": 38.90067766666667, "is_reserved": 0, "fusion_lat": 0.0, "rental_uris": {"android": "https://dc.lft.to/lastmile_qr_scan", "ios": "https://dc.lft.to/lastmile_qr_scan"}, "fusion_lon": 0.0, "name": "982d535998ba3747565790616a629258", "lon": -77.04534083333333, "is_disabled": 0, "type": "electric_scooter"}, {"bike_id": "a9e581046727d136189c3a5df7fa79e5", "lat": 38.8789145, "is_reserved": 0, "fusion_lat": 0.0, "rental_uris": {"android": "https://dc.lft.to/lastmile_qr_scan", "ios": "https://dc.lft.to/lastmile_qr_scan"}, "fusion_lon": 0.0, "name": "a9e581046727d136189c3a5df7fa79e5", "lon": -77.02330833333333, "is_disabled": 0, "type": "electric_scooter"}, {"bike_id": "31396fd423dbe08458e61c4b8cf48f7f", "lat": 38.94923433333334, "is_reserved": 0, "fusion_lat": 0.0, "rental_uris": {"android": "https://dc.lft.to/lastmile_qr_scan", "ios": "https://dc.lft.to/lastmile_qr_scan"}, "fusion_lon": 0.0, "name": "31396fd423dbe08458e61c4b8cf48f7f", "lon": -77.00795516666666, "is_disabled": 0, "type": "electric_bike"}, {"bike_id": "2f29b65e724c60f50e05d9da962f75cd", "lat": 38.87169166666666, "is_reserved": 0, "fusion_lat": 0.0, "rental_uris": {"android": "https://dc.lft.to/lastmile_qr_scan", "ios": "https://dc.lft.to/lastmile_qr_scan"}, "fusion_lon": 0.0, "name": "2f29b65e724c60f50e05d9da962f75cd", "lon": -77.00681233333333, "is_disabled": 0, "type": "electric_scooter"}, {"bike_id": "16a5f62218f378a7334a7bb005813fdd", "lat": 38.897419166666666, "is_reserved": 0, "fusion_lat": 0.0, "rental_uris": {"android": "https://dc.lft.to/lastmile_qr_scan", "ios": "https://dc.lft.to/lastmile_qr_scan"}, "fusion_lon": 0.0, "name": "16a5f62218f378a7334a7bb005813fdd", "lon": -77.02775483333333, "is_disabled": 0, "type": "electric_scooter"}, {"bike_id": "41835cbc107c1e1e452b037188b53a06", "lat": 38.9319165, "is_reserved": 0, "fusion_lat": 0.0, "rental_uris": {"android": "https://dc.lft.to/lastmile_qr_scan", "ios": "https://dc.lft.to/lastmile_qr_scan"}, "fusion_lon": 0.0, "name": "41835cbc107c1e1e452b037188b53a06", "lon": -77.0842655, "is_disabled": 0, "type": "electric_scooter"}, {"bike_id": "ec43414d62749aee1cc277af254ea32f", "lat": 38.93066816666666, "is_reserved": 0, "fusion_lat": 0.0, "rental_uris": {"android": "https://dc.lft.to/lastmile_qr_scan", "ios": "https://dc.lft.to/lastmile_qr_scan"}, "fusion_lon": 0.0, "name": "ec43414d62749aee1cc277af254ea32f", "lon": -77.03903033333333, "is_disabled": 0, "type": "electric_scooter"}, {"bike_id": "461dbf35106b9b04f005f07e9556a1e9", "lat": 38.929385333333336, "is_reserved": 0, "fusion_lat": 0.0, "rental_uris": {"android": "https://dc.lft.to/lastmile_qr_scan", "ios": "https://dc.lft.to/lastmile_qr_scan"}, "fusion_lon": 0.0, "name": "461dbf35106b9b04f005f07e9556a1e9", "lon": -77.03260016666667, "is_disabled": 0, "type": "electric_scooter"}, {"bike_id": "55d227faf880370bd46976ab599f039b", "lat": 38.898957333333335, "is_reserved": 0, "fusion_lat": 0.0, "rental_uris": {"android": "https://dc.lft.to/lastmile_qr_scan", "ios": "https://dc.lft.to/lastmile_qr_scan"}, "fusion_lon": 0.0, "name": "55d227faf880370bd46976ab599f039b", "lon": -76.97682216666666, "is_disabled": 0, "type": "electric_scooter"}, {"bike_id": "a1a951436f34de302a05d2b62443c774", "lat": 38.87714066666667, "is_reserved": 0, "fusion_lat": 0.0, "rental_uris": {"android": "https://dc.lft.to/lastmile_qr_scan", "ios": "https://dc.lft.to/lastmile_qr_scan"}, "fusion_lon": 0.0, "name": "a1a951436f34de302a05d2b62443c774", "lon": -77.01765583333334, "is_disabled": 0, "type": "electric_scooter"}, {"bike_id": "123d10d4dc7c894569e845dd6eb02d31", "lat": 38.8193805, "is_reserved": 0, "fusion_lat": 0.0, "rental_uris": {"android": "https://dc.lft.to/lastmile_qr_scan", "ios": "https://dc.lft.to/lastmile_qr_scan"}, "fusion_lon": 0.0, "name": "123d10d4dc7c894569e845dd6eb02d31", "lon": -77.002068, "is_disabled": 0, "type": "electric_bike"}, {"bike_id": "2e2898e98c5eb134afe5d74a89e82b44", "lat": 38.907378333333334, "is_reserved": 0, "fusion_lat": 0.0, "rental_uris": {"android": "https://dc.lft.to/lastmile_qr_scan", "ios": "https://dc.lft.to/lastmile_qr_scan"}, "fusion_lon": 0.0, "name": "2e2898e98c5eb134afe5d74a89e82b44", "lon": -77.04182283333333, "is_disabled": 0, "type": "electric_scooter"}, {"bike_id": "5185853304c210ffa1b06eebff5b53f3", "lat": 38.90143316666666, "is_reserved": 0, "fusion_lat": 0.0, "rental_uris": {"android": "https://dc.lft.to/lastmile_qr_scan", "ios": "https://dc.lft.to/lastmile_qr_scan"}, "fusion_lon": 0.0, "name": "5185853304c210ffa1b06eebff5b53f3", "lon": -77.0416735, "is_disabled": 0, "type": "electric_scooter"}, {"bike_id": "8e7b17903f49d8f775ff0bdb18f7efa0", "lat": 38.904002166666665, "is_reserved": 0, "fusion_lat": 0.0, "rental_uris": {"android": "https://dc.lft.to/lastmile_qr_scan", "ios": "https://dc.lft.to/lastmile_qr_scan"}, "fusion_lon": 0.0, "name": "8e7b17903f49d8f775ff0bdb18f7efa0", "lon": -77.06298, "is_disabled": 0, "type": "electric_scooter"}, {"bike_id": "4c2f86ab7b92b6e812e9521919715e74", "lat": 38.915755, "is_reserved": 0, "fusion_lat": 0.0, "rental_uris": {"android": "https://dc.lft.to/lastmile_qr_scan", "ios": "https://dc.lft.to/lastmile_qr_scan"}, "fusion_lon": 0.0, "name": "4c2f86ab7b92b6e812e9521919715e74", "lon": -77.03394916666667, "is_disabled": 0, "type": "electric_scooter"}, {"bike_id": "bab7b97738fcee119bf3431bce1ce678", "lat": 38.91685416666667, "is_reserved": 0, "fusion_lat": 0.0, "rental_uris": {"android": "https://dc.lft.to/lastmile_qr_scan", "ios": "https://dc.lft.to/lastmile_qr_scan"}, "fusion_lon": 0.0, "name": "bab7b97738fcee119bf3431bce1ce678", "lon": -77.02283516666667, "is_disabled": 0, "type": "electric_scooter"}, {"bike_id": "f419e7c86fbcd379eb7fbc74e7187286", "lat": 38.90960583333333, "is_reserved": 0, "fusion_lat": 0.0, "rental_uris": {"android": "https://dc.lft.to/lastmile_qr_scan", "ios": "https://dc.lft.to/lastmile_qr_scan"}, "fusion_lon": 0.0, "name": "f419e7c86fbcd379eb7fbc74e7187286", "lon": -77.033788, "is_disabled": 0, "type": "electric_scooter"}, {"bike_id": "f3b3ed57b2d8a4aa420da96865b7bac0", "lat": 38.8998615, "is_reserved": 0, "fusion_lat": 0.0, "rental_uris": {"android": "https://dc.lft.to/lastmile_qr_scan", "ios": "https://dc.lft.to/lastmile_qr_scan"}, "fusion_lon": 0.0, "name": "f3b3ed57b2d8a4aa420da96865b7bac0", "lon": -77.03230583333334, "is_disabled": 0, "type": "electric_scooter"}, {"bike_id": "48d4662898f94a7b8e3520ce2f6a3f96", "lat": 38.898436833333335, "is_reserved": 0, "fusion_lat": 0.0, "rental_uris": {"android": "https://dc.lft.to/lastmile_qr_scan", "ios": "https://dc.lft.to/lastmile_qr_scan"}, "fusion_lon": 0.0, "name": "48d4662898f94a7b8e3520ce2f6a3f96", "lon": -77.02181183333333, "is_disabled": 0, "type": "electric_scooter"}, {"bike_id": "05950c441ef36d397dd6c17f119d90ef", "lat": 38.918243, "is_reserved": 0, "fusion_lat": 0.0, "rental_uris": {"android": "https://dc.lft.to/lastmile_qr_scan", "ios": "https://dc.lft.to/lastmile_qr_scan"}, "fusion_lon": 0.0, "name": "05950c441ef36d397dd6c17f119d90ef", "lon": -77.04949483333333, "is_disabled": 0, "type": "electric_scooter"}, {"bike_id": "80b64e7c05322a0b82280f5da42d590d", "lat": 38.88718, "is_reserved": 0, "fusion_lat": 0.0, "rental_uris": {"android": "https://dc.lft.to/lastmile_qr_scan", "ios": "https://dc.lft.to/lastmile_qr_scan"}, "fusion_lon": 0.0, "name": "80b64e7c05322a0b82280f5da42d590d", "lon": -77.0178005, "is_disabled": 0, "type": "electric_scooter"}, {"bike_id": "391267b2cdfbc9ccbc595f0b558add36", "lat": 38.9003855, "is_reserved": 0, "fusion_lat": 0.0, "rental_uris": {"android": "https://dc.lft.to/lastmile_qr_scan", "ios": "https://dc.lft.to/lastmile_qr_scan"}, "fusion_lon": 0.0, "name": "391267b2cdfbc9ccbc595f0b558add36", "lon": -76.98802816666667, "is_disabled": 0, "type": "electric_scooter"}, {"bike_id": "c4e35fc2d0c9c36d0bf6e99125ed6b54", "lat": 38.87472533333333, "is_reserved": 0, "fusion_lat": 0.0, "rental_uris": {"android": "https://dc.lft.to/lastmile_qr_scan", "ios": "https://dc.lft.to/lastmile_qr_scan"}, "fusion_lon": 0.0, "name": "c4e35fc2d0c9c36d0bf6e99125ed6b54", "lon": -77.005601, "is_disabled": 0, "type": "electric_scooter"}, {"bike_id": "dbc2bcc16a00bfb0651d16e2dca5bd79", "lat": 38.903023166666664, "is_reserved": 0, "fusion_lat": 0.0, "rental_uris": {"android": "https://dc.lft.to/lastmile_qr_scan", "ios": "https://dc.lft.to/lastmile_qr_scan"}, "fusion_lon": 0.0, "name": "dbc2bcc16a00bfb0651d16e2dca5bd79", "lon": -77.03338816666667, "is_disabled": 0, "type": "electric_scooter"}, {"bike_id": "390759a0cd2ea4d4c6edb7ea81592fb9", "lat": 38.918304666666664, "is_reserved": 0, "fusion_lat": 0.0, "rental_uris": {"android": "https://dc.lft.to/lastmile_qr_scan", "ios": "https://dc.lft.to/lastmile_qr_scan"}, "fusion_lon": 0.0, "name": "390759a0cd2ea4d4c6edb7ea81592fb9", "lon": -77.04154316666667, "is_disabled": 0, "type": "electric_scooter"}, {"bike_id": "39b3570d66f2ea2b1d7ad2a50281129c", "lat": 38.93612983333333, "is_reserved": 0, "fusion_lat": 0.0, "rental_uris": {"android": "https://dc.lft.to/lastmile_qr_scan", "ios": "https://dc.lft.to/lastmile_qr_scan"}, "fusion_lon": 0.0, "name": "39b3570d66f2ea2b1d7ad2a50281129c", "lon": -77.05897366666666, "is_disabled": 0, "type": "electric_scooter"}, {"bike_id": "d8256dd62b9eb63432ee3ebac036e34d", "lat": 38.9170415, "is_reserved": 0, "fusion_lat": 0.0, "rental_uris": {"android": "https://dc.lft.to/lastmile_qr_scan", "ios": "https://dc.lft.to/lastmile_qr_scan"}, "fusion_lon": 0.0, "name": "d8256dd62b9eb63432ee3ebac036e34d", "lon": -77.02893633333333, "is_disabled": 0, "type": "electric_scooter"}, {"bike_id": "022ca54d9737e84c83b6afadad4834b8", "lat": 38.904434333333334, "is_reserved": 0, "fusion_lat": 0.0, "rental_uris": {"android": "https://dc.lft.to/lastmile_qr_scan", "ios": "https://dc.lft.to/lastmile_qr_scan"}, "fusion_lon": 0.0, "name": "022ca54d9737e84c83b6afadad4834b8", "lon": -77.028084, "is_disabled": 0, "type": "electric_scooter"}, {"bike_id": "e99acb0d09321a223de8229ec39056c2", "lat": 38.897434833333335, "is_reserved": 0, "fusion_lat": 0.0, "rental_uris": {"android": "https://dc.lft.to/lastmile_qr_scan", "ios": "https://dc.lft.to/lastmile_qr_scan"}, "fusion_lon": 0.0, "name": "e99acb0d09321a223de8229ec39056c2", "lon": -76.92041916666666, "is_disabled": 0, "type": "electric_bike"}, {"bike_id": "fded27844c6f30dcb2067e43a077699d", "lat": 38.939494833333335, "is_reserved": 0, "fusion_lat": 0.0, "rental_uris": {"android": "https://dc.lft.to/lastmile_qr_scan", "ios": "https://dc.lft.to/lastmile_qr_scan"}, "fusion_lon": 0.0, "name": "fded27844c6f30dcb2067e43a077699d", "lon": -77.0724375, "is_disabled": 0, "type": "electric_scooter"}, {"bike_id": "080a2d96241a6ec283f3942503e3bb58", "lat": 38.92504816666667, "is_reserved": 0, "fusion_lat": 0.0, "rental_uris": {"android": "https://dc.lft.to/lastmile_qr_scan", "ios": "https://dc.lft.to/lastmile_qr_scan"}, "fusion_lon": 0.0, "name": "080a2d96241a6ec283f3942503e3bb58", "lon": -77.03775433333334, "is_disabled": 0, "type": "electric_scooter"}, {"bike_id": "bd31c4d29d2c6304213ba43792fcd22d", "lat": 38.88745616666667, "is_reserved": 0, "fusion_lat": 0.0, "rental_uris": {"android": "https://dc.lft.to/lastmile_qr_scan", "ios": "https://dc.lft.to/lastmile_qr_scan"}, "fusion_lon": 0.0, "name": "bd31c4d29d2c6304213ba43792fcd22d", "lon": -77.01729266666666, "is_disabled": 0, "type": "electric_scooter"}, {"bike_id": "f81206a5c6238035655aac5bb56c5297", "lat": 38.892368, "is_reserved": 0, "fusion_lat": 0.0, "rental_uris": {"android": "https://dc.lft.to/lastmile_qr_scan", "ios": "https://dc.lft.to/lastmile_qr_scan"}, "fusion_lon": 0.0, "name": "f81206a5c6238035655aac5bb56c5297", "lon": -77.0416255, "is_disabled": 0, "type": "electric_scooter"}, {"bike_id": "3b830c14b50bed8b0e103226bcd79db7", "lat": 38.90986933333333, "is_reserved": 0, "fusion_lat": 0.0, "rental_uris": {"android": "https://dc.lft.to/lastmile_qr_scan", "ios": "https://dc.lft.to/lastmile_qr_scan"}, "fusion_lon": 0.0, "name": "3b830c14b50bed8b0e103226bcd79db7", "lon": -77.02182783333333, "is_disabled": 0, "type": "electric_scooter"}, {"bike_id": "3ffe7515a9e4876a7a9554905cac1225", "lat": 38.89963916666667, "is_reserved": 0, "fusion_lat": 0.0, "rental_uris": {"android": "https://dc.lft.to/lastmile_qr_scan", "ios": "https://dc.lft.to/lastmile_qr_scan"}, "fusion_lon": 0.0, "name": "3ffe7515a9e4876a7a9554905cac1225", "lon": -77.0035775, "is_disabled": 0, "type": "electric_scooter"}, {"bike_id": "8ac3e2c49004abf91a62039416348bb7", "lat": 38.91636733333333, "is_reserved": 0, "fusion_lat": 0.0, "rental_uris": {"android": "https://dc.lft.to/lastmile_qr_scan", "ios": "https://dc.lft.to/lastmile_qr_scan"}, "fusion_lon": 0.0, "name": "8ac3e2c49004abf91a62039416348bb7", "lon": -77.045303, "is_disabled": 0, "type": "electric_scooter"}, {"bike_id": "98ed14014ce664faec1cf5a909bf5adc", "lat": 38.901948166666664, "is_reserved": 0, "fusion_lat": 0.0, "rental_uris": {"android": "https://dc.lft.to/lastmile_qr_scan", "ios": "https://dc.lft.to/lastmile_qr_scan"}, "fusion_lon": 0.0, "name": "98ed14014ce664faec1cf5a909bf5adc", "lon": -76.9787995, "is_disabled": 0, "type": "electric_scooter"}, {"bike_id": "8467f4e1b4d43f7a9a6bc3e8422ac0cc", "lat": 38.9324215, "is_reserved": 0, "fusion_lat": 0.0, "rental_uris": {"android": "https://dc.lft.to/lastmile_qr_scan", "ios": "https://dc.lft.to/lastmile_qr_scan"}, "fusion_lon": 0.0, "name": "8467f4e1b4d43f7a9a6bc3e8422ac0cc", "lon": -76.9951455, "is_disabled": 0, "type": "electric_scooter"}, {"bike_id": "0d85c8e418c3eb5484d501a87920979e", "lat": 38.88373583333333, "is_reserved": 0, "fusion_lat": 0.0, "rental_uris": {"android": "https://dc.lft.to/lastmile_qr_scan", "ios": "https://dc.lft.to/lastmile_qr_scan"}, "fusion_lon": 0.0, "name": "0d85c8e418c3eb5484d501a87920979e", "lon": -76.99541333333333, "is_disabled": 0, "type": "electric_scooter"}, {"bike_id": "1a48a02907c223b19bf9c149acfc9581", "lat": 38.900434833333335, "is_reserved": 0, "fusion_lat": 0.0, "rental_uris": {"android": "https://dc.lft.to/lastmile_qr_scan", "ios": "https://dc.lft.to/lastmile_qr_scan"}, "fusion_lon": 0.0, "name": "1a48a02907c223b19bf9c149acfc9581", "lon": -76.98289133333333, "is_disabled": 0, "type": "electric_scooter"}, {"bike_id": "a4c698d61a9576f3a789697ac89dbe15", "lat": 38.84472316666667, "is_reserved": 0, "fusion_lat": 0.0, "rental_uris": {"android": "https://dc.lft.to/lastmile_qr_scan", "ios": "https://dc.lft.to/lastmile_qr_scan"}, "fusion_lon": 0.0, "name": "a4c698d61a9576f3a789697ac89dbe15", "lon": -76.97855416666667, "is_disabled": 0, "type": "electric_bike"}, {"bike_id": "f0dc10c906c094ba83706959158cb70e", "lat": 38.92049316666667, "is_reserved": 0, "fusion_lat": 0.0, "rental_uris": {"android": "https://dc.lft.to/lastmile_qr_scan", "ios": "https://dc.lft.to/lastmile_qr_scan"}, "fusion_lon": 0.0, "name": "f0dc10c906c094ba83706959158cb70e", "lon": -77.0162465, "is_disabled": 0, "type": "electric_scooter"}, {"bike_id": "493e2638266663da2ad46c3ffd05e06b", "lat": 38.884878, "is_reserved": 0, "fusion_lat": 0.0, "rental_uris": {"android": "https://dc.lft.to/lastmile_qr_scan", "ios": "https://dc.lft.to/lastmile_qr_scan"}, "fusion_lon": 0.0, "name": "493e2638266663da2ad46c3ffd05e06b", "lon": -77.0347785, "is_disabled": 0, "type": "electric_scooter"}, {"bike_id": "7a4c1b8be0a2a51393f2c21784376410", "lat": 38.89621733333333, "is_reserved": 0, "fusion_lat": 0.0, "rental_uris": {"android": "https://dc.lft.to/lastmile_qr_scan", "ios": "https://dc.lft.to/lastmile_qr_scan"}, "fusion_lon": 0.0, "name": "7a4c1b8be0a2a51393f2c21784376410", "lon": -77.012109, "is_disabled": 0, "type": "electric_scooter"}, {"bike_id": "286ef5ae692c6a6278f082f7172ec981", "lat": 38.91737333333333, "is_reserved": 0, "fusion_lat": 0.0, "rental_uris": {"android": "https://dc.lft.to/lastmile_qr_scan", "ios": "https://dc.lft.to/lastmile_qr_scan"}, "fusion_lon": 0.0, "name": "286ef5ae692c6a6278f082f7172ec981", "lon": -77.03210433333334, "is_disabled": 0, "type": "electric_scooter"}, {"bike_id": "d1833c9ec8f6c148ce65c5e661b622e7", "lat": 38.97205866666667, "is_reserved": 0, "fusion_lat": 0.0, "rental_uris": {"android": "https://dc.lft.to/lastmile_qr_scan", "ios": "https://dc.lft.to/lastmile_qr_scan"}, "fusion_lon": 0.0, "name": "d1833c9ec8f6c148ce65c5e661b622e7", "lon": -77.033313, "is_disabled": 0, "type": "electric_bike"}, {"bike_id": "f170c3c9db07af9a754083deadb18633", "lat": 38.90573583333333, "is_reserved": 0, "fusion_lat": 0.0, "rental_uris": {"android": "https://dc.lft.to/lastmile_qr_scan", "ios": "https://dc.lft.to/lastmile_qr_scan"}, "fusion_lon": 0.0, "name": "f170c3c9db07af9a754083deadb18633", "lon": -77.03425933333334, "is_disabled": 0, "type": "electric_scooter"}, {"bike_id": "24491aa4d7c09c809e8cd3015561437a", "lat": 38.92095533333333, "is_reserved": 0, "fusion_lat": 0.0, "rental_uris": {"android": "https://dc.lft.to/lastmile_qr_scan", "ios": "https://dc.lft.to/lastmile_qr_scan"}, "fusion_lon": 0.0, "name": "24491aa4d7c09c809e8cd3015561437a", "lon": -77.0317125, "is_disabled": 0, "type": "electric_scooter"}, {"bike_id": "b8a1ac78042b1c832d477a812ade1e6c", "lat": 38.90725716666667, "is_reserved": 0, "fusion_lat": 0.0, "rental_uris": {"android": "https://dc.lft.to/lastmile_qr_scan", "ios": "https://dc.lft.to/lastmile_qr_scan"}, "fusion_lon": 0.0, "name": "b8a1ac78042b1c832d477a812ade1e6c", "lon": -77.04024416666667, "is_disabled": 0, "type": "electric_scooter"}, {"bike_id": "8266a61de6405b72930c500cae4d8173", "lat": 38.866855, "is_reserved": 0, "fusion_lat": 0.0, "rental_uris": {"android": "https://dc.lft.to/lastmile_qr_scan", "ios": "https://dc.lft.to/lastmile_qr_scan"}, "fusion_lon": 0.0, "name": "8266a61de6405b72930c500cae4d8173", "lon": -76.98572433333334, "is_disabled": 0, "type": "electric_scooter"}, {"bike_id": "ca923875ffaef020b235eb49565b28e5", "lat": 38.92496333333333, "is_reserved": 0, "fusion_lat": 0.0, "rental_uris": {"android": "https://dc.lft.to/lastmile_qr_scan", "ios": "https://dc.lft.to/lastmile_qr_scan"}, "fusion_lon": 0.0, "name": "ca923875ffaef020b235eb49565b28e5", "lon": -77.05116733333334, "is_disabled": 0, "type": "electric_scooter"}, {"bike_id": "de35a2ce06c5c4a5dbd329b965201911", "lat": 38.897464166666666, "is_reserved": 0, "fusion_lat": 0.0, "rental_uris": {"android": "https://dc.lft.to/lastmile_qr_scan", "ios": "https://dc.lft.to/lastmile_qr_scan"}, "fusion_lon": 0.0, "name": "de35a2ce06c5c4a5dbd329b965201911", "lon": -77.028046, "is_disabled": 0, "type": "electric_scooter"}, {"bike_id": "b8579efc1455507806fdedb1625c6d47", "lat": 38.91818283333333, "is_reserved": 0, "fusion_lat": 0.0, "rental_uris": {"android": "https://dc.lft.to/lastmile_qr_scan", "ios": "https://dc.lft.to/lastmile_qr_scan"}, "fusion_lon": 0.0, "name": "b8579efc1455507806fdedb1625c6d47", "lon": -77.03997966666667, "is_disabled": 0, "type": "electric_scooter"}, {"bike_id": "a868e48b34fe8cb57b78efc1b1d3aed9", "lat": 38.89745083333333, "is_reserved": 0, "fusion_lat": 0.0, "rental_uris": {"android": "https://dc.lft.to/lastmile_qr_scan", "ios": "https://dc.lft.to/lastmile_qr_scan"}, "fusion_lon": 0.0, "name": "a868e48b34fe8cb57b78efc1b1d3aed9", "lon": -76.97971616666666, "is_disabled": 0, "type": "electric_scooter"}, {"bike_id": "18a1c193fee9b4c691c59831661cc8ff", "lat": 38.906692166666666, "is_reserved": 0, "fusion_lat": 0.0, "rental_uris": {"android": "https://dc.lft.to/lastmile_qr_scan", "ios": "https://dc.lft.to/lastmile_qr_scan"}, "fusion_lon": 0.0, "name": "18a1c193fee9b4c691c59831661cc8ff", "lon": -77.00603083333333, "is_disabled": 0, "type": "electric_bike"}, {"bike_id": "60b4dec16828d39ec580cb2d4f76aa80", "lat": 38.92582083333333, "is_reserved": 0, "fusion_lat": 0.0, "rental_uris": {"android": "https://dc.lft.to/lastmile_qr_scan", "ios": "https://dc.lft.to/lastmile_qr_scan"}, "fusion_lon": 0.0, "name": "60b4dec16828d39ec580cb2d4f76aa80", "lon": -77.03986883333333, "is_disabled": 0, "type": "electric_scooter"}, {"bike_id": "88d5d163cdf8e8b5a5721d9f35e54916", "lat": 38.955344333333336, "is_reserved": 0, "fusion_lat": 0.0, "rental_uris": {"android": "https://dc.lft.to/lastmile_qr_scan", "ios": "https://dc.lft.to/lastmile_qr_scan"}, "fusion_lon": 0.0, "name": "88d5d163cdf8e8b5a5721d9f35e54916", "lon": -77.02779016666666, "is_disabled": 0, "type": "electric_scooter"}, {"bike_id": "37c9ff7b297c363d514ef9fc93bb01ee", "lat": 38.85361533333333, "is_reserved": 0, "fusion_lat": 0.0, "rental_uris": {"android": "https://dc.lft.to/lastmile_qr_scan", "ios": "https://dc.lft.to/lastmile_qr_scan"}, "fusion_lon": 0.0, "name": "37c9ff7b297c363d514ef9fc93bb01ee", "lon": -77.13466966666667, "is_disabled": 0, "type": "electric_bike"}, {"bike_id": "8363eb20c2982ad257363d0f6daec33e", "lat": 38.899763166666666, "is_reserved": 0, "fusion_lat": 0.0, "rental_uris": {"android": "https://dc.lft.to/lastmile_qr_scan", "ios": "https://dc.lft.to/lastmile_qr_scan"}, "fusion_lon": 0.0, "name": "8363eb20c2982ad257363d0f6daec33e", "lon": -77.03203383333333, "is_disabled": 0, "type": "electric_scooter"}, {"bike_id": "5dec4cf30c6e64ce8afd2a0b709c924b", "lat": 38.94294633333333, "is_reserved": 0, "fusion_lat": 0.0, "rental_uris": {"android": "https://dc.lft.to/lastmile_qr_scan", "ios": "https://dc.lft.to/lastmile_qr_scan"}, "fusion_lon": 0.0, "name": "5dec4cf30c6e64ce8afd2a0b709c924b", "lon": -77.02172466666667, "is_disabled": 0, "type": "electric_scooter"}, {"bike_id": "b242f46656dcb55b878f1d3332585e04", "lat": 38.92419966666667, "is_reserved": 0, "fusion_lat": 0.0, "rental_uris": {"android": "https://dc.lft.to/lastmile_qr_scan", "ios": "https://dc.lft.to/lastmile_qr_scan"}, "fusion_lon": 0.0, "name": "b242f46656dcb55b878f1d3332585e04", "lon": -77.02131883333334, "is_disabled": 0, "type": "electric_scooter"}, {"bike_id": "ae1ac4cce21bee04d9f07526291e373a", "lat": 38.900195333333336, "is_reserved": 0, "fusion_lat": 0.0, "rental_uris": {"android": "https://dc.lft.to/lastmile_qr_scan", "ios": "https://dc.lft.to/lastmile_qr_scan"}, "fusion_lon": 0.0, "name": "ae1ac4cce21bee04d9f07526291e373a", "lon": -77.000747, "is_disabled": 0, "type": "electric_scooter"}, {"bike_id": "43e3236992c847955d7c2abb210a57c4", "lat": 38.91687316666667, "is_reserved": 0, "fusion_lat": 0.0, "rental_uris": {"android": "https://dc.lft.to/lastmile_qr_scan", "ios": "https://dc.lft.to/lastmile_qr_scan"}, "fusion_lon": 0.0, "name": "43e3236992c847955d7c2abb210a57c4", "lon": -77.02411433333333, "is_disabled": 0, "type": "electric_scooter"}, {"bike_id": "2e74025d333f45ef85260760bf1572d9", "lat": 38.916247, "is_reserved": 0, "fusion_lat": 0.0, "rental_uris": {"android": "https://dc.lft.to/lastmile_qr_scan", "ios": "https://dc.lft.to/lastmile_qr_scan"}, "fusion_lon": 0.0, "name": "2e74025d333f45ef85260760bf1572d9", "lon": -77.0415395, "is_disabled": 0, "type": "electric_scooter"}, {"bike_id": "a8239509d842c99667e57569934218eb", "lat": 38.894095, "is_reserved": 0, "fusion_lat": 0.0, "rental_uris": {"android": "https://dc.lft.to/lastmile_qr_scan", "ios": "https://dc.lft.to/lastmile_qr_scan"}, "fusion_lon": 0.0, "name": "a8239509d842c99667e57569934218eb", "lon": -77.022081, "is_disabled": 0, "type": "electric_scooter"}, {"bike_id": "3ee0f8d93884c5be86fa535934461b9f", "lat": 38.92161766666667, "is_reserved": 0, "fusion_lat": 0.0, "rental_uris": {"android": "https://dc.lft.to/lastmile_qr_scan", "ios": "https://dc.lft.to/lastmile_qr_scan"}, "fusion_lon": 0.0, "name": "3ee0f8d93884c5be86fa535934461b9f", "lon": -77.03395366666666, "is_disabled": 0, "type": "electric_scooter"}, {"bike_id": "6a2c6345f7023a91973a441c7ef808d2", "lat": 38.9076455, "is_reserved": 0, "fusion_lat": 0.0, "rental_uris": {"android": "https://dc.lft.to/lastmile_qr_scan", "ios": "https://dc.lft.to/lastmile_qr_scan"}, "fusion_lon": 0.0, "name": "6a2c6345f7023a91973a441c7ef808d2", "lon": -77.03210883333334, "is_disabled": 0, "type": "electric_scooter"}, {"bike_id": "357f15c8150fb8415c00257d1b289478", "lat": 38.9376945, "is_reserved": 0, "fusion_lat": 0.0, "rental_uris": {"android": "https://dc.lft.to/lastmile_qr_scan", "ios": "https://dc.lft.to/lastmile_qr_scan"}, "fusion_lon": 0.0, "name": "357f15c8150fb8415c00257d1b289478", "lon": -76.9914785, "is_disabled": 0, "type": "electric_scooter"}, {"bike_id": "dc219cec033649028caf5e1dcdbcc028", "lat": 38.92725166666666, "is_reserved": 0, "fusion_lat": 0.0, "rental_uris": {"android": "https://dc.lft.to/lastmile_qr_scan", "ios": "https://dc.lft.to/lastmile_qr_scan"}, "fusion_lon": 0.0, "name": "dc219cec033649028caf5e1dcdbcc028", "lon": -77.0209995, "is_disabled": 0, "type": "electric_scooter"}, {"bike_id": "9e3f2ae77b52617bd36184cf73330d6c", "lat": 38.92509533333333, "is_reserved": 0, "fusion_lat": 0.0, "rental_uris": {"android": "https://dc.lft.to/lastmile_qr_scan", "ios": "https://dc.lft.to/lastmile_qr_scan"}, "fusion_lon": 0.0, "name": "9e3f2ae77b52617bd36184cf73330d6c", "lon": -77.02332183333333, "is_disabled": 0, "type": "electric_scooter"}, {"bike_id": "cc4110afe5436396a709a05bf69aa7c3", "lat": 38.92242533333334, "is_reserved": 0, "fusion_lat": 0.0, "rental_uris": {"android": "https://dc.lft.to/lastmile_qr_scan", "ios": "https://dc.lft.to/lastmile_qr_scan"}, "fusion_lon": 0.0, "name": "cc4110afe5436396a709a05bf69aa7c3", "lon": -77.03898516666666, "is_disabled": 0, "type": "electric_scooter"}, {"bike_id": "0e4f8413c0c5c410e1d50246755b4021", "lat": 38.9322675, "is_reserved": 0, "fusion_lat": 0.0, "rental_uris": {"android": "https://dc.lft.to/lastmile_qr_scan", "ios": "https://dc.lft.to/lastmile_qr_scan"}, "fusion_lon": 0.0, "name": "0e4f8413c0c5c410e1d50246755b4021", "lon": -77.03872166666666, "is_disabled": 0, "type": "electric_scooter"}, {"bike_id": "580bce47168c9ae386758ddf2911278a", "lat": 38.933532166666666, "is_reserved": 0, "fusion_lat": 0.0, "rental_uris": {"android": "https://dc.lft.to/lastmile_qr_scan", "ios": "https://dc.lft.to/lastmile_qr_scan"}, "fusion_lon": 0.0, "name": "580bce47168c9ae386758ddf2911278a", "lon": -77.06203366666666, "is_disabled": 0, "type": "electric_scooter"}, {"bike_id": "78386f3168ebc6d7005750e47307ddb4", "lat": 38.9001965, "is_reserved": 0, "fusion_lat": 0.0, "rental_uris": {"android": "https://dc.lft.to/lastmile_qr_scan", "ios": "https://dc.lft.to/lastmile_qr_scan"}, "fusion_lon": 0.0, "name": "78386f3168ebc6d7005750e47307ddb4", "lon": -77.01186616666666, "is_disabled": 0, "type": "electric_scooter"}, {"bike_id": "239a68628d168d6b67cf22bef9181ca5", "lat": 38.92267416666667, "is_reserved": 0, "fusion_lat": 0.0, "rental_uris": {"android": "https://dc.lft.to/lastmile_qr_scan", "ios": "https://dc.lft.to/lastmile_qr_scan"}, "fusion_lon": 0.0, "name": "239a68628d168d6b67cf22bef9181ca5", "lon": -77.036783, "is_disabled": 0, "type": "electric_scooter"}, {"bike_id": "eb77faff54e320fed8a21f36d7c633c0", "lat": 38.86686383333333, "is_reserved": 0, "fusion_lat": 0.0, "rental_uris": {"android": "https://dc.lft.to/lastmile_qr_scan", "ios": "https://dc.lft.to/lastmile_qr_scan"}, "fusion_lon": 0.0, "name": "eb77faff54e320fed8a21f36d7c633c0", "lon": -76.98574616666667, "is_disabled": 0, "type": "electric_scooter"}, {"bike_id": "7b5d80de6e57c320b8016039b179538b", "lat": 38.900884166666664, "is_reserved": 0, "fusion_lat": 0.0, "rental_uris": {"android": "https://dc.lft.to/lastmile_qr_scan", "ios": "https://dc.lft.to/lastmile_qr_scan"}, "fusion_lon": 0.0, "name": "7b5d80de6e57c320b8016039b179538b", "lon": -77.02725633333333, "is_disabled": 0, "type": "electric_scooter"}, {"bike_id": "a4e9d857bdd2fd3bbabc15f11c3d750e", "lat": 38.866846, "is_reserved": 0, "fusion_lat": 0.0, "rental_uris": {"android": "https://dc.lft.to/lastmile_qr_scan", "ios": "https://dc.lft.to/lastmile_qr_scan"}, "fusion_lon": 0.0, "name": "a4e9d857bdd2fd3bbabc15f11c3d750e", "lon": -76.98572666666666, "is_disabled": 0, "type": "electric_scooter"}, {"bike_id": "2be8aad3fb6bd3fdfc383533b86277ae", "lat": 38.90792283333333, "is_reserved": 0, "fusion_lat": 0.0, "rental_uris": {"android": "https://dc.lft.to/lastmile_qr_scan", "ios": "https://dc.lft.to/lastmile_qr_scan"}, "fusion_lon": 0.0, "name": "2be8aad3fb6bd3fdfc383533b86277ae", "lon": -77.0320255, "is_disabled": 0, "type": "electric_scooter"}, {"bike_id": "21b131f4d56134425f81c64c19d59ee5", "lat": 38.9169655, "is_reserved": 0, "fusion_lat": 0.0, "rental_uris": {"android": "https://dc.lft.to/lastmile_qr_scan", "ios": "https://dc.lft.to/lastmile_qr_scan"}, "fusion_lon": 0.0, "name": "21b131f4d56134425f81c64c19d59ee5", "lon": -77.0408885, "is_disabled": 0, "type": "electric_scooter"}, {"bike_id": "a4107169722f42fb487639178c2b4cc0", "lat": 38.914199333333336, "is_reserved": 0, "fusion_lat": 0.0, "rental_uris": {"android": "https://dc.lft.to/lastmile_qr_scan", "ios": "https://dc.lft.to/lastmile_qr_scan"}, "fusion_lon": 0.0, "name": "a4107169722f42fb487639178c2b4cc0", "lon": -77.02411233333333, "is_disabled": 0, "type": "electric_scooter"}, {"bike_id": "533745bd12fc2b45dbbe1748e11bbd9d", "lat": 38.904089, "is_reserved": 0, "fusion_lat": 0.0, "rental_uris": {"android": "https://dc.lft.to/lastmile_qr_scan", "ios": "https://dc.lft.to/lastmile_qr_scan"}, "fusion_lon": 0.0, "name": "533745bd12fc2b45dbbe1748e11bbd9d", "lon": -76.97331966666667, "is_disabled": 0, "type": "electric_scooter"}, {"bike_id": "5108c5654c9833fa646767adf3029cb7", "lat": 38.9023175, "is_reserved": 0, "fusion_lat": 0.0, "rental_uris": {"android": "https://dc.lft.to/lastmile_qr_scan", "ios": "https://dc.lft.to/lastmile_qr_scan"}, "fusion_lon": 0.0, "name": "5108c5654c9833fa646767adf3029cb7", "lon": -77.03204983333333, "is_disabled": 0, "type": "electric_scooter"}, {"bike_id": "29a4d4dea19e1f2dd4a04f14d4036eb3", "lat": 38.910356666666665, "is_reserved": 0, "fusion_lat": 0.0, "rental_uris": {"android": "https://dc.lft.to/lastmile_qr_scan", "ios": "https://dc.lft.to/lastmile_qr_scan"}, "fusion_lon": 0.0, "name": "29a4d4dea19e1f2dd4a04f14d4036eb3", "lon": -76.98555216666666, "is_disabled": 0, "type": "electric_scooter"}, {"bike_id": "bf718ca21a72e4c321a47b7931bc89cc", "lat": 38.901930166666666, "is_reserved": 0, "fusion_lat": 0.0, "rental_uris": {"android": "https://dc.lft.to/lastmile_qr_scan", "ios": "https://dc.lft.to/lastmile_qr_scan"}, "fusion_lon": 0.0, "name": "bf718ca21a72e4c321a47b7931bc89cc", "lon": -77.012977, "is_disabled": 0, "type": "electric_scooter"}, {"bike_id": "3c2f4d0fadbeacf28e2e2e7b5d495983", "lat": 38.9260985, "is_reserved": 0, "fusion_lat": 0.0, "rental_uris": {"android": "https://dc.lft.to/lastmile_qr_scan", "ios": "https://dc.lft.to/lastmile_qr_scan"}, "fusion_lon": 0.0, "name": "3c2f4d0fadbeacf28e2e2e7b5d495983", "lon": -77.02166483333333, "is_disabled": 0, "type": "electric_scooter"}, {"bike_id": "b2d238a4416b30ce5bb3eb1f462ef084", "lat": 38.89964283333333, "is_reserved": 0, "fusion_lat": 0.0, "rental_uris": {"android": "https://dc.lft.to/lastmile_qr_scan", "ios": "https://dc.lft.to/lastmile_qr_scan"}, "fusion_lon": 0.0, "name": "b2d238a4416b30ce5bb3eb1f462ef084", "lon": -77.02237916666667, "is_disabled": 0, "type": "electric_scooter"}, {"bike_id": "90f4865e52589b5bfde6709d6801c1f6", "lat": 38.947373166666665, "is_reserved": 0, "fusion_lat": 0.0, "rental_uris": {"android": "https://dc.lft.to/lastmile_qr_scan", "ios": "https://dc.lft.to/lastmile_qr_scan"}, "fusion_lon": 0.0, "name": "90f4865e52589b5bfde6709d6801c1f6", "lon": -76.99587566666666, "is_disabled": 0, "type": "electric_bike"}, {"bike_id": "aa1857a1be01d96e5ca3738e62d4ff13", "lat": 38.900392833333335, "is_reserved": 0, "fusion_lat": 0.0, "rental_uris": {"android": "https://dc.lft.to/lastmile_qr_scan", "ios": "https://dc.lft.to/lastmile_qr_scan"}, "fusion_lon": 0.0, "name": "aa1857a1be01d96e5ca3738e62d4ff13", "lon": -77.0484975, "is_disabled": 0, "type": "electric_scooter"}, {"bike_id": "6ddd0d4703341435c91433e40349e3c5", "lat": 38.866461666666666, "is_reserved": 0, "fusion_lat": 0.0, "rental_uris": {"android": "https://dc.lft.to/lastmile_qr_scan", "ios": "https://dc.lft.to/lastmile_qr_scan"}, "fusion_lon": 0.0, "name": "6ddd0d4703341435c91433e40349e3c5", "lon": -76.98865483333333, "is_disabled": 0, "type": "electric_scooter"}, {"bike_id": "2be171fab3057a24cb7b9f833f164b37", "lat": 38.915065166666665, "is_reserved": 0, "fusion_lat": 0.0, "rental_uris": {"android": "https://dc.lft.to/lastmile_qr_scan", "ios": "https://dc.lft.to/lastmile_qr_scan"}, "fusion_lon": 0.0, "name": "2be171fab3057a24cb7b9f833f164b37", "lon": -77.0177725, "is_disabled": 0, "type": "electric_scooter"}, {"bike_id": "810597165b464fcc074ca97d76154305", "lat": 38.900851833333334, "is_reserved": 0, "fusion_lat": 0.0, "rental_uris": {"android": "https://dc.lft.to/lastmile_qr_scan", "ios": "https://dc.lft.to/lastmile_qr_scan"}, "fusion_lon": 0.0, "name": "810597165b464fcc074ca97d76154305", "lon": -77.048887, "is_disabled": 0, "type": "electric_scooter"}, {"bike_id": "5cef51a00c2b609a8c0ad037f8d378ff", "lat": 38.905613333333335, "is_reserved": 0, "fusion_lat": 0.0, "rental_uris": {"android": "https://dc.lft.to/lastmile_qr_scan", "ios": "https://dc.lft.to/lastmile_qr_scan"}, "fusion_lon": 0.0, "name": "5cef51a00c2b609a8c0ad037f8d378ff", "lon": -77.02829733333333, "is_disabled": 0, "type": "electric_scooter"}, {"bike_id": "7ff63a5c212581b1d43c80a755798838", "lat": 38.92161883333333, "is_reserved": 0, "fusion_lat": 0.0, "rental_uris": {"android": "https://dc.lft.to/lastmile_qr_scan", "ios": "https://dc.lft.to/lastmile_qr_scan"}, "fusion_lon": 0.0, "name": "7ff63a5c212581b1d43c80a755798838", "lon": -77.03334683333334, "is_disabled": 0, "type": "electric_scooter"}, {"bike_id": "75239b5fa55a7966e2bb0d708550fe3b", "lat": 38.941213, "is_reserved": 0, "fusion_lat": 0.0, "rental_uris": {"android": "https://dc.lft.to/lastmile_qr_scan", "ios": "https://dc.lft.to/lastmile_qr_scan"}, "fusion_lon": 0.0, "name": "75239b5fa55a7966e2bb0d708550fe3b", "lon": -77.000739, "is_disabled": 0, "type": "electric_bike"}, {"bike_id": "09c2c6e63aff337b3e4a98c4361951e2", "lat": 38.914140333333336, "is_reserved": 0, "fusion_lat": 0.0, "rental_uris": {"android": "https://dc.lft.to/lastmile_qr_scan", "ios": "https://dc.lft.to/lastmile_qr_scan"}, "fusion_lon": 0.0, "name": "09c2c6e63aff337b3e4a98c4361951e2", "lon": -77.0399765, "is_disabled": 0, "type": "electric_scooter"}, {"bike_id": "b43e736132d838d0944ff7526d864385", "lat": 38.8576045, "is_reserved": 0, "fusion_lat": 0.0, "rental_uris": {"android": "https://dc.lft.to/lastmile_qr_scan", "ios": "https://dc.lft.to/lastmile_qr_scan"}, "fusion_lon": 0.0, "name": "b43e736132d838d0944ff7526d864385", "lon": -76.99304083333334, "is_disabled": 0, "type": "electric_scooter"}, {"bike_id": "278ff254602ded902dfaaac6715c01a4", "lat": 38.89626233333333, "is_reserved": 0, "fusion_lat": 0.0, "rental_uris": {"android": "https://dc.lft.to/lastmile_qr_scan", "ios": "https://dc.lft.to/lastmile_qr_scan"}, "fusion_lon": 0.0, "name": "278ff254602ded902dfaaac6715c01a4", "lon": -76.99854516666667, "is_disabled": 0, "type": "electric_scooter"}, {"bike_id": "d2521b73257779aa0b3b51a2fe99b7b1", "lat": 38.91859816666667, "is_reserved": 0, "fusion_lat": 0.0, "rental_uris": {"android": "https://dc.lft.to/lastmile_qr_scan", "ios": "https://dc.lft.to/lastmile_qr_scan"}, "fusion_lon": 0.0, "name": "d2521b73257779aa0b3b51a2fe99b7b1", "lon": -77.032023, "is_disabled": 0, "type": "electric_scooter"}, {"bike_id": "b3d5639c8caa873f1b1adaa95f2b1638", "lat": 38.917082, "is_reserved": 0, "fusion_lat": 0.0, "rental_uris": {"android": "https://dc.lft.to/lastmile_qr_scan", "ios": "https://dc.lft.to/lastmile_qr_scan"}, "fusion_lon": 0.0, "name": "b3d5639c8caa873f1b1adaa95f2b1638", "lon": -77.02996566666667, "is_disabled": 0, "type": "electric_scooter"}, {"bike_id": "4829e7b3803031e50cb1adf775484a33", "lat": 38.90507316666667, "is_reserved": 0, "fusion_lat": 0.0, "rental_uris": {"android": "https://dc.lft.to/lastmile_qr_scan", "ios": "https://dc.lft.to/lastmile_qr_scan"}, "fusion_lon": 0.0, "name": "4829e7b3803031e50cb1adf775484a33", "lon": -77.0580315, "is_disabled": 0, "type": "electric_scooter"}, {"bike_id": "00d8f973fbf906a68b8edf23e9beb19b", "lat": 38.921918, "is_reserved": 0, "fusion_lat": 0.0, "rental_uris": {"android": "https://dc.lft.to/lastmile_qr_scan", "ios": "https://dc.lft.to/lastmile_qr_scan"}, "fusion_lon": 0.0, "name": "00d8f973fbf906a68b8edf23e9beb19b", "lon": -77.02415866666666, "is_disabled": 0, "type": "electric_scooter"}, {"bike_id": "d7d22bd6be6552e244c5c09128b0f3d2", "lat": 38.91404033333333, "is_reserved": 0, "fusion_lat": 0.0, "rental_uris": {"android": "https://dc.lft.to/lastmile_qr_scan", "ios": "https://dc.lft.to/lastmile_qr_scan"}, "fusion_lon": 0.0, "name": "d7d22bd6be6552e244c5c09128b0f3d2", "lon": -77.02010333333334, "is_disabled": 0, "type": "electric_scooter"}, {"bike_id": "899415dd6083b58c0907ee15862ab0c8", "lat": 38.858422166666664, "is_reserved": 0, "fusion_lat": 0.0, "rental_uris": {"android": "https://dc.lft.to/lastmile_qr_scan", "ios": "https://dc.lft.to/lastmile_qr_scan"}, "fusion_lon": 0.0, "name": "899415dd6083b58c0907ee15862ab0c8", "lon": -76.987297, "is_disabled": 0, "type": "electric_scooter"}, {"bike_id": "2c6f41b46059c9d1d6d41d89d02f3548", "lat": 38.9167585, "is_reserved": 0, "fusion_lat": 0.0, "rental_uris": {"android": "https://dc.lft.to/lastmile_qr_scan", "ios": "https://dc.lft.to/lastmile_qr_scan"}, "fusion_lon": 0.0, "name": "2c6f41b46059c9d1d6d41d89d02f3548", "lon": -77.024065, "is_disabled": 0, "type": "electric_scooter"}, {"bike_id": "f35c5c668ba4bda5e45f7690f621f125", "lat": 38.9334825, "is_reserved": 0, "fusion_lat": 0.0, "rental_uris": {"android": "https://dc.lft.to/lastmile_qr_scan", "ios": "https://dc.lft.to/lastmile_qr_scan"}, "fusion_lon": 0.0, "name": "f35c5c668ba4bda5e45f7690f621f125", "lon": -77.06202583333334, "is_disabled": 0, "type": "electric_scooter"}, {"bike_id": "8a8331826357ec7e5b77c686930d051d", "lat": 38.906116833333336, "is_reserved": 0, "fusion_lat": 0.0, "rental_uris": {"android": "https://dc.lft.to/lastmile_qr_scan", "ios": "https://dc.lft.to/lastmile_qr_scan"}, "fusion_lon": 0.0, "name": "8a8331826357ec7e5b77c686930d051d", "lon": -77.03993033333333, "is_disabled": 0, "type": "electric_scooter"}, {"bike_id": "5e9951751926233b66eaa4bbc7c8ae4e", "lat": 38.912738, "is_reserved": 0, "fusion_lat": 0.0, "rental_uris": {"android": "https://dc.lft.to/lastmile_qr_scan", "ios": "https://dc.lft.to/lastmile_qr_scan"}, "fusion_lon": 0.0, "name": "5e9951751926233b66eaa4bbc7c8ae4e", "lon": -77.03153933333333, "is_disabled": 0, "type": "electric_scooter"}, {"bike_id": "3be66c6904c2d78d4b32dbb2e94d5f43", "lat": 38.94634283333333, "is_reserved": 0, "fusion_lat": 0.0, "rental_uris": {"android": "https://dc.lft.to/lastmile_qr_scan", "ios": "https://dc.lft.to/lastmile_qr_scan"}, "fusion_lon": 0.0, "name": "3be66c6904c2d78d4b32dbb2e94d5f43", "lon": -77.01847733333334, "is_disabled": 0, "type": "electric_scooter"}, {"bike_id": "b42fb39753583afd4d4f636791abcb62", "lat": 38.8951395, "is_reserved": 0, "fusion_lat": 0.0, "rental_uris": {"android": "https://dc.lft.to/lastmile_qr_scan", "ios": "https://dc.lft.to/lastmile_qr_scan"}, "fusion_lon": 0.0, "name": "b42fb39753583afd4d4f636791abcb62", "lon": -77.02297566666667, "is_disabled": 0, "type": "electric_scooter"}, {"bike_id": "f47f83d7e08c965bd2215ccda6145655", "lat": 38.86699183333333, "is_reserved": 0, "fusion_lat": 0.0, "rental_uris": {"android": "https://dc.lft.to/lastmile_qr_scan", "ios": "https://dc.lft.to/lastmile_qr_scan"}, "fusion_lon": 0.0, "name": "f47f83d7e08c965bd2215ccda6145655", "lon": -76.98710083333333, "is_disabled": 0, "type": "electric_scooter"}, {"bike_id": "ef05512ee8f9b1f203236fa73ca02aa4", "lat": 38.92442233333333, "is_reserved": 0, "fusion_lat": 0.0, "rental_uris": {"android": "https://dc.lft.to/lastmile_qr_scan", "ios": "https://dc.lft.to/lastmile_qr_scan"}, "fusion_lon": 0.0, "name": "ef05512ee8f9b1f203236fa73ca02aa4", "lon": -77.01956433333334, "is_disabled": 0, "type": "electric_scooter"}, {"bike_id": "33222ee76917e29de791392b19b5831e", "lat": 38.81332616666667, "is_reserved": 0, "fusion_lat": 0.0, "rental_uris": {"android": "https://dc.lft.to/lastmile_qr_scan", "ios": "https://dc.lft.to/lastmile_qr_scan"}, "fusion_lon": 0.0, "name": "33222ee76917e29de791392b19b5831e", "lon": -77.05114766666667, "is_disabled": 0, "type": "electric_bike"}, {"bike_id": "2f83475d90509d65ffd81fa8ec4ac9b1", "lat": 38.905774666666666, "is_reserved": 0, "fusion_lat": 0.0, "rental_uris": {"android": "https://dc.lft.to/lastmile_qr_scan", "ios": "https://dc.lft.to/lastmile_qr_scan"}, "fusion_lon": 0.0, "name": "2f83475d90509d65ffd81fa8ec4ac9b1", "lon": -77.04312516666667, "is_disabled": 0, "type": "electric_scooter"}, {"bike_id": "517173e38c2feda3ee566648af2be140", "lat": 38.9171645, "is_reserved": 0, "fusion_lat": 0.0, "rental_uris": {"android": "https://dc.lft.to/lastmile_qr_scan", "ios": "https://dc.lft.to/lastmile_qr_scan"}, "fusion_lon": 0.0, "name": "517173e38c2feda3ee566648af2be140", "lon": -77.03240383333333, "is_disabled": 0, "type": "electric_scooter"}, {"bike_id": "ad92d2ebd552a48e0370cde1af18b408", "lat": 38.90576183333334, "is_reserved": 0, "fusion_lat": 0.0, "rental_uris": {"android": "https://dc.lft.to/lastmile_qr_scan", "ios": "https://dc.lft.to/lastmile_qr_scan"}, "fusion_lon": 0.0, "name": "ad92d2ebd552a48e0370cde1af18b408", "lon": -76.97630933333333, "is_disabled": 0, "type": "electric_scooter"}, {"bike_id": "d1c52e75d03a144f32cbab797b63f25a", "lat": 38.90486033333333, "is_reserved": 0, "fusion_lat": 0.0, "rental_uris": {"android": "https://dc.lft.to/lastmile_qr_scan", "ios": "https://dc.lft.to/lastmile_qr_scan"}, "fusion_lon": 0.0, "name": "d1c52e75d03a144f32cbab797b63f25a", "lon": -77.04343066666667, "is_disabled": 0, "type": "electric_scooter"}, {"bike_id": "9b8f1bf974e770479a846dcc3b4bf8a4", "lat": 38.956325166666666, "is_reserved": 0, "fusion_lat": 0.0, "rental_uris": {"android": "https://dc.lft.to/lastmile_qr_scan", "ios": "https://dc.lft.to/lastmile_qr_scan"}, "fusion_lon": 0.0, "name": "9b8f1bf974e770479a846dcc3b4bf8a4", "lon": -76.93870916666667, "is_disabled": 0, "type": "electric_bike"}, {"bike_id": "b43e0b241d06d7f335672b5d16bbd37d", "lat": 38.914773833333335, "is_reserved": 0, "fusion_lat": 0.0, "rental_uris": {"android": "https://dc.lft.to/lastmile_qr_scan", "ios": "https://dc.lft.to/lastmile_qr_scan"}, "fusion_lon": 0.0, "name": "b43e0b241d06d7f335672b5d16bbd37d", "lon": -77.045612, "is_disabled": 0, "type": "electric_scooter"}, {"bike_id": "98c1bc978be5fcc7c7812afe1e4f98e5", "lat": 38.916813833333336, "is_reserved": 0, "fusion_lat": 0.0, "rental_uris": {"android": "https://dc.lft.to/lastmile_qr_scan", "ios": "https://dc.lft.to/lastmile_qr_scan"}, "fusion_lon": 0.0, "name": "98c1bc978be5fcc7c7812afe1e4f98e5", "lon": -77.02386433333334, "is_disabled": 0, "type": "electric_scooter"}, {"bike_id": "aface1b1bb95f904fd01843e2a6fd1f8", "lat": 38.90064, "is_reserved": 0, "fusion_lat": 0.0, "rental_uris": {"android": "https://dc.lft.to/lastmile_qr_scan", "ios": "https://dc.lft.to/lastmile_qr_scan"}, "fusion_lon": 0.0, "name": "aface1b1bb95f904fd01843e2a6fd1f8", "lon": -76.93385433333333, "is_disabled": 0, "type": "electric_scooter"}, {"bike_id": "0a99115a48220df89a1549155d361769", "lat": 38.9234945, "is_reserved": 0, "fusion_lat": 0.0, "rental_uris": {"android": "https://dc.lft.to/lastmile_qr_scan", "ios": "https://dc.lft.to/lastmile_qr_scan"}, "fusion_lon": 0.0, "name": "0a99115a48220df89a1549155d361769", "lon": -77.01908716666667, "is_disabled": 0, "type": "electric_scooter"}, {"bike_id": "ef94597edb3c95f656f5efe82dd965ad", "lat": 38.901530666666666, "is_reserved": 0, "fusion_lat": 0.0, "rental_uris": {"android": "https://dc.lft.to/lastmile_qr_scan", "ios": "https://dc.lft.to/lastmile_qr_scan"}, "fusion_lon": 0.0, "name": "ef94597edb3c95f656f5efe82dd965ad", "lon": -77.01508383333334, "is_disabled": 0, "type": "electric_scooter"}, {"bike_id": "ca9789028ebde9ea592928c4af39eae9", "lat": 38.90597233333333, "is_reserved": 0, "fusion_lat": 0.0, "rental_uris": {"android": "https://dc.lft.to/lastmile_qr_scan", "ios": "https://dc.lft.to/lastmile_qr_scan"}, "fusion_lon": 0.0, "name": "ca9789028ebde9ea592928c4af39eae9", "lon": -77.04116233333333, "is_disabled": 0, "type": "electric_scooter"}, {"bike_id": "0163ef6d499d28b932481e436c21e07d", "lat": 38.90260166666667, "is_reserved": 0, "fusion_lat": 0.0, "rental_uris": {"android": "https://dc.lft.to/lastmile_qr_scan", "ios": "https://dc.lft.to/lastmile_qr_scan"}, "fusion_lon": 0.0, "name": "0163ef6d499d28b932481e436c21e07d", "lon": -77.01761633333334, "is_disabled": 0, "type": "electric_scooter"}, {"bike_id": "e4e2815a64ed7eaa277e519685df31bd", "lat": 38.912733833333334, "is_reserved": 0, "fusion_lat": 0.0, "rental_uris": {"android": "https://dc.lft.to/lastmile_qr_scan", "ios": "https://dc.lft.to/lastmile_qr_scan"}, "fusion_lon": 0.0, "name": "e4e2815a64ed7eaa277e519685df31bd", "lon": -77.029504, "is_disabled": 0, "type": "electric_scooter"}, {"bike_id": "7f8e20d728b9d8ec4316bb133e0e94a0", "lat": 38.88858066666667, "is_reserved": 0, "fusion_lat": 0.0, "rental_uris": {"android": "https://dc.lft.to/lastmile_qr_scan", "ios": "https://dc.lft.to/lastmile_qr_scan"}, "fusion_lon": 0.0, "name": "7f8e20d728b9d8ec4316bb133e0e94a0", "lon": -77.00052483333333, "is_disabled": 0, "type": "electric_scooter"}, {"bike_id": "96f08d55a20545fb2169f8e50d5c637f", "lat": 38.91892566666667, "is_reserved": 0, "fusion_lat": 0.0, "rental_uris": {"android": "https://dc.lft.to/lastmile_qr_scan", "ios": "https://dc.lft.to/lastmile_qr_scan"}, "fusion_lon": 0.0, "name": "96f08d55a20545fb2169f8e50d5c637f", "lon": -77.02973983333334, "is_disabled": 0, "type": "electric_scooter"}, {"bike_id": "1bb46e8f704d691533c5ff20024f944d", "lat": 38.950804166666664, "is_reserved": 0, "fusion_lat": 0.0, "rental_uris": {"android": "https://dc.lft.to/lastmile_qr_scan", "ios": "https://dc.lft.to/lastmile_qr_scan"}, "fusion_lon": 0.0, "name": "1bb46e8f704d691533c5ff20024f944d", "lon": -77.02988966666666, "is_disabled": 0, "type": "electric_scooter"}, {"bike_id": "e32d311ce5f7afd49c2a687650cd7a83", "lat": 38.9097755, "is_reserved": 0, "fusion_lat": 0.0, "rental_uris": {"android": "https://dc.lft.to/lastmile_qr_scan", "ios": "https://dc.lft.to/lastmile_qr_scan"}, "fusion_lon": 0.0, "name": "e32d311ce5f7afd49c2a687650cd7a83", "lon": -77.02689466666666, "is_disabled": 0, "type": "electric_scooter"}, {"bike_id": "88cc6fa3990c006ddb996a728f76ec2e", "lat": 38.907309166666664, "is_reserved": 0, "fusion_lat": 0.0, "rental_uris": {"android": "https://dc.lft.to/lastmile_qr_scan", "ios": "https://dc.lft.to/lastmile_qr_scan"}, "fusion_lon": 0.0, "name": "88cc6fa3990c006ddb996a728f76ec2e", "lon": -77.02376216666667, "is_disabled": 0, "type": "electric_scooter"}, {"bike_id": "384dbfdab73aeb7b198bfdb46dda9e3e", "lat": 38.86026483333333, "is_reserved": 0, "fusion_lat": 0.0, "rental_uris": {"android": "https://dc.lft.to/lastmile_qr_scan", "ios": "https://dc.lft.to/lastmile_qr_scan"}, "fusion_lon": 0.0, "name": "384dbfdab73aeb7b198bfdb46dda9e3e", "lon": -76.99682133333333, "is_disabled": 0, "type": "electric_scooter"}, {"bike_id": "f1e2c66a08079d228ec88f1e55820c64", "lat": 38.926247833333335, "is_reserved": 0, "fusion_lat": 0.0, "rental_uris": {"android": "https://dc.lft.to/lastmile_qr_scan", "ios": "https://dc.lft.to/lastmile_qr_scan"}, "fusion_lon": 0.0, "name": "f1e2c66a08079d228ec88f1e55820c64", "lon": -77.03708933333333, "is_disabled": 0, "type": "electric_scooter"}, {"bike_id": "5a788d775f9d014da52f3d755ae04a2b", "lat": 38.90854383333333, "is_reserved": 0, "fusion_lat": 0.0, "rental_uris": {"android": "https://dc.lft.to/lastmile_qr_scan", "ios": "https://dc.lft.to/lastmile_qr_scan"}, "fusion_lon": 0.0, "name": "5a788d775f9d014da52f3d755ae04a2b", "lon": -76.9979855, "is_disabled": 0, "type": "electric_scooter"}, {"bike_id": "15a001af7d81de4d89eb6fb303987eb9", "lat": 38.87652883333333, "is_reserved": 0, "fusion_lat": 0.0, "rental_uris": {"android": "https://dc.lft.to/lastmile_qr_scan", "ios": "https://dc.lft.to/lastmile_qr_scan"}, "fusion_lon": 0.0, "name": "15a001af7d81de4d89eb6fb303987eb9", "lon": -76.9312915, "is_disabled": 0, "type": "electric_scooter"}, {"bike_id": "525657da8eb3ddc53ce8ef2a95e26f70", "lat": 38.907745166666665, "is_reserved": 0, "fusion_lat": 0.0, "rental_uris": {"android": "https://dc.lft.to/lastmile_qr_scan", "ios": "https://dc.lft.to/lastmile_qr_scan"}, "fusion_lon": 0.0, "name": "525657da8eb3ddc53ce8ef2a95e26f70", "lon": -77.03471083333334, "is_disabled": 0, "type": "electric_scooter"}, {"bike_id": "7e99d6890006df79af9fd00e3eaa142b", "lat": 38.8922345, "is_reserved": 0, "fusion_lat": 0.0, "rental_uris": {"android": "https://dc.lft.to/lastmile_qr_scan", "ios": "https://dc.lft.to/lastmile_qr_scan"}, "fusion_lon": 0.0, "name": "7e99d6890006df79af9fd00e3eaa142b", "lon": -77.043089, "is_disabled": 0, "type": "electric_scooter"}, {"bike_id": "fdf429a5a74c9e512384bbecd22e9dfe", "lat": 38.9170005, "is_reserved": 0, "fusion_lat": 0.0, "rental_uris": {"android": "https://dc.lft.to/lastmile_qr_scan", "ios": "https://dc.lft.to/lastmile_qr_scan"}, "fusion_lon": 0.0, "name": "fdf429a5a74c9e512384bbecd22e9dfe", "lon": -77.03757166666666, "is_disabled": 0, "type": "electric_scooter"}, {"bike_id": "e81fdf154dca9bd710b88f174a332721", "lat": 38.8765505, "is_reserved": 0, "fusion_lat": 0.0, "rental_uris": {"android": "https://dc.lft.to/lastmile_qr_scan", "ios": "https://dc.lft.to/lastmile_qr_scan"}, "fusion_lon": 0.0, "name": "e81fdf154dca9bd710b88f174a332721", "lon": -77.00440733333333, "is_disabled": 0, "type": "electric_scooter"}, {"bike_id": "2cc8e2dcb81cf37230fdd4fe7c33fdd7", "lat": 38.92065366666667, "is_reserved": 0, "fusion_lat": 0.0, "rental_uris": {"android": "https://dc.lft.to/lastmile_qr_scan", "ios": "https://dc.lft.to/lastmile_qr_scan"}, "fusion_lon": 0.0, "name": "2cc8e2dcb81cf37230fdd4fe7c33fdd7", "lon": -77.0425705, "is_disabled": 0, "type": "electric_scooter"}, {"bike_id": "74862cd3820d98237e53ed727b67a999", "lat": 38.911287, "is_reserved": 0, "fusion_lat": 0.0, "rental_uris": {"android": "https://dc.lft.to/lastmile_qr_scan", "ios": "https://dc.lft.to/lastmile_qr_scan"}, "fusion_lon": 0.0, "name": "74862cd3820d98237e53ed727b67a999", "lon": -77.04337, "is_disabled": 0, "type": "electric_scooter"}, {"bike_id": "e5d485a57774c5ff0bdbfc5f490b7cdf", "lat": 38.9156295, "is_reserved": 0, "fusion_lat": 0.0, "rental_uris": {"android": "https://dc.lft.to/lastmile_qr_scan", "ios": "https://dc.lft.to/lastmile_qr_scan"}, "fusion_lon": 0.0, "name": "e5d485a57774c5ff0bdbfc5f490b7cdf", "lon": -77.03576433333333, "is_disabled": 0, "type": "electric_scooter"}, {"bike_id": "7d02d93e7795255e5390edbcbcd5c77a", "lat": 38.9060095, "is_reserved": 0, "fusion_lat": 0.0, "rental_uris": {"android": "https://dc.lft.to/lastmile_qr_scan", "ios": "https://dc.lft.to/lastmile_qr_scan"}, "fusion_lon": 0.0, "name": "7d02d93e7795255e5390edbcbcd5c77a", "lon": -77.02683283333333, "is_disabled": 0, "type": "electric_scooter"}, {"bike_id": "6303abcbc8ffef58a0c9d74a45d9cb02", "lat": 38.89748216666667, "is_reserved": 0, "fusion_lat": 0.0, "rental_uris": {"android": "https://dc.lft.to/lastmile_qr_scan", "ios": "https://dc.lft.to/lastmile_qr_scan"}, "fusion_lon": 0.0, "name": "6303abcbc8ffef58a0c9d74a45d9cb02", "lon": -77.02752616666666, "is_disabled": 0, "type": "electric_scooter"}, {"bike_id": "5c9ff12554ded34ac9c44ef17bb2dd66", "lat": 38.8924795, "is_reserved": 0, "fusion_lat": 0.0, "rental_uris": {"android": "https://dc.lft.to/lastmile_qr_scan", "ios": "https://dc.lft.to/lastmile_qr_scan"}, "fusion_lon": 0.0, "name": "5c9ff12554ded34ac9c44ef17bb2dd66", "lon": -77.03350383333333, "is_disabled": 0, "type": "electric_scooter"}, {"bike_id": "80cb1fb703db4dd4c4acd2a89b799728", "lat": 38.921754, "is_reserved": 0, "fusion_lat": 0.0, "rental_uris": {"android": "https://dc.lft.to/lastmile_qr_scan", "ios": "https://dc.lft.to/lastmile_qr_scan"}, "fusion_lon": 0.0, "name": "80cb1fb703db4dd4c4acd2a89b799728", "lon": -77.01918916666666, "is_disabled": 0, "type": "electric_scooter"}, {"bike_id": "b19d3ec677350c0c095b8bc6c5c87e6a", "lat": 38.92625, "is_reserved": 0, "fusion_lat": 0.0, "rental_uris": {"android": "https://dc.lft.to/lastmile_qr_scan", "ios": "https://dc.lft.to/lastmile_qr_scan"}, "fusion_lon": 0.0, "name": "b19d3ec677350c0c095b8bc6c5c87e6a", "lon": -77.04182316666666, "is_disabled": 0, "type": "electric_scooter"}, {"bike_id": "25eaea207dbc0c0e5606dc8a5b19852f", "lat": 38.93654516666667, "is_reserved": 0, "fusion_lat": 0.0, "rental_uris": {"android": "https://dc.lft.to/lastmile_qr_scan", "ios": "https://dc.lft.to/lastmile_qr_scan"}, "fusion_lon": 0.0, "name": "25eaea207dbc0c0e5606dc8a5b19852f", "lon": -77.03353933333334, "is_disabled": 0, "type": "electric_scooter"}, {"bike_id": "adb87a1feceed4de84908e4fb45d51b6", "lat": 38.901433, "is_reserved": 0, "fusion_lat": 0.0, "rental_uris": {"android": "https://dc.lft.to/lastmile_qr_scan", "ios": "https://dc.lft.to/lastmile_qr_scan"}, "fusion_lon": 0.0, "name": "adb87a1feceed4de84908e4fb45d51b6", "lon": -76.93090216666667, "is_disabled": 0, "type": "electric_scooter"}, {"bike_id": "32d6f1d2793fcbc66c37e7d15c0daee1", "lat": 38.902976833333334, "is_reserved": 0, "fusion_lat": 0.0, "rental_uris": {"android": "https://dc.lft.to/lastmile_qr_scan", "ios": "https://dc.lft.to/lastmile_qr_scan"}, "fusion_lon": 0.0, "name": "32d6f1d2793fcbc66c37e7d15c0daee1", "lon": -77.03365033333333, "is_disabled": 0, "type": "electric_scooter"}, {"bike_id": "2db0c5b58ae25d24154ba1e1d7929bd1", "lat": 38.86335016666666, "is_reserved": 0, "fusion_lat": 0.0, "rental_uris": {"android": "https://dc.lft.to/lastmile_qr_scan", "ios": "https://dc.lft.to/lastmile_qr_scan"}, "fusion_lon": 0.0, "name": "2db0c5b58ae25d24154ba1e1d7929bd1", "lon": -76.98721783333333, "is_disabled": 0, "type": "electric_bike"}, {"bike_id": "3286cb32341bc7106a60e6a7c81ec369", "lat": 38.892242833333334, "is_reserved": 0, "fusion_lat": 0.0, "rental_uris": {"android": "https://dc.lft.to/lastmile_qr_scan", "ios": "https://dc.lft.to/lastmile_qr_scan"}, "fusion_lon": 0.0, "name": "3286cb32341bc7106a60e6a7c81ec369", "lon": -77.0321475, "is_disabled": 0, "type": "electric_scooter"}, {"bike_id": "7ef68c56d6b72d450d50b00e19a791c1", "lat": 38.89918616666667, "is_reserved": 0, "fusion_lat": 0.0, "rental_uris": {"android": "https://dc.lft.to/lastmile_qr_scan", "ios": "https://dc.lft.to/lastmile_qr_scan"}, "fusion_lon": 0.0, "name": "7ef68c56d6b72d450d50b00e19a791c1", "lon": -76.93366933333333, "is_disabled": 0, "type": "electric_scooter"}, {"bike_id": "0c4d44da62f32b169b42620622892ba7", "lat": 38.87889533333333, "is_reserved": 0, "fusion_lat": 0.0, "rental_uris": {"android": "https://dc.lft.to/lastmile_qr_scan", "ios": "https://dc.lft.to/lastmile_qr_scan"}, "fusion_lon": 0.0, "name": "0c4d44da62f32b169b42620622892ba7", "lon": -77.022497, "is_disabled": 0, "type": "electric_scooter"}, {"bike_id": "9d2b9ea872f2626e7157ce0eaced0100", "lat": 38.89224733333333, "is_reserved": 0, "fusion_lat": 0.0, "rental_uris": {"android": "https://dc.lft.to/lastmile_qr_scan", "ios": "https://dc.lft.to/lastmile_qr_scan"}, "fusion_lon": 0.0, "name": "9d2b9ea872f2626e7157ce0eaced0100", "lon": -77.03163516666666, "is_disabled": 0, "type": "electric_scooter"}, {"bike_id": "b9f4ea8f1ad61f1d8612ba466d725cbf", "lat": 38.91674016666666, "is_reserved": 0, "fusion_lat": 0.0, "rental_uris": {"android": "https://dc.lft.to/lastmile_qr_scan", "ios": "https://dc.lft.to/lastmile_qr_scan"}, "fusion_lon": 0.0, "name": "b9f4ea8f1ad61f1d8612ba466d725cbf", "lon": -76.981788, "is_disabled": 0, "type": "electric_scooter"}, {"bike_id": "8948eac67c7c1aefefc47e35afb85d30", "lat": 38.892228, "is_reserved": 0, "fusion_lat": 0.0, "rental_uris": {"android": "https://dc.lft.to/lastmile_qr_scan", "ios": "https://dc.lft.to/lastmile_qr_scan"}, "fusion_lon": 0.0, "name": "8948eac67c7c1aefefc47e35afb85d30", "lon": -77.0245565, "is_disabled": 0, "type": "electric_scooter"}, {"bike_id": "85d2367d1a2e378d2868c3493664db61", "lat": 38.91803816666667, "is_reserved": 0, "fusion_lat": 0.0, "rental_uris": {"android": "https://dc.lft.to/lastmile_qr_scan", "ios": "https://dc.lft.to/lastmile_qr_scan"}, "fusion_lon": 0.0, "name": "85d2367d1a2e378d2868c3493664db61", "lon": -77.03443033333333, "is_disabled": 0, "type": "electric_scooter"}, {"bike_id": "0b5acff60fdd9decfca1f10cf71994e6", "lat": 38.911082, "is_reserved": 0, "fusion_lat": 0.0, "rental_uris": {"android": "https://dc.lft.to/lastmile_qr_scan", "ios": "https://dc.lft.to/lastmile_qr_scan"}, "fusion_lon": 0.0, "name": "0b5acff60fdd9decfca1f10cf71994e6", "lon": -77.02233316666667, "is_disabled": 0, "type": "electric_scooter"}, {"bike_id": "900a3abb423102bf37d55faa6e87e4bd", "lat": 38.928805, "is_reserved": 0, "fusion_lat": 0.0, "rental_uris": {"android": "https://dc.lft.to/lastmile_qr_scan", "ios": "https://dc.lft.to/lastmile_qr_scan"}, "fusion_lon": 0.0, "name": "900a3abb423102bf37d55faa6e87e4bd", "lon": -77.033034, "is_disabled": 0, "type": "electric_scooter"}, {"bike_id": "ae208a78d8e264d88796be5daca4a746", "lat": 38.916853333333336, "is_reserved": 0, "fusion_lat": 0.0, "rental_uris": {"android": "https://dc.lft.to/lastmile_qr_scan", "ios": "https://dc.lft.to/lastmile_qr_scan"}, "fusion_lon": 0.0, "name": "ae208a78d8e264d88796be5daca4a746", "lon": -77.02308266666667, "is_disabled": 0, "type": "electric_scooter"}, {"bike_id": "c8ca255ef8bd44642a297fb8682c58fe", "lat": 38.89916633333333, "is_reserved": 0, "fusion_lat": 0.0, "rental_uris": {"android": "https://dc.lft.to/lastmile_qr_scan", "ios": "https://dc.lft.to/lastmile_qr_scan"}, "fusion_lon": 0.0, "name": "c8ca255ef8bd44642a297fb8682c58fe", "lon": -76.93367, "is_disabled": 0, "type": "electric_scooter"}, {"bike_id": "dc19c8b532e1e8107ce510ee0c9c80fd", "lat": 38.92334016666667, "is_reserved": 0, "fusion_lat": 0.0, "rental_uris": {"android": "https://dc.lft.to/lastmile_qr_scan", "ios": "https://dc.lft.to/lastmile_qr_scan"}, "fusion_lon": 0.0, "name": "dc19c8b532e1e8107ce510ee0c9c80fd", "lon": -77.02967, "is_disabled": 0, "type": "electric_scooter"}, {"bike_id": "17005d774cdc318372fde2bba82ff9a1", "lat": 38.897924333333336, "is_reserved": 0, "fusion_lat": 0.0, "rental_uris": {"android": "https://dc.lft.to/lastmile_qr_scan", "ios": "https://dc.lft.to/lastmile_qr_scan"}, "fusion_lon": 0.0, "name": "17005d774cdc318372fde2bba82ff9a1", "lon": -77.01208616666666, "is_disabled": 0, "type": "electric_scooter"}, {"bike_id": "41552e90a0af161e4ea5514cea06514c", "lat": 38.904488, "is_reserved": 0, "fusion_lat": 0.0, "rental_uris": {"android": "https://dc.lft.to/lastmile_qr_scan", "ios": "https://dc.lft.to/lastmile_qr_scan"}, "fusion_lon": 0.0, "name": "41552e90a0af161e4ea5514cea06514c", "lon": -76.980018, "is_disabled": 0, "type": "electric_scooter"}, {"bike_id": "da553d2989a94fc711c22f890d1b24ce", "lat": 38.925058, "is_reserved": 0, "fusion_lat": 0.0, "rental_uris": {"android": "https://dc.lft.to/lastmile_qr_scan", "ios": "https://dc.lft.to/lastmile_qr_scan"}, "fusion_lon": 0.0, "name": "da553d2989a94fc711c22f890d1b24ce", "lon": -77.03807966666666, "is_disabled": 0, "type": "electric_scooter"}, {"bike_id": "af3628cc7c6f58bb9d71c54c868e5329", "lat": 38.8922875, "is_reserved": 0, "fusion_lat": 0.0, "rental_uris": {"android": "https://dc.lft.to/lastmile_qr_scan", "ios": "https://dc.lft.to/lastmile_qr_scan"}, "fusion_lon": 0.0, "name": "af3628cc7c6f58bb9d71c54c868e5329", "lon": -77.014907, "is_disabled": 0, "type": "electric_scooter"}, {"bike_id": "1953ebdba86a854a89b0564a8b3e8416", "lat": 38.9172295, "is_reserved": 0, "fusion_lat": 0.0, "rental_uris": {"android": "https://dc.lft.to/lastmile_qr_scan", "ios": "https://dc.lft.to/lastmile_qr_scan"}, "fusion_lon": 0.0, "name": "1953ebdba86a854a89b0564a8b3e8416", "lon": -77.0324085, "is_disabled": 0, "type": "electric_scooter"}, {"bike_id": "45cb8aaa5bff8aec789363c871c460cc", "lat": 38.894574, "is_reserved": 0, "fusion_lat": 0.0, "rental_uris": {"android": "https://dc.lft.to/lastmile_qr_scan", "ios": "https://dc.lft.to/lastmile_qr_scan"}, "fusion_lon": 0.0, "name": "45cb8aaa5bff8aec789363c871c460cc", "lon": -77.04676766666667, "is_disabled": 0, "type": "electric_scooter"}, {"bike_id": "7103f5765be41d9c5aac9ce09b0b859c", "lat": 38.930290166666666, "is_reserved": 0, "fusion_lat": 0.0, "rental_uris": {"android": "https://dc.lft.to/lastmile_qr_scan", "ios": "https://dc.lft.to/lastmile_qr_scan"}, "fusion_lon": 0.0, "name": "7103f5765be41d9c5aac9ce09b0b859c", "lon": -77.03791266666667, "is_disabled": 0, "type": "electric_scooter"}, {"bike_id": "9ad248568109fe1106ada19b22c82c5b", "lat": 38.905152, "is_reserved": 0, "fusion_lat": 0.0, "rental_uris": {"android": "https://dc.lft.to/lastmile_qr_scan", "ios": "https://dc.lft.to/lastmile_qr_scan"}, "fusion_lon": 0.0, "name": "9ad248568109fe1106ada19b22c82c5b", "lon": -77.04910366666667, "is_disabled": 0, "type": "electric_scooter"}, {"bike_id": "6794ff1e667105f8847cccb4584e3d38", "lat": 38.91986033333333, "is_reserved": 0, "fusion_lat": 0.0, "rental_uris": {"android": "https://dc.lft.to/lastmile_qr_scan", "ios": "https://dc.lft.to/lastmile_qr_scan"}, "fusion_lon": 0.0, "name": "6794ff1e667105f8847cccb4584e3d38", "lon": -77.01217733333333, "is_disabled": 0, "type": "electric_scooter"}, {"bike_id": "056c3d7b3f3052cc747a52c529eadd1f", "lat": 38.91187033333333, "is_reserved": 0, "fusion_lat": 0.0, "rental_uris": {"android": "https://dc.lft.to/lastmile_qr_scan", "ios": "https://dc.lft.to/lastmile_qr_scan"}, "fusion_lon": 0.0, "name": "056c3d7b3f3052cc747a52c529eadd1f", "lon": -77.03974083333334, "is_disabled": 0, "type": "electric_scooter"}, {"bike_id": "c5185f68df21fb7fab58ff50353a033d", "lat": 38.93608416666667, "is_reserved": 0, "fusion_lat": 0.0, "rental_uris": {"android": "https://dc.lft.to/lastmile_qr_scan", "ios": "https://dc.lft.to/lastmile_qr_scan"}, "fusion_lon": 0.0, "name": "c5185f68df21fb7fab58ff50353a033d", "lon": -77.03283133333333, "is_disabled": 0, "type": "electric_scooter"}, {"bike_id": "75330f9489c6ee6f75a0ebf97eb945eb", "lat": 38.92447116666666, "is_reserved": 0, "fusion_lat": 0.0, "rental_uris": {"android": "https://dc.lft.to/lastmile_qr_scan", "ios": "https://dc.lft.to/lastmile_qr_scan"}, "fusion_lon": 0.0, "name": "75330f9489c6ee6f75a0ebf97eb945eb", "lon": -77.02148116666666, "is_disabled": 0, "type": "electric_scooter"}, {"bike_id": "28e0c4ae841bc2f7d618af937d4d50aa", "lat": 38.80447983333333, "is_reserved": 0, "fusion_lat": 0.0, "rental_uris": {"android": "https://dc.lft.to/lastmile_qr_scan", "ios": "https://dc.lft.to/lastmile_qr_scan"}, "fusion_lon": 0.0, "name": "28e0c4ae841bc2f7d618af937d4d50aa", "lon": -77.05393783333334, "is_disabled": 0, "type": "electric_bike"}, {"bike_id": "b91c0a94f4dc39e7231d88d6170aaa4a", "lat": 38.895093833333334, "is_reserved": 0, "fusion_lat": 0.0, "rental_uris": {"android": "https://dc.lft.to/lastmile_qr_scan", "ios": "https://dc.lft.to/lastmile_qr_scan"}, "fusion_lon": 0.0, "name": "b91c0a94f4dc39e7231d88d6170aaa4a", "lon": -77.0033945, "is_disabled": 0, "type": "electric_scooter"}, {"bike_id": "52d955dd53c90a232ea01acfae8fa300", "lat": 38.88432016666667, "is_reserved": 0, "fusion_lat": 0.0, "rental_uris": {"android": "https://dc.lft.to/lastmile_qr_scan", "ios": "https://dc.lft.to/lastmile_qr_scan"}, "fusion_lon": 0.0, "name": "52d955dd53c90a232ea01acfae8fa300", "lon": -76.9575665, "is_disabled": 0, "type": "electric_scooter"}, {"bike_id": "9b715b58f5f6f5862f8a4a1266ab5a05", "lat": 38.95089083333333, "is_reserved": 0, "fusion_lat": 0.0, "rental_uris": {"android": "https://dc.lft.to/lastmile_qr_scan", "ios": "https://dc.lft.to/lastmile_qr_scan"}, "fusion_lon": 0.0, "name": "9b715b58f5f6f5862f8a4a1266ab5a05", "lon": -76.997954, "is_disabled": 0, "type": "electric_bike"}, {"bike_id": "e151987e0bc35d82845919be7ac75520", "lat": 38.93393783333333, "is_reserved": 0, "fusion_lat": 0.0, "rental_uris": {"android": "https://dc.lft.to/lastmile_qr_scan", "ios": "https://dc.lft.to/lastmile_qr_scan"}, "fusion_lon": 0.0, "name": "e151987e0bc35d82845919be7ac75520", "lon": -77.03222466666666, "is_disabled": 0, "type": "electric_scooter"}, {"bike_id": "ec131bc1af66b2c29696aabdeef7675a", "lat": 38.909538166666664, "is_reserved": 0, "fusion_lat": 0.0, "rental_uris": {"android": "https://dc.lft.to/lastmile_qr_scan", "ios": "https://dc.lft.to/lastmile_qr_scan"}, "fusion_lon": 0.0, "name": "ec131bc1af66b2c29696aabdeef7675a", "lon": -77.048874, "is_disabled": 0, "type": "electric_scooter"}, {"bike_id": "8b57fcf19b4d6c0d3cf6911288192ca7", "lat": 38.839330333333336, "is_reserved": 0, "fusion_lat": 0.0, "rental_uris": {"android": "https://dc.lft.to/lastmile_qr_scan", "ios": "https://dc.lft.to/lastmile_qr_scan"}, "fusion_lon": 0.0, "name": "8b57fcf19b4d6c0d3cf6911288192ca7", "lon": -77.07902933333334, "is_disabled": 0, "type": "electric_bike"}, {"bike_id": "48a8e99bf0cfdd0f7adef262123189a4", "lat": 38.911245666666666, "is_reserved": 0, "fusion_lat": 0.0, "rental_uris": {"android": "https://dc.lft.to/lastmile_qr_scan", "ios": "https://dc.lft.to/lastmile_qr_scan"}, "fusion_lon": 0.0, "name": "48a8e99bf0cfdd0f7adef262123189a4", "lon": -77.03182216666667, "is_disabled": 0, "type": "electric_scooter"}, {"bike_id": "24e00e895f6c33b478714c8e80243b1c", "lat": 38.9055345, "is_reserved": 0, "fusion_lat": 0.0, "rental_uris": {"android": "https://dc.lft.to/lastmile_qr_scan", "ios": "https://dc.lft.to/lastmile_qr_scan"}, "fusion_lon": 0.0, "name": "24e00e895f6c33b478714c8e80243b1c", "lon": -76.99620366666667, "is_disabled": 0, "type": "electric_scooter"}, {"bike_id": "5aefeebd1fc8f2f19a7c5c20604a56dd", "lat": 38.89991716666667, "is_reserved": 0, "fusion_lat": 0.0, "rental_uris": {"android": "https://dc.lft.to/lastmile_qr_scan", "ios": "https://dc.lft.to/lastmile_qr_scan"}, "fusion_lon": 0.0, "name": "5aefeebd1fc8f2f19a7c5c20604a56dd", "lon": -77.02448516666666, "is_disabled": 0, "type": "electric_scooter"}, {"bike_id": "b59df23fcd456897f3f39e1c17843f7a", "lat": 38.900107, "is_reserved": 0, "fusion_lat": 0.0, "rental_uris": {"android": "https://dc.lft.to/lastmile_qr_scan", "ios": "https://dc.lft.to/lastmile_qr_scan"}, "fusion_lon": 0.0, "name": "b59df23fcd456897f3f39e1c17843f7a", "lon": -77.0436595, "is_disabled": 0, "type": "electric_scooter"}, {"bike_id": "2024b329700f1f24d291ab99a21631a2", "lat": 38.872995833333334, "is_reserved": 0, "fusion_lat": 0.0, "rental_uris": {"android": "https://dc.lft.to/lastmile_qr_scan", "ios": "https://dc.lft.to/lastmile_qr_scan"}, "fusion_lon": 0.0, "name": "2024b329700f1f24d291ab99a21631a2", "lon": -77.13929233333333, "is_disabled": 0, "type": "electric_bike"}, {"bike_id": "b467393f96da086638249d836edfd186", "lat": 38.911412, "is_reserved": 0, "fusion_lat": 0.0, "rental_uris": {"android": "https://dc.lft.to/lastmile_qr_scan", "ios": "https://dc.lft.to/lastmile_qr_scan"}, "fusion_lon": 0.0, "name": "b467393f96da086638249d836edfd186", "lon": -76.99013933333333, "is_disabled": 0, "type": "electric_scooter"}, {"bike_id": "2bb8ff4f0d1e85a5db4ae2352e312e7a", "lat": 38.89222733333333, "is_reserved": 0, "fusion_lat": 0.0, "rental_uris": {"android": "https://dc.lft.to/lastmile_qr_scan", "ios": "https://dc.lft.to/lastmile_qr_scan"}, "fusion_lon": 0.0, "name": "2bb8ff4f0d1e85a5db4ae2352e312e7a", "lon": -77.02458066666667, "is_disabled": 0, "type": "electric_scooter"}, {"bike_id": "17774fc41f17403f745d99c0c7acc358", "lat": 38.916797, "is_reserved": 0, "fusion_lat": 0.0, "rental_uris": {"android": "https://dc.lft.to/lastmile_qr_scan", "ios": "https://dc.lft.to/lastmile_qr_scan"}, "fusion_lon": 0.0, "name": "17774fc41f17403f745d99c0c7acc358", "lon": -77.036944, "is_disabled": 0, "type": "electric_scooter"}, {"bike_id": "e59512cf2b6f190b245b49012317dd9d", "lat": 38.89622283333333, "is_reserved": 0, "fusion_lat": 0.0, "rental_uris": {"android": "https://dc.lft.to/lastmile_qr_scan", "ios": "https://dc.lft.to/lastmile_qr_scan"}, "fusion_lon": 0.0, "name": "e59512cf2b6f190b245b49012317dd9d", "lon": -77.02200833333333, "is_disabled": 0, "type": "electric_scooter"}, {"bike_id": "d40e0ea7dd5ce96735a4d7a19b23c59c", "lat": 38.928467833333336, "is_reserved": 0, "fusion_lat": 0.0, "rental_uris": {"android": "https://dc.lft.to/lastmile_qr_scan", "ios": "https://dc.lft.to/lastmile_qr_scan"}, "fusion_lon": 0.0, "name": "d40e0ea7dd5ce96735a4d7a19b23c59c", "lon": -77.03280683333334, "is_disabled": 0, "type": "electric_scooter"}, {"bike_id": "76f14f30ed46c28ebd80c2dab764fb70", "lat": 38.8983895, "is_reserved": 0, "fusion_lat": 0.0, "rental_uris": {"android": "https://dc.lft.to/lastmile_qr_scan", "ios": "https://dc.lft.to/lastmile_qr_scan"}, "fusion_lon": 0.0, "name": "76f14f30ed46c28ebd80c2dab764fb70", "lon": -77.0484095, "is_disabled": 0, "type": "electric_scooter"}, {"bike_id": "c559a6f518abf8e1f0b2df2303bc0dac", "lat": 38.93159633333333, "is_reserved": 0, "fusion_lat": 0.0, "rental_uris": {"android": "https://dc.lft.to/lastmile_qr_scan", "ios": "https://dc.lft.to/lastmile_qr_scan"}, "fusion_lon": 0.0, "name": "c559a6f518abf8e1f0b2df2303bc0dac", "lon": -77.00118066666667, "is_disabled": 0, "type": "electric_bike"}, {"bike_id": "210a6f0e9591691a51e49729ba514e92", "lat": 38.9287065, "is_reserved": 0, "fusion_lat": 0.0, "rental_uris": {"android": "https://dc.lft.to/lastmile_qr_scan", "ios": "https://dc.lft.to/lastmile_qr_scan"}, "fusion_lon": 0.0, "name": "210a6f0e9591691a51e49729ba514e92", "lon": -77.03224, "is_disabled": 0, "type": "electric_scooter"}, {"bike_id": "f0164810961d5c8add1450356863be4d", "lat": 38.87180466666667, "is_reserved": 0, "fusion_lat": 0.0, "rental_uris": {"android": "https://dc.lft.to/lastmile_qr_scan", "ios": "https://dc.lft.to/lastmile_qr_scan"}, "fusion_lon": 0.0, "name": "f0164810961d5c8add1450356863be4d", "lon": -77.00624166666667, "is_disabled": 0, "type": "electric_scooter"}, {"bike_id": "412493b114e49838d177c2e08c7ce23c", "lat": 38.884112, "is_reserved": 0, "fusion_lat": 0.0, "rental_uris": {"android": "https://dc.lft.to/lastmile_qr_scan", "ios": "https://dc.lft.to/lastmile_qr_scan"}, "fusion_lon": 0.0, "name": "412493b114e49838d177c2e08c7ce23c", "lon": -77.01781916666667, "is_disabled": 0, "type": "electric_scooter"}, {"bike_id": "3f687318a4fd3a31f0a899cb1e29dd0e", "lat": 38.89979483333333, "is_reserved": 0, "fusion_lat": 0.0, "rental_uris": {"android": "https://dc.lft.to/lastmile_qr_scan", "ios": "https://dc.lft.to/lastmile_qr_scan"}, "fusion_lon": 0.0, "name": "3f687318a4fd3a31f0a899cb1e29dd0e", "lon": -76.9961015, "is_disabled": 0, "type": "electric_scooter"}, {"bike_id": "917a75e38fe6e6e9bb8fd5839d99573d", "lat": 38.90143533333333, "is_reserved": 0, "fusion_lat": 0.0, "rental_uris": {"android": "https://dc.lft.to/lastmile_qr_scan", "ios": "https://dc.lft.to/lastmile_qr_scan"}, "fusion_lon": 0.0, "name": "917a75e38fe6e6e9bb8fd5839d99573d", "lon": -77.04054866666667, "is_disabled": 0, "type": "electric_scooter"}, {"bike_id": "eee96278272be75e0eb730355b570beb", "lat": 38.9078725, "is_reserved": 0, "fusion_lat": 0.0, "rental_uris": {"android": "https://dc.lft.to/lastmile_qr_scan", "ios": "https://dc.lft.to/lastmile_qr_scan"}, "fusion_lon": 0.0, "name": "eee96278272be75e0eb730355b570beb", "lon": -77.02688016666667, "is_disabled": 0, "type": "electric_scooter"}, {"bike_id": "46106e77c52ac3671970953d414bc482", "lat": 38.903632333333334, "is_reserved": 0, "fusion_lat": 0.0, "rental_uris": {"android": "https://dc.lft.to/lastmile_qr_scan", "ios": "https://dc.lft.to/lastmile_qr_scan"}, "fusion_lon": 0.0, "name": "46106e77c52ac3671970953d414bc482", "lon": -76.9921885, "is_disabled": 0, "type": "electric_scooter"}, {"bike_id": "0a20a0c4e1d1fb3ef02c62d1fd5d8e0a", "lat": 38.887312666666666, "is_reserved": 0, "fusion_lat": 0.0, "rental_uris": {"android": "https://dc.lft.to/lastmile_qr_scan", "ios": "https://dc.lft.to/lastmile_qr_scan"}, "fusion_lon": 0.0, "name": "0a20a0c4e1d1fb3ef02c62d1fd5d8e0a", "lon": -77.02183533333333, "is_disabled": 0, "type": "electric_scooter"}, {"bike_id": "01bf3ce01ee977de53a685252b17c344", "lat": 38.9157005, "is_reserved": 0, "fusion_lat": 0.0, "rental_uris": {"android": "https://dc.lft.to/lastmile_qr_scan", "ios": "https://dc.lft.to/lastmile_qr_scan"}, "fusion_lon": 0.0, "name": "01bf3ce01ee977de53a685252b17c344", "lon": -77.03045366666667, "is_disabled": 0, "type": "electric_scooter"}, {"bike_id": "a90d563c28e5e1d023b3d07dc458de19", "lat": 39.051072166666664, "is_reserved": 0, "fusion_lat": 0.0, "rental_uris": {"android": "https://dc.lft.to/lastmile_qr_scan", "ios": "https://dc.lft.to/lastmile_qr_scan"}, "fusion_lon": 0.0, "name": "a90d563c28e5e1d023b3d07dc458de19", "lon": -77.117486, "is_disabled": 0, "type": "electric_bike"}, {"bike_id": "85a39874fd929e2373298a134e4a2c1f", "lat": 38.885427166666666, "is_reserved": 0, "fusion_lat": 0.0, "rental_uris": {"android": "https://dc.lft.to/lastmile_qr_scan", "ios": "https://dc.lft.to/lastmile_qr_scan"}, "fusion_lon": 0.0, "name": "85a39874fd929e2373298a134e4a2c1f", "lon": -77.00577716666666, "is_disabled": 0, "type": "electric_scooter"}, {"bike_id": "50cbead652960b71dce5b7862576a8e9", "lat": 38.93716383333334, "is_reserved": 0, "fusion_lat": 0.0, "rental_uris": {"android": "https://dc.lft.to/lastmile_qr_scan", "ios": "https://dc.lft.to/lastmile_qr_scan"}, "fusion_lon": 0.0, "name": "50cbead652960b71dce5b7862576a8e9", "lon": -77.03631466666667, "is_disabled": 0, "type": "electric_scooter"}, {"bike_id": "4db7d38d25486c9105466c1e6ec3983e", "lat": 38.895199833333336, "is_reserved": 0, "fusion_lat": 0.0, "rental_uris": {"android": "https://dc.lft.to/lastmile_qr_scan", "ios": "https://dc.lft.to/lastmile_qr_scan"}, "fusion_lon": 0.0, "name": "4db7d38d25486c9105466c1e6ec3983e", "lon": -77.04335283333333, "is_disabled": 0, "type": "electric_scooter"}, {"bike_id": "dca6a7e36948232646b0d4d2f10a2300", "lat": 38.95636916666667, "is_reserved": 0, "fusion_lat": 0.0, "rental_uris": {"android": "https://dc.lft.to/lastmile_qr_scan", "ios": "https://dc.lft.to/lastmile_qr_scan"}, "fusion_lon": 0.0, "name": "dca6a7e36948232646b0d4d2f10a2300", "lon": -77.03628666666667, "is_disabled": 0, "type": "electric_scooter"}, {"bike_id": "b75f6e2c87ca4bb9c2b92796dbaa15a7", "lat": 38.91916366666667, "is_reserved": 0, "fusion_lat": 0.0, "rental_uris": {"android": "https://dc.lft.to/lastmile_qr_scan", "ios": "https://dc.lft.to/lastmile_qr_scan"}, "fusion_lon": 0.0, "name": "b75f6e2c87ca4bb9c2b92796dbaa15a7", "lon": -77.013479, "is_disabled": 0, "type": "electric_scooter"}, {"bike_id": "8e76dc984278fad1a4a507b89cca58e8", "lat": 38.9275515, "is_reserved": 0, "fusion_lat": 0.0, "rental_uris": {"android": "https://dc.lft.to/lastmile_qr_scan", "ios": "https://dc.lft.to/lastmile_qr_scan"}, "fusion_lon": 0.0, "name": "8e76dc984278fad1a4a507b89cca58e8", "lon": -77.0238395, "is_disabled": 0, "type": "electric_scooter"}, {"bike_id": "c6b6839d1f2fbe4b3aad7777998733dc", "lat": 38.901931166666664, "is_reserved": 0, "fusion_lat": 0.0, "rental_uris": {"android": "https://dc.lft.to/lastmile_qr_scan", "ios": "https://dc.lft.to/lastmile_qr_scan"}, "fusion_lon": 0.0, "name": "c6b6839d1f2fbe4b3aad7777998733dc", "lon": -76.97880033333334, "is_disabled": 0, "type": "electric_scooter"}, {"bike_id": "1e0bd3301e8f0e3edc64dfe08152ff0c", "lat": 38.915326, "is_reserved": 0, "fusion_lat": 0.0, "rental_uris": {"android": "https://dc.lft.to/lastmile_qr_scan", "ios": "https://dc.lft.to/lastmile_qr_scan"}, "fusion_lon": 0.0, "name": "1e0bd3301e8f0e3edc64dfe08152ff0c", "lon": -76.983492, "is_disabled": 0, "type": "electric_scooter"},