{"data": {"bikes": [{"name": "3e165b3faec3d2b84ec7d68a2c87df65", "fusion_lat": 0.0, "type": "electric_scooter", "lat": 38.8757865, "is_reserved": 0, "is_disabled": 0, "fusion_lon": 0.0, "bike_id": "3e165b3faec3d2b84ec7d68a2c87df65", "lon": -77.01063066666667, "rental_uris": {"ios": "https://dc.lft.to/lastmile_qr_scan", "android": "https://dc.lft.to/lastmile_qr_scan"}}, {"name": "24c8657b4a0b1dde9d6721963c21ba48", "fusion_lat": 0.0, "type": "electric_scooter", "lat": 38.912902, "is_reserved": 0, "is_disabled": 0, "fusion_lon": 0.0, "bike_id": "24c8657b4a0b1dde9d6721963c21ba48", "lon": -76.93748116666667, "rental_uris": {"ios": "https://dc.lft.to/lastmile_qr_scan", "android": "https://dc.lft.to/lastmile_qr_scan"}}, {"name": "6b1e2c1821e99b92128bd9e095e4ae88", "fusion_lat": 0.0, "type": "electric_scooter", "lat": 38.929643666666664, "is_reserved": 0, "is_disabled": 0, "fusion_lon": 0.0, "bike_id": "6b1e2c1821e99b92128bd9e095e4ae88", "lon": -77.04112116666667, "rental_uris": {"ios": "https://dc.lft.to/lastmile_qr_scan", "android": "https://dc.lft.to/lastmile_qr_scan"}}, {"name": "7741032e82d75c93877861573127c82e", "fusion_lat": 0.0, "type": "electric_scooter", "lat": 38.91406033333333, "is_reserved": 0, "is_disabled": 0, "fusion_lon": 0.0, "bike_id": "7741032e82d75c93877861573127c82e", "lon": -77.0395445, "rental_uris": {"ios": "https://dc.lft.to/lastmile_qr_scan", "android": "https://dc.lft.to/lastmile_qr_scan"}}, {"name": "390d41967804e5f2cec1b8dfcc5826e4", "fusion_lat": 0.0, "type": "electric_scooter", "lat": 38.917648166666666, "is_reserved": 0, "is_disabled": 0, "fusion_lon": 0.0, "bike_id": "390d41967804e5f2cec1b8dfcc5826e4", "lon": -77.09673366666667, "rental_uris": {"ios": "https://dc.lft.to/lastmile_qr_scan", "android": "https://dc.lft.to/lastmile_qr_scan"}}, {"name": "e851ddb70a89f356d1a5fb7ec7633f57", "fusion_lat": 0.0, "type": "electric_scooter", "lat": 38.919883666666664, "is_reserved": 0, "is_disabled": 0, "fusion_lon": 0.0, "bike_id": "e851ddb70a89f356d1a5fb7ec7633f57", "lon": -77.02379166666667, "rental_uris": {"ios": "https://dc.lft.to/lastmile_qr_scan", "android": "https://dc.lft.to/lastmile_qr_scan"}}, {"name": "e0cfa76490c9301fec3d9da97d55aabd", "fusion_lat": 0.0, "type": "electric_scooter", "lat": 38.86658116666667, "is_reserved": 0, "is_disabled": 0, "fusion_lon": 0.0, "bike_id": "e0cfa76490c9301fec3d9da97d55aabd", "lon": -76.98886633333333, "rental_uris": {"ios": "https://dc.lft.to/lastmile_qr_scan", "android": "https://dc.lft.to/lastmile_qr_scan"}}, {"name": "f4f30dd6c0ee4461be0427d56c5b211d", "fusion_lat": 0.0, "type": "electric_scooter", "lat": 38.896098333333335, "is_reserved": 0, "is_disabled": 0, "fusion_lon": 0.0, "bike_id": "f4f30dd6c0ee4461be0427d56c5b211d", "lon": -77.044631, "rental_uris": {"ios": "https://dc.lft.to/lastmile_qr_scan", "android": "https://dc.lft.to/lastmile_qr_scan"}}, {"name": "8cb63e24815661eff802a5773b709abe", "fusion_lat": 0.0, "type": "electric_scooter", "lat": 38.91112183333333, "is_reserved": 0, "is_disabled": 0, "fusion_lon": 0.0, "bike_id": "8cb63e24815661eff802a5773b709abe", "lon": -77.0246175, "rental_uris": {"ios": "https://dc.lft.to/lastmile_qr_scan", "android": "https://dc.lft.to/lastmile_qr_scan"}}, {"name": "2d92bac30220711fbc91bcacdaa938ec", "fusion_lat": 0.0, "type": "electric_scooter", "lat": 38.90799666666667, "is_reserved": 0, "is_disabled": 0, "fusion_lon": 0.0, "bike_id": "2d92bac30220711fbc91bcacdaa938ec", "lon": -77.0181645, "rental_uris": {"ios": "https://dc.lft.to/lastmile_qr_scan", "android": "https://dc.lft.to/lastmile_qr_scan"}}, {"name": "83ab200926e1c18d9eca5b7d1512c59d", "fusion_lat": 0.0, "type": "electric_scooter", "lat": 38.902532, "is_reserved": 0, "is_disabled": 0, "fusion_lon": 0.0, "bike_id": "83ab200926e1c18d9eca5b7d1512c59d", "lon": -76.97703033333333, "rental_uris": {"ios": "https://dc.lft.to/lastmile_qr_scan", "android": "https://dc.lft.to/lastmile_qr_scan"}}, {"name": "7a160b0aa4e3e3a2629df5a311b89359", "fusion_lat": 0.0, "type": "electric_scooter", "lat": 38.911471, "is_reserved": 0, "is_disabled": 0, "fusion_lon": 0.0, "bike_id": "7a160b0aa4e3e3a2629df5a311b89359", "lon": -77.01688583333333, "rental_uris": {"ios": "https://dc.lft.to/lastmile_qr_scan", "android": "https://dc.lft.to/lastmile_qr_scan"}}, {"name": "a3ab365b5cdd37b5382deb4b3d23878a", "fusion_lat": 0.0, "type": "electric_scooter", "lat": 38.928218333333334, "is_reserved": 0, "is_disabled": 0, "fusion_lon": 0.0, "bike_id": "a3ab365b5cdd37b5382deb4b3d23878a", "lon": -77.02256583333333, "rental_uris": {"ios": "https://dc.lft.to/lastmile_qr_scan", "android": "https://dc.lft.to/lastmile_qr_scan"}}, {"name": "22a21e9a92060e7a0d3c785117c3458c", "fusion_lat": 0.0, "type": "electric_bike", "lat": 38.89346616666667, "is_reserved": 0, "is_disabled": 0, "fusion_lon": 0.0, "bike_id": "22a21e9a92060e7a0d3c785117c3458c", "lon": -76.99138333333333, "rental_uris": {"ios": "https://dc.lft.to/lastmile_qr_scan", "android": "https://dc.lft.to/lastmile_qr_scan"}}, {"name": "f93fc026599cb53a46b232d83b2a9149", "fusion_lat": 0.0, "type": "electric_scooter", "lat": 38.919901333333335, "is_reserved": 0, "is_disabled": 0, "fusion_lon": 0.0, "bike_id": "f93fc026599cb53a46b232d83b2a9149", "lon": -77.023719, "rental_uris": {"ios": "https://dc.lft.to/lastmile_qr_scan", "android": "https://dc.lft.to/lastmile_qr_scan"}}, {"name": "72ff0688202ba5732608c1e58dd6bde4", "fusion_lat": 0.0, "type": "electric_scooter", "lat": 38.86963, "is_reserved": 0, "is_disabled": 0, "fusion_lon": 0.0, "bike_id": "72ff0688202ba5732608c1e58dd6bde4", "lon": -77.01377516666666, "rental_uris": {"ios": "https://dc.lft.to/lastmile_qr_scan", "android": "https://dc.lft.to/lastmile_qr_scan"}}, {"name": "457f44be2b6ee8f0510af797021bc450", "fusion_lat": 0.0, "type": "electric_bike", "lat": 38.900718499999996, "is_reserved": 0, "is_disabled": 0, "fusion_lon": 0.0, "bike_id": "457f44be2b6ee8f0510af797021bc450", "lon": -77.01293083333333, "rental_uris": {"ios": "https://dc.lft.to/lastmile_qr_scan", "android": "https://dc.lft.to/lastmile_qr_scan"}}, {"name": "f46c3c1992a29d399fb4982fa1d7c27f", "fusion_lat": 0.0, "type": "electric_scooter", "lat": 38.9179875, "is_reserved": 0, "is_disabled": 0, "fusion_lon": 0.0, "bike_id": "f46c3c1992a29d399fb4982fa1d7c27f", "lon": -77.02713466666667, "rental_uris": {"ios": "https://dc.lft.to/lastmile_qr_scan", "android": "https://dc.lft.to/lastmile_qr_scan"}}, {"name": "418ecf8c320e4a4dbda79446c2eab18f", "fusion_lat": 0.0, "type": "electric_scooter", "lat": 38.911243166666665, "is_reserved": 0, "is_disabled": 0, "fusion_lon": 0.0, "bike_id": "418ecf8c320e4a4dbda79446c2eab18f", "lon": -77.021988, "rental_uris": {"ios": "https://dc.lft.to/lastmile_qr_scan", "android": "https://dc.lft.to/lastmile_qr_scan"}}, {"name": "bf3697695586c95105a9f2b3075df6bb", "fusion_lat": 0.0, "type": "electric_scooter", "lat": 38.87633316666667, "is_reserved": 0, "is_disabled": 0, "fusion_lon": 0.0, "bike_id": "bf3697695586c95105a9f2b3075df6bb", "lon": -77.0158155, "rental_uris": {"ios": "https://dc.lft.to/lastmile_qr_scan", "android": "https://dc.lft.to/lastmile_qr_scan"}}, {"name": "e8280f2e0eb4f7f603d395157c5c87ec", "fusion_lat": 0.0, "type": "electric_scooter", "lat": 38.86505066666667, "is_reserved": 0, "is_disabled": 0, "fusion_lon": 0.0, "bike_id": "e8280f2e0eb4f7f603d395157c5c87ec", "lon": -76.99000566666666, "rental_uris": {"ios": "https://dc.lft.to/lastmile_qr_scan", "android": "https://dc.lft.to/lastmile_qr_scan"}}, {"name": "ec248eb39a065c627189fe8b56d868a2", "fusion_lat": 0.0, "type": "electric_scooter", "lat": 38.894719, "is_reserved": 0, "is_disabled": 0, "fusion_lon": 0.0, "bike_id": "ec248eb39a065c627189fe8b56d868a2", "lon": -77.03067616666667, "rental_uris": {"ios": "https://dc.lft.to/lastmile_qr_scan", "android": "https://dc.lft.to/lastmile_qr_scan"}}, {"name": "a634c0cb287bdeb44b304256480c2da5", "fusion_lat": 0.0, "type": "electric_scooter", "lat": 38.897380166666665, "is_reserved": 0, "is_disabled": 0, "fusion_lon": 0.0, "bike_id": "a634c0cb287bdeb44b304256480c2da5", "lon": -77.01974116666666, "rental_uris": {"ios": "https://dc.lft.to/lastmile_qr_scan", "android": "https://dc.lft.to/lastmile_qr_scan"}}, {"name": "2655603fa96a5f2969044d19c93d131d", "fusion_lat": 0.0, "type": "electric_scooter", "lat": 38.90569933333333, "is_reserved": 0, "is_disabled": 0, "fusion_lon": 0.0, "bike_id": "2655603fa96a5f2969044d19c93d131d", "lon": -77.02215883333334, "rental_uris": {"ios": "https://dc.lft.to/lastmile_qr_scan", "android": "https://dc.lft.to/lastmile_qr_scan"}}, {"name": "619999eecd8053220ac577dda8e1e3f0", "fusion_lat": 0.0, "type": "electric_bike", "lat": 38.909742666666666, "is_reserved": 0, "is_disabled": 0, "fusion_lon": 0.0, "bike_id": "619999eecd8053220ac577dda8e1e3f0", "lon": -77.08821766666667, "rental_uris": {"ios": "https://dc.lft.to/lastmile_qr_scan", "android": "https://dc.lft.to/lastmile_qr_scan"}}, {"name": "962438eb025620e97e900d22e1653531", "fusion_lat": 0.0, "type": "electric_scooter", "lat": 38.911902166666664, "is_reserved": 0, "is_disabled": 0, "fusion_lon": 0.0, "bike_id": "962438eb025620e97e900d22e1653531", "lon": -77.059642, "rental_uris": {"ios": "https://dc.lft.to/lastmile_qr_scan", "android": "https://dc.lft.to/lastmile_qr_scan"}}, {"name": "374b88ea29fd9e69ceabeda553a3c2ca", "fusion_lat": 0.0, "type": "electric_scooter", "lat": 38.9003555, "is_reserved": 0, "is_disabled": 0, "fusion_lon": 0.0, "bike_id": "374b88ea29fd9e69ceabeda553a3c2ca", "lon": -77.01159183333333, "rental_uris": {"ios": "https://dc.lft.to/lastmile_qr_scan", "android": "https://dc.lft.to/lastmile_qr_scan"}}, {"name": "9f71af9dc7293d30cf49552da23431b2", "fusion_lat": 0.0, "type": "electric_scooter", "lat": 38.91567233333333, "is_reserved": 0, "is_disabled": 0, "fusion_lon": 0.0, "bike_id": "9f71af9dc7293d30cf49552da23431b2", "lon": -77.04889116666666, "rental_uris": {"ios": "https://dc.lft.to/lastmile_qr_scan", "android": "https://dc.lft.to/lastmile_qr_scan"}}, {"name": "0826c7fd4de73cc011f4407623611568", "fusion_lat": 0.0, "type": "electric_scooter", "lat": 38.8762645, "is_reserved": 0, "is_disabled": 0, "fusion_lon": 0.0, "bike_id": "0826c7fd4de73cc011f4407623611568", "lon": -76.9652525, "rental_uris": {"ios": "https://dc.lft.to/lastmile_qr_scan", "android": "https://dc.lft.to/lastmile_qr_scan"}}, {"name": "6d36d930db83dc5716668a16fbacbba5", "fusion_lat": 0.0, "type": "electric_scooter", "lat": 38.91835916666667, "is_reserved": 0, "is_disabled": 0, "fusion_lon": 0.0, "bike_id": "6d36d930db83dc5716668a16fbacbba5", "lon": -77.02699216666667, "rental_uris": {"ios": "https://dc.lft.to/lastmile_qr_scan", "android": "https://dc.lft.to/lastmile_qr_scan"}}, {"name": "8ddc18895bf5a57184c919f395baeaa0", "fusion_lat": 0.0, "type": "electric_scooter", "lat": 38.91692966666667, "is_reserved": 0, "is_disabled": 0, "fusion_lon": 0.0, "bike_id": "8ddc18895bf5a57184c919f395baeaa0", "lon": -77.02598983333333, "rental_uris": {"ios": "https://dc.lft.to/lastmile_qr_scan", "android": "https://dc.lft.to/lastmile_qr_scan"}}, {"name": "0b51ac40d35517b8061bc7369af24516", "fusion_lat": 0.0, "type": "electric_scooter", "lat": 38.89955783333333, "is_reserved": 0, "is_disabled": 0, "fusion_lon": 0.0, "bike_id": "0b51ac40d35517b8061bc7369af24516", "lon": -77.017863, "rental_uris": {"ios": "https://dc.lft.to/lastmile_qr_scan", "android": "https://dc.lft.to/lastmile_qr_scan"}}, {"name": "03b30470394c217e1d69f2e3b237d07d", "fusion_lat": 0.0, "type": "electric_scooter", "lat": 38.912564333333336, "is_reserved": 0, "is_disabled": 0, "fusion_lon": 0.0, "bike_id": "03b30470394c217e1d69f2e3b237d07d", "lon": -77.03838583333334, "rental_uris": {"ios": "https://dc.lft.to/lastmile_qr_scan", "android": "https://dc.lft.to/lastmile_qr_scan"}}, {"name": "f7b7c721170cccf4cb6a5c632ac1110e", "fusion_lat": 0.0, "type": "electric_scooter", "lat": 38.8850345, "is_reserved": 0, "is_disabled": 0, "fusion_lon": 0.0, "bike_id": "f7b7c721170cccf4cb6a5c632ac1110e", "lon": -77.00569283333333, "rental_uris": {"ios": "https://dc.lft.to/lastmile_qr_scan", "android": "https://dc.lft.to/lastmile_qr_scan"}}, {"name": "b106023cdae07e65ef4c934826f0452f", "fusion_lat": 0.0, "type": "electric_scooter", "lat": 38.91261166666666, "is_reserved": 0, "is_disabled": 0, "fusion_lon": 0.0, "bike_id": "b106023cdae07e65ef4c934826f0452f", "lon": -77.038722, "rental_uris": {"ios": "https://dc.lft.to/lastmile_qr_scan", "android": "https://dc.lft.to/lastmile_qr_scan"}}, {"name": "8df144c737697b98815f7f7e0015a366", "fusion_lat": 0.0, "type": "electric_scooter", "lat": 38.92978166666666, "is_reserved": 0, "is_disabled": 0, "fusion_lon": 0.0, "bike_id": "8df144c737697b98815f7f7e0015a366", "lon": -77.01448366666666, "rental_uris": {"ios": "https://dc.lft.to/lastmile_qr_scan", "android": "https://dc.lft.to/lastmile_qr_scan"}}, {"name": "72b25b1c1e9900cd869f6ed953997669", "fusion_lat": 0.0, "type": "electric_scooter", "lat": 38.9325465, "is_reserved": 0, "is_disabled": 0, "fusion_lon": 0.0, "bike_id": "72b25b1c1e9900cd869f6ed953997669", "lon": -77.04015466666667, "rental_uris": {"ios": "https://dc.lft.to/lastmile_qr_scan", "android": "https://dc.lft.to/lastmile_qr_scan"}}, {"name": "8602cac4aeea16c78598c87512ac4a2f", "fusion_lat": 0.0, "type": "electric_scooter", "lat": 38.915473666666664, "is_reserved": 0, "is_disabled": 0, "fusion_lon": 0.0, "bike_id": "8602cac4aeea16c78598c87512ac4a2f", "lon": -77.0415925, "rental_uris": {"ios": "https://dc.lft.to/lastmile_qr_scan", "android": "https://dc.lft.to/lastmile_qr_scan"}}, {"name": "44f48352f0800ae9fba23b84325baf9f", "fusion_lat": 0.0, "type": "electric_scooter", "lat": 38.86246583333333, "is_reserved": 0, "is_disabled": 0, "fusion_lon": 0.0, "bike_id": "44f48352f0800ae9fba23b84325baf9f", "lon": -76.99500216666667, "rental_uris": {"ios": "https://dc.lft.to/lastmile_qr_scan", "android": "https://dc.lft.to/lastmile_qr_scan"}}, {"name": "5fb1680aa2644c7a6a281afa7f5b7a8d", "fusion_lat": 0.0, "type": "electric_bike", "lat": 38.883869, "is_reserved": 0, "is_disabled": 0, "fusion_lon": 0.0, "bike_id": "5fb1680aa2644c7a6a281afa7f5b7a8d", "lon": -76.98554416666667, "rental_uris": {"ios": "https://dc.lft.to/lastmile_qr_scan", "android": "https://dc.lft.to/lastmile_qr_scan"}}, {"name": "909307f0c7c60a315dff3738e50e6e3f", "fusion_lat": 0.0, "type": "electric_scooter", "lat": 38.9059295, "is_reserved": 0, "is_disabled": 0, "fusion_lon": 0.0, "bike_id": "909307f0c7c60a315dff3738e50e6e3f", "lon": -77.04663016666667, "rental_uris": {"ios": "https://dc.lft.to/lastmile_qr_scan", "android": "https://dc.lft.to/lastmile_qr_scan"}}, {"name": "879a21dc2bd3b001ef93e24f136b2aca", "fusion_lat": 0.0, "type": "electric_bike", "lat": 38.83984133333333, "is_reserved": 0, "is_disabled": 0, "fusion_lon": 0.0, "bike_id": "879a21dc2bd3b001ef93e24f136b2aca", "lon": -77.00563783333334, "rental_uris": {"ios": "https://dc.lft.to/lastmile_qr_scan", "android": "https://dc.lft.to/lastmile_qr_scan"}}, {"name": "f04bcaaabf29c90cb41350c0e0913c64", "fusion_lat": 0.0, "type": "electric_scooter", "lat": 38.885976166666666, "is_reserved": 0, "is_disabled": 0, "fusion_lon": 0.0, "bike_id": "f04bcaaabf29c90cb41350c0e0913c64", "lon": -77.02200716666667, "rental_uris": {"ios": "https://dc.lft.to/lastmile_qr_scan", "android": "https://dc.lft.to/lastmile_qr_scan"}}, {"name": "3233d85d25d35ae2d049d5aca4f1d28b", "fusion_lat": 0.0, "type": "electric_scooter", "lat": 38.943246, "is_reserved": 0, "is_disabled": 0, "fusion_lon": 0.0, "bike_id": "3233d85d25d35ae2d049d5aca4f1d28b", "lon": -77.024886, "rental_uris": {"ios": "https://dc.lft.to/lastmile_qr_scan", "android": "https://dc.lft.to/lastmile_qr_scan"}}, {"name": "08c5f2963a167448834598a5dcb434bc", "fusion_lat": 0.0, "type": "electric_scooter", "lat": 38.89926616666666, "is_reserved": 0, "is_disabled": 0, "fusion_lon": 0.0, "bike_id": "08c5f2963a167448834598a5dcb434bc", "lon": -77.05305966666667, "rental_uris": {"ios": "https://dc.lft.to/lastmile_qr_scan", "android": "https://dc.lft.to/lastmile_qr_scan"}}, {"name": "10579f83142385c059e1601c7aed4dc6", "fusion_lat": 0.0, "type": "electric_scooter", "lat": 38.900461666666665, "is_reserved": 0, "is_disabled": 0, "fusion_lon": 0.0, "bike_id": "10579f83142385c059e1601c7aed4dc6", "lon": -76.988486, "rental_uris": {"ios": "https://dc.lft.to/lastmile_qr_scan", "android": "https://dc.lft.to/lastmile_qr_scan"}}, {"name": "0d7c65b19605ba94c15deb2cf48dd696", "fusion_lat": 0.0, "type": "electric_scooter", "lat": 38.94230833333334, "is_reserved": 0, "is_disabled": 0, "fusion_lon": 0.0, "bike_id": "0d7c65b19605ba94c15deb2cf48dd696", "lon": -77.02154383333334, "rental_uris": {"ios": "https://dc.lft.to/lastmile_qr_scan", "android": "https://dc.lft.to/lastmile_qr_scan"}}, {"name": "5515316c47c3faa3928423e019a6f9c9", "fusion_lat": 0.0, "type": "electric_scooter", "lat": 38.921782, "is_reserved": 0, "is_disabled": 0, "fusion_lon": 0.0, "bike_id": "5515316c47c3faa3928423e019a6f9c9", "lon": -77.02665283333333, "rental_uris": {"ios": "https://dc.lft.to/lastmile_qr_scan", "android": "https://dc.lft.to/lastmile_qr_scan"}}, {"name": "7d9e7864bae1f9c939b6525cf8d2b821", "fusion_lat": 0.0, "type": "electric_bike", "lat": 38.87477466666667, "is_reserved": 0, "is_disabled": 0, "fusion_lon": 0.0, "bike_id": "7d9e7864bae1f9c939b6525cf8d2b821", "lon": -76.96533433333333, "rental_uris": {"ios": "https://dc.lft.to/lastmile_qr_scan", "android": "https://dc.lft.to/lastmile_qr_scan"}}, {"name": "af8e8e8b30cbed6829f9a70a90313579", "fusion_lat": 0.0, "type": "electric_scooter", "lat": 38.9314945, "is_reserved": 0, "is_disabled": 0, "fusion_lon": 0.0, "bike_id": "af8e8e8b30cbed6829f9a70a90313579", "lon": -77.03879583333334, "rental_uris": {"ios": "https://dc.lft.to/lastmile_qr_scan", "android": "https://dc.lft.to/lastmile_qr_scan"}}, {"name": "28dffa0eef15aa8021ce9063c03ca600", "fusion_lat": 0.0, "type": "electric_scooter", "lat": 38.917893, "is_reserved": 0, "is_disabled": 0, "fusion_lon": 0.0, "bike_id": "28dffa0eef15aa8021ce9063c03ca600", "lon": -77.02337966666667, "rental_uris": {"ios": "https://dc.lft.to/lastmile_qr_scan", "android": "https://dc.lft.to/lastmile_qr_scan"}}, {"name": "8dc55941caa7b420a10257f956e17827", "fusion_lat": 0.0, "type": "electric_scooter", "lat": 38.8921895, "is_reserved": 0, "is_disabled": 0, "fusion_lon": 0.0, "bike_id": "8dc55941caa7b420a10257f956e17827", "lon": -77.02226466666667, "rental_uris": {"ios": "https://dc.lft.to/lastmile_qr_scan", "android": "https://dc.lft.to/lastmile_qr_scan"}}, {"name": "d780c5ed65b344977a68d7fb832ea3f5", "fusion_lat": 0.0, "type": "electric_scooter", "lat": 38.8838205, "is_reserved": 0, "is_disabled": 0, "fusion_lon": 0.0, "bike_id": "d780c5ed65b344977a68d7fb832ea3f5", "lon": -77.026271, "rental_uris": {"ios": "https://dc.lft.to/lastmile_qr_scan", "android": "https://dc.lft.to/lastmile_qr_scan"}}, {"name": "0ad6c23056337b3aafdf4ba78667b87a", "fusion_lat": 0.0, "type": "electric_scooter", "lat": 38.875779666666666, "is_reserved": 0, "is_disabled": 0, "fusion_lon": 0.0, "bike_id": "0ad6c23056337b3aafdf4ba78667b87a", "lon": -77.01060883333334, "rental_uris": {"ios": "https://dc.lft.to/lastmile_qr_scan", "android": "https://dc.lft.to/lastmile_qr_scan"}}, {"name": "9fbf3099881dbbb34370fcd3ff52091e", "fusion_lat": 0.0, "type": "electric_scooter", "lat": 38.9180275, "is_reserved": 0, "is_disabled": 0, "fusion_lon": 0.0, "bike_id": "9fbf3099881dbbb34370fcd3ff52091e", "lon": -77.02821683333333, "rental_uris": {"ios": "https://dc.lft.to/lastmile_qr_scan", "android": "https://dc.lft.to/lastmile_qr_scan"}}, {"name": "72229ff1217a82d0b75ce9133bc3474c", "fusion_lat": 0.0, "type": "electric_scooter", "lat": 38.906966, "is_reserved": 0, "is_disabled": 0, "fusion_lon": 0.0, "bike_id": "72229ff1217a82d0b75ce9133bc3474c", "lon": -77.02387866666666, "rental_uris": {"ios": "https://dc.lft.to/lastmile_qr_scan", "android": "https://dc.lft.to/lastmile_qr_scan"}}, {"name": "1551920f90d88d165330c18fba702a9e", "fusion_lat": 0.0, "type": "electric_scooter", "lat": 38.920632833333336, "is_reserved": 0, "is_disabled": 0, "fusion_lon": 0.0, "bike_id": "1551920f90d88d165330c18fba702a9e", "lon": -77.04252016666666, "rental_uris": {"ios": "https://dc.lft.to/lastmile_qr_scan", "android": "https://dc.lft.to/lastmile_qr_scan"}}, {"name": "fbc5020084be17f2ac70065cb77e9658", "fusion_lat": 0.0, "type": "electric_scooter", "lat": 38.90715816666667, "is_reserved": 0, "is_disabled": 0, "fusion_lon": 0.0, "bike_id": "fbc5020084be17f2ac70065cb77e9658", "lon": -77.03451166666666, "rental_uris": {"ios": "https://dc.lft.to/lastmile_qr_scan", "android": "https://dc.lft.to/lastmile_qr_scan"}}, {"name": "f0b0c741ef2e75acf67354a047f756ac", "fusion_lat": 0.0, "type": "electric_scooter", "lat": 38.927519333333336, "is_reserved": 0, "is_disabled": 0, "fusion_lon": 0.0, "bike_id": "f0b0c741ef2e75acf67354a047f756ac", "lon": -77.034743, "rental_uris": {"ios": "https://dc.lft.to/lastmile_qr_scan", "android": "https://dc.lft.to/lastmile_qr_scan"}}, {"name": "514a7c677839e3058385ebbb3723952e", "fusion_lat": 0.0, "type": "electric_scooter", "lat": 38.920542166666664, "is_reserved": 0, "is_disabled": 0, "fusion_lon": 0.0, "bike_id": "514a7c677839e3058385ebbb3723952e", "lon": -76.99883516666667, "rental_uris": {"ios": "https://dc.lft.to/lastmile_qr_scan", "android": "https://dc.lft.to/lastmile_qr_scan"}}, {"name": "e2e8cb3091123353dce25758f542019e", "fusion_lat": 0.0, "type": "electric_bike", "lat": 38.807568, "is_reserved": 0, "is_disabled": 0, "fusion_lon": 0.0, "bike_id": "e2e8cb3091123353dce25758f542019e", "lon": -77.0945335, "rental_uris": {"ios": "https://dc.lft.to/lastmile_qr_scan", "android": "https://dc.lft.to/lastmile_qr_scan"}}, {"name": "6caf6fddd7a6cdf6ae80f0297cbf44e4", "fusion_lat": 0.0, "type": "electric_scooter", "lat": 38.86663716666666, "is_reserved": 0, "is_disabled": 0, "fusion_lon": 0.0, "bike_id": "6caf6fddd7a6cdf6ae80f0297cbf44e4", "lon": -76.9888185, "rental_uris": {"ios": "https://dc.lft.to/lastmile_qr_scan", "android": "https://dc.lft.to/lastmile_qr_scan"}}, {"name": "48cd148c6a8bf01e247bde94696d1b2a", "fusion_lat": 0.0, "type": "electric_scooter", "lat": 38.905705166666664, "is_reserved": 0, "is_disabled": 0, "fusion_lon": 0.0, "bike_id": "48cd148c6a8bf01e247bde94696d1b2a", "lon": -77.02200766666667, "rental_uris": {"ios": "https://dc.lft.to/lastmile_qr_scan", "android": "https://dc.lft.to/lastmile_qr_scan"}}, {"name": "c5339f85b0efeebb99a69a00716e3586", "fusion_lat": 0.0, "type": "electric_bike", "lat": 38.955620333333336, "is_reserved": 0, "is_disabled": 0, "fusion_lon": 0.0, "bike_id": "c5339f85b0efeebb99a69a00716e3586", "lon": -77.07090583333333, "rental_uris": {"ios": "https://dc.lft.to/lastmile_qr_scan", "android": "https://dc.lft.to/lastmile_qr_scan"}}, {"name": "70d9871a81a285456191d806d3e0e702", "fusion_lat": 0.0, "type": "electric_scooter", "lat": 38.88602983333333, "is_reserved": 0, "is_disabled": 0, "fusion_lon": 0.0, "bike_id": "70d9871a81a285456191d806d3e0e702", "lon": -77.0198055, "rental_uris": {"ios": "https://dc.lft.to/lastmile_qr_scan", "android": "https://dc.lft.to/lastmile_qr_scan"}}, {"name": "1efcb19eddc51031e8f1627efc29baea", "fusion_lat": 0.0, "type": "electric_scooter", "lat": 38.90255483333333, "is_reserved": 0, "is_disabled": 0, "fusion_lon": 0.0, "bike_id": "1efcb19eddc51031e8f1627efc29baea", "lon": -77.015435, "rental_uris": {"ios": "https://dc.lft.to/lastmile_qr_scan", "android": "https://dc.lft.to/lastmile_qr_scan"}}, {"name": "21898a67a210c998ce5ca6d1da2b867c", "fusion_lat": 0.0, "type": "electric_bike", "lat": 38.942738166666665, "is_reserved": 0, "is_disabled": 0, "fusion_lon": 0.0, "bike_id": "21898a67a210c998ce5ca6d1da2b867c", "lon": -76.98078566666666, "rental_uris": {"ios": "https://dc.lft.to/lastmile_qr_scan", "android": "https://dc.lft.to/lastmile_qr_scan"}}, {"name": "bb4ef5f80aeff6e71f83791bdf3f3dfc", "fusion_lat": 0.0, "type": "electric_scooter", "lat": 38.91810366666667, "is_reserved": 0, "is_disabled": 0, "fusion_lon": 0.0, "bike_id": "bb4ef5f80aeff6e71f83791bdf3f3dfc", "lon": -77.0249955, "rental_uris": {"ios": "https://dc.lft.to/lastmile_qr_scan", "android": "https://dc.lft.to/lastmile_qr_scan"}}, {"name": "e4a6444b79ec65a4d86403b20bb4660e", "fusion_lat": 0.0, "type": "electric_scooter", "lat": 38.892231, "is_reserved": 0, "is_disabled": 0, "fusion_lon": 0.0, "bike_id": "e4a6444b79ec65a4d86403b20bb4660e", "lon": -77.03979233333334, "rental_uris": {"ios": "https://dc.lft.to/lastmile_qr_scan", "android": "https://dc.lft.to/lastmile_qr_scan"}}, {"name": "14eedff31b7151aaa78ababa820d89cf", "fusion_lat": 0.0, "type": "electric_scooter", "lat": 38.8959955, "is_reserved": 0, "is_disabled": 0, "fusion_lon": 0.0, "bike_id": "14eedff31b7151aaa78ababa820d89cf", "lon": -77.041323, "rental_uris": {"ios": "https://dc.lft.to/lastmile_qr_scan", "android": "https://dc.lft.to/lastmile_qr_scan"}}, {"name": "187d0fbb5694f126fe928ce7b3702f1f", "fusion_lat": 0.0, "type": "electric_scooter", "lat": 38.9024945, "is_reserved": 0, "is_disabled": 0, "fusion_lon": 0.0, "bike_id": "187d0fbb5694f126fe928ce7b3702f1f", "lon": -77.01760116666667, "rental_uris": {"ios": "https://dc.lft.to/lastmile_qr_scan", "android": "https://dc.lft.to/lastmile_qr_scan"}}, {"name": "732e05b7e53d9293f2bd497a225a98c1", "fusion_lat": 0.0, "type": "electric_scooter", "lat": 38.915607333333334, "is_reserved": 0, "is_disabled": 0, "fusion_lon": 0.0, "bike_id": "732e05b7e53d9293f2bd497a225a98c1", "lon": -77.03894416666667, "rental_uris": {"ios": "https://dc.lft.to/lastmile_qr_scan", "android": "https://dc.lft.to/lastmile_qr_scan"}}, {"name": "f6e4495ecbcdb4ee08c0081bbfff67b2", "fusion_lat": 0.0, "type": "electric_scooter", "lat": 38.89576133333333, "is_reserved": 0, "is_disabled": 0, "fusion_lon": 0.0, "bike_id": "f6e4495ecbcdb4ee08c0081bbfff67b2", "lon": -77.01347283333334, "rental_uris": {"ios": "https://dc.lft.to/lastmile_qr_scan", "android": "https://dc.lft.to/lastmile_qr_scan"}}, {"name": "9f00311cc9b92f6f628946fd27bc9303", "fusion_lat": 0.0, "type": "electric_scooter", "lat": 38.88109633333333, "is_reserved": 0, "is_disabled": 0, "fusion_lon": 0.0, "bike_id": "9f00311cc9b92f6f628946fd27bc9303", "lon": -77.01673016666666, "rental_uris": {"ios": "https://dc.lft.to/lastmile_qr_scan", "android": "https://dc.lft.to/lastmile_qr_scan"}}, {"name": "d2ad2b0175ccb3ab38dae0ab79c4ca67", "fusion_lat": 0.0, "type": "electric_scooter", "lat": 38.89607616666667, "is_reserved": 0, "is_disabled": 0, "fusion_lon": 0.0, "bike_id": "d2ad2b0175ccb3ab38dae0ab79c4ca67", "lon": -77.04757183333334, "rental_uris": {"ios": "https://dc.lft.to/lastmile_qr_scan", "android": "https://dc.lft.to/lastmile_qr_scan"}}, {"name": "f353a00df54449ed9455889e9b1b58a3", "fusion_lat": 0.0, "type": "electric_scooter", "lat": 38.91565133333334, "is_reserved": 0, "is_disabled": 0, "fusion_lon": 0.0, "bike_id": "f353a00df54449ed9455889e9b1b58a3", "lon": -77.005967, "rental_uris": {"ios": "https://dc.lft.to/lastmile_qr_scan", "android": "https://dc.lft.to/lastmile_qr_scan"}}, {"name": "72efb34be20644c4366b9f9755850c83", "fusion_lat": 0.0, "type": "electric_scooter", "lat": 38.90873766666667, "is_reserved": 0, "is_disabled": 0, "fusion_lon": 0.0, "bike_id": "72efb34be20644c4366b9f9755850c83", "lon": -77.045087, "rental_uris": {"ios": "https://dc.lft.to/lastmile_qr_scan", "android": "https://dc.lft.to/lastmile_qr_scan"}}, {"name": "51bc1f8fe1360b81b1c1c1f4922f725b", "fusion_lat": 0.0, "type": "electric_bike", "lat": 39.02420633333333, "is_reserved": 0, "is_disabled": 0, "fusion_lon": 0.0, "bike_id": "51bc1f8fe1360b81b1c1c1f4922f725b", "lon": -77.12504233333334, "rental_uris": {"ios": "https://dc.lft.to/lastmile_qr_scan", "android": "https://dc.lft.to/lastmile_qr_scan"}}, {"name": "0c7d0fccac6175478c1648efa9c70b39", "fusion_lat": 0.0, "type": "electric_scooter", "lat": 38.897232833333334, "is_reserved": 0, "is_disabled": 0, "fusion_lon": 0.0, "bike_id": "0c7d0fccac6175478c1648efa9c70b39", "lon": -77.00211833333333, "rental_uris": {"ios": "https://dc.lft.to/lastmile_qr_scan", "android": "https://dc.lft.to/lastmile_qr_scan"}}, {"name": "2cd484626df2b456d4eb198e42ae8c00", "fusion_lat": 0.0, "type": "electric_scooter", "lat": 38.90460483333333, "is_reserved": 0, "is_disabled": 0, "fusion_lon": 0.0, "bike_id": "2cd484626df2b456d4eb198e42ae8c00", "lon": -76.98525883333333, "rental_uris": {"ios": "https://dc.lft.to/lastmile_qr_scan", "android": "https://dc.lft.to/lastmile_qr_scan"}}, {"name": "cbb903fba2a3864f9593af828437d7ba", "fusion_lat": 0.0, "type": "electric_bike", "lat": 38.85491566666666, "is_reserved": 0, "is_disabled": 0, "fusion_lon": 0.0, "bike_id": "cbb903fba2a3864f9593af828437d7ba", "lon": -77.11523683333333, "rental_uris": {"ios": "https://dc.lft.to/lastmile_qr_scan", "android": "https://dc.lft.to/lastmile_qr_scan"}}, {"name": "54c7e5c713ba4c07d1cf9af3a67bf834", "fusion_lat": 0.0, "type": "electric_scooter", "lat": 38.87666383333333, "is_reserved": 0, "is_disabled": 0, "fusion_lon": 0.0, "bike_id": "54c7e5c713ba4c07d1cf9af3a67bf834", "lon": -77.007449, "rental_uris": {"ios": "https://dc.lft.to/lastmile_qr_scan", "android": "https://dc.lft.to/lastmile_qr_scan"}}, {"name": "3439d25d7ecc3e20e91e1180fd3622f8", "fusion_lat": 0.0, "type": "electric_scooter", "lat": 38.9217985, "is_reserved": 0, "is_disabled": 0, "fusion_lon": 0.0, "bike_id": "3439d25d7ecc3e20e91e1180fd3622f8", "lon": -77.02418183333333, "rental_uris": {"ios": "https://dc.lft.to/lastmile_qr_scan", "android": "https://dc.lft.to/lastmile_qr_scan"}}, {"name": "9f2b56a7be5112ae97075d0ed9cadde9", "fusion_lat": 0.0, "type": "electric_scooter", "lat": 38.908464333333335, "is_reserved": 0, "is_disabled": 0, "fusion_lon": 0.0, "bike_id": "9f2b56a7be5112ae97075d0ed9cadde9", "lon": -77.04312483333334, "rental_uris": {"ios": "https://dc.lft.to/lastmile_qr_scan", "android": "https://dc.lft.to/lastmile_qr_scan"}}, {"name": "350f84eba84fa59f4c8346624fbd1572", "fusion_lat": 0.0, "type": "electric_scooter", "lat": 38.908528, "is_reserved": 0, "is_disabled": 0, "fusion_lon": 0.0, "bike_id": "350f84eba84fa59f4c8346624fbd1572", "lon": -77.02097483333333, "rental_uris": {"ios": "https://dc.lft.to/lastmile_qr_scan", "android": "https://dc.lft.to/lastmile_qr_scan"}}, {"name": "cdd6f19f331f00fb5a59c48321a7ee50", "fusion_lat": 0.0, "type": "electric_scooter", "lat": 38.941816333333335, "is_reserved": 0, "is_disabled": 0, "fusion_lon": 0.0, "bike_id": "cdd6f19f331f00fb5a59c48321a7ee50", "lon": -77.02517633333333, "rental_uris": {"ios": "https://dc.lft.to/lastmile_qr_scan", "android": "https://dc.lft.to/lastmile_qr_scan"}}, {"name": "7c7dde89c70684222e5a8d371e39c029", "fusion_lat": 0.0, "type": "electric_scooter", "lat": 38.8991115, "is_reserved": 0, "is_disabled": 0, "fusion_lon": 0.0, "bike_id": "7c7dde89c70684222e5a8d371e39c029", "lon": -77.0709235, "rental_uris": {"ios": "https://dc.lft.to/lastmile_qr_scan", "android": "https://dc.lft.to/lastmile_qr_scan"}}, {"name": "ae0f2accdb88f1f0793ea32238011fcf", "fusion_lat": 0.0, "type": "electric_scooter", "lat": 38.93250533333333, "is_reserved": 0, "is_disabled": 0, "fusion_lon": 0.0, "bike_id": "ae0f2accdb88f1f0793ea32238011fcf", "lon": -77.032793, "rental_uris": {"ios": "https://dc.lft.to/lastmile_qr_scan", "android": "https://dc.lft.to/lastmile_qr_scan"}}, {"name": "deb4e821d34593c345cc1c95155e94c3", "fusion_lat": 0.0, "type": "electric_scooter", "lat": 38.9063575, "is_reserved": 0, "is_disabled": 0, "fusion_lon": 0.0, "bike_id": "deb4e821d34593c345cc1c95155e94c3", "lon": -77.05134616666666, "rental_uris": {"ios": "https://dc.lft.to/lastmile_qr_scan", "android": "https://dc.lft.to/lastmile_qr_scan"}}, {"name": "762b338360aac918ca5d59a9015db67c", "fusion_lat": 0.0, "type": "electric_scooter", "lat": 38.90730216666667, "is_reserved": 0, "is_disabled": 0, "fusion_lon": 0.0, "bike_id": "762b338360aac918ca5d59a9015db67c", "lon": -77.03445366666666, "rental_uris": {"ios": "https://dc.lft.to/lastmile_qr_scan", "android": "https://dc.lft.to/lastmile_qr_scan"}}, {"name": "0605aa5e8a534119005e0368afe81eaa", "fusion_lat": 0.0, "type": "electric_scooter", "lat": 38.9387375, "is_reserved": 0, "is_disabled": 0, "fusion_lon": 0.0, "bike_id": "0605aa5e8a534119005e0368afe81eaa", "lon": -77.03256166666667, "rental_uris": {"ios": "https://dc.lft.to/lastmile_qr_scan", "android": "https://dc.lft.to/lastmile_qr_scan"}}, {"name": "d070c2b138329307fe94505d5bf76cea", "fusion_lat": 0.0, "type": "electric_scooter", "lat": 38.880373166666665, "is_reserved": 0, "is_disabled": 0, "fusion_lon": 0.0, "bike_id": "d070c2b138329307fe94505d5bf76cea", "lon": -77.03081166666666, "rental_uris": {"ios": "https://dc.lft.to/lastmile_qr_scan", "android": "https://dc.lft.to/lastmile_qr_scan"}}, {"name": "341129c48c5b81cb54c6c0af1bbf5916", "fusion_lat": 0.0, "type": "electric_scooter", "lat": 38.9004155, "is_reserved": 0, "is_disabled": 0, "fusion_lon": 0.0, "bike_id": "341129c48c5b81cb54c6c0af1bbf5916", "lon": -77.02615983333334, "rental_uris": {"ios": "https://dc.lft.to/lastmile_qr_scan", "android": "https://dc.lft.to/lastmile_qr_scan"}}, {"name": "c7e4aa91036c018004b1817eed0d7814", "fusion_lat": 0.0, "type": "electric_bike", "lat": 38.906227666666666, "is_reserved": 0, "is_disabled": 0, "fusion_lon": 0.0, "bike_id": "c7e4aa91036c018004b1817eed0d7814", "lon": -76.98612266666666, "rental_uris": {"ios": "https://dc.lft.to/lastmile_qr_scan", "android": "https://dc.lft.to/lastmile_qr_scan"}}, {"name": "090d47974f59a2fb4eab599067fd6f83", "fusion_lat": 0.0, "type": "electric_scooter", "lat": 38.91915933333333, "is_reserved": 0, "is_disabled": 0, "fusion_lon": 0.0, "bike_id": "090d47974f59a2fb4eab599067fd6f83", "lon": -77.0362545, "rental_uris": {"ios": "https://dc.lft.to/lastmile_qr_scan", "android": "https://dc.lft.to/lastmile_qr_scan"}}, {"name": "eea0ef3d382b7c234a2704a145ac0eb4", "fusion_lat": 0.0, "type": "electric_bike", "lat": 38.96011566666667, "is_reserved": 0, "is_disabled": 0, "fusion_lon": 0.0, "bike_id": "eea0ef3d382b7c234a2704a145ac0eb4", "lon": -76.9986875, "rental_uris": {"ios": "https://dc.lft.to/lastmile_qr_scan", "android": "https://dc.lft.to/lastmile_qr_scan"}}, {"name": "f1d947b8e7be8b554dc1572a898e5865", "fusion_lat": 0.0, "type": "electric_scooter", "lat": 38.934689166666665, "is_reserved": 0, "is_disabled": 0, "fusion_lon": 0.0, "bike_id": "f1d947b8e7be8b554dc1572a898e5865", "lon": -77.03523333333334, "rental_uris": {"ios": "https://dc.lft.to/lastmile_qr_scan", "android": "https://dc.lft.to/lastmile_qr_scan"}}, {"name": "87c42f93f91098640d9fe7edb5090719", "fusion_lat": 0.0, "type": "electric_scooter", "lat": 38.928264666666664, "is_reserved": 0, "is_disabled": 0, "fusion_lon": 0.0, "bike_id": "87c42f93f91098640d9fe7edb5090719", "lon": -77.022577, "rental_uris": {"ios": "https://dc.lft.to/lastmile_qr_scan", "android": "https://dc.lft.to/lastmile_qr_scan"}}, {"name": "d948fd8e9b31bf3a015b361fa1c01725", "fusion_lat": 0.0, "type": "electric_scooter", "lat": 38.90973283333334, "is_reserved": 0, "is_disabled": 0, "fusion_lon": 0.0, "bike_id": "d948fd8e9b31bf3a015b361fa1c01725", "lon": -77.04873216666667, "rental_uris": {"ios": "https://dc.lft.to/lastmile_qr_scan", "android": "https://dc.lft.to/lastmile_qr_scan"}}, {"name": "6cda39af422af2d1ab2b01abf777660c", "fusion_lat": 0.0, "type": "electric_scooter", "lat": 38.96231433333333, "is_reserved": 0, "is_disabled": 0, "fusion_lon": 0.0, "bike_id": "6cda39af422af2d1ab2b01abf777660c", "lon": -77.02978883333333, "rental_uris": {"ios": "https://dc.lft.to/lastmile_qr_scan", "android": "https://dc.lft.to/lastmile_qr_scan"}}, {"name": "1f15d8699c09e2329efde96e7cf8b6e3", "fusion_lat": 0.0, "type": "electric_scooter", "lat": 38.92236533333333, "is_reserved": 0, "is_disabled": 0, "fusion_lon": 0.0, "bike_id": "1f15d8699c09e2329efde96e7cf8b6e3", "lon": -77.0471665, "rental_uris": {"ios": "https://dc.lft.to/lastmile_qr_scan", "android": "https://dc.lft.to/lastmile_qr_scan"}}, {"name": "7afa043f0eac48997310e38cf0bf46bb", "fusion_lat": 0.0, "type": "electric_scooter", "lat": 38.88232566666667, "is_reserved": 0, "is_disabled": 0, "fusion_lon": 0.0, "bike_id": "7afa043f0eac48997310e38cf0bf46bb", "lon": -77.02583383333334, "rental_uris": {"ios": "https://dc.lft.to/lastmile_qr_scan", "android": "https://dc.lft.to/lastmile_qr_scan"}}, {"name": "42385682c5693820dbc8375dd486c4d1", "fusion_lat": 0.0, "type": "electric_scooter", "lat": 38.92579166666667, "is_reserved": 0, "is_disabled": 0, "fusion_lon": 0.0, "bike_id": "42385682c5693820dbc8375dd486c4d1", "lon": -76.9949065, "rental_uris": {"ios": "https://dc.lft.to/lastmile_qr_scan", "android": "https://dc.lft.to/lastmile_qr_scan"}}, {"name": "a29fbad9517fb0f20c4e4a5b4e635dd6", "fusion_lat": 0.0, "type": "electric_scooter", "lat": 38.89957233333333, "is_reserved": 0, "is_disabled": 0, "fusion_lon": 0.0, "bike_id": "a29fbad9517fb0f20c4e4a5b4e635dd6", "lon": -77.016088, "rental_uris": {"ios": "https://dc.lft.to/lastmile_qr_scan", "android": "https://dc.lft.to/lastmile_qr_scan"}}, {"name": "e5c0b5f1ed0a6a99f48a6f275e6676fe", "fusion_lat": 0.0, "type": "electric_scooter", "lat": 38.92553816666667, "is_reserved": 0, "is_disabled": 0, "fusion_lon": 0.0, "bike_id": "e5c0b5f1ed0a6a99f48a6f275e6676fe", "lon": -77.03221516666666, "rental_uris": {"ios": "https://dc.lft.to/lastmile_qr_scan", "android": "https://dc.lft.to/lastmile_qr_scan"}}, {"name": "4e8abd374f44ee9c54d0a23912d2968e", "fusion_lat": 0.0, "type": "electric_scooter", "lat": 38.90570866666667, "is_reserved": 0, "is_disabled": 0, "fusion_lon": 0.0, "bike_id": "4e8abd374f44ee9c54d0a23912d2968e", "lon": -77.04872633333333, "rental_uris": {"ios": "https://dc.lft.to/lastmile_qr_scan", "android": "https://dc.lft.to/lastmile_qr_scan"}}, {"name": "bb272ee349797e14f02c4d0208553376", "fusion_lat": 0.0, "type": "electric_scooter", "lat": 38.91135533333333, "is_reserved": 0, "is_disabled": 0, "fusion_lon": 0.0, "bike_id": "bb272ee349797e14f02c4d0208553376", "lon": -77.041989, "rental_uris": {"ios": "https://dc.lft.to/lastmile_qr_scan", "android": "https://dc.lft.to/lastmile_qr_scan"}}, {"name": "d74d354ec18d87f06e7b95809cec46ed", "fusion_lat": 0.0, "type": "electric_scooter", "lat": 38.861168, "is_reserved": 0, "is_disabled": 0, "fusion_lon": 0.0, "bike_id": "d74d354ec18d87f06e7b95809cec46ed", "lon": -76.98894383333334, "rental_uris": {"ios": "https://dc.lft.to/lastmile_qr_scan", "android": "https://dc.lft.to/lastmile_qr_scan"}}, {"name": "1f1f50e5f4d30e65e5f866caa0688e91", "fusion_lat": 0.0, "type": "electric_scooter", "lat": 38.88358366666667, "is_reserved": 0, "is_disabled": 0, "fusion_lon": 0.0, "bike_id": "1f1f50e5f4d30e65e5f866caa0688e91", "lon": -77.0317255, "rental_uris": {"ios": "https://dc.lft.to/lastmile_qr_scan", "android": "https://dc.lft.to/lastmile_qr_scan"}}, {"name": "95ba64b08891015d55c6cabe25a903f7", "fusion_lat": 0.0, "type": "electric_scooter", "lat": 38.916715333333336, "is_reserved": 0, "is_disabled": 0, "fusion_lon": 0.0, "bike_id": "95ba64b08891015d55c6cabe25a903f7", "lon": -77.02979716666667, "rental_uris": {"ios": "https://dc.lft.to/lastmile_qr_scan", "android": "https://dc.lft.to/lastmile_qr_scan"}}, {"name": "c56abc79378e013b653142ed4d608731", "fusion_lat": 0.0, "type": "electric_scooter", "lat": 38.912542, "is_reserved": 0, "is_disabled": 0, "fusion_lon": 0.0, "bike_id": "c56abc79378e013b653142ed4d608731", "lon": -77.00956583333334, "rental_uris": {"ios": "https://dc.lft.to/lastmile_qr_scan", "android": "https://dc.lft.to/lastmile_qr_scan"}}, {"name": "251eef1c5f9691087f63b989e8defcba", "fusion_lat": 0.0, "type": "electric_scooter", "lat": 38.936324, "is_reserved": 0, "is_disabled": 0, "fusion_lon": 0.0, "bike_id": "251eef1c5f9691087f63b989e8defcba", "lon": -77.036601, "rental_uris": {"ios": "https://dc.lft.to/lastmile_qr_scan", "android": "https://dc.lft.to/lastmile_qr_scan"}}, {"name": "9b6337f4a60400f6c7e4456389035521", "fusion_lat": 0.0, "type": "electric_bike", "lat": 38.96625866666667, "is_reserved": 0, "is_disabled": 0, "fusion_lon": 0.0, "bike_id": "9b6337f4a60400f6c7e4456389035521", "lon": -76.97669216666667, "rental_uris": {"ios": "https://dc.lft.to/lastmile_qr_scan", "android": "https://dc.lft.to/lastmile_qr_scan"}}, {"name": "4670cdf211ec3405aa4e5f5657730767", "fusion_lat": 0.0, "type": "electric_scooter", "lat": 38.91980233333334, "is_reserved": 0, "is_disabled": 0, "fusion_lon": 0.0, "bike_id": "4670cdf211ec3405aa4e5f5657730767", "lon": -77.03965783333334, "rental_uris": {"ios": "https://dc.lft.to/lastmile_qr_scan", "android": "https://dc.lft.to/lastmile_qr_scan"}}, {"name": "f4c0d20e5994cad0b5e7aa85fbd724cf", "fusion_lat": 0.0, "type": "electric_scooter", "lat": 38.9201715, "is_reserved": 0, "is_disabled": 0, "fusion_lon": 0.0, "bike_id": "f4c0d20e5994cad0b5e7aa85fbd724cf", "lon": -77.014138, "rental_uris": {"ios": "https://dc.lft.to/lastmile_qr_scan", "android": "https://dc.lft.to/lastmile_qr_scan"}}, {"name": "0f957eb29c8e654bdab8f4d342f9cc76", "fusion_lat": 0.0, "type": "electric_scooter", "lat": 38.900317333333334, "is_reserved": 0, "is_disabled": 0, "fusion_lon": 0.0, "bike_id": "0f957eb29c8e654bdab8f4d342f9cc76", "lon": -77.03254816666667, "rental_uris": {"ios": "https://dc.lft.to/lastmile_qr_scan", "android": "https://dc.lft.to/lastmile_qr_scan"}}, {"name": "e37c3b4cae43f40140a08e775d602005", "fusion_lat": 0.0, "type": "electric_scooter", "lat": 38.9004785, "is_reserved": 0, "is_disabled": 0, "fusion_lon": 0.0, "bike_id": "e37c3b4cae43f40140a08e775d602005", "lon": -77.02991766666666, "rental_uris": {"ios": "https://dc.lft.to/lastmile_qr_scan", "android": "https://dc.lft.to/lastmile_qr_scan"}}, {"name": "f3fb344caf346db3d37e4c14b375f3a6", "fusion_lat": 0.0, "type": "electric_scooter", "lat": 38.934697, "is_reserved": 0, "is_disabled": 0, "fusion_lon": 0.0, "bike_id": "f3fb344caf346db3d37e4c14b375f3a6", "lon": -77.03263083333333, "rental_uris": {"ios": "https://dc.lft.to/lastmile_qr_scan", "android": "https://dc.lft.to/lastmile_qr_scan"}}, {"name": "76d2c3630a0c3ad3f4be098f57e3403c", "fusion_lat": 0.0, "type": "electric_scooter", "lat": 38.905691166666664, "is_reserved": 0, "is_disabled": 0, "fusion_lon": 0.0, "bike_id": "76d2c3630a0c3ad3f4be098f57e3403c", "lon": -77.0569755, "rental_uris": {"ios": "https://dc.lft.to/lastmile_qr_scan", "android": "https://dc.lft.to/lastmile_qr_scan"}}, {"name": "0ae165eb5e325abf876e403a5a595b2a", "fusion_lat": 0.0, "type": "electric_scooter", "lat": 38.933288833333336, "is_reserved": 0, "is_disabled": 0, "fusion_lon": 0.0, "bike_id": "0ae165eb5e325abf876e403a5a595b2a", "lon": -77.08207833333333, "rental_uris": {"ios": "https://dc.lft.to/lastmile_qr_scan", "android": "https://dc.lft.to/lastmile_qr_scan"}}, {"name": "147228d2c2046990a2c5286bd7c61f3d", "fusion_lat": 0.0, "type": "electric_scooter", "lat": 38.869173, "is_reserved": 0, "is_disabled": 0, "fusion_lon": 0.0, "bike_id": "147228d2c2046990a2c5286bd7c61f3d", "lon": -76.9750465, "rental_uris": {"ios": "https://dc.lft.to/lastmile_qr_scan", "android": "https://dc.lft.to/lastmile_qr_scan"}}, {"name": "47a51a0713cd72aefe5d3fbfa5780d98", "fusion_lat": 0.0, "type": "electric_scooter", "lat": 38.90983116666666, "is_reserved": 0, "is_disabled": 0, "fusion_lon": 0.0, "bike_id": "47a51a0713cd72aefe5d3fbfa5780d98", "lon": -77.03852533333334, "rental_uris": {"ios": "https://dc.lft.to/lastmile_qr_scan", "android": "https://dc.lft.to/lastmile_qr_scan"}}, {"name": "78593602a319c4b19c2dc2111b4f0fa2", "fusion_lat": 0.0, "type": "electric_scooter", "lat": 38.9289305, "is_reserved": 0, "is_disabled": 0, "fusion_lon": 0.0, "bike_id": "78593602a319c4b19c2dc2111b4f0fa2", "lon": -77.00530233333333, "rental_uris": {"ios": "https://dc.lft.to/lastmile_qr_scan", "android": "https://dc.lft.to/lastmile_qr_scan"}}, {"name": "66ffaf0b50ee50904ccf7104e59f817c", "fusion_lat": 0.0, "type": "electric_bike", "lat": 38.945893833333336, "is_reserved": 0, "is_disabled": 0, "fusion_lon": 0.0, "bike_id": "66ffaf0b50ee50904ccf7104e59f817c", "lon": -77.34408983333333, "rental_uris": {"ios": "https://dc.lft.to/lastmile_qr_scan", "android": "https://dc.lft.to/lastmile_qr_scan"}}, {"name": "15854af41fd9d8744378723c23141717", "fusion_lat": 0.0, "type": "electric_scooter", "lat": 38.897314333333334, "is_reserved": 0, "is_disabled": 0, "fusion_lon": 0.0, "bike_id": "15854af41fd9d8744378723c23141717", "lon": -77.04747366666666, "rental_uris": {"ios": "https://dc.lft.to/lastmile_qr_scan", "android": "https://dc.lft.to/lastmile_qr_scan"}}, {"name": "2c43dc2395e6b78897f9ead165942eb4", "fusion_lat": 0.0, "type": "electric_scooter", "lat": 38.89950866666667, "is_reserved": 0, "is_disabled": 0, "fusion_lon": 0.0, "bike_id": "2c43dc2395e6b78897f9ead165942eb4", "lon": -76.995018, "rental_uris": {"ios": "https://dc.lft.to/lastmile_qr_scan", "android": "https://dc.lft.to/lastmile_qr_scan"}}, {"name": "6f8d7178e347627afbf56ff2c21b2db9", "fusion_lat": 0.0, "type": "electric_scooter", "lat": 38.887775166666664, "is_reserved": 0, "is_disabled": 0, "fusion_lon": 0.0, "bike_id": "6f8d7178e347627afbf56ff2c21b2db9", "lon": -76.95528416666667, "rental_uris": {"ios": "https://dc.lft.to/lastmile_qr_scan", "android": "https://dc.lft.to/lastmile_qr_scan"}}, {"name": "dfa3af73c4eb63f6df680bcde6a0591f", "fusion_lat": 0.0, "type": "electric_scooter", "lat": 38.879301166666664, "is_reserved": 0, "is_disabled": 0, "fusion_lon": 0.0, "bike_id": "dfa3af73c4eb63f6df680bcde6a0591f", "lon": -77.02106666666667, "rental_uris": {"ios": "https://dc.lft.to/lastmile_qr_scan", "android": "https://dc.lft.to/lastmile_qr_scan"}}, {"name": "bd8e4365723d3e0c6f678d1511ddfbb2", "fusion_lat": 0.0, "type": "electric_scooter", "lat": 38.92489583333333, "is_reserved": 0, "is_disabled": 0, "fusion_lon": 0.0, "bike_id": "bd8e4365723d3e0c6f678d1511ddfbb2", "lon": -77.05220366666667, "rental_uris": {"ios": "https://dc.lft.to/lastmile_qr_scan", "android": "https://dc.lft.to/lastmile_qr_scan"}}, {"name": "045cd388d6aea3c3e666062f6a12d713", "fusion_lat": 0.0, "type": "electric_scooter", "lat": 38.87647666666667, "is_reserved": 0, "is_disabled": 0, "fusion_lon": 0.0, "bike_id": "045cd388d6aea3c3e666062f6a12d713", "lon": -77.00835466666666, "rental_uris": {"ios": "https://dc.lft.to/lastmile_qr_scan", "android": "https://dc.lft.to/lastmile_qr_scan"}}, {"name": "1b77c963f0a3677773c0bbcf7fd95bd2", "fusion_lat": 0.0, "type": "electric_scooter", "lat": 38.902372, "is_reserved": 0, "is_disabled": 0, "fusion_lon": 0.0, "bike_id": "1b77c963f0a3677773c0bbcf7fd95bd2", "lon": -76.97410116666667, "rental_uris": {"ios": "https://dc.lft.to/lastmile_qr_scan", "android": "https://dc.lft.to/lastmile_qr_scan"}}, {"name": "20de0fdb3046753b34829d500fbb7dbc", "fusion_lat": 0.0, "type": "electric_scooter", "lat": 38.905575166666665, "is_reserved": 0, "is_disabled": 0, "fusion_lon": 0.0, "bike_id": "20de0fdb3046753b34829d500fbb7dbc", "lon": -77.0181475, "rental_uris": {"ios": "https://dc.lft.to/lastmile_qr_scan", "android": "https://dc.lft.to/lastmile_qr_scan"}}, {"name": "7715d9c6359501e223b6cfd89476cae3", "fusion_lat": 0.0, "type": "electric_scooter", "lat": 38.8832705, "is_reserved": 0, "is_disabled": 0, "fusion_lon": 0.0, "bike_id": "7715d9c6359501e223b6cfd89476cae3", "lon": -77.023216, "rental_uris": {"ios": "https://dc.lft.to/lastmile_qr_scan", "android": "https://dc.lft.to/lastmile_qr_scan"}}, {"name": "770c842e2c6d441019f9b7f1483bc517", "fusion_lat": 0.0, "type": "electric_scooter", "lat": 38.90960283333333, "is_reserved": 0, "is_disabled": 0, "fusion_lon": 0.0, "bike_id": "770c842e2c6d441019f9b7f1483bc517", "lon": -77.02748083333333, "rental_uris": {"ios": "https://dc.lft.to/lastmile_qr_scan", "android": "https://dc.lft.to/lastmile_qr_scan"}}, {"name": "af3811d927531e1199bddd4e9fb569f9", "fusion_lat": 0.0, "type": "electric_bike", "lat": 38.96761433333333, "is_reserved": 0, "is_disabled": 0, "fusion_lon": 0.0, "bike_id": "af3811d927531e1199bddd4e9fb569f9", "lon": -77.09158483333333, "rental_uris": {"ios": "https://dc.lft.to/lastmile_qr_scan", "android": "https://dc.lft.to/lastmile_qr_scan"}}, {"name": "f5d0d580134e48549917019ecd48f707", "fusion_lat": 0.0, "type": "electric_scooter", "lat": 38.9056605, "is_reserved": 0, "is_disabled": 0, "fusion_lon": 0.0, "bike_id": "f5d0d580134e48549917019ecd48f707", "lon": -77.03428533333333, "rental_uris": {"ios": "https://dc.lft.to/lastmile_qr_scan", "android": "https://dc.lft.to/lastmile_qr_scan"}}, {"name": "518cacb03a39f04ad4f6f16df29145b2", "fusion_lat": 0.0, "type": "electric_bike", "lat": 38.861621666666665, "is_reserved": 0, "is_disabled": 0, "fusion_lon": 0.0, "bike_id": "518cacb03a39f04ad4f6f16df29145b2", "lon": -77.13093566666667, "rental_uris": {"ios": "https://dc.lft.to/lastmile_qr_scan", "android": "https://dc.lft.to/lastmile_qr_scan"}}, {"name": "7395215751b805c8af054be8fccbb439", "fusion_lat": 0.0, "type": "electric_scooter", "lat": 38.92179316666667, "is_reserved": 0, "is_disabled": 0, "fusion_lon": 0.0, "bike_id": "7395215751b805c8af054be8fccbb439", "lon": -77.026659, "rental_uris": {"ios": "https://dc.lft.to/lastmile_qr_scan", "android": "https://dc.lft.to/lastmile_qr_scan"}}, {"name": "a1bd8fd872c45a8bb2fa52f889e51cb2", "fusion_lat": 0.0, "type": "electric_scooter", "lat": 38.90131616666667, "is_reserved": 0, "is_disabled": 0, "fusion_lon": 0.0, "bike_id": "a1bd8fd872c45a8bb2fa52f889e51cb2", "lon": -77.03962883333334, "rental_uris": {"ios": "https://dc.lft.to/lastmile_qr_scan", "android": "https://dc.lft.to/lastmile_qr_scan"}}, {"name": "c11dc559d3ed2ab4a06491221ba32f39", "fusion_lat": 0.0, "type": "electric_scooter", "lat": 38.9174225, "is_reserved": 0, "is_disabled": 0, "fusion_lon": 0.0, "bike_id": "c11dc559d3ed2ab4a06491221ba32f39", "lon": -77.036398, "rental_uris": {"ios": "https://dc.lft.to/lastmile_qr_scan", "android": "https://dc.lft.to/lastmile_qr_scan"}}, {"name": "ffbfa606a4d16bf6f955127c68588361", "fusion_lat": 0.0, "type": "electric_scooter", "lat": 38.91336966666667, "is_reserved": 0, "is_disabled": 0, "fusion_lon": 0.0, "bike_id": "ffbfa606a4d16bf6f955127c68588361", "lon": -77.00227466666666, "rental_uris": {"ios": "https://dc.lft.to/lastmile_qr_scan", "android": "https://dc.lft.to/lastmile_qr_scan"}}, {"name": "95742d45075c092b22e1819280f13594", "fusion_lat": 0.0, "type": "electric_scooter", "lat": 38.91406283333333, "is_reserved": 0, "is_disabled": 0, "fusion_lon": 0.0, "bike_id": "95742d45075c092b22e1819280f13594", "lon": -77.00805666666666, "rental_uris": {"ios": "https://dc.lft.to/lastmile_qr_scan", "android": "https://dc.lft.to/lastmile_qr_scan"}}, {"name": "632b780fad7c98038276aa790fb906b4", "fusion_lat": 0.0, "type": "electric_bike", "lat": 38.904875, "is_reserved": 0, "is_disabled": 0, "fusion_lon": 0.0, "bike_id": "632b780fad7c98038276aa790fb906b4", "lon": -77.02723983333334, "rental_uris": {"ios": "https://dc.lft.to/lastmile_qr_scan", "android": "https://dc.lft.to/lastmile_qr_scan"}}, {"name": "1fbedba07f27cf9230b9450dfd6315ed", "fusion_lat": 0.0, "type": "electric_scooter", "lat": 38.90972633333333, "is_reserved": 0, "is_disabled": 0, "fusion_lon": 0.0, "bike_id": "1fbedba07f27cf9230b9450dfd6315ed", "lon": -77.02184216666667, "rental_uris": {"ios": "https://dc.lft.to/lastmile_qr_scan", "android": "https://dc.lft.to/lastmile_qr_scan"}}, {"name": "4ccba0f4e0413cbf04421f586dfa4e45", "fusion_lat": 0.0, "type": "electric_scooter", "lat": 38.92589316666667, "is_reserved": 0, "is_disabled": 0, "fusion_lon": 0.0, "bike_id": "4ccba0f4e0413cbf04421f586dfa4e45", "lon": -77.05306966666667, "rental_uris": {"ios": "https://dc.lft.to/lastmile_qr_scan", "android": "https://dc.lft.to/lastmile_qr_scan"}}, {"name": "31d341ec10804d707ade9eb3ee63ee63", "fusion_lat": 0.0, "type": "electric_scooter", "lat": 38.894945, "is_reserved": 0, "is_disabled": 0, "fusion_lon": 0.0, "bike_id": "31d341ec10804d707ade9eb3ee63ee63", "lon": -77.02393316666667, "rental_uris": {"ios": "https://dc.lft.to/lastmile_qr_scan", "android": "https://dc.lft.to/lastmile_qr_scan"}}, {"name": "2b13ada8badbcd91c88cdacc7c082e5f", "fusion_lat": 0.0, "type": "electric_scooter", "lat": 38.90141966666667, "is_reserved": 0, "is_disabled": 0, "fusion_lon": 0.0, "bike_id": "2b13ada8badbcd91c88cdacc7c082e5f", "lon": -77.033434, "rental_uris": {"ios": "https://dc.lft.to/lastmile_qr_scan", "android": "https://dc.lft.to/lastmile_qr_scan"}}, {"name": "df046157cd3dcb8f68df513f77530b0f", "fusion_lat": 0.0, "type": "electric_scooter", "lat": 38.886733166666666, "is_reserved": 0, "is_disabled": 0, "fusion_lon": 0.0, "bike_id": "df046157cd3dcb8f68df513f77530b0f", "lon": -76.93613533333334, "rental_uris": {"ios": "https://dc.lft.to/lastmile_qr_scan", "android": "https://dc.lft.to/lastmile_qr_scan"}}, {"name": "1f27ff00942fece87d409a3f2c83d394", "fusion_lat": 0.0, "type": "electric_scooter", "lat": 38.92322266666667, "is_reserved": 0, "is_disabled": 0, "fusion_lon": 0.0, "bike_id": "1f27ff00942fece87d409a3f2c83d394", "lon": -77.05437733333333, "rental_uris": {"ios": "https://dc.lft.to/lastmile_qr_scan", "android": "https://dc.lft.to/lastmile_qr_scan"}}, {"name": "944fefde6126672df84db75f32e1ddd3", "fusion_lat": 0.0, "type": "electric_scooter", "lat": 38.902374333333334, "is_reserved": 0, "is_disabled": 0, "fusion_lon": 0.0, "bike_id": "944fefde6126672df84db75f32e1ddd3", "lon": -77.017539, "rental_uris": {"ios": "https://dc.lft.to/lastmile_qr_scan", "android": "https://dc.lft.to/lastmile_qr_scan"}}, {"name": "cdb9db9cab07e315e3e74834f97316ab", "fusion_lat": 0.0, "type": "electric_bike", "lat": 38.82732266666667, "is_reserved": 0, "is_disabled": 0, "fusion_lon": 0.0, "bike_id": "cdb9db9cab07e315e3e74834f97316ab", "lon": -77.00864233333333, "rental_uris": {"ios": "https://dc.lft.to/lastmile_qr_scan", "android": "https://dc.lft.to/lastmile_qr_scan"}}, {"name": "997f9e1d23e18910f5063f0a34da45d2", "fusion_lat": 0.0, "type": "electric_scooter", "lat": 38.952170833333334, "is_reserved": 0, "is_disabled": 0, "fusion_lon": 0.0, "bike_id": "997f9e1d23e18910f5063f0a34da45d2", "lon": -77.07064933333334, "rental_uris": {"ios": "https://dc.lft.to/lastmile_qr_scan", "android": "https://dc.lft.to/lastmile_qr_scan"}}, {"name": "542099997db6f14dacb8e462788cd682", "fusion_lat": 0.0, "type": "electric_scooter", "lat": 38.92270883333333, "is_reserved": 0, "is_disabled": 0, "fusion_lon": 0.0, "bike_id": "542099997db6f14dacb8e462788cd682", "lon": -77.03408966666667, "rental_uris": {"ios": "https://dc.lft.to/lastmile_qr_scan", "android": "https://dc.lft.to/lastmile_qr_scan"}}, {"name": "e04555fc6cd7f62bb2ebc971f6210744", "fusion_lat": 0.0, "type": "electric_scooter", "lat": 38.910550666666666, "is_reserved": 0, "is_disabled": 0, "fusion_lon": 0.0, "bike_id": "e04555fc6cd7f62bb2ebc971f6210744", "lon": -77.04576266666666, "rental_uris": {"ios": "https://dc.lft.to/lastmile_qr_scan", "android": "https://dc.lft.to/lastmile_qr_scan"}}, {"name": "f973f022a0b7e1ac6529b07853c13ef7", "fusion_lat": 0.0, "type": "electric_scooter", "lat": 38.8948475, "is_reserved": 0, "is_disabled": 0, "fusion_lon": 0.0, "bike_id": "f973f022a0b7e1ac6529b07853c13ef7", "lon": -76.94876266666667, "rental_uris": {"ios": "https://dc.lft.to/lastmile_qr_scan", "android": "https://dc.lft.to/lastmile_qr_scan"}}, {"name": "4df67e632aae4c6d402317dd6aeddc3c", "fusion_lat": 0.0, "type": "electric_scooter", "lat": 38.865029666666665, "is_reserved": 0, "is_disabled": 0, "fusion_lon": 0.0, "bike_id": "4df67e632aae4c6d402317dd6aeddc3c", "lon": -76.98999633333334, "rental_uris": {"ios": "https://dc.lft.to/lastmile_qr_scan", "android": "https://dc.lft.to/lastmile_qr_scan"}}, {"name": "b2d184c6da27c23683fddc78bac2505d", "fusion_lat": 0.0, "type": "electric_scooter", "lat": 38.918943, "is_reserved": 0, "is_disabled": 0, "fusion_lon": 0.0, "bike_id": "b2d184c6da27c23683fddc78bac2505d", "lon": -77.05290033333333, "rental_uris": {"ios": "https://dc.lft.to/lastmile_qr_scan", "android": "https://dc.lft.to/lastmile_qr_scan"}}, {"name": "be39969ede1bb64589dc93b3b4182052", "fusion_lat": 0.0, "type": "electric_scooter", "lat": 38.9319075, "is_reserved": 0, "is_disabled": 0, "fusion_lon": 0.0, "bike_id": "be39969ede1bb64589dc93b3b4182052", "lon": -77.02834833333333, "rental_uris": {"ios": "https://dc.lft.to/lastmile_qr_scan", "android": "https://dc.lft.to/lastmile_qr_scan"}}, {"name": "9a5aa9128890d8a6740311b4b3c60192", "fusion_lat": 0.0, "type": "electric_scooter", "lat": 38.876479833333335, "is_reserved": 0, "is_disabled": 0, "fusion_lon": 0.0, "bike_id": "9a5aa9128890d8a6740311b4b3c60192", "lon": -76.96508116666666, "rental_uris": {"ios": "https://dc.lft.to/lastmile_qr_scan", "android": "https://dc.lft.to/lastmile_qr_scan"}}, {"name": "51b2a2dc0082a05fc4718446c40404f0", "fusion_lat": 0.0, "type": "electric_scooter", "lat": 38.93392566666667, "is_reserved": 0, "is_disabled": 0, "fusion_lon": 0.0, "bike_id": "51b2a2dc0082a05fc4718446c40404f0", "lon": -77.031502, "rental_uris": {"ios": "https://dc.lft.to/lastmile_qr_scan", "android": "https://dc.lft.to/lastmile_qr_scan"}}, {"name": "364ef0668d5010c95f47f2f8f958eac7", "fusion_lat": 0.0, "type": "electric_scooter", "lat": 38.926568833333334, "is_reserved": 0, "is_disabled": 0, "fusion_lon": 0.0, "bike_id": "364ef0668d5010c95f47f2f8f958eac7", "lon": -77.02438366666667, "rental_uris": {"ios": "https://dc.lft.to/lastmile_qr_scan", "android": "https://dc.lft.to/lastmile_qr_scan"}}, {"name": "ddd0e7c4f8c903b7165e7bc12a3a2b94", "fusion_lat": 0.0, "type": "electric_scooter", "lat": 38.92037833333333, "is_reserved": 0, "is_disabled": 0, "fusion_lon": 0.0, "bike_id": "ddd0e7c4f8c903b7165e7bc12a3a2b94", "lon": -77.02585116666667, "rental_uris": {"ios": "https://dc.lft.to/lastmile_qr_scan", "android": "https://dc.lft.to/lastmile_qr_scan"}}, {"name": "941b4aef1c05ed70f5f5423bdaf32d48", "fusion_lat": 0.0, "type": "electric_scooter", "lat": 38.89885366666667, "is_reserved": 0, "is_disabled": 0, "fusion_lon": 0.0, "bike_id": "941b4aef1c05ed70f5f5423bdaf32d48", "lon": -76.93173583333333, "rental_uris": {"ios": "https://dc.lft.to/lastmile_qr_scan", "android": "https://dc.lft.to/lastmile_qr_scan"}}, {"name": "3b36397fabc8f5c39a69893d90d33154", "fusion_lat": 0.0, "type": "electric_scooter", "lat": 38.9057565, "is_reserved": 0, "is_disabled": 0, "fusion_lon": 0.0, "bike_id": "3b36397fabc8f5c39a69893d90d33154", "lon": -77.02205616666667, "rental_uris": {"ios": "https://dc.lft.to/lastmile_qr_scan", "android": "https://dc.lft.to/lastmile_qr_scan"}}, {"name": "cedc17eb87c4bbe3444e73c53e989c9b", "fusion_lat": 0.0, "type": "electric_scooter", "lat": 38.91539, "is_reserved": 0, "is_disabled": 0, "fusion_lon": 0.0, "bike_id": "cedc17eb87c4bbe3444e73c53e989c9b", "lon": -77.01973783333334, "rental_uris": {"ios": "https://dc.lft.to/lastmile_qr_scan", "android": "https://dc.lft.to/lastmile_qr_scan"}}, {"name": "f6fed0e47e68d471fff5be005a7843e0", "fusion_lat": 0.0, "type": "electric_scooter", "lat": 38.918133, "is_reserved": 0, "is_disabled": 0, "fusion_lon": 0.0, "bike_id": "f6fed0e47e68d471fff5be005a7843e0", "lon": -77.02826266666666, "rental_uris": {"ios": "https://dc.lft.to/lastmile_qr_scan", "android": "https://dc.lft.to/lastmile_qr_scan"}}, {"name": "d373adf71760b2b98a6d28597638a2c2", "fusion_lat": 0.0, "type": "electric_scooter", "lat": 38.90522383333333, "is_reserved": 0, "is_disabled": 0, "fusion_lon": 0.0, "bike_id": "d373adf71760b2b98a6d28597638a2c2", "lon": -77.0499595, "rental_uris": {"ios": "https://dc.lft.to/lastmile_qr_scan", "android": "https://dc.lft.to/lastmile_qr_scan"}}, {"name": "0e8d5fb751e44e7045a01dc82adb460f", "fusion_lat": 0.0, "type": "electric_scooter", "lat": 38.866579333333334, "is_reserved": 0, "is_disabled": 0, "fusion_lon": 0.0, "bike_id": "0e8d5fb751e44e7045a01dc82adb460f", "lon": -76.988852, "rental_uris": {"ios": "https://dc.lft.to/lastmile_qr_scan", "android": "https://dc.lft.to/lastmile_qr_scan"}}, {"name": "ce30919f1e082b4feda7f488de7e1b43", "fusion_lat": 0.0, "type": "electric_scooter", "lat": 38.881221333333336, "is_reserved": 0, "is_disabled": 0, "fusion_lon": 0.0, "bike_id": "ce30919f1e082b4feda7f488de7e1b43", "lon": -77.01340333333333, "rental_uris": {"ios": "https://dc.lft.to/lastmile_qr_scan", "android": "https://dc.lft.to/lastmile_qr_scan"}}, {"name": "80b8d2f31126f218d394f6e734a4eeeb", "fusion_lat": 0.0, "type": "electric_scooter", "lat": 38.91794016666667, "is_reserved": 0, "is_disabled": 0, "fusion_lon": 0.0, "bike_id": "80b8d2f31126f218d394f6e734a4eeeb", "lon": -77.0230795, "rental_uris": {"ios": "https://dc.lft.to/lastmile_qr_scan", "android": "https://dc.lft.to/lastmile_qr_scan"}}, {"name": "91c9c2900105df2b68115f3c7f5a27ce", "fusion_lat": 0.0, "type": "electric_scooter", "lat": 38.91308766666667, "is_reserved": 0, "is_disabled": 0, "fusion_lon": 0.0, "bike_id": "91c9c2900105df2b68115f3c7f5a27ce", "lon": -77.02029833333333, "rental_uris": {"ios": "https://dc.lft.to/lastmile_qr_scan", "android": "https://dc.lft.to/lastmile_qr_scan"}}, {"name": "02d4f6df6733ff0b90cbcbd2b01f4ee7", "fusion_lat": 0.0, "type": "electric_scooter", "lat": 38.89723333333333, "is_reserved": 0, "is_disabled": 0, "fusion_lon": 0.0, "bike_id": "02d4f6df6733ff0b90cbcbd2b01f4ee7", "lon": -77.00946933333333, "rental_uris": {"ios": "https://dc.lft.to/lastmile_qr_scan", "android": "https://dc.lft.to/lastmile_qr_scan"}}, {"name": "60d02ef3468511bdee59c7a14c2ecff2", "fusion_lat": 0.0, "type": "electric_scooter", "lat": 38.903144, "is_reserved": 0, "is_disabled": 0, "fusion_lon": 0.0, "bike_id": "60d02ef3468511bdee59c7a14c2ecff2", "lon": -76.97798066666667, "rental_uris": {"ios": "https://dc.lft.to/lastmile_qr_scan", "android": "https://dc.lft.to/lastmile_qr_scan"}}, {"name": "92d6d1516ecf1838a802f719d7212232", "fusion_lat": 0.0, "type": "electric_bike", "lat": 38.934152833333336, "is_reserved": 0, "is_disabled": 0, "fusion_lon": 0.0, "bike_id": "92d6d1516ecf1838a802f719d7212232", "lon": -77.02510666666667, "rental_uris": {"ios": "https://dc.lft.to/lastmile_qr_scan", "android": "https://dc.lft.to/lastmile_qr_scan"}}, {"name": "6cb800100e41dc70fd55989ea2f3d2f0", "fusion_lat": 0.0, "type": "electric_scooter", "lat": 38.90450116666667, "is_reserved": 0, "is_disabled": 0, "fusion_lon": 0.0, "bike_id": "6cb800100e41dc70fd55989ea2f3d2f0", "lon": -76.97558816666667, "rental_uris": {"ios": "https://dc.lft.to/lastmile_qr_scan", "android": "https://dc.lft.to/lastmile_qr_scan"}}, {"name": "6343af255bdf1f735d34faedd473e322", "fusion_lat": 0.0, "type": "electric_scooter", "lat": 38.90669666666667, "is_reserved": 0, "is_disabled": 0, "fusion_lon": 0.0, "bike_id": "6343af255bdf1f735d34faedd473e322", "lon": -77.0270765, "rental_uris": {"ios": "https://dc.lft.to/lastmile_qr_scan", "android": "https://dc.lft.to/lastmile_qr_scan"}}, {"name": "7c1e2e91325ccba0e9f91e28865f8289", "fusion_lat": 0.0, "type": "electric_scooter", "lat": 38.912664166666666, "is_reserved": 0, "is_disabled": 0, "fusion_lon": 0.0, "bike_id": "7c1e2e91325ccba0e9f91e28865f8289", "lon": -77.03625766666667, "rental_uris": {"ios": "https://dc.lft.to/lastmile_qr_scan", "android": "https://dc.lft.to/lastmile_qr_scan"}}, {"name": "04f21de4cbb01d26f5d11a8d189da79a", "fusion_lat": 0.0, "type": "electric_scooter", "lat": 38.902494, "is_reserved": 0, "is_disabled": 0, "fusion_lon": 0.0, "bike_id": "04f21de4cbb01d26f5d11a8d189da79a", "lon": -77.04608066666667, "rental_uris": {"ios": "https://dc.lft.to/lastmile_qr_scan", "android": "https://dc.lft.to/lastmile_qr_scan"}}, {"name": "5aab813d9e9f063ee270989cee42861b", "fusion_lat": 0.0, "type": "electric_scooter", "lat": 38.92527533333333, "is_reserved": 0, "is_disabled": 0, "fusion_lon": 0.0, "bike_id": "5aab813d9e9f063ee270989cee42861b", "lon": -77.032158, "rental_uris": {"ios": "https://dc.lft.to/lastmile_qr_scan", "android": "https://dc.lft.to/lastmile_qr_scan"}}, {"name": "8dd648516d8f7f6a6a7d9891afdf567f", "fusion_lat": 0.0, "type": "electric_scooter", "lat": 38.918137333333334, "is_reserved": 0, "is_disabled": 0, "fusion_lon": 0.0, "bike_id": "8dd648516d8f7f6a6a7d9891afdf567f", "lon": -77.04002133333333, "rental_uris": {"ios": "https://dc.lft.to/lastmile_qr_scan", "android": "https://dc.lft.to/lastmile_qr_scan"}}, {"name": "f8bbba0a673cd2313d2a4fdc5a91cb50", "fusion_lat": 0.0, "type": "electric_scooter", "lat": 38.93688933333333, "is_reserved": 0, "is_disabled": 0, "fusion_lon": 0.0, "bike_id": "f8bbba0a673cd2313d2a4fdc5a91cb50", "lon": -77.0328325, "rental_uris": {"ios": "https://dc.lft.to/lastmile_qr_scan", "android": "https://dc.lft.to/lastmile_qr_scan"}}, {"name": "7eba7582b76a81cdd588a651bad8550d", "fusion_lat": 0.0, "type": "electric_scooter", "lat": 38.896576333333336, "is_reserved": 0, "is_disabled": 0, "fusion_lon": 0.0, "bike_id": "7eba7582b76a81cdd588a651bad8550d", "lon": -77.05035433333333, "rental_uris": {"ios": "https://dc.lft.to/lastmile_qr_scan", "android": "https://dc.lft.to/lastmile_qr_scan"}}, {"name": "c6f5489bf5a794249abdacede7b57616", "fusion_lat": 0.0, "type": "electric_scooter", "lat": 38.9024175, "is_reserved": 0, "is_disabled": 0, "fusion_lon": 0.0, "bike_id": "c6f5489bf5a794249abdacede7b57616", "lon": -77.00201333333334, "rental_uris": {"ios": "https://dc.lft.to/lastmile_qr_scan", "android": "https://dc.lft.to/lastmile_qr_scan"}}, {"name": "24615f3703f667cafdde9b700d95fd85", "fusion_lat": 0.0, "type": "electric_scooter", "lat": 38.92018183333333, "is_reserved": 0, "is_disabled": 0, "fusion_lon": 0.0, "bike_id": "24615f3703f667cafdde9b700d95fd85", "lon": -77.03475933333333, "rental_uris": {"ios": "https://dc.lft.to/lastmile_qr_scan", "android": "https://dc.lft.to/lastmile_qr_scan"}}, {"name": "159575edd496c080c5ffade529235180", "fusion_lat": 0.0, "type": "electric_bike", "lat": 38.850652833333335, "is_reserved": 0, "is_disabled": 0, "fusion_lon": 0.0, "bike_id": "159575edd496c080c5ffade529235180", "lon": -76.97333083333334, "rental_uris": {"ios": "https://dc.lft.to/lastmile_qr_scan", "android": "https://dc.lft.to/lastmile_qr_scan"}}, {"name": "7d72ad4dc4c0cbf68ed895633c37aaf6", "fusion_lat": 0.0, "type": "electric_scooter", "lat": 38.8960305, "is_reserved": 0, "is_disabled": 0, "fusion_lon": 0.0, "bike_id": "7d72ad4dc4c0cbf68ed895633c37aaf6", "lon": -77.0467955, "rental_uris": {"ios": "https://dc.lft.to/lastmile_qr_scan", "android": "https://dc.lft.to/lastmile_qr_scan"}}, {"name": "73b9289d847f1a1a71b9bf539edb0d92", "fusion_lat": 0.0, "type": "electric_scooter", "lat": 38.96173016666667, "is_reserved": 0, "is_disabled": 0, "fusion_lon": 0.0, "bike_id": "73b9289d847f1a1a71b9bf539edb0d92", "lon": -77.0322965, "rental_uris": {"ios": "https://dc.lft.to/lastmile_qr_scan", "android": "https://dc.lft.to/lastmile_qr_scan"}}, {"name": "9343517fc959f9a0197a811f7085fdbc", "fusion_lat": 0.0, "type": "electric_scooter", "lat": 38.93191233333334, "is_reserved": 0, "is_disabled": 0, "fusion_lon": 0.0, "bike_id": "9343517fc959f9a0197a811f7085fdbc", "lon": -77.02834516666667, "rental_uris": {"ios": "https://dc.lft.to/lastmile_qr_scan", "android": "https://dc.lft.to/lastmile_qr_scan"}}, {"name": "640ad4cdba54e1aa88680d6fac8400ec", "fusion_lat": 0.0, "type": "electric_scooter", "lat": 38.902705166666664, "is_reserved": 0, "is_disabled": 0, "fusion_lon": 0.0, "bike_id": "640ad4cdba54e1aa88680d6fac8400ec", "lon": -76.99854883333333, "rental_uris": {"ios": "https://dc.lft.to/lastmile_qr_scan", "android": "https://dc.lft.to/lastmile_qr_scan"}}, {"name": "384bc15030b067cf80cb63bc2f875ec9", "fusion_lat": 0.0, "type": "electric_bike", "lat": 38.96495183333333, "is_reserved": 0, "is_disabled": 0, "fusion_lon": 0.0, "bike_id": "384bc15030b067cf80cb63bc2f875ec9", "lon": -77.0649315, "rental_uris": {"ios": "https://dc.lft.to/lastmile_qr_scan", "android": "https://dc.lft.to/lastmile_qr_scan"}}, {"name": "41df8f33b6a736b7965d4d66adbb7442", "fusion_lat": 0.0, "type": "electric_scooter", "lat": 38.91267033333333, "is_reserved": 0, "is_disabled": 0, "fusion_lon": 0.0, "bike_id": "41df8f33b6a736b7965d4d66adbb7442", "lon": -77.02211833333334, "rental_uris": {"ios": "https://dc.lft.to/lastmile_qr_scan", "android": "https://dc.lft.to/lastmile_qr_scan"}}, {"name": "3392a92a8b589240b4a0205d937041eb", "fusion_lat": 0.0, "type": "electric_scooter", "lat": 38.90677183333333, "is_reserved": 0, "is_disabled": 0, "fusion_lon": 0.0, "bike_id": "3392a92a8b589240b4a0205d937041eb", "lon": -77.03838516666667, "rental_uris": {"ios": "https://dc.lft.to/lastmile_qr_scan", "android": "https://dc.lft.to/lastmile_qr_scan"}}, {"name": "e079df5a074e68f49049b458a4f84c4a", "fusion_lat": 0.0, "type": "electric_scooter", "lat": 38.90724683333333, "is_reserved": 0, "is_disabled": 0, "fusion_lon": 0.0, "bike_id": "e079df5a074e68f49049b458a4f84c4a", "lon": -77.041806, "rental_uris": {"ios": "https://dc.lft.to/lastmile_qr_scan", "android": "https://dc.lft.to/lastmile_qr_scan"}}, {"name": "19e954a6f8021cdc8287559ccf100cd4", "fusion_lat": 0.0, "type": "electric_scooter", "lat": 38.918389, "is_reserved": 0, "is_disabled": 0, "fusion_lon": 0.0, "bike_id": "19e954a6f8021cdc8287559ccf100cd4", "lon": -77.02453016666666, "rental_uris": {"ios": "https://dc.lft.to/lastmile_qr_scan", "android": "https://dc.lft.to/lastmile_qr_scan"}}, {"name": "c1ecb59ea8fa4c7420da895ac7d14a06", "fusion_lat": 0.0, "type": "electric_scooter", "lat": 38.94230866666667, "is_reserved": 0, "is_disabled": 0, "fusion_lon": 0.0, "bike_id": "c1ecb59ea8fa4c7420da895ac7d14a06", "lon": -77.01548633333333, "rental_uris": {"ios": "https://dc.lft.to/lastmile_qr_scan", "android": "https://dc.lft.to/lastmile_qr_scan"}}, {"name": "8d3783dbcfb4a23227ae63ad6b232376", "fusion_lat": 0.0, "type": "electric_scooter", "lat": 38.93541066666667, "is_reserved": 0, "is_disabled": 0, "fusion_lon": 0.0, "bike_id": "8d3783dbcfb4a23227ae63ad6b232376", "lon": -77.0340455, "rental_uris": {"ios": "https://dc.lft.to/lastmile_qr_scan", "android": "https://dc.lft.to/lastmile_qr_scan"}}, {"name": "9866b390e1c4a3bc6f625521cb397412", "fusion_lat": 0.0, "type": "electric_scooter", "lat": 38.8979565, "is_reserved": 0, "is_disabled": 0, "fusion_lon": 0.0, "bike_id": "9866b390e1c4a3bc6f625521cb397412", "lon": -76.94418916666666, "rental_uris": {"ios": "https://dc.lft.to/lastmile_qr_scan", "android": "https://dc.lft.to/lastmile_qr_scan"}}, {"name": "9e858c1d83b664e98f2b5d5c073eebde", "fusion_lat": 0.0, "type": "electric_scooter", "lat": 38.91238083333333, "is_reserved": 0, "is_disabled": 0, "fusion_lon": 0.0, "bike_id": "9e858c1d83b664e98f2b5d5c073eebde", "lon": -77.00924566666667, "rental_uris": {"ios": "https://dc.lft.to/lastmile_qr_scan", "android": "https://dc.lft.to/lastmile_qr_scan"}}, {"name": "d56a2c1edde5703e04b032da0b39828e", "fusion_lat": 0.0, "type": "electric_scooter", "lat": 38.90526783333333, "is_reserved": 0, "is_disabled": 0, "fusion_lon": 0.0, "bike_id": "d56a2c1edde5703e04b032da0b39828e", "lon": -77.0499695, "rental_uris": {"ios": "https://dc.lft.to/lastmile_qr_scan", "android": "https://dc.lft.to/lastmile_qr_scan"}}, {"name": "c36aeeb00e3cd43f4e9b219d3e406596", "fusion_lat": 0.0, "type": "electric_scooter", "lat": 38.922435166666666, "is_reserved": 0, "is_disabled": 0, "fusion_lon": 0.0, "bike_id": "c36aeeb00e3cd43f4e9b219d3e406596", "lon": -77.02985783333334, "rental_uris": {"ios": "https://dc.lft.to/lastmile_qr_scan", "android": "https://dc.lft.to/lastmile_qr_scan"}}, {"name": "d984e29df7f016b6d58e62ca316eff26", "fusion_lat": 0.0, "type": "electric_scooter", "lat": 38.92128683333333, "is_reserved": 0, "is_disabled": 0, "fusion_lon": 0.0, "bike_id": "d984e29df7f016b6d58e62ca316eff26", "lon": -77.04113716666667, "rental_uris": {"ios": "https://dc.lft.to/lastmile_qr_scan", "android": "https://dc.lft.to/lastmile_qr_scan"}}, {"name": "1ff1750716a94431d27eb8506a47f89b", "fusion_lat": 0.0, "type": "electric_scooter", "lat": 38.924695666666665, "is_reserved": 0, "is_disabled": 0, "fusion_lon": 0.0, "bike_id": "1ff1750716a94431d27eb8506a47f89b", "lon": -77.02716466666666, "rental_uris": {"ios": "https://dc.lft.to/lastmile_qr_scan", "android": "https://dc.lft.to/lastmile_qr_scan"}}, {"name": "e36f6882aa0eae377bc0926dd9d4e56a", "fusion_lat": 0.0, "type": "electric_scooter", "lat": 38.90148116666667, "is_reserved": 0, "is_disabled": 0, "fusion_lon": 0.0, "bike_id": "e36f6882aa0eae377bc0926dd9d4e56a", "lon": -76.97423866666666, "rental_uris": {"ios": "https://dc.lft.to/lastmile_qr_scan", "android": "https://dc.lft.to/lastmile_qr_scan"}}, {"name": "918af4be51d83883c5af09f24a4b2dc7", "fusion_lat": 0.0, "type": "electric_scooter", "lat": 38.9073015, "is_reserved": 0, "is_disabled": 0, "fusion_lon": 0.0, "bike_id": "918af4be51d83883c5af09f24a4b2dc7", "lon": -77.010675, "rental_uris": {"ios": "https://dc.lft.to/lastmile_qr_scan", "android": "https://dc.lft.to/lastmile_qr_scan"}}, {"name": "6737d3f323c62df9590da4f02e680996", "fusion_lat": 0.0, "type": "electric_scooter", "lat": 38.9182495, "is_reserved": 0, "is_disabled": 0, "fusion_lon": 0.0, "bike_id": "6737d3f323c62df9590da4f02e680996", "lon": -77.024197, "rental_uris": {"ios": "https://dc.lft.to/lastmile_qr_scan", "android": "https://dc.lft.to/lastmile_qr_scan"}}, {"name": "3f3860d2903812baa883d35c8143c4c1", "fusion_lat": 0.0, "type": "electric_scooter", "lat": 38.9374065, "is_reserved": 0, "is_disabled": 0, "fusion_lon": 0.0, "bike_id": "3f3860d2903812baa883d35c8143c4c1", "lon": -77.03272133333333, "rental_uris": {"ios": "https://dc.lft.to/lastmile_qr_scan", "android": "https://dc.lft.to/lastmile_qr_scan"}}, {"name": "38e195c4251ed23594a26fa62e7abe32", "fusion_lat": 0.0, "type": "electric_scooter", "lat": 38.91294933333333, "is_reserved": 0, "is_disabled": 0, "fusion_lon": 0.0, "bike_id": "38e195c4251ed23594a26fa62e7abe32", "lon": -77.061183, "rental_uris": {"ios": "https://dc.lft.to/lastmile_qr_scan", "android": "https://dc.lft.to/lastmile_qr_scan"}}, {"name": "345651359c77b47615a0cdbaccce4c88", "fusion_lat": 0.0, "type": "electric_scooter", "lat": 38.942563666666665, "is_reserved": 0, "is_disabled": 0, "fusion_lon": 0.0, "bike_id": "345651359c77b47615a0cdbaccce4c88", "lon": -77.04140183333334, "rental_uris": {"ios": "https://dc.lft.to/lastmile_qr_scan", "android": "https://dc.lft.to/lastmile_qr_scan"}}, {"name": "ea746c7319bc06ab8ebf7b2c2aaae16b", "fusion_lat": 0.0, "type": "electric_scooter", "lat": 38.91815866666666, "is_reserved": 0, "is_disabled": 0, "fusion_lon": 0.0, "bike_id": "ea746c7319bc06ab8ebf7b2c2aaae16b", "lon": -77.01282283333333, "rental_uris": {"ios": "https://dc.lft.to/lastmile_qr_scan", "android": "https://dc.lft.to/lastmile_qr_scan"}}, {"name": "ddacd333eff0f2995cd29d91d8b0f3d9", "fusion_lat": 0.0, "type": "electric_scooter", "lat": 38.86504816666667, "is_reserved": 0, "is_disabled": 0, "fusion_lon": 0.0, "bike_id": "ddacd333eff0f2995cd29d91d8b0f3d9", "lon": -76.99004416666666, "rental_uris": {"ios": "https://dc.lft.to/lastmile_qr_scan", "android": "https://dc.lft.to/lastmile_qr_scan"}}, {"name": "2620d852212e4e34a985dc436ded685c", "fusion_lat": 0.0, "type": "electric_scooter", "lat": 38.9124795, "is_reserved": 0, "is_disabled": 0, "fusion_lon": 0.0, "bike_id": "2620d852212e4e34a985dc436ded685c", "lon": -77.03210466666667, "rental_uris": {"ios": "https://dc.lft.to/lastmile_qr_scan", "android": "https://dc.lft.to/lastmile_qr_scan"}}, {"name": "76fd2c914d5d52d60bad7e1f9f220475", "fusion_lat": 0.0, "type": "electric_scooter", "lat": 38.916921, "is_reserved": 0, "is_disabled": 0, "fusion_lon": 0.0, "bike_id": "76fd2c914d5d52d60bad7e1f9f220475", "lon": -77.03765516666667, "rental_uris": {"ios": "https://dc.lft.to/lastmile_qr_scan", "android": "https://dc.lft.to/lastmile_qr_scan"}}, {"name": "e706dd2c812da796ef9c5cfffe94cdcb", "fusion_lat": 0.0, "type": "electric_scooter", "lat": 38.910698, "is_reserved": 0, "is_disabled": 0, "fusion_lon": 0.0, "bike_id": "e706dd2c812da796ef9c5cfffe94cdcb", "lon": -77.00852816666666, "rental_uris": {"ios": "https://dc.lft.to/lastmile_qr_scan", "android": "https://dc.lft.to/lastmile_qr_scan"}}, {"name": "a5062022c839761a1d4f9fee66ae038f", "fusion_lat": 0.0, "type": "electric_scooter", "lat": 38.88824733333333, "is_reserved": 0, "is_disabled": 0, "fusion_lon": 0.0, "bike_id": "a5062022c839761a1d4f9fee66ae038f", "lon": -77.04938466666667, "rental_uris": {"ios": "https://dc.lft.to/lastmile_qr_scan", "android": "https://dc.lft.to/lastmile_qr_scan"}}, {"name": "00e04c21c8f5141abe20722322062f0b", "fusion_lat": 0.0, "type": "electric_bike", "lat": 38.9155115, "is_reserved": 0, "is_disabled": 0, "fusion_lon": 0.0, "bike_id": "00e04c21c8f5141abe20722322062f0b", "lon": -77.06757783333333, "rental_uris": {"ios": "https://dc.lft.to/lastmile_qr_scan", "android": "https://dc.lft.to/lastmile_qr_scan"}}, {"name": "328035713325ed4ff4ab4caac05da41e", "fusion_lat": 0.0, "type": "electric_scooter", "lat": 38.9201755, "is_reserved": 0, "is_disabled": 0, "fusion_lon": 0.0, "bike_id": "328035713325ed4ff4ab4caac05da41e", "lon": -77.03121433333334, "rental_uris": {"ios": "https://dc.lft.to/lastmile_qr_scan", "android": "https://dc.lft.to/lastmile_qr_scan"}}, {"name": "9992218522452e974108ca57ee693283", "fusion_lat": 0.0, "type": "electric_scooter", "lat": 38.926297166666664, "is_reserved": 0, "is_disabled": 0, "fusion_lon": 0.0, "bike_id": "9992218522452e974108ca57ee693283", "lon": -77.03798816666666, "rental_uris": {"ios": "https://dc.lft.to/lastmile_qr_scan", "android": "https://dc.lft.to/lastmile_qr_scan"}}, {"name": "5685f0397f2c8691deb81772d21601d4", "fusion_lat": 0.0, "type": "electric_scooter", "lat": 38.8925105, "is_reserved": 0, "is_disabled": 0, "fusion_lon": 0.0, "bike_id": "5685f0397f2c8691deb81772d21601d4", "lon": -77.01512716666667, "rental_uris": {"ios": "https://dc.lft.to/lastmile_qr_scan", "android": "https://dc.lft.to/lastmile_qr_scan"}}, {"name": "fa2dc79b99ac74958695e252d7ccba0e", "fusion_lat": 0.0, "type": "electric_bike", "lat": 38.86376633333333, "is_reserved": 0, "is_disabled": 0, "fusion_lon": 0.0, "bike_id": "fa2dc79b99ac74958695e252d7ccba0e", "lon": -77.12900516666667, "rental_uris": {"ios": "https://dc.lft.to/lastmile_qr_scan", "android": "https://dc.lft.to/lastmile_qr_scan"}}, {"name": "c2247fe492482771e9920f3fbda85cca", "fusion_lat": 0.0, "type": "electric_scooter", "lat": 38.8996145, "is_reserved": 0, "is_disabled": 0, "fusion_lon": 0.0, "bike_id": "c2247fe492482771e9920f3fbda85cca", "lon": -77.01623433333333, "rental_uris": {"ios": "https://dc.lft.to/lastmile_qr_scan", "android": "https://dc.lft.to/lastmile_qr_scan"}}, {"name": "2b94318d163cc0697bb46d3a657ac7ed", "fusion_lat": 0.0, "type": "electric_bike", "lat": 38.97094766666667, "is_reserved": 0, "is_disabled": 0, "fusion_lon": 0.0, "bike_id": "2b94318d163cc0697bb46d3a657ac7ed", "lon": -77.06968016666667, "rental_uris": {"ios": "https://dc.lft.to/lastmile_qr_scan", "android": "https://dc.lft.to/lastmile_qr_scan"}}, {"name": "79fd4e481242f40e25befcecc8b35869", "fusion_lat": 0.0, "type": "electric_scooter", "lat": 38.89730683333333, "is_reserved": 0, "is_disabled": 0, "fusion_lon": 0.0, "bike_id": "79fd4e481242f40e25befcecc8b35869", "lon": -77.04728066666667, "rental_uris": {"ios": "https://dc.lft.to/lastmile_qr_scan", "android": "https://dc.lft.to/lastmile_qr_scan"}}, {"name": "1a240ddf233592b9292a21d581a563b0", "fusion_lat": 0.0, "type": "electric_scooter", "lat": 38.90846583333333, "is_reserved": 0, "is_disabled": 0, "fusion_lon": 0.0, "bike_id": "1a240ddf233592b9292a21d581a563b0", "lon": -77.03287216666666, "rental_uris": {"ios": "https://dc.lft.to/lastmile_qr_scan", "android": "https://dc.lft.to/lastmile_qr_scan"}}, {"name": "2eaa81de25b3d80b20b41d45657a5d12", "fusion_lat": 0.0, "type": "electric_bike", "lat": 38.928490833333335, "is_reserved": 0, "is_disabled": 0, "fusion_lon": 0.0, "bike_id": "2eaa81de25b3d80b20b41d45657a5d12", "lon": -77.10508116666666, "rental_uris": {"ios": "https://dc.lft.to/lastmile_qr_scan", "android": "https://dc.lft.to/lastmile_qr_scan"}}, {"name": "1cd02906df21fb913a5a4e83e0982a1f", "fusion_lat": 0.0, "type": "electric_scooter", "lat": 38.924335, "is_reserved": 0, "is_disabled": 0, "fusion_lon": 0.0, "bike_id": "1cd02906df21fb913a5a4e83e0982a1f", "lon": -77.04125316666666, "rental_uris": {"ios": "https://dc.lft.to/lastmile_qr_scan", "android": "https://dc.lft.to/lastmile_qr_scan"}}, {"name": "2aaaaccd15d461650ed78fa66c3fa84e", "fusion_lat": 0.0, "type": "electric_bike", "lat": 38.965504, "is_reserved": 0, "is_disabled": 0, "fusion_lon": 0.0, "bike_id": "2aaaaccd15d461650ed78fa66c3fa84e", "lon": -77.03518033333333, "rental_uris": {"ios": "https://dc.lft.to/lastmile_qr_scan", "android": "https://dc.lft.to/lastmile_qr_scan"}}, {"name": "bb6a5b3bd13728497b8d0451882430f5", "fusion_lat": 0.0, "type": "electric_scooter", "lat": 38.920609166666665, "is_reserved": 0, "is_disabled": 0, "fusion_lon": 0.0, "bike_id": "bb6a5b3bd13728497b8d0451882430f5", "lon": -77.047033, "rental_uris": {"ios": "https://dc.lft.to/lastmile_qr_scan", "android": "https://dc.lft.to/lastmile_qr_scan"}}, {"name": "5e9a7cf2928c0a0fe818a69e8e37cdb1", "fusion_lat": 0.0, "type": "electric_scooter", "lat": 38.919903166666664, "is_reserved": 0, "is_disabled": 0, "fusion_lon": 0.0, "bike_id": "5e9a7cf2928c0a0fe818a69e8e37cdb1", "lon": -77.03319666666667, "rental_uris": {"ios": "https://dc.lft.to/lastmile_qr_scan", "android": "https://dc.lft.to/lastmile_qr_scan"}}, {"name": "6dec566861628bcad7c4f025e821a4ea", "fusion_lat": 0.0, "type": "electric_scooter", "lat": 38.931787, "is_reserved": 0, "is_disabled": 0, "fusion_lon": 0.0, "bike_id": "6dec566861628bcad7c4f025e821a4ea", "lon": -77.05614733333333, "rental_uris": {"ios": "https://dc.lft.to/lastmile_qr_scan", "android": "https://dc.lft.to/lastmile_qr_scan"}}, {"name": "efe52a0c84ca05db14b6774a4cba7398", "fusion_lat": 0.0, "type": "electric_scooter", "lat": 38.92758633333333, "is_reserved": 0, "is_disabled": 0, "fusion_lon": 0.0, "bike_id": "efe52a0c84ca05db14b6774a4cba7398", "lon": -77.03275183333334, "rental_uris": {"ios": "https://dc.lft.to/lastmile_qr_scan", "android": "https://dc.lft.to/lastmile_qr_scan"}}, {"name": "f9d343c1682306a8b9605a34d4be02ac", "fusion_lat": 0.0, "type": "electric_scooter", "lat": 38.8622655, "is_reserved": 0, "is_disabled": 0, "fusion_lon": 0.0, "bike_id": "f9d343c1682306a8b9605a34d4be02ac", "lon": -76.9739965, "rental_uris": {"ios": "https://dc.lft.to/lastmile_qr_scan", "android": "https://dc.lft.to/lastmile_qr_scan"}}, {"name": "8c8b2b334784b0a2910494716d02c18d", "fusion_lat": 0.0, "type": "electric_scooter", "lat": 38.9088215, "is_reserved": 0, "is_disabled": 0, "fusion_lon": 0.0, "bike_id": "8c8b2b334784b0a2910494716d02c18d", "lon": -77.045053, "rental_uris": {"ios": "https://dc.lft.to/lastmile_qr_scan", "android": "https://dc.lft.to/lastmile_qr_scan"}}, {"name": "b15bfd05775368ed1c342cdf6f8d0707", "fusion_lat": 0.0, "type": "electric_scooter", "lat": 38.890891833333335, "is_reserved": 0, "is_disabled": 0, "fusion_lon": 0.0, "bike_id": "b15bfd05775368ed1c342cdf6f8d0707", "lon": -76.99788833333334, "rental_uris": {"ios": "https://dc.lft.to/lastmile_qr_scan", "android": "https://dc.lft.to/lastmile_qr_scan"}}, {"name": "760d87eb578fdd68913072d5075de8e5", "fusion_lat": 0.0, "type": "electric_scooter", "lat": 38.900355, "is_reserved": 0, "is_disabled": 0, "fusion_lon": 0.0, "bike_id": "760d87eb578fdd68913072d5075de8e5", "lon": -77.02993, "rental_uris": {"ios": "https://dc.lft.to/lastmile_qr_scan", "android": "https://dc.lft.to/lastmile_qr_scan"}}, {"name": "df19826bd59b35f22d0a08a4ad89eeeb", "fusion_lat": 0.0, "type": "electric_scooter", "lat": 38.88383416666667, "is_reserved": 0, "is_disabled": 0, "fusion_lon": 0.0, "bike_id": "df19826bd59b35f22d0a08a4ad89eeeb", "lon": -76.98535216666667, "rental_uris": {"ios": "https://dc.lft.to/lastmile_qr_scan", "android": "https://dc.lft.to/lastmile_qr_scan"}}, {"name": "f4d62f20082f7ea375d9126ddbe70a5d", "fusion_lat": 0.0, "type": "electric_scooter", "lat": 38.9333615, "is_reserved": 0, "is_disabled": 0, "fusion_lon": 0.0, "bike_id": "f4d62f20082f7ea375d9126ddbe70a5d", "lon": -77.04360816666667, "rental_uris": {"ios": "https://dc.lft.to/lastmile_qr_scan", "android": "https://dc.lft.to/lastmile_qr_scan"}}, {"name": "1197a7d8c0eceb5b45f828fad1ae82b7", "fusion_lat": 0.0, "type": "electric_scooter", "lat": 38.90566066666667, "is_reserved": 0, "is_disabled": 0, "fusion_lon": 0.0, "bike_id": "1197a7d8c0eceb5b45f828fad1ae82b7", "lon": -77.03420166666666, "rental_uris": {"ios": "https://dc.lft.to/lastmile_qr_scan", "android": "https://dc.lft.to/lastmile_qr_scan"}}, {"name": "f371ada3411dfc53f44ad67dcf72ca78", "fusion_lat": 0.0, "type": "electric_scooter", "lat": 38.914048666666666, "is_reserved": 0, "is_disabled": 0, "fusion_lon": 0.0, "bike_id": "f371ada3411dfc53f44ad67dcf72ca78", "lon": -77.032304, "rental_uris": {"ios": "https://dc.lft.to/lastmile_qr_scan", "android": "https://dc.lft.to/lastmile_qr_scan"}}, {"name": "b31416795b61234dd5b50406972a0e39", "fusion_lat": 0.0, "type": "electric_scooter", "lat": 38.89296483333333, "is_reserved": 0, "is_disabled": 0, "fusion_lon": 0.0, "bike_id": "b31416795b61234dd5b50406972a0e39", "lon": -76.93927766666667, "rental_uris": {"ios": "https://dc.lft.to/lastmile_qr_scan", "android": "https://dc.lft.to/lastmile_qr_scan"}}, {"name": "f85d5530982ba4cedda268d84f9a2a91", "fusion_lat": 0.0, "type": "electric_scooter", "lat": 38.877030500000004, "is_reserved": 0, "is_disabled": 0, "fusion_lon": 0.0, "bike_id": "f85d5530982ba4cedda268d84f9a2a91", "lon": -77.0176735, "rental_uris": {"ios": "https://dc.lft.to/lastmile_qr_scan", "android": "https://dc.lft.to/lastmile_qr_scan"}}, {"name": "83986e3d7ffeef8528e3f5732ae9d805", "fusion_lat": 0.0, "type": "electric_scooter", "lat": 38.89900633333333, "is_reserved": 0, "is_disabled": 0, "fusion_lon": 0.0, "bike_id": "83986e3d7ffeef8528e3f5732ae9d805", "lon": -77.03930633333333, "rental_uris": {"ios": "https://dc.lft.to/lastmile_qr_scan", "android": "https://dc.lft.to/lastmile_qr_scan"}}, {"name": "1abf246f659cf2e92a0d69b928c7e495", "fusion_lat": 0.0, "type": "electric_bike", "lat": 38.832377, "is_reserved": 0, "is_disabled": 0, "fusion_lon": 0.0, "bike_id": "1abf246f659cf2e92a0d69b928c7e495", "lon": -76.946228, "rental_uris": {"ios": "https://dc.lft.to/lastmile_qr_scan", "android": "https://dc.lft.to/lastmile_qr_scan"}}, {"name": "b66c1bc13e231a5cb482b65e5768c871", "fusion_lat": 0.0, "type": "electric_bike", "lat": 38.95266616666667, "is_reserved": 0, "is_disabled": 0, "fusion_lon": 0.0, "bike_id": "b66c1bc13e231a5cb482b65e5768c871", "lon": -77.06984883333334, "rental_uris": {"ios": "https://dc.lft.to/lastmile_qr_scan", "android": "https://dc.lft.to/lastmile_qr_scan"}}, {"name": "8f49f382f093bbef53461ed1734a0bca", "fusion_lat": 0.0, "type": "electric_bike", "lat": 38.92881766666667, "is_reserved": 0, "is_disabled": 0, "fusion_lon": 0.0, "bike_id": "8f49f382f093bbef53461ed1734a0bca", "lon": -77.04264933333333, "rental_uris": {"ios": "https://dc.lft.to/lastmile_qr_scan", "android": "https://dc.lft.to/lastmile_qr_scan"}}, {"name": "d85e94b7cca78359736665329f5bc06d", "fusion_lat": 0.0, "type": "electric_scooter", "lat": 38.93965033333333, "is_reserved": 0, "is_disabled": 0, "fusion_lon": 0.0, "bike_id": "d85e94b7cca78359736665329f5bc06d", "lon": -77.027527, "rental_uris": {"ios": "https://dc.lft.to/lastmile_qr_scan", "android": "https://dc.lft.to/lastmile_qr_scan"}}, {"name": "6fa18e7ee76127bf39db31ecaff2f1fe", "fusion_lat": 0.0, "type": "electric_scooter", "lat": 38.9125285, "is_reserved": 0, "is_disabled": 0, "fusion_lon": 0.0, "bike_id": "6fa18e7ee76127bf39db31ecaff2f1fe", "lon": -77.0384245, "rental_uris": {"ios": "https://dc.lft.to/lastmile_qr_scan", "android": "https://dc.lft.to/lastmile_qr_scan"}}, {"name": "6a8ebb096338540cc9ba469c1252678f", "fusion_lat": 0.0, "type": "electric_bike", "lat": 38.844825166666666, "is_reserved": 0, "is_disabled": 0, "fusion_lon": 0.0, "bike_id": "6a8ebb096338540cc9ba469c1252678f", "lon": -76.9721735, "rental_uris": {"ios": "https://dc.lft.to/lastmile_qr_scan", "android": "https://dc.lft.to/lastmile_qr_scan"}}, {"name": "bc65d13606bf149190c4c1881fed64a4", "fusion_lat": 0.0, "type": "electric_scooter", "lat": 38.903927333333336, "is_reserved": 0, "is_disabled": 0, "fusion_lon": 0.0, "bike_id": "bc65d13606bf149190c4c1881fed64a4", "lon": -77.0482335, "rental_uris": {"ios": "https://dc.lft.to/lastmile_qr_scan", "android": "https://dc.lft.to/lastmile_qr_scan"}}, {"name": "26f562ec5c321d01627ff23cffbee51b", "fusion_lat": 0.0, "type": "electric_scooter", "lat": 38.90195216666667, "is_reserved": 0, "is_disabled": 0, "fusion_lon": 0.0, "bike_id": "26f562ec5c321d01627ff23cffbee51b", "lon": -77.05058683333333, "rental_uris": {"ios": "https://dc.lft.to/lastmile_qr_scan", "android": "https://dc.lft.to/lastmile_qr_scan"}}, {"name": "dabc09f8b48a664a421754eed8e6c756", "fusion_lat": 0.0, "type": "electric_scooter", "lat": 38.9176075, "is_reserved": 0, "is_disabled": 0, "fusion_lon": 0.0, "bike_id": "dabc09f8b48a664a421754eed8e6c756", "lon": -77.02514066666667, "rental_uris": {"ios": "https://dc.lft.to/lastmile_qr_scan", "android": "https://dc.lft.to/lastmile_qr_scan"}}, {"name": "636fae91ff4a8b506c0aeb7f967a6e0e", "fusion_lat": 0.0, "type": "electric_bike", "lat": 38.923254666666665, "is_reserved": 0, "is_disabled": 0, "fusion_lon": 0.0, "bike_id": "636fae91ff4a8b506c0aeb7f967a6e0e", "lon": -77.0229355, "rental_uris": {"ios": "https://dc.lft.to/lastmile_qr_scan", "android": "https://dc.lft.to/lastmile_qr_scan"}}, {"name": "5bb31d4adb6950103a27efd5095ae522", "fusion_lat": 0.0, "type": "electric_scooter", "lat": 38.93725416666667, "is_reserved": 0, "is_disabled": 0, "fusion_lon": 0.0, "bike_id": "5bb31d4adb6950103a27efd5095ae522", "lon": -77.03636983333334, "rental_uris": {"ios": "https://dc.lft.to/lastmile_qr_scan", "android": "https://dc.lft.to/lastmile_qr_scan"}}, {"name": "796c752bc7d299d21957acbfc99ce040", "fusion_lat": 0.0, "type": "electric_scooter", "lat": 38.917214333333334, "is_reserved": 0, "is_disabled": 0, "fusion_lon": 0.0, "bike_id": "796c752bc7d299d21957acbfc99ce040", "lon": -77.01865016666666, "rental_uris": {"ios": "https://dc.lft.to/lastmile_qr_scan", "android": "https://dc.lft.to/lastmile_qr_scan"}}, {"name": "3078df3c4480e2a63a789293383c1c1c", "fusion_lat": 0.0, "type": "electric_scooter", "lat": 38.89732, "is_reserved": 0, "is_disabled": 0, "fusion_lon": 0.0, "bike_id": "3078df3c4480e2a63a789293383c1c1c", "lon": -77.04655716666667, "rental_uris": {"ios": "https://dc.lft.to/lastmile_qr_scan", "android": "https://dc.lft.to/lastmile_qr_scan"}}, {"name": "586e8a822ecfc8d9b732205fe30a5350", "fusion_lat": 0.0, "type": "electric_scooter", "lat": 38.956443, "is_reserved": 0, "is_disabled": 0, "fusion_lon": 0.0, "bike_id": "586e8a822ecfc8d9b732205fe30a5350", "lon": -77.02271333333333, "rental_uris": {"ios": "https://dc.lft.to/lastmile_qr_scan", "android": "https://dc.lft.to/lastmile_qr_scan"}}, {"name": "52c7e4c0e78cd2c5a9d5fe49e72923bf", "fusion_lat": 0.0, "type": "electric_bike", "lat": 38.9462465, "is_reserved": 0, "is_disabled": 0, "fusion_lon": 0.0, "bike_id": "52c7e4c0e78cd2c5a9d5fe49e72923bf", "lon": -77.08048266666667, "rental_uris": {"ios": "https://dc.lft.to/lastmile_qr_scan", "android": "https://dc.lft.to/lastmile_qr_scan"}}, {"name": "3ede3600fd17ede2bbd58e5815874bb0", "fusion_lat": 0.0, "type": "electric_scooter", "lat": 38.901665, "is_reserved": 0, "is_disabled": 0, "fusion_lon": 0.0, "bike_id": "3ede3600fd17ede2bbd58e5815874bb0", "lon": -77.01889883333334, "rental_uris": {"ios": "https://dc.lft.to/lastmile_qr_scan", "android": "https://dc.lft.to/lastmile_qr_scan"}}, {"name": "7e4cc71572e5c0e0e97b310f76ddc4a9", "fusion_lat": 0.0, "type": "electric_scooter", "lat": 38.920246, "is_reserved": 0, "is_disabled": 0, "fusion_lon": 0.0, "bike_id": "7e4cc71572e5c0e0e97b310f76ddc4a9", "lon": -77.031761, "rental_uris": {"ios": "https://dc.lft.to/lastmile_qr_scan", "android": "https://dc.lft.to/lastmile_qr_scan"}}, {"name": "3d103717f104f219263c6f38d8122861", "fusion_lat": 0.0, "type": "electric_scooter", "lat": 38.8653805, "is_reserved": 0, "is_disabled": 0, "fusion_lon": 0.0, "bike_id": "3d103717f104f219263c6f38d8122861", "lon": -76.98707516666667, "rental_uris": {"ios": "https://dc.lft.to/lastmile_qr_scan", "android": "https://dc.lft.to/lastmile_qr_scan"}}, {"name": "ba404d78cab740a48686e7133a5e7bd5", "fusion_lat": 0.0, "type": "electric_scooter", "lat": 38.900316833333335, "is_reserved": 0, "is_disabled": 0, "fusion_lon": 0.0, "bike_id": "ba404d78cab740a48686e7133a5e7bd5", "lon": -76.99860033333333, "rental_uris": {"ios": "https://dc.lft.to/lastmile_qr_scan", "android": "https://dc.lft.to/lastmile_qr_scan"}}, {"name": "03f16c030d43d7af5627c865407e75e5", "fusion_lat": 0.0, "type": "electric_scooter", "lat": 38.9290065, "is_reserved": 0, "is_disabled": 0, "fusion_lon": 0.0, "bike_id": "03f16c030d43d7af5627c865407e75e5", "lon": -77.00522683333334, "rental_uris": {"ios": "https://dc.lft.to/lastmile_qr_scan", "android": "https://dc.lft.to/lastmile_qr_scan"}}, {"name": "6cc8bfe2cab6a609e3a00ddeca3f79cd", "fusion_lat": 0.0, "type": "electric_scooter", "lat": 38.91921033333333, "is_reserved": 0, "is_disabled": 0, "fusion_lon": 0.0, "bike_id": "6cc8bfe2cab6a609e3a00ddeca3f79cd", "lon": -77.02492283333333, "rental_uris": {"ios": "https://dc.lft.to/lastmile_qr_scan", "android": "https://dc.lft.to/lastmile_qr_scan"}}, {"name": "5c178d361f05984e361c546ecff44234", "fusion_lat": 0.0, "type": "electric_scooter", "lat": 38.91818266666667, "is_reserved": 0, "is_disabled": 0, "fusion_lon": 0.0, "bike_id": "5c178d361f05984e361c546ecff44234", "lon": -77.03568383333334, "rental_uris": {"ios": "https://dc.lft.to/lastmile_qr_scan", "android": "https://dc.lft.to/lastmile_qr_scan"}}, {"name": "4c34b26b42dcc64d91947a5f5a8ec0ae", "fusion_lat": 0.0, "type": "electric_scooter", "lat": 38.9351315, "is_reserved": 0, "is_disabled": 0, "fusion_lon": 0.0, "bike_id": "4c34b26b42dcc64d91947a5f5a8ec0ae", "lon": -77.032913, "rental_uris": {"ios": "https://dc.lft.to/lastmile_qr_scan", "android": "https://dc.lft.to/lastmile_qr_scan"}}, {"name": "f7531e36d054bd746643d5c549ecd828", "fusion_lat": 0.0, "type": "electric_scooter", "lat": 38.9120175, "is_reserved": 0, "is_disabled": 0, "fusion_lon": 0.0, "bike_id": "f7531e36d054bd746643d5c549ecd828", "lon": -77.0344885, "rental_uris": {"ios": "https://dc.lft.to/lastmile_qr_scan", "android": "https://dc.lft.to/lastmile_qr_scan"}}, {"name": "74425111c1f6e754d21980f2c4ce283e", "fusion_lat": 0.0, "type": "electric_scooter", "lat": 38.9154125, "is_reserved": 0, "is_disabled": 0, "fusion_lon": 0.0, "bike_id": "74425111c1f6e754d21980f2c4ce283e", "lon": -77.0386035, "rental_uris": {"ios": "https://dc.lft.to/lastmile_qr_scan", "android": "https://dc.lft.to/lastmile_qr_scan"}}, {"name": "a7cb6f2146f068481a82d9cadda4afc3", "fusion_lat": 0.0, "type": "electric_scooter", "lat": 38.9027285, "is_reserved": 0, "is_disabled": 0, "fusion_lon": 0.0, "bike_id": "a7cb6f2146f068481a82d9cadda4afc3", "lon": -77.029998, "rental_uris": {"ios": "https://dc.lft.to/lastmile_qr_scan", "android": "https://dc.lft.to/lastmile_qr_scan"}}, {"name": "718461d4859c9c572171117e511d70c1", "fusion_lat": 0.0, "type": "electric_scooter", "lat": 38.900407666666666, "is_reserved": 0, "is_disabled": 0, "fusion_lon": 0.0, "bike_id": "718461d4859c9c572171117e511d70c1", "lon": -77.01182316666667, "rental_uris": {"ios": "https://dc.lft.to/lastmile_qr_scan", "android": "https://dc.lft.to/lastmile_qr_scan"}}, {"name": "3330b42379162a11041e42a4fccce22f", "fusion_lat": 0.0, "type": "electric_scooter", "lat": 38.92240066666667, "is_reserved": 0, "is_disabled": 0, "fusion_lon": 0.0, "bike_id": "3330b42379162a11041e42a4fccce22f", "lon": -77.0298385, "rental_uris": {"ios": "https://dc.lft.to/lastmile_qr_scan", "android": "https://dc.lft.to/lastmile_qr_scan"}}, {"name": "6afa2137577c0641df69b98eb6bfa01a", "fusion_lat": 0.0, "type": "electric_scooter", "lat": 38.832303833333334, "is_reserved": 0, "is_disabled": 0, "fusion_lon": 0.0, "bike_id": "6afa2137577c0641df69b98eb6bfa01a", "lon": -76.98890383333334, "rental_uris": {"ios": "https://dc.lft.to/lastmile_qr_scan", "android": "https://dc.lft.to/lastmile_qr_scan"}}, {"name": "f8ba3ac64e4381c96e8250510a2a1575", "fusion_lat": 0.0, "type": "electric_scooter", "lat": 38.927503, "is_reserved": 0, "is_disabled": 0, "fusion_lon": 0.0, "bike_id": "f8ba3ac64e4381c96e8250510a2a1575", "lon": -77.02423783333333, "rental_uris": {"ios": "https://dc.lft.to/lastmile_qr_scan", "android": "https://dc.lft.to/lastmile_qr_scan"}}, {"name": "32b176cb34860334368a50bb5ed01aba", "fusion_lat": 0.0, "type": "electric_scooter", "lat": 38.90271833333333, "is_reserved": 0, "is_disabled": 0, "fusion_lon": 0.0, "bike_id": "32b176cb34860334368a50bb5ed01aba", "lon": -77.02995566666667, "rental_uris": {"ios": "https://dc.lft.to/lastmile_qr_scan", "android": "https://dc.lft.to/lastmile_qr_scan"}}, {"name": "c11c9a943212a21ba7169ad7d891bb4a", "fusion_lat": 0.0, "type": "electric_scooter", "lat": 38.9027575, "is_reserved": 0, "is_disabled": 0, "fusion_lon": 0.0, "bike_id": "c11c9a943212a21ba7169ad7d891bb4a", "lon": -77.05387066666667, "rental_uris": {"ios": "https://dc.lft.to/lastmile_qr_scan", "android": "https://dc.lft.to/lastmile_qr_scan"}}, {"name": "d319a6d3f6587051fe8b7578213b8e56", "fusion_lat": 0.0, "type": "electric_scooter", "lat": 38.9246985, "is_reserved": 0, "is_disabled": 0, "fusion_lon": 0.0, "bike_id": "d319a6d3f6587051fe8b7578213b8e56", "lon": -77.02713966666667, "rental_uris": {"ios": "https://dc.lft.to/lastmile_qr_scan", "android": "https://dc.lft.to/lastmile_qr_scan"}}, {"name": "2602b7ce950f82ac4daeab376cf4a840", "fusion_lat": 0.0, "type": "electric_bike", "lat": 38.843504833333334, "is_reserved": 0, "is_disabled": 0, "fusion_lon": 0.0, "bike_id": "2602b7ce950f82ac4daeab376cf4a840", "lon": -77.06402, "rental_uris": {"ios": "https://dc.lft.to/lastmile_qr_scan", "android": "https://dc.lft.to/lastmile_qr_scan"}}, {"name": "28578801a621de04c1db6275321aaa67", "fusion_lat": 0.0, "type": "electric_bike", "lat": 38.97518216666667, "is_reserved": 0, "is_disabled": 0, "fusion_lon": 0.0, "bike_id": "28578801a621de04c1db6275321aaa67", "lon": -77.01687166666666, "rental_uris": {"ios": "https://dc.lft.to/lastmile_qr_scan", "android": "https://dc.lft.to/lastmile_qr_scan"}}, {"name": "090ea5e94b8234d777f07bfd637f01a4", "fusion_lat": 0.0, "type": "electric_scooter", "lat": 38.895878, "is_reserved": 0, "is_disabled": 0, "fusion_lon": 0.0, "bike_id": "090ea5e94b8234d777f07bfd637f01a4", "lon": -77.04267433333334, "rental_uris": {"ios": "https://dc.lft.to/lastmile_qr_scan", "android": "https://dc.lft.to/lastmile_qr_scan"}}, {"name": "6cd7a1dcd2a95e409c047d4bccabffec", "fusion_lat": 0.0, "type": "electric_scooter", "lat": 38.93060766666667, "is_reserved": 0, "is_disabled": 0, "fusion_lon": 0.0, "bike_id": "6cd7a1dcd2a95e409c047d4bccabffec", "lon": -77.0232395, "rental_uris": {"ios": "https://dc.lft.to/lastmile_qr_scan", "android": "https://dc.lft.to/lastmile_qr_scan"}}, {"name": "91304c7b5569ed52ebc7a8e2698a069e", "fusion_lat": 0.0, "type": "electric_bike", "lat": 38.8659495, "is_reserved": 0, "is_disabled": 0, "fusion_lon": 0.0, "bike_id": "91304c7b5569ed52ebc7a8e2698a069e", "lon": -76.9322415, "rental_uris": {"ios": "https://dc.lft.to/lastmile_qr_scan", "android": "https://dc.lft.to/lastmile_qr_scan"}}, {"name": "b22c28be4336cac36cc758e0ecbefd3b", "fusion_lat": 0.0, "type": "electric_scooter", "lat": 38.90050866666667, "is_reserved": 0, "is_disabled": 0, "fusion_lon": 0.0, "bike_id": "b22c28be4336cac36cc758e0ecbefd3b", "lon": -76.9475695, "rental_uris": {"ios": "https://dc.lft.to/lastmile_qr_scan", "android": "https://dc.lft.to/lastmile_qr_scan"}}, {"name": "1b4deccb05bbc9b0477a88d00bb2a0d8", "fusion_lat": 0.0, "type": "electric_bike", "lat": 38.9846515, "is_reserved": 0, "is_disabled": 0, "fusion_lon": 0.0, "bike_id": "1b4deccb05bbc9b0477a88d00bb2a0d8", "lon": -76.95525466666666, "rental_uris": {"ios": "https://dc.lft.to/lastmile_qr_scan", "android": "https://dc.lft.to/lastmile_qr_scan"}}, {"name": "00c98a9c80c1f81618cdae60feca5d04", "fusion_lat": 0.0, "type": "electric_scooter", "lat": 38.893901666666665, "is_reserved": 0, "is_disabled": 0, "fusion_lon": 0.0, "bike_id": "00c98a9c80c1f81618cdae60feca5d04", "lon": -77.05474866666667, "rental_uris": {"ios": "https://dc.lft.to/lastmile_qr_scan", "android": "https://dc.lft.to/lastmile_qr_scan"}},