{"data": {"bikes": [{"is_reserved": 0, "type": "electric_scooter", "fusion_lat": 0.0, "is_disabled": 0, "rental_uris": {"ios": "https://dc.lft.to/lastmile_qr_scan", "android": "https://dc.lft.to/lastmile_qr_scan"}, "bike_id": "70eb6638a32632f2133249872283d25f", "lat": 38.91347533333333, "name": "70eb6638a32632f2133249872283d25f", "lon": -77.04346, "fusion_lon": 0.0}, {"is_reserved": 0, "type": "electric_scooter", "fusion_lat": 0.0, "is_disabled": 0, "rental_uris": {"ios": "https://dc.lft.to/lastmile_qr_scan", "android": "https://dc.lft.to/lastmile_qr_scan"}, "bike_id": "9252e43bffa45b858de57b56bd32d0a2", "lat": 38.915552, "name": "9252e43bffa45b858de57b56bd32d0a2", "lon": -77.040961, "fusion_lon": 0.0}, {"is_reserved": 0, "type": "electric_scooter", "fusion_lat": 0.0, "is_disabled": 0, "rental_uris": {"ios": "https://dc.lft.to/lastmile_qr_scan", "android": "https://dc.lft.to/lastmile_qr_scan"}, "bike_id": "63b6821636013c54b2774023749265b8", "lat": 38.92673516666667, "name": "63b6821636013c54b2774023749265b8", "lon": -77.02692966666666, "fusion_lon": 0.0}, {"is_reserved": 0, "type": "electric_scooter", "fusion_lat": 0.0, "is_disabled": 0, "rental_uris": {"ios": "https://dc.lft.to/lastmile_qr_scan", "android": "https://dc.lft.to/lastmile_qr_scan"}, "bike_id": "323e9cfca39ac1c0f825e3567fc9ab1d", "lat": 38.92034366666667, "name": "323e9cfca39ac1c0f825e3567fc9ab1d", "lon": -77.01966666666667, "fusion_lon": 0.0}, {"is_reserved": 0, "type": "electric_scooter", "fusion_lat": 0.0, "is_disabled": 0, "rental_uris": {"ios": "https://dc.lft.to/lastmile_qr_scan", "android": "https://dc.lft.to/lastmile_qr_scan"}, "bike_id": "2ba971840aab432c3b069bc7d7004518", "lat": 38.879451, "name": "2ba971840aab432c3b069bc7d7004518", "lon": -77.01005883333333, "fusion_lon": 0.0}, {"is_reserved": 0, "type": "electric_scooter", "fusion_lat": 0.0, "is_disabled": 0, "rental_uris": {"ios": "https://dc.lft.to/lastmile_qr_scan", "android": "https://dc.lft.to/lastmile_qr_scan"}, "bike_id": "27de2f69aae3cc3c33d16a7a3cee0144", "lat": 38.90716833333333, "name": "27de2f69aae3cc3c33d16a7a3cee0144", "lon": -77.0033275, "fusion_lon": 0.0}, {"is_reserved": 0, "type": "electric_scooter", "fusion_lat": 0.0, "is_disabled": 0, "rental_uris": {"ios": "https://dc.lft.to/lastmile_qr_scan", "android": "https://dc.lft.to/lastmile_qr_scan"}, "bike_id": "100db8250519471c55f840b7ba1c3ff7", "lat": 38.874240666666665, "name": "100db8250519471c55f840b7ba1c3ff7", "lon": -76.97180016666667, "fusion_lon": 0.0}, {"is_reserved": 0, "type": "electric_scooter", "fusion_lat": 0.0, "is_disabled": 0, "rental_uris": {"ios": "https://dc.lft.to/lastmile_qr_scan", "android": "https://dc.lft.to/lastmile_qr_scan"}, "bike_id": "69dbd3fb694cd9fb60e0fdfeaedecdc6", "lat": 38.91568266666667, "name": "69dbd3fb694cd9fb60e0fdfeaedecdc6", "lon": -77.03264566666667, "fusion_lon": 0.0}, {"is_reserved": 0, "type": "electric_scooter", "fusion_lat": 0.0, "is_disabled": 0, "rental_uris": {"ios": "https://dc.lft.to/lastmile_qr_scan", "android": "https://dc.lft.to/lastmile_qr_scan"}, "bike_id": "05f82d5513b63b3863a9c940ed3c0a34", "lat": 38.90380533333333, "name": "05f82d5513b63b3863a9c940ed3c0a34", "lon": -77.0405025, "fusion_lon": 0.0}, {"is_reserved": 0, "type": "electric_scooter", "fusion_lat": 0.0, "is_disabled": 0, "rental_uris": {"ios": "https://dc.lft.to/lastmile_qr_scan", "android": "https://dc.lft.to/lastmile_qr_scan"}, "bike_id": "1c5a39626ed4c1358e10ee6a0d6594b9", "lat": 38.915494833333334, "name": "1c5a39626ed4c1358e10ee6a0d6594b9", "lon": -76.98499433333333, "fusion_lon": 0.0}, {"is_reserved": 0, "type": "electric_scooter", "fusion_lat": 0.0, "is_disabled": 0, "rental_uris": {"ios": "https://dc.lft.to/lastmile_qr_scan", "android": "https://dc.lft.to/lastmile_qr_scan"}, "bike_id": "f442defe45ad073ecf27d7d7acba7dc7", "lat": 38.908153666666664, "name": "f442defe45ad073ecf27d7d7acba7dc7", "lon": -77.084266, "fusion_lon": 0.0}, {"is_reserved": 0, "type": "electric_scooter", "fusion_lat": 0.0, "is_disabled": 0, "rental_uris": {"ios": "https://dc.lft.to/lastmile_qr_scan", "android": "https://dc.lft.to/lastmile_qr_scan"}, "bike_id": "5a8da1b279960ae966d6cfa8b38f3e53", "lat": 38.93514966666667, "name": "5a8da1b279960ae966d6cfa8b38f3e53", "lon": -77.036768, "fusion_lon": 0.0}, {"is_reserved": 0, "type": "electric_scooter", "fusion_lat": 0.0, "is_disabled": 0, "rental_uris": {"ios": "https://dc.lft.to/lastmile_qr_scan", "android": "https://dc.lft.to/lastmile_qr_scan"}, "bike_id": "ace06d96ce476996ab0074de82d6e604", "lat": 38.919503166666665, "name": "ace06d96ce476996ab0074de82d6e604", "lon": -77.07984366666666, "fusion_lon": 0.0}, {"is_reserved": 0, "type": "electric_scooter", "fusion_lat": 0.0, "is_disabled": 0, "rental_uris": {"ios": "https://dc.lft.to/lastmile_qr_scan", "android": "https://dc.lft.to/lastmile_qr_scan"}, "bike_id": "828495514930104b3fe0ed5e75619e13", "lat": 38.932295333333336, "name": "828495514930104b3fe0ed5e75619e13", "lon": -77.0296205, "fusion_lon": 0.0}, {"is_reserved": 0, "type": "electric_scooter", "fusion_lat": 0.0, "is_disabled": 0, "rental_uris": {"ios": "https://dc.lft.to/lastmile_qr_scan", "android": "https://dc.lft.to/lastmile_qr_scan"}, "bike_id": "9ea594d5cae512955d4c3d804e279371", "lat": 38.92472866666667, "name": "9ea594d5cae512955d4c3d804e279371", "lon": -77.02215333333334, "fusion_lon": 0.0}, {"is_reserved": 0, "type": "electric_scooter", "fusion_lat": 0.0, "is_disabled": 0, "rental_uris": {"ios": "https://dc.lft.to/lastmile_qr_scan", "android": "https://dc.lft.to/lastmile_qr_scan"}, "bike_id": "762bd1a92ce3314576d7933c7d2ea86f", "lat": 38.88708183333333, "name": "762bd1a92ce3314576d7933c7d2ea86f", "lon": -76.98339666666666, "fusion_lon": 0.0}, {"is_reserved": 0, "type": "electric_scooter", "fusion_lat": 0.0, "is_disabled": 0, "rental_uris": {"ios": "https://dc.lft.to/lastmile_qr_scan", "android": "https://dc.lft.to/lastmile_qr_scan"}, "bike_id": "925d6d1dd2e7051f85eb1a797fa03ca6", "lat": 38.9086485, "name": "925d6d1dd2e7051f85eb1a797fa03ca6", "lon": -77.0267205, "fusion_lon": 0.0}, {"is_reserved": 0, "type": "electric_scooter", "fusion_lat": 0.0, "is_disabled": 0, "rental_uris": {"ios": "https://dc.lft.to/lastmile_qr_scan", "android": "https://dc.lft.to/lastmile_qr_scan"}, "bike_id": "95a93d4f738f28acffb3f9cbe1f45602", "lat": 38.928922666666665, "name": "95a93d4f738f28acffb3f9cbe1f45602", "lon": -77.02754216666666, "fusion_lon": 0.0}, {"is_reserved": 0, "type": "electric_scooter", "fusion_lat": 0.0, "is_disabled": 0, "rental_uris": {"ios": "https://dc.lft.to/lastmile_qr_scan", "android": "https://dc.lft.to/lastmile_qr_scan"}, "bike_id": "7f8771a5b0b1d50412182497d697bf16", "lat": 38.90125866666666, "name": "7f8771a5b0b1d50412182497d697bf16", "lon": -76.99508683333333, "fusion_lon": 0.0}, {"is_reserved": 0, "type": "electric_scooter", "fusion_lat": 0.0, "is_disabled": 0, "rental_uris": {"ios": "https://dc.lft.to/lastmile_qr_scan", "android": "https://dc.lft.to/lastmile_qr_scan"}, "bike_id": "e4f5567a1b1d6abf065db19355c57d6f", "lat": 38.92595683333333, "name": "e4f5567a1b1d6abf065db19355c57d6f", "lon": -77.0250025, "fusion_lon": 0.0}, {"is_reserved": 0, "type": "electric_bike", "fusion_lat": 0.0, "is_disabled": 0, "rental_uris": {"ios": "https://dc.lft.to/lastmile_qr_scan", "android": "https://dc.lft.to/lastmile_qr_scan"}, "bike_id": "543243348155921bf42d770388e8095a", "lat": 38.84618533333333, "name": "543243348155921bf42d770388e8095a", "lon": -76.97837816666667, "fusion_lon": 0.0}, {"is_reserved": 0, "type": "electric_scooter", "fusion_lat": 0.0, "is_disabled": 0, "rental_uris": {"ios": "https://dc.lft.to/lastmile_qr_scan", "android": "https://dc.lft.to/lastmile_qr_scan"}, "bike_id": "826db24d69a26e59d89f13f6cbb9e26b", "lat": 38.8857595, "name": "826db24d69a26e59d89f13f6cbb9e26b", "lon": -77.01210083333334, "fusion_lon": 0.0}, {"is_reserved": 0, "type": "electric_scooter", "fusion_lat": 0.0, "is_disabled": 0, "rental_uris": {"ios": "https://dc.lft.to/lastmile_qr_scan", "android": "https://dc.lft.to/lastmile_qr_scan"}, "bike_id": "f9d34d8cd163a536a12c19b51417e09c", "lat": 38.893794166666666, "name": "f9d34d8cd163a536a12c19b51417e09c", "lon": -77.02059983333334, "fusion_lon": 0.0}, {"is_reserved": 0, "type": "electric_scooter", "fusion_lat": 0.0, "is_disabled": 0, "rental_uris": {"ios": "https://dc.lft.to/lastmile_qr_scan", "android": "https://dc.lft.to/lastmile_qr_scan"}, "bike_id": "63ddfda788fdbe1632e01b22505d2868", "lat": 38.929146833333334, "name": "63ddfda788fdbe1632e01b22505d2868", "lon": -77.02093016666667, "fusion_lon": 0.0}, {"is_reserved": 0, "type": "electric_scooter", "fusion_lat": 0.0, "is_disabled": 0, "rental_uris": {"ios": "https://dc.lft.to/lastmile_qr_scan", "android": "https://dc.lft.to/lastmile_qr_scan"}, "bike_id": "eedfc3044a5eec28f38ba5a0dc8ec915", "lat": 38.85564566666667, "name": "eedfc3044a5eec28f38ba5a0dc8ec915", "lon": -76.99075516666667, "fusion_lon": 0.0}, {"is_reserved": 0, "type": "electric_scooter", "fusion_lat": 0.0, "is_disabled": 0, "rental_uris": {"ios": "https://dc.lft.to/lastmile_qr_scan", "android": "https://dc.lft.to/lastmile_qr_scan"}, "bike_id": "0609c556458add8edfdb79dc5c78bf77", "lat": 38.931116333333335, "name": "0609c556458add8edfdb79dc5c78bf77", "lon": -77.0210465, "fusion_lon": 0.0}, {"is_reserved": 0, "type": "electric_scooter", "fusion_lat": 0.0, "is_disabled": 0, "rental_uris": {"ios": "https://dc.lft.to/lastmile_qr_scan", "android": "https://dc.lft.to/lastmile_qr_scan"}, "bike_id": "f7e08c3361ed7ca877a25a16dccee7c4", "lat": 38.917966166666666, "name": "f7e08c3361ed7ca877a25a16dccee7c4", "lon": -77.0231755, "fusion_lon": 0.0}, {"is_reserved": 0, "type": "electric_scooter", "fusion_lat": 0.0, "is_disabled": 0, "rental_uris": {"ios": "https://dc.lft.to/lastmile_qr_scan", "android": "https://dc.lft.to/lastmile_qr_scan"}, "bike_id": "39c97cc92b62176627dcde24c699255a", "lat": 38.90366566666667, "name": "39c97cc92b62176627dcde24c699255a", "lon": -77.02595966666667, "fusion_lon": 0.0}, {"is_reserved": 0, "type": "electric_scooter", "fusion_lat": 0.0, "is_disabled": 0, "rental_uris": {"ios": "https://dc.lft.to/lastmile_qr_scan", "android": "https://dc.lft.to/lastmile_qr_scan"}, "bike_id": "b4313698dba0115702c94807793cc379", "lat": 38.936061333333335, "name": "b4313698dba0115702c94807793cc379", "lon": -77.02418566666667, "fusion_lon": 0.0}, {"is_reserved": 0, "type": "electric_scooter", "fusion_lat": 0.0, "is_disabled": 0, "rental_uris": {"ios": "https://dc.lft.to/lastmile_qr_scan", "android": "https://dc.lft.to/lastmile_qr_scan"}, "bike_id": "c4101669bf85eefde13608e8708eead7", "lat": 38.882421666666666, "name": "c4101669bf85eefde13608e8708eead7", "lon": -76.93347533333333, "fusion_lon": 0.0}, {"is_reserved": 0, "type": "electric_scooter", "fusion_lat": 0.0, "is_disabled": 0, "rental_uris": {"ios": "https://dc.lft.to/lastmile_qr_scan", "android": "https://dc.lft.to/lastmile_qr_scan"}, "bike_id": "8c69507fea6c57ff10163bcd064359bf", "lat": 38.9090505, "name": "8c69507fea6c57ff10163bcd064359bf", "lon": -76.991252, "fusion_lon": 0.0}, {"is_reserved": 0, "type": "electric_scooter", "fusion_lat": 0.0, "is_disabled": 0, "rental_uris": {"ios": "https://dc.lft.to/lastmile_qr_scan", "android": "https://dc.lft.to/lastmile_qr_scan"}, "bike_id": "bd13836c81b2e50b0fb5ce67c2bf142d", "lat": 38.874846, "name": "bd13836c81b2e50b0fb5ce67c2bf142d", "lon": -76.99173583333334, "fusion_lon": 0.0}, {"is_reserved": 0, "type": "electric_scooter", "fusion_lat": 0.0, "is_disabled": 0, "rental_uris": {"ios": "https://dc.lft.to/lastmile_qr_scan", "android": "https://dc.lft.to/lastmile_qr_scan"}, "bike_id": "d9ca98697a2da69a0597dfb75308949f", "lat": 38.917785, "name": "d9ca98697a2da69a0597dfb75308949f", "lon": -77.02311916666666, "fusion_lon": 0.0}, {"is_reserved": 0, "type": "electric_bike", "fusion_lat": 0.0, "is_disabled": 0, "rental_uris": {"ios": "https://dc.lft.to/lastmile_qr_scan", "android": "https://dc.lft.to/lastmile_qr_scan"}, "bike_id": "94beee1930b3ed1f495cfb9d6744cd3d", "lat": 38.804007, "name": "94beee1930b3ed1f495cfb9d6744cd3d", "lon": -77.11330683333334, "fusion_lon": 0.0}, {"is_reserved": 0, "type": "electric_scooter", "fusion_lat": 0.0, "is_disabled": 0, "rental_uris": {"ios": "https://dc.lft.to/lastmile_qr_scan", "android": "https://dc.lft.to/lastmile_qr_scan"}, "bike_id": "29035bfface7bd4b20a4ddb03afdc730", "lat": 38.932696166666666, "name": "29035bfface7bd4b20a4ddb03afdc730", "lon": -77.020991, "fusion_lon": 0.0}, {"is_reserved": 0, "type": "electric_bike", "fusion_lat": 0.0, "is_disabled": 0, "rental_uris": {"ios": "https://dc.lft.to/lastmile_qr_scan", "android": "https://dc.lft.to/lastmile_qr_scan"}, "bike_id": "0ad385082f8cc274e1ffa427ce73b747", "lat": 38.85593316666667, "name": "0ad385082f8cc274e1ffa427ce73b747", "lon": -76.9728065, "fusion_lon": 0.0}, {"is_reserved": 0, "type": "electric_scooter", "fusion_lat": 0.0, "is_disabled": 0, "rental_uris": {"ios": "https://dc.lft.to/lastmile_qr_scan", "android": "https://dc.lft.to/lastmile_qr_scan"}, "bike_id": "e7ff90f01b525c1e41359f3b3486be3f", "lat": 38.90598, "name": "e7ff90f01b525c1e41359f3b3486be3f", "lon": -77.06664216666667, "fusion_lon": 0.0}, {"is_reserved": 0, "type": "electric_bike", "fusion_lat": 0.0, "is_disabled": 0, "rental_uris": {"ios": "https://dc.lft.to/lastmile_qr_scan", "android": "https://dc.lft.to/lastmile_qr_scan"}, "bike_id": "db5585f013c1dd96c0a8a7ec0fecd675", "lat": 38.919047166666665, "name": "db5585f013c1dd96c0a8a7ec0fecd675", "lon": -77.00067583333333, "fusion_lon": 0.0}, {"is_reserved": 0, "type": "electric_scooter", "fusion_lat": 0.0, "is_disabled": 0, "rental_uris": {"ios": "https://dc.lft.to/lastmile_qr_scan", "android": "https://dc.lft.to/lastmile_qr_scan"}, "bike_id": "a23ccf7e151030ecbc7b77e0b787899b", "lat": 38.92647483333333, "name": "a23ccf7e151030ecbc7b77e0b787899b", "lon": -77.03852116666667, "fusion_lon": 0.0}, {"is_reserved": 0, "type": "electric_scooter", "fusion_lat": 0.0, "is_disabled": 0, "rental_uris": {"ios": "https://dc.lft.to/lastmile_qr_scan", "android": "https://dc.lft.to/lastmile_qr_scan"}, "bike_id": "3d380883a7e66b7e032b1c2e00a0caa6", "lat": 38.898262333333335, "name": "3d380883a7e66b7e032b1c2e00a0caa6", "lon": -77.03913533333333, "fusion_lon": 0.0}, {"is_reserved": 0, "type": "electric_scooter", "fusion_lat": 0.0, "is_disabled": 0, "rental_uris": {"ios": "https://dc.lft.to/lastmile_qr_scan", "android": "https://dc.lft.to/lastmile_qr_scan"}, "bike_id": "8d7e02f2a3b87a2f5bc731427faac3fd", "lat": 38.904108666666666, "name": "8d7e02f2a3b87a2f5bc731427faac3fd", "lon": -76.97333866666666, "fusion_lon": 0.0}, {"is_reserved": 0, "type": "electric_scooter", "fusion_lat": 0.0, "is_disabled": 0, "rental_uris": {"ios": "https://dc.lft.to/lastmile_qr_scan", "android": "https://dc.lft.to/lastmile_qr_scan"}, "bike_id": "abfbc968b5321bc1e027b32f66daf1b4", "lat": 38.946437, "name": "abfbc968b5321bc1e027b32f66daf1b4", "lon": -77.01748783333333, "fusion_lon": 0.0}, {"is_reserved": 0, "type": "electric_scooter", "fusion_lat": 0.0, "is_disabled": 0, "rental_uris": {"ios": "https://dc.lft.to/lastmile_qr_scan", "android": "https://dc.lft.to/lastmile_qr_scan"}, "bike_id": "b450a80057d6852f196f4402266c1ebe", "lat": 38.907289666666664, "name": "b450a80057d6852f196f4402266c1ebe", "lon": -77.0385565, "fusion_lon": 0.0}, {"is_reserved": 0, "type": "electric_scooter", "fusion_lat": 0.0, "is_disabled": 0, "rental_uris": {"ios": "https://dc.lft.to/lastmile_qr_scan", "android": "https://dc.lft.to/lastmile_qr_scan"}, "bike_id": "74cbdb904de62ebc948ccab7c4f23135", "lat": 38.90539166666667, "name": "74cbdb904de62ebc948ccab7c4f23135", "lon": -77.05805483333333, "fusion_lon": 0.0}, {"is_reserved": 0, "type": "electric_scooter", "fusion_lat": 0.0, "is_disabled": 0, "rental_uris": {"ios": "https://dc.lft.to/lastmile_qr_scan", "android": "https://dc.lft.to/lastmile_qr_scan"}, "bike_id": "103c643e95c86046784e140f39a9b857", "lat": 38.942075833333334, "name": "103c643e95c86046784e140f39a9b857", "lon": -77.01333516666666, "fusion_lon": 0.0}, {"is_reserved": 0, "type": "electric_scooter", "fusion_lat": 0.0, "is_disabled": 0, "rental_uris": {"ios": "https://dc.lft.to/lastmile_qr_scan", "android": "https://dc.lft.to/lastmile_qr_scan"}, "bike_id": "f96445c6958c4319d6c26c23c3ca8e31", "lat": 38.927166666666665, "name": "f96445c6958c4319d6c26c23c3ca8e31", "lon": -77.020755, "fusion_lon": 0.0}, {"is_reserved": 0, "type": "electric_scooter", "fusion_lat": 0.0, "is_disabled": 0, "rental_uris": {"ios": "https://dc.lft.to/lastmile_qr_scan", "android": "https://dc.lft.to/lastmile_qr_scan"}, "bike_id": "6c0e99da24bd563fe34da57604435c2c", "lat": 38.942725333333335, "name": "6c0e99da24bd563fe34da57604435c2c", "lon": -77.02929016666667, "fusion_lon": 0.0}, {"is_reserved": 0, "type": "electric_scooter", "fusion_lat": 0.0, "is_disabled": 0, "rental_uris": {"ios": "https://dc.lft.to/lastmile_qr_scan", "android": "https://dc.lft.to/lastmile_qr_scan"}, "bike_id": "c8a642202fdefb3b94eea273ecb563cf", "lat": 38.899558, "name": "c8a642202fdefb3b94eea273ecb563cf", "lon": -77.04820866666667, "fusion_lon": 0.0}, {"is_reserved": 0, "type": "electric_scooter", "fusion_lat": 0.0, "is_disabled": 0, "rental_uris": {"ios": "https://dc.lft.to/lastmile_qr_scan", "android": "https://dc.lft.to/lastmile_qr_scan"}, "bike_id": "f07a51f5cfd005076430e4aeeea67059", "lat": 38.8931565, "name": "f07a51f5cfd005076430e4aeeea67059", "lon": -77.01961, "fusion_lon": 0.0}, {"is_reserved": 0, "type": "electric_scooter", "fusion_lat": 0.0, "is_disabled": 0, "rental_uris": {"ios": "https://dc.lft.to/lastmile_qr_scan", "android": "https://dc.lft.to/lastmile_qr_scan"}, "bike_id": "5ce6393b0b69665830385e18d9e4f996", "lat": 38.898138833333334, "name": "5ce6393b0b69665830385e18d9e4f996", "lon": -77.04654833333333, "fusion_lon": 0.0}, {"is_reserved": 0, "type": "electric_scooter", "fusion_lat": 0.0, "is_disabled": 0, "rental_uris": {"ios": "https://dc.lft.to/lastmile_qr_scan", "android": "https://dc.lft.to/lastmile_qr_scan"}, "bike_id": "5c7c121c9088366670c1090160d8eeab", "lat": 38.90962116666667, "name": "5c7c121c9088366670c1090160d8eeab", "lon": -77.02386133333333, "fusion_lon": 0.0}, {"is_reserved": 0, "type": "electric_scooter", "fusion_lat": 0.0, "is_disabled": 0, "rental_uris": {"ios": "https://dc.lft.to/lastmile_qr_scan", "android": "https://dc.lft.to/lastmile_qr_scan"}, "bike_id": "d5c5529f67b08c8fc57f93fa3a86934d", "lat": 38.935253333333335, "name": "d5c5529f67b08c8fc57f93fa3a86934d", "lon": -77.05453266666666, "fusion_lon": 0.0}, {"is_reserved": 0, "type": "electric_scooter", "fusion_lat": 0.0, "is_disabled": 0, "rental_uris": {"ios": "https://dc.lft.to/lastmile_qr_scan", "android": "https://dc.lft.to/lastmile_qr_scan"}, "bike_id": "fe51b4027b24d04e92aef47155c7550f", "lat": 38.870732333333336, "name": "fe51b4027b24d04e92aef47155c7550f", "lon": -76.981298, "fusion_lon": 0.0}, {"is_reserved": 0, "type": "electric_scooter", "fusion_lat": 0.0, "is_disabled": 0, "rental_uris": {"ios": "https://dc.lft.to/lastmile_qr_scan", "android": "https://dc.lft.to/lastmile_qr_scan"}, "bike_id": "4af2c4e7e5db6d6fa8bf00c2983f7337", "lat": 38.922458666666664, "name": "4af2c4e7e5db6d6fa8bf00c2983f7337", "lon": -77.02815233333334, "fusion_lon": 0.0}, {"is_reserved": 0, "type": "electric_scooter", "fusion_lat": 0.0, "is_disabled": 0, "rental_uris": {"ios": "https://dc.lft.to/lastmile_qr_scan", "android": "https://dc.lft.to/lastmile_qr_scan"}, "bike_id": "3fee03cddb170955b3ac1c2bad9855e5", "lat": 38.9039995, "name": "3fee03cddb170955b3ac1c2bad9855e5", "lon": -77.01997783333333, "fusion_lon": 0.0}, {"is_reserved": 0, "type": "electric_scooter", "fusion_lat": 0.0, "is_disabled": 0, "rental_uris": {"ios": "https://dc.lft.to/lastmile_qr_scan", "android": "https://dc.lft.to/lastmile_qr_scan"}, "bike_id": "8256374e5fc7568e71f2a9a91efb759a", "lat": 38.9075375, "name": "8256374e5fc7568e71f2a9a91efb759a", "lon": -76.99916983333334, "fusion_lon": 0.0}, {"is_reserved": 0, "type": "electric_scooter", "fusion_lat": 0.0, "is_disabled": 0, "rental_uris": {"ios": "https://dc.lft.to/lastmile_qr_scan", "android": "https://dc.lft.to/lastmile_qr_scan"}, "bike_id": "1708952e9c57db3c676411d623e4f345", "lat": 38.92034016666667, "name": "1708952e9c57db3c676411d623e4f345", "lon": -77.04181916666667, "fusion_lon": 0.0}, {"is_reserved": 0, "type": "electric_scooter", "fusion_lat": 0.0, "is_disabled": 0, "rental_uris": {"ios": "https://dc.lft.to/lastmile_qr_scan", "android": "https://dc.lft.to/lastmile_qr_scan"}, "bike_id": "b60ab2a77f5e16e1242e6bc534daf84b", "lat": 38.91976866666667, "name": "b60ab2a77f5e16e1242e6bc534daf84b", "lon": -77.071154, "fusion_lon": 0.0}, {"is_reserved": 0, "type": "electric_scooter", "fusion_lat": 0.0, "is_disabled": 0, "rental_uris": {"ios": "https://dc.lft.to/lastmile_qr_scan", "android": "https://dc.lft.to/lastmile_qr_scan"}, "bike_id": "beaeb3021cc4e337114ced0f953d4ba5", "lat": 38.912645, "name": "beaeb3021cc4e337114ced0f953d4ba5", "lon": -77.03878833333333, "fusion_lon": 0.0}, {"is_reserved": 0, "type": "electric_scooter", "fusion_lat": 0.0, "is_disabled": 0, "rental_uris": {"ios": "https://dc.lft.to/lastmile_qr_scan", "android": "https://dc.lft.to/lastmile_qr_scan"}, "bike_id": "aa8b594ab7b315cb50d9bdd7d09f4d56", "lat": 38.928271333333335, "name": "aa8b594ab7b315cb50d9bdd7d09f4d56", "lon": -77.02167516666667, "fusion_lon": 0.0}, {"is_reserved": 0, "type": "electric_scooter", "fusion_lat": 0.0, "is_disabled": 0, "rental_uris": {"ios": "https://dc.lft.to/lastmile_qr_scan", "android": "https://dc.lft.to/lastmile_qr_scan"}, "bike_id": "99d35b053e541eb7799260ac7194f7eb", "lat": 38.91955383333333, "name": "99d35b053e541eb7799260ac7194f7eb", "lon": -77.0235865, "fusion_lon": 0.0}, {"is_reserved": 0, "type": "electric_scooter", "fusion_lat": 0.0, "is_disabled": 0, "rental_uris": {"ios": "https://dc.lft.to/lastmile_qr_scan", "android": "https://dc.lft.to/lastmile_qr_scan"}, "bike_id": "1bf1bc328c8d8aa718fce9374ad020f7", "lat": 38.9307985, "name": "1bf1bc328c8d8aa718fce9374ad020f7", "lon": -77.0320935, "fusion_lon": 0.0}, {"is_reserved": 0, "type": "electric_scooter", "fusion_lat": 0.0, "is_disabled": 0, "rental_uris": {"ios": "https://dc.lft.to/lastmile_qr_scan", "android": "https://dc.lft.to/lastmile_qr_scan"}, "bike_id": "0d75b2a1864e28264e3dcaea2003ff64", "lat": 38.939905833333334, "name": "0d75b2a1864e28264e3dcaea2003ff64", "lon": -77.02900583333333, "fusion_lon": 0.0}, {"is_reserved": 0, "type": "electric_scooter", "fusion_lat": 0.0, "is_disabled": 0, "rental_uris": {"ios": "https://dc.lft.to/lastmile_qr_scan", "android": "https://dc.lft.to/lastmile_qr_scan"}, "bike_id": "1713a8021dc1ed01ebf44c95c1952bd0", "lat": 38.89484316666667, "name": "1713a8021dc1ed01ebf44c95c1952bd0", "lon": -77.02740683333333, "fusion_lon": 0.0}, {"is_reserved": 0, "type": "electric_bike", "fusion_lat": 0.0, "is_disabled": 0, "rental_uris": {"ios": "https://dc.lft.to/lastmile_qr_scan", "android": "https://dc.lft.to/lastmile_qr_scan"}, "bike_id": "8a1d0a2f9269fe71c1ec43f4e18da27e", "lat": 38.882855, "name": "8a1d0a2f9269fe71c1ec43f4e18da27e", "lon": -76.93238083333334, "fusion_lon": 0.0}, {"is_reserved": 0, "type": "electric_scooter", "fusion_lat": 0.0, "is_disabled": 0, "rental_uris": {"ios": "https://dc.lft.to/lastmile_qr_scan", "android": "https://dc.lft.to/lastmile_qr_scan"}, "bike_id": "e59450355fd213a37eab330a8337a00f", "lat": 38.8922475, "name": "e59450355fd213a37eab330a8337a00f", "lon": -77.04487166666667, "fusion_lon": 0.0}, {"is_reserved": 0, "type": "electric_scooter", "fusion_lat": 0.0, "is_disabled": 0, "rental_uris": {"ios": "https://dc.lft.to/lastmile_qr_scan", "android": "https://dc.lft.to/lastmile_qr_scan"}, "bike_id": "a3c4e6e0e34e2cb2bb9ed9df4a1375ec", "lat": 38.912515166666665, "name": "a3c4e6e0e34e2cb2bb9ed9df4a1375ec", "lon": -76.98675416666667, "fusion_lon": 0.0}, {"is_reserved": 0, "type": "electric_scooter", "fusion_lat": 0.0, "is_disabled": 0, "rental_uris": {"ios": "https://dc.lft.to/lastmile_qr_scan", "android": "https://dc.lft.to/lastmile_qr_scan"}, "bike_id": "1f11665a60ad63b4a709101083973314", "lat": 38.897653166666665, "name": "1f11665a60ad63b4a709101083973314", "lon": -77.04785966666667, "fusion_lon": 0.0}, {"is_reserved": 0, "type": "electric_scooter", "fusion_lat": 0.0, "is_disabled": 0, "rental_uris": {"ios": "https://dc.lft.to/lastmile_qr_scan", "android": "https://dc.lft.to/lastmile_qr_scan"}, "bike_id": "44aab794b8d125fab53cd71a22268f1b", "lat": 38.910786, "name": "44aab794b8d125fab53cd71a22268f1b", "lon": -77.0161905, "fusion_lon": 0.0}, {"is_reserved": 0, "type": "electric_scooter", "fusion_lat": 0.0, "is_disabled": 0, "rental_uris": {"ios": "https://dc.lft.to/lastmile_qr_scan", "android": "https://dc.lft.to/lastmile_qr_scan"}, "bike_id": "3da20cdd35715ced099a3ceaf45eb48e", "lat": 38.9217745, "name": "3da20cdd35715ced099a3ceaf45eb48e", "lon": -77.0459625, "fusion_lon": 0.0}, {"is_reserved": 0, "type": "electric_scooter", "fusion_lat": 0.0, "is_disabled": 0, "rental_uris": {"ios": "https://dc.lft.to/lastmile_qr_scan", "android": "https://dc.lft.to/lastmile_qr_scan"}, "bike_id": "b45fe763f3dde85a3af7b44fecab9a00", "lat": 38.93178, "name": "b45fe763f3dde85a3af7b44fecab9a00", "lon": -77.03151033333333, "fusion_lon": 0.0}, {"is_reserved": 0, "type": "electric_bike", "fusion_lat": 0.0, "is_disabled": 0, "rental_uris": {"ios": "https://dc.lft.to/lastmile_qr_scan", "android": "https://dc.lft.to/lastmile_qr_scan"}, "bike_id": "87c86342fe8e364395d8ef27b0c63ad9", "lat": 38.86552483333333, "name": "87c86342fe8e364395d8ef27b0c63ad9", "lon": -76.94153133333333, "fusion_lon": 0.0}, {"is_reserved": 0, "type": "electric_scooter", "fusion_lat": 0.0, "is_disabled": 0, "rental_uris": {"ios": "https://dc.lft.to/lastmile_qr_scan", "android": "https://dc.lft.to/lastmile_qr_scan"}, "bike_id": "2cc82f8b314ea34319259aaa0a68de98", "lat": 38.90144566666667, "name": "2cc82f8b314ea34319259aaa0a68de98", "lon": -76.93163716666666, "fusion_lon": 0.0}, {"is_reserved": 0, "type": "electric_scooter", "fusion_lat": 0.0, "is_disabled": 0, "rental_uris": {"ios": "https://dc.lft.to/lastmile_qr_scan", "android": "https://dc.lft.to/lastmile_qr_scan"}, "bike_id": "462c40a9feb310745dfc29269af33c89", "lat": 38.9216505, "name": "462c40a9feb310745dfc29269af33c89", "lon": -77.03822633333333, "fusion_lon": 0.0}, {"is_reserved": 0, "type": "electric_bike", "fusion_lat": 0.0, "is_disabled": 0, "rental_uris": {"ios": "https://dc.lft.to/lastmile_qr_scan", "android": "https://dc.lft.to/lastmile_qr_scan"}, "bike_id": "3e9c80ffd76ba7e15fd1f99f9a55e3fa", "lat": 38.81330066666666, "name": "3e9c80ffd76ba7e15fd1f99f9a55e3fa", "lon": -77.05083666666667, "fusion_lon": 0.0}, {"is_reserved": 0, "type": "electric_scooter", "fusion_lat": 0.0, "is_disabled": 0, "rental_uris": {"ios": "https://dc.lft.to/lastmile_qr_scan", "android": "https://dc.lft.to/lastmile_qr_scan"}, "bike_id": "50fe2cd0e1f5603a661b6f1d23295b75", "lat": 38.901060333333334, "name": "50fe2cd0e1f5603a661b6f1d23295b75", "lon": -77.01819233333333, "fusion_lon": 0.0}, {"is_reserved": 0, "type": "electric_scooter", "fusion_lat": 0.0, "is_disabled": 0, "rental_uris": {"ios": "https://dc.lft.to/lastmile_qr_scan", "android": "https://dc.lft.to/lastmile_qr_scan"}, "bike_id": "0127e0fb746e440a5c3041c653c9445c", "lat": 38.892202166666664, "name": "0127e0fb746e440a5c3041c653c9445c", "lon": -77.046401, "fusion_lon": 0.0}, {"is_reserved": 0, "type": "electric_scooter", "fusion_lat": 0.0, "is_disabled": 0, "rental_uris": {"ios": "https://dc.lft.to/lastmile_qr_scan", "android": "https://dc.lft.to/lastmile_qr_scan"}, "bike_id": "02a8851f1b10fe5b7a231f143d8e4803", "lat": 38.966195666666664, "name": "02a8851f1b10fe5b7a231f143d8e4803", "lon": -77.020029, "fusion_lon": 0.0}, {"is_reserved": 0, "type": "electric_scooter", "fusion_lat": 0.0, "is_disabled": 0, "rental_uris": {"ios": "https://dc.lft.to/lastmile_qr_scan", "android": "https://dc.lft.to/lastmile_qr_scan"}, "bike_id": "db92dfda855bab8ec548482f666ca0c3", "lat": 38.9173485, "name": "db92dfda855bab8ec548482f666ca0c3", "lon": -77.0360995, "fusion_lon": 0.0}, {"is_reserved": 0, "type": "electric_bike", "fusion_lat": 0.0, "is_disabled": 0, "rental_uris": {"ios": "https://dc.lft.to/lastmile_qr_scan", "android": "https://dc.lft.to/lastmile_qr_scan"}, "bike_id": "e48deffc657cdecb4fe7715721d8cbd8", "lat": 38.90688266666667, "name": "e48deffc657cdecb4fe7715721d8cbd8", "lon": -76.95255566666667, "fusion_lon": 0.0}, {"is_reserved": 0, "type": "electric_scooter", "fusion_lat": 0.0, "is_disabled": 0, "rental_uris": {"ios": "https://dc.lft.to/lastmile_qr_scan", "android": "https://dc.lft.to/lastmile_qr_scan"}, "bike_id": "b09ea63261c554e0c45ae8e7dbc6e4f9", "lat": 38.93532233333333, "name": "b09ea63261c554e0c45ae8e7dbc6e4f9", "lon": -77.0235185, "fusion_lon": 0.0}, {"is_reserved": 0, "type": "electric_scooter", "fusion_lat": 0.0, "is_disabled": 0, "rental_uris": {"ios": "https://dc.lft.to/lastmile_qr_scan", "android": "https://dc.lft.to/lastmile_qr_scan"}, "bike_id": "94f08f458693d36024c70d1b5f579622", "lat": 38.89195466666666, "name": "94f08f458693d36024c70d1b5f579622", "lon": -77.0222245, "fusion_lon": 0.0}, {"is_reserved": 0, "type": "electric_scooter", "fusion_lat": 0.0, "is_disabled": 0, "rental_uris": {"ios": "https://dc.lft.to/lastmile_qr_scan", "android": "https://dc.lft.to/lastmile_qr_scan"}, "bike_id": "1d2527f47c0a4e61077fa78397851b3b", "lat": 38.89975116666667, "name": "1d2527f47c0a4e61077fa78397851b3b", "lon": -76.93765566666667, "fusion_lon": 0.0}, {"is_reserved": 0, "type": "electric_scooter", "fusion_lat": 0.0, "is_disabled": 0, "rental_uris": {"ios": "https://dc.lft.to/lastmile_qr_scan", "android": "https://dc.lft.to/lastmile_qr_scan"}, "bike_id": "518f1dca4ee5781792f6bb0a0be3d3fe", "lat": 38.905243666666664, "name": "518f1dca4ee5781792f6bb0a0be3d3fe", "lon": -77.06778783333333, "fusion_lon": 0.0}, {"is_reserved": 0, "type": "electric_scooter", "fusion_lat": 0.0, "is_disabled": 0, "rental_uris": {"ios": "https://dc.lft.to/lastmile_qr_scan", "android": "https://dc.lft.to/lastmile_qr_scan"}, "bike_id": "023754f1968c7f0ed0c641f1af706c56", "lat": 38.915943166666665, "name": "023754f1968c7f0ed0c641f1af706c56", "lon": -77.0317495, "fusion_lon": 0.0}, {"is_reserved": 0, "type": "electric_scooter", "fusion_lat": 0.0, "is_disabled": 0, "rental_uris": {"ios": "https://dc.lft.to/lastmile_qr_scan", "android": "https://dc.lft.to/lastmile_qr_scan"}, "bike_id": "8495b55d15d35fa8f9e736d966239d3d", "lat": 38.917145833333336, "name": "8495b55d15d35fa8f9e736d966239d3d", "lon": -77.03860583333334, "fusion_lon": 0.0}, {"is_reserved": 0, "type": "electric_scooter", "fusion_lat": 0.0, "is_disabled": 0, "rental_uris": {"ios": "https://dc.lft.to/lastmile_qr_scan", "android": "https://dc.lft.to/lastmile_qr_scan"}, "bike_id": "cccb1715252ce67ebe27c5aca5c52776", "lat": 38.8864015, "name": "cccb1715252ce67ebe27c5aca5c52776", "lon": -77.01228216666667, "fusion_lon": 0.0}, {"is_reserved": 0, "type": "electric_scooter", "fusion_lat": 0.0, "is_disabled": 0, "rental_uris": {"ios": "https://dc.lft.to/lastmile_qr_scan", "android": "https://dc.lft.to/lastmile_qr_scan"}, "bike_id": "540d0357cad005e22bae8eb34739ca5d", "lat": 38.89831916666667, "name": "540d0357cad005e22bae8eb34739ca5d", "lon": -77.028583, "fusion_lon": 0.0}, {"is_reserved": 0, "type": "electric_scooter", "fusion_lat": 0.0, "is_disabled": 0, "rental_uris": {"ios": "https://dc.lft.to/lastmile_qr_scan", "android": "https://dc.lft.to/lastmile_qr_scan"}, "bike_id": "067b59baf379d2b92f9537d290314e94", "lat": 38.899548333333335, "name": "067b59baf379d2b92f9537d290314e94", "lon": -77.04719666666666, "fusion_lon": 0.0}, {"is_reserved": 0, "type": "electric_scooter", "fusion_lat": 0.0, "is_disabled": 0, "rental_uris": {"ios": "https://dc.lft.to/lastmile_qr_scan", "android": "https://dc.lft.to/lastmile_qr_scan"}, "bike_id": "4d8c675316d711da3b5c7882ee61cdbb", "lat": 38.883167666666665, "name": "4d8c675316d711da3b5c7882ee61cdbb", "lon": -76.93152716666667, "fusion_lon": 0.0}, {"is_reserved": 0, "type": "electric_bike", "fusion_lat": 0.0, "is_disabled": 0, "rental_uris": {"ios": "https://dc.lft.to/lastmile_qr_scan", "android": "https://dc.lft.to/lastmile_qr_scan"}, "bike_id": "9f6baf230da956e469a00d46fb44ae19", "lat": 38.83034833333333, "name": "9f6baf230da956e469a00d46fb44ae19", "lon": -77.008312, "fusion_lon": 0.0}, {"is_reserved": 0, "type": "electric_scooter", "fusion_lat": 0.0, "is_disabled": 0, "rental_uris": {"ios": "https://dc.lft.to/lastmile_qr_scan", "android": "https://dc.lft.to/lastmile_qr_scan"}, "bike_id": "7275638b1c3df8f1dd8d07dcf655840e", "lat": 38.90343683333333, "name": "7275638b1c3df8f1dd8d07dcf655840e", "lon": -77.01102633333333, "fusion_lon": 0.0}, {"is_reserved": 0, "type": "electric_bike", "fusion_lat": 0.0, "is_disabled": 0, "rental_uris": {"ios": "https://dc.lft.to/lastmile_qr_scan", "android": "https://dc.lft.to/lastmile_qr_scan"}, "bike_id": "2e11fbed456c4ef4421cab2f11ea8f81", "lat": 38.846357833333336, "name": "2e11fbed456c4ef4421cab2f11ea8f81", "lon": -77.06935983333334, "fusion_lon": 0.0}, {"is_reserved": 0, "type": "electric_bike", "fusion_lat": 0.0, "is_disabled": 0, "rental_uris": {"ios": "https://dc.lft.to/lastmile_qr_scan", "android": "https://dc.lft.to/lastmile_qr_scan"}, "bike_id": "e7964466b7a35ef4ade75742464b2bba", "lat": 38.843292, "name": "e7964466b7a35ef4ade75742464b2bba", "lon": -77.082896, "fusion_lon": 0.0}, {"is_reserved": 0, "type": "electric_scooter", "fusion_lat": 0.0, "is_disabled": 0, "rental_uris": {"ios": "https://dc.lft.to/lastmile_qr_scan", "android": "https://dc.lft.to/lastmile_qr_scan"}, "bike_id": "5959b6247fd43d1ce97f61e3f0168b75", "lat": 38.932682, "name": "5959b6247fd43d1ce97f61e3f0168b75", "lon": -77.03080766666666, "fusion_lon": 0.0}, {"is_reserved": 0, "type": "electric_scooter", "fusion_lat": 0.0, "is_disabled": 0, "rental_uris": {"ios": "https://dc.lft.to/lastmile_qr_scan", "android": "https://dc.lft.to/lastmile_qr_scan"}, "bike_id": "effb74f88dfcdb70660f61611456787a", "lat": 38.925496, "name": "effb74f88dfcdb70660f61611456787a", "lon": -77.00071916666667, "fusion_lon": 0.0}, {"is_reserved": 0, "type": "electric_scooter", "fusion_lat": 0.0, "is_disabled": 0, "rental_uris": {"ios": "https://dc.lft.to/lastmile_qr_scan", "android": "https://dc.lft.to/lastmile_qr_scan"}, "bike_id": "f9055414ea9b1242547b044869899b75", "lat": 38.90321516666667, "name": "f9055414ea9b1242547b044869899b75", "lon": -77.01098, "fusion_lon": 0.0}, {"is_reserved": 0, "type": "electric_scooter", "fusion_lat": 0.0, "is_disabled": 0, "rental_uris": {"ios": "https://dc.lft.to/lastmile_qr_scan", "android": "https://dc.lft.to/lastmile_qr_scan"}, "bike_id": "a9127450338c3d7e72c1c4e278b871bd", "lat": 38.92022266666667, "name": "a9127450338c3d7e72c1c4e278b871bd", "lon": -76.99569166666667, "fusion_lon": 0.0}, {"is_reserved": 0, "type": "electric_bike", "fusion_lat": 0.0, "is_disabled": 0, "rental_uris": {"ios": "https://dc.lft.to/lastmile_qr_scan", "android": "https://dc.lft.to/lastmile_qr_scan"}, "bike_id": "7811e7c89a7e01452aa3ddc7c7644c7b", "lat": 38.96430933333333, "name": "7811e7c89a7e01452aa3ddc7c7644c7b", "lon": -77.03193016666667, "fusion_lon": 0.0}, {"is_reserved": 0, "type": "electric_scooter", "fusion_lat": 0.0, "is_disabled": 0, "rental_uris": {"ios": "https://dc.lft.to/lastmile_qr_scan", "android": "https://dc.lft.to/lastmile_qr_scan"}, "bike_id": "5e8fd57f11afe85291c862af9ef67597", "lat": 38.92655766666667, "name": "5e8fd57f11afe85291c862af9ef67597", "lon": -77.02433683333334, "fusion_lon": 0.0}, {"is_reserved": 0, "type": "electric_scooter", "fusion_lat": 0.0, "is_disabled": 0, "rental_uris": {"ios": "https://dc.lft.to/lastmile_qr_scan", "android": "https://dc.lft.to/lastmile_qr_scan"}, "bike_id": "6301ef3be9531d83b769f2e46c4a51e5", "lat": 38.900179666666666, "name": "6301ef3be9531d83b769f2e46c4a51e5", "lon": -76.99849, "fusion_lon": 0.0}, {"is_reserved": 0, "type": "electric_scooter", "fusion_lat": 0.0, "is_disabled": 0, "rental_uris": {"ios": "https://dc.lft.to/lastmile_qr_scan", "android": "https://dc.lft.to/lastmile_qr_scan"}, "bike_id": "22d4c96029eb96b05cb027b6dca11276", "lat": 38.90240933333333, "name": "22d4c96029eb96b05cb027b6dca11276", "lon": -77.02711916666667, "fusion_lon": 0.0}, {"is_reserved": 0, "type": "electric_bike", "fusion_lat": 0.0, "is_disabled": 0, "rental_uris": {"ios": "https://dc.lft.to/lastmile_qr_scan", "android": "https://dc.lft.to/lastmile_qr_scan"}, "bike_id": "93242a25030ced3463a5c401fa209b4e", "lat": 38.92536583333333, "name": "93242a25030ced3463a5c401fa209b4e", "lon": -77.07333366666667, "fusion_lon": 0.0}, {"is_reserved": 0, "type": "electric_scooter", "fusion_lat": 0.0, "is_disabled": 0, "rental_uris": {"ios": "https://dc.lft.to/lastmile_qr_scan", "android": "https://dc.lft.to/lastmile_qr_scan"}, "bike_id": "6097eb74a1a28e1cbbb30dba9341a437", "lat": 38.9156275, "name": "6097eb74a1a28e1cbbb30dba9341a437", "lon": -77.03670283333334, "fusion_lon": 0.0}, {"is_reserved": 0, "type": "electric_scooter", "fusion_lat": 0.0, "is_disabled": 0, "rental_uris": {"ios": "https://dc.lft.to/lastmile_qr_scan", "android": "https://dc.lft.to/lastmile_qr_scan"}, "bike_id": "a083ebfb2337e962b8e785d3de3bd955", "lat": 38.936620166666664, "name": "a083ebfb2337e962b8e785d3de3bd955", "lon": -77.0660995, "fusion_lon": 0.0}, {"is_reserved": 0, "type": "electric_scooter", "fusion_lat": 0.0, "is_disabled": 0, "rental_uris": {"ios": "https://dc.lft.to/lastmile_qr_scan", "android": "https://dc.lft.to/lastmile_qr_scan"}, "bike_id": "2d399da6e299002d9fd6d83d8ecc0fd5", "lat": 38.91945366666667, "name": "2d399da6e299002d9fd6d83d8ecc0fd5", "lon": -77.01382983333333, "fusion_lon": 0.0}, {"is_reserved": 0, "type": "electric_scooter", "fusion_lat": 0.0, "is_disabled": 0, "rental_uris": {"ios": "https://dc.lft.to/lastmile_qr_scan", "android": "https://dc.lft.to/lastmile_qr_scan"}, "bike_id": "1ddbb56919a12a6b2fc23584b03bc58e", "lat": 38.910421666666664, "name": "1ddbb56919a12a6b2fc23584b03bc58e", "lon": -77.01026433333334, "fusion_lon": 0.0}, {"is_reserved": 0, "type": "electric_scooter", "fusion_lat": 0.0, "is_disabled": 0, "rental_uris": {"ios": "https://dc.lft.to/lastmile_qr_scan", "android": "https://dc.lft.to/lastmile_qr_scan"}, "bike_id": "50f1466e22c5c63d9c484307158ab5bb", "lat": 38.929022833333335, "name": "50f1466e22c5c63d9c484307158ab5bb", "lon": -77.02346683333333, "fusion_lon": 0.0}, {"is_reserved": 0, "type": "electric_scooter", "fusion_lat": 0.0, "is_disabled": 0, "rental_uris": {"ios": "https://dc.lft.to/lastmile_qr_scan", "android": "https://dc.lft.to/lastmile_qr_scan"}, "bike_id": "f3d105f41f4cadf2be441f29a23dc9d2", "lat": 38.91254983333333, "name": "f3d105f41f4cadf2be441f29a23dc9d2", "lon": -77.03399216666666, "fusion_lon": 0.0}, {"is_reserved": 0, "type": "electric_scooter", "fusion_lat": 0.0, "is_disabled": 0, "rental_uris": {"ios": "https://dc.lft.to/lastmile_qr_scan", "android": "https://dc.lft.to/lastmile_qr_scan"}, "bike_id": "96e81c9546cb6a4435c82a92cd68f88c", "lat": 38.91163183333333, "name": "96e81c9546cb6a4435c82a92cd68f88c", "lon": -77.04488683333334, "fusion_lon": 0.0}, {"is_reserved": 0, "type": "electric_scooter", "fusion_lat": 0.0, "is_disabled": 0, "rental_uris": {"ios": "https://dc.lft.to/lastmile_qr_scan", "android": "https://dc.lft.to/lastmile_qr_scan"}, "bike_id": "9b0844aee3baf9d35b9d9712bad67683", "lat": 38.900161833333335, "name": "9b0844aee3baf9d35b9d9712bad67683", "lon": -77.00392266666667, "fusion_lon": 0.0}, {"is_reserved": 0, "type": "electric_bike", "fusion_lat": 0.0, "is_disabled": 0, "rental_uris": {"ios": "https://dc.lft.to/lastmile_qr_scan", "android": "https://dc.lft.to/lastmile_qr_scan"}, "bike_id": "0ad704874ccc7810ac8be87146f7d006", "lat": 38.865649166666664, "name": "0ad704874ccc7810ac8be87146f7d006", "lon": -76.97479466666667, "fusion_lon": 0.0}, {"is_reserved": 0, "type": "electric_scooter", "fusion_lat": 0.0, "is_disabled": 0, "rental_uris": {"ios": "https://dc.lft.to/lastmile_qr_scan", "android": "https://dc.lft.to/lastmile_qr_scan"}, "bike_id": "e3d461eca46a528d2131e2562ddd8d50", "lat": 38.88580183333333, "name": "e3d461eca46a528d2131e2562ddd8d50", "lon": -77.01227733333333, "fusion_lon": 0.0}, {"is_reserved": 0, "type": "electric_bike", "fusion_lat": 0.0, "is_disabled": 0, "rental_uris": {"ios": "https://dc.lft.to/lastmile_qr_scan", "android": "https://dc.lft.to/lastmile_qr_scan"}, "bike_id": "ef749ddc57171b3953d72f92fe883e30", "lat": 38.82428066666667, "name": "ef749ddc57171b3953d72f92fe883e30", "lon": -77.12040733333333, "fusion_lon": 0.0}, {"is_reserved": 0, "type": "electric_scooter", "fusion_lat": 0.0, "is_disabled": 0, "rental_uris": {"ios": "https://dc.lft.to/lastmile_qr_scan", "android": "https://dc.lft.to/lastmile_qr_scan"}, "bike_id": "cd4a0e9b0f86ac1037e07a3105c117de", "lat": 38.9007105, "name": "cd4a0e9b0f86ac1037e07a3105c117de", "lon": -77.01324016666666, "fusion_lon": 0.0}, {"is_reserved": 0, "type": "electric_scooter", "fusion_lat": 0.0, "is_disabled": 0, "rental_uris": {"ios": "https://dc.lft.to/lastmile_qr_scan", "android": "https://dc.lft.to/lastmile_qr_scan"}, "bike_id": "d2a84ad3fd5d08f3516309b942528e63", "lat": 38.91256033333333, "name": "d2a84ad3fd5d08f3516309b942528e63", "lon": -77.045982, "fusion_lon": 0.0}, {"is_reserved": 0, "type": "electric_scooter", "fusion_lat": 0.0, "is_disabled": 0, "rental_uris": {"ios": "https://dc.lft.to/lastmile_qr_scan", "android": "https://dc.lft.to/lastmile_qr_scan"}, "bike_id": "7efe69867ec57a8a807fca1650d54a48", "lat": 38.91816083333333, "name": "7efe69867ec57a8a807fca1650d54a48", "lon": -77.02478166666667, "fusion_lon": 0.0}, {"is_reserved": 0, "type": "electric_scooter", "fusion_lat": 0.0, "is_disabled": 0, "rental_uris": {"ios": "https://dc.lft.to/lastmile_qr_scan", "android": "https://dc.lft.to/lastmile_qr_scan"}, "bike_id": "7553c104473343efba828e7430260e67", "lat": 38.9057055, "name": "7553c104473343efba828e7430260e67", "lon": -77.01723616666666, "fusion_lon": 0.0}, {"is_reserved": 0, "type": "electric_scooter", "fusion_lat": 0.0, "is_disabled": 0, "rental_uris": {"ios": "https://dc.lft.to/lastmile_qr_scan", "android": "https://dc.lft.to/lastmile_qr_scan"}, "bike_id": "68319a7a487dc7536199c7a75506ab5e", "lat": 38.912383, "name": "68319a7a487dc7536199c7a75506ab5e", "lon": -77.009204, "fusion_lon": 0.0}, {"is_reserved": 0, "type": "electric_scooter", "fusion_lat": 0.0, "is_disabled": 0, "rental_uris": {"ios": "https://dc.lft.to/lastmile_qr_scan", "android": "https://dc.lft.to/lastmile_qr_scan"}, "bike_id": "2a12ca10220af40cb1f95ae1dd167a7f", "lat": 38.902082666666665, "name": "2a12ca10220af40cb1f95ae1dd167a7f", "lon": -77.01600616666667, "fusion_lon": 0.0}, {"is_reserved": 0, "type": "electric_scooter", "fusion_lat": 0.0, "is_disabled": 0, "rental_uris": {"ios": "https://dc.lft.to/lastmile_qr_scan", "android": "https://dc.lft.to/lastmile_qr_scan"}, "bike_id": "38c1ed5e1d3024b3c056e4ac94fa05e6", "lat": 38.919885, "name": "38c1ed5e1d3024b3c056e4ac94fa05e6", "lon": -76.9730575, "fusion_lon": 0.0}, {"is_reserved": 0, "type": "electric_scooter", "fusion_lat": 0.0, "is_disabled": 0, "rental_uris": {"ios": "https://dc.lft.to/lastmile_qr_scan", "android": "https://dc.lft.to/lastmile_qr_scan"}, "bike_id": "3951a6c17ecbbde6b488450c3d96ee5e", "lat": 38.87638366666667, "name": "3951a6c17ecbbde6b488450c3d96ee5e", "lon": -77.00074033333334, "fusion_lon": 0.0}, {"is_reserved": 0, "type": "electric_bike", "fusion_lat": 0.0, "is_disabled": 0, "rental_uris": {"ios": "https://dc.lft.to/lastmile_qr_scan", "android": "https://dc.lft.to/lastmile_qr_scan"}, "bike_id": "3722a97d4c630e0be4a4332ad45b6d03", "lat": 38.8429605, "name": "3722a97d4c630e0be4a4332ad45b6d03", "lon": -76.98838366666666, "fusion_lon": 0.0}, {"is_reserved": 0, "type": "electric_scooter", "fusion_lat": 0.0, "is_disabled": 0, "rental_uris": {"ios": "https://dc.lft.to/lastmile_qr_scan", "android": "https://dc.lft.to/lastmile_qr_scan"}, "bike_id": "2f20114ea46b8fcf94d80f6852ec426e", "lat": 38.9161005, "name": "2f20114ea46b8fcf94d80f6852ec426e", "lon": -77.0319185, "fusion_lon": 0.0}, {"is_reserved": 0, "type": "electric_scooter", "fusion_lat": 0.0, "is_disabled": 0, "rental_uris": {"ios": "https://dc.lft.to/lastmile_qr_scan", "android": "https://dc.lft.to/lastmile_qr_scan"}, "bike_id": "5495d09508bee2315c22a61abf5a661a", "lat": 38.919133333333335, "name": "5495d09508bee2315c22a61abf5a661a", "lon": -77.03307183333334, "fusion_lon": 0.0}, {"is_reserved": 0, "type": "electric_scooter", "fusion_lat": 0.0, "is_disabled": 0, "rental_uris": {"ios": "https://dc.lft.to/lastmile_qr_scan", "android": "https://dc.lft.to/lastmile_qr_scan"}, "bike_id": "f94c5f8c7e62168744007e8cb5901d44", "lat": 38.945914, "name": "f94c5f8c7e62168744007e8cb5901d44", "lon": -77.0203535, "fusion_lon": 0.0}, {"is_reserved": 0, "type": "electric_scooter", "fusion_lat": 0.0, "is_disabled": 0, "rental_uris": {"ios": "https://dc.lft.to/lastmile_qr_scan", "android": "https://dc.lft.to/lastmile_qr_scan"}, "bike_id": "ce9d091f5b0f2d0df72f76c0ba8fb35b", "lat": 38.90946683333333, "name": "ce9d091f5b0f2d0df72f76c0ba8fb35b", "lon": -76.98539116666667, "fusion_lon": 0.0}, {"is_reserved": 0, "type": "electric_scooter", "fusion_lat": 0.0, "is_disabled": 0, "rental_uris": {"ios": "https://dc.lft.to/lastmile_qr_scan", "android": "https://dc.lft.to/lastmile_qr_scan"}, "bike_id": "edbce619bc427d35aa7802e499c3fd2a", "lat": 38.897711, "name": "edbce619bc427d35aa7802e499c3fd2a", "lon": -77.05128216666667, "fusion_lon": 0.0}, {"is_reserved": 0, "type": "electric_scooter", "fusion_lat": 0.0, "is_disabled": 0, "rental_uris": {"ios": "https://dc.lft.to/lastmile_qr_scan", "android": "https://dc.lft.to/lastmile_qr_scan"}, "bike_id": "dc1dabb10ffee8d74485edc568afdb5b", "lat": 38.902093666666666, "name": "dc1dabb10ffee8d74485edc568afdb5b", "lon": -76.98700116666667, "fusion_lon": 0.0}, {"is_reserved": 0, "type": "electric_scooter", "fusion_lat": 0.0, "is_disabled": 0, "rental_uris": {"ios": "https://dc.lft.to/lastmile_qr_scan", "android": "https://dc.lft.to/lastmile_qr_scan"}, "bike_id": "0721f4ad55cd220139f2e4d348dd8c62", "lat": 38.89194966666667, "name": "0721f4ad55cd220139f2e4d348dd8c62", "lon": -77.02221333333334, "fusion_lon": 0.0}, {"is_reserved": 0, "type": "electric_scooter", "fusion_lat": 0.0, "is_disabled": 0, "rental_uris": {"ios": "https://dc.lft.to/lastmile_qr_scan", "android": "https://dc.lft.to/lastmile_qr_scan"}, "bike_id": "1578956944495b5b717e4568b44c4628", "lat": 38.94841683333333, "name": "1578956944495b5b717e4568b44c4628", "lon": -77.02709483333334, "fusion_lon": 0.0}, {"is_reserved": 0, "type": "electric_scooter", "fusion_lat": 0.0, "is_disabled": 0, "rental_uris": {"ios": "https://dc.lft.to/lastmile_qr_scan", "android": "https://dc.lft.to/lastmile_qr_scan"}, "bike_id": "c53bf1276e577c4d15ba627a4f01144c", "lat": 38.9011365, "name": "c53bf1276e577c4d15ba627a4f01144c", "lon": -77.01610516666666, "fusion_lon": 0.0}, {"is_reserved": 0, "type": "electric_scooter", "fusion_lat": 0.0, "is_disabled": 0, "rental_uris": {"ios": "https://dc.lft.to/lastmile_qr_scan", "android": "https://dc.lft.to/lastmile_qr_scan"}, "bike_id": "8cf04d8840ba756026fb9f714ef406fa", "lat": 38.9163865, "name": "8cf04d8840ba756026fb9f714ef406fa", "lon": -77.04818166666666, "fusion_lon": 0.0}, {"is_reserved": 0, "type": "electric_scooter", "fusion_lat": 0.0, "is_disabled": 0, "rental_uris": {"ios": "https://dc.lft.to/lastmile_qr_scan", "android": "https://dc.lft.to/lastmile_qr_scan"}, "bike_id": "3157aafd79b2be05470117f872c518cf", "lat": 38.8823885, "name": "3157aafd79b2be05470117f872c518cf", "lon": -77.00633866666666, "fusion_lon": 0.0}, {"is_reserved": 0, "type": "electric_scooter", "fusion_lat": 0.0, "is_disabled": 0, "rental_uris": {"ios": "https://dc.lft.to/lastmile_qr_scan", "android": "https://dc.lft.to/lastmile_qr_scan"}, "bike_id": "bd4e720817b7f4639ea2e974205d31a0", "lat": 38.91925966666667, "name": "bd4e720817b7f4639ea2e974205d31a0", "lon": -77.00980316666667, "fusion_lon": 0.0}, {"is_reserved": 0, "type": "electric_scooter", "fusion_lat": 0.0, "is_disabled": 0, "rental_uris": {"ios": "https://dc.lft.to/lastmile_qr_scan", "android": "https://dc.lft.to/lastmile_qr_scan"}, "bike_id": "2c796fc134d1369965df65d268ba61e7", "lat": 38.904569333333335, "name": "2c796fc134d1369965df65d268ba61e7", "lon": -77.01891783333333, "fusion_lon": 0.0}, {"is_reserved": 0, "type": "electric_scooter", "fusion_lat": 0.0, "is_disabled": 0, "rental_uris": {"ios": "https://dc.lft.to/lastmile_qr_scan", "android": "https://dc.lft.to/lastmile_qr_scan"}, "bike_id": "60fc55289614613f8174663fed0f7aa1", "lat": 38.902929, "name": "60fc55289614613f8174663fed0f7aa1", "lon": -77.0211445, "fusion_lon": 0.0}, {"is_reserved": 0, "type": "electric_scooter", "fusion_lat": 0.0, "is_disabled": 0, "rental_uris": {"ios": "https://dc.lft.to/lastmile_qr_scan", "android": "https://dc.lft.to/lastmile_qr_scan"}, "bike_id": "e84f9bdef776bbc1c9ecb3666115f22f", "lat": 38.943157666666664, "name": "e84f9bdef776bbc1c9ecb3666115f22f", "lon": -77.01729683333333, "fusion_lon": 0.0}, {"is_reserved": 0, "type": "electric_scooter", "fusion_lat": 0.0, "is_disabled": 0, "rental_uris": {"ios": "https://dc.lft.to/lastmile_qr_scan", "android": "https://dc.lft.to/lastmile_qr_scan"}, "bike_id": "b9397fabbc85e347ec8414917218c06e", "lat": 38.92828766666667, "name": "b9397fabbc85e347ec8414917218c06e", "lon": -77.0225745, "fusion_lon": 0.0}, {"is_reserved": 0, "type": "electric_scooter", "fusion_lat": 0.0, "is_disabled": 0, "rental_uris": {"ios": "https://dc.lft.to/lastmile_qr_scan", "android": "https://dc.lft.to/lastmile_qr_scan"}, "bike_id": "4339765489075addb4619d60cfc4b221", "lat": 38.898587166666665, "name": "4339765489075addb4619d60cfc4b221", "lon": -77.03355733333333, "fusion_lon": 0.0}, {"is_reserved": 0, "type": "electric_scooter", "fusion_lat": 0.0, "is_disabled": 0, "rental_uris": {"ios": "https://dc.lft.to/lastmile_qr_scan", "android": "https://dc.lft.to/lastmile_qr_scan"}, "bike_id": "fe3dc6182adf289940003e081de3e118", "lat": 38.936440166666664, "name": "fe3dc6182adf289940003e081de3e118", "lon": -77.03634816666667, "fusion_lon": 0.0}, {"is_reserved": 0, "type": "electric_scooter", "fusion_lat": 0.0, "is_disabled": 0, "rental_uris": {"ios": "https://dc.lft.to/lastmile_qr_scan", "android": "https://dc.lft.to/lastmile_qr_scan"}, "bike_id": "b40f604a1ce7abcd4224695dfbe62653", "lat": 38.8975535, "name": "b40f604a1ce7abcd4224695dfbe62653", "lon": -77.009527, "fusion_lon": 0.0}, {"is_reserved": 0, "type": "electric_scooter", "fusion_lat": 0.0, "is_disabled": 0, "rental_uris": {"ios": "https://dc.lft.to/lastmile_qr_scan", "android": "https://dc.lft.to/lastmile_qr_scan"}, "bike_id": "cbf64c090dbf4f4b60b34f03861d064e", "lat": 38.90086216666667, "name": "cbf64c090dbf4f4b60b34f03861d064e", "lon": -77.01770933333333, "fusion_lon": 0.0}, {"is_reserved": 0, "type": "electric_scooter", "fusion_lat": 0.0, "is_disabled": 0, "rental_uris": {"ios": "https://dc.lft.to/lastmile_qr_scan", "android": "https://dc.lft.to/lastmile_qr_scan"}, "bike_id": "ad8fd204f2494ca4e6fe1d160ca41979", "lat": 38.910129833333336, "name": "ad8fd204f2494ca4e6fe1d160ca41979", "lon": -76.99393716666667, "fusion_lon": 0.0}, {"is_reserved": 0, "type": "electric_scooter", "fusion_lat": 0.0, "is_disabled": 0, "rental_uris": {"ios": "https://dc.lft.to/lastmile_qr_scan", "android": "https://dc.lft.to/lastmile_qr_scan"}, "bike_id": "0aa10e82e066e663c0c5cbfd3b80d2cc", "lat": 38.918097333333336, "name": "0aa10e82e066e663c0c5cbfd3b80d2cc", "lon": -77.03424016666666, "fusion_lon": 0.0}, {"is_reserved": 0, "type": "electric_scooter", "fusion_lat": 0.0, "is_disabled": 0, "rental_uris": {"ios": "https://dc.lft.to/lastmile_qr_scan", "android": "https://dc.lft.to/lastmile_qr_scan"}, "bike_id": "86cad525a3c738aa62a83be00cd44b2e", "lat": 38.906088833333335, "name": "86cad525a3c738aa62a83be00cd44b2e", "lon": -76.98982366666667, "fusion_lon": 0.0}, {"is_reserved": 0, "type": "electric_scooter", "fusion_lat": 0.0, "is_disabled": 0, "rental_uris": {"ios": "https://dc.lft.to/lastmile_qr_scan", "android": "https://dc.lft.to/lastmile_qr_scan"}, "bike_id": "8ef34997c7e8a8775a16a1c02847f222", "lat": 38.920422333333335, "name": "8ef34997c7e8a8775a16a1c02847f222", "lon": -77.01679516666667, "fusion_lon": 0.0}, {"is_reserved": 0, "type": "electric_scooter", "fusion_lat": 0.0, "is_disabled": 0, "rental_uris": {"ios": "https://dc.lft.to/lastmile_qr_scan", "android": "https://dc.lft.to/lastmile_qr_scan"}, "bike_id": "b9ce4c5d509c743c4202d73f47c3bdb7", "lat": 38.8995835, "name": "b9ce4c5d509c743c4202d73f47c3bdb7", "lon": -77.01452966666666, "fusion_lon": 0.0}, {"is_reserved": 0, "type": "electric_scooter", "fusion_lat": 0.0, "is_disabled": 0, "rental_uris": {"ios": "https://dc.lft.to/lastmile_qr_scan", "android": "https://dc.lft.to/lastmile_qr_scan"}, "bike_id": "d5155af0064ebfb5b67d8d456e23ac3a", "lat": 38.90418666666667, "name": "d5155af0064ebfb5b67d8d456e23ac3a", "lon": -76.98532783333333, "fusion_lon": 0.0}, {"is_reserved": 0, "type": "electric_scooter", "fusion_lat": 0.0, "is_disabled": 0, "rental_uris": {"ios": "https://dc.lft.to/lastmile_qr_scan", "android": "https://dc.lft.to/lastmile_qr_scan"}, "bike_id": "7b5eecdaa459203ce06353b2edb5a9fc", "lat": 38.89964416666667, "name": "7b5eecdaa459203ce06353b2edb5a9fc", "lon": -77.04721166666667, "fusion_lon": 0.0}, {"is_reserved": 0, "type": "electric_scooter", "fusion_lat": 0.0, "is_disabled": 0, "rental_uris": {"ios": "https://dc.lft.to/lastmile_qr_scan", "android": "https://dc.lft.to/lastmile_qr_scan"}, "bike_id": "c0532fc154fd27ebbff8d7191906631f", "lat": 38.949860666666666, "name": "c0532fc154fd27ebbff8d7191906631f", "lon": -77.02450666666667, "fusion_lon": 0.0}, {"is_reserved": 0, "type": "electric_bike", "fusion_lat": 0.0, "is_disabled": 0, "rental_uris": {"ios": "https://dc.lft.to/lastmile_qr_scan", "android": "https://dc.lft.to/lastmile_qr_scan"}, "bike_id": "4a24fd6e29cbb8a56bf4de6d8d53a764", "lat": 38.99101783333333, "name": "4a24fd6e29cbb8a56bf4de6d8d53a764", "lon": -76.9938195, "fusion_lon": 0.0}, {"is_reserved": 0, "type": "electric_scooter", "fusion_lat": 0.0, "is_disabled": 0, "rental_uris": {"ios": "https://dc.lft.to/lastmile_qr_scan", "android": "https://dc.lft.to/lastmile_qr_scan"}, "bike_id": "94895fc568132ed45b34c95c8425f50e", "lat": 38.90579616666667, "name": "94895fc568132ed45b34c95c8425f50e", "lon": -77.06279716666667, "fusion_lon": 0.0}, {"is_reserved": 0, "type": "electric_scooter", "fusion_lat": 0.0, "is_disabled": 0, "rental_uris": {"ios": "https://dc.lft.to/lastmile_qr_scan", "android": "https://dc.lft.to/lastmile_qr_scan"}, "bike_id": "d8c17cf7a5eadee567477bb31d18f111", "lat": 38.914781, "name": "d8c17cf7a5eadee567477bb31d18f111", "lon": -77.04087733333333, "fusion_lon": 0.0}, {"is_reserved": 0, "type": "electric_scooter", "fusion_lat": 0.0, "is_disabled": 0, "rental_uris": {"ios": "https://dc.lft.to/lastmile_qr_scan", "android": "https://dc.lft.to/lastmile_qr_scan"}, "bike_id": "cf95e68b98708f64f47fbcdceef57ab2", "lat": 38.924662166666664, "name": "cf95e68b98708f64f47fbcdceef57ab2", "lon": -77.03797883333333, "fusion_lon": 0.0}, {"is_reserved": 0, "type": "electric_bike", "fusion_lat": 0.0, "is_disabled": 0, "rental_uris": {"ios": "https://dc.lft.to/lastmile_qr_scan", "android": "https://dc.lft.to/lastmile_qr_scan"}, "bike_id": "5f704f1e18f356275aa02d80dbbb66f2", "lat": 38.86628816666666, "name": "5f704f1e18f356275aa02d80dbbb66f2", "lon": -76.990037, "fusion_lon": 0.0}, {"is_reserved": 0, "type": "electric_bike", "fusion_lat": 0.0, "is_disabled": 0, "rental_uris": {"ios": "https://dc.lft.to/lastmile_qr_scan", "android": "https://dc.lft.to/lastmile_qr_scan"}, "bike_id": "1467ddcf48d313b618e8966d8f366ed9", "lat": 38.854463833333334, "name": "1467ddcf48d313b618e8966d8f366ed9", "lon": -76.97228816666667, "fusion_lon": 0.0}, {"is_reserved": 0, "type": "electric_scooter", "fusion_lat": 0.0, "is_disabled": 0, "rental_uris": {"ios": "https://dc.lft.to/lastmile_qr_scan", "android": "https://dc.lft.to/lastmile_qr_scan"}, "bike_id": "b6c4a324c04366ca4e8431cb1cd907b9", "lat": 38.91434683333333, "name": "b6c4a324c04366ca4e8431cb1cd907b9", "lon": -77.02290083333334, "fusion_lon": 0.0}, {"is_reserved": 0, "type": "electric_scooter", "fusion_lat": 0.0, "is_disabled": 0, "rental_uris": {"ios": "https://dc.lft.to/lastmile_qr_scan", "android": "https://dc.lft.to/lastmile_qr_scan"}, "bike_id": "0b08cd32b88f040fd628838ed3f50333", "lat": 38.8792365, "name": "0b08cd32b88f040fd628838ed3f50333", "lon": -76.944799, "fusion_lon": 0.0}, {"is_reserved": 0, "type": "electric_scooter", "fusion_lat": 0.0, "is_disabled": 0, "rental_uris": {"ios": "https://dc.lft.to/lastmile_qr_scan", "android": "https://dc.lft.to/lastmile_qr_scan"}, "bike_id": "dec1703e199e15a77487075217580998", "lat": 38.9155815, "name": "dec1703e199e15a77487075217580998", "lon": -77.03670616666666, "fusion_lon": 0.0}, {"is_reserved": 0, "type": "electric_scooter", "fusion_lat": 0.0, "is_disabled": 0, "rental_uris": {"ios": "https://dc.lft.to/lastmile_qr_scan", "android": "https://dc.lft.to/lastmile_qr_scan"}, "bike_id": "1e7d9cc1d2348a9adac072737c2fb524", "lat": 38.893989, "name": "1e7d9cc1d2348a9adac072737c2fb524", "lon": -77.0499565, "fusion_lon": 0.0}, {"is_reserved": 0, "type": "electric_scooter", "fusion_lat": 0.0, "is_disabled": 0, "rental_uris": {"ios": "https://dc.lft.to/lastmile_qr_scan", "android": "https://dc.lft.to/lastmile_qr_scan"}, "bike_id": "15ec3613717fb52f6688769ccced6a8b", "lat": 38.907645333333335, "name": "15ec3613717fb52f6688769ccced6a8b", "lon": -77.044939, "fusion_lon": 0.0}, {"is_reserved": 0, "type": "electric_scooter", "fusion_lat": 0.0, "is_disabled": 0, "rental_uris": {"ios": "https://dc.lft.to/lastmile_qr_scan", "android": "https://dc.lft.to/lastmile_qr_scan"}, "bike_id": "8150e74976ebf5d4666bd534fb1cc17c", "lat": 38.911877, "name": "8150e74976ebf5d4666bd534fb1cc17c", "lon": -77.060826, "fusion_lon": 0.0}, {"is_reserved": 0, "type": "electric_scooter", "fusion_lat": 0.0, "is_disabled": 0, "rental_uris": {"ios": "https://dc.lft.to/lastmile_qr_scan", "android": "https://dc.lft.to/lastmile_qr_scan"}, "bike_id": "5ec5e5f0b470a04cae7ce9829a273f6b", "lat": 38.947139, "name": "5ec5e5f0b470a04cae7ce9829a273f6b", "lon": -77.06804566666666, "fusion_lon": 0.0}, {"is_reserved": 0, "type": "electric_scooter", "fusion_lat": 0.0, "is_disabled": 0, "rental_uris": {"ios": "https://dc.lft.to/lastmile_qr_scan", "android": "https://dc.lft.to/lastmile_qr_scan"}, "bike_id": "3e9a1e37f03f1729a7a23816c3163dba", "lat": 38.895370666666665, "name": "3e9a1e37f03f1729a7a23816c3163dba", "lon": -76.98838916666666, "fusion_lon": 0.0}, {"is_reserved": 0, "type": "electric_scooter", "fusion_lat": 0.0, "is_disabled": 0, "rental_uris": {"ios": "https://dc.lft.to/lastmile_qr_scan", "android": "https://dc.lft.to/lastmile_qr_scan"}, "bike_id": "eb14c57ab6564d73d3ffc7d7c427037b", "lat": 38.897229333333335, "name": "eb14c57ab6564d73d3ffc7d7c427037b", "lon": -77.0254605, "fusion_lon": 0.0}, {"is_reserved": 0, "type": "electric_scooter", "fusion_lat": 0.0, "is_disabled": 0, "rental_uris": {"ios": "https://dc.lft.to/lastmile_qr_scan", "android": "https://dc.lft.to/lastmile_qr_scan"}, "bike_id": "aae6add4b1330e314d3d33482c20a743", "lat": 38.942656, "name": "aae6add4b1330e314d3d33482c20a743", "lon": -76.98468966666667, "fusion_lon": 0.0}, {"is_reserved": 0, "type": "electric_bike", "fusion_lat": 0.0, "is_disabled": 0, "rental_uris": {"ios": "https://dc.lft.to/lastmile_qr_scan", "android": "https://dc.lft.to/lastmile_qr_scan"}, "bike_id": "b5839d44b50069dd6e0d1df06e761c6d", "lat": 38.90694216666667, "name": "b5839d44b50069dd6e0d1df06e761c6d", "lon": -76.952559, "fusion_lon": 0.0}, {"is_reserved": 0, "type": "electric_scooter", "fusion_lat": 0.0, "is_disabled": 0, "rental_uris": {"ios": "https://dc.lft.to/lastmile_qr_scan", "android": "https://dc.lft.to/lastmile_qr_scan"}, "bike_id": "9bd61bcbc39f77b1d80c1e5fc970966a", "lat": 38.88362216666667, "name": "9bd61bcbc39f77b1d80c1e5fc970966a", "lon": -76.9577245, "fusion_lon": 0.0}, {"is_reserved": 0, "type": "electric_scooter", "fusion_lat": 0.0, "is_disabled": 0, "rental_uris": {"ios": "https://dc.lft.to/lastmile_qr_scan", "android": "https://dc.lft.to/lastmile_qr_scan"}, "bike_id": "b8a77106a47adbebe30a373ba8e328c1", "lat": 38.89675416666667, "name": "b8a77106a47adbebe30a373ba8e328c1", "lon": -77.0510965, "fusion_lon": 0.0}, {"is_reserved": 0, "type": "electric_scooter", "fusion_lat": 0.0, "is_disabled": 0, "rental_uris": {"ios": "https://dc.lft.to/lastmile_qr_scan", "android": "https://dc.lft.to/lastmile_qr_scan"}, "bike_id": "43b640c2e8bff664bfcab5f2b785a68f", "lat": 38.91952766666667, "name": "43b640c2e8bff664bfcab5f2b785a68f", "lon": -77.02309183333334, "fusion_lon": 0.0}, {"is_reserved": 0, "type": "electric_scooter", "fusion_lat": 0.0, "is_disabled": 0, "rental_uris": {"ios": "https://dc.lft.to/lastmile_qr_scan", "android": "https://dc.lft.to/lastmile_qr_scan"}, "bike_id": "23e4ef83bffcce0b13759b859a32e5c5", "lat": 38.95149, "name": "23e4ef83bffcce0b13759b859a32e5c5", "lon": -77.01869216666667, "fusion_lon": 0.0}, {"is_reserved": 0, "type": "electric_scooter", "fusion_lat": 0.0, "is_disabled": 0, "rental_uris": {"ios": "https://dc.lft.to/lastmile_qr_scan", "android": "https://dc.lft.to/lastmile_qr_scan"}, "bike_id": "4d54531f7934f097ed1f6d46caaad0ba", "lat": 38.903745666666666, "name": "4d54531f7934f097ed1f6d46caaad0ba", "lon": -77.00991233333333, "fusion_lon": 0.0}, {"is_reserved": 0, "type": "electric_scooter", "fusion_lat": 0.0, "is_disabled": 0, "rental_uris": {"ios": "https://dc.lft.to/lastmile_qr_scan", "android": "https://dc.lft.to/lastmile_qr_scan"}, "bike_id": "9c118dd4787fb5a8b377a7cab0c53a2c", "lat": 38.917724166666666, "name": "9c118dd4787fb5a8b377a7cab0c53a2c", "lon": -77.04760283333333, "fusion_lon": 0.0}, {"is_reserved": 0, "type": "electric_scooter", "fusion_lat": 0.0, "is_disabled": 0, "rental_uris": {"ios": "https://dc.lft.to/lastmile_qr_scan", "android": "https://dc.lft.to/lastmile_qr_scan"}, "bike_id": "486d0b46e61b240d4a3f80d19a555b6c", "lat": 38.90759366666666, "name": "486d0b46e61b240d4a3f80d19a555b6c", "lon": -77.01903383333334, "fusion_lon": 0.0}, {"is_reserved": 0, "type": "electric_scooter", "fusion_lat": 0.0, "is_disabled": 0, "rental_uris": {"ios": "https://dc.lft.to/lastmile_qr_scan", "android": "https://dc.lft.to/lastmile_qr_scan"}, "bike_id": "62cf7deae08e9daac765699caecc9d91", "lat": 38.91709916666667, "name": "62cf7deae08e9daac765699caecc9d91", "lon": -77.03458116666667, "fusion_lon": 0.0}, {"is_reserved": 0, "type": "electric_scooter", "fusion_lat": 0.0, "is_disabled": 0, "rental_uris": {"ios": "https://dc.lft.to/lastmile_qr_scan", "android": "https://dc.lft.to/lastmile_qr_scan"}, "bike_id": "2bf83a4c055a0fea8ff6d87b23a96ad7", "lat": 38.923548333333336, "name": "2bf83a4c055a0fea8ff6d87b23a96ad7", "lon": -77.0331555, "fusion_lon": 0.0}, {"is_reserved": 0, "type": "electric_scooter", "fusion_lat": 0.0, "is_disabled": 0, "rental_uris": {"ios": "https://dc.lft.to/lastmile_qr_scan", "android": "https://dc.lft.to/lastmile_qr_scan"}, "bike_id": "97d9d4d8913364be44b787d85ed73a0c", "lat": 38.902679666666664, "name": "97d9d4d8913364be44b787d85ed73a0c", "lon": -77.02008766666667, "fusion_lon": 0.0}, {"is_reserved": 0, "type": "electric_scooter", "fusion_lat": 0.0, "is_disabled": 0, "rental_uris": {"ios": "https://dc.lft.to/lastmile_qr_scan", "android": "https://dc.lft.to/lastmile_qr_scan"}, "bike_id": "a2bbf4743277310f6d8147d2d9bf15d1", "lat": 38.905695333333334, "name": "a2bbf4743277310f6d8147d2d9bf15d1", "lon": -77.02995766666666, "fusion_lon": 0.0}, {"is_reserved": 0, "type": "electric_scooter", "fusion_lat": 0.0, "is_disabled": 0, "rental_uris": {"ios": "https://dc.lft.to/lastmile_qr_scan", "android": "https://dc.lft.to/lastmile_qr_scan"}, "bike_id": "7eaba5f99bbcdb335073b5e9f900aa3a", "lat": 38.902625666666665, "name": "7eaba5f99bbcdb335073b5e9f900aa3a", "lon": -77.04169683333333, "fusion_lon": 0.0}, {"is_reserved": 0, "type": "electric_scooter", "fusion_lat": 0.0, "is_disabled": 0, "rental_uris": {"ios": "https://dc.lft.to/lastmile_qr_scan", "android": "https://dc.lft.to/lastmile_qr_scan"}, "bike_id": "12ac13594b77fb619c7f3aee993f2cb9", "lat": 38.953815666666664, "name": "12ac13594b77fb619c7f3aee993f2cb9", "lon": -77.00187333333334, "fusion_lon": 0.0}, {"is_reserved": 0, "type": "electric_scooter", "fusion_lat": 0.0, "is_disabled": 0, "rental_uris": {"ios": "https://dc.lft.to/lastmile_qr_scan", "android": "https://dc.lft.to/lastmile_qr_scan"}, "bike_id": "2eed53b195cb98d7f90e7eaaf6840e56", "lat": 38.91357283333333, "name": "2eed53b195cb98d7f90e7eaaf6840e56", "lon": -77.0448935, "fusion_lon": 0.0}, {"is_reserved": 0, "type": "electric_scooter", "fusion_lat": 0.0, "is_disabled": 0, "rental_uris": {"ios": "https://dc.lft.to/lastmile_qr_scan", "android": "https://dc.lft.to/lastmile_qr_scan"}, "bike_id": "c9c69dbec1c8044848342271d6868aa0", "lat": 38.9287295, "name": "c9c69dbec1c8044848342271d6868aa0", "lon": -77.0399565, "fusion_lon": 0.0}, {"is_reserved": 0, "type": "electric_scooter", "fusion_lat": 0.0, "is_disabled": 0, "rental_uris": {"ios": "https://dc.lft.to/lastmile_qr_scan", "android": "https://dc.lft.to/lastmile_qr_scan"}, "bike_id": "e5452f3e7a3ee5b346d77fd78e745fb6", "lat": 38.893189, "name": "e5452f3e7a3ee5b346d77fd78e745fb6", "lon": -77.02002583333334, "fusion_lon": 0.0}, {"is_reserved": 0, "type": "electric_scooter", "fusion_lat": 0.0, "is_disabled": 0, "rental_uris": {"ios": "https://dc.lft.to/lastmile_qr_scan", "android": "https://dc.lft.to/lastmile_qr_scan"}, "bike_id": "9d6eef8a9d0524b3aa850ef2e6e54fa4", "lat": 38.90480216666667, "name": "9d6eef8a9d0524b3aa850ef2e6e54fa4", "lon": -77.0273995, "fusion_lon": 0.0}, {"is_reserved": 0, "type": "electric_scooter", "fusion_lat": 0.0, "is_disabled": 0, "rental_uris": {"ios": "https://dc.lft.to/lastmile_qr_scan", "android": "https://dc.lft.to/lastmile_qr_scan"}, "bike_id": "27415ce4b8882cfac87f0cfb12884151", "lat": 38.91262533333333, "name": "27415ce4b8882cfac87f0cfb12884151", "lon": -77.0143815, "fusion_lon": 0.0}, {"is_reserved": 0, "type": "electric_scooter", "fusion_lat": 0.0, "is_disabled": 0, "rental_uris": {"ios": "https://dc.lft.to/lastmile_qr_scan", "android": "https://dc.lft.to/lastmile_qr_scan"}, "bike_id": "6d7b6b10fe9553b18f4991a7de454de0", "lat": 38.9444475, "name": "6d7b6b10fe9553b18f4991a7de454de0", "lon": -77.03280266666667, "fusion_lon": 0.0}, {"is_reserved": 0, "type": "electric_scooter", "fusion_lat": 0.0, "is_disabled": 0, "rental_uris": {"ios": "https://dc.lft.to/lastmile_qr_scan", "android": "https://dc.lft.to/lastmile_qr_scan"}, "bike_id": "9609c14ef911cdffbfc85c5b92d8e795", "lat": 38.89224866666667, "name": "9609c14ef911cdffbfc85c5b92d8e795", "lon": -77.04486683333333, "fusion_lon": 0.0}, {"is_reserved": 0, "type": "electric_bike", "fusion_lat": 0.0, "is_disabled": 0, "rental_uris": {"ios": "https://dc.lft.to/lastmile_qr_scan", "android": "https://dc.lft.to/lastmile_qr_scan"}, "bike_id": "a2fe5fd2cd03026afa2fe907a87d3a8d", "lat": 38.86832166666667, "name": "a2fe5fd2cd03026afa2fe907a87d3a8d", "lon": -76.980218, "fusion_lon": 0.0}, {"is_reserved": 0, "type": "electric_scooter", "fusion_lat": 0.0, "is_disabled": 0, "rental_uris": {"ios": "https://dc.lft.to/lastmile_qr_scan", "android": "https://dc.lft.to/lastmile_qr_scan"}, "bike_id": "3de4db1f4a6f5352bcf9b69b1bcbb407", "lat": 38.91241016666667, "name": "3de4db1f4a6f5352bcf9b69b1bcbb407", "lon": -77.03858633333333, "fusion_lon": 0.0}, {"is_reserved": 0, "type": "electric_scooter", "fusion_lat": 0.0, "is_disabled": 0, "rental_uris": {"ios": "https://dc.lft.to/lastmile_qr_scan", "android": "https://dc.lft.to/lastmile_qr_scan"}, "bike_id": "9115bb0474ac57cf1dfde384cb22b5c1", "lat": 38.89474633333333, "name": "9115bb0474ac57cf1dfde384cb22b5c1", "lon": -76.99363966666667, "fusion_lon": 0.0}, {"is_reserved": 0, "type": "electric_scooter", "fusion_lat": 0.0, "is_disabled": 0, "rental_uris": {"ios": "https://dc.lft.to/lastmile_qr_scan", "android": "https://dc.lft.to/lastmile_qr_scan"}, "bike_id": "65f79b881d6de33a62050e0160df3faa", "lat": 38.92287316666667, "name": "65f79b881d6de33a62050e0160df3faa", "lon": -77.01994183333333, "fusion_lon": 0.0}, {"is_reserved": 0, "type": "electric_scooter", "fusion_lat": 0.0, "is_disabled": 0, "rental_uris": {"ios": "https://dc.lft.to/lastmile_qr_scan", "android": "https://dc.lft.to/lastmile_qr_scan"}, "bike_id": "7579f89f1ca4429080cc83ba86faf6e4", "lat": 38.881308, "name": "7579f89f1ca4429080cc83ba86faf6e4", "lon": -76.9934505, "fusion_lon": 0.0}, {"is_reserved": 0, "type": "electric_scooter", "fusion_lat": 0.0, "is_disabled": 0, "rental_uris": {"ios": "https://dc.lft.to/lastmile_qr_scan", "android": "https://dc.lft.to/lastmile_qr_scan"}, "bike_id": "bc50f4bbbf15f946ed8e3aa594d47368", "lat": 38.89833766666667, "name": "bc50f4bbbf15f946ed8e3aa594d47368", "lon": -76.94633083333333, "fusion_lon": 0.0}, {"is_reserved": 0, "type": "electric_scooter", "fusion_lat": 0.0, "is_disabled": 0, "rental_uris": {"ios": "https://dc.lft.to/lastmile_qr_scan", "android": "https://dc.lft.to/lastmile_qr_scan"}, "bike_id": "de1ffc64d2794b5b08ffca0d03702819", "lat": 38.90197083333334, "name": "de1ffc64d2794b5b08ffca0d03702819", "lon": -77.02373216666666, "fusion_lon": 0.0}, {"is_reserved": 0, "type": "electric_scooter", "fusion_lat": 0.0, "is_disabled": 0, "rental_uris": {"ios": "https://dc.lft.to/lastmile_qr_scan", "android": "https://dc.lft.to/lastmile_qr_scan"}, "bike_id": "47ece344da013fedc4ac64a6c88a2a14", "lat": 38.922193666666665, "name": "47ece344da013fedc4ac64a6c88a2a14", "lon": -77.032945, "fusion_lon": 0.0}, {"is_reserved": 0, "type": "electric_scooter", "fusion_lat": 0.0, "is_disabled": 0, "rental_uris": {"ios": "https://dc.lft.to/lastmile_qr_scan", "android": "https://dc.lft.to/lastmile_qr_scan"}, "bike_id": "7ca64c0d0c48e749a72aec75f5ece0df", "lat": 38.928306, "name": "7ca64c0d0c48e749a72aec75f5ece0df", "lon": -77.0370495, "fusion_lon": 0.0}, {"is_reserved": 0, "type": "electric_scooter", "fusion_lat": 0.0, "is_disabled": 0, "rental_uris": {"ios": "https://dc.lft.to/lastmile_qr_scan", "android": "https://dc.lft.to/lastmile_qr_scan"}, "bike_id": "14a34fd91b627c8263e8fa2e360f5131", "lat": 38.87631316666667, "name": "14a34fd91b627c8263e8fa2e360f5131", "lon": -77.009632, "fusion_lon": 0.0}, {"is_reserved": 0, "type": "electric_scooter", "fusion_lat": 0.0, "is_disabled": 0, "rental_uris": {"ios": "https://dc.lft.to/lastmile_qr_scan", "android": "https://dc.lft.to/lastmile_qr_scan"}, "bike_id": "dec795afd6cf8ec70de6f7cbef57c083", "lat": 38.89833433333333, "name": "dec795afd6cf8ec70de6f7cbef57c083", "lon": -77.0391955, "fusion_lon": 0.0}, {"is_reserved": 0, "type": "electric_scooter", "fusion_lat": 0.0, "is_disabled": 0, "rental_uris": {"ios": "https://dc.lft.to/lastmile_qr_scan", "android": "https://dc.lft.to/lastmile_qr_scan"}, "bike_id": "76c4f27f12b1ec13d89df96739d0fb3c", "lat": 38.90469683333333, "name": "76c4f27f12b1ec13d89df96739d0fb3c", "lon": -77.0280985, "fusion_lon": 0.0}, {"is_reserved": 0, "type": "electric_scooter", "fusion_lat": 0.0, "is_disabled": 0, "rental_uris": {"ios": "https://dc.lft.to/lastmile_qr_scan", "android": "https://dc.lft.to/lastmile_qr_scan"}, "bike_id": "155578d9e85369eed16e3b84749b5ba5", "lat": 38.906101666666665, "name": "155578d9e85369eed16e3b84749b5ba5", "lon": -77.02111816666667, "fusion_lon": 0.0}, {"is_reserved": 0, "type": "electric_scooter", "fusion_lat": 0.0, "is_disabled": 0, "rental_uris": {"ios": "https://dc.lft.to/lastmile_qr_scan", "android": "https://dc.lft.to/lastmile_qr_scan"}, "bike_id": "35bb30d47012154634453a16a819e25b", "lat": 38.91467983333333, "name": "35bb30d47012154634453a16a819e25b", "lon": -77.00212416666666, "fusion_lon": 0.0}, {"is_reserved": 0, "type": "electric_scooter", "fusion_lat": 0.0, "is_disabled": 0, "rental_uris": {"ios": "https://dc.lft.to/lastmile_qr_scan", "android": "https://dc.lft.to/lastmile_qr_scan"}, "bike_id": "633f83b84f977a436fee4a0f1bb51836", "lat": 38.88660616666667, "name": "633f83b84f977a436fee4a0f1bb51836", "lon": -76.985625, "fusion_lon": 0.0}, {"is_reserved": 0, "type": "electric_scooter", "fusion_lat": 0.0, "is_disabled": 0, "rental_uris": {"ios": "https://dc.lft.to/lastmile_qr_scan", "android": "https://dc.lft.to/lastmile_qr_scan"}, "bike_id": "5d16eb8da0e8e7b3b0914ea5ccd955da", "lat": 38.9111685, "name": "5d16eb8da0e8e7b3b0914ea5ccd955da", "lon": -77.03843416666666, "fusion_lon": 0.0}, {"is_reserved": 0, "type": "electric_scooter", "fusion_lat": 0.0, "is_disabled": 0, "rental_uris": {"ios": "https://dc.lft.to/lastmile_qr_scan", "android": "https://dc.lft.to/lastmile_qr_scan"}, "bike_id": "5adab0a22cb6c5db1129af78fad07f82", "lat": 38.93421516666667, "name": "5adab0a22cb6c5db1129af78fad07f82", "lon": -77.0441105, "fusion_lon": 0.0}, {"is_reserved": 0, "type": "electric_scooter", "fusion_lat": 0.0, "is_disabled": 0, "rental_uris": {"ios": "https://dc.lft.to/lastmile_qr_scan", "android": "https://dc.lft.to/lastmile_qr_scan"}, "bike_id": "1ddc61d14a41abfd8f151affa06f7c8e", "lat": 38.8551575, "name": "1ddc61d14a41abfd8f151affa06f7c8e", "lon": -76.991486, "fusion_lon": 0.0}, {"is_reserved": 0, "type": "electric_scooter", "fusion_lat": 0.0, "is_disabled": 0, "rental_uris": {"ios": "https://dc.lft.to/lastmile_qr_scan", "android": "https://dc.lft.to/lastmile_qr_scan"}, "bike_id": "027234f6e2c0f3ba9b7e700b4bc46946", "lat": 38.90849716666666, "name": "027234f6e2c0f3ba9b7e700b4bc46946", "lon": -77.0416475, "fusion_lon": 0.0}, {"is_reserved": 0, "type": "electric_scooter", "fusion_lat": 0.0, "is_disabled": 0, "rental_uris": {"ios": "https://dc.lft.to/lastmile_qr_scan", "android": "https://dc.lft.to/lastmile_qr_scan"}, "bike_id": "3d8f088fddac2b1344567ab46c46b949", "lat": 38.885814833333335, "name": "3d8f088fddac2b1344567ab46c46b949", "lon": -77.01230333333334, "fusion_lon": 0.0}, {"is_reserved": 0, "type": "electric_scooter", "fusion_lat": 0.0, "is_disabled": 0, "rental_uris": {"ios": "https://dc.lft.to/lastmile_qr_scan", "android": "https://dc.lft.to/lastmile_qr_scan"}, "bike_id": "3c305db8ed6c62bc5177a05e50d7e84c", "lat": 38.952568666666664, "name": "3c305db8ed6c62bc5177a05e50d7e84c", "lon": -77.02072833333334, "fusion_lon": 0.0}, {"is_reserved": 0, "type": "electric_scooter", "fusion_lat": 0.0, "is_disabled": 0, "rental_uris": {"ios": "https://dc.lft.to/lastmile_qr_scan", "android": "https://dc.lft.to/lastmile_qr_scan"}, "bike_id": "5648a44341f80d65469f9cd264907031", "lat": 38.923589666666665, "name": "5648a44341f80d65469f9cd264907031", "lon": -77.05248, "fusion_lon": 0.0}, {"is_reserved": 0, "type": "electric_scooter", "fusion_lat": 0.0, "is_disabled": 0, "rental_uris": {"ios": "https://dc.lft.to/lastmile_qr_scan", "android": "https://dc.lft.to/lastmile_qr_scan"}, "bike_id": "604df3f8c54772ba00a82077e275342b", "lat": 38.915586166666664, "name": "604df3f8c54772ba00a82077e275342b", "lon": -77.04006033333333, "fusion_lon": 0.0}, {"is_reserved": 0, "type": "electric_scooter", "fusion_lat": 0.0, "is_disabled": 0, "rental_uris": {"ios": "https://dc.lft.to/lastmile_qr_scan", "android": "https://dc.lft.to/lastmile_qr_scan"}, "bike_id": "5d7ffb3f2e084f68e510260ed0630fe2", "lat": 38.89909766666667, "name": "5d7ffb3f2e084f68e510260ed0630fe2", "lon": -77.02326933333333, "fusion_lon": 0.0}, {"is_reserved": 0, "type": "electric_bike", "fusion_lat": 0.0, "is_disabled": 0, "rental_uris": {"ios": "https://dc.lft.to/lastmile_qr_scan", "android": "https://dc.lft.to/lastmile_qr_scan"}, "bike_id": "c92de2837c54c041a63181f5de388218", "lat": 38.95685683333333, "name": "c92de2837c54c041a63181f5de388218", "lon": -77.0222895, "fusion_lon": 0.0}, {"is_reserved": 0, "type": "electric_scooter", "fusion_lat": 0.0, "is_disabled": 0, "rental_uris": {"ios": "https://dc.lft.to/lastmile_qr_scan", "android": "https://dc.lft.to/lastmile_qr_scan"}, "bike_id": "bb9b35842d16a2ad399e1e130eda8d1f", "lat": 38.91262416666667, "name": "bb9b35842d16a2ad399e1e130eda8d1f", "lon": -77.03648483333333, "fusion_lon": 0.0}, {"is_reserved": 0, "type": "electric_scooter", "fusion_lat": 0.0, "is_disabled": 0, "rental_uris": {"ios": "https://dc.lft.to/lastmile_qr_scan", "android": "https://dc.lft.to/lastmile_qr_scan"}, "bike_id": "6f7dd309613c485cf3992226d4c0a19a", "lat": 38.943285333333336, "name": "6f7dd309613c485cf3992226d4c0a19a", "lon": -77.01312883333334, "fusion_lon": 0.0}, {"is_reserved": 0, "type": "electric_scooter", "fusion_lat": 0.0, "is_disabled": 0, "rental_uris": {"ios": "https://dc.lft.to/lastmile_qr_scan", "android": "https://dc.lft.to/lastmile_qr_scan"}, "bike_id": "592b8bed303fa336d88401dbe68c946a", "lat": 38.89937183333333, "name": "592b8bed303fa336d88401dbe68c946a", "lon": -77.0260165, "fusion_lon": 0.0}, {"is_reserved": 0, "type": "electric_scooter", "fusion_lat": 0.0, "is_disabled": 0, "rental_uris": {"ios": "https://dc.lft.to/lastmile_qr_scan", "android": "https://dc.lft.to/lastmile_qr_scan"}, "bike_id": "0c70f2374a4aa1e24a270188fdde8dce", "lat": 38.93697183333333, "name": "0c70f2374a4aa1e24a270188fdde8dce", "lon": -77.05600233333334, "fusion_lon": 0.0}, {"is_reserved": 0, "type": "electric_scooter", "fusion_lat": 0.0, "is_disabled": 0, "rental_uris": {"ios": "https://dc.lft.to/lastmile_qr_scan", "android": "https://dc.lft.to/lastmile_qr_scan"}, "bike_id": "51b3dd2ab8c38a4a52a669bc74322f1d", "lat": 38.893282166666665, "name": "51b3dd2ab8c38a4a52a669bc74322f1d", "lon": -76.9392825, "fusion_lon": 0.0}, {"is_reserved": 0, "type": "electric_scooter", "fusion_lat": 0.0, "is_disabled": 0, "rental_uris": {"ios": "https://dc.lft.to/lastmile_qr_scan", "android": "https://dc.lft.to/lastmile_qr_scan"}, "bike_id": "ce94885b6fd73eb7f14900c1e43d4a59", "lat": 38.91261083333333, "name": "ce94885b6fd73eb7f14900c1e43d4a59", "lon": -77.01024, "fusion_lon": 0.0}, {"is_reserved": 0, "type": "electric_scooter", "fusion_lat": 0.0, "is_disabled": 0, "rental_uris": {"ios": "https://dc.lft.to/lastmile_qr_scan", "android": "https://dc.lft.to/lastmile_qr_scan"}, "bike_id": "972d03f7f99106860d5242b727696f9a", "lat": 38.923423, "name": "972d03f7f99106860d5242b727696f9a", "lon": -76.98495033333333, "fusion_lon": 0.0}, {"is_reserved": 0, "type": "electric_scooter", "fusion_lat": 0.0, "is_disabled": 0, "rental_uris": {"ios": "https://dc.lft.to/lastmile_qr_scan", "android": "https://dc.lft.to/lastmile_qr_scan"}, "bike_id": "b716417c364194727bf0e40418bb5c70", "lat": 38.955040833333335, "name": "b716417c364194727bf0e40418bb5c70", "lon": -77.06997333333334, "fusion_lon": 0.0}, {"is_reserved": 0, "type": "electric_scooter", "fusion_lat": 0.0, "is_disabled": 0, "rental_uris": {"ios": "https://dc.lft.to/lastmile_qr_scan", "android": "https://dc.lft.to/lastmile_qr_scan"}, "bike_id": "a10da5cf55573f9f6f5d0fa1b225b9c4", "lat": 38.916673, "name": "a10da5cf55573f9f6f5d0fa1b225b9c4", "lon": -77.02691216666666, "fusion_lon": 0.0}, {"is_reserved": 0, "type": "electric_scooter", "fusion_lat": 0.0, "is_disabled": 0, "rental_uris": {"ios": "https://dc.lft.to/lastmile_qr_scan", "android": "https://dc.lft.to/lastmile_qr_scan"}, "bike_id": "81ca44a02ba5d269734141e7a692ca3f", "lat": 38.92350916666667, "name": "81ca44a02ba5d269734141e7a692ca3f", "lon": -77.03641016666667, "fusion_lon": 0.0}, {"is_reserved": 0, "type": "electric_bike", "fusion_lat": 0.0, "is_disabled": 0, "rental_uris": {"ios": "https://dc.lft.to/lastmile_qr_scan", "android": "https://dc.lft.to/lastmile_qr_scan"}, "bike_id": "88314394ff5dfcbee47d0a09ac0e6d04", "lat": 38.86823416666667, "name": "88314394ff5dfcbee47d0a09ac0e6d04", "lon": -76.98037083333334, "fusion_lon": 0.0}, {"is_reserved": 0, "type": "electric_scooter", "fusion_lat": 0.0, "is_disabled": 0, "rental_uris": {"ios": "https://dc.lft.to/lastmile_qr_scan", "android": "https://dc.lft.to/lastmile_qr_scan"}, "bike_id": "5330fc8890d268225440e76a40852cbf", "lat": 38.943021, "name": "5330fc8890d268225440e76a40852cbf", "lon": -77.02535866666666, "fusion_lon": 0.0}, {"is_reserved": 0, "type": "electric_scooter", "fusion_lat": 0.0, "is_disabled": 0, "rental_uris": {"ios": "https://dc.lft.to/lastmile_qr_scan", "android": "https://dc.lft.to/lastmile_qr_scan"}, "bike_id": "f3f9f4b32c745b90caabe6adb5d1ba4d", "lat": 38.919677, "name": "f3f9f4b32c745b90caabe6adb5d1ba4d", "lon": -77.02366516666666, "fusion_lon": 0.0}, {"is_reserved": 0, "type": "electric_scooter", "fusion_lat": 0.0, "is_disabled": 0, "rental_uris": {"ios": "https://dc.lft.to/lastmile_qr_scan", "android": "https://dc.lft.to/lastmile_qr_scan"}, "bike_id": "052938eb859a25eb3ca2a0e420e69e33", "lat": 38.90554133333333, "name": "052938eb859a25eb3ca2a0e420e69e33", "lon": -77.00581116666666, "fusion_lon": 0.0}, {"is_reserved": 0, "type": "electric_scooter", "fusion_lat": 0.0, "is_disabled": 0, "rental_uris": {"ios": "https://dc.lft.to/lastmile_qr_scan", "android": "https://dc.lft.to/lastmile_qr_scan"}, "bike_id": "77fe78fa5fb80b767ce0737f54d11110", "lat": 38.926344666666665, "name": "77fe78fa5fb80b767ce0737f54d11110", "lon": -77.03839233333333, "fusion_lon": 0.0}, {"is_reserved": 0, "type": "electric_scooter", "fusion_lat": 0.0, "is_disabled": 0, "rental_uris": {"ios": "https://dc.lft.to/lastmile_qr_scan", "android": "https://dc.lft.to/lastmile_qr_scan"}, "bike_id": "24a4deadbcea1f48075b4673f8a8557a", "lat": 38.896768333333334, "name": "24a4deadbcea1f48075b4673f8a8557a", "lon": -76.93210916666666, "fusion_lon": 0.0}, {"is_reserved": 0, "type": "electric_scooter", "fusion_lat": 0.0, "is_disabled": 0, "rental_uris": {"ios": "https://dc.lft.to/lastmile_qr_scan", "android": "https://dc.lft.to/lastmile_qr_scan"}, "bike_id": "531eae49733477b31e9a686d8577d9d4", "lat": 38.90012866666667, "name": "531eae49733477b31e9a686d8577d9d4", "lon": -77.00680933333334, "fusion_lon": 0.0}, {"is_reserved": 0, "type": "electric_scooter", "fusion_lat": 0.0, "is_disabled": 0, "rental_uris": {"ios": "https://dc.lft.to/lastmile_qr_scan", "android": "https://dc.lft.to/lastmile_qr_scan"}, "bike_id": "d9ed7a1f8a671df13be7134a2dacfcb1", "lat": 38.91899883333333, "name": "d9ed7a1f8a671df13be7134a2dacfcb1", "lon": -77.00046183333333, "fusion_lon": 0.0}, {"is_reserved": 0, "type": "electric_scooter", "fusion_lat": 0.0, "is_disabled": 0, "rental_uris": {"ios": "https://dc.lft.to/lastmile_qr_scan", "android": "https://dc.lft.to/lastmile_qr_scan"}, "bike_id": "1a922ef5e1684a5366f6d6e291d78deb", "lat": 38.901128, "name": "1a922ef5e1684a5366f6d6e291d78deb", "lon": -77.041724, "fusion_lon": 0.0}, {"is_reserved": 0, "type": "electric_scooter", "fusion_lat": 0.0, "is_disabled": 0, "rental_uris": {"ios": "https://dc.lft.to/lastmile_qr_scan", "android": "https://dc.lft.to/lastmile_qr_scan"}, "bike_id": "6d7c835dc80e8231cf5879c03fb594cb", "lat": 38.87827133333333, "name": "6d7c835dc80e8231cf5879c03fb594cb", "lon": -77.00597166666667, "fusion_lon": 0.0}, {"is_reserved": 0, "type": "electric_scooter", "fusion_lat": 0.0, "is_disabled": 0, "rental_uris": {"ios": "https://dc.lft.to/lastmile_qr_scan", "android": "https://dc.lft.to/lastmile_qr_scan"}, "bike_id": "5b314983d45f1da97cc407e1c0394a76", "lat": 38.92059066666667, "name": "5b314983d45f1da97cc407e1c0394a76", "lon": -77.04401683333333, "fusion_lon": 0.0}, {"is_reserved": 0, "type": "electric_scooter", "fusion_lat": 0.0, "is_disabled": 0, "rental_uris": {"ios": "https://dc.lft.to/lastmile_qr_scan", "android": "https://dc.lft.to/lastmile_qr_scan"}, "bike_id": "a6ed7a45264e0f9a3bdc2c82329b1686", "lat": 38.92020316666667, "name": "a6ed7a45264e0f9a3bdc2c82329b1686", "lon": -77.071351, "fusion_lon": 0.0}, {"is_reserved": 0, "type": "electric_scooter", "fusion_lat": 0.0, "is_disabled": 0, "rental_uris": {"ios": "https://dc.lft.to/lastmile_qr_scan", "android": "https://dc.lft.to/lastmile_qr_scan"}, "bike_id": "85b8827c963a71149e13ef0cf2f48588", "lat": 38.9211135, "name": "85b8827c963a71149e13ef0cf2f48588", "lon": -77.04576216666666, "fusion_lon": 0.0}, {"is_reserved": 0, "type": "electric_scooter", "fusion_lat": 0.0, "is_disabled": 0, "rental_uris": {"ios": "https://dc.lft.to/lastmile_qr_scan", "android": "https://dc.lft.to/lastmile_qr_scan"}, "bike_id": "8d6ee6418f99f628f7879ee98c52b470", "lat": 38.897288833333334, "name": "8d6ee6418f99f628f7879ee98c52b470", "lon": -77.02165916666667, "fusion_lon": 0.0}, {"is_reserved": 0, "type": "electric_scooter", "fusion_lat": 0.0, "is_disabled": 0, "rental_uris": {"ios": "https://dc.lft.to/lastmile_qr_scan", "android": "https://dc.lft.to/lastmile_qr_scan"}, "bike_id": "fcc98bcc48f00dcb1d6aace95f868749", "lat": 38.897504, "name": "fcc98bcc48f00dcb1d6aace95f868749", "lon": -77.0415625, "fusion_lon": 0.0}, {"is_reserved": 0, "type": "electric_scooter", "fusion_lat": 0.0, "is_disabled": 0, "rental_uris": {"ios": "https://dc.lft.to/lastmile_qr_scan", "android": "https://dc.lft.to/lastmile_qr_scan"}, "bike_id": "58ce66bb1c508b3dd350274c5e210230", "lat": 38.881407333333335, "name": "58ce66bb1c508b3dd350274c5e210230", "lon": -77.02017116666667, "fusion_lon": 0.0}, {"is_reserved": 0, "type": "electric_bike", "fusion_lat": 0.0, "is_disabled": 0, "rental_uris": {"ios": "https://dc.lft.to/lastmile_qr_scan", "android": "https://dc.lft.to/lastmile_qr_scan"}, "bike_id": "a06f16ef628488207d85bb98677590f8", "lat": 38.813357333333336, "name": "a06f16ef628488207d85bb98677590f8", "lon": -77.051101, "fusion_lon": 0.0}, {"is_reserved": 0, "type": "electric_scooter", "fusion_lat": 0.0, "is_disabled": 0, "rental_uris": {"ios": "https://dc.lft.to/lastmile_qr_scan", "android": "https://dc.lft.to/lastmile_qr_scan"}, "bike_id": "96d27495facd888d69212620b74fa75b", "lat": 38.891977, "name": "96d27495facd888d69212620b74fa75b", "lon": -77.015527, "fusion_lon": 0.0}, {"is_reserved": 0, "type": "electric_scooter", "fusion_lat": 0.0, "is_disabled": 0, "rental_uris": {"ios": "https://dc.lft.to/lastmile_qr_scan", "android": "https://dc.lft.to/lastmile_qr_scan"}, "bike_id": "cab271b771989fa226108b2ef2f52ec7", "lat": 38.917943, "name": "cab271b771989fa226108b2ef2f52ec7", "lon": -77.04451366666666, "fusion_lon": 0.0}, {"is_reserved": 0, "type": "electric_scooter", "fusion_lat": 0.0, "is_disabled": 0, "rental_uris": {"ios": "https://dc.lft.to/lastmile_qr_scan", "android": "https://dc.lft.to/lastmile_qr_scan"}, "bike_id": "0a831889f507eac99f210b0a77d9dc13", "lat": 38.9023415, "name": "0a831889f507eac99f210b0a77d9dc13", "lon": -77.00059833333333, "fusion_lon": 0.0}, {"is_reserved": 0, "type": "electric_scooter", "fusion_lat": 0.0, "is_disabled": 0, "rental_uris": {"ios": "https://dc.lft.to/lastmile_qr_scan", "android": "https://dc.lft.to/lastmile_qr_scan"}, "bike_id": "0a919db0ade61e2be7bcbdf6928dafab", "lat": 38.92409933333333, "name": "0a919db0ade61e2be7bcbdf6928dafab", "lon": -77.02128616666667, "fusion_lon": 0.0}, {"is_reserved": 0, "type": "electric_scooter", "fusion_lat": 0.0, "is_disabled": 0, "rental_uris": {"ios": "https://dc.lft.to/lastmile_qr_scan", "android": "https://dc.lft.to/lastmile_qr_scan"}, "bike_id": "63183d145767a3676b8a3c5604f810be", "lat": 38.8999085, "name": "63183d145767a3676b8a3c5604f810be", "lon": -77.04501483333334, "fusion_lon": 0.0}, {"is_reserved": 0, "type": "electric_scooter", "fusion_lat": 0.0, "is_disabled": 0, "rental_uris": {"ios": "https://dc.lft.to/lastmile_qr_scan", "android": "https://dc.lft.to/lastmile_qr_scan"}, "bike_id": "7a102ca3c65a204bfd2e3270e5dba061", "lat": 38.948295333333334, "name": "7a102ca3c65a204bfd2e3270e5dba061", "lon": -77.02613766666667, "fusion_lon": 0.0}, {"is_reserved": 0, "type": "electric_scooter", "fusion_lat": 0.0, "is_disabled": 0, "rental_uris": {"ios": "https://dc.lft.to/lastmile_qr_scan", "android": "https://dc.lft.to/lastmile_qr_scan"}, "bike_id": "ff1df3a35259906ac4ea96960f1604e6", "lat": 38.876420333333336, "name": "ff1df3a35259906ac4ea96960f1604e6", "lon": -77.00076633333333, "fusion_lon": 0.0}, {"is_reserved": 0, "type": "electric_scooter", "fusion_lat": 0.0, "is_disabled": 0, "rental_uris": {"ios": "https://dc.lft.to/lastmile_qr_scan", "android": "https://dc.lft.to/lastmile_qr_scan"}, "bike_id": "a4f8e859083861385f776edc85847220", "lat": 38.930127166666665, "name": "a4f8e859083861385f776edc85847220", "lon": -77.02104166666666, "fusion_lon": 0.0}, {"is_reserved": 0, "type": "electric_scooter", "fusion_lat": 0.0, "is_disabled": 0, "rental_uris": {"ios": "https://dc.lft.to/lastmile_qr_scan", "android": "https://dc.lft.to/lastmile_qr_scan"}, "bike_id": "6c47f95dc26de2b5cfe2c98c4910f07e", "lat": 38.90903466666666, "name": "6c47f95dc26de2b5cfe2c98c4910f07e", "lon": -76.9978035, "fusion_lon": 0.0}, {"is_reserved": 0, "type": "electric_scooter", "fusion_lat": 0.0, "is_disabled": 0, "rental_uris": {"ios": "https://dc.lft.to/lastmile_qr_scan", "android": "https://dc.lft.to/lastmile_qr_scan"}, "bike_id": "b9170cabaa284e50c10407e494aaee35", "lat": 38.918011666666665, "name": "b9170cabaa284e50c10407e494aaee35", "lon": -77.0444175, "fusion_lon": 0.0}, {"is_reserved": 0, "type": "electric_scooter", "fusion_lat": 0.0, "is_disabled": 0, "rental_uris": {"ios": "https://dc.lft.to/lastmile_qr_scan", "android": "https://dc.lft.to/lastmile_qr_scan"}, "bike_id": "272f71e9a28b573baf5d8c2994768069", "lat": 38.925211166666664, "name": "272f71e9a28b573baf5d8c2994768069", "lon": -76.9983405, "fusion_lon": 0.0}, {"is_reserved": 0, "type": "electric_scooter", "fusion_lat": 0.0, "is_disabled": 0, "rental_uris": {"ios": "https://dc.lft.to/lastmile_qr_scan", "android": "https://dc.lft.to/lastmile_qr_scan"}, "bike_id": "ba7fed13d8d3ff1559e5fb176b8b0500", "lat": 38.897408166666665, "name": "ba7fed13d8d3ff1559e5fb176b8b0500", "lon": -77.04802316666667, "fusion_lon": 0.0}, {"is_reserved": 0, "type": "electric_scooter", "fusion_lat": 0.0, "is_disabled": 0, "rental_uris": {"ios": "https://dc.lft.to/lastmile_qr_scan", "android": "https://dc.lft.to/lastmile_qr_scan"}, "bike_id": "02fb8ad2ab38f946af4c768e54073a6d", "lat": 38.8953415, "name": "02fb8ad2ab38f946af4c768e54073a6d", "lon": -77.02670283333333, "fusion_lon": 0.0}, {"is_reserved": 0, "type": "electric_scooter", "fusion_lat": 0.0, "is_disabled": 0, "rental_uris": {"ios": "https://dc.lft.to/lastmile_qr_scan", "android": "https://dc.lft.to/lastmile_qr_scan"}, "bike_id": "c4c20e489e9edf077be6db4ee8c39d31", "lat": 38.90590533333334, "name": "c4c20e489e9edf077be6db4ee8c39d31", "lon": -77.01611283333334, "fusion_lon": 0.0}, {"is_reserved": 0, "type": "electric_bike", "fusion_lat": 0.0, "is_disabled": 0, "rental_uris": {"ios": "https://dc.lft.to/lastmile_qr_scan", "android": "https://dc.lft.to/lastmile_qr_scan"}, "bike_id": "ad84c054dfd207324a92e63bbf8dd55f", "lat": 38.8468795, "name": "ad84c054dfd207324a92e63bbf8dd55f", "lon": -76.980677, "fusion_lon": 0.0}, {"is_reserved": 0, "type": "electric_scooter", "fusion_lat": 0.0, "is_disabled": 0, "rental_uris": {"ios": "https://dc.lft.to/lastmile_qr_scan", "android": "https://dc.lft.to/lastmile_qr_scan"}, "bike_id": "b7a0748375c3ca66a1e1c0648a216839", "lat": 38.912929166666665, "name": "b7a0748375c3ca66a1e1c0648a216839", "lon": -76.98698483333334, "fusion_lon": 0.0}, {"is_reserved": 0, "type": "electric_bike", "fusion_lat": 0.0, "is_disabled": 0, "rental_uris": {"ios": "https://dc.lft.to/lastmile_qr_scan", "android": "https://dc.lft.to/lastmile_qr_scan"}, "bike_id": "087a793299c99bdcff4f2e18843b992f", "lat": 38.887619, "name": "087a793299c99bdcff4f2e18843b992f", "lon": -77.156543, "fusion_lon": 0.0}, {"is_reserved": 0, "type": "electric_scooter", "fusion_lat": 0.0, "is_disabled": 0, "rental_uris": {"ios": "https://dc.lft.to/lastmile_qr_scan", "android": "https://dc.lft.to/lastmile_qr_scan"}, "bike_id": "f4dbd32933f2091638fc61e81701698e", "lat": 38.899594666666665, "name": "f4dbd32933f2091638fc61e81701698e", "lon": -77.015116, "fusion_lon": 0.0}, {"is_reserved": 0, "type": "electric_scooter", "fusion_lat": 0.0, "is_disabled": 0, "rental_uris": {"ios": "https://dc.lft.to/lastmile_qr_scan", "android": "https://dc.lft.to/lastmile_qr_scan"}, "bike_id": "4295f2bbcaf0d028fa53b02c482494aa", "lat": 38.91710783333333, "name": "4295f2bbcaf0d028fa53b02c482494aa", "lon": -77.0345615, "fusion_lon": 0.0}, {"is_reserved": 0, "type": "electric_scooter", "fusion_lat": 0.0, "is_disabled": 0, "rental_uris": {"ios": "https://dc.lft.to/lastmile_qr_scan", "android": "https://dc.lft.to/lastmile_qr_scan"}, "bike_id": "ee13ace571ca67256f1cbe0e6a464cbf", "lat": 38.929885166666665, "name": "ee13ace571ca67256f1cbe0e6a464cbf", "lon": -77.03797133333333, "fusion_lon": 0.0}, {"is_reserved": 0, "type": "electric_scooter", "fusion_lat": 0.0, "is_disabled": 0, "rental_uris": {"ios": "https://dc.lft.to/lastmile_qr_scan", "android": "https://dc.lft.to/lastmile_qr_scan"}, "bike_id": "7d34b2565f7f614d934e5fb98d3c05b5", "lat": 38.937662333333336, "name": "7d34b2565f7f614d934e5fb98d3c05b5", "lon": -77.02664666666666, "fusion_lon": 0.0}, {"is_reserved": 0, "type": "electric_scooter", "fusion_lat": 0.0, "is_disabled": 0, "rental_uris": {"ios": "https://dc.lft.to/lastmile_qr_scan", "android": "https://dc.lft.to/lastmile_qr_scan"}, "bike_id": "e77662a4b52434e56a5e12243bdc7561", "lat": 38.94273033333333, "name": "e77662a4b52434e56a5e12243bdc7561", "lon": -77.08203233333333, "fusion_lon": 0.0}, {"is_reserved": 0, "type": "electric_scooter", "fusion_lat": 0.0, "is_disabled": 0, "rental_uris": {"ios": "https://dc.lft.to/lastmile_qr_scan", "android": "https://dc.lft.to/lastmile_qr_scan"}, "bike_id": "619b9ecaf259dac26f8a4f1080ec8e93", "lat": 38.91259866666667, "name": "619b9ecaf259dac26f8a4f1080ec8e93", "lon": -77.00992116666667, "fusion_lon": 0.0}, {"is_reserved": 0, "type": "electric_scooter", "fusion_lat": 0.0, "is_disabled": 0, "rental_uris": {"ios": "https://dc.lft.to/lastmile_qr_scan", "android": "https://dc.lft.to/lastmile_qr_scan"}, "bike_id": "b01b91407a178249655d5539c41b8e74", "lat": 38.9564115, "name": "b01b91407a178249655d5539c41b8e74", "lon": -77.03636783333333, "fusion_lon": 0.0}, {"is_reserved": 0, "type": "electric_scooter", "fusion_lat": 0.0, "is_disabled": 0, "rental_uris": {"ios": "https://dc.lft.to/lastmile_qr_scan", "android": "https://dc.lft.to/lastmile_qr_scan"}, "bike_id": "cecd78f54de16477c6e1ab048017e458", "lat": 38.90029833333333, "name": "cecd78f54de16477c6e1ab048017e458", "lon": -77.019868, "fusion_lon": 0.0}, {"is_reserved": 0, "type": "electric_scooter", "fusion_lat": 0.0, "is_disabled": 0, "rental_uris": {"ios": "https://dc.lft.to/lastmile_qr_scan", "android": "https://dc.lft.to/lastmile_qr_scan"}, "bike_id": "3cc71d3749b5848fe48fc6300e658f8d", "lat": 38.893334833333334, "name": "3cc71d3749b5848fe48fc6300e658f8d", "lon": -76.9289315, "fusion_lon": 0.0}, {"is_reserved": 0, "type": "electric_scooter", "fusion_lat": 0.0, "is_disabled": 0, "rental_uris": {"ios": "https://dc.lft.to/lastmile_qr_scan", "android": "https://dc.lft.to/lastmile_qr_scan"}, "bike_id": "7d055151baf2faa4c10cef88c0b6a0ff", "lat": 38.91913366666667, "name": "7d055151baf2faa4c10cef88c0b6a0ff", "lon": -77.0480485, "fusion_lon": 0.0}, {"is_reserved": 0, "type": "electric_bike", "fusion_lat": 0.0, "is_disabled": 0, "rental_uris": {"ios": "https://dc.lft.to/lastmile_qr_scan", "android": "https://dc.lft.to/lastmile_qr_scan"}, "bike_id": "ec7c9e5a1300ea49f6407f6f92502ebe", "lat": 38.99498966666667, "name": "ec7c9e5a1300ea49f6407f6f92502ebe", "lon": -77.00134666666666, "fusion_lon": 0.0}, {"is_reserved": 0, "type": "electric_scooter", "fusion_lat": 0.0, "is_disabled": 0, "rental_uris": {"ios": "https://dc.lft.to/lastmile_qr_scan", "android": "https://dc.lft.to/lastmile_qr_scan"}, "bike_id": "02b83538377e49eb363108ce6668f021", "lat": 38.88362, "name": "02b83538377e49eb363108ce6668f021", "lon": -76.92792533333333, "fusion_lon": 0.0}, {"is_reserved": 0, "type": "electric_scooter", "fusion_lat": 0.0, "is_disabled": 0, "rental_uris": {"ios": "https://dc.lft.to/lastmile_qr_scan", "android": "https://dc.lft.to/lastmile_qr_scan"}, "bike_id": "c3656079bcc08c7f9489d646e3ea5149", "lat": 38.876477333333334, "name": "c3656079bcc08c7f9489d646e3ea5149", "lon": -77.01590733333333, "fusion_lon": 0.0}, {"is_reserved": 0, "type": "electric_bike", "fusion_lat": 0.0, "is_disabled": 0, "rental_uris": {"ios": "https://dc.lft.to/lastmile_qr_scan", "android": "https://dc.lft.to/lastmile_qr_scan"}, "bike_id": "8feaa2f5f5d480445b47ebdd8fd7576c", "lat": 38.947329, "name": "8feaa2f5f5d480445b47ebdd8fd7576c", "lon": -76.99584033333333, "fusion_lon": 0.0}, {"is_reserved": 0, "type": "electric_scooter", "fusion_lat": 0.0, "is_disabled": 0, "rental_uris": {"ios": "https://dc.lft.to/lastmile_qr_scan", "android": "https://dc.lft.to/lastmile_qr_scan"}, "bike_id": "03c6c2eec7160b3bbd14b9d992820439", "lat": 38.91651, "name": "03c6c2eec7160b3bbd14b9d992820439", "lon": -77.02182766666667, "fusion_lon": 0.0}, {"is_reserved": 0, "type": "electric_scooter", "fusion_lat": 0.0, "is_disabled": 0, "rental_uris": {"ios": "https://dc.lft.to/lastmile_qr_scan", "android": "https://dc.lft.to/lastmile_qr_scan"}, "bike_id": "26776a3482042520797fcd395dccdd8c", "lat": 38.931879, "name": "26776a3482042520797fcd395dccdd8c", "lon": -77.01963266666667, "fusion_lon": 0.0}, {"is_reserved": 0, "type": "electric_scooter", "fusion_lat": 0.0, "is_disabled": 0, "rental_uris": {"ios": "https://dc.lft.to/lastmile_qr_scan", "android": "https://dc.lft.to/lastmile_qr_scan"}, "bike_id": "89fcd064f94c318cd9233f5eb501f8f5", "lat": 38.901879666666666, "name": "89fcd064f94c318cd9233f5eb501f8f5", "lon": -76.9346415, "fusion_lon": 0.0}, {"is_reserved": 0, "type": "electric_scooter", "fusion_lat": 0.0, "is_disabled": 0, "rental_uris": {"ios": "https://dc.lft.to/lastmile_qr_scan", "android": "https://dc.lft.to/lastmile_qr_scan"}, "bike_id": "d6dba5448b5fe5de1493e16cdce4742b", "lat": 38.930771, "name": "d6dba5448b5fe5de1493e16cdce4742b", "lon": -77.077689, "fusion_lon": 0.0}, {"is_reserved": 0, "type": "electric_scooter", "fusion_lat": 0.0, "is_disabled": 0, "rental_uris": {"ios": "https://dc.lft.to/lastmile_qr_scan", "android": "https://dc.lft.to/lastmile_qr_scan"}, "bike_id": "3f8cbe3d0d1c6d378be38d0d6fa7f6ed", "lat": 38.924826833333334, "name": "3f8cbe3d0d1c6d378be38d0d6fa7f6ed", "lon": -77.02630066666667, "fusion_lon": 0.0}, {"is_reserved": 0, "type": "electric_scooter", "fusion_lat": 0.0, "is_disabled": 0, "rental_uris": {"ios": "https://dc.lft.to/lastmile_qr_scan", "android": "https://dc.lft.to/lastmile_qr_scan"}, "bike_id": "1925468c77c3e214779ddfcc1802bbed", "lat": 38.930095333333334, "name": "1925468c77c3e214779ddfcc1802bbed", "lon": -77.04044366666666, "fusion_lon": 0.0}, {"is_reserved": 0, "type": "electric_scooter", "fusion_lat": 0.0, "is_disabled": 0, "rental_uris": {"ios": "https://dc.lft.to/lastmile_qr_scan", "android": "https://dc.lft.to/lastmile_qr_scan"}, "bike_id": "1a2c2d0f0bc23eeb6d9916afecf7a729", "lat": 38.898392333333334, "name": "1a2c2d0f0bc23eeb6d9916afecf7a729", "lon": -77.05009166666666, "fusion_lon": 0.0}, {"is_reserved": 0, "type": "electric_bike", "fusion_lat": 0.0, "is_disabled": 0, "rental_uris": {"ios": "https://dc.lft.to/lastmile_qr_scan", "android": "https://dc.lft.to/lastmile_qr_scan"}, "bike_id": "5efdbbf8c1267b77871d8bd8f52dd1f6", "lat": 38.858028, "name": "5efdbbf8c1267b77871d8bd8f52dd1f6", "lon": -76.98759416666667, "fusion_lon": 0.0}, {"is_reserved": 0, "type": "electric_bike", "fusion_lat": 0.0, "is_disabled": 0, "rental_uris": {"ios": "https://dc.lft.to/lastmile_qr_scan", "android": "https://dc.lft.to/lastmile_qr_scan"}, "bike_id": "9aec6607cf3b9dd1d058bbbc0ffda224", "lat": 39.026201666666665, "name": "9aec6607cf3b9dd1d058bbbc0ffda224", "lon": -77.03879616666667, "fusion_lon": 0.0}, {"is_reserved": 0, "type": "electric_scooter", "fusion_lat": 0.0, "is_disabled": 0, "rental_uris": {"ios": "https://dc.lft.to/lastmile_qr_scan", "android": "https://dc.lft.to/lastmile_qr_scan"}, "bike_id": "a36c44697a254852e33e780404d94929", "lat": 38.92714566666667, "name": "a36c44697a254852e33e780404d94929", "lon": -77.0599925, "fusion_lon": 0.0}, {"is_reserved": 0, "type": "electric_scooter", "fusion_lat": 0.0, "is_disabled": 0, "rental_uris": {"ios": "https://dc.lft.to/lastmile_qr_scan", "android": "https://dc.lft.to/lastmile_qr_scan"}, "bike_id": "da3760aee67ca696a580f37b0ec0cc1d", "lat": 38.89039416666667, "name": "da3760aee67ca696a580f37b0ec0cc1d", "lon": -76.9884, "fusion_lon": 0.0},