{"data": {"bikes": [{"rental_uris": {"ios": "https://dc.lft.to/lastmile_qr_scan", "android": "https://dc.lft.to/lastmile_qr_scan"}, "lon": -77.06770916666666, "type": "electric_scooter", "fusion_lat": 0.0, "lat": 38.949739, "name": "6fc89e9ec6a099a70b5013f5ff6b513a", "fusion_lon": 0.0, "bike_id": "6fc89e9ec6a099a70b5013f5ff6b513a", "is_disabled": 0, "is_reserved": 0}, {"rental_uris": {"ios": "https://dc.lft.to/lastmile_qr_scan", "android": "https://dc.lft.to/lastmile_qr_scan"}, "lon": -77.00728633333334, "type": "electric_scooter", "fusion_lat": 0.0, "lat": 38.959723833333335, "name": "4e62d4c0050faa9b61711fc7654cc2c7", "fusion_lon": 0.0, "bike_id": "4e62d4c0050faa9b61711fc7654cc2c7", "is_disabled": 0, "is_reserved": 0}, {"rental_uris": {"ios": "https://dc.lft.to/lastmile_qr_scan", "android": "https://dc.lft.to/lastmile_qr_scan"}, "lon": -77.01814966666667, "type": "electric_scooter", "fusion_lat": 0.0, "lat": 38.9198035, "name": "76688f125ccf46af8b1e6ff7044e2a17", "fusion_lon": 0.0, "bike_id": "76688f125ccf46af8b1e6ff7044e2a17", "is_disabled": 0, "is_reserved": 0}, {"rental_uris": {"ios": "https://dc.lft.to/lastmile_qr_scan", "android": "https://dc.lft.to/lastmile_qr_scan"}, "lon": -76.97214633333333, "type": "electric_bike", "fusion_lat": 0.0, "lat": 38.844852333333336, "name": "29ea14ae4a49c4c7e8d2cbb45bac0b10", "fusion_lon": 0.0, "bike_id": "29ea14ae4a49c4c7e8d2cbb45bac0b10", "is_disabled": 0, "is_reserved": 0}, {"rental_uris": {"ios": "https://dc.lft.to/lastmile_qr_scan", "android": "https://dc.lft.to/lastmile_qr_scan"}, "lon": -76.97706783333334, "type": "electric_scooter", "fusion_lat": 0.0, "lat": 38.89895816666667, "name": "eb685ca96ca4ea5ea5ee0495e4ad2af3", "fusion_lon": 0.0, "bike_id": "eb685ca96ca4ea5ea5ee0495e4ad2af3", "is_disabled": 0, "is_reserved": 0}, {"rental_uris": {"ios": "https://dc.lft.to/lastmile_qr_scan", "android": "https://dc.lft.to/lastmile_qr_scan"}, "lon": -76.96878083333333, "type": "electric_scooter", "fusion_lat": 0.0, "lat": 38.924459166666665, "name": "811a84ebb57abaff5ec81859f87840ec", "fusion_lon": 0.0, "bike_id": "811a84ebb57abaff5ec81859f87840ec", "is_disabled": 0, "is_reserved": 0}, {"rental_uris": {"ios": "https://dc.lft.to/lastmile_qr_scan", "android": "https://dc.lft.to/lastmile_qr_scan"}, "lon": -77.024939, "type": "electric_scooter", "fusion_lat": 0.0, "lat": 38.91808, "name": "26a7b2983f16ebb6a68842eb4fba2371", "fusion_lon": 0.0, "bike_id": "26a7b2983f16ebb6a68842eb4fba2371", "is_disabled": 0, "is_reserved": 0}, {"rental_uris": {"ios": "https://dc.lft.to/lastmile_qr_scan", "android": "https://dc.lft.to/lastmile_qr_scan"}, "lon": -77.01623883333333, "type": "electric_scooter", "fusion_lat": 0.0, "lat": 38.903109666666666, "name": "e30090036f556106f572c3742a3d0c68", "fusion_lon": 0.0, "bike_id": "e30090036f556106f572c3742a3d0c68", "is_disabled": 0, "is_reserved": 0}, {"rental_uris": {"ios": "https://dc.lft.to/lastmile_qr_scan", "android": "https://dc.lft.to/lastmile_qr_scan"}, "lon": -77.05118783333333, "type": "electric_bike", "fusion_lat": 0.0, "lat": 38.99967633333333, "name": "236dcc4b5ccc4129d907ade8cd9c0510", "fusion_lon": 0.0, "bike_id": "236dcc4b5ccc4129d907ade8cd9c0510", "is_disabled": 0, "is_reserved": 0}, {"rental_uris": {"ios": "https://dc.lft.to/lastmile_qr_scan", "android": "https://dc.lft.to/lastmile_qr_scan"}, "lon": -77.08937, "type": "electric_bike", "fusion_lat": 0.0, "lat": 38.841108, "name": "77544244d4b98eaaf1dbbb36a873c8a8", "fusion_lon": 0.0, "bike_id": "77544244d4b98eaaf1dbbb36a873c8a8", "is_disabled": 0, "is_reserved": 0}, {"rental_uris": {"ios": "https://dc.lft.to/lastmile_qr_scan", "android": "https://dc.lft.to/lastmile_qr_scan"}, "lon": -77.00076083333333, "type": "electric_scooter", "fusion_lat": 0.0, "lat": 38.874987833333336, "name": "11f275f2435c06270af31ac149f44a4b", "fusion_lon": 0.0, "bike_id": "11f275f2435c06270af31ac149f44a4b", "is_disabled": 0, "is_reserved": 0}, {"rental_uris": {"ios": "https://dc.lft.to/lastmile_qr_scan", "android": "https://dc.lft.to/lastmile_qr_scan"}, "lon": -77.01983783333333, "type": "electric_scooter", "fusion_lat": 0.0, "lat": 38.902296166666666, "name": "6bb2d309ca4c1d6e86edbe6c9150d432", "fusion_lon": 0.0, "bike_id": "6bb2d309ca4c1d6e86edbe6c9150d432", "is_disabled": 0, "is_reserved": 0}, {"rental_uris": {"ios": "https://dc.lft.to/lastmile_qr_scan", "android": "https://dc.lft.to/lastmile_qr_scan"}, "lon": -77.03283533333334, "type": "electric_scooter", "fusion_lat": 0.0, "lat": 38.95678933333333, "name": "374739e384f5a5612e126c4c0803359b", "fusion_lon": 0.0, "bike_id": "374739e384f5a5612e126c4c0803359b", "is_disabled": 0, "is_reserved": 0}, {"rental_uris": {"ios": "https://dc.lft.to/lastmile_qr_scan", "android": "https://dc.lft.to/lastmile_qr_scan"}, "lon": -76.99388883333333, "type": "electric_scooter", "fusion_lat": 0.0, "lat": 38.900638, "name": "c8efc4c7cb25ef232221d0a17cf9e7f5", "fusion_lon": 0.0, "bike_id": "c8efc4c7cb25ef232221d0a17cf9e7f5", "is_disabled": 0, "is_reserved": 0}, {"rental_uris": {"ios": "https://dc.lft.to/lastmile_qr_scan", "android": "https://dc.lft.to/lastmile_qr_scan"}, "lon": -77.031584, "type": "electric_scooter", "fusion_lat": 0.0, "lat": 38.911987, "name": "5149476ea88a365251f432be4c109b96", "fusion_lon": 0.0, "bike_id": "5149476ea88a365251f432be4c109b96", "is_disabled": 0, "is_reserved": 0}, {"rental_uris": {"ios": "https://dc.lft.to/lastmile_qr_scan", "android": "https://dc.lft.to/lastmile_qr_scan"}, "lon": -77.04068933333333, "type": "electric_bike", "fusion_lat": 0.0, "lat": 38.81247316666666, "name": "f9f257b4d021a6b4cd73d5509ae1f187", "fusion_lon": 0.0, "bike_id": "f9f257b4d021a6b4cd73d5509ae1f187", "is_disabled": 0, "is_reserved": 0}, {"rental_uris": {"ios": "https://dc.lft.to/lastmile_qr_scan", "android": "https://dc.lft.to/lastmile_qr_scan"}, "lon": -77.04607716666666, "type": "electric_scooter", "fusion_lat": 0.0, "lat": 38.91380183333333, "name": "071724ce6b5d456db82d733290430809", "fusion_lon": 0.0, "bike_id": "071724ce6b5d456db82d733290430809", "is_disabled": 0, "is_reserved": 0}, {"rental_uris": {"ios": "https://dc.lft.to/lastmile_qr_scan", "android": "https://dc.lft.to/lastmile_qr_scan"}, "lon": -77.03281283333334, "type": "electric_scooter", "fusion_lat": 0.0, "lat": 38.9369145, "name": "a5c81a56e50dbb81ca4913b3aabb0f81", "fusion_lon": 0.0, "bike_id": "a5c81a56e50dbb81ca4913b3aabb0f81", "is_disabled": 0, "is_reserved": 0}, {"rental_uris": {"ios": "https://dc.lft.to/lastmile_qr_scan", "android": "https://dc.lft.to/lastmile_qr_scan"}, "lon": -76.938855, "type": "electric_bike", "fusion_lat": 0.0, "lat": 38.883322166666666, "name": "2cdf2338976e845b1d757295e88c290d", "fusion_lon": 0.0, "bike_id": "2cdf2338976e845b1d757295e88c290d", "is_disabled": 0, "is_reserved": 0}, {"rental_uris": {"ios": "https://dc.lft.to/lastmile_qr_scan", "android": "https://dc.lft.to/lastmile_qr_scan"}, "lon": -77.029879, "type": "electric_scooter", "fusion_lat": 0.0, "lat": 38.956319666666666, "name": "262c4ce98af8d190fe9f25dd4dcdf522", "fusion_lon": 0.0, "bike_id": "262c4ce98af8d190fe9f25dd4dcdf522", "is_disabled": 0, "is_reserved": 0}, {"rental_uris": {"ios": "https://dc.lft.to/lastmile_qr_scan", "android": "https://dc.lft.to/lastmile_qr_scan"}, "lon": -77.0271435, "type": "electric_scooter", "fusion_lat": 0.0, "lat": 38.9095665, "name": "e91884d64f54edd00ed54f6ec51f3ec6", "fusion_lon": 0.0, "bike_id": "e91884d64f54edd00ed54f6ec51f3ec6", "is_disabled": 0, "is_reserved": 0}, {"rental_uris": {"ios": "https://dc.lft.to/lastmile_qr_scan", "android": "https://dc.lft.to/lastmile_qr_scan"}, "lon": -77.04090316666667, "type": "electric_scooter", "fusion_lat": 0.0, "lat": 38.9111955, "name": "4ccde2714d7d421180aaafe5b945752a", "fusion_lon": 0.0, "bike_id": "4ccde2714d7d421180aaafe5b945752a", "is_disabled": 0, "is_reserved": 0}, {"rental_uris": {"ios": "https://dc.lft.to/lastmile_qr_scan", "android": "https://dc.lft.to/lastmile_qr_scan"}, "lon": -77.0317465, "type": "electric_scooter", "fusion_lat": 0.0, "lat": 38.9000615, "name": "03f29b4a2dc17dc1687d5499ef606adc", "fusion_lon": 0.0, "bike_id": "03f29b4a2dc17dc1687d5499ef606adc", "is_disabled": 0, "is_reserved": 0}, {"rental_uris": {"ios": "https://dc.lft.to/lastmile_qr_scan", "android": "https://dc.lft.to/lastmile_qr_scan"}, "lon": -77.02252983333334, "type": "electric_scooter", "fusion_lat": 0.0, "lat": 38.92501933333333, "name": "ee82c0a6600d6957b8572008896fcef7", "fusion_lon": 0.0, "bike_id": "ee82c0a6600d6957b8572008896fcef7", "is_disabled": 0, "is_reserved": 0}, {"rental_uris": {"ios": "https://dc.lft.to/lastmile_qr_scan", "android": "https://dc.lft.to/lastmile_qr_scan"}, "lon": -77.03648766666667, "type": "electric_scooter", "fusion_lat": 0.0, "lat": 38.954952666666664, "name": "680761c2f53ea21e3200b13ce3a91698", "fusion_lon": 0.0, "bike_id": "680761c2f53ea21e3200b13ce3a91698", "is_disabled": 0, "is_reserved": 0}, {"rental_uris": {"ios": "https://dc.lft.to/lastmile_qr_scan", "android": "https://dc.lft.to/lastmile_qr_scan"}, "lon": -77.0281885, "type": "electric_scooter", "fusion_lat": 0.0, "lat": 38.9237225, "name": "b9af330b85acc855b026858634b64788", "fusion_lon": 0.0, "bike_id": "b9af330b85acc855b026858634b64788", "is_disabled": 0, "is_reserved": 0}, {"rental_uris": {"ios": "https://dc.lft.to/lastmile_qr_scan", "android": "https://dc.lft.to/lastmile_qr_scan"}, "lon": -77.028465, "type": "electric_scooter", "fusion_lat": 0.0, "lat": 38.93253766666667, "name": "6ac02c1420d561040d6772468eba1b98", "fusion_lon": 0.0, "bike_id": "6ac02c1420d561040d6772468eba1b98", "is_disabled": 0, "is_reserved": 0}, {"rental_uris": {"ios": "https://dc.lft.to/lastmile_qr_scan", "android": "https://dc.lft.to/lastmile_qr_scan"}, "lon": -77.05849616666667, "type": "electric_scooter", "fusion_lat": 0.0, "lat": 38.93428266666667, "name": "1c06d55c1401b97427c4db00eb7b199e", "fusion_lon": 0.0, "bike_id": "1c06d55c1401b97427c4db00eb7b199e", "is_disabled": 0, "is_reserved": 0}, {"rental_uris": {"ios": "https://dc.lft.to/lastmile_qr_scan", "android": "https://dc.lft.to/lastmile_qr_scan"}, "lon": -77.03312133333333, "type": "electric_scooter", "fusion_lat": 0.0, "lat": 38.909732166666664, "name": "a7a2afa3baac1b27bf25a6e4b53bedec", "fusion_lon": 0.0, "bike_id": "a7a2afa3baac1b27bf25a6e4b53bedec", "is_disabled": 0, "is_reserved": 0}, {"rental_uris": {"ios": "https://dc.lft.to/lastmile_qr_scan", "android": "https://dc.lft.to/lastmile_qr_scan"}, "lon": -76.94716933333333, "type": "electric_scooter", "fusion_lat": 0.0, "lat": 38.897405166666665, "name": "2664b53659fdba6913e1f7ba0476c108", "fusion_lon": 0.0, "bike_id": "2664b53659fdba6913e1f7ba0476c108", "is_disabled": 0, "is_reserved": 0}, {"rental_uris": {"ios": "https://dc.lft.to/lastmile_qr_scan", "android": "https://dc.lft.to/lastmile_qr_scan"}, "lon": -77.01407233333333, "type": "electric_scooter", "fusion_lat": 0.0, "lat": 38.92856483333333, "name": "63ba6315f17756b46162bbb69df69964", "fusion_lon": 0.0, "bike_id": "63ba6315f17756b46162bbb69df69964", "is_disabled": 0, "is_reserved": 0}, {"rental_uris": {"ios": "https://dc.lft.to/lastmile_qr_scan", "android": "https://dc.lft.to/lastmile_qr_scan"}, "lon": -77.02809216666667, "type": "electric_scooter", "fusion_lat": 0.0, "lat": 38.881805166666666, "name": "58929b8a41de2b088168cf4ee5c93055", "fusion_lon": 0.0, "bike_id": "58929b8a41de2b088168cf4ee5c93055", "is_disabled": 0, "is_reserved": 0}, {"rental_uris": {"ios": "https://dc.lft.to/lastmile_qr_scan", "android": "https://dc.lft.to/lastmile_qr_scan"}, "lon": -77.03404066666667, "type": "electric_scooter", "fusion_lat": 0.0, "lat": 38.92272616666666, "name": "e272ee9587584b35e82275c561810e5b", "fusion_lon": 0.0, "bike_id": "e272ee9587584b35e82275c561810e5b", "is_disabled": 0, "is_reserved": 0}, {"rental_uris": {"ios": "https://dc.lft.to/lastmile_qr_scan", "android": "https://dc.lft.to/lastmile_qr_scan"}, "lon": -77.02592116666666, "type": "electric_scooter", "fusion_lat": 0.0, "lat": 38.906121166666665, "name": "6763dcc4ee5aaadc556d1b014cfb7d4d", "fusion_lon": 0.0, "bike_id": "6763dcc4ee5aaadc556d1b014cfb7d4d", "is_disabled": 0, "is_reserved": 0}, {"rental_uris": {"ios": "https://dc.lft.to/lastmile_qr_scan", "android": "https://dc.lft.to/lastmile_qr_scan"}, "lon": -77.02763383333334, "type": "electric_scooter", "fusion_lat": 0.0, "lat": 38.894792333333335, "name": "47a78b1b3d70b0ef2882cc94b0746f89", "fusion_lon": 0.0, "bike_id": "47a78b1b3d70b0ef2882cc94b0746f89", "is_disabled": 0, "is_reserved": 0}, {"rental_uris": {"ios": "https://dc.lft.to/lastmile_qr_scan", "android": "https://dc.lft.to/lastmile_qr_scan"}, "lon": -76.98712783333333, "type": "electric_scooter", "fusion_lat": 0.0, "lat": 38.86260733333334, "name": "732be071ff1b8b2eb21d4a6c975bb0e8", "fusion_lon": 0.0, "bike_id": "732be071ff1b8b2eb21d4a6c975bb0e8", "is_disabled": 0, "is_reserved": 0}, {"rental_uris": {"ios": "https://dc.lft.to/lastmile_qr_scan", "android": "https://dc.lft.to/lastmile_qr_scan"}, "lon": -77.04611516666667, "type": "electric_scooter", "fusion_lat": 0.0, "lat": 38.9223195, "name": "03bbbc9206650556ae94a148cddb2650", "fusion_lon": 0.0, "bike_id": "03bbbc9206650556ae94a148cddb2650", "is_disabled": 0, "is_reserved": 0}, {"rental_uris": {"ios": "https://dc.lft.to/lastmile_qr_scan", "android": "https://dc.lft.to/lastmile_qr_scan"}, "lon": -77.03774566666667, "type": "electric_scooter", "fusion_lat": 0.0, "lat": 38.92213066666667, "name": "4b3e3d6c4b09c3448fefba235e15154e", "fusion_lon": 0.0, "bike_id": "4b3e3d6c4b09c3448fefba235e15154e", "is_disabled": 0, "is_reserved": 0}, {"rental_uris": {"ios": "https://dc.lft.to/lastmile_qr_scan", "android": "https://dc.lft.to/lastmile_qr_scan"}, "lon": -77.031744, "type": "electric_scooter", "fusion_lat": 0.0, "lat": 38.914178166666666, "name": "c6b45962a8ce4c1aee18aa30dfd312bd", "fusion_lon": 0.0, "bike_id": "c6b45962a8ce4c1aee18aa30dfd312bd", "is_disabled": 0, "is_reserved": 0}, {"rental_uris": {"ios": "https://dc.lft.to/lastmile_qr_scan", "android": "https://dc.lft.to/lastmile_qr_scan"}, "lon": -77.01759216666666, "type": "electric_scooter", "fusion_lat": 0.0, "lat": 38.902672, "name": "260793c1760852c90ec724f8496573d3", "fusion_lon": 0.0, "bike_id": "260793c1760852c90ec724f8496573d3", "is_disabled": 0, "is_reserved": 0}, {"rental_uris": {"ios": "https://dc.lft.to/lastmile_qr_scan", "android": "https://dc.lft.to/lastmile_qr_scan"}, "lon": -77.0384715, "type": "electric_scooter", "fusion_lat": 0.0, "lat": 38.91013233333334, "name": "1a79499e8fee10a5621ed4bc843c9841", "fusion_lon": 0.0, "bike_id": "1a79499e8fee10a5621ed4bc843c9841", "is_disabled": 0, "is_reserved": 0}, {"rental_uris": {"ios": "https://dc.lft.to/lastmile_qr_scan", "android": "https://dc.lft.to/lastmile_qr_scan"}, "lon": -77.0334555, "type": "electric_scooter", "fusion_lat": 0.0, "lat": 38.898398666666665, "name": "bf958c043ff58dfd92c9074e6806a733", "fusion_lon": 0.0, "bike_id": "bf958c043ff58dfd92c9074e6806a733", "is_disabled": 0, "is_reserved": 0}, {"rental_uris": {"ios": "https://dc.lft.to/lastmile_qr_scan", "android": "https://dc.lft.to/lastmile_qr_scan"}, "lon": -77.00332666666667, "type": "electric_scooter", "fusion_lat": 0.0, "lat": 38.89359133333333, "name": "afbe8ebceb731470280b2dade2bbd0f3", "fusion_lon": 0.0, "bike_id": "afbe8ebceb731470280b2dade2bbd0f3", "is_disabled": 0, "is_reserved": 0}, {"rental_uris": {"ios": "https://dc.lft.to/lastmile_qr_scan", "android": "https://dc.lft.to/lastmile_qr_scan"}, "lon": -76.9968485, "type": "electric_scooter", "fusion_lat": 0.0, "lat": 38.90832233333333, "name": "705c63ca30c414b80ed2b94aed7d91c1", "fusion_lon": 0.0, "bike_id": "705c63ca30c414b80ed2b94aed7d91c1", "is_disabled": 0, "is_reserved": 0}, {"rental_uris": {"ios": "https://dc.lft.to/lastmile_qr_scan", "android": "https://dc.lft.to/lastmile_qr_scan"}, "lon": -77.04673683333333, "type": "electric_scooter", "fusion_lat": 0.0, "lat": 38.921405, "name": "10b3c45d7ce61405adefcedfe87cf2f9", "fusion_lon": 0.0, "bike_id": "10b3c45d7ce61405adefcedfe87cf2f9", "is_disabled": 0, "is_reserved": 0}, {"rental_uris": {"ios": "https://dc.lft.to/lastmile_qr_scan", "android": "https://dc.lft.to/lastmile_qr_scan"}, "lon": -77.03939933333334, "type": "electric_scooter", "fusion_lat": 0.0, "lat": 38.90825016666667, "name": "71b06d60fbd8b2baece2e2107634a730", "fusion_lon": 0.0, "bike_id": "71b06d60fbd8b2baece2e2107634a730", "is_disabled": 0, "is_reserved": 0}, {"rental_uris": {"ios": "https://dc.lft.to/lastmile_qr_scan", "android": "https://dc.lft.to/lastmile_qr_scan"}, "lon": -76.946642, "type": "electric_scooter", "fusion_lat": 0.0, "lat": 38.89871566666667, "name": "5302629765c6726782e56a3f1b058017", "fusion_lon": 0.0, "bike_id": "5302629765c6726782e56a3f1b058017", "is_disabled": 0, "is_reserved": 0}, {"rental_uris": {"ios": "https://dc.lft.to/lastmile_qr_scan", "android": "https://dc.lft.to/lastmile_qr_scan"}, "lon": -77.02099266666667, "type": "electric_scooter", "fusion_lat": 0.0, "lat": 38.93451616666667, "name": "819937ae1ce20f09a898c73253125b81", "fusion_lon": 0.0, "bike_id": "819937ae1ce20f09a898c73253125b81", "is_disabled": 0, "is_reserved": 0}, {"rental_uris": {"ios": "https://dc.lft.to/lastmile_qr_scan", "android": "https://dc.lft.to/lastmile_qr_scan"}, "lon": -77.02603266666667, "type": "electric_scooter", "fusion_lat": 0.0, "lat": 38.896381833333336, "name": "a4c30e878f8d5af5ee893ac6068fc3d7", "fusion_lon": 0.0, "bike_id": "a4c30e878f8d5af5ee893ac6068fc3d7", "is_disabled": 0, "is_reserved": 0}, {"rental_uris": {"ios": "https://dc.lft.to/lastmile_qr_scan", "android": "https://dc.lft.to/lastmile_qr_scan"}, "lon": -77.02497383333333, "type": "electric_scooter", "fusion_lat": 0.0, "lat": 38.9180535, "name": "621dd079e912dfe99683909dcb942bfa", "fusion_lon": 0.0, "bike_id": "621dd079e912dfe99683909dcb942bfa", "is_disabled": 0, "is_reserved": 0}, {"rental_uris": {"ios": "https://dc.lft.to/lastmile_qr_scan", "android": "https://dc.lft.to/lastmile_qr_scan"}, "lon": -77.03302666666667, "type": "electric_scooter", "fusion_lat": 0.0, "lat": 38.90971916666667, "name": "f85eb18e9c84a3ff19dc5928c468c8fc", "fusion_lon": 0.0, "bike_id": "f85eb18e9c84a3ff19dc5928c468c8fc", "is_disabled": 0, "is_reserved": 0}, {"rental_uris": {"ios": "https://dc.lft.to/lastmile_qr_scan", "android": "https://dc.lft.to/lastmile_qr_scan"}, "lon": -77.03249766666667, "type": "electric_scooter", "fusion_lat": 0.0, "lat": 38.959362666666664, "name": "f5fe1c0b8e49b19e61ec807d92b7e103", "fusion_lon": 0.0, "bike_id": "f5fe1c0b8e49b19e61ec807d92b7e103", "is_disabled": 0, "is_reserved": 0}, {"rental_uris": {"ios": "https://dc.lft.to/lastmile_qr_scan", "android": "https://dc.lft.to/lastmile_qr_scan"}, "lon": -77.04259683333333, "type": "electric_scooter", "fusion_lat": 0.0, "lat": 38.917049666666664, "name": "f494ab90e0e08d90c789b4bc0601664e", "fusion_lon": 0.0, "bike_id": "f494ab90e0e08d90c789b4bc0601664e", "is_disabled": 0, "is_reserved": 0}, {"rental_uris": {"ios": "https://dc.lft.to/lastmile_qr_scan", "android": "https://dc.lft.to/lastmile_qr_scan"}, "lon": -77.03264316666667, "type": "electric_scooter", "fusion_lat": 0.0, "lat": 38.938220333333334, "name": "0419da4a2ba93490dcd0d77346c3cbd7", "fusion_lon": 0.0, "bike_id": "0419da4a2ba93490dcd0d77346c3cbd7", "is_disabled": 0, "is_reserved": 0}, {"rental_uris": {"ios": "https://dc.lft.to/lastmile_qr_scan", "android": "https://dc.lft.to/lastmile_qr_scan"}, "lon": -77.028354, "type": "electric_scooter", "fusion_lat": 0.0, "lat": 38.8876985, "name": "99e80857c35dfee114c29480e580e810", "fusion_lon": 0.0, "bike_id": "99e80857c35dfee114c29480e580e810", "is_disabled": 0, "is_reserved": 0}, {"rental_uris": {"ios": "https://dc.lft.to/lastmile_qr_scan", "android": "https://dc.lft.to/lastmile_qr_scan"}, "lon": -77.01436033333333, "type": "electric_scooter", "fusion_lat": 0.0, "lat": 38.929974, "name": "5497e922fc1e0a2ebadafcd2973bfb28", "fusion_lon": 0.0, "bike_id": "5497e922fc1e0a2ebadafcd2973bfb28", "is_disabled": 0, "is_reserved": 0}, {"rental_uris": {"ios": "https://dc.lft.to/lastmile_qr_scan", "android": "https://dc.lft.to/lastmile_qr_scan"}, "lon": -77.03831616666666, "type": "electric_scooter", "fusion_lat": 0.0, "lat": 38.902454, "name": "e54f83a4d26b2e1e2930f54084bb1448", "fusion_lon": 0.0, "bike_id": "e54f83a4d26b2e1e2930f54084bb1448", "is_disabled": 0, "is_reserved": 0}, {"rental_uris": {"ios": "https://dc.lft.to/lastmile_qr_scan", "android": "https://dc.lft.to/lastmile_qr_scan"}, "lon": -77.05635033333333, "type": "electric_scooter", "fusion_lat": 0.0, "lat": 38.92438416666667, "name": "638964d3f621b8e759fb92aee44ed496", "fusion_lon": 0.0, "bike_id": "638964d3f621b8e759fb92aee44ed496", "is_disabled": 0, "is_reserved": 0}, {"rental_uris": {"ios": "https://dc.lft.to/lastmile_qr_scan", "android": "https://dc.lft.to/lastmile_qr_scan"}, "lon": -77.01586433333334, "type": "electric_scooter", "fusion_lat": 0.0, "lat": 38.95712416666667, "name": "35ca9f3e68b95b187051209117c1e2bb", "fusion_lon": 0.0, "bike_id": "35ca9f3e68b95b187051209117c1e2bb", "is_disabled": 0, "is_reserved": 0}, {"rental_uris": {"ios": "https://dc.lft.to/lastmile_qr_scan", "android": "https://dc.lft.to/lastmile_qr_scan"}, "lon": -77.029454, "type": "electric_scooter", "fusion_lat": 0.0, "lat": 38.8975095, "name": "c7567e89e2ae05d3ddbb21cf2642dac7", "fusion_lon": 0.0, "bike_id": "c7567e89e2ae05d3ddbb21cf2642dac7", "is_disabled": 0, "is_reserved": 0}, {"rental_uris": {"ios": "https://dc.lft.to/lastmile_qr_scan", "android": "https://dc.lft.to/lastmile_qr_scan"}, "lon": -77.03509266666667, "type": "electric_scooter", "fusion_lat": 0.0, "lat": 38.9215095, "name": "ded7a03fb89862e668f55e39db52f6dd", "fusion_lon": 0.0, "bike_id": "ded7a03fb89862e668f55e39db52f6dd", "is_disabled": 0, "is_reserved": 0}, {"rental_uris": {"ios": "https://dc.lft.to/lastmile_qr_scan", "android": "https://dc.lft.to/lastmile_qr_scan"}, "lon": -77.0321915, "type": "electric_scooter", "fusion_lat": 0.0, "lat": 38.91811, "name": "2ff3b24e3faba8dbd62d1a176afdd6d2", "fusion_lon": 0.0, "bike_id": "2ff3b24e3faba8dbd62d1a176afdd6d2", "is_disabled": 0, "is_reserved": 0}, {"rental_uris": {"ios": "https://dc.lft.to/lastmile_qr_scan", "android": "https://dc.lft.to/lastmile_qr_scan"}, "lon": -77.09209633333333, "type": "electric_scooter", "fusion_lat": 0.0, "lat": 38.91702216666667, "name": "ad9b6043a666536aea9c76551e41d3e6", "fusion_lon": 0.0, "bike_id": "ad9b6043a666536aea9c76551e41d3e6", "is_disabled": 0, "is_reserved": 0}, {"rental_uris": {"ios": "https://dc.lft.to/lastmile_qr_scan", "android": "https://dc.lft.to/lastmile_qr_scan"}, "lon": -77.02231166666667, "type": "electric_scooter", "fusion_lat": 0.0, "lat": 38.91115533333333, "name": "9e16038bae87de21e4206a0add8092cd", "fusion_lon": 0.0, "bike_id": "9e16038bae87de21e4206a0add8092cd", "is_disabled": 0, "is_reserved": 0}, {"rental_uris": {"ios": "https://dc.lft.to/lastmile_qr_scan", "android": "https://dc.lft.to/lastmile_qr_scan"}, "lon": -77.03448016666667, "type": "electric_scooter", "fusion_lat": 0.0, "lat": 38.91845883333333, "name": "05c48da224f026ddc0f43bd7a09194c6", "fusion_lon": 0.0, "bike_id": "05c48da224f026ddc0f43bd7a09194c6", "is_disabled": 0, "is_reserved": 0}, {"rental_uris": {"ios": "https://dc.lft.to/lastmile_qr_scan", "android": "https://dc.lft.to/lastmile_qr_scan"}, "lon": -77.0554035, "type": "electric_scooter", "fusion_lat": 0.0, "lat": 38.89894616666667, "name": "f032e801018dabf80ddc29260f90e7b4", "fusion_lon": 0.0, "bike_id": "f032e801018dabf80ddc29260f90e7b4", "is_disabled": 0, "is_reserved": 0}, {"rental_uris": {"ios": "https://dc.lft.to/lastmile_qr_scan", "android": "https://dc.lft.to/lastmile_qr_scan"}, "lon": -77.05758733333333, "type": "electric_bike", "fusion_lat": 0.0, "lat": 38.92496783333333, "name": "091af0f1525d65b9902ecbf1760f3507", "fusion_lon": 0.0, "bike_id": "091af0f1525d65b9902ecbf1760f3507", "is_disabled": 0, "is_reserved": 0}, {"rental_uris": {"ios": "https://dc.lft.to/lastmile_qr_scan", "android": "https://dc.lft.to/lastmile_qr_scan"}, "lon": -77.10731316666667, "type": "electric_bike", "fusion_lat": 0.0, "lat": 38.855666, "name": "9399d5ef87d8c41db0ca857fc646b058", "fusion_lon": 0.0, "bike_id": "9399d5ef87d8c41db0ca857fc646b058", "is_disabled": 0, "is_reserved": 0}, {"rental_uris": {"ios": "https://dc.lft.to/lastmile_qr_scan", "android": "https://dc.lft.to/lastmile_qr_scan"}, "lon": -77.0214745, "type": "electric_bike", "fusion_lat": 0.0, "lat": 38.948054166666665, "name": "9ff214267980e164853d7bdad208cfe1", "fusion_lon": 0.0, "bike_id": "9ff214267980e164853d7bdad208cfe1", "is_disabled": 0, "is_reserved": 0}, {"rental_uris": {"ios": "https://dc.lft.to/lastmile_qr_scan", "android": "https://dc.lft.to/lastmile_qr_scan"}, "lon": -77.03787783333334, "type": "electric_scooter", "fusion_lat": 0.0, "lat": 38.926374333333335, "name": "24dd034dbf5b0502e72ad4055091e454", "fusion_lon": 0.0, "bike_id": "24dd034dbf5b0502e72ad4055091e454", "is_disabled": 0, "is_reserved": 0}, {"rental_uris": {"ios": "https://dc.lft.to/lastmile_qr_scan", "android": "https://dc.lft.to/lastmile_qr_scan"}, "lon": -76.87821416666667, "type": "electric_bike", "fusion_lat": 0.0, "lat": 38.99235783333334, "name": "f107f0cb5450795a6bb44fed0cb34a04", "fusion_lon": 0.0, "bike_id": "f107f0cb5450795a6bb44fed0cb34a04", "is_disabled": 0, "is_reserved": 0}, {"rental_uris": {"ios": "https://dc.lft.to/lastmile_qr_scan", "android": "https://dc.lft.to/lastmile_qr_scan"}, "lon": -76.977454, "type": "electric_scooter", "fusion_lat": 0.0, "lat": 38.90012733333333, "name": "d5dcdd52fdedc53073671940b2808c22", "fusion_lon": 0.0, "bike_id": "d5dcdd52fdedc53073671940b2808c22", "is_disabled": 0, "is_reserved": 0}, {"rental_uris": {"ios": "https://dc.lft.to/lastmile_qr_scan", "android": "https://dc.lft.to/lastmile_qr_scan"}, "lon": -77.03315233333333, "type": "electric_scooter", "fusion_lat": 0.0, "lat": 38.91420866666667, "name": "c59fa039a3c0cfd5ee5a462bca29901d", "fusion_lon": 0.0, "bike_id": "c59fa039a3c0cfd5ee5a462bca29901d", "is_disabled": 0, "is_reserved": 0}, {"rental_uris": {"ios": "https://dc.lft.to/lastmile_qr_scan", "android": "https://dc.lft.to/lastmile_qr_scan"}, "lon": -76.981764, "type": "electric_scooter", "fusion_lat": 0.0, "lat": 38.900436, "name": "bf13e38b6f3c360fcd31cfac2f55aed0", "fusion_lon": 0.0, "bike_id": "bf13e38b6f3c360fcd31cfac2f55aed0", "is_disabled": 0, "is_reserved": 0}, {"rental_uris": {"ios": "https://dc.lft.to/lastmile_qr_scan", "android": "https://dc.lft.to/lastmile_qr_scan"}, "lon": -76.94875033333334, "type": "electric_bike", "fusion_lat": 0.0, "lat": 38.889605, "name": "81a8094b4a5671d09c2758ddb5322d3a", "fusion_lon": 0.0, "bike_id": "81a8094b4a5671d09c2758ddb5322d3a", "is_disabled": 0, "is_reserved": 0}, {"rental_uris": {"ios": "https://dc.lft.to/lastmile_qr_scan", "android": "https://dc.lft.to/lastmile_qr_scan"}, "lon": -77.029751, "type": "electric_scooter", "fusion_lat": 0.0, "lat": 38.907746, "name": "a79f21d9ec1f05508f67a2568372f5c8", "fusion_lon": 0.0, "bike_id": "a79f21d9ec1f05508f67a2568372f5c8", "is_disabled": 0, "is_reserved": 0}, {"rental_uris": {"ios": "https://dc.lft.to/lastmile_qr_scan", "android": "https://dc.lft.to/lastmile_qr_scan"}, "lon": -76.97819083333333, "type": "electric_scooter", "fusion_lat": 0.0, "lat": 38.89529516666666, "name": "8b45cf1a226ebc2aca17fdf048e1b0e2", "fusion_lon": 0.0, "bike_id": "8b45cf1a226ebc2aca17fdf048e1b0e2", "is_disabled": 0, "is_reserved": 0}, {"rental_uris": {"ios": "https://dc.lft.to/lastmile_qr_scan", "android": "https://dc.lft.to/lastmile_qr_scan"}, "lon": -77.022563, "type": "electric_scooter", "fusion_lat": 0.0, "lat": 38.91265333333333, "name": "3bb09b1c32a916207286c628e3e983a9", "fusion_lon": 0.0, "bike_id": "3bb09b1c32a916207286c628e3e983a9", "is_disabled": 0, "is_reserved": 0}, {"rental_uris": {"ios": "https://dc.lft.to/lastmile_qr_scan", "android": "https://dc.lft.to/lastmile_qr_scan"}, "lon": -76.99021066666667, "type": "electric_scooter", "fusion_lat": 0.0, "lat": 38.85867733333333, "name": "cc67a43b2b1aa4f2cd0b979e5c6200e7", "fusion_lon": 0.0, "bike_id": "cc67a43b2b1aa4f2cd0b979e5c6200e7", "is_disabled": 0, "is_reserved": 0}, {"rental_uris": {"ios": "https://dc.lft.to/lastmile_qr_scan", "android": "https://dc.lft.to/lastmile_qr_scan"}, "lon": -77.037276, "type": "electric_scooter", "fusion_lat": 0.0, "lat": 38.917122166666665, "name": "18ffd7b853045c68c789151112f32dbc", "fusion_lon": 0.0, "bike_id": "18ffd7b853045c68c789151112f32dbc", "is_disabled": 0, "is_reserved": 0}, {"rental_uris": {"ios": "https://dc.lft.to/lastmile_qr_scan", "android": "https://dc.lft.to/lastmile_qr_scan"}, "lon": -77.03170466666667, "type": "electric_scooter", "fusion_lat": 0.0, "lat": 38.901036, "name": "da38eea756f75b5a6636bc7b6b5fba46", "fusion_lon": 0.0, "bike_id": "da38eea756f75b5a6636bc7b6b5fba46", "is_disabled": 0, "is_reserved": 0}, {"rental_uris": {"ios": "https://dc.lft.to/lastmile_qr_scan", "android": "https://dc.lft.to/lastmile_qr_scan"}, "lon": -77.05, "type": "electric_scooter", "fusion_lat": 0.0, "lat": 38.89227833333333, "name": "0bf9fdac79d5e15f14898f98f86953fb", "fusion_lon": 0.0, "bike_id": "0bf9fdac79d5e15f14898f98f86953fb", "is_disabled": 0, "is_reserved": 0}, {"rental_uris": {"ios": "https://dc.lft.to/lastmile_qr_scan", "android": "https://dc.lft.to/lastmile_qr_scan"}, "lon": -77.034831, "type": "electric_scooter", "fusion_lat": 0.0, "lat": 38.91711266666667, "name": "da645ba0f99d1b816abd3f649f75326c", "fusion_lon": 0.0, "bike_id": "da645ba0f99d1b816abd3f649f75326c", "is_disabled": 0, "is_reserved": 0}, {"rental_uris": {"ios": "https://dc.lft.to/lastmile_qr_scan", "android": "https://dc.lft.to/lastmile_qr_scan"}, "lon": -77.02540416666666, "type": "electric_scooter", "fusion_lat": 0.0, "lat": 38.92072916666667, "name": "aa3e059432917dea89f321b7535ceae0", "fusion_lon": 0.0, "bike_id": "aa3e059432917dea89f321b7535ceae0", "is_disabled": 0, "is_reserved": 0}, {"rental_uris": {"ios": "https://dc.lft.to/lastmile_qr_scan", "android": "https://dc.lft.to/lastmile_qr_scan"}, "lon": -77.04851983333333, "type": "electric_scooter", "fusion_lat": 0.0, "lat": 38.91961833333333, "name": "b92d5632361eb2a11b092bd8d60cd6d1", "fusion_lon": 0.0, "bike_id": "b92d5632361eb2a11b092bd8d60cd6d1", "is_disabled": 0, "is_reserved": 0}, {"rental_uris": {"ios": "https://dc.lft.to/lastmile_qr_scan", "android": "https://dc.lft.to/lastmile_qr_scan"}, "lon": -77.0385995, "type": "electric_scooter", "fusion_lat": 0.0, "lat": 38.90812, "name": "3dbaa6122ac258017bdd373dd24a89ce", "fusion_lon": 0.0, "bike_id": "3dbaa6122ac258017bdd373dd24a89ce", "is_disabled": 0, "is_reserved": 0}, {"rental_uris": {"ios": "https://dc.lft.to/lastmile_qr_scan", "android": "https://dc.lft.to/lastmile_qr_scan"}, "lon": -77.02528533333333, "type": "electric_scooter", "fusion_lat": 0.0, "lat": 38.89223766666667, "name": "6bfd6407d6b5f016a59468593d06ecde", "fusion_lon": 0.0, "bike_id": "6bfd6407d6b5f016a59468593d06ecde", "is_disabled": 0, "is_reserved": 0}, {"rental_uris": {"ios": "https://dc.lft.to/lastmile_qr_scan", "android": "https://dc.lft.to/lastmile_qr_scan"}, "lon": -77.01864016666667, "type": "electric_scooter", "fusion_lat": 0.0, "lat": 38.89263033333334, "name": "bf857548f2996b8cf9be5c23017858ba", "fusion_lon": 0.0, "bike_id": "bf857548f2996b8cf9be5c23017858ba", "is_disabled": 0, "is_reserved": 0}, {"rental_uris": {"ios": "https://dc.lft.to/lastmile_qr_scan", "android": "https://dc.lft.to/lastmile_qr_scan"}, "lon": -76.99179133333334, "type": "electric_scooter", "fusion_lat": 0.0, "lat": 38.905078333333336, "name": "39ba30e45c44e7840d194493cdb4ad10", "fusion_lon": 0.0, "bike_id": "39ba30e45c44e7840d194493cdb4ad10", "is_disabled": 0, "is_reserved": 0}, {"rental_uris": {"ios": "https://dc.lft.to/lastmile_qr_scan", "android": "https://dc.lft.to/lastmile_qr_scan"}, "lon": -77.0433625, "type": "electric_scooter", "fusion_lat": 0.0, "lat": 38.90373916666667, "name": "243b6cfc2bc311946bb07015f67ecab8", "fusion_lon": 0.0, "bike_id": "243b6cfc2bc311946bb07015f67ecab8", "is_disabled": 0, "is_reserved": 0}, {"rental_uris": {"ios": "https://dc.lft.to/lastmile_qr_scan", "android": "https://dc.lft.to/lastmile_qr_scan"}, "lon": -77.03658783333333, "type": "electric_scooter", "fusion_lat": 0.0, "lat": 38.9307265, "name": "25206dee9313fae7740960ed33319949", "fusion_lon": 0.0, "bike_id": "25206dee9313fae7740960ed33319949", "is_disabled": 0, "is_reserved": 0}, {"rental_uris": {"ios": "https://dc.lft.to/lastmile_qr_scan", "android": "https://dc.lft.to/lastmile_qr_scan"}, "lon": -77.02342316666666, "type": "electric_scooter", "fusion_lat": 0.0, "lat": 38.9620815, "name": "8b9a94728859c043028cd0bc44271d3e", "fusion_lon": 0.0, "bike_id": "8b9a94728859c043028cd0bc44271d3e", "is_disabled": 0, "is_reserved": 0}, {"rental_uris": {"ios": "https://dc.lft.to/lastmile_qr_scan", "android": "https://dc.lft.to/lastmile_qr_scan"}, "lon": -77.0228625, "type": "electric_scooter", "fusion_lat": 0.0, "lat": 38.91688466666667, "name": "58091c398ff23660ee30989b357c3638", "fusion_lon": 0.0, "bike_id": "58091c398ff23660ee30989b357c3638", "is_disabled": 0, "is_reserved": 0}, {"rental_uris": {"ios": "https://dc.lft.to/lastmile_qr_scan", "android": "https://dc.lft.to/lastmile_qr_scan"}, "lon": -77.026069, "type": "electric_scooter", "fusion_lat": 0.0, "lat": 38.903487166666665, "name": "6659985700a44c23a7449bd5cbcf8ea1", "fusion_lon": 0.0, "bike_id": "6659985700a44c23a7449bd5cbcf8ea1", "is_disabled": 0, "is_reserved": 0}, {"rental_uris": {"ios": "https://dc.lft.to/lastmile_qr_scan", "android": "https://dc.lft.to/lastmile_qr_scan"}, "lon": -77.0439015, "type": "electric_scooter", "fusion_lat": 0.0, "lat": 38.92940933333333, "name": "5fc3881cc0c7507f4f96f5f96cc6b15b", "fusion_lon": 0.0, "bike_id": "5fc3881cc0c7507f4f96f5f96cc6b15b", "is_disabled": 0, "is_reserved": 0}, {"rental_uris": {"ios": "https://dc.lft.to/lastmile_qr_scan", "android": "https://dc.lft.to/lastmile_qr_scan"}, "lon": -77.02195533333334, "type": "electric_scooter", "fusion_lat": 0.0, "lat": 38.91137483333333, "name": "8601787b1a5c0dbd48a76c94f40f730f", "fusion_lon": 0.0, "bike_id": "8601787b1a5c0dbd48a76c94f40f730f", "is_disabled": 0, "is_reserved": 0}, {"rental_uris": {"ios": "https://dc.lft.to/lastmile_qr_scan", "android": "https://dc.lft.to/lastmile_qr_scan"}, "lon": -77.004383, "type": "electric_scooter", "fusion_lat": 0.0, "lat": 38.8764385, "name": "153820e1491f00d9a567bca7499f84d8", "fusion_lon": 0.0, "bike_id": "153820e1491f00d9a567bca7499f84d8", "is_disabled": 0, "is_reserved": 0}, {"rental_uris": {"ios": "https://dc.lft.to/lastmile_qr_scan", "android": "https://dc.lft.to/lastmile_qr_scan"}, "lon": -77.00589483333333, "type": "electric_scooter", "fusion_lat": 0.0, "lat": 38.91566183333333, "name": "b894b959200c7a320e47bbd8628b82a0", "fusion_lon": 0.0, "bike_id": "b894b959200c7a320e47bbd8628b82a0", "is_disabled": 0, "is_reserved": 0}, {"rental_uris": {"ios": "https://dc.lft.to/lastmile_qr_scan", "android": "https://dc.lft.to/lastmile_qr_scan"}, "lon": -77.04234366666667, "type": "electric_scooter", "fusion_lat": 0.0, "lat": 38.90756483333333, "name": "d9844ee0e4b33fee77ebe8fed87a45fc", "fusion_lon": 0.0, "bike_id": "d9844ee0e4b33fee77ebe8fed87a45fc", "is_disabled": 0, "is_reserved": 0}, {"rental_uris": {"ios": "https://dc.lft.to/lastmile_qr_scan", "android": "https://dc.lft.to/lastmile_qr_scan"}, "lon": -77.12500233333333, "type": "electric_bike", "fusion_lat": 0.0, "lat": 39.02419833333333, "name": "279248dcfc5bb0a8a15c99ae30370fd7", "fusion_lon": 0.0, "bike_id": "279248dcfc5bb0a8a15c99ae30370fd7", "is_disabled": 0, "is_reserved": 0}, {"rental_uris": {"ios": "https://dc.lft.to/lastmile_qr_scan", "android": "https://dc.lft.to/lastmile_qr_scan"}, "lon": -77.0249, "type": "electric_scooter", "fusion_lat": 0.0, "lat": 38.9057355, "name": "d4dfcb6adfab7d9b885456fc5a51a0a8", "fusion_lon": 0.0, "bike_id": "d4dfcb6adfab7d9b885456fc5a51a0a8", "is_disabled": 0, "is_reserved": 0}, {"rental_uris": {"ios": "https://dc.lft.to/lastmile_qr_scan", "android": "https://dc.lft.to/lastmile_qr_scan"}, "lon": -77.0390605, "type": "electric_scooter", "fusion_lat": 0.0, "lat": 38.923295333333336, "name": "1bc58efbecb757868a685dff039ced22", "fusion_lon": 0.0, "bike_id": "1bc58efbecb757868a685dff039ced22", "is_disabled": 0, "is_reserved": 0}, {"rental_uris": {"ios": "https://dc.lft.to/lastmile_qr_scan", "android": "https://dc.lft.to/lastmile_qr_scan"}, "lon": -77.0296845, "type": "electric_scooter", "fusion_lat": 0.0, "lat": 38.91685533333333, "name": "0d73ebb8b21e4d09b0754e963723b903", "fusion_lon": 0.0, "bike_id": "0d73ebb8b21e4d09b0754e963723b903", "is_disabled": 0, "is_reserved": 0}, {"rental_uris": {"ios": "https://dc.lft.to/lastmile_qr_scan", "android": "https://dc.lft.to/lastmile_qr_scan"}, "lon": -77.022, "type": "electric_scooter", "fusion_lat": 0.0, "lat": 38.89628866666666, "name": "98758ed327ffb7e687e4c012b7a1939f", "fusion_lon": 0.0, "bike_id": "98758ed327ffb7e687e4c012b7a1939f", "is_disabled": 0, "is_reserved": 0}, {"rental_uris": {"ios": "https://dc.lft.to/lastmile_qr_scan", "android": "https://dc.lft.to/lastmile_qr_scan"}, "lon": -77.01184266666667, "type": "electric_scooter", "fusion_lat": 0.0, "lat": 38.90022966666667, "name": "c45c038e1fb673424a6213d10325da96", "fusion_lon": 0.0, "bike_id": "c45c038e1fb673424a6213d10325da96", "is_disabled": 0, "is_reserved": 0}, {"rental_uris": {"ios": "https://dc.lft.to/lastmile_qr_scan", "android": "https://dc.lft.to/lastmile_qr_scan"}, "lon": -77.02396683333333, "type": "electric_scooter", "fusion_lat": 0.0, "lat": 38.90986516666667, "name": "5cf3405a9c4fcc50d649771275b54202", "fusion_lon": 0.0, "bike_id": "5cf3405a9c4fcc50d649771275b54202", "is_disabled": 0, "is_reserved": 0}, {"rental_uris": {"ios": "https://dc.lft.to/lastmile_qr_scan", "android": "https://dc.lft.to/lastmile_qr_scan"}, "lon": -77.00565566666667, "type": "electric_scooter", "fusion_lat": 0.0, "lat": 38.927243833333335, "name": "5a4b4634e4726ab2545cd56a8bc48e84", "fusion_lon": 0.0, "bike_id": "5a4b4634e4726ab2545cd56a8bc48e84", "is_disabled": 0, "is_reserved": 0}, {"rental_uris": {"ios": "https://dc.lft.to/lastmile_qr_scan", "android": "https://dc.lft.to/lastmile_qr_scan"}, "lon": -77.01388166666666, "type": "electric_scooter", "fusion_lat": 0.0, "lat": 38.919439833333335, "name": "c57e2a5d99c77bcec7600e4b74eb89ba", "fusion_lon": 0.0, "bike_id": "c57e2a5d99c77bcec7600e4b74eb89ba", "is_disabled": 0, "is_reserved": 0}, {"rental_uris": {"ios": "https://dc.lft.to/lastmile_qr_scan", "android": "https://dc.lft.to/lastmile_qr_scan"}, "lon": -77.048082, "type": "electric_scooter", "fusion_lat": 0.0, "lat": 38.897405, "name": "8ce5ca1040283b79c4fd927f0e960164", "fusion_lon": 0.0, "bike_id": "8ce5ca1040283b79c4fd927f0e960164", "is_disabled": 0, "is_reserved": 0}, {"rental_uris": {"ios": "https://dc.lft.to/lastmile_qr_scan", "android": "https://dc.lft.to/lastmile_qr_scan"}, "lon": -77.0246425, "type": "electric_scooter", "fusion_lat": 0.0, "lat": 38.917046166666665, "name": "14b22fa13624a2c3f3904d2a6fda64f5", "fusion_lon": 0.0, "bike_id": "14b22fa13624a2c3f3904d2a6fda64f5", "is_disabled": 0, "is_reserved": 0}, {"rental_uris": {"ios": "https://dc.lft.to/lastmile_qr_scan", "android": "https://dc.lft.to/lastmile_qr_scan"}, "lon": -77.023406, "type": "electric_scooter", "fusion_lat": 0.0, "lat": 38.962093, "name": "7601f7f34fca9d875b6bc81a64199dea", "fusion_lon": 0.0, "bike_id": "7601f7f34fca9d875b6bc81a64199dea", "is_disabled": 0, "is_reserved": 0}, {"rental_uris": {"ios": "https://dc.lft.to/lastmile_qr_scan", "android": "https://dc.lft.to/lastmile_qr_scan"}, "lon": -77.0052685, "type": "electric_scooter", "fusion_lat": 0.0, "lat": 38.929137, "name": "c8b6786d64f58599e1759823c9201b4a", "fusion_lon": 0.0, "bike_id": "c8b6786d64f58599e1759823c9201b4a", "is_disabled": 0, "is_reserved": 0}, {"rental_uris": {"ios": "https://dc.lft.to/lastmile_qr_scan", "android": "https://dc.lft.to/lastmile_qr_scan"}, "lon": -76.99543166666666, "type": "electric_scooter", "fusion_lat": 0.0, "lat": 38.8841925, "name": "ca39598a5029154d17b834af0088facb", "fusion_lon": 0.0, "bike_id": "ca39598a5029154d17b834af0088facb", "is_disabled": 0, "is_reserved": 0}, {"rental_uris": {"ios": "https://dc.lft.to/lastmile_qr_scan", "android": "https://dc.lft.to/lastmile_qr_scan"}, "lon": -77.05314733333333, "type": "electric_scooter", "fusion_lat": 0.0, "lat": 38.92351816666667, "name": "7840fc85f654926d8a388f5701cee7c0", "fusion_lon": 0.0, "bike_id": "7840fc85f654926d8a388f5701cee7c0", "is_disabled": 0, "is_reserved": 0}, {"rental_uris": {"ios": "https://dc.lft.to/lastmile_qr_scan", "android": "https://dc.lft.to/lastmile_qr_scan"}, "lon": -77.03872216666667, "type": "electric_scooter", "fusion_lat": 0.0, "lat": 38.90816233333334, "name": "60a7793601b4e8934c4b8daf645b0c0c", "fusion_lon": 0.0, "bike_id": "60a7793601b4e8934c4b8daf645b0c0c", "is_disabled": 0, "is_reserved": 0}, {"rental_uris": {"ios": "https://dc.lft.to/lastmile_qr_scan", "android": "https://dc.lft.to/lastmile_qr_scan"}, "lon": -77.05728266666667, "type": "electric_scooter", "fusion_lat": 0.0, "lat": 38.93372, "name": "31dd23c2ecbef6c2f116216caeb15965", "fusion_lon": 0.0, "bike_id": "31dd23c2ecbef6c2f116216caeb15965", "is_disabled": 0, "is_reserved": 0}, {"rental_uris": {"ios": "https://dc.lft.to/lastmile_qr_scan", "android": "https://dc.lft.to/lastmile_qr_scan"}, "lon": -77.023944, "type": "electric_scooter", "fusion_lat": 0.0, "lat": 38.93282416666667, "name": "0f55cdf67573676d2918e3fe039fd465", "fusion_lon": 0.0, "bike_id": "0f55cdf67573676d2918e3fe039fd465", "is_disabled": 0, "is_reserved": 0}, {"rental_uris": {"ios": "https://dc.lft.to/lastmile_qr_scan", "android": "https://dc.lft.to/lastmile_qr_scan"}, "lon": -77.02437583333334, "type": "electric_scooter", "fusion_lat": 0.0, "lat": 38.93776283333333, "name": "5d34fd545b648f585a512d4d8d1b4a41", "fusion_lon": 0.0, "bike_id": "5d34fd545b648f585a512d4d8d1b4a41", "is_disabled": 0, "is_reserved": 0}, {"rental_uris": {"ios": "https://dc.lft.to/lastmile_qr_scan", "android": "https://dc.lft.to/lastmile_qr_scan"}, "lon": -77.03209633333333, "type": "electric_scooter", "fusion_lat": 0.0, "lat": 38.90987716666667, "name": "9f8d981c2bbdba37622cc025e2898b41", "fusion_lon": 0.0, "bike_id": "9f8d981c2bbdba37622cc025e2898b41", "is_disabled": 0, "is_reserved": 0}, {"rental_uris": {"ios": "https://dc.lft.to/lastmile_qr_scan", "android": "https://dc.lft.to/lastmile_qr_scan"}, "lon": -77.02720366666667, "type": "electric_scooter", "fusion_lat": 0.0, "lat": 38.918158166666664, "name": "9181fb5a21bc85589cdc3327f823dc16", "fusion_lon": 0.0, "bike_id": "9181fb5a21bc85589cdc3327f823dc16", "is_disabled": 0, "is_reserved": 0}, {"rental_uris": {"ios": "https://dc.lft.to/lastmile_qr_scan", "android": "https://dc.lft.to/lastmile_qr_scan"}, "lon": -76.94853966666666, "type": "electric_scooter", "fusion_lat": 0.0, "lat": 38.883029, "name": "70d2fc6211dda13a2f4ebc7e74d42dbb", "fusion_lon": 0.0, "bike_id": "70d2fc6211dda13a2f4ebc7e74d42dbb", "is_disabled": 0, "is_reserved": 0}, {"rental_uris": {"ios": "https://dc.lft.to/lastmile_qr_scan", "android": "https://dc.lft.to/lastmile_qr_scan"}, "lon": -76.9762715, "type": "electric_bike", "fusion_lat": 0.0, "lat": 38.89285116666667, "name": "c355b9ae17155fa747b89f5b027cf35e", "fusion_lon": 0.0, "bike_id": "c355b9ae17155fa747b89f5b027cf35e", "is_disabled": 0, "is_reserved": 0}, {"rental_uris": {"ios": "https://dc.lft.to/lastmile_qr_scan", "android": "https://dc.lft.to/lastmile_qr_scan"}, "lon": -77.0058765, "type": "electric_scooter", "fusion_lat": 0.0, "lat": 38.906015333333336, "name": "4590eaa083090f69f9816f81f4630603", "fusion_lon": 0.0, "bike_id": "4590eaa083090f69f9816f81f4630603", "is_disabled": 0, "is_reserved": 0}, {"rental_uris": {"ios": "https://dc.lft.to/lastmile_qr_scan", "android": "https://dc.lft.to/lastmile_qr_scan"}, "lon": -77.0447005, "type": "electric_scooter", "fusion_lat": 0.0, "lat": 38.9032555, "name": "d5cf99e8ffeeb5886ffbfc68358a2655", "fusion_lon": 0.0, "bike_id": "d5cf99e8ffeeb5886ffbfc68358a2655", "is_disabled": 0, "is_reserved": 0}, {"rental_uris": {"ios": "https://dc.lft.to/lastmile_qr_scan", "android": "https://dc.lft.to/lastmile_qr_scan"}, "lon": -77.06388416666667, "type": "electric_scooter", "fusion_lat": 0.0, "lat": 38.929106166666664, "name": "dd1df5ea88417ed96de79858568c87ba", "fusion_lon": 0.0, "bike_id": "dd1df5ea88417ed96de79858568c87ba", "is_disabled": 0, "is_reserved": 0}, {"rental_uris": {"ios": "https://dc.lft.to/lastmile_qr_scan", "android": "https://dc.lft.to/lastmile_qr_scan"}, "lon": -77.042467, "type": "electric_scooter", "fusion_lat": 0.0, "lat": 38.9206265, "name": "670ebc462d939f5b354c4663fc179616", "fusion_lon": 0.0, "bike_id": "670ebc462d939f5b354c4663fc179616", "is_disabled": 0, "is_reserved": 0}, {"rental_uris": {"ios": "https://dc.lft.to/lastmile_qr_scan", "android": "https://dc.lft.to/lastmile_qr_scan"}, "lon": -77.025869, "type": "electric_scooter", "fusion_lat": 0.0, "lat": 38.916504, "name": "af2fc1594a6ff104198dd8f1b8de731f", "fusion_lon": 0.0, "bike_id": "af2fc1594a6ff104198dd8f1b8de731f", "is_disabled": 0, "is_reserved": 0}, {"rental_uris": {"ios": "https://dc.lft.to/lastmile_qr_scan", "android": "https://dc.lft.to/lastmile_qr_scan"}, "lon": -77.00608216666667, "type": "electric_scooter", "fusion_lat": 0.0, "lat": 38.90550266666666, "name": "7f1e569cc7958061ec039260dcaaff43", "fusion_lon": 0.0, "bike_id": "7f1e569cc7958061ec039260dcaaff43", "is_disabled": 0, "is_reserved": 0}, {"rental_uris": {"ios": "https://dc.lft.to/lastmile_qr_scan", "android": "https://dc.lft.to/lastmile_qr_scan"}, "lon": -77.028332, "type": "electric_scooter", "fusion_lat": 0.0, "lat": 38.924784, "name": "370a56f1e091cd50f4d82af3cf445d05", "fusion_lon": 0.0, "bike_id": "370a56f1e091cd50f4d82af3cf445d05", "is_disabled": 0, "is_reserved": 0}, {"rental_uris": {"ios": "https://dc.lft.to/lastmile_qr_scan", "android": "https://dc.lft.to/lastmile_qr_scan"}, "lon": -77.03865066666667, "type": "electric_scooter", "fusion_lat": 0.0, "lat": 38.921555166666664, "name": "7243371d1af0870b13e09de5c6d7ee6b", "fusion_lon": 0.0, "bike_id": "7243371d1af0870b13e09de5c6d7ee6b", "is_disabled": 0, "is_reserved": 0}, {"rental_uris": {"ios": "https://dc.lft.to/lastmile_qr_scan", "android": "https://dc.lft.to/lastmile_qr_scan"}, "lon": -77.02768683333333, "type": "electric_scooter", "fusion_lat": 0.0, "lat": 38.89201033333333, "name": "196bb48c26990b90d183a036d3109549", "fusion_lon": 0.0, "bike_id": "196bb48c26990b90d183a036d3109549", "is_disabled": 0, "is_reserved": 0}, {"rental_uris": {"ios": "https://dc.lft.to/lastmile_qr_scan", "android": "https://dc.lft.to/lastmile_qr_scan"}, "lon": -77.03963216666666, "type": "electric_scooter", "fusion_lat": 0.0, "lat": 38.902654166666665, "name": "b805706f8e599907851c0973d8674516", "fusion_lon": 0.0, "bike_id": "b805706f8e599907851c0973d8674516", "is_disabled": 0, "is_reserved": 0}, {"rental_uris": {"ios": "https://dc.lft.to/lastmile_qr_scan", "android": "https://dc.lft.to/lastmile_qr_scan"}, "lon": -77.034439, "type": "electric_scooter", "fusion_lat": 0.0, "lat": 38.918418, "name": "adc411cfd2e41adadf9cbd592bc6d56a", "fusion_lon": 0.0, "bike_id": "adc411cfd2e41adadf9cbd592bc6d56a", "is_disabled": 0, "is_reserved": 0}, {"rental_uris": {"ios": "https://dc.lft.to/lastmile_qr_scan", "android": "https://dc.lft.to/lastmile_qr_scan"}, "lon": -77.01072633333334, "type": "electric_bike", "fusion_lat": 0.0, "lat": 38.956577333333335, "name": "4a9c87c2df85d62a3787f4ebd54e8f1e", "fusion_lon": 0.0, "bike_id": "4a9c87c2df85d62a3787f4ebd54e8f1e", "is_disabled": 0, "is_reserved": 0}, {"rental_uris": {"ios": "https://dc.lft.to/lastmile_qr_scan", "android": "https://dc.lft.to/lastmile_qr_scan"}, "lon": -76.99271483333334, "type": "electric_scooter", "fusion_lat": 0.0, "lat": 38.89762616666667, "name": "88104d9be417f851bd8f6e00539ec34f", "fusion_lon": 0.0, "bike_id": "88104d9be417f851bd8f6e00539ec34f", "is_disabled": 0, "is_reserved": 0}, {"rental_uris": {"ios": "https://dc.lft.to/lastmile_qr_scan", "android": "https://dc.lft.to/lastmile_qr_scan"}, "lon": -77.00200133333334, "type": "electric_scooter", "fusion_lat": 0.0, "lat": 38.898884833333334, "name": "f6dd27fe427c0d43d96be3dda6075969", "fusion_lon": 0.0, "bike_id": "f6dd27fe427c0d43d96be3dda6075969", "is_disabled": 0, "is_reserved": 0}, {"rental_uris": {"ios": "https://dc.lft.to/lastmile_qr_scan", "android": "https://dc.lft.to/lastmile_qr_scan"}, "lon": -77.01183583333334, "type": "electric_scooter", "fusion_lat": 0.0, "lat": 38.900315, "name": "04869b017e6fa658198129eb75ed5834", "fusion_lon": 0.0, "bike_id": "04869b017e6fa658198129eb75ed5834", "is_disabled": 0, "is_reserved": 0}, {"rental_uris": {"ios": "https://dc.lft.to/lastmile_qr_scan", "android": "https://dc.lft.to/lastmile_qr_scan"}, "lon": -76.99480433333333, "type": "electric_scooter", "fusion_lat": 0.0, "lat": 38.895610833333336, "name": "e9fe21aa8893c81ba41eec7bd8acd501", "fusion_lon": 0.0, "bike_id": "e9fe21aa8893c81ba41eec7bd8acd501", "is_disabled": 0, "is_reserved": 0}, {"rental_uris": {"ios": "https://dc.lft.to/lastmile_qr_scan", "android": "https://dc.lft.to/lastmile_qr_scan"}, "lon": -77.03205733333333, "type": "electric_scooter", "fusion_lat": 0.0, "lat": 38.913112166666664, "name": "78c118ee74d28958c01a9ab29bed5956", "fusion_lon": 0.0, "bike_id": "78c118ee74d28958c01a9ab29bed5956", "is_disabled": 0, "is_reserved": 0}, {"rental_uris": {"ios": "https://dc.lft.to/lastmile_qr_scan", "android": "https://dc.lft.to/lastmile_qr_scan"}, "lon": -77.0192525, "type": "electric_scooter", "fusion_lat": 0.0, "lat": 38.94639316666667, "name": "d04ebf8332d5f8e7cbac245715fd649c", "fusion_lon": 0.0, "bike_id": "d04ebf8332d5f8e7cbac245715fd649c", "is_disabled": 0, "is_reserved": 0}, {"rental_uris": {"ios": "https://dc.lft.to/lastmile_qr_scan", "android": "https://dc.lft.to/lastmile_qr_scan"}, "lon": -76.988587, "type": "electric_scooter", "fusion_lat": 0.0, "lat": 38.9003085, "name": "a9ac2227c1ab444aea4645eaaac58e63", "fusion_lon": 0.0, "bike_id": "a9ac2227c1ab444aea4645eaaac58e63", "is_disabled": 0, "is_reserved": 0}, {"rental_uris": {"ios": "https://dc.lft.to/lastmile_qr_scan", "android": "https://dc.lft.to/lastmile_qr_scan"}, "lon": -77.02529016666666, "type": "electric_scooter", "fusion_lat": 0.0, "lat": 38.9329205, "name": "d4bca9d5d58ed6235c9abc35dfe216ff", "fusion_lon": 0.0, "bike_id": "d4bca9d5d58ed6235c9abc35dfe216ff", "is_disabled": 0, "is_reserved": 0}, {"rental_uris": {"ios": "https://dc.lft.to/lastmile_qr_scan", "android": "https://dc.lft.to/lastmile_qr_scan"}, "lon": -77.04361766666666, "type": "electric_scooter", "fusion_lat": 0.0, "lat": 38.920683833333335, "name": "8f25706e0a63101954ec477edb8d4bf9", "fusion_lon": 0.0, "bike_id": "8f25706e0a63101954ec477edb8d4bf9", "is_disabled": 0, "is_reserved": 0}, {"rental_uris": {"ios": "https://dc.lft.to/lastmile_qr_scan", "android": "https://dc.lft.to/lastmile_qr_scan"}, "lon": -76.97562016666667, "type": "electric_bike", "fusion_lat": 0.0, "lat": 38.87265283333333, "name": "96728de5756275df6f5aacab451e66d0", "fusion_lon": 0.0, "bike_id": "96728de5756275df6f5aacab451e66d0", "is_disabled": 0, "is_reserved": 0}, {"rental_uris": {"ios": "https://dc.lft.to/lastmile_qr_scan", "android": "https://dc.lft.to/lastmile_qr_scan"}, "lon": -77.02400133333333, "type": "electric_scooter", "fusion_lat": 0.0, "lat": 38.90701166666667, "name": "333359403c18ac900d442f16ee9e03f2", "fusion_lon": 0.0, "bike_id": "333359403c18ac900d442f16ee9e03f2", "is_disabled": 0, "is_reserved": 0}, {"rental_uris": {"ios": "https://dc.lft.to/lastmile_qr_scan", "android": "https://dc.lft.to/lastmile_qr_scan"}, "lon": -77.03884333333333, "type": "electric_scooter", "fusion_lat": 0.0, "lat": 38.9025055, "name": "200ed7cd580dd39e5ee000dde002a2c5", "fusion_lon": 0.0, "bike_id": "200ed7cd580dd39e5ee000dde002a2c5", "is_disabled": 0, "is_reserved": 0}, {"rental_uris": {"ios": "https://dc.lft.to/lastmile_qr_scan", "android": "https://dc.lft.to/lastmile_qr_scan"}, "lon": -77.04873833333333, "type": "electric_scooter", "fusion_lat": 0.0, "lat": 38.912373, "name": "588fd4ff94f4c575866d2b44b83b5f24", "fusion_lon": 0.0, "bike_id": "588fd4ff94f4c575866d2b44b83b5f24", "is_disabled": 0, "is_reserved": 0}, {"rental_uris": {"ios": "https://dc.lft.to/lastmile_qr_scan", "android": "https://dc.lft.to/lastmile_qr_scan"}, "lon": -77.01512716666667, "type": "electric_scooter", "fusion_lat": 0.0, "lat": 38.88735233333333, "name": "f8af2a1820ec19f3be12b41e6e80174b", "fusion_lon": 0.0, "bike_id": "f8af2a1820ec19f3be12b41e6e80174b", "is_disabled": 0, "is_reserved": 0}, {"rental_uris": {"ios": "https://dc.lft.to/lastmile_qr_scan", "android": "https://dc.lft.to/lastmile_qr_scan"}, "lon": -77.03083416666666, "type": "electric_scooter", "fusion_lat": 0.0, "lat": 38.909993, "name": "6e1c7114870d8581fc6eea5fe3c70f92", "fusion_lon": 0.0, "bike_id": "6e1c7114870d8581fc6eea5fe3c70f92", "is_disabled": 0, "is_reserved": 0}, {"rental_uris": {"ios": "https://dc.lft.to/lastmile_qr_scan", "android": "https://dc.lft.to/lastmile_qr_scan"}, "lon": -77.03785516666667, "type": "electric_scooter", "fusion_lat": 0.0, "lat": 38.92564633333333, "name": "aa1b400474484026f8b3678980058dbc", "fusion_lon": 0.0, "bike_id": "aa1b400474484026f8b3678980058dbc", "is_disabled": 0, "is_reserved": 0}, {"rental_uris": {"ios": "https://dc.lft.to/lastmile_qr_scan", "android": "https://dc.lft.to/lastmile_qr_scan"}, "lon": -76.904347, "type": "electric_bike", "fusion_lat": 0.0, "lat": 38.89767066666667, "name": "7575828c385242895333ce766c33bdfe", "fusion_lon": 0.0, "bike_id": "7575828c385242895333ce766c33bdfe", "is_disabled": 0, "is_reserved": 0}, {"rental_uris": {"ios": "https://dc.lft.to/lastmile_qr_scan", "android": "https://dc.lft.to/lastmile_qr_scan"}, "lon": -77.03165133333333, "type": "electric_scooter", "fusion_lat": 0.0, "lat": 38.897742, "name": "f3ef95350b66aab2d0c92bb37aa6ee5a", "fusion_lon": 0.0, "bike_id": "f3ef95350b66aab2d0c92bb37aa6ee5a", "is_disabled": 0, "is_reserved": 0}, {"rental_uris": {"ios": "https://dc.lft.to/lastmile_qr_scan", "android": "https://dc.lft.to/lastmile_qr_scan"}, "lon": -77.02002616666667, "type": "electric_scooter", "fusion_lat": 0.0, "lat": 38.904743, "name": "81d2dab4319b394e8f785501aeb94780", "fusion_lon": 0.0, "bike_id": "81d2dab4319b394e8f785501aeb94780", "is_disabled": 0, "is_reserved": 0}, {"rental_uris": {"ios": "https://dc.lft.to/lastmile_qr_scan", "android": "https://dc.lft.to/lastmile_qr_scan"}, "lon": -77.02319466666667, "type": "electric_scooter", "fusion_lat": 0.0, "lat": 38.9295385, "name": "0e4885415674a19a0b8569a84b12f2a5", "fusion_lon": 0.0, "bike_id": "0e4885415674a19a0b8569a84b12f2a5", "is_disabled": 0, "is_reserved": 0}, {"rental_uris": {"ios": "https://dc.lft.to/lastmile_qr_scan", "android": "https://dc.lft.to/lastmile_qr_scan"}, "lon": -77.007274, "type": "electric_scooter", "fusion_lat": 0.0, "lat": 38.88492983333333, "name": "f3479823e4d7185a55dc2742d6e53e9e", "fusion_lon": 0.0, "bike_id": "f3479823e4d7185a55dc2742d6e53e9e", "is_disabled": 0, "is_reserved": 0}, {"rental_uris": {"ios": "https://dc.lft.to/lastmile_qr_scan", "android": "https://dc.lft.to/lastmile_qr_scan"}, "lon": -76.99756533333333, "type": "electric_scooter", "fusion_lat": 0.0, "lat": 38.921872, "name": "06cf5a42185c8e0cfba1473c86b4b286", "fusion_lon": 0.0, "bike_id": "06cf5a42185c8e0cfba1473c86b4b286", "is_disabled": 0, "is_reserved": 0}, {"rental_uris": {"ios": "https://dc.lft.to/lastmile_qr_scan", "android": "https://dc.lft.to/lastmile_qr_scan"}, "lon": -77.03448683333333, "type": "electric_scooter", "fusion_lat": 0.0, "lat": 38.9035025, "name": "efd071f5f95dc17e8204bf2bfa3af24d", "fusion_lon": 0.0, "bike_id": "efd071f5f95dc17e8204bf2bfa3af24d", "is_disabled": 0, "is_reserved": 0}, {"rental_uris": {"ios": "https://dc.lft.to/lastmile_qr_scan", "android": "https://dc.lft.to/lastmile_qr_scan"}, "lon": -77.04046216666667, "type": "electric_scooter", "fusion_lat": 0.0, "lat": 38.929808, "name": "451988a8801702cc271c9266ab9f8dce", "fusion_lon": 0.0, "bike_id": "451988a8801702cc271c9266ab9f8dce", "is_disabled": 0, "is_reserved": 0}, {"rental_uris": {"ios": "https://dc.lft.to/lastmile_qr_scan", "android": "https://dc.lft.to/lastmile_qr_scan"}, "lon": -77.096534, "type": "electric_bike", "fusion_lat": 0.0, "lat": 38.9162625, "name": "ef7bfd7d405b62d4a75e23929d6a993c", "fusion_lon": 0.0, "bike_id": "ef7bfd7d405b62d4a75e23929d6a993c", "is_disabled": 0, "is_reserved": 0}, {"rental_uris": {"ios": "https://dc.lft.to/lastmile_qr_scan", "android": "https://dc.lft.to/lastmile_qr_scan"}, "lon": -76.90816416666667, "type": "electric_bike", "fusion_lat": 0.0, "lat": 38.99456033333333, "name": "e189d746344905788660822ee6aff07b", "fusion_lon": 0.0, "bike_id": "e189d746344905788660822ee6aff07b", "is_disabled": 0, "is_reserved": 0}, {"rental_uris": {"ios": "https://dc.lft.to/lastmile_qr_scan", "android": "https://dc.lft.to/lastmile_qr_scan"}, "lon": -77.00906116666667, "type": "electric_scooter", "fusion_lat": 0.0, "lat": 38.91063666666667, "name": "0ab0bab6caa94bb184936a475e0b61c8", "fusion_lon": 0.0, "bike_id": "0ab0bab6caa94bb184936a475e0b61c8", "is_disabled": 0, "is_reserved": 0}, {"rental_uris": {"ios": "https://dc.lft.to/lastmile_qr_scan", "android": "https://dc.lft.to/lastmile_qr_scan"}, "lon": -76.98435416666666, "type": "electric_scooter", "fusion_lat": 0.0, "lat": 38.91429933333333, "name": "c64e444ef7d31050d0c425c2d26f45d7", "fusion_lon": 0.0, "bike_id": "c64e444ef7d31050d0c425c2d26f45d7", "is_disabled": 0, "is_reserved": 0}, {"rental_uris": {"ios": "https://dc.lft.to/lastmile_qr_scan", "android": "https://dc.lft.to/lastmile_qr_scan"}, "lon": -77.0253205, "type": "electric_scooter", "fusion_lat": 0.0, "lat": 38.918201, "name": "6deb794a016d632ca478feb2633327a8", "fusion_lon": 0.0, "bike_id": "6deb794a016d632ca478feb2633327a8", "is_disabled": 0, "is_reserved": 0}, {"rental_uris": {"ios": "https://dc.lft.to/lastmile_qr_scan", "android": "https://dc.lft.to/lastmile_qr_scan"}, "lon": -77.04871166666666, "type": "electric_scooter", "fusion_lat": 0.0, "lat": 38.89221233333333, "name": "0344a06d853ad22f71bb413e0a6c9c60", "fusion_lon": 0.0, "bike_id": "0344a06d853ad22f71bb413e0a6c9c60", "is_disabled": 0, "is_reserved": 0}, {"rental_uris": {"ios": "https://dc.lft.to/lastmile_qr_scan", "android": "https://dc.lft.to/lastmile_qr_scan"}, "lon": -77.03489283333333, "type": "electric_scooter", "fusion_lat": 0.0, "lat": 38.91709383333333, "name": "b9bafdc5a626919c555af9b5ebfc2ede", "fusion_lon": 0.0, "bike_id": "b9bafdc5a626919c555af9b5ebfc2ede", "is_disabled": 0, "is_reserved": 0}, {"rental_uris": {"ios": "https://dc.lft.to/lastmile_qr_scan", "android": "https://dc.lft.to/lastmile_qr_scan"}, "lon": -77.06532083333333, "type": "electric_scooter", "fusion_lat": 0.0, "lat": 38.9347975, "name": "8d5ea80cf35a2e583bce76968758411e", "fusion_lon": 0.0, "bike_id": "8d5ea80cf35a2e583bce76968758411e", "is_disabled": 0, "is_reserved": 0}, {"rental_uris": {"ios": "https://dc.lft.to/lastmile_qr_scan", "android": "https://dc.lft.to/lastmile_qr_scan"}, "lon": -77.03205016666666, "type": "electric_scooter", "fusion_lat": 0.0, "lat": 38.92974066666667, "name": "ee5747d6da273ce0f9cf4b81ef29d401", "fusion_lon": 0.0, "bike_id": "ee5747d6da273ce0f9cf4b81ef29d401", "is_disabled": 0, "is_reserved": 0}, {"rental_uris": {"ios": "https://dc.lft.to/lastmile_qr_scan", "android": "https://dc.lft.to/lastmile_qr_scan"}, "lon": -77.04818033333333, "type": "electric_scooter", "fusion_lat": 0.0, "lat": 38.9133545, "name": "52e3925da09f73f266c2566a00fe8c80", "fusion_lon": 0.0, "bike_id": "52e3925da09f73f266c2566a00fe8c80", "is_disabled": 0, "is_reserved": 0}, {"rental_uris": {"ios": "https://dc.lft.to/lastmile_qr_scan", "android": "https://dc.lft.to/lastmile_qr_scan"}, "lon": -77.03462583333334, "type": "electric_scooter", "fusion_lat": 0.0, "lat": 38.90730216666667, "name": "48b2186a1ca73c3eda9b46e20471a3c6", "fusion_lon": 0.0, "bike_id": "48b2186a1ca73c3eda9b46e20471a3c6", "is_disabled": 0, "is_reserved": 0}, {"rental_uris": {"ios": "https://dc.lft.to/lastmile_qr_scan", "android": "https://dc.lft.to/lastmile_qr_scan"}, "lon": -77.02746916666666, "type": "electric_scooter", "fusion_lat": 0.0, "lat": 38.9662735, "name": "a866e2b254ad6d56ab8ab554198901de", "fusion_lon": 0.0, "bike_id": "a866e2b254ad6d56ab8ab554198901de", "is_disabled": 0, "is_reserved": 0}, {"rental_uris": {"ios": "https://dc.lft.to/lastmile_qr_scan", "android": "https://dc.lft.to/lastmile_qr_scan"}, "lon": -77.02817, "type": "electric_scooter", "fusion_lat": 0.0, "lat": 38.9093585, "name": "72291f2be08969e5dd8114c485bff59b", "fusion_lon": 0.0, "bike_id": "72291f2be08969e5dd8114c485bff59b", "is_disabled": 0, "is_reserved": 0}, {"rental_uris": {"ios": "https://dc.lft.to/lastmile_qr_scan", "android": "https://dc.lft.to/lastmile_qr_scan"}, "lon": -77.04637383333333, "type": "electric_scooter", "fusion_lat": 0.0, "lat": 38.909629, "name": "0192e4c47a7abcdcfa0648766d4ad548", "fusion_lon": 0.0, "bike_id": "0192e4c47a7abcdcfa0648766d4ad548", "is_disabled": 0, "is_reserved": 0}, {"rental_uris": {"ios": "https://dc.lft.to/lastmile_qr_scan", "android": "https://dc.lft.to/lastmile_qr_scan"}, "lon": -76.9703095, "type": "electric_scooter", "fusion_lat": 0.0, "lat": 38.90317616666667, "name": "3434c1b580c4688c3675c4f04e0a0148", "fusion_lon": 0.0, "bike_id": "3434c1b580c4688c3675c4f04e0a0148", "is_disabled": 0, "is_reserved": 0}, {"rental_uris": {"ios": "https://dc.lft.to/lastmile_qr_scan", "android": "https://dc.lft.to/lastmile_qr_scan"}, "lon": -76.99900083333333, "type": "electric_scooter", "fusion_lat": 0.0, "lat": 38.90938966666667, "name": "63e08c2a804074f5c439befc98447a08", "fusion_lon": 0.0, "bike_id": "63e08c2a804074f5c439befc98447a08", "is_disabled": 0, "is_reserved": 0}, {"rental_uris": {"ios": "https://dc.lft.to/lastmile_qr_scan", "android": "https://dc.lft.to/lastmile_qr_scan"}, "lon": -77.03241383333334, "type": "electric_scooter", "fusion_lat": 0.0, "lat": 38.934569, "name": "641ab815d5ada5ed9a1006b6ff740668", "fusion_lon": 0.0, "bike_id": "641ab815d5ada5ed9a1006b6ff740668", "is_disabled": 0, "is_reserved": 0}, {"rental_uris": {"ios": "https://dc.lft.to/lastmile_qr_scan", "android": "https://dc.lft.to/lastmile_qr_scan"}, "lon": -76.99512966666667, "type": "electric_scooter", "fusion_lat": 0.0, "lat": 38.84474383333333, "name": "ffde4c9b6db1b1c95e2d6f1377e06fcb", "fusion_lon": 0.0, "bike_id": "ffde4c9b6db1b1c95e2d6f1377e06fcb", "is_disabled": 0, "is_reserved": 0}, {"rental_uris": {"ios": "https://dc.lft.to/lastmile_qr_scan", "android": "https://dc.lft.to/lastmile_qr_scan"}, "lon": -77.03197533333334, "type": "electric_scooter", "fusion_lat": 0.0, "lat": 38.89326766666667, "name": "e4aa0f782d8d5e4f522127376aaa2952", "fusion_lon": 0.0, "bike_id": "e4aa0f782d8d5e4f522127376aaa2952", "is_disabled": 0, "is_reserved": 0}, {"rental_uris": {"ios": "https://dc.lft.to/lastmile_qr_scan", "android": "https://dc.lft.to/lastmile_qr_scan"}, "lon": -77.00644483333333, "type": "electric_scooter", "fusion_lat": 0.0, "lat": 38.883096, "name": "05d9962816a83af01204225685d0a128", "fusion_lon": 0.0, "bike_id": "05d9962816a83af01204225685d0a128", "is_disabled": 0, "is_reserved": 0}, {"rental_uris": {"ios": "https://dc.lft.to/lastmile_qr_scan", "android": "https://dc.lft.to/lastmile_qr_scan"}, "lon": -77.03044416666667, "type": "electric_scooter", "fusion_lat": 0.0, "lat": 38.884310666666664, "name": "d9795ec381ec399a08c5b38c9ef330fd", "fusion_lon": 0.0, "bike_id": "d9795ec381ec399a08c5b38c9ef330fd", "is_disabled": 0, "is_reserved": 0}, {"rental_uris": {"ios": "https://dc.lft.to/lastmile_qr_scan", "android": "https://dc.lft.to/lastmile_qr_scan"}, "lon": -77.0255815, "type": "electric_scooter", "fusion_lat": 0.0, "lat": 38.90154716666667, "name": "bc0e5d0392217e1ba266746de3c9dde1", "fusion_lon": 0.0, "bike_id": "bc0e5d0392217e1ba266746de3c9dde1", "is_disabled": 0, "is_reserved": 0}, {"rental_uris": {"ios": "https://dc.lft.to/lastmile_qr_scan", "android": "https://dc.lft.to/lastmile_qr_scan"}, "lon": -76.97603433333333, "type": "electric_scooter", "fusion_lat": 0.0, "lat": 38.902099166666666, "name": "a3dbf03994746ac0d20a45601aaaf706", "fusion_lon": 0.0, "bike_id": "a3dbf03994746ac0d20a45601aaaf706", "is_disabled": 0, "is_reserved": 0}, {"rental_uris": {"ios": "https://dc.lft.to/lastmile_qr_scan", "android": "https://dc.lft.to/lastmile_qr_scan"}, "lon": -76.98841933333334, "type": "electric_bike", "fusion_lat": 0.0, "lat": 38.84274516666667, "name": "5a60a5129c7a07bc06323929d4141a75", "fusion_lon": 0.0, "bike_id": "5a60a5129c7a07bc06323929d4141a75", "is_disabled": 0, "is_reserved": 0}, {"rental_uris": {"ios": "https://dc.lft.to/lastmile_qr_scan", "android": "https://dc.lft.to/lastmile_qr_scan"}, "lon": -77.01184183333334, "type": "electric_scooter", "fusion_lat": 0.0, "lat": 38.900251833333336, "name": "76b64cae41c179587ab741b0f47e6427", "fusion_lon": 0.0, "bike_id": "76b64cae41c179587ab741b0f47e6427", "is_disabled": 0, "is_reserved": 0}, {"rental_uris": {"ios": "https://dc.lft.to/lastmile_qr_scan", "android": "https://dc.lft.to/lastmile_qr_scan"}, "lon": -77.02687933333333, "type": "electric_bike", "fusion_lat": 0.0, "lat": 38.9722235, "name": "eb3cf0e754be27bbcf2e8b974d0d6d45", "fusion_lon": 0.0, "bike_id": "eb3cf0e754be27bbcf2e8b974d0d6d45", "is_disabled": 0, "is_reserved": 0}, {"rental_uris": {"ios": "https://dc.lft.to/lastmile_qr_scan", "android": "https://dc.lft.to/lastmile_qr_scan"}, "lon": -77.02711716666667, "type": "electric_scooter", "fusion_lat": 0.0, "lat": 38.92063866666667, "name": "2532888155d1320cf33068421dd58579", "fusion_lon": 0.0, "bike_id": "2532888155d1320cf33068421dd58579", "is_disabled": 0, "is_reserved": 0}, {"rental_uris": {"ios": "https://dc.lft.to/lastmile_qr_scan", "android": "https://dc.lft.to/lastmile_qr_scan"}, "lon": -76.99063866666667, "type": "electric_scooter", "fusion_lat": 0.0, "lat": 38.86359233333334, "name": "2630c2c050b397a876f8dad08dc6c3f8", "fusion_lon": 0.0, "bike_id": "2630c2c050b397a876f8dad08dc6c3f8", "is_disabled": 0, "is_reserved": 0}, {"rental_uris": {"ios": "https://dc.lft.to/lastmile_qr_scan", "android": "https://dc.lft.to/lastmile_qr_scan"}, "lon": -77.02541166666667, "type": "electric_scooter", "fusion_lat": 0.0, "lat": 38.940999, "name": "83e104dda236d672b533b06f0ff4449d", "fusion_lon": 0.0, "bike_id": "83e104dda236d672b533b06f0ff4449d", "is_disabled": 0, "is_reserved": 0}, {"rental_uris": {"ios": "https://dc.lft.to/lastmile_qr_scan", "android": "https://dc.lft.to/lastmile_qr_scan"}, "lon": -77.00103583333333, "type": "electric_scooter", "fusion_lat": 0.0, "lat": 38.894329666666664, "name": "1137fb3a55217b44526636bac6e06c03", "fusion_lon": 0.0, "bike_id": "1137fb3a55217b44526636bac6e06c03", "is_disabled": 0, "is_reserved": 0}, {"rental_uris": {"ios": "https://dc.lft.to/lastmile_qr_scan", "android": "https://dc.lft.to/lastmile_qr_scan"}, "lon": -77.01973483333333, "type": "electric_scooter", "fusion_lat": 0.0, "lat": 38.90022533333333, "name": "7e6392b989b2de4c7e1528cdff18b087", "fusion_lon": 0.0, "bike_id": "7e6392b989b2de4c7e1528cdff18b087", "is_disabled": 0, "is_reserved": 0}, {"rental_uris": {"ios": "https://dc.lft.to/lastmile_qr_scan", "android": "https://dc.lft.to/lastmile_qr_scan"}, "lon": -77.02097366666666, "type": "electric_scooter", "fusion_lat": 0.0, "lat": 38.910041166666666, "name": "156f8acd5713a68b54b4f60a719c0e13", "fusion_lon": 0.0, "bike_id": "156f8acd5713a68b54b4f60a719c0e13", "is_disabled": 0, "is_reserved": 0}, {"rental_uris": {"ios": "https://dc.lft.to/lastmile_qr_scan", "android": "https://dc.lft.to/lastmile_qr_scan"}, "lon": -77.04600183333334, "type": "electric_scooter", "fusion_lat": 0.0, "lat": 38.902172, "name": "5ceb05a72c5b3fb53da12f192b18ed2c", "fusion_lon": 0.0, "bike_id": "5ceb05a72c5b3fb53da12f192b18ed2c", "is_disabled": 0, "is_reserved": 0}, {"rental_uris": {"ios": "https://dc.lft.to/lastmile_qr_scan", "android": "https://dc.lft.to/lastmile_qr_scan"}, "lon": -76.97990333333334, "type": "electric_bike", "fusion_lat": 0.0, "lat": 38.87751883333333, "name": "2ce27963a7b76a2b3815e954ca011a31", "fusion_lon": 0.0, "bike_id": "2ce27963a7b76a2b3815e954ca011a31", "is_disabled": 0, "is_reserved": 0}, {"rental_uris": {"ios": "https://dc.lft.to/lastmile_qr_scan", "android": "https://dc.lft.to/lastmile_qr_scan"}, "lon": -77.03293766666667, "type": "electric_scooter", "fusion_lat": 0.0, "lat": 38.9222345, "name": "098cc3c211bed144051696f6a0205650", "fusion_lon": 0.0, "bike_id": "098cc3c211bed144051696f6a0205650", "is_disabled": 0, "is_reserved": 0}, {"rental_uris": {"ios": "https://dc.lft.to/lastmile_qr_scan", "android": "https://dc.lft.to/lastmile_qr_scan"}, "lon": -77.027339, "type": "electric_scooter", "fusion_lat": 0.0, "lat": 38.9285595, "name": "ce1aadb61715c7389757cef10fab0d33", "fusion_lon": 0.0, "bike_id": "ce1aadb61715c7389757cef10fab0d33", "is_disabled": 0, "is_reserved": 0}, {"rental_uris": {"ios": "https://dc.lft.to/lastmile_qr_scan", "android": "https://dc.lft.to/lastmile_qr_scan"}, "lon": -76.99948566666667, "type": "electric_scooter", "fusion_lat": 0.0, "lat": 38.91932883333333, "name": "61449fcab18a477a37befef4646101e4", "fusion_lon": 0.0, "bike_id": "61449fcab18a477a37befef4646101e4", "is_disabled": 0, "is_reserved": 0}, {"rental_uris": {"ios": "https://dc.lft.to/lastmile_qr_scan", "android": "https://dc.lft.to/lastmile_qr_scan"}, "lon": -77.03463433333333, "type": "electric_scooter", "fusion_lat": 0.0, "lat": 38.908118333333334, "name": "f2d67656c1c15ae0280424ef8090a5fc", "fusion_lon": 0.0, "bike_id": "f2d67656c1c15ae0280424ef8090a5fc", "is_disabled": 0, "is_reserved": 0}, {"rental_uris": {"ios": "https://dc.lft.to/lastmile_qr_scan", "android": "https://dc.lft.to/lastmile_qr_scan"}, "lon": -77.03194033333334, "type": "electric_scooter", "fusion_lat": 0.0, "lat": 38.91625166666667, "name": "5e01e664279c092db4141df4a30cef4d", "fusion_lon": 0.0, "bike_id": "5e01e664279c092db4141df4a30cef4d", "is_disabled": 0, "is_reserved": 0}, {"rental_uris": {"ios": "https://dc.lft.to/lastmile_qr_scan", "android": "https://dc.lft.to/lastmile_qr_scan"}, "lon": -77.01232066666667, "type": "electric_scooter", "fusion_lat": 0.0, "lat": 38.9155505, "name": "800e8f73f40b01d41a23a69c3645b606", "fusion_lon": 0.0, "bike_id": "800e8f73f40b01d41a23a69c3645b606", "is_disabled": 0, "is_reserved": 0}, {"rental_uris": {"ios": "https://dc.lft.to/lastmile_qr_scan", "android": "https://dc.lft.to/lastmile_qr_scan"}, "lon": -77.031783, "type": "electric_scooter", "fusion_lat": 0.0, "lat": 38.916291666666666, "name": "106ff2f22537f0464ab4b0cb2ebeb789", "fusion_lon": 0.0, "bike_id": "106ff2f22537f0464ab4b0cb2ebeb789", "is_disabled": 0, "is_reserved": 0}, {"rental_uris": {"ios": "https://dc.lft.to/lastmile_qr_scan", "android": "https://dc.lft.to/lastmile_qr_scan"}, "lon": -77.03654933333334, "type": "electric_scooter", "fusion_lat": 0.0, "lat": 38.921232, "name": "1b2d48271564246bfefde3a7efc8063e", "fusion_lon": 0.0, "bike_id": "1b2d48271564246bfefde3a7efc8063e", "is_disabled": 0, "is_reserved": 0}, {"rental_uris": {"ios": "https://dc.lft.to/lastmile_qr_scan", "android": "https://dc.lft.to/lastmile_qr_scan"}, "lon": -76.947793, "type": "electric_bike", "fusion_lat": 0.0, "lat": 38.894416166666666, "name": "61f3557d019120f66bf2e3e6b1c7879d", "fusion_lon": 0.0, "bike_id": "61f3557d019120f66bf2e3e6b1c7879d", "is_disabled": 0, "is_reserved": 0}, {"rental_uris": {"ios": "https://dc.lft.to/lastmile_qr_scan", "android": "https://dc.lft.to/lastmile_qr_scan"}, "lon": -77.02834216666666, "type": "electric_scooter", "fusion_lat": 0.0, "lat": 38.9328945, "name": "b3d870bf535c18557635c002b431c410", "fusion_lon": 0.0, "bike_id": "b3d870bf535c18557635c002b431c410", "is_disabled": 0, "is_reserved": 0}, {"rental_uris": {"ios": "https://dc.lft.to/lastmile_qr_scan", "android": "https://dc.lft.to/lastmile_qr_scan"}, "lon": -77.36086033333333, "type": "electric_bike", "fusion_lat": 0.0, "lat": 38.93964233333333, "name": "afbd8295cddae7eb0267717a0d062f6c", "fusion_lon": 0.0, "bike_id": "afbd8295cddae7eb0267717a0d062f6c", "is_disabled": 0, "is_reserved": 0}, {"rental_uris": {"ios": "https://dc.lft.to/lastmile_qr_scan", "android": "https://dc.lft.to/lastmile_qr_scan"}, "lon": -76.95183316666666, "type": "electric_scooter", "fusion_lat": 0.0, "lat": 38.89139083333333, "name": "d3291a26fea7811be7ceb3e5c6b4c916", "fusion_lon": 0.0, "bike_id": "d3291a26fea7811be7ceb3e5c6b4c916", "is_disabled": 0, "is_reserved": 0}, {"rental_uris": {"ios": "https://dc.lft.to/lastmile_qr_scan", "android": "https://dc.lft.to/lastmile_qr_scan"}, "lon": -77.10331533333333, "type": "electric_bike", "fusion_lat": 0.0, "lat": 38.9650845, "name": "17ffa8ab72a5180176340f6f52f521f0", "fusion_lon": 0.0, "bike_id": "17ffa8ab72a5180176340f6f52f521f0", "is_disabled": 0, "is_reserved": 0}, {"rental_uris": {"ios": "https://dc.lft.to/lastmile_qr_scan", "android": "https://dc.lft.to/lastmile_qr_scan"}, "lon": -77.00897266666666, "type": "electric_scooter", "fusion_lat": 0.0, "lat": 38.90524683333334, "name": "dd1a0a3403dbcfa9507c724f6f42763c", "fusion_lon": 0.0, "bike_id": "dd1a0a3403dbcfa9507c724f6f42763c", "is_disabled": 0, "is_reserved": 0}, {"rental_uris": {"ios": "https://dc.lft.to/lastmile_qr_scan", "android": "https://dc.lft.to/lastmile_qr_scan"}, "lon": -77.00921366666667, "type": "electric_scooter", "fusion_lat": 0.0, "lat": 38.909305833333335, "name": "1423897e48ec652aead912b8cfbbdcc2", "fusion_lon": 0.0, "bike_id": "1423897e48ec652aead912b8cfbbdcc2", "is_disabled": 0, "is_reserved": 0}, {"rental_uris": {"ios": "https://dc.lft.to/lastmile_qr_scan", "android": "https://dc.lft.to/lastmile_qr_scan"}, "lon": -77.03203383333333, "type": "electric_scooter", "fusion_lat": 0.0, "lat": 38.9095365, "name": "2141fccdae1c52c62ac880defcc58f5a", "fusion_lon": 0.0, "bike_id": "2141fccdae1c52c62ac880defcc58f5a", "is_disabled": 0, "is_reserved": 0}, {"rental_uris": {"ios": "https://dc.lft.to/lastmile_qr_scan", "android": "https://dc.lft.to/lastmile_qr_scan"}, "lon": -76.949034, "type": "electric_scooter", "fusion_lat": 0.0, "lat": 38.89552066666667, "name": "abb4b05788a87ff82e4b3d5522a6d7c0", "fusion_lon": 0.0, "bike_id": "abb4b05788a87ff82e4b3d5522a6d7c0", "is_disabled": 0, "is_reserved": 0}, {"rental_uris": {"ios": "https://dc.lft.to/lastmile_qr_scan", "android": "https://dc.lft.to/lastmile_qr_scan"}, "lon": -77.016376, "type": "electric_scooter", "fusion_lat": 0.0, "lat": 38.92939666666667, "name": "7273c1b8c4a4f1ebe3eb2f699318f11e", "fusion_lon": 0.0, "bike_id": "7273c1b8c4a4f1ebe3eb2f699318f11e", "is_disabled": 0, "is_reserved": 0}, {"rental_uris": {"ios": "https://dc.lft.to/lastmile_qr_scan", "android": "https://dc.lft.to/lastmile_qr_scan"}, "lon": -77.0350115, "type": "electric_scooter", "fusion_lat": 0.0, "lat": 38.923407, "name": "fea6534a18a548ce53951ca0c65efc1f", "fusion_lon": 0.0, "bike_id": "fea6534a18a548ce53951ca0c65efc1f", "is_disabled": 0, "is_reserved": 0}, {"rental_uris": {"ios": "https://dc.lft.to/lastmile_qr_scan", "android": "https://dc.lft.to/lastmile_qr_scan"}, "lon": -77.04996866666667, "type": "electric_scooter", "fusion_lat": 0.0, "lat": 38.892273333333335, "name": "687710877c6d543753b93db09b23a446", "fusion_lon": 0.0, "bike_id": "687710877c6d543753b93db09b23a446", "is_disabled": 0, "is_reserved": 0}, {"rental_uris": {"ios": "https://dc.lft.to/lastmile_qr_scan", "android": "https://dc.lft.to/lastmile_qr_scan"}, "lon": -76.9997825, "type": "electric_scooter", "fusion_lat": 0.0, "lat": 38.83839416666667, "name": "ae1e4bced7d5bc2265fe63ccda798e81", "fusion_lon": 0.0, "bike_id": "ae1e4bced7d5bc2265fe63ccda798e81", "is_disabled": 0, "is_reserved": 0}, {"rental_uris": {"ios": "https://dc.lft.to/lastmile_qr_scan", "android": "https://dc.lft.to/lastmile_qr_scan"}, "lon": -77.02306133333333, "type": "electric_scooter", "fusion_lat": 0.0, "lat": 38.917800166666666, "name": "62581ec0034fb86a24f98f81e9e04715", "fusion_lon": 0.0, "bike_id": "62581ec0034fb86a24f98f81e9e04715", "is_disabled": 0, "is_reserved": 0}, {"rental_uris": {"ios": "https://dc.lft.to/lastmile_qr_scan", "android": "https://dc.lft.to/lastmile_qr_scan"}, "lon": -77.02312483333333, "type": "electric_scooter", "fusion_lat": 0.0, "lat": 38.909234833333336, "name": "d404810206a8cfa47193eb44aeab52ae", "fusion_lon": 0.0, "bike_id": "d404810206a8cfa47193eb44aeab52ae", "is_disabled": 0, "is_reserved": 0}, {"rental_uris": {"ios": "https://dc.lft.to/lastmile_qr_scan", "android": "https://dc.lft.to/lastmile_qr_scan"}, "lon": -77.034544, "type": "electric_scooter", "fusion_lat": 0.0, "lat": 38.909024333333335, "name": "2b08b98abb677fb452b4a437da3b3679", "fusion_lon": 0.0, "bike_id": "2b08b98abb677fb452b4a437da3b3679", "is_disabled": 0, "is_reserved": 0}, {"rental_uris": {"ios": "https://dc.lft.to/lastmile_qr_scan", "android": "https://dc.lft.to/lastmile_qr_scan"}, "lon": -77.0232445, "type": "electric_scooter", "fusion_lat": 0.0, "lat": 38.91850383333333, "name": "1b0d9e394421932bb6fd9fe7e91bc207", "fusion_lon": 0.0, "bike_id": "1b0d9e394421932bb6fd9fe7e91bc207", "is_disabled": 0, "is_reserved": 0}, {"rental_uris": {"ios": "https://dc.lft.to/lastmile_qr_scan", "android": "https://dc.lft.to/lastmile_qr_scan"}, "lon": -77.03919633333334, "type": "electric_scooter", "fusion_lat": 0.0, "lat": 38.9111935, "name": "fba9d00c69d91a084404983e023ed1b8", "fusion_lon": 0.0, "bike_id": "fba9d00c69d91a084404983e023ed1b8", "is_disabled": 0, "is_reserved": 0}, {"rental_uris": {"ios": "https://dc.lft.to/lastmile_qr_scan", "android": "https://dc.lft.to/lastmile_qr_scan"}, "lon": -77.04279016666666, "type": "electric_scooter", "fusion_lat": 0.0, "lat": 38.92261716666667, "name": "1b9206e247a888c9af85b87124e07dc9", "fusion_lon": 0.0, "bike_id": "1b9206e247a888c9af85b87124e07dc9", "is_disabled": 0, "is_reserved": 0}, {"rental_uris": {"ios": "https://dc.lft.to/lastmile_qr_scan", "android": "https://dc.lft.to/lastmile_qr_scan"}, "lon": -76.9900105, "type": "electric_scooter", "fusion_lat": 0.0, "lat": 38.86507433333333, "name": "68c89aad6e1ba7e7adf7d85e95f387a7", "fusion_lon": 0.0, "bike_id": "68c89aad6e1ba7e7adf7d85e95f387a7", "is_disabled": 0, "is_reserved": 0}, {"rental_uris": {"ios": "https://dc.lft.to/lastmile_qr_scan", "android": "https://dc.lft.to/lastmile_qr_scan"}, "lon": -77.03900016666667, "type": "electric_scooter", "fusion_lat": 0.0, "lat": 38.923342, "name": "0b0b33d5a299e5709dfa0188d0a1ebd2", "fusion_lon": 0.0, "bike_id": "0b0b33d5a299e5709dfa0188d0a1ebd2", "is_disabled": 0, "is_reserved": 0}, {"rental_uris": {"ios": "https://dc.lft.to/lastmile_qr_scan", "android": "https://dc.lft.to/lastmile_qr_scan"}, "lon": -77.04868966666666, "type": "electric_scooter", "fusion_lat": 0.0, "lat": 38.90155716666666, "name": "606b4b5a32f6b977754c18f4ccd90c5d", "fusion_lon": 0.0, "bike_id": "606b4b5a32f6b977754c18f4ccd90c5d", "is_disabled": 0, "is_reserved": 0}, {"rental_uris": {"ios": "https://dc.lft.to/lastmile_qr_scan", "android": "https://dc.lft.to/lastmile_qr_scan"}, "lon": -76.990746, "type": "electric_scooter", "fusion_lat": 0.0, "lat": 38.86053616666667, "name": "d9d78a788e73b8aee2a20137c8b400d4", "fusion_lon": 0.0, "bike_id": "d9d78a788e73b8aee2a20137c8b400d4", "is_disabled": 0, "is_reserved": 0}, {"rental_uris": {"ios": "https://dc.lft.to/lastmile_qr_scan", "android": "https://dc.lft.to/lastmile_qr_scan"}, "lon": -77.04157233333333, "type": "electric_scooter", "fusion_lat": 0.0, "lat": 38.914234666666665, "name": "71bb9f706ab048486e376761a8c194b5", "fusion_lon": 0.0, "bike_id": "71bb9f706ab048486e376761a8c194b5", "is_disabled": 0, "is_reserved": 0}, {"rental_uris": {"ios": "https://dc.lft.to/lastmile_qr_scan", "android": "https://dc.lft.to/lastmile_qr_scan"}, "lon": -76.981454, "type": "electric_scooter", "fusion_lat": 0.0, "lat": 38.90564633333334, "name": "c430c5e473fef74bc5f85dfe6a0c3121", "fusion_lon": 0.0, "bike_id": "c430c5e473fef74bc5f85dfe6a0c3121", "is_disabled": 0, "is_reserved": 0}, {"rental_uris": {"ios": "https://dc.lft.to/lastmile_qr_scan", "android": "https://dc.lft.to/lastmile_qr_scan"}, "lon": -77.02710733333333, "type": "electric_bike", "fusion_lat": 0.0, "lat": 38.97203566666666, "name": "607b91756d119215a92b739d0ab3c913", "fusion_lon": 0.0, "bike_id": "607b91756d119215a92b739d0ab3c913", "is_disabled": 0, "is_reserved": 0}, {"rental_uris": {"ios": "https://dc.lft.to/lastmile_qr_scan", "android": "https://dc.lft.to/lastmile_qr_scan"}, "lon": -77.02565866666667, "type": "electric_scooter", "fusion_lat": 0.0, "lat": 38.925398666666666, "name": "02ce72f3bfceee58f5033d55f403e934", "fusion_lon": 0.0, "bike_id": "02ce72f3bfceee58f5033d55f403e934", "is_disabled": 0, "is_reserved": 0}, {"rental_uris": {"ios": "https://dc.lft.to/lastmile_qr_scan", "android": "https://dc.lft.to/lastmile_qr_scan"}, "lon": -77.0108445, "type": "electric_scooter", "fusion_lat": 0.0, "lat": 38.89509366666667, "name": "dbab512cfc9f37abbcde6fd4c56e3e07", "fusion_lon": 0.0, "bike_id": "dbab512cfc9f37abbcde6fd4c56e3e07", "is_disabled": 0, "is_reserved": 0}, {"rental_uris": {"ios": "https://dc.lft.to/lastmile_qr_scan", "android": "https://dc.lft.to/lastmile_qr_scan"}, "lon": -77.04445883333334, "type": "electric_scooter", "fusion_lat": 0.0, "lat": 38.91871916666667, "name": "47dad6d9528135bc0f70b748bf054e2b", "fusion_lon": 0.0, "bike_id": "47dad6d9528135bc0f70b748bf054e2b", "is_disabled": 0, "is_reserved": 0}, {"rental_uris": {"ios": "https://dc.lft.to/lastmile_qr_scan", "android": "https://dc.lft.to/lastmile_qr_scan"}, "lon": -76.9994485, "type": "electric_scooter", "fusion_lat": 0.0, "lat": 38.84293983333333, "name": "a3e81902e99355bec6a0c529bd57da77", "fusion_lon": 0.0, "bike_id": "a3e81902e99355bec6a0c529bd57da77", "is_disabled": 0, "is_reserved": 0}, {"rental_uris": {"ios": "https://dc.lft.to/lastmile_qr_scan", "android": "https://dc.lft.to/lastmile_qr_scan"}, "lon": -76.9472995, "type": "electric_scooter", "fusion_lat": 0.0, "lat": 38.89677, "name": "3321802c2534ae114290159ee60ee16a", "fusion_lon": 0.0, "bike_id": "3321802c2534ae114290159ee60ee16a", "is_disabled": 0, "is_reserved": 0}, {"rental_uris": {"ios": "https://dc.lft.to/lastmile_qr_scan", "android": "https://dc.lft.to/lastmile_qr_scan"}, "lon": -77.0464415, "type": "electric_bike", "fusion_lat": 0.0, "lat": 38.852154666666664, "name": "47c6d778924f25cf1142301e3028cf97", "fusion_lon": 0.0, "bike_id": "47c6d778924f25cf1142301e3028cf97", "is_disabled": 0, "is_reserved": 0}, {"rental_uris": {"ios": "https://dc.lft.to/lastmile_qr_scan", "android": "https://dc.lft.to/lastmile_qr_scan"}, "lon": -77.02428416666666, "type": "electric_scooter", "fusion_lat": 0.0, "lat": 38.92048716666667, "name": "7d0385a02db3362154170c323a331869", "fusion_lon": 0.0, "bike_id": "7d0385a02db3362154170c323a331869", "is_disabled": 0, "is_reserved": 0}, {"rental_uris": {"ios": "https://dc.lft.to/lastmile_qr_scan", "android": "https://dc.lft.to/lastmile_qr_scan"}, "lon": -77.03165083333333, "type": "electric_bike", "fusion_lat": 0.0, "lat": 38.9445685, "name": "ccf1b45da4fb2fe1e27c416405de3fd6", "fusion_lon": 0.0, "bike_id": "ccf1b45da4fb2fe1e27c416405de3fd6", "is_disabled": 0, "is_reserved": 0}, {"rental_uris": {"ios": "https://dc.lft.to/lastmile_qr_scan", "android": "https://dc.lft.to/lastmile_qr_scan"}, "lon": -77.04379633333333, "type": "electric_scooter", "fusion_lat": 0.0, "lat": 38.91794016666667, "name": "5443930c86a873b28fb4ac10668d3cd1", "fusion_lon": 0.0, "bike_id": "5443930c86a873b28fb4ac10668d3cd1", "is_disabled": 0, "is_reserved": 0}, {"rental_uris": {"ios": "https://dc.lft.to/lastmile_qr_scan", "android": "https://dc.lft.to/lastmile_qr_scan"}, "lon": -77.0333365, "type": "electric_scooter", "fusion_lat": 0.0, "lat": 38.90038916666666, "name": "af88e89ccb62e41d8d63103ab735a20a", "fusion_lon": 0.0, "bike_id": "af88e89ccb62e41d8d63103ab735a20a", "is_disabled": 0, "is_reserved": 0}, {"rental_uris": {"ios": "https://dc.lft.to/lastmile_qr_scan", "android": "https://dc.lft.to/lastmile_qr_scan"}, "lon": -77.03185633333334, "type": "electric_scooter", "fusion_lat": 0.0, "lat": 38.911827333333335, "name": "ca9dd7c6b99e513d0190b8ae7546fd09", "fusion_lon": 0.0, "bike_id": "ca9dd7c6b99e513d0190b8ae7546fd09", "is_disabled": 0, "is_reserved": 0}, {"rental_uris": {"ios": "https://dc.lft.to/lastmile_qr_scan", "android": "https://dc.lft.to/lastmile_qr_scan"}, "lon": -77.0532855, "type": "electric_scooter", "fusion_lat": 0.0, "lat": 38.90415133333333, "name": "5fb820c1726e1a09cab513f8ede742c1", "fusion_lon": 0.0, "bike_id": "5fb820c1726e1a09cab513f8ede742c1", "is_disabled": 0, "is_reserved": 0}, {"rental_uris": {"ios": "https://dc.lft.to/lastmile_qr_scan", "android": "https://dc.lft.to/lastmile_qr_scan"}, "lon": -77.01380716666667, "type": "electric_scooter", "fusion_lat": 0.0, "lat": 38.928619166666664, "name": "1faef28e7688bfed71ab5ba581742c39", "fusion_lon": 0.0, "bike_id": "1faef28e7688bfed71ab5ba581742c39", "is_disabled": 0, "is_reserved": 0}, {"rental_uris": {"ios": "https://dc.lft.to/lastmile_qr_scan", "android": "https://dc.lft.to/lastmile_qr_scan"}, "lon": -76.96549733333333, "type": "electric_bike", "fusion_lat": 0.0, "lat": 38.95103533333333, "name": "abf318f417a4e8ce2e49bd01431281ff", "fusion_lon": 0.0, "bike_id": "abf318f417a4e8ce2e49bd01431281ff", "is_disabled": 0, "is_reserved": 0}, {"rental_uris": {"ios": "https://dc.lft.to/lastmile_qr_scan", "android": "https://dc.lft.to/lastmile_qr_scan"}, "lon": -77.002653, "type": "electric_scooter", "fusion_lat": 0.0, "lat": 38.8774565, "name": "961cc391c4392cdbc4cc9de1248115ce", "fusion_lon": 0.0, "bike_id": "961cc391c4392cdbc4cc9de1248115ce", "is_disabled": 0, "is_reserved": 0}, {"rental_uris": {"ios": "https://dc.lft.to/lastmile_qr_scan", "android": "https://dc.lft.to/lastmile_qr_scan"}, "lon": -77.02182883333333, "type": "electric_scooter", "fusion_lat": 0.0, "lat": 38.90981, "name": "8068ca969776ba334e64f06b89d24db5", "fusion_lon": 0.0, "bike_id": "8068ca969776ba334e64f06b89d24db5", "is_disabled": 0, "is_reserved": 0}, {"rental_uris": {"ios": "https://dc.lft.to/lastmile_qr_scan", "android": "https://dc.lft.to/lastmile_qr_scan"}, "lon": -77.00214733333334, "type": "electric_scooter", "fusion_lat": 0.0, "lat": 38.904764666666665, "name": "4a33ad0c53d420f7af61cd0512bb333f", "fusion_lon": 0.0, "bike_id": "4a33ad0c53d420f7af61cd0512bb333f", "is_disabled": 0, "is_reserved": 0}, {"rental_uris": {"ios": "https://dc.lft.to/lastmile_qr_scan", "android": "https://dc.lft.to/lastmile_qr_scan"}, "lon": -77.03349933333334, "type": "electric_scooter", "fusion_lat": 0.0, "lat": 38.91113266666667, "name": "5291a06ec643ec18781b53af3f04dc3a", "fusion_lon": 0.0, "bike_id": "5291a06ec643ec18781b53af3f04dc3a", "is_disabled": 0, "is_reserved": 0}, {"rental_uris": {"ios": "https://dc.lft.to/lastmile_qr_scan", "android": "https://dc.lft.to/lastmile_qr_scan"}, "lon": -77.00317316666667, "type": "electric_scooter", "fusion_lat": 0.0, "lat": 38.90133633333333, "name": "a726134a18f0c9dd96aefbf4694b414b", "fusion_lon": 0.0, "bike_id": "a726134a18f0c9dd96aefbf4694b414b", "is_disabled": 0, "is_reserved": 0}, {"rental_uris": {"ios": "https://dc.lft.to/lastmile_qr_scan", "android": "https://dc.lft.to/lastmile_qr_scan"}, "lon": -77.057513, "type": "electric_scooter", "fusion_lat": 0.0, "lat": 38.904978166666666, "name": "67ae576b32912778ceebd010d00aa0ef", "fusion_lon": 0.0, "bike_id": "67ae576b32912778ceebd010d00aa0ef", "is_disabled": 0, "is_reserved": 0}, {"rental_uris": {"ios": "https://dc.lft.to/lastmile_qr_scan", "android": "https://dc.lft.to/lastmile_qr_scan"}, "lon": -77.02428583333334, "type": "electric_scooter", "fusion_lat": 0.0, "lat": 38.93713416666667, "name": "c3ccca44841240adac593fbbc01f681d", "fusion_lon": 0.0, "bike_id": "c3ccca44841240adac593fbbc01f681d", "is_disabled": 0, "is_reserved": 0}, {"rental_uris": {"ios": "https://dc.lft.to/lastmile_qr_scan", "android": "https://dc.lft.to/lastmile_qr_scan"}, "lon": -76.9795745, "type": "electric_scooter", "fusion_lat": 0.0, "lat": 38.90381516666667, "name": "6b2470c6c2e9c13cba9e843f702ff021", "fusion_lon": 0.0, "bike_id": "6b2470c6c2e9c13cba9e843f702ff021", "is_disabled": 0, "is_reserved": 0}, {"rental_uris": {"ios": "https://dc.lft.to/lastmile_qr_scan", "android": "https://dc.lft.to/lastmile_qr_scan"}, "lon": -77.02427266666666, "type": "electric_scooter", "fusion_lat": 0.0, "lat": 38.915578333333336, "name": "5a226423783c8a7d5dd53510374039dd", "fusion_lon": 0.0, "bike_id": "5a226423783c8a7d5dd53510374039dd", "is_disabled": 0, "is_reserved": 0}, {"rental_uris": {"ios": "https://dc.lft.to/lastmile_qr_scan", "android": "https://dc.lft.to/lastmile_qr_scan"}, "lon": -77.04684183333333, "type": "electric_scooter", "fusion_lat": 0.0, "lat": 38.9210845, "name": "ef778e5fbd651f54e4fee47f8395b563", "fusion_lon": 0.0, "bike_id": "ef778e5fbd651f54e4fee47f8395b563", "is_disabled": 0, "is_reserved": 0}, {"rental_uris": {"ios": "https://dc.lft.to/lastmile_qr_scan", "android": "https://dc.lft.to/lastmile_qr_scan"}, "lon": -77.0328045, "type": "electric_scooter", "fusion_lat": 0.0, "lat": 38.9399235, "name": "7c2b52d286aaa5284e0a68461468e242", "fusion_lon": 0.0, "bike_id": "7c2b52d286aaa5284e0a68461468e242", "is_disabled": 0, "is_reserved": 0}, {"rental_uris": {"ios": "https://dc.lft.to/lastmile_qr_scan", "android": "https://dc.lft.to/lastmile_qr_scan"}, "lon": -76.98685416666666, "type": "electric_scooter", "fusion_lat": 0.0, "lat": 38.882152, "name": "ff841781affd1a3af8ab28a272566eb0", "fusion_lon": 0.0, "bike_id": "ff841781affd1a3af8ab28a272566eb0", "is_disabled": 0, "is_reserved": 0}, {"rental_uris": {"ios": "https://dc.lft.to/lastmile_qr_scan", "android": "https://dc.lft.to/lastmile_qr_scan"}, "lon": -77.03464566666666, "type": "electric_scooter", "fusion_lat": 0.0, "lat": 38.91814766666667, "name": "1957000f52818053c90e3f7d03f78dcb", "fusion_lon": 0.0, "bike_id": "1957000f52818053c90e3f7d03f78dcb", "is_disabled": 0, "is_reserved": 0}, {"rental_uris": {"ios": "https://dc.lft.to/lastmile_qr_scan", "android": "https://dc.lft.to/lastmile_qr_scan"}, "lon": -76.99065133333333, "type": "electric_scooter", "fusion_lat": 0.0, "lat": 38.92660883333333, "name": "8ec4379441671f55ceb9e3e14b100b6b", "fusion_lon": 0.0, "bike_id": "8ec4379441671f55ceb9e3e14b100b6b", "is_disabled": 0, "is_reserved": 0}, {"rental_uris": {"ios": "https://dc.lft.to/lastmile_qr_scan", "android": "https://dc.lft.to/lastmile_qr_scan"}, "lon": -77.03254716666666, "type": "electric_scooter", "fusion_lat": 0.0, "lat": 38.935665666666665, "name": "f12785b8ee6b75c74238cfc9d7b92ef5", "fusion_lon": 0.0, "bike_id": "f12785b8ee6b75c74238cfc9d7b92ef5", "is_disabled": 0, "is_reserved": 0}, {"rental_uris": {"ios": "https://dc.lft.to/lastmile_qr_scan", "android": "https://dc.lft.to/lastmile_qr_scan"}, "lon": -77.0073675, "type": "electric_scooter", "fusion_lat": 0.0, "lat": 38.95521516666667, "name": "f0964cbcc7ac68fe96a6779964f77e4a", "fusion_lon": 0.0, "bike_id": "f0964cbcc7ac68fe96a6779964f77e4a", "is_disabled": 0, "is_reserved": 0}, {"rental_uris": {"ios": "https://dc.lft.to/lastmile_qr_scan", "android": "https://dc.lft.to/lastmile_qr_scan"}, "lon": -77.02500966666666, "type": "electric_scooter", "fusion_lat": 0.0, "lat": 38.93965266666667, "name": "07321f4fb78a9a46a4775d9cb2d3b40c", "fusion_lon": 0.0, "bike_id": "07321f4fb78a9a46a4775d9cb2d3b40c", "is_disabled": 0, "is_reserved": 0}, {"rental_uris": {"ios": "https://dc.lft.to/lastmile_qr_scan", "android": "https://dc.lft.to/lastmile_qr_scan"}, "lon": -77.02597316666666, "type": "electric_scooter", "fusion_lat": 0.0, "lat": 38.90516683333333, "name": "efb1b75334882f056327345e315b891d", "fusion_lon": 0.0, "bike_id": "efb1b75334882f056327345e315b891d", "is_disabled": 0, "is_reserved": 0}, {"rental_uris": {"ios": "https://dc.lft.to/lastmile_qr_scan", "android": "https://dc.lft.to/lastmile_qr_scan"}, "lon": -77.02351433333334, "type": "electric_scooter", "fusion_lat": 0.0, "lat": 38.92274483333333, "name": "8f846e5f18c02ec1593f9fc208dac051", "fusion_lon": 0.0, "bike_id": "8f846e5f18c02ec1593f9fc208dac051", "is_disabled": 0, "is_reserved": 0}, {"rental_uris": {"ios": "https://dc.lft.to/lastmile_qr_scan", "android": "https://dc.lft.to/lastmile_qr_scan"}, "lon": -77.0677785, "type": "electric_scooter", "fusion_lat": 0.0, "lat": 38.952143, "name": "450105020632973685ee7a9ae5fe9e5c", "fusion_lon": 0.0, "bike_id": "450105020632973685ee7a9ae5fe9e5c", "is_disabled": 0, "is_reserved": 0}, {"rental_uris": {"ios": "https://dc.lft.to/lastmile_qr_scan", "android": "https://dc.lft.to/lastmile_qr_scan"}, "lon": -77.032114, "type": "electric_scooter", "fusion_lat": 0.0, "lat": 38.920058, "name": "64d657b16a1faf78893850b8d9f770f6", "fusion_lon": 0.0, "bike_id": "64d657b16a1faf78893850b8d9f770f6", "is_disabled": 0, "is_reserved": 0}, {"rental_uris": {"ios": "https://dc.lft.to/lastmile_qr_scan", "android": "https://dc.lft.to/lastmile_qr_scan"}, "lon": -77.03850216666666, "type": "electric_scooter", "fusion_lat": 0.0, "lat": 38.932060666666665, "name": "ba967d291bb1ef3104d3fea8e6e41dda", "fusion_lon": 0.0, "bike_id": "ba967d291bb1ef3104d3fea8e6e41dda", "is_disabled": 0, "is_reserved": 0}, {"rental_uris": {"ios": "https://dc.lft.to/lastmile_qr_scan", "android": "https://dc.lft.to/lastmile_qr_scan"}, "lon": -77.03232183333333, "type": "electric_scooter", "fusion_lat": 0.0, "lat": 38.92163133333333, "name": "1580289f941b64707c9587a54f7b5044", "fusion_lon": 0.0, "bike_id": "1580289f941b64707c9587a54f7b5044", "is_disabled": 0, "is_reserved": 0}, {"rental_uris": {"ios": "https://dc.lft.to/lastmile_qr_scan", "android": "https://dc.lft.to/lastmile_qr_scan"}, "lon": -77.002062, "type": "electric_scooter", "fusion_lat": 0.0, "lat": 38.902212, "name": "739146e34a4bdd93f1f0b8541ba3e188", "fusion_lon": 0.0, "bike_id": "739146e34a4bdd93f1f0b8541ba3e188", "is_disabled": 0, "is_reserved": 0}, {"rental_uris": {"ios": "https://dc.lft.to/lastmile_qr_scan", "android": "https://dc.lft.to/lastmile_qr_scan"}, "lon": -77.07357766666667, "type": "electric_scooter", "fusion_lat": 0.0, "lat": 38.93357866666667, "name": "5ac3783c10f2ac1cb6134dfed3f81197", "fusion_lon": 0.0, "bike_id": "5ac3783c10f2ac1cb6134dfed3f81197", "is_disabled": 0, "is_reserved": 0}, {"rental_uris": {"ios": "https://dc.lft.to/lastmile_qr_scan", "android": "https://dc.lft.to/lastmile_qr_scan"}, "lon": -77.07293916666667, "type": "electric_scooter", "fusion_lat": 0.0, "lat": 38.93522766666667, "name": "3a6c19953531fc0f35a4a1f70f01e382", "fusion_lon": 0.0, "bike_id": "3a6c19953531fc0f35a4a1f70f01e382", "is_disabled": 0, "is_reserved": 0}, {"rental_uris": {"ios": "https://dc.lft.to/lastmile_qr_scan", "android": "https://dc.lft.to/lastmile_qr_scan"}, "lon": -76.98557116666667, "type": "electric_scooter", "fusion_lat": 0.0, "lat": 38.890024833333335, "name": "3b51a2fed30fded9006885152577d881", "fusion_lon": 0.0, "bike_id": "3b51a2fed30fded9006885152577d881", "is_disabled": 0, "is_reserved": 0}, {"rental_uris": {"ios": "https://dc.lft.to/lastmile_qr_scan", "android": "https://dc.lft.to/lastmile_qr_scan"}, "lon": -77.04752466666666, "type": "electric_scooter", "fusion_lat": 0.0, "lat": 38.90221066666667, "name": "57340a712e3c46b1428d060fe314be6d", "fusion_lon": 0.0, "bike_id": "57340a712e3c46b1428d060fe314be6d", "is_disabled": 0, "is_reserved": 0}, {"rental_uris": {"ios": "https://dc.lft.to/lastmile_qr_scan", "android": "https://dc.lft.to/lastmile_qr_scan"}, "lon": -77.02683983333333, "type": "electric_scooter", "fusion_lat": 0.0, "lat": 38.89914483333333, "name": "68a9f1058151092bd640e9291441c25d", "fusion_lon": 0.0, "bike_id": "68a9f1058151092bd640e9291441c25d", "is_disabled": 0, "is_reserved": 0}, {"rental_uris": {"ios": "https://dc.lft.to/lastmile_qr_scan", "android": "https://dc.lft.to/lastmile_qr_scan"}, "lon": -77.0499625, "type": "electric_scooter", "fusion_lat": 0.0, "lat": 38.8989685, "name": "fbd30a70618c0680789c8f7e0318d23b", "fusion_lon": 0.0, "bike_id": "fbd30a70618c0680789c8f7e0318d23b", "is_disabled": 0, "is_reserved": 0}, {"rental_uris": {"ios": "https://dc.lft.to/lastmile_qr_scan", "android": "https://dc.lft.to/lastmile_qr_scan"}, "lon": -77.0320665, "type": "electric_scooter", "fusion_lat": 0.0, "lat": 38.91796316666667, "name": "9b469b4186146dabd9993da2625b7c5a", "fusion_lon": 0.0, "bike_id": "9b469b4186146dabd9993da2625b7c5a", "is_disabled": 0, "is_reserved": 0}, {"rental_uris": {"ios": "https://dc.lft.to/lastmile_qr_scan", "android": "https://dc.lft.to/lastmile_qr_scan"}, "lon": -77.03565933333333, "type": "electric_scooter", "fusion_lat": 0.0, "lat": 38.9572305, "name": "0f73a54339f13cbbdf704d28102cbf1d", "fusion_lon": 0.0, "bike_id": "0f73a54339f13cbbdf704d28102cbf1d", "is_disabled": 0, "is_reserved": 0}, {"rental_uris": {"ios": "https://dc.lft.to/lastmile_qr_scan", "android": "https://dc.lft.to/lastmile_qr_scan"}, "lon": -77.12264983333333, "type": "electric_bike", "fusion_lat": 0.0, "lat": 38.891907333333336, "name": "e4387e55fd857182bb874aecfd8cf8a2", "fusion_lon": 0.0, "bike_id": "e4387e55fd857182bb874aecfd8cf8a2", "is_disabled": 0, "is_reserved": 0}, {"rental_uris": {"ios": "https://dc.lft.to/lastmile_qr_scan", "android": "https://dc.lft.to/lastmile_qr_scan"}, "lon": -77.11224233333333, "type": "electric_bike", "fusion_lat": 0.0, "lat": 38.82875033333333, "name": "070a5740a2692dc9c6774b2140bd21f6", "fusion_lon": 0.0, "bike_id": "070a5740a2692dc9c6774b2140bd21f6", "is_disabled": 0, "is_reserved": 0}, {"rental_uris": {"ios": "https://dc.lft.to/lastmile_qr_scan", "android": "https://dc.lft.to/lastmile_qr_scan"}, "lon": -76.98735783333333, "type": "electric_bike", "fusion_lat": 0.0, "lat": 38.9443305, "name": "0685a0a214d8c7849dc436dbebe49f1e", "fusion_lon": 0.0, "bike_id": "0685a0a214d8c7849dc436dbebe49f1e", "is_disabled": 0, "is_reserved": 0}, {"rental_uris": {"ios": "https://dc.lft.to/lastmile_qr_scan", "android": "https://dc.lft.to/lastmile_qr_scan"}, "lon": -77.0768365, "type": "electric_bike", "fusion_lat": 0.0, "lat": 38.831939, "name": "1d0f40d82b5a3c0413b6c71470f39b88", "fusion_lon": 0.0, "bike_id": "1d0f40d82b5a3c0413b6c71470f39b88", "is_disabled": 0, "is_reserved": 0}, {"rental_uris": {"ios": "https://dc.lft.to/lastmile_qr_scan", "android": "https://dc.lft.to/lastmile_qr_scan"}, "lon": -77.00511416666667, "type": "electric_scooter", "fusion_lat": 0.0, "lat": 38.91676916666667, "name": "31fc82cc5535a0e6ad3ddfc1ab103aef", "fusion_lon": 0.0, "bike_id": "31fc82cc5535a0e6ad3ddfc1ab103aef", "is_disabled": 0, "is_reserved": 0}, {"rental_uris": {"ios": "https://dc.lft.to/lastmile_qr_scan", "android": "https://dc.lft.to/lastmile_qr_scan"}, "lon": -76.93538166666667, "type": "electric_bike", "fusion_lat": 0.0, "lat": 38.9555525, "name": "f12e8a921066dfbbbc87e082fbbb0df9", "fusion_lon": 0.0, "bike_id": "f12e8a921066dfbbbc87e082fbbb0df9", "is_disabled": 0, "is_reserved": 0}, {"rental_uris": {"ios": "https://dc.lft.to/lastmile_qr_scan", "android": "https://dc.lft.to/lastmile_qr_scan"}, "lon": -77.03357116666666, "type": "electric_scooter", "fusion_lat": 0.0, "lat": 38.924473166666665, "name": "6f0f901e5f9c3102b0131f673ccbe63d", "fusion_lon": 0.0, "bike_id": "6f0f901e5f9c3102b0131f673ccbe63d", "is_disabled": 0, "is_reserved": 0}, {"rental_uris": {"ios": "https://dc.lft.to/lastmile_qr_scan", "android": "https://dc.lft.to/lastmile_qr_scan"}, "lon": -77.05630233333333, "type": "electric_scooter", "fusion_lat": 0.0, "lat": 38.92423083333333, "name": "9c305426f076e05bcdb782de7c93ed63", "fusion_lon": 0.0, "bike_id": "9c305426f076e05bcdb782de7c93ed63", "is_disabled": 0, "is_reserved": 0}, {"rental_uris": {"ios": "https://dc.lft.to/lastmile_qr_scan", "android": "https://dc.lft.to/lastmile_qr_scan"}, "lon": -77.04491516666667, "type": "electric_scooter", "fusion_lat": 0.0, "lat": 38.919515833333335, "name": "28970b0c40fb17b6339db51654f2855c", "fusion_lon": 0.0, "bike_id": "28970b0c40fb17b6339db51654f2855c", "is_disabled": 0, "is_reserved": 0}, {"rental_uris": {"ios": "https://dc.lft.to/lastmile_qr_scan", "android": "https://dc.lft.to/lastmile_qr_scan"}, "lon": -76.98683916666667, "type": "electric_scooter", "fusion_lat": 0.0, "lat": 38.88217316666667, "name": "feed6b0ad47fa8607d008d9241a7b948", "fusion_lon": 0.0, "bike_id": "feed6b0ad47fa8607d008d9241a7b948", "is_disabled": 0, "is_reserved": 0}, {"rental_uris": {"ios": "https://dc.lft.to/lastmile_qr_scan", "android": "https://dc.lft.to/lastmile_qr_scan"},