{"data": {"bikes": [{"fusion_lat": 0.0, "bike_id": "e5031408ba8a13d545d8695f15ed4118", "fusion_lon": 0.0, "lon": -77.01763316666667, "lat": 38.874731833333335, "is_reserved": 0, "is_disabled": 0, "rental_uris": {"android": "https://dc.lft.to/lastmile_qr_scan", "ios": "https://dc.lft.to/lastmile_qr_scan"}, "name": "e5031408ba8a13d545d8695f15ed4118", "type": "electric_scooter"}, {"fusion_lat": 0.0, "bike_id": "2c33a72b2cd7987d1b277de13d43b326", "fusion_lon": 0.0, "lon": -77.00532783333334, "lat": 38.90981166666667, "is_reserved": 0, "is_disabled": 0, "rental_uris": {"android": "https://dc.lft.to/lastmile_qr_scan", "ios": "https://dc.lft.to/lastmile_qr_scan"}, "name": "2c33a72b2cd7987d1b277de13d43b326", "type": "electric_scooter"}, {"fusion_lat": 0.0, "bike_id": "06f8d69843e9773984fbc0578d083bb5", "fusion_lon": 0.0, "lon": -77.02623216666667, "lat": 38.933377666666665, "is_reserved": 0, "is_disabled": 0, "rental_uris": {"android": "https://dc.lft.to/lastmile_qr_scan", "ios": "https://dc.lft.to/lastmile_qr_scan"}, "name": "06f8d69843e9773984fbc0578d083bb5", "type": "electric_scooter"}, {"fusion_lat": 0.0, "bike_id": "15600a01badadc9d614f5a632084e95b", "fusion_lon": 0.0, "lon": -77.036598, "lat": 38.9313255, "is_reserved": 0, "is_disabled": 0, "rental_uris": {"android": "https://dc.lft.to/lastmile_qr_scan", "ios": "https://dc.lft.to/lastmile_qr_scan"}, "name": "15600a01badadc9d614f5a632084e95b", "type": "electric_scooter"}, {"fusion_lat": 0.0, "bike_id": "b6d7ce0a6895fd9a1274c59d7f6562de", "fusion_lon": 0.0, "lon": -76.90744983333333, "lat": 38.896113166666666, "is_reserved": 0, "is_disabled": 0, "rental_uris": {"android": "https://dc.lft.to/lastmile_qr_scan", "ios": "https://dc.lft.to/lastmile_qr_scan"}, "name": "b6d7ce0a6895fd9a1274c59d7f6562de", "type": "electric_bike"}, {"fusion_lat": 0.0, "bike_id": "2fcbc6c7aae5e327a7be4842c61d3885", "fusion_lon": 0.0, "lon": -76.99267933333333, "lat": 38.896087666666666, "is_reserved": 0, "is_disabled": 0, "rental_uris": {"android": "https://dc.lft.to/lastmile_qr_scan", "ios": "https://dc.lft.to/lastmile_qr_scan"}, "name": "2fcbc6c7aae5e327a7be4842c61d3885", "type": "electric_scooter"}, {"fusion_lat": 0.0, "bike_id": "39009c3ff1df4e0f84e37429d481803f", "fusion_lon": 0.0, "lon": -76.98530116666667, "lat": 38.86686233333333, "is_reserved": 0, "is_disabled": 0, "rental_uris": {"android": "https://dc.lft.to/lastmile_qr_scan", "ios": "https://dc.lft.to/lastmile_qr_scan"}, "name": "39009c3ff1df4e0f84e37429d481803f", "type": "electric_scooter"}, {"fusion_lat": 0.0, "bike_id": "1f3277c33171d38fe860ff488a6c06b2", "fusion_lon": 0.0, "lon": -77.0547515, "lat": 38.8978175, "is_reserved": 0, "is_disabled": 0, "rental_uris": {"android": "https://dc.lft.to/lastmile_qr_scan", "ios": "https://dc.lft.to/lastmile_qr_scan"}, "name": "1f3277c33171d38fe860ff488a6c06b2", "type": "electric_scooter"}, {"fusion_lat": 0.0, "bike_id": "9d29bc987b6196129f85be54db07f740", "fusion_lon": 0.0, "lon": -77.02203966666667, "lat": 38.924686333333334, "is_reserved": 0, "is_disabled": 0, "rental_uris": {"android": "https://dc.lft.to/lastmile_qr_scan", "ios": "https://dc.lft.to/lastmile_qr_scan"}, "name": "9d29bc987b6196129f85be54db07f740", "type": "electric_scooter"}, {"fusion_lat": 0.0, "bike_id": "6738419103d111a9c912c755ad6414f4", "fusion_lon": 0.0, "lon": -77.04670966666667, "lat": 38.895639833333334, "is_reserved": 0, "is_disabled": 0, "rental_uris": {"android": "https://dc.lft.to/lastmile_qr_scan", "ios": "https://dc.lft.to/lastmile_qr_scan"}, "name": "6738419103d111a9c912c755ad6414f4", "type": "electric_scooter"}, {"fusion_lat": 0.0, "bike_id": "677542e5888568ff7bd422e13835f865", "fusion_lon": 0.0, "lon": -77.00965333333333, "lat": 38.9170695, "is_reserved": 0, "is_disabled": 0, "rental_uris": {"android": "https://dc.lft.to/lastmile_qr_scan", "ios": "https://dc.lft.to/lastmile_qr_scan"}, "name": "677542e5888568ff7bd422e13835f865", "type": "electric_scooter"}, {"fusion_lat": 0.0, "bike_id": "e5ab2cd6053565d4f8d8fda8fdcb43fb", "fusion_lon": 0.0, "lon": -77.0347525, "lat": 38.935328166666665, "is_reserved": 0, "is_disabled": 0, "rental_uris": {"android": "https://dc.lft.to/lastmile_qr_scan", "ios": "https://dc.lft.to/lastmile_qr_scan"}, "name": "e5ab2cd6053565d4f8d8fda8fdcb43fb", "type": "electric_scooter"}, {"fusion_lat": 0.0, "bike_id": "9021421e05f8d9c114e2e8772263653d", "fusion_lon": 0.0, "lon": -77.02789933333334, "lat": 38.96128733333333, "is_reserved": 0, "is_disabled": 0, "rental_uris": {"android": "https://dc.lft.to/lastmile_qr_scan", "ios": "https://dc.lft.to/lastmile_qr_scan"}, "name": "9021421e05f8d9c114e2e8772263653d", "type": "electric_scooter"}, {"fusion_lat": 0.0, "bike_id": "584345f51920c0ce1e155c0d9b240cc2", "fusion_lon": 0.0, "lon": -77.01859866666666, "lat": 38.91493916666667, "is_reserved": 0, "is_disabled": 0, "rental_uris": {"android": "https://dc.lft.to/lastmile_qr_scan", "ios": "https://dc.lft.to/lastmile_qr_scan"}, "name": "584345f51920c0ce1e155c0d9b240cc2", "type": "electric_scooter"}, {"fusion_lat": 0.0, "bike_id": "816a5a6174aab5de0492eafadb130677", "fusion_lon": 0.0, "lon": -77.04152, "lat": 38.918184333333336, "is_reserved": 0, "is_disabled": 0, "rental_uris": {"android": "https://dc.lft.to/lastmile_qr_scan", "ios": "https://dc.lft.to/lastmile_qr_scan"}, "name": "816a5a6174aab5de0492eafadb130677", "type": "electric_scooter"}, {"fusion_lat": 0.0, "bike_id": "c764cd48a0b60a2914fe535a371e4a6d", "fusion_lon": 0.0, "lon": -77.048719, "lat": 38.905229166666665, "is_reserved": 0, "is_disabled": 0, "rental_uris": {"android": "https://dc.lft.to/lastmile_qr_scan", "ios": "https://dc.lft.to/lastmile_qr_scan"}, "name": "c764cd48a0b60a2914fe535a371e4a6d", "type": "electric_scooter"}, {"fusion_lat": 0.0, "bike_id": "edc65a671795c4656a41e080462e6d75", "fusion_lon": 0.0, "lon": -77.04871483333334, "lat": 38.8928495, "is_reserved": 0, "is_disabled": 0, "rental_uris": {"android": "https://dc.lft.to/lastmile_qr_scan", "ios": "https://dc.lft.to/lastmile_qr_scan"}, "name": "edc65a671795c4656a41e080462e6d75", "type": "electric_scooter"}, {"fusion_lat": 0.0, "bike_id": "01733934ab9c0c46994e8b6128d8550b", "fusion_lon": 0.0, "lon": -77.0289425, "lat": 38.94036883333333, "is_reserved": 0, "is_disabled": 0, "rental_uris": {"android": "https://dc.lft.to/lastmile_qr_scan", "ios": "https://dc.lft.to/lastmile_qr_scan"}, "name": "01733934ab9c0c46994e8b6128d8550b", "type": "electric_scooter"}, {"fusion_lat": 0.0, "bike_id": "ff24a6818214087fa5e36e97c1d58605", "fusion_lon": 0.0, "lon": -76.9948775, "lat": 38.89736166666667, "is_reserved": 0, "is_disabled": 0, "rental_uris": {"android": "https://dc.lft.to/lastmile_qr_scan", "ios": "https://dc.lft.to/lastmile_qr_scan"}, "name": "ff24a6818214087fa5e36e97c1d58605", "type": "electric_scooter"}, {"fusion_lat": 0.0, "bike_id": "5f70893f1dc1d6a60c1abe55a93e018a", "fusion_lon": 0.0, "lon": -76.99543283333334, "lat": 38.883713, "is_reserved": 0, "is_disabled": 0, "rental_uris": {"android": "https://dc.lft.to/lastmile_qr_scan", "ios": "https://dc.lft.to/lastmile_qr_scan"}, "name": "5f70893f1dc1d6a60c1abe55a93e018a", "type": "electric_scooter"}, {"fusion_lat": 0.0, "bike_id": "fb29252e99566e726df15e09611bf6aa", "fusion_lon": 0.0, "lon": -77.02745133333333, "lat": 38.941812166666665, "is_reserved": 0, "is_disabled": 0, "rental_uris": {"android": "https://dc.lft.to/lastmile_qr_scan", "ios": "https://dc.lft.to/lastmile_qr_scan"}, "name": "fb29252e99566e726df15e09611bf6aa", "type": "electric_scooter"}, {"fusion_lat": 0.0, "bike_id": "d91e164636dc9e3fc6a540447d85655a", "fusion_lon": 0.0, "lon": -77.00839616666667, "lat": 38.90523783333333, "is_reserved": 0, "is_disabled": 0, "rental_uris": {"android": "https://dc.lft.to/lastmile_qr_scan", "ios": "https://dc.lft.to/lastmile_qr_scan"}, "name": "d91e164636dc9e3fc6a540447d85655a", "type": "electric_bike"}, {"fusion_lat": 0.0, "bike_id": "c25bc6a154f7337e3d50653dd4553101", "fusion_lon": 0.0, "lon": -76.93728216666666, "lat": 38.890189166666666, "is_reserved": 0, "is_disabled": 0, "rental_uris": {"android": "https://dc.lft.to/lastmile_qr_scan", "ios": "https://dc.lft.to/lastmile_qr_scan"}, "name": "c25bc6a154f7337e3d50653dd4553101", "type": "electric_scooter"}, {"fusion_lat": 0.0, "bike_id": "727b2e6c91c3141a34e4a6efb1e3adc3", "fusion_lon": 0.0, "lon": -77.00207283333333, "lat": 38.900243833333334, "is_reserved": 0, "is_disabled": 0, "rental_uris": {"android": "https://dc.lft.to/lastmile_qr_scan", "ios": "https://dc.lft.to/lastmile_qr_scan"}, "name": "727b2e6c91c3141a34e4a6efb1e3adc3", "type": "electric_scooter"}, {"fusion_lat": 0.0, "bike_id": "fa552c42afb61d65654c4300697fe0f9", "fusion_lon": 0.0, "lon": -77.037085, "lat": 38.92776116666667, "is_reserved": 0, "is_disabled": 0, "rental_uris": {"android": "https://dc.lft.to/lastmile_qr_scan", "ios": "https://dc.lft.to/lastmile_qr_scan"}, "name": "fa552c42afb61d65654c4300697fe0f9", "type": "electric_scooter"}, {"fusion_lat": 0.0, "bike_id": "1afedb186fa8b78a4bb7ea3bd01a0f5b", "fusion_lon": 0.0, "lon": -77.03280633333334, "lat": 38.927445666666664, "is_reserved": 0, "is_disabled": 0, "rental_uris": {"android": "https://dc.lft.to/lastmile_qr_scan", "ios": "https://dc.lft.to/lastmile_qr_scan"}, "name": "1afedb186fa8b78a4bb7ea3bd01a0f5b", "type": "electric_scooter"}, {"fusion_lat": 0.0, "bike_id": "21aeaf060b585d5ae6e1ccd80895123b", "fusion_lon": 0.0, "lon": -77.02474183333334, "lat": 38.918135166666666, "is_reserved": 0, "is_disabled": 0, "rental_uris": {"android": "https://dc.lft.to/lastmile_qr_scan", "ios": "https://dc.lft.to/lastmile_qr_scan"}, "name": "21aeaf060b585d5ae6e1ccd80895123b", "type": "electric_scooter"}, {"fusion_lat": 0.0, "bike_id": "b8e4f3d9c969f9b1d6e4882f1f788d65", "fusion_lon": 0.0, "lon": -77.02481666666667, "lat": 38.9170085, "is_reserved": 0, "is_disabled": 0, "rental_uris": {"android": "https://dc.lft.to/lastmile_qr_scan", "ios": "https://dc.lft.to/lastmile_qr_scan"}, "name": "b8e4f3d9c969f9b1d6e4882f1f788d65", "type": "electric_scooter"}, {"fusion_lat": 0.0, "bike_id": "881c8d2b98efa5dd47ba686048383e8e", "fusion_lon": 0.0, "lon": -77.0352305, "lat": 38.92726433333333, "is_reserved": 0, "is_disabled": 0, "rental_uris": {"android": "https://dc.lft.to/lastmile_qr_scan", "ios": "https://dc.lft.to/lastmile_qr_scan"}, "name": "881c8d2b98efa5dd47ba686048383e8e", "type": "electric_scooter"}, {"fusion_lat": 0.0, "bike_id": "15fe840542b139163c8decf6dcfc3d6a", "fusion_lon": 0.0, "lon": -77.030462, "lat": 38.88743816666667, "is_reserved": 0, "is_disabled": 0, "rental_uris": {"android": "https://dc.lft.to/lastmile_qr_scan", "ios": "https://dc.lft.to/lastmile_qr_scan"}, "name": "15fe840542b139163c8decf6dcfc3d6a", "type": "electric_scooter"}, {"fusion_lat": 0.0, "bike_id": "0a169c099950db6fe58f62af08cb7edb", "fusion_lon": 0.0, "lon": -77.04499716666666, "lat": 38.90010216666667, "is_reserved": 0, "is_disabled": 0, "rental_uris": {"android": "https://dc.lft.to/lastmile_qr_scan", "ios": "https://dc.lft.to/lastmile_qr_scan"}, "name": "0a169c099950db6fe58f62af08cb7edb", "type": "electric_scooter"}, {"fusion_lat": 0.0, "bike_id": "46680d18b0b89cc3753a99053a66222d", "fusion_lon": 0.0, "lon": -76.98882866666666, "lat": 38.86659366666667, "is_reserved": 0, "is_disabled": 0, "rental_uris": {"android": "https://dc.lft.to/lastmile_qr_scan", "ios": "https://dc.lft.to/lastmile_qr_scan"}, "name": "46680d18b0b89cc3753a99053a66222d", "type": "electric_scooter"}, {"fusion_lat": 0.0, "bike_id": "5a518d4cf05ac7462331a77234d174a6", "fusion_lon": 0.0, "lon": -76.9871365, "lat": 38.86694833333333, "is_reserved": 0, "is_disabled": 0, "rental_uris": {"android": "https://dc.lft.to/lastmile_qr_scan", "ios": "https://dc.lft.to/lastmile_qr_scan"}, "name": "5a518d4cf05ac7462331a77234d174a6", "type": "electric_scooter"}, {"fusion_lat": 0.0, "bike_id": "14f1b66cf439cf2afa14ec1ab3b51f8f", "fusion_lon": 0.0, "lon": -76.97907, "lat": 38.863549, "is_reserved": 0, "is_disabled": 0, "rental_uris": {"android": "https://dc.lft.to/lastmile_qr_scan", "ios": "https://dc.lft.to/lastmile_qr_scan"}, "name": "14f1b66cf439cf2afa14ec1ab3b51f8f", "type": "electric_scooter"}, {"fusion_lat": 0.0, "bike_id": "2ed9bf767ba004779de8194d70789378", "fusion_lon": 0.0, "lon": -77.00732583333334, "lat": 38.903799666666664, "is_reserved": 0, "is_disabled": 0, "rental_uris": {"android": "https://dc.lft.to/lastmile_qr_scan", "ios": "https://dc.lft.to/lastmile_qr_scan"}, "name": "2ed9bf767ba004779de8194d70789378", "type": "electric_scooter"}, {"fusion_lat": 0.0, "bike_id": "d30ac6b780cb5f14d177c1feecbe5fc1", "fusion_lon": 0.0, "lon": -77.00714683333334, "lat": 38.90372166666667, "is_reserved": 0, "is_disabled": 0, "rental_uris": {"android": "https://dc.lft.to/lastmile_qr_scan", "ios": "https://dc.lft.to/lastmile_qr_scan"}, "name": "d30ac6b780cb5f14d177c1feecbe5fc1", "type": "electric_scooter"}, {"fusion_lat": 0.0, "bike_id": "91f66c1ea954b88df5959fef2fdfe644", "fusion_lon": 0.0, "lon": -77.02847416666667, "lat": 38.932232666666664, "is_reserved": 0, "is_disabled": 0, "rental_uris": {"android": "https://dc.lft.to/lastmile_qr_scan", "ios": "https://dc.lft.to/lastmile_qr_scan"}, "name": "91f66c1ea954b88df5959fef2fdfe644", "type": "electric_scooter"}, {"fusion_lat": 0.0, "bike_id": "a4162538d3c7768ff278f277d679d846", "fusion_lon": 0.0, "lon": -77.03169116666666, "lat": 38.89627766666667, "is_reserved": 0, "is_disabled": 0, "rental_uris": {"android": "https://dc.lft.to/lastmile_qr_scan", "ios": "https://dc.lft.to/lastmile_qr_scan"}, "name": "a4162538d3c7768ff278f277d679d846", "type": "electric_scooter"}, {"fusion_lat": 0.0, "bike_id": "b19bedb849ab5349966d7657be733e30", "fusion_lon": 0.0, "lon": -77.0450465, "lat": 38.90494616666667, "is_reserved": 0, "is_disabled": 0, "rental_uris": {"android": "https://dc.lft.to/lastmile_qr_scan", "ios": "https://dc.lft.to/lastmile_qr_scan"}, "name": "b19bedb849ab5349966d7657be733e30", "type": "electric_scooter"}, {"fusion_lat": 0.0, "bike_id": "c0dc9d259f339a8f35736dddd3a93bc3", "fusion_lon": 0.0, "lon": -76.976164, "lat": 38.90385166666667, "is_reserved": 0, "is_disabled": 0, "rental_uris": {"android": "https://dc.lft.to/lastmile_qr_scan", "ios": "https://dc.lft.to/lastmile_qr_scan"}, "name": "c0dc9d259f339a8f35736dddd3a93bc3", "type": "electric_scooter"}, {"fusion_lat": 0.0, "bike_id": "940a4c1a59be436e7052028dcda6ea0a", "fusion_lon": 0.0, "lon": -76.99930316666666, "lat": 38.91931566666667, "is_reserved": 0, "is_disabled": 0, "rental_uris": {"android": "https://dc.lft.to/lastmile_qr_scan", "ios": "https://dc.lft.to/lastmile_qr_scan"}, "name": "940a4c1a59be436e7052028dcda6ea0a", "type": "electric_scooter"}, {"fusion_lat": 0.0, "bike_id": "26e10807c2317ae4d6140cd7f1549928", "fusion_lon": 0.0, "lon": -76.95451733333333, "lat": 38.93636016666667, "is_reserved": 0, "is_disabled": 0, "rental_uris": {"android": "https://dc.lft.to/lastmile_qr_scan", "ios": "https://dc.lft.to/lastmile_qr_scan"}, "name": "26e10807c2317ae4d6140cd7f1549928", "type": "electric_bike"}, {"fusion_lat": 0.0, "bike_id": "38b2c1d4dfdfbf81763d54c495a16eb3", "fusion_lon": 0.0, "lon": -77.034119, "lat": 38.922656, "is_reserved": 0, "is_disabled": 0, "rental_uris": {"android": "https://dc.lft.to/lastmile_qr_scan", "ios": "https://dc.lft.to/lastmile_qr_scan"}, "name": "38b2c1d4dfdfbf81763d54c495a16eb3", "type": "electric_scooter"}, {"fusion_lat": 0.0, "bike_id": "c89e84148ba7f85c9ea2859913859f54", "fusion_lon": 0.0, "lon": -76.99054466666666, "lat": 38.8637015, "is_reserved": 0, "is_disabled": 0, "rental_uris": {"android": "https://dc.lft.to/lastmile_qr_scan", "ios": "https://dc.lft.to/lastmile_qr_scan"}, "name": "c89e84148ba7f85c9ea2859913859f54", "type": "electric_scooter"}, {"fusion_lat": 0.0, "bike_id": "a962b83496f5a07cd1753008dae2d24e", "fusion_lon": 0.0, "lon": -77.02079716666667, "lat": 38.90401516666667, "is_reserved": 0, "is_disabled": 0, "rental_uris": {"android": "https://dc.lft.to/lastmile_qr_scan", "ios": "https://dc.lft.to/lastmile_qr_scan"}, "name": "a962b83496f5a07cd1753008dae2d24e", "type": "electric_scooter"}, {"fusion_lat": 0.0, "bike_id": "e021fa201b7b1d31c930684ee07cae34", "fusion_lon": 0.0, "lon": -77.012771, "lat": 38.8922825, "is_reserved": 0, "is_disabled": 0, "rental_uris": {"android": "https://dc.lft.to/lastmile_qr_scan", "ios": "https://dc.lft.to/lastmile_qr_scan"}, "name": "e021fa201b7b1d31c930684ee07cae34", "type": "electric_scooter"}, {"fusion_lat": 0.0, "bike_id": "deeba0f2ad270536055408fa152a7aa6", "fusion_lon": 0.0, "lon": -77.02221166666666, "lat": 38.935449166666665, "is_reserved": 0, "is_disabled": 0, "rental_uris": {"android": "https://dc.lft.to/lastmile_qr_scan", "ios": "https://dc.lft.to/lastmile_qr_scan"}, "name": "deeba0f2ad270536055408fa152a7aa6", "type": "electric_scooter"}, {"fusion_lat": 0.0, "bike_id": "be0099fa8c5328bdaa7ac2bae1c40267", "fusion_lon": 0.0, "lon": -77.0206705, "lat": 38.89278683333333, "is_reserved": 0, "is_disabled": 0, "rental_uris": {"android": "https://dc.lft.to/lastmile_qr_scan", "ios": "https://dc.lft.to/lastmile_qr_scan"}, "name": "be0099fa8c5328bdaa7ac2bae1c40267", "type": "electric_scooter"}, {"fusion_lat": 0.0, "bike_id": "8369dd40c658f6b103b07cc144943761", "fusion_lon": 0.0, "lon": -77.01191416666667, "lat": 38.911991666666665, "is_reserved": 0, "is_disabled": 0, "rental_uris": {"android": "https://dc.lft.to/lastmile_qr_scan", "ios": "https://dc.lft.to/lastmile_qr_scan"}, "name": "8369dd40c658f6b103b07cc144943761", "type": "electric_scooter"}, {"fusion_lat": 0.0, "bike_id": "a5c8b9e6bd904686dad57d66ab855cb4", "fusion_lon": 0.0, "lon": -77.01045216666667, "lat": 38.897523666666665, "is_reserved": 0, "is_disabled": 0, "rental_uris": {"android": "https://dc.lft.to/lastmile_qr_scan", "ios": "https://dc.lft.to/lastmile_qr_scan"}, "name": "a5c8b9e6bd904686dad57d66ab855cb4", "type": "electric_scooter"}, {"fusion_lat": 0.0, "bike_id": "f8bdb6041cd6ec2f2c05209e65323edb", "fusion_lon": 0.0, "lon": -77.036151, "lat": 38.917208, "is_reserved": 0, "is_disabled": 0, "rental_uris": {"android": "https://dc.lft.to/lastmile_qr_scan", "ios": "https://dc.lft.to/lastmile_qr_scan"}, "name": "f8bdb6041cd6ec2f2c05209e65323edb", "type": "electric_scooter"}, {"fusion_lat": 0.0, "bike_id": "f8c06aaceb8f1e038005fdb169c29b13", "fusion_lon": 0.0, "lon": -77.0540625, "lat": 38.927485, "is_reserved": 0, "is_disabled": 0, "rental_uris": {"android": "https://dc.lft.to/lastmile_qr_scan", "ios": "https://dc.lft.to/lastmile_qr_scan"}, "name": "f8c06aaceb8f1e038005fdb169c29b13", "type": "electric_scooter"}, {"fusion_lat": 0.0, "bike_id": "52a89f1ca355fd971aed710dfb5cac54", "fusion_lon": 0.0, "lon": -76.999386, "lat": 38.8431035, "is_reserved": 0, "is_disabled": 0, "rental_uris": {"android": "https://dc.lft.to/lastmile_qr_scan", "ios": "https://dc.lft.to/lastmile_qr_scan"}, "name": "52a89f1ca355fd971aed710dfb5cac54", "type": "electric_scooter"}, {"fusion_lat": 0.0, "bike_id": "262583539a68a4464cd97ba8e896447b", "fusion_lon": 0.0, "lon": -77.01951633333333, "lat": 38.924185666666666, "is_reserved": 0, "is_disabled": 0, "rental_uris": {"android": "https://dc.lft.to/lastmile_qr_scan", "ios": "https://dc.lft.to/lastmile_qr_scan"}, "name": "262583539a68a4464cd97ba8e896447b", "type": "electric_scooter"}, {"fusion_lat": 0.0, "bike_id": "c5dc42dc6ab7dfdfc798c7b98dfbe08a", "fusion_lon": 0.0, "lon": -76.93058283333333, "lat": 38.89851266666667, "is_reserved": 0, "is_disabled": 0, "rental_uris": {"android": "https://dc.lft.to/lastmile_qr_scan", "ios": "https://dc.lft.to/lastmile_qr_scan"}, "name": "c5dc42dc6ab7dfdfc798c7b98dfbe08a", "type": "electric_scooter"}, {"fusion_lat": 0.0, "bike_id": "2e4d5edf44185cc3298dd17047b6de6c", "fusion_lon": 0.0, "lon": -77.03208433333333, "lat": 38.9138675, "is_reserved": 0, "is_disabled": 0, "rental_uris": {"android": "https://dc.lft.to/lastmile_qr_scan", "ios": "https://dc.lft.to/lastmile_qr_scan"}, "name": "2e4d5edf44185cc3298dd17047b6de6c", "type": "electric_scooter"}, {"fusion_lat": 0.0, "bike_id": "6c89469715ef60d080952b62967d21f1", "fusion_lon": 0.0, "lon": -77.11451016666666, "lat": 38.881887166666665, "is_reserved": 0, "is_disabled": 0, "rental_uris": {"android": "https://dc.lft.to/lastmile_qr_scan", "ios": "https://dc.lft.to/lastmile_qr_scan"}, "name": "6c89469715ef60d080952b62967d21f1", "type": "electric_bike"}, {"fusion_lat": 0.0, "bike_id": "065deeafb571be146fc2710781dc88b8", "fusion_lon": 0.0, "lon": -77.04114216666666, "lat": 38.902348, "is_reserved": 0, "is_disabled": 0, "rental_uris": {"android": "https://dc.lft.to/lastmile_qr_scan", "ios": "https://dc.lft.to/lastmile_qr_scan"}, "name": "065deeafb571be146fc2710781dc88b8", "type": "electric_scooter"}, {"fusion_lat": 0.0, "bike_id": "326e6348b9f4e3ccbf9b7fe46610f566", "fusion_lon": 0.0, "lon": -77.02347216666666, "lat": 38.93170716666667, "is_reserved": 0, "is_disabled": 0, "rental_uris": {"android": "https://dc.lft.to/lastmile_qr_scan", "ios": "https://dc.lft.to/lastmile_qr_scan"}, "name": "326e6348b9f4e3ccbf9b7fe46610f566", "type": "electric_scooter"}, {"fusion_lat": 0.0, "bike_id": "383114b55664fe3ffffc6eb2bd8e4043", "fusion_lon": 0.0, "lon": -76.98712583333334, "lat": 38.86699516666667, "is_reserved": 0, "is_disabled": 0, "rental_uris": {"android": "https://dc.lft.to/lastmile_qr_scan", "ios": "https://dc.lft.to/lastmile_qr_scan"}, "name": "383114b55664fe3ffffc6eb2bd8e4043", "type": "electric_scooter"}, {"fusion_lat": 0.0, "bike_id": "ef5eecb2c732b45cf210d683ee9115cc", "fusion_lon": 0.0, "lon": -77.04865166666667, "lat": 38.892224666666664, "is_reserved": 0, "is_disabled": 0, "rental_uris": {"android": "https://dc.lft.to/lastmile_qr_scan", "ios": "https://dc.lft.to/lastmile_qr_scan"}, "name": "ef5eecb2c732b45cf210d683ee9115cc", "type": "electric_scooter"}, {"fusion_lat": 0.0, "bike_id": "6d8f9b08d66ca59192397ff7c3cfbdd1", "fusion_lon": 0.0, "lon": -77.0384655, "lat": 38.91280416666667, "is_reserved": 0, "is_disabled": 0, "rental_uris": {"android": "https://dc.lft.to/lastmile_qr_scan", "ios": "https://dc.lft.to/lastmile_qr_scan"}, "name": "6d8f9b08d66ca59192397ff7c3cfbdd1", "type": "electric_scooter"}, {"fusion_lat": 0.0, "bike_id": "5b5f939628b178cdd7139cd80f551c3a", "fusion_lon": 0.0, "lon": -76.98230433333333, "lat": 38.868931833333335, "is_reserved": 0, "is_disabled": 0, "rental_uris": {"android": "https://dc.lft.to/lastmile_qr_scan", "ios": "https://dc.lft.to/lastmile_qr_scan"}, "name": "5b5f939628b178cdd7139cd80f551c3a", "type": "electric_scooter"}, {"fusion_lat": 0.0, "bike_id": "8762f47e0d21f4bb5519fb182a9fc9e1", "fusion_lon": 0.0, "lon": -77.03271566666666, "lat": 38.91993983333333, "is_reserved": 0, "is_disabled": 0, "rental_uris": {"android": "https://dc.lft.to/lastmile_qr_scan", "ios": "https://dc.lft.to/lastmile_qr_scan"}, "name": "8762f47e0d21f4bb5519fb182a9fc9e1", "type": "electric_scooter"}, {"fusion_lat": 0.0, "bike_id": "e8f21d62b44390ba7d3d033c5bbb9abc", "fusion_lon": 0.0, "lon": -77.02435366666667, "lat": 38.937518, "is_reserved": 0, "is_disabled": 0, "rental_uris": {"android": "https://dc.lft.to/lastmile_qr_scan", "ios": "https://dc.lft.to/lastmile_qr_scan"}, "name": "e8f21d62b44390ba7d3d033c5bbb9abc", "type": "electric_scooter"}, {"fusion_lat": 0.0, "bike_id": "96423f245a75ceda7aa26d05041b65c8", "fusion_lon": 0.0, "lon": -77.020956, "lat": 38.921797, "is_reserved": 0, "is_disabled": 0, "rental_uris": {"android": "https://dc.lft.to/lastmile_qr_scan", "ios": "https://dc.lft.to/lastmile_qr_scan"}, "name": "96423f245a75ceda7aa26d05041b65c8", "type": "electric_scooter"}, {"fusion_lat": 0.0, "bike_id": "4d4b1aa4af95ced74e88e9ac04734006", "fusion_lon": 0.0, "lon": -77.0542615, "lat": 38.928372333333336, "is_reserved": 0, "is_disabled": 0, "rental_uris": {"android": "https://dc.lft.to/lastmile_qr_scan", "ios": "https://dc.lft.to/lastmile_qr_scan"}, "name": "4d4b1aa4af95ced74e88e9ac04734006", "type": "electric_scooter"}, {"fusion_lat": 0.0, "bike_id": "758ba623c2df77fb8120bbdc4a356378", "fusion_lon": 0.0, "lon": -77.028229, "lat": 38.931679333333335, "is_reserved": 0, "is_disabled": 0, "rental_uris": {"android": "https://dc.lft.to/lastmile_qr_scan", "ios": "https://dc.lft.to/lastmile_qr_scan"}, "name": "758ba623c2df77fb8120bbdc4a356378", "type": "electric_scooter"}, {"fusion_lat": 0.0, "bike_id": "1cf11fd7af707368cf337a76b9d509c1", "fusion_lon": 0.0, "lon": -77.03509316666667, "lat": 38.921500333333334, "is_reserved": 0, "is_disabled": 0, "rental_uris": {"android": "https://dc.lft.to/lastmile_qr_scan", "ios": "https://dc.lft.to/lastmile_qr_scan"}, "name": "1cf11fd7af707368cf337a76b9d509c1", "type": "electric_scooter"}, {"fusion_lat": 0.0, "bike_id": "95c626b729cba6803f0ac981717607dc", "fusion_lon": 0.0, "lon": -77.03154316666667, "lat": 38.92016783333333, "is_reserved": 0, "is_disabled": 0, "rental_uris": {"android": "https://dc.lft.to/lastmile_qr_scan", "ios": "https://dc.lft.to/lastmile_qr_scan"}, "name": "95c626b729cba6803f0ac981717607dc", "type": "electric_scooter"}, {"fusion_lat": 0.0, "bike_id": "3236c834e4722522ca42058bcdeb920d", "fusion_lon": 0.0, "lon": -77.0242215, "lat": 38.91823683333333, "is_reserved": 0, "is_disabled": 0, "rental_uris": {"android": "https://dc.lft.to/lastmile_qr_scan", "ios": "https://dc.lft.to/lastmile_qr_scan"}, "name": "3236c834e4722522ca42058bcdeb920d", "type": "electric_scooter"}, {"fusion_lat": 0.0, "bike_id": "ce140e0dd5b3a85d1aeebf417b2c29c8", "fusion_lon": 0.0, "lon": -77.049955, "lat": 38.9009765, "is_reserved": 0, "is_disabled": 0, "rental_uris": {"android": "https://dc.lft.to/lastmile_qr_scan", "ios": "https://dc.lft.to/lastmile_qr_scan"}, "name": "ce140e0dd5b3a85d1aeebf417b2c29c8", "type": "electric_scooter"}, {"fusion_lat": 0.0, "bike_id": "8d87409bb55794d6bea718c59fbb2c95", "fusion_lon": 0.0, "lon": -77.0127575, "lat": 38.90000233333333, "is_reserved": 0, "is_disabled": 0, "rental_uris": {"android": "https://dc.lft.to/lastmile_qr_scan", "ios": "https://dc.lft.to/lastmile_qr_scan"}, "name": "8d87409bb55794d6bea718c59fbb2c95", "type": "electric_scooter"}, {"fusion_lat": 0.0, "bike_id": "e6be073c12d06bee74dd766422124579", "fusion_lon": 0.0, "lon": -77.03387666666667, "lat": 38.8995525, "is_reserved": 0, "is_disabled": 0, "rental_uris": {"android": "https://dc.lft.to/lastmile_qr_scan", "ios": "https://dc.lft.to/lastmile_qr_scan"}, "name": "e6be073c12d06bee74dd766422124579", "type": "electric_scooter"}, {"fusion_lat": 0.0, "bike_id": "ea5963ebecfee319a0385ce4d453865a", "fusion_lon": 0.0, "lon": -77.04313883333333, "lat": 38.921880333333334, "is_reserved": 0, "is_disabled": 0, "rental_uris": {"android": "https://dc.lft.to/lastmile_qr_scan", "ios": "https://dc.lft.to/lastmile_qr_scan"}, "name": "ea5963ebecfee319a0385ce4d453865a", "type": "electric_scooter"}, {"fusion_lat": 0.0, "bike_id": "0c4ac145f0f035d81dad932e2058f3f3", "fusion_lon": 0.0, "lon": -77.03503633333334, "lat": 38.92144416666667, "is_reserved": 0, "is_disabled": 0, "rental_uris": {"android": "https://dc.lft.to/lastmile_qr_scan", "ios": "https://dc.lft.to/lastmile_qr_scan"}, "name": "0c4ac145f0f035d81dad932e2058f3f3", "type": "electric_scooter"}, {"fusion_lat": 0.0, "bike_id": "17a15b994e7a4b4e1ce03c6eed49975f", "fusion_lon": 0.0, "lon": -76.93029316666667, "lat": 38.900127166666664, "is_reserved": 0, "is_disabled": 0, "rental_uris": {"android": "https://dc.lft.to/lastmile_qr_scan", "ios": "https://dc.lft.to/lastmile_qr_scan"}, "name": "17a15b994e7a4b4e1ce03c6eed49975f", "type": "electric_scooter"}, {"fusion_lat": 0.0, "bike_id": "b0d4c340d0e3dd76817328662857e507", "fusion_lon": 0.0, "lon": -77.02681733333333, "lat": 38.899797666666664, "is_reserved": 0, "is_disabled": 0, "rental_uris": {"android": "https://dc.lft.to/lastmile_qr_scan", "ios": "https://dc.lft.to/lastmile_qr_scan"}, "name": "b0d4c340d0e3dd76817328662857e507", "type": "electric_scooter"}, {"fusion_lat": 0.0, "bike_id": "2ce7923d76cda2e4fc859bff102d1381", "fusion_lon": 0.0, "lon": -77.01485783333334, "lat": 38.892169833333334, "is_reserved": 0, "is_disabled": 0, "rental_uris": {"android": "https://dc.lft.to/lastmile_qr_scan", "ios": "https://dc.lft.to/lastmile_qr_scan"}, "name": "2ce7923d76cda2e4fc859bff102d1381", "type": "electric_scooter"}, {"fusion_lat": 0.0, "bike_id": "dbf58003b8d9a4dddbcdb56006ced5d5", "fusion_lon": 0.0, "lon": -77.01515616666667, "lat": 38.967774166666665, "is_reserved": 0, "is_disabled": 0, "rental_uris": {"android": "https://dc.lft.to/lastmile_qr_scan", "ios": "https://dc.lft.to/lastmile_qr_scan"}, "name": "dbf58003b8d9a4dddbcdb56006ced5d5", "type": "electric_scooter"}, {"fusion_lat": 0.0, "bike_id": "1aa41a0ab2104593b61c566f61dc42dc", "fusion_lon": 0.0, "lon": -77.03458083333334, "lat": 38.90637683333333, "is_reserved": 0, "is_disabled": 0, "rental_uris": {"android": "https://dc.lft.to/lastmile_qr_scan", "ios": "https://dc.lft.to/lastmile_qr_scan"}, "name": "1aa41a0ab2104593b61c566f61dc42dc", "type": "electric_scooter"}, {"fusion_lat": 0.0, "bike_id": "a34e5e754aa33efe3433eb002d12f55b", "fusion_lon": 0.0, "lon": -76.99681216666667, "lat": 38.86023816666667, "is_reserved": 0, "is_disabled": 0, "rental_uris": {"android": "https://dc.lft.to/lastmile_qr_scan", "ios": "https://dc.lft.to/lastmile_qr_scan"}, "name": "a34e5e754aa33efe3433eb002d12f55b", "type": "electric_scooter"}, {"fusion_lat": 0.0, "bike_id": "b75053b451532e594be7a9a46aa9f4f6", "fusion_lon": 0.0, "lon": -77.03861416666666, "lat": 38.91278066666667, "is_reserved": 0, "is_disabled": 0, "rental_uris": {"android": "https://dc.lft.to/lastmile_qr_scan", "ios": "https://dc.lft.to/lastmile_qr_scan"}, "name": "b75053b451532e594be7a9a46aa9f4f6", "type": "electric_scooter"}, {"fusion_lat": 0.0, "bike_id": "a770af8040778893a108afb8611fbdae", "fusion_lon": 0.0, "lon": -77.03465033333333, "lat": 38.9095215, "is_reserved": 0, "is_disabled": 0, "rental_uris": {"android": "https://dc.lft.to/lastmile_qr_scan", "ios": "https://dc.lft.to/lastmile_qr_scan"}, "name": "a770af8040778893a108afb8611fbdae", "type": "electric_scooter"}, {"fusion_lat": 0.0, "bike_id": "6c751634bf75082ae83e365fab574b31", "fusion_lon": 0.0, "lon": -77.02353566666666, "lat": 38.89219283333333, "is_reserved": 0, "is_disabled": 0, "rental_uris": {"android": "https://dc.lft.to/lastmile_qr_scan", "ios": "https://dc.lft.to/lastmile_qr_scan"}, "name": "6c751634bf75082ae83e365fab574b31", "type": "electric_scooter"}, {"fusion_lat": 0.0, "bike_id": "a2ef0f3ce5dda2c5e0ba742baceae0a4", "fusion_lon": 0.0, "lon": -77.0321115, "lat": 38.911542833333336, "is_reserved": 0, "is_disabled": 0, "rental_uris": {"android": "https://dc.lft.to/lastmile_qr_scan", "ios": "https://dc.lft.to/lastmile_qr_scan"}, "name": "a2ef0f3ce5dda2c5e0ba742baceae0a4", "type": "electric_scooter"}, {"fusion_lat": 0.0, "bike_id": "14ef0eba363bb865935c6bd46f4ec871", "fusion_lon": 0.0, "lon": -77.02716883333333, "lat": 38.912464666666665, "is_reserved": 0, "is_disabled": 0, "rental_uris": {"android": "https://dc.lft.to/lastmile_qr_scan", "ios": "https://dc.lft.to/lastmile_qr_scan"}, "name": "14ef0eba363bb865935c6bd46f4ec871", "type": "electric_scooter"}, {"fusion_lat": 0.0, "bike_id": "d917c266be2b9053d718cf88a8fa92a2", "fusion_lon": 0.0, "lon": -77.05326533333333, "lat": 38.820403166666665, "is_reserved": 0, "is_disabled": 0, "rental_uris": {"android": "https://dc.lft.to/lastmile_qr_scan", "ios": "https://dc.lft.to/lastmile_qr_scan"}, "name": "d917c266be2b9053d718cf88a8fa92a2", "type": "electric_bike"}, {"fusion_lat": 0.0, "bike_id": "14478cdace1bd9a4aba38364f8322719", "fusion_lon": 0.0, "lon": -77.00888616666667, "lat": 38.9611835, "is_reserved": 0, "is_disabled": 0, "rental_uris": {"android": "https://dc.lft.to/lastmile_qr_scan", "ios": "https://dc.lft.to/lastmile_qr_scan"}, "name": "14478cdace1bd9a4aba38364f8322719", "type": "electric_scooter"}, {"fusion_lat": 0.0, "bike_id": "31c3f90b6708bf8ac442d5ce8e2432cc", "fusion_lon": 0.0, "lon": -77.03277733333333, "lat": 38.898521833333334, "is_reserved": 0, "is_disabled": 0, "rental_uris": {"android": "https://dc.lft.to/lastmile_qr_scan", "ios": "https://dc.lft.to/lastmile_qr_scan"}, "name": "31c3f90b6708bf8ac442d5ce8e2432cc", "type": "electric_scooter"}, {"fusion_lat": 0.0, "bike_id": "e03bb4456202ad1a3824dad8635bb1f4", "fusion_lon": 0.0, "lon": -77.02778866666667, "lat": 38.887441333333335, "is_reserved": 0, "is_disabled": 0, "rental_uris": {"android": "https://dc.lft.to/lastmile_qr_scan", "ios": "https://dc.lft.to/lastmile_qr_scan"}, "name": "e03bb4456202ad1a3824dad8635bb1f4", "type": "electric_scooter"}, {"fusion_lat": 0.0, "bike_id": "35878a2cf480d1946921d902b3b03bc7", "fusion_lon": 0.0, "lon": -77.04718283333334, "lat": 38.90303483333334, "is_reserved": 0, "is_disabled": 0, "rental_uris": {"android": "https://dc.lft.to/lastmile_qr_scan", "ios": "https://dc.lft.to/lastmile_qr_scan"}, "name": "35878a2cf480d1946921d902b3b03bc7", "type": "electric_scooter"}, {"fusion_lat": 0.0, "bike_id": "c59c76f3c2d3aa2f2f8f8976a19d6a87", "fusion_lon": 0.0, "lon": -77.02667233333334, "lat": 38.91693633333333, "is_reserved": 0, "is_disabled": 0, "rental_uris": {"android": "https://dc.lft.to/lastmile_qr_scan", "ios": "https://dc.lft.to/lastmile_qr_scan"}, "name": "c59c76f3c2d3aa2f2f8f8976a19d6a87", "type": "electric_scooter"}, {"fusion_lat": 0.0, "bike_id": "dd2ebb7be76979b5dcb4995e1eb22da9", "fusion_lon": 0.0, "lon": -77.016098, "lat": 38.877049166666666, "is_reserved": 0, "is_disabled": 0, "rental_uris": {"android": "https://dc.lft.to/lastmile_qr_scan", "ios": "https://dc.lft.to/lastmile_qr_scan"}, "name": "dd2ebb7be76979b5dcb4995e1eb22da9", "type": "electric_scooter"}, {"fusion_lat": 0.0, "bike_id": "c83a8628e3a682440d8ed3b194a899ae", "fusion_lon": 0.0, "lon": -77.0245295, "lat": 38.914033, "is_reserved": 0, "is_disabled": 0, "rental_uris": {"android": "https://dc.lft.to/lastmile_qr_scan", "ios": "https://dc.lft.to/lastmile_qr_scan"}, "name": "c83a8628e3a682440d8ed3b194a899ae", "type": "electric_scooter"}, {"fusion_lat": 0.0, "bike_id": "c6f50c41ff1487dbe63dc038a6b74e99", "fusion_lon": 0.0, "lon": -77.02596716666666, "lat": 38.94201966666667, "is_reserved": 0, "is_disabled": 0, "rental_uris": {"android": "https://dc.lft.to/lastmile_qr_scan", "ios": "https://dc.lft.to/lastmile_qr_scan"}, "name": "c6f50c41ff1487dbe63dc038a6b74e99", "type": "electric_scooter"}, {"fusion_lat": 0.0, "bike_id": "923ec5930233f8ecc1bca2330c167343", "fusion_lon": 0.0, "lon": -77.03289466666666, "lat": 38.93079483333333, "is_reserved": 0, "is_disabled": 0, "rental_uris": {"android": "https://dc.lft.to/lastmile_qr_scan", "ios": "https://dc.lft.to/lastmile_qr_scan"}, "name": "923ec5930233f8ecc1bca2330c167343", "type": "electric_scooter"}, {"fusion_lat": 0.0, "bike_id": "d4cc46f8ae0fc25c2814b267f2b6dbb2", "fusion_lon": 0.0, "lon": -77.04396383333334, "lat": 38.92106183333333, "is_reserved": 0, "is_disabled": 0, "rental_uris": {"android": "https://dc.lft.to/lastmile_qr_scan", "ios": "https://dc.lft.to/lastmile_qr_scan"}, "name": "d4cc46f8ae0fc25c2814b267f2b6dbb2", "type": "electric_scooter"}, {"fusion_lat": 0.0, "bike_id": "48a87c42192f1bf82d0de0a11c1a214f", "fusion_lon": 0.0, "lon": -77.021696, "lat": 38.8947185, "is_reserved": 0, "is_disabled": 0, "rental_uris": {"android": "https://dc.lft.to/lastmile_qr_scan", "ios": "https://dc.lft.to/lastmile_qr_scan"}, "name": "48a87c42192f1bf82d0de0a11c1a214f", "type": "electric_scooter"}, {"fusion_lat": 0.0, "bike_id": "9f8d1e99558a937a85d3e2df23732c29", "fusion_lon": 0.0, "lon": -77.02829916666667, "lat": 38.887291166666664, "is_reserved": 0, "is_disabled": 0, "rental_uris": {"android": "https://dc.lft.to/lastmile_qr_scan", "ios": "https://dc.lft.to/lastmile_qr_scan"}, "name": "9f8d1e99558a937a85d3e2df23732c29", "type": "electric_scooter"}, {"fusion_lat": 0.0, "bike_id": "612b54f5e4f123d05babee2800c630f5", "fusion_lon": 0.0, "lon": -77.023579, "lat": 38.8791285, "is_reserved": 0, "is_disabled": 0, "rental_uris": {"android": "https://dc.lft.to/lastmile_qr_scan", "ios": "https://dc.lft.to/lastmile_qr_scan"}, "name": "612b54f5e4f123d05babee2800c630f5", "type": "electric_scooter"}, {"fusion_lat": 0.0, "bike_id": "2ed15a305fe0a2b83095fdc4ffdd37d3", "fusion_lon": 0.0, "lon": -77.03223483333333, "lat": 38.914031333333334, "is_reserved": 0, "is_disabled": 0, "rental_uris": {"android": "https://dc.lft.to/lastmile_qr_scan", "ios": "https://dc.lft.to/lastmile_qr_scan"}, "name": "2ed15a305fe0a2b83095fdc4ffdd37d3", "type": "electric_scooter"}, {"fusion_lat": 0.0, "bike_id": "4931f7b429f72e159ab699760a878323", "fusion_lon": 0.0, "lon": -76.93324283333334, "lat": 38.90049583333333, "is_reserved": 0, "is_disabled": 0, "rental_uris": {"android": "https://dc.lft.to/lastmile_qr_scan", "ios": "https://dc.lft.to/lastmile_qr_scan"}, "name": "4931f7b429f72e159ab699760a878323", "type": "electric_scooter"}, {"fusion_lat": 0.0, "bike_id": "f6ac8644cb884ebd84bb77fd8a624800", "fusion_lon": 0.0, "lon": -77.04646816666667, "lat": 38.91421033333334, "is_reserved": 0, "is_disabled": 0, "rental_uris": {"android": "https://dc.lft.to/lastmile_qr_scan", "ios": "https://dc.lft.to/lastmile_qr_scan"}, "name": "f6ac8644cb884ebd84bb77fd8a624800", "type": "electric_scooter"}, {"fusion_lat": 0.0, "bike_id": "64ee131eb8e26fda158affbcf5c95ba1", "fusion_lon": 0.0, "lon": -77.020746, "lat": 38.924074, "is_reserved": 0, "is_disabled": 0, "rental_uris": {"android": "https://dc.lft.to/lastmile_qr_scan", "ios": "https://dc.lft.to/lastmile_qr_scan"}, "name": "64ee131eb8e26fda158affbcf5c95ba1", "type": "electric_scooter"}, {"fusion_lat": 0.0, "bike_id": "742e3667905c033db1dcf2ae8f36d76e", "fusion_lon": 0.0, "lon": -77.04066, "lat": 38.9096365, "is_reserved": 0, "is_disabled": 0, "rental_uris": {"android": "https://dc.lft.to/lastmile_qr_scan", "ios": "https://dc.lft.to/lastmile_qr_scan"}, "name": "742e3667905c033db1dcf2ae8f36d76e", "type": "electric_scooter"}, {"fusion_lat": 0.0, "bike_id": "343369f36ed27a66849c123dd02eb963", "fusion_lon": 0.0, "lon": -77.00129283333334, "lat": 38.874427833333336, "is_reserved": 0, "is_disabled": 0, "rental_uris": {"android": "https://dc.lft.to/lastmile_qr_scan", "ios": "https://dc.lft.to/lastmile_qr_scan"}, "name": "343369f36ed27a66849c123dd02eb963", "type": "electric_scooter"}, {"fusion_lat": 0.0, "bike_id": "86caf195d08f38a3bc65d72ba4fa21ec", "fusion_lon": 0.0, "lon": -77.06880983333333, "lat": 38.903991166666664, "is_reserved": 0, "is_disabled": 0, "rental_uris": {"android": "https://dc.lft.to/lastmile_qr_scan", "ios": "https://dc.lft.to/lastmile_qr_scan"}, "name": "86caf195d08f38a3bc65d72ba4fa21ec", "type": "electric_bike"}, {"fusion_lat": 0.0, "bike_id": "baf997ba31db84d0dbe8e05fcf1f0524", "fusion_lon": 0.0, "lon": -77.03185966666666, "lat": 38.930522833333335, "is_reserved": 0, "is_disabled": 0, "rental_uris": {"android": "https://dc.lft.to/lastmile_qr_scan", "ios": "https://dc.lft.to/lastmile_qr_scan"}, "name": "baf997ba31db84d0dbe8e05fcf1f0524", "type": "electric_scooter"}, {"fusion_lat": 0.0, "bike_id": "8f590c8a123d0af42ce365f29e41c4e3", "fusion_lon": 0.0, "lon": -76.9574345, "lat": 38.88426483333333, "is_reserved": 0, "is_disabled": 0, "rental_uris": {"android": "https://dc.lft.to/lastmile_qr_scan", "ios": "https://dc.lft.to/lastmile_qr_scan"}, "name": "8f590c8a123d0af42ce365f29e41c4e3", "type": "electric_scooter"}, {"fusion_lat": 0.0, "bike_id": "07a529da1b862eb38b39021366740396", "fusion_lon": 0.0, "lon": -77.03857483333333, "lat": 38.9153705, "is_reserved": 0, "is_disabled": 0, "rental_uris": {"android": "https://dc.lft.to/lastmile_qr_scan", "ios": "https://dc.lft.to/lastmile_qr_scan"}, "name": "07a529da1b862eb38b39021366740396", "type": "electric_scooter"}, {"fusion_lat": 0.0, "bike_id": "1dbe98e3e6fc2296ed4dff54c50a56e3", "fusion_lon": 0.0, "lon": -77.04781883333334, "lat": 38.909550833333334, "is_reserved": 0, "is_disabled": 0, "rental_uris": {"android": "https://dc.lft.to/lastmile_qr_scan", "ios": "https://dc.lft.to/lastmile_qr_scan"}, "name": "1dbe98e3e6fc2296ed4dff54c50a56e3", "type": "electric_scooter"}, {"fusion_lat": 0.0, "bike_id": "8c2ad3cc623ea3f89b65db98ad451603", "fusion_lon": 0.0, "lon": -77.03200133333333, "lat": 38.91253833333333, "is_reserved": 0, "is_disabled": 0, "rental_uris": {"android": "https://dc.lft.to/lastmile_qr_scan", "ios": "https://dc.lft.to/lastmile_qr_scan"}, "name": "8c2ad3cc623ea3f89b65db98ad451603", "type": "electric_scooter"}, {"fusion_lat": 0.0, "bike_id": "f33f938fc52cbd737ab830365e116ee7", "fusion_lon": 0.0, "lon": -77.029604, "lat": 38.9246465, "is_reserved": 0, "is_disabled": 0, "rental_uris": {"android": "https://dc.lft.to/lastmile_qr_scan", "ios": "https://dc.lft.to/lastmile_qr_scan"}, "name": "f33f938fc52cbd737ab830365e116ee7", "type": "electric_scooter"}, {"fusion_lat": 0.0, "bike_id": "0b6e1542cd4f007c8da1e7d06786204f", "fusion_lon": 0.0, "lon": -76.9936, "lat": 38.86149066666667, "is_reserved": 0, "is_disabled": 0, "rental_uris": {"android": "https://dc.lft.to/lastmile_qr_scan", "ios": "https://dc.lft.to/lastmile_qr_scan"}, "name": "0b6e1542cd4f007c8da1e7d06786204f", "type": "electric_scooter"}, {"fusion_lat": 0.0, "bike_id": "f346b4223244a44c38e1b9d92a1ed6b4", "fusion_lon": 0.0, "lon": -76.93073616666666, "lat": 38.889905166666665, "is_reserved": 0, "is_disabled": 0, "rental_uris": {"android": "https://dc.lft.to/lastmile_qr_scan", "ios": "https://dc.lft.to/lastmile_qr_scan"}, "name": "f346b4223244a44c38e1b9d92a1ed6b4", "type": "electric_scooter"}, {"fusion_lat": 0.0, "bike_id": "ad73eaae1c11e0866aa619609b2a5d2b", "fusion_lon": 0.0, "lon": -77.0320495, "lat": 38.918086333333335, "is_reserved": 0, "is_disabled": 0, "rental_uris": {"android": "https://dc.lft.to/lastmile_qr_scan", "ios": "https://dc.lft.to/lastmile_qr_scan"}, "name": "ad73eaae1c11e0866aa619609b2a5d2b", "type": "electric_scooter"}, {"fusion_lat": 0.0, "bike_id": "aa8ab70b1b65b718a51cf1189bc4a047", "fusion_lon": 0.0, "lon": -77.05780783333333, "lat": 38.90506216666667, "is_reserved": 0, "is_disabled": 0, "rental_uris": {"android": "https://dc.lft.to/lastmile_qr_scan", "ios": "https://dc.lft.to/lastmile_qr_scan"}, "name": "aa8ab70b1b65b718a51cf1189bc4a047", "type": "electric_scooter"}, {"fusion_lat": 0.0, "bike_id": "f8251151da842efa4b78bfbea17d7821", "fusion_lon": 0.0, "lon": -77.03046783333333, "lat": 38.884245166666666, "is_reserved": 0, "is_disabled": 0, "rental_uris": {"android": "https://dc.lft.to/lastmile_qr_scan", "ios": "https://dc.lft.to/lastmile_qr_scan"}, "name": "f8251151da842efa4b78bfbea17d7821", "type": "electric_scooter"}, {"fusion_lat": 0.0, "bike_id": "095b1aa6fdc7f522506918fa1f53b10f", "fusion_lon": 0.0, "lon": -77.04013783333333, "lat": 38.90371483333333, "is_reserved": 0, "is_disabled": 0, "rental_uris": {"android": "https://dc.lft.to/lastmile_qr_scan", "ios": "https://dc.lft.to/lastmile_qr_scan"}, "name": "095b1aa6fdc7f522506918fa1f53b10f", "type": "electric_scooter"}, {"fusion_lat": 0.0, "bike_id": "dd85e0840185f92ddaa91ffc8f8748c4", "fusion_lon": 0.0, "lon": -77.02719683333333, "lat": 38.906657, "is_reserved": 0, "is_disabled": 0, "rental_uris": {"android": "https://dc.lft.to/lastmile_qr_scan", "ios": "https://dc.lft.to/lastmile_qr_scan"}, "name": "dd85e0840185f92ddaa91ffc8f8748c4", "type": "electric_scooter"}, {"fusion_lat": 0.0, "bike_id": "e0b46eb44d0a50cb8365e366a3481866", "fusion_lon": 0.0, "lon": -77.0321275, "lat": 38.91470066666667, "is_reserved": 0, "is_disabled": 0, "rental_uris": {"android": "https://dc.lft.to/lastmile_qr_scan", "ios": "https://dc.lft.to/lastmile_qr_scan"}, "name": "e0b46eb44d0a50cb8365e366a3481866", "type": "electric_scooter"}, {"fusion_lat": 0.0, "bike_id": "b7fdf8d9807187c4ed7afe20fce56e9d", "fusion_lon": 0.0, "lon": -77.2331715, "lat": 38.8727775, "is_reserved": 0, "is_disabled": 0, "rental_uris": {"android": "https://dc.lft.to/lastmile_qr_scan", "ios": "https://dc.lft.to/lastmile_qr_scan"}, "name": "b7fdf8d9807187c4ed7afe20fce56e9d", "type": "electric_bike"}, {"fusion_lat": 0.0, "bike_id": "29653f5d6ebd1dcb6a5b147b716cc27b", "fusion_lon": 0.0, "lon": -77.02723516666667, "lat": 38.89728816666667, "is_reserved": 0, "is_disabled": 0, "rental_uris": {"android": "https://dc.lft.to/lastmile_qr_scan", "ios": "https://dc.lft.to/lastmile_qr_scan"}, "name": "29653f5d6ebd1dcb6a5b147b716cc27b", "type": "electric_scooter"}, {"fusion_lat": 0.0, "bike_id": "d7ff3c0ff135ff6f75edd83369a5be30", "fusion_lon": 0.0, "lon": -76.9903565, "lat": 38.90289416666667, "is_reserved": 0, "is_disabled": 0, "rental_uris": {"android": "https://dc.lft.to/lastmile_qr_scan", "ios": "https://dc.lft.to/lastmile_qr_scan"}, "name": "d7ff3c0ff135ff6f75edd83369a5be30", "type": "electric_scooter"}, {"fusion_lat": 0.0, "bike_id": "7ab3610745807c6e2b132d6d24016a5c", "fusion_lon": 0.0, "lon": -77.02798466666667, "lat": 38.9121735, "is_reserved": 0, "is_disabled": 0, "rental_uris": {"android": "https://dc.lft.to/lastmile_qr_scan", "ios": "https://dc.lft.to/lastmile_qr_scan"}, "name": "7ab3610745807c6e2b132d6d24016a5c", "type": "electric_scooter"}, {"fusion_lat": 0.0, "bike_id": "78d8111290f5e9a6c5c3991076ba8685", "fusion_lon": 0.0, "lon": -77.03860433333334, "lat": 38.932446, "is_reserved": 0, "is_disabled": 0, "rental_uris": {"android": "https://dc.lft.to/lastmile_qr_scan", "ios": "https://dc.lft.to/lastmile_qr_scan"}, "name": "78d8111290f5e9a6c5c3991076ba8685", "type": "electric_scooter"}, {"fusion_lat": 0.0, "bike_id": "b3a563baaffef75036a4038b2b9d0518", "fusion_lon": 0.0, "lon": -77.040748, "lat": 38.9175155, "is_reserved": 0, "is_disabled": 0, "rental_uris": {"android": "https://dc.lft.to/lastmile_qr_scan", "ios": "https://dc.lft.to/lastmile_qr_scan"}, "name": "b3a563baaffef75036a4038b2b9d0518", "type": "electric_scooter"}, {"fusion_lat": 0.0, "bike_id": "e8d975cdc7e65ac9859e8defe89299bc", "fusion_lon": 0.0, "lon": -77.02792016666666, "lat": 38.95402583333333, "is_reserved": 0, "is_disabled": 0, "rental_uris": {"android": "https://dc.lft.to/lastmile_qr_scan", "ios": "https://dc.lft.to/lastmile_qr_scan"}, "name": "e8d975cdc7e65ac9859e8defe89299bc", "type": "electric_scooter"}, {"fusion_lat": 0.0, "bike_id": "16cb750f0821b266a8a2c0a8084765b3", "fusion_lon": 0.0, "lon": -77.02836, "lat": 38.88726316666666, "is_reserved": 0, "is_disabled": 0, "rental_uris": {"android": "https://dc.lft.to/lastmile_qr_scan", "ios": "https://dc.lft.to/lastmile_qr_scan"}, "name": "16cb750f0821b266a8a2c0a8084765b3", "type": "electric_scooter"}, {"fusion_lat": 0.0, "bike_id": "2b0d1cea4cc297d31b81495b5eb2539a", "fusion_lon": 0.0, "lon": -77.0450195, "lat": 38.9118525, "is_reserved": 0, "is_disabled": 0, "rental_uris": {"android": "https://dc.lft.to/lastmile_qr_scan", "ios": "https://dc.lft.to/lastmile_qr_scan"}, "name": "2b0d1cea4cc297d31b81495b5eb2539a", "type": "electric_scooter"}, {"fusion_lat": 0.0, "bike_id": "da6243fdc1eff2150b975a46b45855e1", "fusion_lon": 0.0, "lon": -77.04551483333333, "lat": 38.905527666666664, "is_reserved": 0, "is_disabled": 0, "rental_uris": {"android": "https://dc.lft.to/lastmile_qr_scan", "ios": "https://dc.lft.to/lastmile_qr_scan"}, "name": "da6243fdc1eff2150b975a46b45855e1", "type": "electric_bike"}, {"fusion_lat": 0.0, "bike_id": "cc6e7997c671f3d6892b7940ee70f730", "fusion_lon": 0.0, "lon": -77.00738683333333, "lat": 38.9252895, "is_reserved": 0, "is_disabled": 0, "rental_uris": {"android": "https://dc.lft.to/lastmile_qr_scan", "ios": "https://dc.lft.to/lastmile_qr_scan"}, "name": "cc6e7997c671f3d6892b7940ee70f730", "type": "electric_scooter"}, {"fusion_lat": 0.0, "bike_id": "ff61d8aeb2da3a1da66cdb352a6ea455", "fusion_lon": 0.0, "lon": -77.04206816666667, "lat": 38.92048783333333, "is_reserved": 0, "is_disabled": 0, "rental_uris": {"android": "https://dc.lft.to/lastmile_qr_scan", "ios": "https://dc.lft.to/lastmile_qr_scan"}, "name": "ff61d8aeb2da3a1da66cdb352a6ea455", "type": "electric_scooter"}, {"fusion_lat": 0.0, "bike_id": "a911063b5d1f9aeb853935abe0ca4697", "fusion_lon": 0.0, "lon": -76.95972066666667, "lat": 38.948025, "is_reserved": 0, "is_disabled": 0, "rental_uris": {"android": "https://dc.lft.to/lastmile_qr_scan", "ios": "https://dc.lft.to/lastmile_qr_scan"}, "name": "a911063b5d1f9aeb853935abe0ca4697", "type": "electric_bike"}, {"fusion_lat": 0.0, "bike_id": "92e5089008375915c41b32370d5c1cae", "fusion_lon": 0.0, "lon": -77.02786483333334, "lat": 38.93186583333333, "is_reserved": 0, "is_disabled": 0, "rental_uris": {"android": "https://dc.lft.to/lastmile_qr_scan", "ios": "https://dc.lft.to/lastmile_qr_scan"}, "name": "92e5089008375915c41b32370d5c1cae", "type": "electric_scooter"}, {"fusion_lat": 0.0, "bike_id": "f9355f6f61367ede5bdfb3ce58e337c0", "fusion_lon": 0.0, "lon": -77.0223365, "lat": 38.89219816666667, "is_reserved": 0, "is_disabled": 0, "rental_uris": {"android": "https://dc.lft.to/lastmile_qr_scan", "ios": "https://dc.lft.to/lastmile_qr_scan"}, "name": "f9355f6f61367ede5bdfb3ce58e337c0", "type": "electric_scooter"}, {"fusion_lat": 0.0, "bike_id": "edc63022337af6dbf8abfd4c15861d4c", "fusion_lon": 0.0, "lon": -77.22794483333334, "lat": 38.91013916666667, "is_reserved": 0, "is_disabled": 0, "rental_uris": {"android": "https://dc.lft.to/lastmile_qr_scan", "ios": "https://dc.lft.to/lastmile_qr_scan"}, "name": "edc63022337af6dbf8abfd4c15861d4c", "type": "electric_bike"}, {"fusion_lat": 0.0, "bike_id": "39493ee6d1329b388d625239f9806d0c", "fusion_lon": 0.0, "lon": -77.02980816666667, "lat": 38.923056833333334, "is_reserved": 0, "is_disabled": 0, "rental_uris": {"android": "https://dc.lft.to/lastmile_qr_scan", "ios": "https://dc.lft.to/lastmile_qr_scan"}, "name": "39493ee6d1329b388d625239f9806d0c", "type": "electric_scooter"}, {"fusion_lat": 0.0, "bike_id": "68c4c5259e70df73f519590ce257563e", "fusion_lon": 0.0, "lon": -77.04769283333333, "lat": 38.921388, "is_reserved": 0, "is_disabled": 0, "rental_uris": {"android": "https://dc.lft.to/lastmile_qr_scan", "ios": "https://dc.lft.to/lastmile_qr_scan"}, "name": "68c4c5259e70df73f519590ce257563e", "type": "electric_scooter"}, {"fusion_lat": 0.0, "bike_id": "133f8103af57b9fb5aa7e6873e3d2e65", "fusion_lon": 0.0, "lon": -77.024638, "lat": 38.941952666666666, "is_reserved": 0, "is_disabled": 0, "rental_uris": {"android": "https://dc.lft.to/lastmile_qr_scan", "ios": "https://dc.lft.to/lastmile_qr_scan"}, "name": "133f8103af57b9fb5aa7e6873e3d2e65", "type": "electric_scooter"}, {"fusion_lat": 0.0, "bike_id": "7593718e2a43469f198a11c328524c0b", "fusion_lon": 0.0, "lon": -77.041613, "lat": 38.9011785, "is_reserved": 0, "is_disabled": 0, "rental_uris": {"android": "https://dc.lft.to/lastmile_qr_scan", "ios": "https://dc.lft.to/lastmile_qr_scan"}, "name": "7593718e2a43469f198a11c328524c0b", "type": "electric_scooter"}, {"fusion_lat": 0.0, "bike_id": "340175f14e7d39887b5007fdd2fbebc1", "fusion_lon": 0.0, "lon": -76.96261416666667, "lat": 38.882458666666665, "is_reserved": 0, "is_disabled": 0, "rental_uris": {"android": "https://dc.lft.to/lastmile_qr_scan", "ios": "https://dc.lft.to/lastmile_qr_scan"}, "name": "340175f14e7d39887b5007fdd2fbebc1", "type": "electric_bike"}, {"fusion_lat": 0.0, "bike_id": "f070a95aa39d0c7f463c89931329869b", "fusion_lon": 0.0, "lon": -77.02007733333333, "lat": 38.91904983333333, "is_reserved": 0, "is_disabled": 0, "rental_uris": {"android": "https://dc.lft.to/lastmile_qr_scan", "ios": "https://dc.lft.to/lastmile_qr_scan"}, "name": "f070a95aa39d0c7f463c89931329869b", "type": "electric_scooter"}, {"fusion_lat": 0.0, "bike_id": "9c6298c58f3a12b3490c34a325566e81", "fusion_lon": 0.0, "lon": -77.024598, "lat": 38.938559833333336, "is_reserved": 0, "is_disabled": 0, "rental_uris": {"android": "https://dc.lft.to/lastmile_qr_scan", "ios": "https://dc.lft.to/lastmile_qr_scan"}, "name": "9c6298c58f3a12b3490c34a325566e81", "type": "electric_scooter"}, {"fusion_lat": 0.0, "bike_id": "3feb66cb4b945aef8394ab47882cef75", "fusion_lon": 0.0, "lon": -76.99652083333334, "lat": 38.896769166666665, "is_reserved": 0, "is_disabled": 0, "rental_uris": {"android": "https://dc.lft.to/lastmile_qr_scan", "ios": "https://dc.lft.to/lastmile_qr_scan"}, "name": "3feb66cb4b945aef8394ab47882cef75", "type": "electric_scooter"}, {"fusion_lat": 0.0, "bike_id": "26c97ea2c986b6156c728762ea9143a3", "fusion_lon": 0.0, "lon": -77.03926666666666, "lat": 38.918439166666666, "is_reserved": 0, "is_disabled": 0, "rental_uris": {"android": "https://dc.lft.to/lastmile_qr_scan", "ios": "https://dc.lft.to/lastmile_qr_scan"}, "name": "26c97ea2c986b6156c728762ea9143a3", "type": "electric_scooter"}, {"fusion_lat": 0.0, "bike_id": "592ff0561e9b298128b0f595e07d6067", "fusion_lon": 0.0, "lon": -77.00134166666666, "lat": 38.894649333333334, "is_reserved": 0, "is_disabled": 0, "rental_uris": {"android": "https://dc.lft.to/lastmile_qr_scan", "ios": "https://dc.lft.to/lastmile_qr_scan"}, "name": "592ff0561e9b298128b0f595e07d6067", "type": "electric_scooter"}, {"fusion_lat": 0.0, "bike_id": "a4ca8f6d57a35e6d4252a496e56f0595", "fusion_lon": 0.0, "lon": -77.00680516666667, "lat": 38.90011333333333, "is_reserved": 0, "is_disabled": 0, "rental_uris": {"android": "https://dc.lft.to/lastmile_qr_scan", "ios": "https://dc.lft.to/lastmile_qr_scan"}, "name": "a4ca8f6d57a35e6d4252a496e56f0595", "type": "electric_scooter"}, {"fusion_lat": 0.0, "bike_id": "18989590c43afbb0aaaa43aca71ff0b0", "fusion_lon": 0.0, "lon": -76.97322016666666, "lat": 38.904037333333335, "is_reserved": 0, "is_disabled": 0, "rental_uris": {"android": "https://dc.lft.to/lastmile_qr_scan", "ios": "https://dc.lft.to/lastmile_qr_scan"}, "name": "18989590c43afbb0aaaa43aca71ff0b0", "type": "electric_scooter"}, {"fusion_lat": 0.0, "bike_id": "7bf805ac6c45379b48ab939361fb0c97", "fusion_lon": 0.0, "lon": -76.985123, "lat": 38.86007266666667, "is_reserved": 0, "is_disabled": 0, "rental_uris": {"android": "https://dc.lft.to/lastmile_qr_scan", "ios": "https://dc.lft.to/lastmile_qr_scan"}, "name": "7bf805ac6c45379b48ab939361fb0c97", "type": "electric_scooter"}, {"fusion_lat": 0.0, "bike_id": "852afa562580711ad8d4e048fdb224b2", "fusion_lon": 0.0, "lon": -77.0131925, "lat": 38.8960365, "is_reserved": 0, "is_disabled": 0, "rental_uris": {"android": "https://dc.lft.to/lastmile_qr_scan", "ios": "https://dc.lft.to/lastmile_qr_scan"}, "name": "852afa562580711ad8d4e048fdb224b2", "type": "electric_bike"}, {"fusion_lat": 0.0, "bike_id": "a349028e15ff5efd3bd56e202adf6f00", "fusion_lon": 0.0, "lon": -76.93059633333333, "lat": 38.9015455, "is_reserved": 0, "is_disabled": 0, "rental_uris": {"android": "https://dc.lft.to/lastmile_qr_scan", "ios": "https://dc.lft.to/lastmile_qr_scan"}, "name": "a349028e15ff5efd3bd56e202adf6f00", "type": "electric_scooter"}, {"fusion_lat": 0.0, "bike_id": "927ed933afc28a9e3d1c470e9a2f0385", "fusion_lon": 0.0, "lon": -77.01897783333334, "lat": 38.9329095, "is_reserved": 0, "is_disabled": 0, "rental_uris": {"android": "https://dc.lft.to/lastmile_qr_scan", "ios": "https://dc.lft.to/lastmile_qr_scan"}, "name": "927ed933afc28a9e3d1c470e9a2f0385", "type": "electric_scooter"}, {"fusion_lat": 0.0, "bike_id": "00d743595187874349656ca360cca055", "fusion_lon": 0.0, "lon": -77.03766583333334, "lat": 38.90773083333333, "is_reserved": 0, "is_disabled": 0, "rental_uris": {"android": "https://dc.lft.to/lastmile_qr_scan", "ios": "https://dc.lft.to/lastmile_qr_scan"}, "name": "00d743595187874349656ca360cca055", "type": "electric_scooter"}, {"fusion_lat": 0.0, "bike_id": "6f8e06a5aaa150fac1b752fa9e78e2b0", "fusion_lon": 0.0, "lon": -77.02767933333334, "lat": 38.891967666666666, "is_reserved": 0, "is_disabled": 0, "rental_uris": {"android": "https://dc.lft.to/lastmile_qr_scan", "ios": "https://dc.lft.to/lastmile_qr_scan"}, "name": "6f8e06a5aaa150fac1b752fa9e78e2b0", "type": "electric_scooter"}, {"fusion_lat": 0.0, "bike_id": "86f9077978dd8cda9c980387ee2f3f94", "fusion_lon": 0.0, "lon": -77.03384883333334, "lat": 38.9072425, "is_reserved": 0, "is_disabled": 0, "rental_uris": {"android": "https://dc.lft.to/lastmile_qr_scan", "ios": "https://dc.lft.to/lastmile_qr_scan"}, "name": "86f9077978dd8cda9c980387ee2f3f94", "type": "electric_scooter"}, {"fusion_lat": 0.0, "bike_id": "509f269f97cae50c4e4bf3711d1e85ab", "fusion_lon": 0.0, "lon": -77.06642383333333, "lat": 38.905854, "is_reserved": 0, "is_disabled": 0, "rental_uris": {"android": "https://dc.lft.to/lastmile_qr_scan", "ios": "https://dc.lft.to/lastmile_qr_scan"}, "name": "509f269f97cae50c4e4bf3711d1e85ab", "type": "electric_scooter"}, {"fusion_lat": 0.0, "bike_id": "13856832163d764360f2c002c1f7f3c1", "fusion_lon": 0.0, "lon": -76.981956, "lat": 38.96740633333334, "is_reserved": 0, "is_disabled": 0, "rental_uris": {"android": "https://dc.lft.to/lastmile_qr_scan", "ios": "https://dc.lft.to/lastmile_qr_scan"}, "name": "13856832163d764360f2c002c1f7f3c1", "type": "electric_bike"}, {"fusion_lat": 0.0, "bike_id": "b4215c330f065c22a24d55c13fe3f83a", "fusion_lon": 0.0, "lon": -77.0319165, "lat": 38.9173915, "is_reserved": 0, "is_disabled": 0, "rental_uris": {"android": "https://dc.lft.to/lastmile_qr_scan", "ios": "https://dc.lft.to/lastmile_qr_scan"}, "name": "b4215c330f065c22a24d55c13fe3f83a", "type": "electric_scooter"}, {"fusion_lat": 0.0, "bike_id": "2d72a5afbd70ce806c6df07e1ae4fb61", "fusion_lon": 0.0, "lon": -77.01340766666667, "lat": 38.87812133333333, "is_reserved": 0, "is_disabled": 0, "rental_uris": {"android": "https://dc.lft.to/lastmile_qr_scan", "ios": "https://dc.lft.to/lastmile_qr_scan"}, "name": "2d72a5afbd70ce806c6df07e1ae4fb61", "type": "electric_scooter"}, {"fusion_lat": 0.0, "bike_id": "725787a0e83205f5a1a740aeb58634a1", "fusion_lon": 0.0, "lon": -77.0209605, "lat": 38.8818385, "is_reserved": 0, "is_disabled": 0, "rental_uris": {"android": "https://dc.lft.to/lastmile_qr_scan", "ios": "https://dc.lft.to/lastmile_qr_scan"}, "name": "725787a0e83205f5a1a740aeb58634a1", "type": "electric_scooter"}, {"fusion_lat": 0.0, "bike_id": "0fe0be66c8c7f7b8e7bcebfb04ecc80d", "fusion_lon": 0.0, "lon": -77.02876666666667, "lat": 38.916991333333335, "is_reserved": 0, "is_disabled": 0, "rental_uris": {"android": "https://dc.lft.to/lastmile_qr_scan", "ios": "https://dc.lft.to/lastmile_qr_scan"}, "name": "0fe0be66c8c7f7b8e7bcebfb04ecc80d", "type": "electric_scooter"}, {"fusion_lat": 0.0, "bike_id": "5f5e7d6fbccb268441b70530bad87e43", "fusion_lon": 0.0, "lon": -76.99857033333333, "lat": 38.89195383333333, "is_reserved": 0, "is_disabled": 0, "rental_uris": {"android": "https://dc.lft.to/lastmile_qr_scan", "ios": "https://dc.lft.to/lastmile_qr_scan"}, "name": "5f5e7d6fbccb268441b70530bad87e43", "type": "electric_scooter"}, {"fusion_lat": 0.0, "bike_id": "44b7cd52cadaac89b47cb9ee4538f3e0", "fusion_lon": 0.0, "lon": -77.0245285, "lat": 38.93514116666667, "is_reserved": 0, "is_disabled": 0, "rental_uris": {"android": "https://dc.lft.to/lastmile_qr_scan", "ios": "https://dc.lft.to/lastmile_qr_scan"}, "name": "44b7cd52cadaac89b47cb9ee4538f3e0", "type": "electric_scooter"}, {"fusion_lat": 0.0, "bike_id": "c795c6773c08380fffd2e73572ffecaf", "fusion_lon": 0.0, "lon": -77.02846283333334, "lat": 38.934180833333336, "is_reserved": 0, "is_disabled": 0, "rental_uris": {"android": "https://dc.lft.to/lastmile_qr_scan", "ios": "https://dc.lft.to/lastmile_qr_scan"}, "name": "c795c6773c08380fffd2e73572ffecaf", "type": "electric_scooter"}, {"fusion_lat": 0.0, "bike_id": "e9a108702d3f0dde37d4f4b3ffe849a9", "fusion_lon": 0.0, "lon": -77.02214483333333, "lat": 38.914133, "is_reserved": 0, "is_disabled": 0, "rental_uris": {"android": "https://dc.lft.to/lastmile_qr_scan", "ios": "https://dc.lft.to/lastmile_qr_scan"}, "name": "e9a108702d3f0dde37d4f4b3ffe849a9", "type": "electric_scooter"}, {"fusion_lat": 0.0, "bike_id": "69702760cf3c2b4488d8abd3b2b1644d", "fusion_lon": 0.0, "lon": -77.02286166666667, "lat": 38.90778783333333, "is_reserved": 0, "is_disabled": 0, "rental_uris": {"android": "https://dc.lft.to/lastmile_qr_scan", "ios": "https://dc.lft.to/lastmile_qr_scan"}, "name": "69702760cf3c2b4488d8abd3b2b1644d", "type": "electric_scooter"}, {"fusion_lat": 0.0, "bike_id": "36a4e3505b4a32c79685615b1b48dadc", "fusion_lon": 0.0, "lon": -77.030728, "lat": 38.92486916666667, "is_reserved": 0, "is_disabled": 0, "rental_uris": {"android": "https://dc.lft.to/lastmile_qr_scan", "ios": "https://dc.lft.to/lastmile_qr_scan"}, "name": "36a4e3505b4a32c79685615b1b48dadc", "type": "electric_scooter"}, {"fusion_lat": 0.0, "bike_id": "2508efc3dc2af887b83255d033f1ceab", "fusion_lon": 0.0, "lon": -77.04141683333333, "lat": 38.9229415, "is_reserved": 0, "is_disabled": 0, "rental_uris": {"android": "https://dc.lft.to/lastmile_qr_scan", "ios": "https://dc.lft.to/lastmile_qr_scan"}, "name": "2508efc3dc2af887b83255d033f1ceab", "type": "electric_scooter"}, {"fusion_lat": 0.0, "bike_id": "0d5cefe10893b8c32aa77d4c91e61cea", "fusion_lon": 0.0, "lon": -77.02201433333333, "lat": 38.912447, "is_reserved": 0, "is_disabled": 0, "rental_uris": {"android": "https://dc.lft.to/lastmile_qr_scan", "ios": "https://dc.lft.to/lastmile_qr_scan"}, "name": "0d5cefe10893b8c32aa77d4c91e61cea", "type": "electric_scooter"}, {"fusion_lat": 0.0, "bike_id": "4fa4d1b872f356f730c72952f5066d7c", "fusion_lon": 0.0, "lon": -76.99937983333334, "lat": 38.89632983333333, "is_reserved": 0, "is_disabled": 0, "rental_uris": {"android": "https://dc.lft.to/lastmile_qr_scan", "ios": "https://dc.lft.to/lastmile_qr_scan"}, "name": "4fa4d1b872f356f730c72952f5066d7c", "type": "electric_scooter"}, {"fusion_lat": 0.0, "bike_id": "201208ff6e5e2c8703e27cb0e509133c", "fusion_lon": 0.0, "lon": -76.98284833333334, "lat": 38.9033475, "is_reserved": 0, "is_disabled": 0, "rental_uris": {"android": "https://dc.lft.to/lastmile_qr_scan", "ios": "https://dc.lft.to/lastmile_qr_scan"}, "name": "201208ff6e5e2c8703e27cb0e509133c", "type": "electric_scooter"}, {"fusion_lat": 0.0, "bike_id": "d1ff61bf52da51abc6feb4b0906c0e12", "fusion_lon": 0.0, "lon": -77.0221065, "lat": 38.9126915, "is_reserved": 0, "is_disabled": 0, "rental_uris": {"android": "https://dc.lft.to/lastmile_qr_scan", "ios": "https://dc.lft.to/lastmile_qr_scan"}, "name": "d1ff61bf52da51abc6feb4b0906c0e12", "type": "electric_scooter"}, {"fusion_lat": 0.0, "bike_id": "d7fcbe1f9fc50d20bc559ddb75bf2c6c", "fusion_lon": 0.0, "lon": -76.98456566666667, "lat": 38.90553083333333, "is_reserved": 0, "is_disabled": 0, "rental_uris": {"android": "https://dc.lft.to/lastmile_qr_scan", "ios": "https://dc.lft.to/lastmile_qr_scan"}, "name": "d7fcbe1f9fc50d20bc559ddb75bf2c6c", "type": "electric_scooter"}, {"fusion_lat": 0.0, "bike_id": "d1cec01ad7c12e528383f51f684b151b", "fusion_lon": 0.0, "lon": -77.03193216666666, "lat": 38.911654666666664, "is_reserved": 0, "is_disabled": 0, "rental_uris": {"android": "https://dc.lft.to/lastmile_qr_scan", "ios": "https://dc.lft.to/lastmile_qr_scan"}, "name": "d1cec01ad7c12e528383f51f684b151b", "type": "electric_scooter"}, {"fusion_lat": 0.0, "bike_id": "fe500afce365923c490d1ddc35fd2f9a", "fusion_lon": 0.0, "lon": -76.98836716666666, "lat": 38.90042366666667, "is_reserved": 0, "is_disabled": 0, "rental_uris": {"android": "https://dc.lft.to/lastmile_qr_scan", "ios": "https://dc.lft.to/lastmile_qr_scan"}, "name": "fe500afce365923c490d1ddc35fd2f9a", "type": "electric_scooter"}, {"fusion_lat": 0.0, "bike_id": "02c999404c804fb01fe08caba6d6ff97", "fusion_lon": 0.0, "lon": -77.02891066666666, "lat": 38.900025666666664, "is_reserved": 0, "is_disabled": 0, "rental_uris": {"android": "https://dc.lft.to/lastmile_qr_scan", "ios": "https://dc.lft.to/lastmile_qr_scan"}, "name": "02c999404c804fb01fe08caba6d6ff97", "type": "electric_scooter"}, {"fusion_lat": 0.0, "bike_id": "b794b80fc093bca7b226727d2daea57d", "fusion_lon": 0.0, "lon": -77.04641866666667, "lat": 38.915436666666665, "is_reserved": 0, "is_disabled": 0, "rental_uris": {"android": "https://dc.lft.to/lastmile_qr_scan", "ios": "https://dc.lft.to/lastmile_qr_scan"}, "name": "b794b80fc093bca7b226727d2daea57d", "type": "electric_scooter"}, {"fusion_lat": 0.0, "bike_id": "a0f0fd33f12728249c67458443d9b96b", "fusion_lon": 0.0, "lon": -77.0271765, "lat": 38.912464666666665, "is_reserved": 0, "is_disabled": 0, "rental_uris": {"android": "https://dc.lft.to/lastmile_qr_scan", "ios": "https://dc.lft.to/lastmile_qr_scan"}, "name": "a0f0fd33f12728249c67458443d9b96b", "type": "electric_scooter"}, {"fusion_lat": 0.0, "bike_id": "4676de6d328703f12a5de26fada9f31e", "fusion_lon": 0.0, "lon": -77.03033966666666, "lat": 38.9170165, "is_reserved": 0, "is_disabled": 0, "rental_uris": {"android": "https://dc.lft.to/lastmile_qr_scan", "ios": "https://dc.lft.to/lastmile_qr_scan"}, "name": "4676de6d328703f12a5de26fada9f31e", "type": "electric_scooter"}, {"fusion_lat": 0.0, "bike_id": "8499156145365fef1f29d1a9a5a3698d", "fusion_lon": 0.0, "lon": -77.04470566666667, "lat": 38.91264683333333, "is_reserved": 0, "is_disabled": 0, "rental_uris": {"android": "https://dc.lft.to/lastmile_qr_scan", "ios": "https://dc.lft.to/lastmile_qr_scan"}, "name": "8499156145365fef1f29d1a9a5a3698d", "type": "electric_scooter"}, {"fusion_lat": 0.0, "bike_id": "c0d28818b475304b72742692d16c6f41", "fusion_lon": 0.0, "lon": -77.04391716666666, "lat": 38.90020783333333, "is_reserved": 0, "is_disabled": 0, "rental_uris": {"android": "https://dc.lft.to/lastmile_qr_scan", "ios": "https://dc.lft.to/lastmile_qr_scan"}, "name": "c0d28818b475304b72742692d16c6f41", "type": "electric_scooter"}, {"fusion_lat": 0.0, "bike_id": "abe350426a5559b72b983762fbfe0803", "fusion_lon": 0.0, "lon": -77.02822883333333, "lat": 38.9224585, "is_reserved": 0, "is_disabled": 0, "rental_uris": {"android": "https://dc.lft.to/lastmile_qr_scan", "ios": "https://dc.lft.to/lastmile_qr_scan"}, "name": "abe350426a5559b72b983762fbfe0803", "type": "electric_scooter"}, {"fusion_lat": 0.0, "bike_id": "25c639f87745441d9a8efe40ff9378db", "fusion_lon": 0.0, "lon": -77.06705166666667, "lat": 38.9144255, "is_reserved": 0, "is_disabled": 0, "rental_uris": {"android": "https://dc.lft.to/lastmile_qr_scan", "ios": "https://dc.lft.to/lastmile_qr_scan"}, "name": "25c639f87745441d9a8efe40ff9378db", "type": "electric_scooter"}, {"fusion_lat": 0.0, "bike_id": "f9bee1ffde021e2cc525dd0abd27eaa9", "fusion_lon": 0.0, "lon": -77.006043, "lat": 38.87180816666667, "is_reserved": 0, "is_disabled": 0, "rental_uris": {"android": "https://dc.lft.to/lastmile_qr_scan", "ios": "https://dc.lft.to/lastmile_qr_scan"}, "name": "f9bee1ffde021e2cc525dd0abd27eaa9", "type": "electric_scooter"}, {"fusion_lat": 0.0, "bike_id": "63e10412046d4d515bbc75a7719539cc", "fusion_lon": 0.0, "lon": -77.03273216666666, "lat": 38.919838, "is_reserved": 0, "is_disabled": 0, "rental_uris": {"android": "https://dc.lft.to/lastmile_qr_scan", "ios": "https://dc.lft.to/lastmile_qr_scan"}, "name": "63e10412046d4d515bbc75a7719539cc", "type": "electric_scooter"}, {"fusion_lat": 0.0, "bike_id": "c8dcf3ec56b2f4db4c987e6623ad23ff", "fusion_lon": 0.0, "lon": -77.028429, "lat": 38.925787666666665, "is_reserved": 0, "is_disabled": 0, "rental_uris": {"android": "https://dc.lft.to/lastmile_qr_scan", "ios": "https://dc.lft.to/lastmile_qr_scan"}, "name": "c8dcf3ec56b2f4db4c987e6623ad23ff", "type": "electric_scooter"}, {"fusion_lat": 0.0, "bike_id": "faf99d0557726fb334aa96768e1a369e", "fusion_lon": 0.0, "lon": -77.03223933333334, "lat": 38.89648583333334, "is_reserved": 0, "is_disabled": 0, "rental_uris": {"android": "https://dc.lft.to/lastmile_qr_scan", "ios": "https://dc.lft.to/lastmile_qr_scan"}, "name": "faf99d0557726fb334aa96768e1a369e", "type": "electric_scooter"}, {"fusion_lat": 0.0, "bike_id": "a90bb52d9ecd9be2c9e6a05d345f7b37", "fusion_lon": 0.0, "lon": -77.02062866666667, "lat": 38.923638, "is_reserved": 0, "is_disabled": 0, "rental_uris": {"android": "https://dc.lft.to/lastmile_qr_scan", "ios": "https://dc.lft.to/lastmile_qr_scan"}, "name": "a90bb52d9ecd9be2c9e6a05d345f7b37", "type": "electric_scooter"}, {"fusion_lat": 0.0, "bike_id": "546231b9e2a1991635711844e6e64ee4", "fusion_lon": 0.0, "lon": -77.032344, "lat": 38.904452166666665, "is_reserved": 0, "is_disabled": 0, "rental_uris": {"android": "https://dc.lft.to/lastmile_qr_scan", "ios": "https://dc.lft.to/lastmile_qr_scan"}, "name": "546231b9e2a1991635711844e6e64ee4", "type": "electric_scooter"}, {"fusion_lat": 0.0, "bike_id": "e3f66099f59746b887192d8f03d390ab", "fusion_lon": 0.0, "lon": -77.02486516666667, "lat": 38.916973166666665, "is_reserved": 0, "is_disabled": 0, "rental_uris": {"android": "https://dc.lft.to/lastmile_qr_scan", "ios": "https://dc.lft.to/lastmile_qr_scan"}, "name": "e3f66099f59746b887192d8f03d390ab", "type": "electric_scooter"}, {"fusion_lat": 0.0, "bike_id": "fc2332849e50d28aacaf953f8f13d2fa", "fusion_lon": 0.0, "lon": -77.11281266666667, "lat": 39.0475505, "is_reserved": 0, "is_disabled": 0, "rental_uris": {"android": "https://dc.lft.to/lastmile_qr_scan", "ios": "https://dc.lft.to/lastmile_qr_scan"}, "name": "fc2332849e50d28aacaf953f8f13d2fa", "type": "electric_bike"}, {"fusion_lat": 0.0, "bike_id": "7069e083b0f5fe9d9a96b7bf6d4e9d1a", "fusion_lon": 0.0, "lon": -77.03180566666667, "lat": 38.90068516666667, "is_reserved": 0, "is_disabled": 0, "rental_uris": {"android": "https://dc.lft.to/lastmile_qr_scan", "ios": "https://dc.lft.to/lastmile_qr_scan"}, "name": "7069e083b0f5fe9d9a96b7bf6d4e9d1a", "type": "electric_scooter"}, {"fusion_lat": 0.0, "bike_id": "90e6dbb17b5d5b198a826cb421a8d122", "fusion_lon": 0.0, "lon": -77.01411233333333, "lat": 38.9147995, "is_reserved": 0, "is_disabled": 0, "rental_uris": {"android": "https://dc.lft.to/lastmile_qr_scan", "ios": "https://dc.lft.to/lastmile_qr_scan"}, "name": "90e6dbb17b5d5b198a826cb421a8d122", "type": "electric_scooter"}, {"fusion_lat": 0.0, "bike_id": "f723ca4b358aebcbe453973e2c95b072", "fusion_lon": 0.0, "lon": -77.04271216666666, "lat": 38.9229905, "is_reserved": 0, "is_disabled": 0, "rental_uris": {"android": "https://dc.lft.to/lastmile_qr_scan", "ios": "https://dc.lft.to/lastmile_qr_scan"}, "name": "f723ca4b358aebcbe453973e2c95b072", "type": "electric_scooter"}, {"fusion_lat": 0.0, "bike_id": "f928ccf929dd16d7f0df646b9a6545d4", "fusion_lon": 0.0, "lon": -77.0644945, "lat": 38.905241333333336, "is_reserved": 0, "is_disabled": 0, "rental_uris": {"android": "https://dc.lft.to/lastmile_qr_scan", "ios": "https://dc.lft.to/lastmile_qr_scan"}, "name": "f928ccf929dd16d7f0df646b9a6545d4", "type": "electric_scooter"}, {"fusion_lat": 0.0, "bike_id": "5dec78db27ac4250b5d85818000f76ec", "fusion_lon": 0.0, "lon": -77.0315345, "lat": 38.91359333333333, "is_reserved": 0, "is_disabled": 0, "rental_uris": {"android": "https://dc.lft.to/lastmile_qr_scan", "ios": "https://dc.lft.to/lastmile_qr_scan"}, "name": "5dec78db27ac4250b5d85818000f76ec", "type": "electric_scooter"}, {"fusion_lat": 0.0, "bike_id": "cab84d348305ccf0a8cd13c58db75f95", "fusion_lon": 0.0, "lon": -77.04979583333333, "lat": 39.06294416666667, "is_reserved": 0, "is_disabled": 0, "rental_uris": {"android": "https://dc.lft.to/lastmile_qr_scan", "ios": "https://dc.lft.to/lastmile_qr_scan"}, "name": "cab84d348305ccf0a8cd13c58db75f95", "type": "electric_bike"}, {"fusion_lat": 0.0, "bike_id": "8cefc3dbff936a64cd8c8d4e72faa68d", "fusion_lon": 0.0, "lon": -77.02556933333334, "lat": 38.9417215, "is_reserved": 0, "is_disabled": 0, "rental_uris": {"android": "https://dc.lft.to/lastmile_qr_scan", "ios": "https://dc.lft.to/lastmile_qr_scan"}, "name": "8cefc3dbff936a64cd8c8d4e72faa68d", "type": "electric_scooter"}, {"fusion_lat": 0.0, "bike_id": "6b32e0ffc0b871046563fb9cebfa814b", "fusion_lon": 0.0, "lon": -77.0254975, "lat": 38.940976166666665, "is_reserved": 0, "is_disabled": 0, "rental_uris": {"android": "https://dc.lft.to/lastmile_qr_scan", "ios": "https://dc.lft.to/lastmile_qr_scan"}, "name": "6b32e0ffc0b871046563fb9cebfa814b", "type": "electric_bike"}, {"fusion_lat": 0.0, "bike_id": "ab34265ff1d66cf2d10a7eb30dd9cba7", "fusion_lon": 0.0, "lon": -77.03870566666667, "lat": 38.92010233333333, "is_reserved": 0, "is_disabled": 0, "rental_uris": {"android": "https://dc.lft.to/lastmile_qr_scan", "ios": "https://dc.lft.to/lastmile_qr_scan"}, "name": "ab34265ff1d66cf2d10a7eb30dd9cba7", "type": "electric_scooter"}, {"fusion_lat": 0.0, "bike_id": "7141ce0f28c42a1524649c29fc3745b2", "fusion_lon": 0.0, "lon": -76.97863733333334, "lat": 38.8830015, "is_reserved": 0, "is_disabled": 0, "rental_uris": {"android": "https://dc.lft.to/lastmile_qr_scan", "ios": "https://dc.lft.to/lastmile_qr_scan"}, "name": "7141ce0f28c42a1524649c29fc3745b2", "type": "electric_scooter"}, {"fusion_lat": 0.0, "bike_id": "2ae1034f6f8000b601d25255f027e4b8", "fusion_lon": 0.0, "lon": -77.01764466666667, "lat": 38.887270666666666, "is_reserved": 0, "is_disabled": 0, "rental_uris": {"android": "https://dc.lft.to/lastmile_qr_scan", "ios": "https://dc.lft.to/lastmile_qr_scan"}, "name": "2ae1034f6f8000b601d25255f027e4b8", "type": "electric_scooter"}, {"fusion_lat": 0.0, "bike_id": "20bbb959e6a652e1d5f5b4344fd339a8", "fusion_lon": 0.0, "lon": -77.0072995, "lat": 38.903864, "is_reserved": 0, "is_disabled": 0, "rental_uris": {"android": "https://dc.lft.to/lastmile_qr_scan", "ios": "https://dc.lft.to/lastmile_qr_scan"}, "name": "20bbb959e6a652e1d5f5b4344fd339a8", "type": "electric_scooter"}, {"fusion_lat": 0.0, "bike_id": "17d6c17891719d8465233be004fdfc94", "fusion_lon": 0.0, "lon": -77.03380966666667, "lat": 38.92156966666667, "is_reserved": 0, "is_disabled": 0, "rental_uris": {"android": "https://dc.lft.to/lastmile_qr_scan", "ios": "https://dc.lft.to/lastmile_qr_scan"}, "name": "17d6c17891719d8465233be004fdfc94", "type": "electric_scooter"}, {"fusion_lat": 0.0, "bike_id": "536f6e5a8cab8b1107a994073d56809b", "fusion_lon": 0.0, "lon": -77.017643, "lat": 38.887291, "is_reserved": 0, "is_disabled": 0, "rental_uris": {"android": "https://dc.lft.to/lastmile_qr_scan", "ios": "https://dc.lft.to/lastmile_qr_scan"}, "name": "536f6e5a8cab8b1107a994073d56809b", "type": "electric_scooter"}, {"fusion_lat": 0.0, "bike_id": "f6c0959c81268652cdbefb2cf44313e7", "fusion_lon": 0.0, "lon": -77.07229733333334, "lat": 38.96810333333333, "is_reserved": 0, "is_disabled": 0, "rental_uris": {"android": "https://dc.lft.to/lastmile_qr_scan", "ios": "https://dc.lft.to/lastmile_qr_scan"}, "name": "f6c0959c81268652cdbefb2cf44313e7", "type": "electric_bike"}, {"fusion_lat": 0.0, "bike_id": "b1becf1f187364d9bf1776bca4a4cc81", "fusion_lon": 0.0, "lon": -77.019522, "lat": 38.9241655, "is_reserved": 0, "is_disabled": 0, "rental_uris": {"android": "https://dc.lft.to/lastmile_qr_scan", "ios": "https://dc.lft.to/lastmile_qr_scan"}, "name": "b1becf1f187364d9bf1776bca4a4cc81", "type": "electric_scooter"}, {"fusion_lat": 0.0, "bike_id": "1369f7a7d8acdc89406b9e05a10e55da", "fusion_lon": 0.0, "lon": -77.0390905, "lat": 38.92312833333333, "is_reserved": 0, "is_disabled": 0, "rental_uris": {"android": "https://dc.lft.to/lastmile_qr_scan", "ios": "https://dc.lft.to/lastmile_qr_scan"}, "name": "1369f7a7d8acdc89406b9e05a10e55da", "type": "electric_scooter"}, {"fusion_lat": 0.0, "bike_id": "71ebe8e610c5004c2ef3e669119c19a5", "fusion_lon": 0.0, "lon": -76.96088783333333, "lat": 38.9184865, "is_reserved": 0, "is_disabled": 0, "rental_uris": {"android": "https://dc.lft.to/lastmile_qr_scan", "ios": "https://dc.lft.to/lastmile_qr_scan"}, "name": "71ebe8e610c5004c2ef3e669119c19a5", "type": "electric_bike"}, {"fusion_lat": 0.0, "bike_id": "6923cd9b25a7af37bbda2319d8b7954e", "fusion_lon": 0.0, "lon": -77.004792, "lat": 38.928203833333335, "is_reserved": 0, "is_disabled": 0, "rental_uris": {"android": "https://dc.lft.to/lastmile_qr_scan", "ios": "https://dc.lft.to/lastmile_qr_scan"}, "name": "6923cd9b25a7af37bbda2319d8b7954e", "type": "electric_bike"}, {"fusion_lat": 0.0, "bike_id": "2cc08bc5c58ab4bb339be688d3c2791b", "fusion_lon": 0.0, "lon": -77.03607816666667, "lat": 38.93679316666667, "is_reserved": 0, "is_disabled": 0, "rental_uris": {"android": "https://dc.lft.to/lastmile_qr_scan", "ios": "https://dc.lft.to/lastmile_qr_scan"}, "name": "2cc08bc5c58ab4bb339be688d3c2791b", "type": "electric_scooter"}, {"fusion_lat": 0.0, "bike_id": "f7c52b3a56107f5be3c1dd1e94961ce2", "fusion_lon": 0.0, "lon": -77.03448116666667, "lat": 38.909436166666666, "is_reserved": 0, "is_disabled": 0, "rental_uris": {"android": "https://dc.lft.to/lastmile_qr_scan", "ios": "https://dc.lft.to/lastmile_qr_scan"}, "name": "f7c52b3a56107f5be3c1dd1e94961ce2", "type": "electric_scooter"}, {"fusion_lat": 0.0, "bike_id": "4d0b1dea9bb559322e9de64080953b87", "fusion_lon": 0.0, "lon": -77.023809, "lat": 38.892311166666666, "is_reserved": 0, "is_disabled": 0, "rental_uris": {"android": "https://dc.lft.to/lastmile_qr_scan", "ios": "https://dc.lft.to/lastmile_qr_scan"}, "name": "4d0b1dea9bb559322e9de64080953b87", "type": "electric_scooter"}, {"fusion_lat": 0.0, "bike_id": "ab0950e975793515b6ec1267f9e0aae2", "fusion_lon": 0.0, "lon": -77.04160366666666, "lat": 38.91598666666667, "is_reserved": 0, "is_disabled": 0, "rental_uris": {"android": "https://dc.lft.to/lastmile_qr_scan", "ios": "https://dc.lft.to/lastmile_qr_scan"}, "name": "ab0950e975793515b6ec1267f9e0aae2", "type": "electric_scooter"}, {"fusion_lat": 0.0, "bike_id": "488967e8fd5fd0a7e4eea24bcd873a9a", "fusion_lon": 0.0, "lon": -77.01512016666666, "lat": 38.8873735, "is_reserved": 0, "is_disabled": 0, "rental_uris": {"android": "https://dc.lft.to/lastmile_qr_scan", "ios": "https://dc.lft.to/lastmile_qr_scan"}, "name": "488967e8fd5fd0a7e4eea24bcd873a9a", "type": "electric_scooter"}, {"fusion_lat": 0.0, "bike_id": "f0508af0618b20c3c2fd405747d1409b", "fusion_lon": 0.0, "lon": -77.03267166666667, "lat": 38.93648483333333, "is_reserved": 0, "is_disabled": 0, "rental_uris": {"android": "https://dc.lft.to/lastmile_qr_scan", "ios": "https://dc.lft.to/lastmile_qr_scan"}, "name": "f0508af0618b20c3c2fd405747d1409b", "type": "electric_scooter"}, {"fusion_lat": 0.0, "bike_id": "296dbd22873b0a003fb15a243b0c83af", "fusion_lon": 0.0, "lon": -77.0609825, "lat": 38.93706183333333, "is_reserved": 0, "is_disabled": 0, "rental_uris": {"android": "https://dc.lft.to/lastmile_qr_scan", "ios": "https://dc.lft.to/lastmile_qr_scan"}, "name": "296dbd22873b0a003fb15a243b0c83af", "type": "electric_scooter"}, {"fusion_lat": 0.0, "bike_id": "90f97cfc63a7c4f8ad9070d318e9ca9d", "fusion_lon": 0.0, "lon": -77.03376716666666, "lat": 38.921391, "is_reserved": 0, "is_disabled": 0, "rental_uris": {"android": "https://dc.lft.to/lastmile_qr_scan", "ios": "https://dc.lft.to/lastmile_qr_scan"}, "name": "90f97cfc63a7c4f8ad9070d318e9ca9d", "type": "electric_scooter"}, {"fusion_lat": 0.0, "bike_id": "184518cad1c1bc58371887fab9fa2291", "fusion_lon": 0.0, "lon": -77.0366065, "lat": 38.904650333333336, "is_reserved": 0, "is_disabled": 0, "rental_uris": {"android": "https://dc.lft.to/lastmile_qr_scan", "ios": "https://dc.lft.to/lastmile_qr_scan"}, "name": "184518cad1c1bc58371887fab9fa2291", "type": "electric_scooter"}, {"fusion_lat": 0.0, "bike_id": "71a28e6abaf626fc8bf10c3559a4131b", "fusion_lon": 0.0, "lon": -77.04674783333333, "lat": 38.8945485, "is_reserved": 0, "is_disabled": 0, "rental_uris": {"android": "https://dc.lft.to/lastmile_qr_scan", "ios": "https://dc.lft.to/lastmile_qr_scan"}, "name": "71a28e6abaf626fc8bf10c3559a4131b", "type": "electric_scooter"}, {"fusion_lat": 0.0, "bike_id": "f35ca07147da8936991a8f06823b98eb", "fusion_lon": 0.0, "lon": -77.04638483333333, "lat": 38.92121316666667, "is_reserved": 0, "is_disabled": 0, "rental_uris": {"android": "https://dc.lft.to/lastmile_qr_scan", "ios": "https://dc.lft.to/lastmile_qr_scan"}, "name": "f35ca07147da8936991a8f06823b98eb", "type": "electric_scooter"}, {"fusion_lat": 0.0, "bike_id": "113a821817595cc3ce9ff7f9eba8795a", "fusion_lon": 0.0, "lon": -76.94883, "lat": 38.89508416666666, "is_reserved": 0, "is_disabled": 0, "rental_uris": {"android": "https://dc.lft.to/lastmile_qr_scan", "ios": "https://dc.lft.to/lastmile_qr_scan"}, "name": "113a821817595cc3ce9ff7f9eba8795a", "type": "electric_scooter"}, {"fusion_lat": 0.0, "bike_id": "53244a8e8fcc08969d95f540d88761fd", "fusion_lon": 0.0, "lon": -77.01428833333334, "lat": 38.95227666666667, "is_reserved": 0, "is_disabled": 0, "rental_uris": {"android": "https://dc.lft.to/lastmile_qr_scan", "ios": "https://dc.lft.to/lastmile_qr_scan"}, "name": "53244a8e8fcc08969d95f540d88761fd", "type": "electric_scooter"}, {"fusion_lat": 0.0, "bike_id": "df9c00d7991560797b1339efdf8e33ea", "fusion_lon": 0.0, "lon": -77.047658, "lat": 38.91239866666667, "is_reserved": 0, "is_disabled": 0, "rental_uris": {"android": "https://dc.lft.to/lastmile_qr_scan", "ios": "https://dc.lft.to/lastmile_qr_scan"}, "name": "df9c00d7991560797b1339efdf8e33ea", "type": "electric_scooter"}, {"fusion_lat": 0.0, "bike_id": "58f9f7c658f42fa793dd68bc862a1c66", "fusion_lon": 0.0, "lon": -77.10741366666667, "lat": 38.85542233333334, "is_reserved": 0, "is_disabled": 0, "rental_uris": {"android": "https://dc.lft.to/lastmile_qr_scan", "ios": "https://dc.lft.to/lastmile_qr_scan"}, "name": "58f9f7c658f42fa793dd68bc862a1c66", "type": "electric_bike"}, {"fusion_lat": 0.0, "bike_id": "89d681048c982358d3b3a377d68a1876", "fusion_lon": 0.0, "lon": -77.00415416666667, "lat": 38.930860833333334, "is_reserved": 0, "is_disabled": 0, "rental_uris": {"android": "https://dc.lft.to/lastmile_qr_scan", "ios": "https://dc.lft.to/lastmile_qr_scan"}, "name": "89d681048c982358d3b3a377d68a1876", "type": "electric_scooter"}, {"fusion_lat": 0.0, "bike_id": "54416e821f598273a97e573e7eef2031", "fusion_lon": 0.0, "lon": -77.046853, "lat": 38.9218225, "is_reserved": 0, "is_disabled": 0, "rental_uris": {"android": "https://dc.lft.to/lastmile_qr_scan", "ios": "https://dc.lft.to/lastmile_qr_scan"}, "name": "54416e821f598273a97e573e7eef2031", "type": "electric_scooter"}, {"fusion_lat": 0.0, "bike_id": "342e11e3b4265ccd6526ebcf2594a144", "fusion_lon": 0.0, "lon": -77.0209815, "lat": 38.9311695, "is_reserved": 0, "is_disabled": 0, "rental_uris": {"android": "https://dc.lft.to/lastmile_qr_scan", "ios": "https://dc.lft.to/lastmile_qr_scan"}, "name": "342e11e3b4265ccd6526ebcf2594a144", "type": "electric_scooter"}, {"fusion_lat": 0.0, "bike_id": "4d8beec6aa4be18b535754c4a25d1bb6", "fusion_lon": 0.0, "lon": -77.036576, "lat": 38.9234375, "is_reserved": 0, "is_disabled": 0, "rental_uris": {"android": "https://dc.lft.to/lastmile_qr_scan", "ios": "https://dc.lft.to/lastmile_qr_scan"}, "name": "4d8beec6aa4be18b535754c4a25d1bb6", "type": "electric_scooter"}, {"fusion_lat": 0.0, "bike_id": "f9a26449bb60b5b96dfe419b0db9f282", "fusion_lon": 0.0, "lon": -77.02659666666666, "lat": 38.91688116666667, "is_reserved": 0, "is_disabled": 0, "rental_uris": {"android": "https://dc.lft.to/lastmile_qr_scan", "ios": "https://dc.lft.to/lastmile_qr_scan"}, "name": "f9a26449bb60b5b96dfe419b0db9f282", "type": "electric_scooter"}, {"fusion_lat": 0.0, "bike_id": "15fc3ceb6dfd02b93fd46b1e87f6e41c", "fusion_lon": 0.0, "lon": -76.99288583333333, "lat": 38.898862333333334, "is_reserved": 0, "is_disabled": 0, "rental_uris": {"android": "https://dc.lft.to/lastmile_qr_scan", "ios": "https://dc.lft.to/lastmile_qr_scan"}, "name": "15fc3ceb6dfd02b93fd46b1e87f6e41c", "type": "electric_scooter"}, {"fusion_lat": 0.0, "bike_id": "ccd5646d0130690a1da298b4008902dc", "fusion_lon": 0.0, "lon": -77.04515366666666, "lat": 38.92314, "is_reserved": 0, "is_disabled": 0, "rental_uris": {"android": "https://dc.lft.to/lastmile_qr_scan", "ios": "https://dc.lft.to/lastmile_qr_scan"}, "name": "ccd5646d0130690a1da298b4008902dc", "type": "electric_scooter"}, {"fusion_lat": 0.0, "bike_id": "6f478a94d4723934a527009c1e9de65d", "fusion_lon": 0.0, "lon": -77.03273683333333, "lat": 38.9319895, "is_reserved": 0, "is_disabled": 0, "rental_uris": {"android": "https://dc.lft.to/lastmile_qr_scan", "ios": "https://dc.lft.to/lastmile_qr_scan"}, "name": "6f478a94d4723934a527009c1e9de65d", "type": "electric_scooter"}, {"fusion_lat": 0.0, "bike_id": "667c3daa7667572f9a7df52de6b7599c", "fusion_lon": 0.0, "lon": -77.0798335, "lat": 38.91951266666667, "is_reserved": 0, "is_disabled": 0, "rental_uris": {"android": "https://dc.lft.to/lastmile_qr_scan", "ios": "https://dc.lft.to/lastmile_qr_scan"}, "name": "667c3daa7667572f9a7df52de6b7599c", "type": "electric_scooter"}, {"fusion_lat": 0.0, "bike_id": "11101a00b2b553d44e0d78798693009e", "fusion_lon": 0.0, "lon": -77.00603933333333, "lat": 38.871828666666666, "is_reserved": 0, "is_disabled": 0, "rental_uris": {"android": "https://dc.lft.to/lastmile_qr_scan", "ios": "https://dc.lft.to/lastmile_qr_scan"}, "name": "11101a00b2b553d44e0d78798693009e", "type": "electric_scooter"}, {"fusion_lat": 0.0, "bike_id": "e17613f2b5f363774dce140718fa5e3a", "fusion_lon": 0.0, "lon": -77.0347675, "lat": 38.934394, "is_reserved": 0, "is_disabled": 0, "rental_uris": {"android": "https://dc.lft.to/lastmile_qr_scan", "ios": "https://dc.lft.to/lastmile_qr_scan"}, "name": "e17613f2b5f363774dce140718fa5e3a", "type": "electric_scooter"}, {"fusion_lat": 0.0, "bike_id": "b5cbe95d531b446203113128b6c74b6c", "fusion_lon": 0.0, "lon": -77.03289516666666, "lat": 38.920488, "is_reserved": 0, "is_disabled": 0, "rental_uris": {"android": "https://dc.lft.to/lastmile_qr_scan", "ios": "https://dc.lft.to/lastmile_qr_scan"}, "name": "b5cbe95d531b446203113128b6c74b6c", "type": "electric_scooter"}, {"fusion_lat": 0.0, "bike_id": "309bebfbb541bbba49c64828dc098ff9", "fusion_lon": 0.0, "lon": -77.037432, "lat": 38.90236083333333, "is_reserved": 0, "is_disabled": 0, "rental_uris": {"android": "https://dc.lft.to/lastmile_qr_scan", "ios": "https://dc.lft.to/lastmile_qr_scan"}, "name": "309bebfbb541bbba49c64828dc098ff9", "type": "electric_scooter"}, {"fusion_lat": 0.0, "bike_id": "f9d789febc00a8612276d4f5d9fcf8bd", "fusion_lon": 0.0, "lon": -77.02754383333334, "lat": 38.8971545, "is_reserved": 0, "is_disabled": 0, "rental_uris": {"android": "https://dc.lft.to/lastmile_qr_scan", "ios": "https://dc.lft.to/lastmile_qr_scan"}, "name": "f9d789febc00a8612276d4f5d9fcf8bd", "type": "electric_scooter"}, {"fusion_lat": 0.0, "bike_id": "08cc93c25f1d50c301a96c00f5ae78fc", "fusion_lon": 0.0, "lon": -77.04155983333334, "lat": 38.905145, "is_reserved": 0, "is_disabled": 0, "rental_uris": {"android": "https://dc.lft.to/lastmile_qr_scan", "ios": "https://dc.lft.to/lastmile_qr_scan"}, "name": "08cc93c25f1d50c301a96c00f5ae78fc", "type": "electric_scooter"}, {"fusion_lat": 0.0, "bike_id": "bc9856a61c70302c1dc1c1b4b585f262", "fusion_lon": 0.0, "lon": -77.02486233333333, "lat": 38.91952116666667, "is_reserved": 0, "is_disabled": 0, "rental_uris": {"android": "https://dc.lft.to/lastmile_qr_scan", "ios": "https://dc.lft.to/lastmile_qr_scan"}, "name": "bc9856a61c70302c1dc1c1b4b585f262", "type": "electric_scooter"}, {"fusion_lat": 0.0, "bike_id": "832bd6d0b562be33644f7281b229f80b", "fusion_lon": 0.0, "lon": -77.05914066666666, "lat": 38.903125833333334, "is_reserved": 0, "is_disabled": 0, "rental_uris": {"android": "https://dc.lft.to/lastmile_qr_scan", "ios": "https://dc.lft.to/lastmile_qr_scan"}, "name": "832bd6d0b562be33644f7281b229f80b", "type": "electric_scooter"}, {"fusion_lat": 0.0, "bike_id": "37475554654d00a8208985df47ecd5a2", "fusion_lon": 0.0, "lon": -77.026684, "lat": 38.92177433333333, "is_reserved": 0, "is_disabled": 0, "rental_uris": {"android": "https://dc.lft.to/lastmile_qr_scan", "ios": "https://dc.lft.to/lastmile_qr_scan"}, "name": "37475554654d00a8208985df47ecd5a2", "type": "electric_scooter"}, {"fusion_lat": 0.0, "bike_id": "f1a79d52e615bdd15a5209efec44be15", "fusion_lon": 0.0, "lon": -77.00078316666666, "lat": 38.874972, "is_reserved": 0, "is_disabled": 0, "rental_uris": {"android": "https://dc.lft.to/lastmile_qr_scan", "ios": "https://dc.lft.to/lastmile_qr_scan"}, "name": "f1a79d52e615bdd15a5209efec44be15", "type": "electric_scooter"}, {"fusion_lat": 0.0, "bike_id": "5a8cc5502a8e1eec66ca13aa04822a79", "fusion_lon": 0.0, "lon": -77.0462845, "lat": 38.91541483333334, "is_reserved": 0, "is_disabled": 0, "rental_uris": {"android": "https://dc.lft.to/lastmile_qr_scan", "ios": "https://dc.lft.to/lastmile_qr_scan"}, "name": "5a8cc5502a8e1eec66ca13aa04822a79", "type": "electric_scooter"}, {"fusion_lat": 0.0, "bike_id": "a9663eeb6d44dff78326b81b6dffcdb4", "fusion_lon": 0.0, "lon": -76.9305945, "lat": 38.883834, "is_reserved": 0, "is_disabled": 0, "rental_uris": {"android": "https://dc.lft.to/lastmile_qr_scan", "ios": "https://dc.lft.to/lastmile_qr_scan"}, "name": "a9663eeb6d44dff78326b81b6dffcdb4", "type": "electric_scooter"}, {"fusion_lat": 0.0, "bike_id": "0b87522450ff33b2ed4949c7c605c327", "fusion_lon": 0.0, "lon": -77.02662033333333, "lat": 38.916920833333336, "is_reserved": 0, "is_disabled": 0, "rental_uris": {"android": "https://dc.lft.to/lastmile_qr_scan", "ios": "https://dc.lft.to/lastmile_qr_scan"}, "name": "0b87522450ff33b2ed4949c7c605c327", "type": "electric_scooter"}, {"fusion_lat": 0.0, "bike_id": "84b939c5d399a90c81cfb369e4926aeb", "fusion_lon": 0.0, "lon": -77.045044, "lat": 38.89226433333333, "is_reserved": 0, "is_disabled": 0, "rental_uris": {"android": "https://dc.lft.to/lastmile_qr_scan", "ios": "https://dc.lft.to/lastmile_qr_scan"}, "name": "84b939c5d399a90c81cfb369e4926aeb", "type": "electric_scooter"}, {"fusion_lat": 0.0, "bike_id": "c32b8cda3b373d8577df16e25e4a839f", "fusion_lon": 0.0, "lon": -77.03184366666666, "lat": 38.91423616666667, "is_reserved": 0, "is_disabled": 0, "rental_uris": {"android": "https://dc.lft.to/lastmile_qr_scan", "ios": "https://dc.lft.to/lastmile_qr_scan"}, "name": "c32b8cda3b373d8577df16e25e4a839f", "type": "electric_bike"}, {"fusion_lat": 0.0, "bike_id": "89287af63cb03536bd17dcaa2d4d5625", "fusion_lon": 0.0, "lon": -77.022594, "lat": 38.9376385, "is_reserved": 0, "is_disabled": 0, "rental_uris": {"android": "https://dc.lft.to/lastmile_qr_scan", "ios": "https://dc.lft.to/lastmile_qr_scan"}, "name": "89287af63cb03536bd17dcaa2d4d5625", "type": "electric_scooter"}, {"fusion_lat": 0.0, "bike_id": "a1d755c7dc3342609b1aee1463217567", "fusion_lon": 0.0, "lon": -77.04309616666667, "lat": 38.922160166666664, "is_reserved": 0, "is_disabled": 0, "rental_uris": {"android": "https://dc.lft.to/lastmile_qr_scan", "ios": "https://dc.lft.to/lastmile_qr_scan"}, "name": "a1d755c7dc3342609b1aee1463217567", "type": "electric_scooter"}, {"fusion_lat": 0.0, "bike_id": "0b098f3e7176584620443a40a3605130", "fusion_lon": 0.0, "lon": -77.0226945, "lat": 38.898378, "is_reserved": 0, "is_disabled": 0, "rental_uris": {"android": "https://dc.lft.to/lastmile_qr_scan", "ios": "https://dc.lft.to/lastmile_qr_scan"}, "name": "0b098f3e7176584620443a40a3605130", "type": "electric_scooter"}, {"fusion_lat": 0.0, "bike_id": "26060258adf07601a8abb098ccdde3cc", "fusion_lon": 0.0, "lon": -77.043549, "lat": 38.92167333333333, "is_reserved": 0, "is_disabled": 0, "rental_uris": {"android": "https://dc.lft.to/lastmile_qr_scan", "ios": "https://dc.lft.to/lastmile_qr_scan"}, "name": "26060258adf07601a8abb098ccdde3cc", "type": "electric_scooter"}, {"fusion_lat": 0.0, "bike_id": "c90dd1427c8151855d1ee806d9bb4e79", "fusion_lon": 0.0, "lon": -77.00540683333334, "lat": 38.92977316666666, "is_reserved": 0, "is_disabled": 0, "rental_uris": {"android": "https://dc.lft.to/lastmile_qr_scan", "ios": "https://dc.lft.to/lastmile_qr_scan"}, "name": "c90dd1427c8151855d1ee806d9bb4e79", "type": "electric_scooter"}, {"fusion_lat": 0.0, "bike_id": "7919350c6d6a2d7879bb2d276d508647", "fusion_lon": 0.0, "lon": -77.02316016666667, "lat": 38.9181025, "is_reserved": 0, "is_disabled": 0, "rental_uris": {"android": "https://dc.lft.to/lastmile_qr_scan", "ios": "https://dc.lft.to/lastmile_qr_scan"}, "name": "7919350c6d6a2d7879bb2d276d508647", "type": "electric_scooter"}, {"fusion_lat": 0.0, "bike_id": "1e4fcd61be68101b8a64a14356e36d0a", "fusion_lon": 0.0, "lon": -76.98522783333334, "lat": 38.866847666666665, "is_reserved": 0, "is_disabled": 0, "rental_uris": {"android": "https://dc.lft.to/lastmile_qr_scan", "ios": "https://dc.lft.to/lastmile_qr_scan"}, "name": "1e4fcd61be68101b8a64a14356e36d0a", "type": "electric_scooter"}, {"fusion_lat": 0.0, "bike_id": "f17b5ae4e27573bb86b54b8d0d79086c", "fusion_lon": 0.0, "lon": -77.0325655, "lat": 38.9205115, "is_reserved": 0, "is_disabled": 0, "rental_uris": {"android": "https://dc.lft.to/lastmile_qr_scan", "ios": "https://dc.lft.to/lastmile_qr_scan"}, "name": "f17b5ae4e27573bb86b54b8d0d79086c", "type": "electric_scooter"}, {"fusion_lat": 0.0, "bike_id": "527533999935aca392c1180532ffc198", "fusion_lon": 0.0, "lon": -77.02382616666667, "lat": 38.89234733333333, "is_reserved": 0, "is_disabled": 0, "rental_uris": {"android": "https://dc.lft.to/lastmile_qr_scan", "ios": "https://dc.lft.to/lastmile_qr_scan"}, "name": "527533999935aca392c1180532ffc198", "type": "electric_scooter"}, {"fusion_lat": 0.0, "bike_id": "30899552f8586aff9f0d0a861ac6a65e", "fusion_lon": 0.0, "lon": -77.05686733333333, "lat": 38.864856, "is_reserved": 0, "is_disabled": 0, "rental_uris": {"android": "https://dc.lft.to/lastmile_qr_scan", "ios": "https://dc.lft.to/lastmile_qr_scan"}, "name": "30899552f8586aff9f0d0a861ac6a65e", "type": "electric_bike"}, {"fusion_lat": 0.0, "bike_id": "d2ef6d758d38da369745e4bc1e4f3985", "fusion_lon": 0.0, "lon": -77.0003495, "lat": 38.9678475, "is_reserved": 0, "is_disabled": 0, "rental_uris": {"android": "https://dc.lft.to/lastmile_qr_scan", "ios": "https://dc.lft.to/lastmile_qr_scan"}, "name": "d2ef6d758d38da369745e4bc1e4f3985", "type": "electric_bike"}, {"fusion_lat": 0.0, "bike_id": "6a78cc76b378a842ef8dca1d1de6ea89", "fusion_lon": 0.0, "lon": -77.04343216666666, "lat": 38.92317883333333, "is_reserved": 0, "is_disabled": 0, "rental_uris": {"android": "https://dc.lft.to/lastmile_qr_scan", "ios": "https://dc.lft.to/lastmile_qr_scan"}, "name": "6a78cc76b378a842ef8dca1d1de6ea89", "type": "electric_scooter"}, {"fusion_lat": 0.0, "bike_id": "020eb869cc9caf3311ff3a36b700db83", "fusion_lon": 0.0, "lon": -77.03882016666667, "lat": 38.9296325, "is_reserved": 0, "is_disabled": 0, "rental_uris": {"android": "https://dc.lft.to/lastmile_qr_scan", "ios": "https://dc.lft.to/lastmile_qr_scan"}, "name": "020eb869cc9caf3311ff3a36b700db83", "type": "electric_scooter"}, {"fusion_lat": 0.0, "bike_id": "4dec979943322e2308d863cff2ea32e7", "fusion_lon": 0.0, "lon": -77.03710933333333, "lat": 38.9110725, "is_reserved": 0, "is_disabled": 0, "rental_uris": {"android": "https://dc.lft.to/lastmile_qr_scan", "ios": "https://dc.lft.to/lastmile_qr_scan"}, "name": "4dec979943322e2308d863cff2ea32e7", "type": "electric_scooter"}, {"fusion_lat": 0.0, "bike_id": "0d66133876dc1beae613aeb1fdb7fbfa", "fusion_lon": 0.0, "lon": -77.02817583333334, "lat": 38.911289833333335, "is_reserved": 0, "is_disabled": 0, "rental_uris": {"android": "https://dc.lft.to/lastmile_qr_scan", "ios": "https://dc.lft.to/lastmile_qr_scan"}, "name": "0d66133876dc1beae613aeb1fdb7fbfa", "type": "electric_scooter"}, {"fusion_lat": 0.0, "bike_id": "cacf93c44b862374e78adeb495a1b08d", "fusion_lon": 0.0, "lon": -77.03661716666667, "lat": 38.922853333333336, "is_reserved": 0, "is_disabled": 0, "rental_uris": {"android": "https://dc.lft.to/lastmile_qr_scan", "ios": "https://dc.lft.to/lastmile_qr_scan"}, "name": "cacf93c44b862374e78adeb495a1b08d", "type": "electric_scooter"}, {"fusion_lat": 0.0, "bike_id": "ca0768d058c87afab20b929c79bf630e", "fusion_lon": 0.0, "lon": -77.0320755, "lat": 38.917381, "is_reserved": 0, "is_disabled": 0, "rental_uris": {"android": "https://dc.lft.to/lastmile_qr_scan", "ios": "https://dc.lft.to/lastmile_qr_scan"}, "name": "ca0768d058c87afab20b929c79bf630e", "type": "electric_scooter"}, {"fusion_lat": 0.0, "bike_id": "79853a795506bf995c5444d504638d44", "fusion_lon": 0.0, "lon": -77.00954666666667, "lat": 38.9078625, "is_reserved": 0, "is_disabled": 0, "rental_uris": {"android": "https://dc.lft.to/lastmile_qr_scan", "ios": "https://dc.lft.to/lastmile_qr_scan"}, "name": "79853a795506bf995c5444d504638d44", "type": "electric_scooter"}, {"fusion_lat": 0.0, "bike_id": "b228badfafed334e90e67a542d88b50a", "fusion_lon": 0.0, "lon": -77.00199483333333, "lat": 38.90237533333333, "is_reserved": 0, "is_disabled": 0, "rental_uris": {"android": "https://dc.lft.to/lastmile_qr_scan", "ios": "https://dc.lft.to/lastmile_qr_scan"}, "name": "b228badfafed334e90e67a542d88b50a", "type": "electric_scooter"}, {"fusion_lat": 0.0, "bike_id": "2a70fba8425a91c3c84b4b142f097f2e", "fusion_lon": 0.0, "lon": -77.03739283333333, "lat": 38.918035833333334, "is_reserved": 0, "is_disabled": 0, "rental_uris": {"android": "https://dc.lft.to/lastmile_qr_scan", "ios": "https://dc.lft.to/lastmile_qr_scan"}, "name": "2a70fba8425a91c3c84b4b142f097f2e", "type": "electric_scooter"}, {"fusion_lat": 0.0, "bike_id": "cf438d7abca829918458cf9a379743a2", "fusion_lon": 0.0, "lon": -76.98848983333333, "lat": 38.86732333333333, "is_reserved": 0, "is_disabled": 0, "rental_uris": {"android": "https://dc.lft.to/lastmile_qr_scan", "ios": "https://dc.lft.to/lastmile_qr_scan"}, "name": "cf438d7abca829918458cf9a379743a2", "type": "electric_scooter"}, {"fusion_lat": 0.0, "bike_id": "d64072fffe169f444577fc9b0df12bad", "fusion_lon": 0.0, "lon": -77.017386, "lat": 38.8874065, "is_reserved": 0, "is_disabled": 0, "rental_uris": {"android": "https://dc.lft.to/lastmile_qr_scan", "ios": "https://dc.lft.to/lastmile_qr_scan"}, "name": "d64072fffe169f444577fc9b0df12bad", "type": "electric_scooter"}, {"fusion_lat": 0.0, "bike_id": "a07c80441028a64c802199d533b85cff", "fusion_lon": 0.0, "lon": -77.03199283333333, "lat": 38.917368333333336, "is_reserved": 0, "is_disabled": 0, "rental_uris": {"android": "https://dc.lft.to/lastmile_qr_scan", "ios": "https://dc.lft.to/lastmile_qr_scan"}, "name": "a07c80441028a64c802199d533b85cff", "type": "electric_scooter"}, {"fusion_lat": 0.0, "bike_id": "edd37c284afde631635f22c49ef9156a", "fusion_lon": 0.0, "lon": -77.04720466666667, "lat": 38.89961233333333, "is_reserved": 0, "is_disabled": 0, "rental_uris": {"android": "https://dc.lft.to/lastmile_qr_scan", "ios": "https://dc.lft.to/lastmile_qr_scan"}, "name": "edd37c284afde631635f22c49ef9156a", "type": "electric_scooter"}, {"fusion_lat": 0.0, "bike_id": "e91231e0cc1653373dafef67a4efaa53", "fusion_lon": 0.0, "lon": -77.03153666666667, "lat": 38.915576, "is_reserved": 0, "is_disabled": 0, "rental_uris": {"android": "https://dc.lft.to/lastmile_qr_scan", "ios": "https://dc.lft.to/lastmile_qr_scan"}, "name": "e91231e0cc1653373dafef67a4efaa53", "type": "electric_scooter"}, {"fusion_lat": 0.0, "bike_id": "0f8bf1a5e04830d7fbe64dec8ad396e8", "fusion_lon": 0.0, "lon": -77.0219725, "lat": 38.878902, "is_reserved": 0, "is_disabled": 0, "rental_uris": {"android": "https://dc.lft.to/lastmile_qr_scan", "ios": "https://dc.lft.to/lastmile_qr_scan"}, "name": "0f8bf1a5e04830d7fbe64dec8ad396e8", "type": "electric_scooter"}, {"fusion_lat": 0.0, "bike_id": "a21d34c006dacc91d43ca604f81452cb", "fusion_lon": 0.0, "lon": -77.027236, "lat": 38.89710983333333, "is_reserved": 0, "is_disabled": 0, "rental_uris": {"android": "https://dc.lft.to/lastmile_qr_scan", "ios": "https://dc.lft.to/lastmile_qr_scan"}, "name": "a21d34c006dacc91d43ca604f81452cb", "type": "electric_scooter"}, {"fusion_lat": 0.0, "bike_id": "5be1ef10450997779de5d35fc1d9b4e6", "fusion_lon": 0.0, "lon": -76.99373183333333, "lat": 38.879693833333334, "is_reserved": 0, "is_disabled": 0, "rental_uris": {"android": "https://dc.lft.to/lastmile_qr_scan", "ios": "https://dc.lft.to/lastmile_qr_scan"}, "name": "5be1ef10450997779de5d35fc1d9b4e6", "type": "electric_scooter"}, {"fusion_lat": 0.0, "bike_id": "3463ac31a568e39e47f309d855777745", "fusion_lon": 0.0, "lon": -76.99005866666667, "lat": 38.865066666666664, "is_reserved": 0, "is_disabled": 0, "rental_uris": {"android": "https://dc.lft.to/lastmile_qr_scan", "ios": "https://dc.lft.to/lastmile_qr_scan"}, "name": "3463ac31a568e39e47f309d855777745", "type": "electric_scooter"}, {"fusion_lat": 0.0, "bike_id": "62700850fa91f81b33bfce9d5c2d55e5", "fusion_lon": 0.0, "lon": -77.02533283333334, "lat": 38.90368083333333, "is_reserved": 0, "is_disabled": 0, "rental_uris": {"android": "https://dc.lft.to/lastmile_qr_scan", "ios": "https://dc.lft.to/lastmile_qr_scan"}, "name": "62700850fa91f81b33bfce9d5c2d55e5", "type": "electric_scooter"}, {"fusion_lat": 0.0, "bike_id": "ad595780542c790fb54d64f4316f373b", "fusion_lon": 0.0, "lon": -77.03292583333334, "lat": 38.898233166666664, "is_reserved": 0, "is_disabled": 0, "rental_uris": {"android": "https://dc.lft.to/lastmile_qr_scan", "ios": "https://dc.lft.to/lastmile_qr_scan"}, "name": "ad595780542c790fb54d64f4316f373b", "type": "electric_scooter"},