{"data": {"bikes": [{"type": "electric_scooter", "name": "9e3a1bf907b978267e32b355106f8803", "rental_uris": {"ios": "https://dc.lft.to/lastmile_qr_scan", "android": "https://dc.lft.to/lastmile_qr_scan"}, "fusion_lon": 0.0, "lat": 38.9081355, "is_disabled": 0, "bike_id": "9e3a1bf907b978267e32b355106f8803", "fusion_lat": 0.0, "is_reserved": 0, "lon": -77.04339016666667}, {"type": "electric_scooter", "name": "8cbdfbbb73118cc6dd77224f8e649964", "rental_uris": {"ios": "https://dc.lft.to/lastmile_qr_scan", "android": "https://dc.lft.to/lastmile_qr_scan"}, "fusion_lon": 0.0, "lat": 38.910894166666665, "is_disabled": 0, "bike_id": "8cbdfbbb73118cc6dd77224f8e649964", "fusion_lat": 0.0, "is_reserved": 0, "lon": -77.01628116666667}, {"type": "electric_scooter", "name": "2abb00317d7e0f61e8cac2915858d14c", "rental_uris": {"ios": "https://dc.lft.to/lastmile_qr_scan", "android": "https://dc.lft.to/lastmile_qr_scan"}, "fusion_lon": 0.0, "lat": 38.938757, "is_disabled": 0, "bike_id": "2abb00317d7e0f61e8cac2915858d14c", "fusion_lat": 0.0, "is_reserved": 0, "lon": -77.03083516666666}, {"type": "electric_scooter", "name": "47d26cef9c59e51484e64f637da4b51e", "rental_uris": {"ios": "https://dc.lft.to/lastmile_qr_scan", "android": "https://dc.lft.to/lastmile_qr_scan"}, "fusion_lon": 0.0, "lat": 38.922641, "is_disabled": 0, "bike_id": "47d26cef9c59e51484e64f637da4b51e", "fusion_lat": 0.0, "is_reserved": 0, "lon": -77.03394066666667}, {"type": "electric_scooter", "name": "2515687753d47eab9ad3ffdcc862ce05", "rental_uris": {"ios": "https://dc.lft.to/lastmile_qr_scan", "android": "https://dc.lft.to/lastmile_qr_scan"}, "fusion_lon": 0.0, "lat": 38.93057133333333, "is_disabled": 0, "bike_id": "2515687753d47eab9ad3ffdcc862ce05", "fusion_lat": 0.0, "is_reserved": 0, "lon": -77.032168}, {"type": "electric_scooter", "name": "f488820518ca1d1ea3f846997aefe3fd", "rental_uris": {"ios": "https://dc.lft.to/lastmile_qr_scan", "android": "https://dc.lft.to/lastmile_qr_scan"}, "fusion_lon": 0.0, "lat": 38.9433365, "is_disabled": 0, "bike_id": "f488820518ca1d1ea3f846997aefe3fd", "fusion_lat": 0.0, "is_reserved": 0, "lon": -77.0268715}, {"type": "electric_scooter", "name": "81505d333a2bbe25e08f2b34b577d802", "rental_uris": {"ios": "https://dc.lft.to/lastmile_qr_scan", "android": "https://dc.lft.to/lastmile_qr_scan"}, "fusion_lon": 0.0, "lat": 38.89631683333333, "is_disabled": 0, "bike_id": "81505d333a2bbe25e08f2b34b577d802", "fusion_lat": 0.0, "is_reserved": 0, "lon": -77.0332155}, {"type": "electric_scooter", "name": "81262e8b378c22dda93149992c3333bd", "rental_uris": {"ios": "https://dc.lft.to/lastmile_qr_scan", "android": "https://dc.lft.to/lastmile_qr_scan"}, "fusion_lon": 0.0, "lat": 38.900085833333335, "is_disabled": 0, "bike_id": "81262e8b378c22dda93149992c3333bd", "fusion_lat": 0.0, "is_reserved": 0, "lon": -77.07138833333333}, {"type": "electric_scooter", "name": "eb0d5f495d6df7a525ed1767edbb1860", "rental_uris": {"ios": "https://dc.lft.to/lastmile_qr_scan", "android": "https://dc.lft.to/lastmile_qr_scan"}, "fusion_lon": 0.0, "lat": 38.92680083333333, "is_disabled": 0, "bike_id": "eb0d5f495d6df7a525ed1767edbb1860", "fusion_lat": 0.0, "is_reserved": 0, "lon": -77.03798833333333}, {"type": "electric_scooter", "name": "06966318dbefdb2e8311b8faa2c29351", "rental_uris": {"ios": "https://dc.lft.to/lastmile_qr_scan", "android": "https://dc.lft.to/lastmile_qr_scan"}, "fusion_lon": 0.0, "lat": 38.89672766666666, "is_disabled": 0, "bike_id": "06966318dbefdb2e8311b8faa2c29351", "fusion_lat": 0.0, "is_reserved": 0, "lon": -77.00517833333333}, {"type": "electric_scooter", "name": "b363ea0b2a65908215dc1362f68f78c2", "rental_uris": {"ios": "https://dc.lft.to/lastmile_qr_scan", "android": "https://dc.lft.to/lastmile_qr_scan"}, "fusion_lon": 0.0, "lat": 38.908108166666665, "is_disabled": 0, "bike_id": "b363ea0b2a65908215dc1362f68f78c2", "fusion_lat": 0.0, "is_reserved": 0, "lon": -77.03446116666667}, {"type": "electric_scooter", "name": "b7ba5777d0b04527055f6cea4c8f4251", "rental_uris": {"ios": "https://dc.lft.to/lastmile_qr_scan", "android": "https://dc.lft.to/lastmile_qr_scan"}, "fusion_lon": 0.0, "lat": 38.910582, "is_disabled": 0, "bike_id": "b7ba5777d0b04527055f6cea4c8f4251", "fusion_lat": 0.0, "is_reserved": 0, "lon": -77.04091083333333}, {"type": "electric_scooter", "name": "343ac344428e1982bcab3693935daf38", "rental_uris": {"ios": "https://dc.lft.to/lastmile_qr_scan", "android": "https://dc.lft.to/lastmile_qr_scan"}, "fusion_lon": 0.0, "lat": 38.91612466666667, "is_disabled": 0, "bike_id": "343ac344428e1982bcab3693935daf38", "fusion_lat": 0.0, "is_reserved": 0, "lon": -77.04622766666667}, {"type": "electric_scooter", "name": "ddbabe431d97caaaf25132972209820c", "rental_uris": {"ios": "https://dc.lft.to/lastmile_qr_scan", "android": "https://dc.lft.to/lastmile_qr_scan"}, "fusion_lon": 0.0, "lat": 38.933976, "is_disabled": 0, "bike_id": "ddbabe431d97caaaf25132972209820c", "fusion_lat": 0.0, "is_reserved": 0, "lon": -77.05741383333333}, {"type": "electric_scooter", "name": "5fb9b5b794940347a8fa92b6bfee20be", "rental_uris": {"ios": "https://dc.lft.to/lastmile_qr_scan", "android": "https://dc.lft.to/lastmile_qr_scan"}, "fusion_lon": 0.0, "lat": 38.92087183333334, "is_disabled": 0, "bike_id": "5fb9b5b794940347a8fa92b6bfee20be", "fusion_lat": 0.0, "is_reserved": 0, "lon": -77.02253516666667}, {"type": "electric_scooter", "name": "8ccef5ca649ff47d3fee7f490a5a73a6", "rental_uris": {"ios": "https://dc.lft.to/lastmile_qr_scan", "android": "https://dc.lft.to/lastmile_qr_scan"}, "fusion_lon": 0.0, "lat": 38.914141, "is_disabled": 0, "bike_id": "8ccef5ca649ff47d3fee7f490a5a73a6", "fusion_lat": 0.0, "is_reserved": 0, "lon": -77.023643}, {"type": "electric_scooter", "name": "54f2cc24464d3577b3fea343b782f608", "rental_uris": {"ios": "https://dc.lft.to/lastmile_qr_scan", "android": "https://dc.lft.to/lastmile_qr_scan"}, "fusion_lon": 0.0, "lat": 38.917252166666664, "is_disabled": 0, "bike_id": "54f2cc24464d3577b3fea343b782f608", "fusion_lat": 0.0, "is_reserved": 0, "lon": -77.02586183333334}, {"type": "electric_scooter", "name": "250ca679197866dbbed83f6447ad45cc", "rental_uris": {"ios": "https://dc.lft.to/lastmile_qr_scan", "android": "https://dc.lft.to/lastmile_qr_scan"}, "fusion_lon": 0.0, "lat": 38.887704166666666, "is_disabled": 0, "bike_id": "250ca679197866dbbed83f6447ad45cc", "fusion_lat": 0.0, "is_reserved": 0, "lon": -76.97745866666666}, {"type": "electric_scooter", "name": "1600a583fc9a97f0d6d5a5101876636b", "rental_uris": {"ios": "https://dc.lft.to/lastmile_qr_scan", "android": "https://dc.lft.to/lastmile_qr_scan"}, "fusion_lon": 0.0, "lat": 38.93276216666667, "is_disabled": 0, "bike_id": "1600a583fc9a97f0d6d5a5101876636b", "fusion_lat": 0.0, "is_reserved": 0, "lon": -77.04540266666666}, {"type": "electric_scooter", "name": "ed856fac32bcd06bf97b9e2870c0ddd5", "rental_uris": {"ios": "https://dc.lft.to/lastmile_qr_scan", "android": "https://dc.lft.to/lastmile_qr_scan"}, "fusion_lon": 0.0, "lat": 38.92625833333334, "is_disabled": 0, "bike_id": "ed856fac32bcd06bf97b9e2870c0ddd5", "fusion_lat": 0.0, "is_reserved": 0, "lon": -77.03500883333334}, {"type": "electric_scooter", "name": "c3907e7bf1e88d7bb8038f2a16674e77", "rental_uris": {"ios": "https://dc.lft.to/lastmile_qr_scan", "android": "https://dc.lft.to/lastmile_qr_scan"}, "fusion_lon": 0.0, "lat": 38.94458366666667, "is_disabled": 0, "bike_id": "c3907e7bf1e88d7bb8038f2a16674e77", "fusion_lat": 0.0, "is_reserved": 0, "lon": -77.0233855}, {"type": "electric_scooter", "name": "ba875542c0929506ce46499797862972", "rental_uris": {"ios": "https://dc.lft.to/lastmile_qr_scan", "android": "https://dc.lft.to/lastmile_qr_scan"}, "fusion_lon": 0.0, "lat": 38.909195833333335, "is_disabled": 0, "bike_id": "ba875542c0929506ce46499797862972", "fusion_lat": 0.0, "is_reserved": 0, "lon": -76.999175}, {"type": "electric_scooter", "name": "a67479ccf3372b95cc61b425b9a42370", "rental_uris": {"ios": "https://dc.lft.to/lastmile_qr_scan", "android": "https://dc.lft.to/lastmile_qr_scan"}, "fusion_lon": 0.0, "lat": 38.9219825, "is_disabled": 0, "bike_id": "a67479ccf3372b95cc61b425b9a42370", "fusion_lat": 0.0, "is_reserved": 0, "lon": -77.04118266666667}, {"type": "electric_bike", "name": "5d16db067f19eceac169abd608039bdb", "rental_uris": {"ios": "https://dc.lft.to/lastmile_qr_scan", "android": "https://dc.lft.to/lastmile_qr_scan"}, "fusion_lon": 0.0, "lat": 38.94148766666667, "is_disabled": 0, "bike_id": "5d16db067f19eceac169abd608039bdb", "fusion_lat": 0.0, "is_reserved": 0, "lon": -77.00193333333333}, {"type": "electric_scooter", "name": "8d2a6de29f51197d67905b4c3c4343a7", "rental_uris": {"ios": "https://dc.lft.to/lastmile_qr_scan", "android": "https://dc.lft.to/lastmile_qr_scan"}, "fusion_lon": 0.0, "lat": 38.97630433333333, "is_disabled": 0, "bike_id": "8d2a6de29f51197d67905b4c3c4343a7", "fusion_lat": 0.0, "is_reserved": 0, "lon": -77.01571016666666}, {"type": "electric_scooter", "name": "e3f8a9ba018abe7ba940a97f969f33af", "rental_uris": {"ios": "https://dc.lft.to/lastmile_qr_scan", "android": "https://dc.lft.to/lastmile_qr_scan"}, "fusion_lon": 0.0, "lat": 38.901428833333334, "is_disabled": 0, "bike_id": "e3f8a9ba018abe7ba940a97f969f33af", "fusion_lat": 0.0, "is_reserved": 0, "lon": -77.0371325}, {"type": "electric_scooter", "name": "bf5e847681e5be51ed4899aca2dfb4bb", "rental_uris": {"ios": "https://dc.lft.to/lastmile_qr_scan", "android": "https://dc.lft.to/lastmile_qr_scan"}, "fusion_lon": 0.0, "lat": 38.89715283333334, "is_disabled": 0, "bike_id": "bf5e847681e5be51ed4899aca2dfb4bb", "fusion_lat": 0.0, "is_reserved": 0, "lon": -77.00793533333334}, {"type": "electric_scooter", "name": "da9b3f97063888d10b96e11ef7628089", "rental_uris": {"ios": "https://dc.lft.to/lastmile_qr_scan", "android": "https://dc.lft.to/lastmile_qr_scan"}, "fusion_lon": 0.0, "lat": 38.9168275, "is_disabled": 0, "bike_id": "da9b3f97063888d10b96e11ef7628089", "fusion_lat": 0.0, "is_reserved": 0, "lon": -77.0414425}, {"type": "electric_scooter", "name": "06a6422a9f2e5b40e2ae2f4cc174e812", "rental_uris": {"ios": "https://dc.lft.to/lastmile_qr_scan", "android": "https://dc.lft.to/lastmile_qr_scan"}, "fusion_lon": 0.0, "lat": 38.86505533333333, "is_disabled": 0, "bike_id": "06a6422a9f2e5b40e2ae2f4cc174e812", "fusion_lat": 0.0, "is_reserved": 0, "lon": -76.990076}, {"type": "electric_bike", "name": "8dc43f35e4061fccfec66804a14d8402", "rental_uris": {"ios": "https://dc.lft.to/lastmile_qr_scan", "android": "https://dc.lft.to/lastmile_qr_scan"}, "fusion_lon": 0.0, "lat": 38.9652975, "is_disabled": 0, "bike_id": "8dc43f35e4061fccfec66804a14d8402", "fusion_lat": 0.0, "is_reserved": 0, "lon": -77.02819116666667}, {"type": "electric_scooter", "name": "4c699ac4cf2f588a60c65934aba4c613", "rental_uris": {"ios": "https://dc.lft.to/lastmile_qr_scan", "android": "https://dc.lft.to/lastmile_qr_scan"}, "fusion_lon": 0.0, "lat": 38.907133333333334, "is_disabled": 0, "bike_id": "4c699ac4cf2f588a60c65934aba4c613", "fusion_lat": 0.0, "is_reserved": 0, "lon": -77.02956983333333}, {"type": "electric_scooter", "name": "03d7f171dd2f666e593fe1266cf5d2f6", "rental_uris": {"ios": "https://dc.lft.to/lastmile_qr_scan", "android": "https://dc.lft.to/lastmile_qr_scan"}, "fusion_lon": 0.0, "lat": 38.9210175, "is_disabled": 0, "bike_id": "03d7f171dd2f666e593fe1266cf5d2f6", "fusion_lat": 0.0, "is_reserved": 0, "lon": -77.07470683333334}, {"type": "electric_scooter", "name": "7b08eac4d22ba4c489bebc3e1005c9d1", "rental_uris": {"ios": "https://dc.lft.to/lastmile_qr_scan", "android": "https://dc.lft.to/lastmile_qr_scan"}, "fusion_lon": 0.0, "lat": 38.926677833333336, "is_disabled": 0, "bike_id": "7b08eac4d22ba4c489bebc3e1005c9d1", "fusion_lat": 0.0, "is_reserved": 0, "lon": -77.02924533333334}, {"type": "electric_scooter", "name": "1338bbb11c6ea47ff2ca1e592fe72a3a", "rental_uris": {"ios": "https://dc.lft.to/lastmile_qr_scan", "android": "https://dc.lft.to/lastmile_qr_scan"}, "fusion_lon": 0.0, "lat": 38.9017005, "is_disabled": 0, "bike_id": "1338bbb11c6ea47ff2ca1e592fe72a3a", "fusion_lat": 0.0, "is_reserved": 0, "lon": -76.98066516666667}, {"type": "electric_scooter", "name": "fec31f23409330176853a4437c9d1013", "rental_uris": {"ios": "https://dc.lft.to/lastmile_qr_scan", "android": "https://dc.lft.to/lastmile_qr_scan"}, "fusion_lon": 0.0, "lat": 38.9193525, "is_disabled": 0, "bike_id": "fec31f23409330176853a4437c9d1013", "fusion_lat": 0.0, "is_reserved": 0, "lon": -77.044824}, {"type": "electric_scooter", "name": "5ff233ce12ef11459777b71f931db322", "rental_uris": {"ios": "https://dc.lft.to/lastmile_qr_scan", "android": "https://dc.lft.to/lastmile_qr_scan"}, "fusion_lon": 0.0, "lat": 38.90885883333333, "is_disabled": 0, "bike_id": "5ff233ce12ef11459777b71f931db322", "fusion_lat": 0.0, "is_reserved": 0, "lon": -77.07526583333333}, {"type": "electric_scooter", "name": "ada113edf6f646016c727ded784c044e", "rental_uris": {"ios": "https://dc.lft.to/lastmile_qr_scan", "android": "https://dc.lft.to/lastmile_qr_scan"}, "fusion_lon": 0.0, "lat": 38.889485, "is_disabled": 0, "bike_id": "ada113edf6f646016c727ded784c044e", "fusion_lat": 0.0, "is_reserved": 0, "lon": -76.99165333333333}, {"type": "electric_scooter", "name": "a6471732966bc6c1cdcd1c9b4530bb6b", "rental_uris": {"ios": "https://dc.lft.to/lastmile_qr_scan", "android": "https://dc.lft.to/lastmile_qr_scan"}, "fusion_lon": 0.0, "lat": 38.919605, "is_disabled": 0, "bike_id": "a6471732966bc6c1cdcd1c9b4530bb6b", "fusion_lat": 0.0, "is_reserved": 0, "lon": -77.0231415}, {"type": "electric_scooter", "name": "f38e89a30ba0eac7f88dc399cf2640f9", "rental_uris": {"ios": "https://dc.lft.to/lastmile_qr_scan", "android": "https://dc.lft.to/lastmile_qr_scan"}, "fusion_lon": 0.0, "lat": 38.897003166666664, "is_disabled": 0, "bike_id": "f38e89a30ba0eac7f88dc399cf2640f9", "fusion_lat": 0.0, "is_reserved": 0, "lon": -77.00762166666667}, {"type": "electric_scooter", "name": "cc2f8ded9dc9b860823af7945d6352c7", "rental_uris": {"ios": "https://dc.lft.to/lastmile_qr_scan", "android": "https://dc.lft.to/lastmile_qr_scan"}, "fusion_lon": 0.0, "lat": 38.920948, "is_disabled": 0, "bike_id": "cc2f8ded9dc9b860823af7945d6352c7", "fusion_lat": 0.0, "is_reserved": 0, "lon": -77.04178133333333}, {"type": "electric_scooter", "name": "7b4c99e004f3b4bc94776a589ecaf4af", "rental_uris": {"ios": "https://dc.lft.to/lastmile_qr_scan", "android": "https://dc.lft.to/lastmile_qr_scan"}, "fusion_lon": 0.0, "lat": 38.944154, "is_disabled": 0, "bike_id": "7b4c99e004f3b4bc94776a589ecaf4af", "fusion_lat": 0.0, "is_reserved": 0, "lon": -77.01779516666667}, {"type": "electric_scooter", "name": "ae8ad022c9b600127c2c59b465adf4c2", "rental_uris": {"ios": "https://dc.lft.to/lastmile_qr_scan", "android": "https://dc.lft.to/lastmile_qr_scan"}, "fusion_lon": 0.0, "lat": 38.927344166666664, "is_disabled": 0, "bike_id": "ae8ad022c9b600127c2c59b465adf4c2", "fusion_lat": 0.0, "is_reserved": 0, "lon": -77.02312733333333}, {"type": "electric_scooter", "name": "7e499d9855cffd4bb9f2a5c59b6ca8f9", "rental_uris": {"ios": "https://dc.lft.to/lastmile_qr_scan", "android": "https://dc.lft.to/lastmile_qr_scan"}, "fusion_lon": 0.0, "lat": 38.922171, "is_disabled": 0, "bike_id": "7e499d9855cffd4bb9f2a5c59b6ca8f9", "fusion_lat": 0.0, "is_reserved": 0, "lon": -77.02417}, {"type": "electric_bike", "name": "aca3305668bcf52a0a0edfdaea6a8bb6", "rental_uris": {"ios": "https://dc.lft.to/lastmile_qr_scan", "android": "https://dc.lft.to/lastmile_qr_scan"}, "fusion_lon": 0.0, "lat": 38.926644333333336, "is_disabled": 0, "bike_id": "aca3305668bcf52a0a0edfdaea6a8bb6", "fusion_lat": 0.0, "is_reserved": 0, "lon": -77.09850366666667}, {"type": "electric_scooter", "name": "c3825bcd051bda6aaa6f1817048a889d", "rental_uris": {"ios": "https://dc.lft.to/lastmile_qr_scan", "android": "https://dc.lft.to/lastmile_qr_scan"}, "fusion_lon": 0.0, "lat": 38.92547316666667, "is_disabled": 0, "bike_id": "c3825bcd051bda6aaa6f1817048a889d", "fusion_lat": 0.0, "is_reserved": 0, "lon": -77.00070433333333}, {"type": "electric_bike", "name": "b9b0db990c679e1c33aa89d0f86c90ca", "rental_uris": {"ios": "https://dc.lft.to/lastmile_qr_scan", "android": "https://dc.lft.to/lastmile_qr_scan"}, "fusion_lon": 0.0, "lat": 38.95746066666667, "is_disabled": 0, "bike_id": "b9b0db990c679e1c33aa89d0f86c90ca", "fusion_lat": 0.0, "is_reserved": 0, "lon": -76.9725555}, {"type": "electric_scooter", "name": "3825a4acd6d5b4e78477d8122202e0dc", "rental_uris": {"ios": "https://dc.lft.to/lastmile_qr_scan", "android": "https://dc.lft.to/lastmile_qr_scan"}, "fusion_lon": 0.0, "lat": 38.938314166666665, "is_disabled": 0, "bike_id": "3825a4acd6d5b4e78477d8122202e0dc", "fusion_lat": 0.0, "is_reserved": 0, "lon": -77.085464}, {"type": "electric_scooter", "name": "7422f22099b4d79afdefd0d21fc231a2", "rental_uris": {"ios": "https://dc.lft.to/lastmile_qr_scan", "android": "https://dc.lft.to/lastmile_qr_scan"}, "fusion_lon": 0.0, "lat": 38.91692583333333, "is_disabled": 0, "bike_id": "7422f22099b4d79afdefd0d21fc231a2", "fusion_lat": 0.0, "is_reserved": 0, "lon": -77.00742866666667}, {"type": "electric_bike", "name": "e5ba886c31be338025f145cb24aadf95", "rental_uris": {"ios": "https://dc.lft.to/lastmile_qr_scan", "android": "https://dc.lft.to/lastmile_qr_scan"}, "fusion_lon": 0.0, "lat": 38.9574215, "is_disabled": 0, "bike_id": "e5ba886c31be338025f145cb24aadf95", "fusion_lat": 0.0, "is_reserved": 0, "lon": -76.97255266666667}, {"type": "electric_scooter", "name": "567b09077f111606172a2e9ed0fca446", "rental_uris": {"ios": "https://dc.lft.to/lastmile_qr_scan", "android": "https://dc.lft.to/lastmile_qr_scan"}, "fusion_lon": 0.0, "lat": 38.8944905, "is_disabled": 0, "bike_id": "567b09077f111606172a2e9ed0fca446", "fusion_lat": 0.0, "is_reserved": 0, "lon": -77.02619883333334}, {"type": "electric_scooter", "name": "e60274db838b17694dcc3023fcbf4486", "rental_uris": {"ios": "https://dc.lft.to/lastmile_qr_scan", "android": "https://dc.lft.to/lastmile_qr_scan"}, "fusion_lon": 0.0, "lat": 38.89734816666667, "is_disabled": 0, "bike_id": "e60274db838b17694dcc3023fcbf4486", "fusion_lat": 0.0, "is_reserved": 0, "lon": -77.02019433333334}, {"type": "electric_scooter", "name": "fec72124a458c2ff5820156ae2d46829", "rental_uris": {"ios": "https://dc.lft.to/lastmile_qr_scan", "android": "https://dc.lft.to/lastmile_qr_scan"}, "fusion_lon": 0.0, "lat": 38.90664183333333, "is_disabled": 0, "bike_id": "fec72124a458c2ff5820156ae2d46829", "fusion_lat": 0.0, "is_reserved": 0, "lon": -77.025855}, {"type": "electric_scooter", "name": "04922949f01836e1c854d30c0c7fdc38", "rental_uris": {"ios": "https://dc.lft.to/lastmile_qr_scan", "android": "https://dc.lft.to/lastmile_qr_scan"}, "fusion_lon": 0.0, "lat": 38.906877, "is_disabled": 0, "bike_id": "04922949f01836e1c854d30c0c7fdc38", "fusion_lat": 0.0, "is_reserved": 0, "lon": -77.06140216666667}, {"type": "electric_scooter", "name": "3728e2344ec1e8292bed7020afbdeec1", "rental_uris": {"ios": "https://dc.lft.to/lastmile_qr_scan", "android": "https://dc.lft.to/lastmile_qr_scan"}, "fusion_lon": 0.0, "lat": 38.914403, "is_disabled": 0, "bike_id": "3728e2344ec1e8292bed7020afbdeec1", "fusion_lat": 0.0, "is_reserved": 0, "lon": -77.01224466666666}, {"type": "electric_scooter", "name": "97a8a475d596f3c278dbe7944ddcc065", "rental_uris": {"ios": "https://dc.lft.to/lastmile_qr_scan", "android": "https://dc.lft.to/lastmile_qr_scan"}, "fusion_lon": 0.0, "lat": 38.90060316666667, "is_disabled": 0, "bike_id": "97a8a475d596f3c278dbe7944ddcc065", "fusion_lat": 0.0, "is_reserved": 0, "lon": -77.00127316666666}, {"type": "electric_scooter", "name": "fbc02d128ed3642f36ff72bbcf6ff02c", "rental_uris": {"ios": "https://dc.lft.to/lastmile_qr_scan", "android": "https://dc.lft.to/lastmile_qr_scan"}, "fusion_lon": 0.0, "lat": 38.9322085, "is_disabled": 0, "bike_id": "fbc02d128ed3642f36ff72bbcf6ff02c", "fusion_lat": 0.0, "is_reserved": 0, "lon": -77.0268645}, {"type": "electric_scooter", "name": "e5b3d4e0483571930ac3641fa19ca1c7", "rental_uris": {"ios": "https://dc.lft.to/lastmile_qr_scan", "android": "https://dc.lft.to/lastmile_qr_scan"}, "fusion_lon": 0.0, "lat": 38.912720666666665, "is_disabled": 0, "bike_id": "e5b3d4e0483571930ac3641fa19ca1c7", "fusion_lat": 0.0, "is_reserved": 0, "lon": -77.02216683333333}, {"type": "electric_scooter", "name": "1da014d8344a8270a33c1d7f59663a0b", "rental_uris": {"ios": "https://dc.lft.to/lastmile_qr_scan", "android": "https://dc.lft.to/lastmile_qr_scan"}, "fusion_lon": 0.0, "lat": 38.840516, "is_disabled": 0, "bike_id": "1da014d8344a8270a33c1d7f59663a0b", "fusion_lat": 0.0, "is_reserved": 0, "lon": -76.976672}, {"type": "electric_scooter", "name": "8c61e6d08447985e14758da0a56ff1e6", "rental_uris": {"ios": "https://dc.lft.to/lastmile_qr_scan", "android": "https://dc.lft.to/lastmile_qr_scan"}, "fusion_lon": 0.0, "lat": 38.91403916666667, "is_disabled": 0, "bike_id": "8c61e6d08447985e14758da0a56ff1e6", "fusion_lat": 0.0, "is_reserved": 0, "lon": -77.0266395}, {"type": "electric_scooter", "name": "5f92666dc6cb59505be05d77369b1249", "rental_uris": {"ios": "https://dc.lft.to/lastmile_qr_scan", "android": "https://dc.lft.to/lastmile_qr_scan"}, "fusion_lon": 0.0, "lat": 38.8990715, "is_disabled": 0, "bike_id": "5f92666dc6cb59505be05d77369b1249", "fusion_lat": 0.0, "is_reserved": 0, "lon": -77.00353816666667}, {"type": "electric_scooter", "name": "30506db9510d998285f95701b77782e8", "rental_uris": {"ios": "https://dc.lft.to/lastmile_qr_scan", "android": "https://dc.lft.to/lastmile_qr_scan"}, "fusion_lon": 0.0, "lat": 38.9237545, "is_disabled": 0, "bike_id": "30506db9510d998285f95701b77782e8", "fusion_lat": 0.0, "is_reserved": 0, "lon": -77.01950833333333}, {"type": "electric_scooter", "name": "d7bf0201aedd9f84f02dff96f850f915", "rental_uris": {"ios": "https://dc.lft.to/lastmile_qr_scan", "android": "https://dc.lft.to/lastmile_qr_scan"}, "fusion_lon": 0.0, "lat": 38.8976515, "is_disabled": 0, "bike_id": "d7bf0201aedd9f84f02dff96f850f915", "fusion_lat": 0.0, "is_reserved": 0, "lon": -76.9856245}, {"type": "electric_scooter", "name": "93dce9564ca1a40db3502f0add6ddfbb", "rental_uris": {"ios": "https://dc.lft.to/lastmile_qr_scan", "android": "https://dc.lft.to/lastmile_qr_scan"}, "fusion_lon": 0.0, "lat": 38.898285666666666, "is_disabled": 0, "bike_id": "93dce9564ca1a40db3502f0add6ddfbb", "fusion_lat": 0.0, "is_reserved": 0, "lon": -76.93180616666666}, {"type": "electric_scooter", "name": "f8f96077def2c23f5aa76f425aa066e3", "rental_uris": {"ios": "https://dc.lft.to/lastmile_qr_scan", "android": "https://dc.lft.to/lastmile_qr_scan"}, "fusion_lon": 0.0, "lat": 38.91809683333334, "is_disabled": 0, "bike_id": "f8f96077def2c23f5aa76f425aa066e3", "fusion_lat": 0.0, "is_reserved": 0, "lon": -77.03173733333334}, {"type": "electric_scooter", "name": "86811006de6dbb00a88088b4876d6b4d", "rental_uris": {"ios": "https://dc.lft.to/lastmile_qr_scan", "android": "https://dc.lft.to/lastmile_qr_scan"}, "fusion_lon": 0.0, "lat": 38.9130525, "is_disabled": 0, "bike_id": "86811006de6dbb00a88088b4876d6b4d", "fusion_lat": 0.0, "is_reserved": 0, "lon": -77.04550383333333}, {"type": "electric_scooter", "name": "f8f9deb4b7b95111383f6c824e76f054", "rental_uris": {"ios": "https://dc.lft.to/lastmile_qr_scan", "android": "https://dc.lft.to/lastmile_qr_scan"}, "fusion_lon": 0.0, "lat": 38.9420255, "is_disabled": 0, "bike_id": "f8f9deb4b7b95111383f6c824e76f054", "fusion_lat": 0.0, "is_reserved": 0, "lon": -77.02595266666667}, {"type": "electric_scooter", "name": "f5e2bde6935ecf4408414fcb1cda54bf", "rental_uris": {"ios": "https://dc.lft.to/lastmile_qr_scan", "android": "https://dc.lft.to/lastmile_qr_scan"}, "fusion_lon": 0.0, "lat": 38.896714, "is_disabled": 0, "bike_id": "f5e2bde6935ecf4408414fcb1cda54bf", "fusion_lat": 0.0, "is_reserved": 0, "lon": -76.98846816666666}, {"type": "electric_scooter", "name": "309619c57951b7615c9a6eb45720d013", "rental_uris": {"ios": "https://dc.lft.to/lastmile_qr_scan", "android": "https://dc.lft.to/lastmile_qr_scan"}, "fusion_lon": 0.0, "lat": 38.93704, "is_disabled": 0, "bike_id": "309619c57951b7615c9a6eb45720d013", "fusion_lat": 0.0, "is_reserved": 0, "lon": -77.0559995}, {"type": "electric_scooter", "name": "f1f659427dbc21b3ac46b44f16079def", "rental_uris": {"ios": "https://dc.lft.to/lastmile_qr_scan", "android": "https://dc.lft.to/lastmile_qr_scan"}, "fusion_lon": 0.0, "lat": 38.85571566666667, "is_disabled": 0, "bike_id": "f1f659427dbc21b3ac46b44f16079def", "fusion_lat": 0.0, "is_reserved": 0, "lon": -76.96646533333333}, {"type": "electric_scooter", "name": "c5792b8c61709f8af3c1bcfa5a1941de", "rental_uris": {"ios": "https://dc.lft.to/lastmile_qr_scan", "android": "https://dc.lft.to/lastmile_qr_scan"}, "fusion_lon": 0.0, "lat": 38.92453916666667, "is_disabled": 0, "bike_id": "c5792b8c61709f8af3c1bcfa5a1941de", "fusion_lat": 0.0, "is_reserved": 0, "lon": -77.02152716666667}, {"type": "electric_scooter", "name": "c951a111f8a53f416b1699ac222220fc", "rental_uris": {"ios": "https://dc.lft.to/lastmile_qr_scan", "android": "https://dc.lft.to/lastmile_qr_scan"}, "fusion_lon": 0.0, "lat": 38.93433816666667, "is_disabled": 0, "bike_id": "c951a111f8a53f416b1699ac222220fc", "fusion_lat": 0.0, "is_reserved": 0, "lon": -77.03462866666666}, {"type": "electric_scooter", "name": "923625747651a8d359f66a0b07a57c6b", "rental_uris": {"ios": "https://dc.lft.to/lastmile_qr_scan", "android": "https://dc.lft.to/lastmile_qr_scan"}, "fusion_lon": 0.0, "lat": 38.893520333333335, "is_disabled": 0, "bike_id": "923625747651a8d359f66a0b07a57c6b", "fusion_lat": 0.0, "is_reserved": 0, "lon": -77.0119575}, {"type": "electric_scooter", "name": "a4ee92191b189c15a0b8765310d50248", "rental_uris": {"ios": "https://dc.lft.to/lastmile_qr_scan", "android": "https://dc.lft.to/lastmile_qr_scan"}, "fusion_lon": 0.0, "lat": 38.92365, "is_disabled": 0, "bike_id": "a4ee92191b189c15a0b8765310d50248", "fusion_lat": 0.0, "is_reserved": 0, "lon": -77.05026216666667}, {"type": "electric_scooter", "name": "2852f6b65eca20629643e66fcfce4101", "rental_uris": {"ios": "https://dc.lft.to/lastmile_qr_scan", "android": "https://dc.lft.to/lastmile_qr_scan"}, "fusion_lon": 0.0, "lat": 38.916930666666666, "is_disabled": 0, "bike_id": "2852f6b65eca20629643e66fcfce4101", "fusion_lat": 0.0, "is_reserved": 0, "lon": -77.030628}, {"type": "electric_scooter", "name": "923529f27d709f6076b49895c49310c6", "rental_uris": {"ios": "https://dc.lft.to/lastmile_qr_scan", "android": "https://dc.lft.to/lastmile_qr_scan"}, "fusion_lon": 0.0, "lat": 38.91911783333333, "is_disabled": 0, "bike_id": "923529f27d709f6076b49895c49310c6", "fusion_lat": 0.0, "is_reserved": 0, "lon": -77.04466116666667}, {"type": "electric_bike", "name": "85616c30618027a059733625801a308c", "rental_uris": {"ios": "https://dc.lft.to/lastmile_qr_scan", "android": "https://dc.lft.to/lastmile_qr_scan"}, "fusion_lon": 0.0, "lat": 38.94817366666667, "is_disabled": 0, "bike_id": "85616c30618027a059733625801a308c", "fusion_lat": 0.0, "is_reserved": 0, "lon": -77.0298005}, {"type": "electric_scooter", "name": "5c50f68a9ae6e838156d321f01a9dcfd", "rental_uris": {"ios": "https://dc.lft.to/lastmile_qr_scan", "android": "https://dc.lft.to/lastmile_qr_scan"}, "fusion_lon": 0.0, "lat": 38.899241, "is_disabled": 0, "bike_id": "5c50f68a9ae6e838156d321f01a9dcfd", "fusion_lat": 0.0, "is_reserved": 0, "lon": -76.9854095}, {"type": "electric_scooter", "name": "b3af524bb85700f5316efe9f933b7438", "rental_uris": {"ios": "https://dc.lft.to/lastmile_qr_scan", "android": "https://dc.lft.to/lastmile_qr_scan"}, "fusion_lon": 0.0, "lat": 38.89708, "is_disabled": 0, "bike_id": "b3af524bb85700f5316efe9f933b7438", "fusion_lat": 0.0, "is_reserved": 0, "lon": -77.02290133333334}, {"type": "electric_scooter", "name": "c4a3b624cf3b19bb4a81287e3ef28287", "rental_uris": {"ios": "https://dc.lft.to/lastmile_qr_scan", "android": "https://dc.lft.to/lastmile_qr_scan"}, "fusion_lon": 0.0, "lat": 38.917200666666666, "is_disabled": 0, "bike_id": "c4a3b624cf3b19bb4a81287e3ef28287", "fusion_lat": 0.0, "is_reserved": 0, "lon": -77.02901316666667}, {"type": "electric_scooter", "name": "ef4710e6cf800cb23c8e2fb66adf7b5e", "rental_uris": {"ios": "https://dc.lft.to/lastmile_qr_scan", "android": "https://dc.lft.to/lastmile_qr_scan"}, "fusion_lon": 0.0, "lat": 38.91593016666667, "is_disabled": 0, "bike_id": "ef4710e6cf800cb23c8e2fb66adf7b5e", "fusion_lat": 0.0, "is_reserved": 0, "lon": -76.97984083333333}, {"type": "electric_scooter", "name": "e520554a3b918a9c583e1e7bd123a459", "rental_uris": {"ios": "https://dc.lft.to/lastmile_qr_scan", "android": "https://dc.lft.to/lastmile_qr_scan"}, "fusion_lon": 0.0, "lat": 38.8985195, "is_disabled": 0, "bike_id": "e520554a3b918a9c583e1e7bd123a459", "fusion_lat": 0.0, "is_reserved": 0, "lon": -76.99036933333333}, {"type": "electric_scooter", "name": "5352d0b4121120c5fe3393d03b35ae51", "rental_uris": {"ios": "https://dc.lft.to/lastmile_qr_scan", "android": "https://dc.lft.to/lastmile_qr_scan"}, "fusion_lon": 0.0, "lat": 38.928590666666665, "is_disabled": 0, "bike_id": "5352d0b4121120c5fe3393d03b35ae51", "fusion_lat": 0.0, "is_reserved": 0, "lon": -77.03516033333334}, {"type": "electric_scooter", "name": "0a0c713b111231f5383ee9b805907569", "rental_uris": {"ios": "https://dc.lft.to/lastmile_qr_scan", "android": "https://dc.lft.to/lastmile_qr_scan"}, "fusion_lon": 0.0, "lat": 38.9152735, "is_disabled": 0, "bike_id": "0a0c713b111231f5383ee9b805907569", "fusion_lat": 0.0, "is_reserved": 0, "lon": -77.01224133333334}, {"type": "electric_scooter", "name": "3a115c97aa14181f4e7a1c244ab3aac3", "rental_uris": {"ios": "https://dc.lft.to/lastmile_qr_scan", "android": "https://dc.lft.to/lastmile_qr_scan"}, "fusion_lon": 0.0, "lat": 38.9387035, "is_disabled": 0, "bike_id": "3a115c97aa14181f4e7a1c244ab3aac3", "fusion_lat": 0.0, "is_reserved": 0, "lon": -77.02462366666667}, {"type": "electric_scooter", "name": "69c5ccdce2b4edec89387bedfe05854c", "rental_uris": {"ios": "https://dc.lft.to/lastmile_qr_scan", "android": "https://dc.lft.to/lastmile_qr_scan"}, "fusion_lon": 0.0, "lat": 38.8571755, "is_disabled": 0, "bike_id": "69c5ccdce2b4edec89387bedfe05854c", "fusion_lat": 0.0, "is_reserved": 0, "lon": -76.99592683333333}, {"type": "electric_scooter", "name": "cc7eb2e9b198c04ce08a2402200b8f51", "rental_uris": {"ios": "https://dc.lft.to/lastmile_qr_scan", "android": "https://dc.lft.to/lastmile_qr_scan"}, "fusion_lon": 0.0, "lat": 38.90160083333333, "is_disabled": 0, "bike_id": "cc7eb2e9b198c04ce08a2402200b8f51", "fusion_lat": 0.0, "is_reserved": 0, "lon": -77.013258}, {"type": "electric_scooter", "name": "574e31f81f35cc0d29f61c1a24b79a43", "rental_uris": {"ios": "https://dc.lft.to/lastmile_qr_scan", "android": "https://dc.lft.to/lastmile_qr_scan"}, "fusion_lon": 0.0, "lat": 38.91230083333333, "is_disabled": 0, "bike_id": "574e31f81f35cc0d29f61c1a24b79a43", "fusion_lat": 0.0, "is_reserved": 0, "lon": -76.98794366666667}, {"type": "electric_scooter", "name": "186cbcc4964ed4acca6ba6a5ddc8fd33", "rental_uris": {"ios": "https://dc.lft.to/lastmile_qr_scan", "android": "https://dc.lft.to/lastmile_qr_scan"}, "fusion_lon": 0.0, "lat": 38.8922375, "is_disabled": 0, "bike_id": "186cbcc4964ed4acca6ba6a5ddc8fd33", "fusion_lat": 0.0, "is_reserved": 0, "lon": -77.0438165}, {"type": "electric_scooter", "name": "fe6a313fbc8566f49a87df712d54687b", "rental_uris": {"ios": "https://dc.lft.to/lastmile_qr_scan", "android": "https://dc.lft.to/lastmile_qr_scan"}, "fusion_lon": 0.0, "lat": 38.89224133333333, "is_disabled": 0, "bike_id": "fe6a313fbc8566f49a87df712d54687b", "fusion_lat": 0.0, "is_reserved": 0, "lon": -77.03340033333333}, {"type": "electric_scooter", "name": "221b2afaec0da93b67f22d80c1e04360", "rental_uris": {"ios": "https://dc.lft.to/lastmile_qr_scan", "android": "https://dc.lft.to/lastmile_qr_scan"}, "fusion_lon": 0.0, "lat": 38.865028333333335, "is_disabled": 0, "bike_id": "221b2afaec0da93b67f22d80c1e04360", "fusion_lat": 0.0, "is_reserved": 0, "lon": -76.9900165}, {"type": "electric_scooter", "name": "323335cadfe14e1e943c3082b33b774b", "rental_uris": {"ios": "https://dc.lft.to/lastmile_qr_scan", "android": "https://dc.lft.to/lastmile_qr_scan"}, "fusion_lon": 0.0, "lat": 38.9360695, "is_disabled": 0, "bike_id": "323335cadfe14e1e943c3082b33b774b", "fusion_lat": 0.0, "is_reserved": 0, "lon": -77.05861183333333}, {"type": "electric_scooter", "name": "44e1d774a1b2696694ad56726443b75d", "rental_uris": {"ios": "https://dc.lft.to/lastmile_qr_scan", "android": "https://dc.lft.to/lastmile_qr_scan"}, "fusion_lon": 0.0, "lat": 38.89794716666667, "is_disabled": 0, "bike_id": "44e1d774a1b2696694ad56726443b75d", "fusion_lat": 0.0, "is_reserved": 0, "lon": -76.93127016666666}, {"type": "electric_scooter", "name": "ac3520573b48d8e50a9df0a7d2cc45b6", "rental_uris": {"ios": "https://dc.lft.to/lastmile_qr_scan", "android": "https://dc.lft.to/lastmile_qr_scan"}, "fusion_lon": 0.0, "lat": 38.91562483333333, "is_disabled": 0, "bike_id": "ac3520573b48d8e50a9df0a7d2cc45b6", "fusion_lat": 0.0, "is_reserved": 0, "lon": -77.023551}, {"type": "electric_scooter", "name": "d0c9d0299087e042f97223d7324d4eed", "rental_uris": {"ios": "https://dc.lft.to/lastmile_qr_scan", "android": "https://dc.lft.to/lastmile_qr_scan"}, "fusion_lon": 0.0, "lat": 38.901621166666665, "is_disabled": 0, "bike_id": "d0c9d0299087e042f97223d7324d4eed", "fusion_lat": 0.0, "is_reserved": 0, "lon": -76.98074883333334}, {"type": "electric_scooter", "name": "fe622f44e19b94053ab10139cea12afe", "rental_uris": {"ios": "https://dc.lft.to/lastmile_qr_scan", "android": "https://dc.lft.to/lastmile_qr_scan"}, "fusion_lon": 0.0, "lat": 38.90448466666667, "is_disabled": 0, "bike_id": "fe622f44e19b94053ab10139cea12afe", "fusion_lat": 0.0, "is_reserved": 0, "lon": -77.01894416666667}, {"type": "electric_scooter", "name": "04e95d3921818b8ef9911dc0443b15d7", "rental_uris": {"ios": "https://dc.lft.to/lastmile_qr_scan", "android": "https://dc.lft.to/lastmile_qr_scan"}, "fusion_lon": 0.0, "lat": 38.929724666666665, "is_disabled": 0, "bike_id": "04e95d3921818b8ef9911dc0443b15d7", "fusion_lat": 0.0, "is_reserved": 0, "lon": -77.05499083333333}, {"type": "electric_scooter", "name": "5d12ce8c54d61fd1fa60313bfc135fda", "rental_uris": {"ios": "https://dc.lft.to/lastmile_qr_scan", "android": "https://dc.lft.to/lastmile_qr_scan"}, "fusion_lon": 0.0, "lat": 38.902782, "is_disabled": 0, "bike_id": "5d12ce8c54d61fd1fa60313bfc135fda", "fusion_lat": 0.0, "is_reserved": 0, "lon": -77.035492}, {"type": "electric_scooter", "name": "5bcdbc4235121aa5dfce9d2bba9e93c4", "rental_uris": {"ios": "https://dc.lft.to/lastmile_qr_scan", "android": "https://dc.lft.to/lastmile_qr_scan"}, "fusion_lon": 0.0, "lat": 38.973707, "is_disabled": 0, "bike_id": "5bcdbc4235121aa5dfce9d2bba9e93c4", "fusion_lat": 0.0, "is_reserved": 0, "lon": -77.01852833333334}, {"type": "electric_scooter", "name": "e9cc68474f633275523d47ebab68bae8", "rental_uris": {"ios": "https://dc.lft.to/lastmile_qr_scan", "android": "https://dc.lft.to/lastmile_qr_scan"}, "fusion_lon": 0.0, "lat": 38.91254033333333, "is_disabled": 0, "bike_id": "e9cc68474f633275523d47ebab68bae8", "fusion_lat": 0.0, "is_reserved": 0, "lon": -77.04740466666667}, {"type": "electric_scooter", "name": "285b2589620868abad85da0aac9150a5", "rental_uris": {"ios": "https://dc.lft.to/lastmile_qr_scan", "android": "https://dc.lft.to/lastmile_qr_scan"}, "fusion_lon": 0.0, "lat": 38.8973095, "is_disabled": 0, "bike_id": "285b2589620868abad85da0aac9150a5", "fusion_lat": 0.0, "is_reserved": 0, "lon": -76.9470635}, {"type": "electric_scooter", "name": "7857760761a8207196af3b894d6f8c2e", "rental_uris": {"ios": "https://dc.lft.to/lastmile_qr_scan", "android": "https://dc.lft.to/lastmile_qr_scan"}, "fusion_lon": 0.0, "lat": 38.928643, "is_disabled": 0, "bike_id": "7857760761a8207196af3b894d6f8c2e", "fusion_lat": 0.0, "is_reserved": 0, "lon": -77.03501566666667}, {"type": "electric_scooter", "name": "b5e1c4259fbf83c8866a5c0827861d6c", "rental_uris": {"ios": "https://dc.lft.to/lastmile_qr_scan", "android": "https://dc.lft.to/lastmile_qr_scan"}, "fusion_lon": 0.0, "lat": 38.8571415, "is_disabled": 0, "bike_id": "b5e1c4259fbf83c8866a5c0827861d6c", "fusion_lat": 0.0, "is_reserved": 0, "lon": -76.98103966666666}, {"type": "electric_scooter", "name": "e38e37a7bf8a1bf94e48f98619bfc37b", "rental_uris": {"ios": "https://dc.lft.to/lastmile_qr_scan", "android": "https://dc.lft.to/lastmile_qr_scan"}, "fusion_lon": 0.0, "lat": 38.906830166666666, "is_disabled": 0, "bike_id": "e38e37a7bf8a1bf94e48f98619bfc37b", "fusion_lat": 0.0, "is_reserved": 0, "lon": -77.03809483333333}, {"type": "electric_bike", "name": "6390c950baa08d46e2e9c60487112b37", "rental_uris": {"ios": "https://dc.lft.to/lastmile_qr_scan", "android": "https://dc.lft.to/lastmile_qr_scan"}, "fusion_lon": 0.0, "lat": 38.88401266666666, "is_disabled": 0, "bike_id": "6390c950baa08d46e2e9c60487112b37", "fusion_lat": 0.0, "is_reserved": 0, "lon": -76.96056166666666}, {"type": "electric_scooter", "name": "53a3c2f66e25107dfa8d24d56a7a330f", "rental_uris": {"ios": "https://dc.lft.to/lastmile_qr_scan", "android": "https://dc.lft.to/lastmile_qr_scan"}, "fusion_lon": 0.0, "lat": 38.89632133333333, "is_disabled": 0, "bike_id": "53a3c2f66e25107dfa8d24d56a7a330f", "fusion_lat": 0.0, "is_reserved": 0, "lon": -77.02155866666666}, {"type": "electric_scooter", "name": "3c8ea7aad0c66d99f8df96b81f4d644e", "rental_uris": {"ios": "https://dc.lft.to/lastmile_qr_scan", "android": "https://dc.lft.to/lastmile_qr_scan"}, "fusion_lon": 0.0, "lat": 38.896244333333335, "is_disabled": 0, "bike_id": "3c8ea7aad0c66d99f8df96b81f4d644e", "fusion_lat": 0.0, "is_reserved": 0, "lon": -77.00919716666667}, {"type": "electric_scooter", "name": "e1a515f9bbe346ad50787f834df81141", "rental_uris": {"ios": "https://dc.lft.to/lastmile_qr_scan", "android": "https://dc.lft.to/lastmile_qr_scan"}, "fusion_lon": 0.0, "lat": 38.902527, "is_disabled": 0, "bike_id": "e1a515f9bbe346ad50787f834df81141", "fusion_lat": 0.0, "is_reserved": 0, "lon": -77.02490033333333}, {"type": "electric_scooter", "name": "c23da0023e2dc7709251137301f5bb9c", "rental_uris": {"ios": "https://dc.lft.to/lastmile_qr_scan", "android": "https://dc.lft.to/lastmile_qr_scan"}, "fusion_lon": 0.0, "lat": 38.86389366666667, "is_disabled": 0, "bike_id": "c23da0023e2dc7709251137301f5bb9c", "fusion_lat": 0.0, "is_reserved": 0, "lon": -76.99040783333334}, {"type": "electric_scooter", "name": "a9b241ee6dbbd42e15e5fa021de8ad7a", "rental_uris": {"ios": "https://dc.lft.to/lastmile_qr_scan", "android": "https://dc.lft.to/lastmile_qr_scan"}, "fusion_lon": 0.0, "lat": 38.9094285, "is_disabled": 0, "bike_id": "a9b241ee6dbbd42e15e5fa021de8ad7a", "fusion_lat": 0.0, "is_reserved": 0, "lon": -77.064341}, {"type": "electric_scooter", "name": "8fdc4e331b642095b7e5b98dc56ef726", "rental_uris": {"ios": "https://dc.lft.to/lastmile_qr_scan", "android": "https://dc.lft.to/lastmile_qr_scan"}, "fusion_lon": 0.0, "lat": 38.92035766666667, "is_disabled": 0, "bike_id": "8fdc4e331b642095b7e5b98dc56ef726", "fusion_lat": 0.0, "is_reserved": 0, "lon": -77.017778}, {"type": "electric_scooter", "name": "61b406992299de386a015755e1308dba", "rental_uris": {"ios": "https://dc.lft.to/lastmile_qr_scan", "android": "https://dc.lft.to/lastmile_qr_scan"}, "fusion_lon": 0.0, "lat": 38.92618233333334, "is_disabled": 0, "bike_id": "61b406992299de386a015755e1308dba", "fusion_lat": 0.0, "is_reserved": 0, "lon": -77.03923766666666}, {"type": "electric_scooter", "name": "5607833cdbbb10c53a8246c96df51b36", "rental_uris": {"ios": "https://dc.lft.to/lastmile_qr_scan", "android": "https://dc.lft.to/lastmile_qr_scan"}, "fusion_lon": 0.0, "lat": 38.90828916666667, "is_disabled": 0, "bike_id": "5607833cdbbb10c53a8246c96df51b36", "fusion_lat": 0.0, "is_reserved": 0, "lon": -77.0218615}, {"type": "electric_scooter", "name": "5198be47d21b27ba88545b9fd7d0824e", "rental_uris": {"ios": "https://dc.lft.to/lastmile_qr_scan", "android": "https://dc.lft.to/lastmile_qr_scan"}, "fusion_lon": 0.0, "lat": 38.904982333333336, "is_disabled": 0, "bike_id": "5198be47d21b27ba88545b9fd7d0824e", "fusion_lat": 0.0, "is_reserved": 0, "lon": -76.98137233333334}, {"type": "electric_scooter", "name": "d2f6bf160e661e29d0f873afbf00d1ef", "rental_uris": {"ios": "https://dc.lft.to/lastmile_qr_scan", "android": "https://dc.lft.to/lastmile_qr_scan"}, "fusion_lon": 0.0, "lat": 38.931907833333334, "is_disabled": 0, "bike_id": "d2f6bf160e661e29d0f873afbf00d1ef", "fusion_lat": 0.0, "is_reserved": 0, "lon": -77.01990883333333}, {"type": "electric_scooter", "name": "de0960e54f0d608fd80418abb931f412", "rental_uris": {"ios": "https://dc.lft.to/lastmile_qr_scan", "android": "https://dc.lft.to/lastmile_qr_scan"}, "fusion_lon": 0.0, "lat": 38.91249916666666, "is_disabled": 0, "bike_id": "de0960e54f0d608fd80418abb931f412", "fusion_lat": 0.0, "is_reserved": 0, "lon": -77.03660483333333}, {"type": "electric_scooter", "name": "2f38c9e1041da5a18f48e10e195cdd93", "rental_uris": {"ios": "https://dc.lft.to/lastmile_qr_scan", "android": "https://dc.lft.to/lastmile_qr_scan"}, "fusion_lon": 0.0, "lat": 38.9002405, "is_disabled": 0, "bike_id": "2f38c9e1041da5a18f48e10e195cdd93", "fusion_lat": 0.0, "is_reserved": 0, "lon": -76.9740085}, {"type": "electric_scooter", "name": "303718bcd008d53476dd259adaaaf888", "rental_uris": {"ios": "https://dc.lft.to/lastmile_qr_scan", "android": "https://dc.lft.to/lastmile_qr_scan"}, "fusion_lon": 0.0, "lat": 38.92171666666667, "is_disabled": 0, "bike_id": "303718bcd008d53476dd259adaaaf888", "fusion_lat": 0.0, "is_reserved": 0, "lon": -77.032707}, {"type": "electric_bike", "name": "d0912e072cfd4ba5b0805579c8d1b53f", "rental_uris": {"ios": "https://dc.lft.to/lastmile_qr_scan", "android": "https://dc.lft.to/lastmile_qr_scan"}, "fusion_lon": 0.0, "lat": 38.945130666666664, "is_disabled": 0, "bike_id": "d0912e072cfd4ba5b0805579c8d1b53f", "fusion_lat": 0.0, "is_reserved": 0, "lon": -77.00672866666666}, {"type": "electric_scooter", "name": "d62ca06c2d3ba076842583902705a44d", "rental_uris": {"ios": "https://dc.lft.to/lastmile_qr_scan", "android": "https://dc.lft.to/lastmile_qr_scan"}, "fusion_lon": 0.0, "lat": 38.913269666666665, "is_disabled": 0, "bike_id": "d62ca06c2d3ba076842583902705a44d", "fusion_lat": 0.0, "is_reserved": 0, "lon": -77.04864183333333}, {"type": "electric_scooter", "name": "f418f6cf4f0c68ca2d96b5c84e165d4a", "rental_uris": {"ios": "https://dc.lft.to/lastmile_qr_scan", "android": "https://dc.lft.to/lastmile_qr_scan"}, "fusion_lon": 0.0, "lat": 38.92478533333333, "is_disabled": 0, "bike_id": "f418f6cf4f0c68ca2d96b5c84e165d4a", "fusion_lat": 0.0, "is_reserved": 0, "lon": -77.0265635}, {"type": "electric_scooter", "name": "3a0638f8b1fe0277f72fcd64e8603cac", "rental_uris": {"ios": "https://dc.lft.to/lastmile_qr_scan", "android": "https://dc.lft.to/lastmile_qr_scan"}, "fusion_lon": 0.0, "lat": 38.9573565, "is_disabled": 0, "bike_id": "3a0638f8b1fe0277f72fcd64e8603cac", "fusion_lat": 0.0, "is_reserved": 0, "lon": -77.02489583333333}, {"type": "electric_scooter", "name": "a146c33e840a98f4ea6ea247fca25541", "rental_uris": {"ios": "https://dc.lft.to/lastmile_qr_scan", "android": "https://dc.lft.to/lastmile_qr_scan"}, "fusion_lon": 0.0, "lat": 38.894397833333336, "is_disabled": 0, "bike_id": "a146c33e840a98f4ea6ea247fca25541", "fusion_lat": 0.0, "is_reserved": 0, "lon": -76.9772005}, {"type": "electric_scooter", "name": "ff78f1e3b4fcee1f3519da21f6bf947e", "rental_uris": {"ios": "https://dc.lft.to/lastmile_qr_scan", "android": "https://dc.lft.to/lastmile_qr_scan"}, "fusion_lon": 0.0, "lat": 38.903252333333334, "is_disabled": 0, "bike_id": "ff78f1e3b4fcee1f3519da21f6bf947e", "fusion_lat": 0.0, "is_reserved": 0, "lon": -77.04321983333334}, {"type": "electric_scooter", "name": "2fc757f4a5c2b31594727d5c230dbb7e", "rental_uris": {"ios": "https://dc.lft.to/lastmile_qr_scan", "android": "https://dc.lft.to/lastmile_qr_scan"}, "fusion_lon": 0.0, "lat": 38.90462083333333, "is_disabled": 0, "bike_id": "2fc757f4a5c2b31594727d5c230dbb7e", "fusion_lat": 0.0, "is_reserved": 0, "lon": -77.04357366666666}, {"type": "electric_scooter", "name": "3b733977511ed305deeb0a643709d725", "rental_uris": {"ios": "https://dc.lft.to/lastmile_qr_scan", "android": "https://dc.lft.to/lastmile_qr_scan"}, "fusion_lon": 0.0, "lat": 38.92297533333333, "is_disabled": 0, "bike_id": "3b733977511ed305deeb0a643709d725", "fusion_lat": 0.0, "is_reserved": 0, "lon": -76.99385433333333}, {"type": "electric_scooter", "name": "44bea77c87a0babb2daac57347e314ec", "rental_uris": {"ios": "https://dc.lft.to/lastmile_qr_scan", "android": "https://dc.lft.to/lastmile_qr_scan"}, "fusion_lon": 0.0, "lat": 38.867624166666666, "is_disabled": 0, "bike_id": "44bea77c87a0babb2daac57347e314ec", "fusion_lat": 0.0, "is_reserved": 0, "lon": -76.98276483333333}, {"type": "electric_scooter", "name": "2c9201330bffca1caea91d46fa1c644b", "rental_uris": {"ios": "https://dc.lft.to/lastmile_qr_scan", "android": "https://dc.lft.to/lastmile_qr_scan"}, "fusion_lon": 0.0, "lat": 38.88487533333333, "is_disabled": 0, "bike_id": "2c9201330bffca1caea91d46fa1c644b", "fusion_lat": 0.0, "is_reserved": 0, "lon": -77.0071095}, {"type": "electric_scooter", "name": "8e26a2db992ef1b176ddd49aa4017e54", "rental_uris": {"ios": "https://dc.lft.to/lastmile_qr_scan", "android": "https://dc.lft.to/lastmile_qr_scan"}, "fusion_lon": 0.0, "lat": 38.91675516666667, "is_disabled": 0, "bike_id": "8e26a2db992ef1b176ddd49aa4017e54", "fusion_lat": 0.0, "is_reserved": 0, "lon": -77.00345183333333}, {"type": "electric_scooter", "name": "dfb501b55a368a1b26124af22542143c", "rental_uris": {"ios": "https://dc.lft.to/lastmile_qr_scan", "android": "https://dc.lft.to/lastmile_qr_scan"}, "fusion_lon": 0.0, "lat": 38.900304, "is_disabled": 0, "bike_id": "dfb501b55a368a1b26124af22542143c", "fusion_lat": 0.0, "is_reserved": 0, "lon": -77.0582945}, {"type": "electric_scooter", "name": "546cfd681dabca368652b81b2c30a6e0", "rental_uris": {"ios": "https://dc.lft.to/lastmile_qr_scan", "android": "https://dc.lft.to/lastmile_qr_scan"}, "fusion_lon": 0.0, "lat": 38.90398733333333, "is_disabled": 0, "bike_id": "546cfd681dabca368652b81b2c30a6e0", "fusion_lat": 0.0, "is_reserved": 0, "lon": -77.04891083333334}, {"type": "electric_scooter", "name": "2d673fe4869dbc57e28bee2e1416b0af", "rental_uris": {"ios": "https://dc.lft.to/lastmile_qr_scan", "android": "https://dc.lft.to/lastmile_qr_scan"}, "fusion_lon": 0.0, "lat": 38.938718333333334, "is_disabled": 0, "bike_id": "2d673fe4869dbc57e28bee2e1416b0af", "fusion_lat": 0.0, "is_reserved": 0, "lon": -77.02459516666667}, {"type": "electric_scooter", "name": "11b9cf3916746a44ecf4031e54e10377", "rental_uris": {"ios": "https://dc.lft.to/lastmile_qr_scan", "android": "https://dc.lft.to/lastmile_qr_scan"}, "fusion_lon": 0.0, "lat": 38.94513516666667, "is_disabled": 0, "bike_id": "11b9cf3916746a44ecf4031e54e10377", "fusion_lat": 0.0, "is_reserved": 0, "lon": -77.03357083333333}, {"type": "electric_scooter", "name": "866a837bd132e72e453cab8150fea583", "rental_uris": {"ios": "https://dc.lft.to/lastmile_qr_scan", "android": "https://dc.lft.to/lastmile_qr_scan"}, "fusion_lon": 0.0, "lat": 38.91630816666667, "is_disabled": 0, "bike_id": "866a837bd132e72e453cab8150fea583", "fusion_lat": 0.0, "is_reserved": 0, "lon": -77.04121816666667}, {"type": "electric_scooter", "name": "cb1608499b48baa3c9f3ab0c0774fe62", "rental_uris": {"ios": "https://dc.lft.to/lastmile_qr_scan", "android": "https://dc.lft.to/lastmile_qr_scan"}, "fusion_lon": 0.0, "lat": 38.90242666666666, "is_disabled": 0, "bike_id": "cb1608499b48baa3c9f3ab0c0774fe62", "fusion_lat": 0.0, "is_reserved": 0, "lon": -77.040645}, {"type": "electric_scooter", "name": "5e0bf3b518f664a3523b3be9204162c0", "rental_uris": {"ios": "https://dc.lft.to/lastmile_qr_scan", "android": "https://dc.lft.to/lastmile_qr_scan"}, "fusion_lon": 0.0, "lat": 38.9064205, "is_disabled": 0, "bike_id": "5e0bf3b518f664a3523b3be9204162c0", "fusion_lat": 0.0, "is_reserved": 0, "lon": -77.05321}, {"type": "electric_bike", "name": "6f8d58823624fd48605031ea28a62a48", "rental_uris": {"ios": "https://dc.lft.to/lastmile_qr_scan", "android": "https://dc.lft.to/lastmile_qr_scan"}, "fusion_lon": 0.0, "lat": 38.79471183333333, "is_disabled": 0, "bike_id": "6f8d58823624fd48605031ea28a62a48", "fusion_lat": 0.0, "is_reserved": 0, "lon": -76.99250183333334}, {"type": "electric_scooter", "name": "b003b52490b32117797c8cbb5d524113", "rental_uris": {"ios": "https://dc.lft.to/lastmile_qr_scan", "android": "https://dc.lft.to/lastmile_qr_scan"}, "fusion_lon": 0.0, "lat": 38.86674883333333, "is_disabled": 0, "bike_id": "b003b52490b32117797c8cbb5d524113", "fusion_lat": 0.0, "is_reserved": 0, "lon": -76.98509216666666}, {"type": "electric_scooter", "name": "12111f45234946f28374f37be4c8fbca", "rental_uris": {"ios": "https://dc.lft.to/lastmile_qr_scan", "android": "https://dc.lft.to/lastmile_qr_scan"}, "fusion_lon": 0.0, "lat": 38.9023965, "is_disabled": 0, "bike_id": "12111f45234946f28374f37be4c8fbca", "fusion_lat": 0.0, "is_reserved": 0, "lon": -77.025891}, {"type": "electric_scooter", "name": "f90b8966a629078e1f18eff9408bc466", "rental_uris": {"ios": "https://dc.lft.to/lastmile_qr_scan", "android": "https://dc.lft.to/lastmile_qr_scan"}, "fusion_lon": 0.0, "lat": 38.91902666666667, "is_disabled": 0, "bike_id": "f90b8966a629078e1f18eff9408bc466", "fusion_lat": 0.0, "is_reserved": 0, "lon": -77.0275785}, {"type": "electric_scooter", "name": "9fa140f8c9f0834b4fe34104e4a9e773", "rental_uris": {"ios": "https://dc.lft.to/lastmile_qr_scan", "android": "https://dc.lft.to/lastmile_qr_scan"}, "fusion_lon": 0.0, "lat": 38.9017265, "is_disabled": 0, "bike_id": "9fa140f8c9f0834b4fe34104e4a9e773", "fusion_lat": 0.0, "is_reserved": 0, "lon": -77.02105}, {"type": "electric_scooter", "name": "a76d79d0e9e6289a9de71e46aaca8ada", "rental_uris": {"ios": "https://dc.lft.to/lastmile_qr_scan", "android": "https://dc.lft.to/lastmile_qr_scan"}, "fusion_lon": 0.0, "lat": 38.90476233333333, "is_disabled": 0, "bike_id": "a76d79d0e9e6289a9de71e46aaca8ada", "fusion_lat": 0.0, "is_reserved": 0, "lon": -76.98240833333334}, {"type": "electric_scooter", "name": "ce085059dc49625fe70ea55260293759", "rental_uris": {"ios": "https://dc.lft.to/lastmile_qr_scan", "android": "https://dc.lft.to/lastmile_qr_scan"}, "fusion_lon": 0.0, "lat": 38.93535333333333, "is_disabled": 0, "bike_id": "ce085059dc49625fe70ea55260293759", "fusion_lat": 0.0, "is_reserved": 0, "lon": -77.02347833333333}, {"type": "electric_scooter", "name": "8ad7a39dcacacc8db82a3d7bb9a7b4d2", "rental_uris": {"ios": "https://dc.lft.to/lastmile_qr_scan", "android": "https://dc.lft.to/lastmile_qr_scan"}, "fusion_lon": 0.0, "lat": 38.907708, "is_disabled": 0, "bike_id": "8ad7a39dcacacc8db82a3d7bb9a7b4d2", "fusion_lat": 0.0, "is_reserved": 0, "lon": -77.01104483333333}, {"type": "electric_scooter", "name": "3967f98cf747d65265962ec0a64c7ba9", "rental_uris": {"ios": "https://dc.lft.to/lastmile_qr_scan", "android": "https://dc.lft.to/lastmile_qr_scan"}, "fusion_lon": 0.0, "lat": 38.93751533333333, "is_disabled": 0, "bike_id": "3967f98cf747d65265962ec0a64c7ba9", "fusion_lat": 0.0, "is_reserved": 0, "lon": -77.0295295}, {"type": "electric_scooter", "name": "9fc5f482c1de8640f7ea9c390e7878f9", "rental_uris": {"ios": "https://dc.lft.to/lastmile_qr_scan", "android": "https://dc.lft.to/lastmile_qr_scan"}, "fusion_lon": 0.0, "lat": 38.89234316666667, "is_disabled": 0, "bike_id": "9fc5f482c1de8640f7ea9c390e7878f9", "fusion_lat": 0.0, "is_reserved": 0, "lon": -77.02182683333334}, {"type": "electric_scooter", "name": "dc892592b4a901e62c46618c0f2e1d43", "rental_uris": {"ios": "https://dc.lft.to/lastmile_qr_scan", "android": "https://dc.lft.to/lastmile_qr_scan"}, "fusion_lon": 0.0, "lat": 38.883978166666665, "is_disabled": 0, "bike_id": "dc892592b4a901e62c46618c0f2e1d43", "fusion_lat": 0.0, "is_reserved": 0, "lon": -76.930471}, {"type": "electric_bike", "name": "f1a2808680dcfee51ce81231d5db783d", "rental_uris": {"ios": "https://dc.lft.to/lastmile_qr_scan", "android": "https://dc.lft.to/lastmile_qr_scan"}, "fusion_lon": 0.0, "lat": 38.951845666666664, "is_disabled": 0, "bike_id": "f1a2808680dcfee51ce81231d5db783d", "fusion_lat": 0.0, "is_reserved": 0, "lon": -77.02602616666667}, {"type": "electric_bike", "name": "fe8e1ef0cf61a3e5e026c435cbf9d1d0", "rental_uris": {"ios": "https://dc.lft.to/lastmile_qr_scan", "android": "https://dc.lft.to/lastmile_qr_scan"}, "fusion_lon": 0.0, "lat": 38.8651785, "is_disabled": 0, "bike_id": "fe8e1ef0cf61a3e5e026c435cbf9d1d0", "fusion_lat": 0.0, "is_reserved": 0, "lon": -77.12939683333333}, {"type": "electric_scooter", "name": "ae4c685936511df78d7b35bdcb0b137e", "rental_uris": {"ios": "https://dc.lft.to/lastmile_qr_scan", "android": "https://dc.lft.to/lastmile_qr_scan"}, "fusion_lon": 0.0, "lat": 38.923666833333336, "is_disabled": 0, "bike_id": "ae4c685936511df78d7b35bdcb0b137e", "fusion_lat": 0.0, "is_reserved": 0, "lon": -77.05052516666667}, {"type": "electric_scooter", "name": "412342bcdfa820f9465675f75e631a52", "rental_uris": {"ios": "https://dc.lft.to/lastmile_qr_scan", "android": "https://dc.lft.to/lastmile_qr_scan"}, "fusion_lon": 0.0, "lat": 38.900407, "is_disabled": 0, "bike_id": "412342bcdfa820f9465675f75e631a52", "fusion_lat": 0.0, "is_reserved": 0, "lon": -77.00686416666667}, {"type": "electric_scooter", "name": "c07bc64d7eebded620d2383c302562ae", "rental_uris": {"ios": "https://dc.lft.to/lastmile_qr_scan", "android": "https://dc.lft.to/lastmile_qr_scan"}, "fusion_lon": 0.0, "lat": 38.893601833333335, "is_disabled": 0, "bike_id": "c07bc64d7eebded620d2383c302562ae", "fusion_lat": 0.0, "is_reserved": 0, "lon": -76.925886}, {"type": "electric_scooter", "name": "8d57d0c4984d6be2131043adafa793fe", "rental_uris": {"ios": "https://dc.lft.to/lastmile_qr_scan", "android": "https://dc.lft.to/lastmile_qr_scan"}, "fusion_lon": 0.0, "lat": 38.90817666666667, "is_disabled": 0, "bike_id": "8d57d0c4984d6be2131043adafa793fe", "fusion_lat": 0.0, "is_reserved": 0, "lon": -77.043207}, {"type": "electric_scooter", "name": "dabc79fb5ffb9cd146b235153683ae48", "rental_uris": {"ios": "https://dc.lft.to/lastmile_qr_scan", "android": "https://dc.lft.to/lastmile_qr_scan"}, "fusion_lon": 0.0, "lat": 38.91716816666667, "is_disabled": 0, "bike_id": "dabc79fb5ffb9cd146b235153683ae48", "fusion_lat": 0.0, "is_reserved": 0, "lon": -77.0346005}, {"type": "electric_scooter", "name": "3d84acb23bc733dfc4224d00a6491449", "rental_uris": {"ios": "https://dc.lft.to/lastmile_qr_scan", "android": "https://dc.lft.to/lastmile_qr_scan"}, "fusion_lon": 0.0, "lat": 38.91698066666667, "is_disabled": 0, "bike_id": "3d84acb23bc733dfc4224d00a6491449", "fusion_lat": 0.0, "is_reserved": 0, "lon": -77.04214483333334}, {"type": "electric_bike", "name": "8b2856c6d7642fc7bc35ab55cdedee6a", "rental_uris": {"ios": "https://dc.lft.to/lastmile_qr_scan", "android": "https://dc.lft.to/lastmile_qr_scan"}, "fusion_lon": 0.0, "lat": 38.96317, "is_disabled": 0, "bike_id": "8b2856c6d7642fc7bc35ab55cdedee6a", "fusion_lat": 0.0, "is_reserved": 0, "lon": -77.074926}, {"type": "electric_scooter", "name": "efed30b71deef04de34c72f18dd3b530", "rental_uris": {"ios": "https://dc.lft.to/lastmile_qr_scan", "android": "https://dc.lft.to/lastmile_qr_scan"}, "fusion_lon": 0.0, "lat": 38.9002575, "is_disabled": 0, "bike_id": "efed30b71deef04de34c72f18dd3b530", "fusion_lat": 0.0, "is_reserved": 0, "lon": -77.00198866666666}, {"type": "electric_bike", "name": "4576c977fb9a00f7d0451cbc5e6e1615", "rental_uris": {"ios": "https://dc.lft.to/lastmile_qr_scan", "android": "https://dc.lft.to/lastmile_qr_scan"}, "fusion_lon": 0.0, "lat": 38.82456833333333, "is_disabled": 0, "bike_id": "4576c977fb9a00f7d0451cbc5e6e1615", "fusion_lat": 0.0, "is_reserved": 0, "lon": -77.00794016666667}, {"type": "electric_scooter", "name": "714d35b04956de19788893a42429a3a7", "rental_uris": {"ios": "https://dc.lft.to/lastmile_qr_scan", "android": "https://dc.lft.to/lastmile_qr_scan"}, "fusion_lon": 0.0, "lat": 38.90506966666667, "is_disabled": 0, "bike_id": "714d35b04956de19788893a42429a3a7", "fusion_lat": 0.0, "is_reserved": 0, "lon": -77.02985033333333}, {"type": "electric_scooter", "name": "4052ba7dc1b0a679ddf97f1dda4e6c49", "rental_uris": {"ios": "https://dc.lft.to/lastmile_qr_scan", "android": "https://dc.lft.to/lastmile_qr_scan"}, "fusion_lon": 0.0, "lat": 38.86472466666667, "is_disabled": 0, "bike_id": "4052ba7dc1b0a679ddf97f1dda4e6c49", "fusion_lat": 0.0, "is_reserved": 0, "lon": -77.01280683333333}, {"type": "electric_scooter", "name": "8eddd36412206ed29003e614eec81b98", "rental_uris": {"ios": "https://dc.lft.to/lastmile_qr_scan", "android": "https://dc.lft.to/lastmile_qr_scan"}, "fusion_lon": 0.0, "lat": 38.88766066666667, "is_disabled": 0, "bike_id": "8eddd36412206ed29003e614eec81b98", "fusion_lat": 0.0, "is_reserved": 0, "lon": -76.9775755}, {"type": "electric_scooter", "name": "5274b47cf006d2ae7cf0b8bd035e3a65", "rental_uris": {"ios": "https://dc.lft.to/lastmile_qr_scan", "android": "https://dc.lft.to/lastmile_qr_scan"}, "fusion_lon": 0.0, "lat": 38.920751833333334, "is_disabled": 0, "bike_id": "5274b47cf006d2ae7cf0b8bd035e3a65", "fusion_lat": 0.0, "is_reserved": 0, "lon": -77.03497016666667}, {"type": "electric_scooter", "name": "0dc983c7621faed3c7469507ef637aac", "rental_uris": {"ios": "https://dc.lft.to/lastmile_qr_scan", "android": "https://dc.lft.to/lastmile_qr_scan"}, "fusion_lon": 0.0, "lat": 38.9149075, "is_disabled": 0, "bike_id": "0dc983c7621faed3c7469507ef637aac", "fusion_lat": 0.0, "is_reserved": 0, "lon": -77.04839083333333}, {"type": "electric_scooter", "name": "f1ffba955d9a2024ba6cc8ce7b8f6723", "rental_uris": {"ios": "https://dc.lft.to/lastmile_qr_scan", "android": "https://dc.lft.to/lastmile_qr_scan"}, "fusion_lon": 0.0, "lat": 38.92318366666667, "is_disabled": 0, "bike_id": "f1ffba955d9a2024ba6cc8ce7b8f6723", "fusion_lat": 0.0, "is_reserved": 0, "lon": -77.04112383333333}, {"type": "electric_scooter", "name": "dd7ecb50a9f791d335ac0c2ab68efa52", "rental_uris": {"ios": "https://dc.lft.to/lastmile_qr_scan", "android": "https://dc.lft.to/lastmile_qr_scan"}, "fusion_lon": 0.0, "lat": 38.900487166666665, "is_disabled": 0, "bike_id": "dd7ecb50a9f791d335ac0c2ab68efa52", "fusion_lat": 0.0, "is_reserved": 0, "lon": -77.0129105}, {"type": "electric_scooter", "name": "b69e1c1fda92c3e0d3f045566e7fdab5", "rental_uris": {"ios": "https://dc.lft.to/lastmile_qr_scan", "android": "https://dc.lft.to/lastmile_qr_scan"}, "fusion_lon": 0.0, "lat": 38.912622666666664, "is_disabled": 0, "bike_id": "b69e1c1fda92c3e0d3f045566e7fdab5", "fusion_lat": 0.0, "is_reserved": 0, "lon": -77.04841583333334}, {"type": "electric_scooter", "name": "88dbf1a519ccc0aa5d1516c38a20fec1", "rental_uris": {"ios": "https://dc.lft.to/lastmile_qr_scan", "android": "https://dc.lft.to/lastmile_qr_scan"}, "fusion_lon": 0.0, "lat": 38.90947333333333, "is_disabled": 0, "bike_id": "88dbf1a519ccc0aa5d1516c38a20fec1", "fusion_lat": 0.0, "is_reserved": 0, "lon": -76.98541183333333}, {"type": "electric_scooter", "name": "5bea64646ed9764c6159c177b5415e62", "rental_uris": {"ios": "https://dc.lft.to/lastmile_qr_scan", "android": "https://dc.lft.to/lastmile_qr_scan"}, "fusion_lon": 0.0, "lat": 38.895817666666666, "is_disabled": 0, "bike_id": "5bea64646ed9764c6159c177b5415e62", "fusion_lat": 0.0, "is_reserved": 0, "lon": -77.02583383333334}, {"type": "electric_scooter", "name": "18050cf875a074babb409e4cfa94aae1", "rental_uris": {"ios": "https://dc.lft.to/lastmile_qr_scan", "android": "https://dc.lft.to/lastmile_qr_scan"}, "fusion_lon": 0.0, "lat": 38.94906683333333, "is_disabled": 0, "bike_id": "18050cf875a074babb409e4cfa94aae1", "fusion_lat": 0.0, "is_reserved": 0, "lon": -77.0661985}, {"type": "electric_scooter", "name": "a4d61794d08093cbe5ebbf97aecddd26", "rental_uris": {"ios": "https://dc.lft.to/lastmile_qr_scan", "android": "https://dc.lft.to/lastmile_qr_scan"}, "fusion_lon": 0.0, "lat": 38.92363366666667, "is_disabled": 0, "bike_id": "a4d61794d08093cbe5ebbf97aecddd26", "fusion_lat": 0.0, "is_reserved": 0, "lon": -77.05034033333334}, {"type": "electric_scooter", "name": "d72495ec97a7d98da4361d66da697bfb", "rental_uris": {"ios": "https://dc.lft.to/lastmile_qr_scan", "android": "https://dc.lft.to/lastmile_qr_scan"}, "fusion_lon": 0.0, "lat": 38.919367333333334, "is_disabled": 0, "bike_id": "d72495ec97a7d98da4361d66da697bfb", "fusion_lat": 0.0, "is_reserved": 0, "lon": -77.02072133333333}, {"type": "electric_scooter", "name": "485de7ba0f946a892c3b671ddc505a90", "rental_uris": {"ios": "https://dc.lft.to/lastmile_qr_scan", "android": "https://dc.lft.to/lastmile_qr_scan"}, "fusion_lon": 0.0, "lat": 38.884942333333335, "is_disabled": 0, "bike_id": "485de7ba0f946a892c3b671ddc505a90", "fusion_lat": 0.0, "is_reserved": 0, "lon": -77.01086366666667}, {"type": "electric_scooter", "name": "16cac1d7b00a52e7ca2784e2a6c84eb3", "rental_uris": {"ios": "https://dc.lft.to/lastmile_qr_scan", "android": "https://dc.lft.to/lastmile_qr_scan"}, "fusion_lon": 0.0, "lat": 38.90365033333333, "is_disabled": 0, "bike_id": "16cac1d7b00a52e7ca2784e2a6c84eb3", "fusion_lat": 0.0, "is_reserved": 0, "lon": -77.003445}, {"type": "electric_scooter", "name": "fe31587d1730a236cc20fb97a86fe8c3", "rental_uris": {"ios": "https://dc.lft.to/lastmile_qr_scan", "android": "https://dc.lft.to/lastmile_qr_scan"}, "fusion_lon": 0.0, "lat": 38.95643116666667, "is_disabled": 0, "bike_id": "fe31587d1730a236cc20fb97a86fe8c3", "fusion_lat": 0.0, "is_reserved": 0, "lon": -77.0237205}, {"type": "electric_bike", "name": "84b3bf661db41c81dda0804609cb97ba", "rental_uris": {"ios": "https://dc.lft.to/lastmile_qr_scan", "android": "https://dc.lft.to/lastmile_qr_scan"}, "fusion_lon": 0.0, "lat": 39.00376633333333, "is_disabled": 0, "bike_id": "84b3bf661db41c81dda0804609cb97ba", "fusion_lat": 0.0, "is_reserved": 0, "lon": -77.01291583333334}, {"type": "electric_scooter", "name": "57eca1003f324c8ddf239d7c4801c5f7", "rental_uris": {"ios": "https://dc.lft.to/lastmile_qr_scan", "android": "https://dc.lft.to/lastmile_qr_scan"}, "fusion_lon": 0.0, "lat": 38.90441583333333, "is_disabled": 0, "bike_id": "57eca1003f324c8ddf239d7c4801c5f7", "fusion_lat": 0.0, "is_reserved": 0, "lon": -77.0290975}, {"type": "electric_scooter", "name": "b06a5050df19b7e0b41e3b34616988e1", "rental_uris": {"ios": "https://dc.lft.to/lastmile_qr_scan", "android": "https://dc.lft.to/lastmile_qr_scan"}, "fusion_lon": 0.0, "lat": 38.944828333333334, "is_disabled": 0, "bike_id": "b06a5050df19b7e0b41e3b34616988e1", "fusion_lat": 0.0, "is_reserved": 0, "lon": -77.06410966666667}, {"type": "electric_bike", "name": "e89f61f92a0a6c2ea0292f863ddf4660", "rental_uris": {"ios": "https://dc.lft.to/lastmile_qr_scan", "android": "https://dc.lft.to/lastmile_qr_scan"}, "fusion_lon": 0.0, "lat": 39.01217966666667, "is_disabled": 0, "bike_id": "e89f61f92a0a6c2ea0292f863ddf4660", "fusion_lat": 0.0, "is_reserved": 0, "lon": -77.11083083333334}, {"type": "electric_scooter", "name": "cf7fad5d60cd0ee262e67b8296bda2f8", "rental_uris": {"ios": "https://dc.lft.to/lastmile_qr_scan", "android": "https://dc.lft.to/lastmile_qr_scan"}, "fusion_lon": 0.0, "lat": 38.911705, "is_disabled": 0, "bike_id": "cf7fad5d60cd0ee262e67b8296bda2f8", "fusion_lat": 0.0, "is_reserved": 0, "lon": -77.0112715}, {"type": "electric_scooter", "name": "b440b7bd5bbe0a5ff9549c914a0b9bcc", "rental_uris": {"ios": "https://dc.lft.to/lastmile_qr_scan", "android": "https://dc.lft.to/lastmile_qr_scan"}, "fusion_lon": 0.0, "lat": 38.88469383333333, "is_disabled": 0, "bike_id": "b440b7bd5bbe0a5ff9549c914a0b9bcc", "fusion_lat": 0.0, "is_reserved": 0, "lon": -77.01516933333333}, {"type": "electric_scooter", "name": "0d337de88a63e3c3ab3a47c34df83d7e", "rental_uris": {"ios": "https://dc.lft.to/lastmile_qr_scan", "android": "https://dc.lft.to/lastmile_qr_scan"}, "fusion_lon": 0.0, "lat": 38.909205166666666, "is_disabled": 0, "bike_id": "0d337de88a63e3c3ab3a47c34df83d7e", "fusion_lat": 0.0, "is_reserved": 0, "lon": -77.0320375}, {"type": "electric_scooter", "name": "7c57eeb220b5e0007e0608b257dc5d1d", "rental_uris": {"ios": "https://dc.lft.to/lastmile_qr_scan", "android": "https://dc.lft.to/lastmile_qr_scan"}, "fusion_lon": 0.0, "lat": 38.91282116666667, "is_disabled": 0, "bike_id": "7c57eeb220b5e0007e0608b257dc5d1d", "fusion_lat": 0.0, "is_reserved": 0, "lon": -76.98459916666667}, {"type": "electric_scooter", "name": "016f85f8891b2bafa2fe8c9f7225ca41", "rental_uris": {"ios": "https://dc.lft.to/lastmile_qr_scan", "android": "https://dc.lft.to/lastmile_qr_scan"}, "fusion_lon": 0.0, "lat": 38.92368733333333, "is_disabled": 0, "bike_id": "016f85f8891b2bafa2fe8c9f7225ca41", "fusion_lat": 0.0, "is_reserved": 0, "lon": -77.0190625}, {"type": "electric_scooter", "name": "3c6967bad81a4d08a055bfaab41eff00", "rental_uris": {"ios": "https://dc.lft.to/lastmile_qr_scan", "android": "https://dc.lft.to/lastmile_qr_scan"}, "fusion_lon": 0.0, "lat": 38.926686333333336, "is_disabled": 0, "bike_id": "3c6967bad81a4d08a055bfaab41eff00", "fusion_lat": 0.0, "is_reserved": 0, "lon": -77.04299466666667}, {"type": "electric_scooter", "name": "194b982a01ee0e31fb2b1d0d81b9dd68", "rental_uris": {"ios": "https://dc.lft.to/lastmile_qr_scan", "android": "https://dc.lft.to/lastmile_qr_scan"}, "fusion_lon": 0.0, "lat": 38.89399683333333, "is_disabled": 0, "bike_id": "194b982a01ee0e31fb2b1d0d81b9dd68", "fusion_lat": 0.0, "is_reserved": 0, "lon": -76.99160266666667}, {"type": "electric_scooter", "name": "a312f0265d46b56c77271a0a6031d508", "rental_uris": {"ios": "https://dc.lft.to/lastmile_qr_scan", "android": "https://dc.lft.to/lastmile_qr_scan"}, "fusion_lon": 0.0, "lat": 38.914814, "is_disabled": 0, "bike_id": "a312f0265d46b56c77271a0a6031d508", "fusion_lat": 0.0, "is_reserved": 0, "lon": -77.00877566666666}, {"type": "electric_scooter", "name": "f500c4c4a82b4ea0fb8319de628b6931", "rental_uris": {"ios": "https://dc.lft.to/lastmile_qr_scan", "android": "https://dc.lft.to/lastmile_qr_scan"}, "fusion_lon": 0.0, "lat": 38.916918333333335, "is_disabled": 0, "bike_id": "f500c4c4a82b4ea0fb8319de628b6931", "fusion_lat": 0.0, "is_reserved": 0, "lon": -77.02597233333333}, {"type": "electric_scooter", "name": "0c7a0f7ec6ab0f45b019997721f7d350", "rental_uris": {"ios": "https://dc.lft.to/lastmile_qr_scan", "android": "https://dc.lft.to/lastmile_qr_scan"}, "fusion_lon": 0.0, "lat": 38.887322166666664, "is_disabled": 0, "bike_id": "0c7a0f7ec6ab0f45b019997721f7d350", "fusion_lat": 0.0, "is_reserved": 0, "lon": -76.99490383333334}, {"type": "electric_scooter", "name": "c2430c272a93ed8b5976f719c89d4ed4", "rental_uris": {"ios": "https://dc.lft.to/lastmile_qr_scan", "android": "https://dc.lft.to/lastmile_qr_scan"}, "fusion_lon": 0.0, "lat": 38.907133, "is_disabled": 0, "bike_id": "c2430c272a93ed8b5976f719c89d4ed4", "fusion_lat": 0.0, "is_reserved": 0, "lon": -77.028865}, {"type": "electric_scooter", "name": "9d4e427c648bcd45732e188aa9a98ae4", "rental_uris": {"ios": "https://dc.lft.to/lastmile_qr_scan", "android": "https://dc.lft.to/lastmile_qr_scan"}, "fusion_lon": 0.0, "lat": 38.93534966666667, "is_disabled": 0, "bike_id": "9d4e427c648bcd45732e188aa9a98ae4", "fusion_lat": 0.0, "is_reserved": 0, "lon": -77.058269}, {"type": "electric_scooter", "name": "e0f5e3151045e53e3aad9c7e198729a3", "rental_uris": {"ios": "https://dc.lft.to/lastmile_qr_scan", "android": "https://dc.lft.to/lastmile_qr_scan"}, "fusion_lon": 0.0, "lat": 38.90690133333333, "is_disabled": 0, "bike_id": "e0f5e3151045e53e3aad9c7e198729a3", "fusion_lat": 0.0, "is_reserved": 0, "lon": -77.057238}, {"type": "electric_scooter", "name": "a766c4bdf86c6bd54068b0a684177a3e", "rental_uris": {"ios": "https://dc.lft.to/lastmile_qr_scan", "android": "https://dc.lft.to/lastmile_qr_scan"}, "fusion_lon": 0.0, "lat": 38.930954666666665, "is_disabled": 0, "bike_id": "a766c4bdf86c6bd54068b0a684177a3e", "fusion_lat": 0.0, "is_reserved": 0, "lon": -77.02414716666667}, {"type": "electric_scooter", "name": "f2d8d60e95bfba8ed8df112456afb57a", "rental_uris": {"ios": "https://dc.lft.to/lastmile_qr_scan", "android": "https://dc.lft.to/lastmile_qr_scan"}, "fusion_lon": 0.0, "lat": 38.89239583333333, "is_disabled": 0, "bike_id": "f2d8d60e95bfba8ed8df112456afb57a", "fusion_lat": 0.0, "is_reserved": 0, "lon": -77.03954883333333}, {"type": "electric_bike", "name": "24aa8282bcd566fcc1cb60ef96d9ab1f", "rental_uris": {"ios": "https://dc.lft.to/lastmile_qr_scan", "android": "https://dc.lft.to/lastmile_qr_scan"}, "fusion_lon": 0.0, "lat": 38.952382666666665, "is_disabled": 0, "bike_id": "24aa8282bcd566fcc1cb60ef96d9ab1f", "fusion_lat": 0.0, "is_reserved": 0, "lon": -77.0027235}, {"type": "electric_scooter", "name": "7defd484ba27ff5e8c3d4d8d1011830f", "rental_uris": {"ios": "https://dc.lft.to/lastmile_qr_scan", "android": "https://dc.lft.to/lastmile_qr_scan"}, "fusion_lon": 0.0, "lat": 38.934818166666666, "is_disabled": 0, "bike_id": "7defd484ba27ff5e8c3d4d8d1011830f", "fusion_lat": 0.0, "is_reserved": 0, "lon": -77.04522416666667}, {"type": "electric_scooter", "name": "a0c5886c16371c4b261498cdc081b8b8", "rental_uris": {"ios": "https://dc.lft.to/lastmile_qr_scan", "android": "https://dc.lft.to/lastmile_qr_scan"}, "fusion_lon": 0.0, "lat": 38.89875416666667, "is_disabled": 0, "bike_id": "a0c5886c16371c4b261498cdc081b8b8", "fusion_lat": 0.0, "is_reserved": 0, "lon": -76.9318605}, {"type": "electric_scooter", "name": "2c762ea161a5ba537b66dc80b138a365", "rental_uris": {"ios": "https://dc.lft.to/lastmile_qr_scan", "android": "https://dc.lft.to/lastmile_qr_scan"}, "fusion_lon": 0.0, "lat": 38.91879433333333, "is_disabled": 0, "bike_id": "2c762ea161a5ba537b66dc80b138a365", "fusion_lat": 0.0, "is_reserved": 0, "lon": -77.04180566666666}, {"type": "electric_scooter", "name": "3d3f03c29a8d03782ef47f1ef7f8c985", "rental_uris": {"ios": "https://dc.lft.to/lastmile_qr_scan", "android": "https://dc.lft.to/lastmile_qr_scan"}, "fusion_lon": 0.0, "lat": 38.922818166666666, "is_disabled": 0, "bike_id": "3d3f03c29a8d03782ef47f1ef7f8c985", "fusion_lat": 0.0, "is_reserved": 0, "lon": -77.04243116666666}, {"type": "electric_bike", "name": "c78bc8d460e1a547bed860a90f12a112", "rental_uris": {"ios": "https://dc.lft.to/lastmile_qr_scan", "android": "https://dc.lft.to/lastmile_qr_scan"}, "fusion_lon": 0.0, "lat": 39.08445533333333, "is_disabled": 0, "bike_id": "c78bc8d460e1a547bed860a90f12a112", "fusion_lat": 0.0, "is_reserved": 0, "lon": -76.951783}, {"type": "electric_scooter", "name": "22a183abb9a86deaaf36ee121594d764", "rental_uris": {"ios": "https://dc.lft.to/lastmile_qr_scan", "android": "https://dc.lft.to/lastmile_qr_scan"}, "fusion_lon": 0.0, "lat": 38.8314145, "is_disabled": 0, "bike_id": "22a183abb9a86deaaf36ee121594d764", "fusion_lat": 0.0, "is_reserved": 0, "lon": -77.00843933333333}, {"type": "electric_scooter", "name": "1145aa3725c37a3625c7eaf7c5b8a9c2", "rental_uris": {"ios": "https://dc.lft.to/lastmile_qr_scan", "android": "https://dc.lft.to/lastmile_qr_scan"}, "fusion_lon": 0.0, "lat": 38.900121, "is_disabled": 0, "bike_id": "1145aa3725c37a3625c7eaf7c5b8a9c2", "fusion_lat": 0.0, "is_reserved": 0, "lon": -76.98792783333333}, {"type": "electric_scooter", "name": "d8ce7823ef4a16d5da1b703653a7051e", "rental_uris": {"ios": "https://dc.lft.to/lastmile_qr_scan", "android": "https://dc.lft.to/lastmile_qr_scan"}, "fusion_lon": 0.0, "lat": 38.9297635, "is_disabled": 0, "bike_id": "d8ce7823ef4a16d5da1b703653a7051e", "fusion_lat": 0.0, "is_reserved": 0, "lon": -77.031857}, {"type": "electric_scooter", "name": "f167d8d7f80ef621661f0a8771cf4748", "rental_uris": {"ios": "https://dc.lft.to/lastmile_qr_scan", "android": "https://dc.lft.to/lastmile_qr_scan"}, "fusion_lon": 0.0, "lat": 38.9072905, "is_disabled": 0, "bike_id": "f167d8d7f80ef621661f0a8771cf4748", "fusion_lat": 0.0, "is_reserved": 0, "lon": -77.02372266666667}, {"type": "electric_scooter", "name": "4e618f9e963217a6da67b7d0df05fa0c", "rental_uris": {"ios": "https://dc.lft.to/lastmile_qr_scan", "android": "https://dc.lft.to/lastmile_qr_scan"}, "fusion_lon": 0.0, "lat": 38.89279033333333, "is_disabled": 0, "bike_id": "4e618f9e963217a6da67b7d0df05fa0c", "fusion_lat": 0.0, "is_reserved": 0, "lon": -77.05040916666667}, {"type": "electric_scooter", "name": "0cdea81b37c08cc7662c9fd74ceb0fbe", "rental_uris": {"ios": "https://dc.lft.to/lastmile_qr_scan", "android": "https://dc.lft.to/lastmile_qr_scan"}, "fusion_lon": 0.0, "lat": 38.8852635, "is_disabled": 0, "bike_id": "0cdea81b37c08cc7662c9fd74ceb0fbe", "fusion_lat": 0.0, "is_reserved": 0, "lon": -76.92917033333333}, {"type": "electric_scooter", "name": "3ef4f5b170cf2367de6bd35cca44ff31", "rental_uris": {"ios": "https://dc.lft.to/lastmile_qr_scan", "android": "https://dc.lft.to/lastmile_qr_scan"}, "fusion_lon": 0.0, "lat": 38.91751033333333, "is_disabled": 0, "bike_id": "3ef4f5b170cf2367de6bd35cca44ff31", "fusion_lat": 0.0, "is_reserved": 0, "lon": -77.0279225}, {"type": "electric_scooter", "name": "9d89eb766644138c357a64bbe4248bc8", "rental_uris": {"ios": "https://dc.lft.to/lastmile_qr_scan", "android": "https://dc.lft.to/lastmile_qr_scan"}, "fusion_lon": 0.0, "lat": 38.8961415, "is_disabled": 0, "bike_id": "9d89eb766644138c357a64bbe4248bc8", "fusion_lat": 0.0, "is_reserved": 0, "lon": -77.02580066666667}, {"type": "electric_scooter", "name": "b2eb12e7b94d468f94dfc418e165a0d7", "rental_uris": {"ios": "https://dc.lft.to/lastmile_qr_scan", "android": "https://dc.lft.to/lastmile_qr_scan"}, "fusion_lon": 0.0, "lat": 38.91607416666667, "is_disabled": 0, "bike_id": "b2eb12e7b94d468f94dfc418e165a0d7", "fusion_lat": 0.0, "is_reserved": 0, "lon": -77.03110183333334}, {"type": "electric_scooter", "name": "4a978574de6d3d5516337df804786e12", "rental_uris": {"ios": "https://dc.lft.to/lastmile_qr_scan", "android": "https://dc.lft.to/lastmile_qr_scan"}, "fusion_lon": 0.0, "lat": 38.90269033333333, "is_disabled": 0, "bike_id": "4a978574de6d3d5516337df804786e12", "fusion_lat": 0.0, "is_reserved": 0, "lon": -77.01776183333334}, {"type": "electric_scooter", "name": "ed590e040e52b6fa84eff7c09bfef7cd", "rental_uris": {"ios": "https://dc.lft.to/lastmile_qr_scan", "android": "https://dc.lft.to/lastmile_qr_scan"}, "fusion_lon": 0.0, "lat": 38.91393816666667, "is_disabled": 0, "bike_id": "ed590e040e52b6fa84eff7c09bfef7cd", "fusion_lat": 0.0, "is_reserved": 0, "lon": -77.041701}, {"type": "electric_scooter", "name": "408d40c610e32c3777b8a2d423825090", "rental_uris": {"ios": "https://dc.lft.to/lastmile_qr_scan", "android": "https://dc.lft.to/lastmile_qr_scan"}, "fusion_lon": 0.0, "lat": 38.914016833333335, "is_disabled": 0, "bike_id": "408d40c610e32c3777b8a2d423825090", "fusion_lat": 0.0, "is_reserved": 0, "lon": -77.03342}, {"type": "electric_scooter", "name": "d904c540493df450d28f60d89ca2edbd", "rental_uris": {"ios": "https://dc.lft.to/lastmile_qr_scan", "android": "https://dc.lft.to/lastmile_qr_scan"}, "fusion_lon": 0.0, "lat": 38.929981166666664, "is_disabled": 0, "bike_id": "d904c540493df450d28f60d89ca2edbd", "fusion_lat": 0.0, "is_reserved": 0, "lon": -77.03798966666666}, {"type": "electric_bike", "name": "f6308ec3120841a7cb9b060e858169a6", "rental_uris": {"ios": "https://dc.lft.to/lastmile_qr_scan", "android": "https://dc.lft.to/lastmile_qr_scan"}, "fusion_lon": 0.0, "lat": 38.87578083333333, "is_disabled": 0, "bike_id": "f6308ec3120841a7cb9b060e858169a6", "fusion_lat": 0.0, "is_reserved": 0, "lon": -77.23412316666666}, {"type": "electric_scooter", "name": "4c8baa97820993c05e56094b78cd9cfc", "rental_uris": {"ios": "https://dc.lft.to/lastmile_qr_scan", "android": "https://dc.lft.to/lastmile_qr_scan"}, "fusion_lon": 0.0, "lat": 38.9052865, "is_disabled": 0, "bike_id": "4c8baa97820993c05e56094b78cd9cfc", "fusion_lat": 0.0, "is_reserved": 0, "lon": -77.02703966666667}, {"type": "electric_scooter", "name": "d223d18b4b7b8ddea938ec5f6b50865d", "rental_uris": {"ios": "https://dc.lft.to/lastmile_qr_scan", "android": "https://dc.lft.to/lastmile_qr_scan"}, "fusion_lon": 0.0, "lat": 38.907095, "is_disabled": 0, "bike_id": "d223d18b4b7b8ddea938ec5f6b50865d", "fusion_lat": 0.0, "is_reserved": 0, "lon": -77.00575}, {"type": "electric_scooter", "name": "2ebd1c4da86a1bfa2f5a7dd31e4bb2e4", "rental_uris": {"ios": "https://dc.lft.to/lastmile_qr_scan", "android": "https://dc.lft.to/lastmile_qr_scan"}, "fusion_lon": 0.0, "lat": 38.88258066666667, "is_disabled": 0, "bike_id": "2ebd1c4da86a1bfa2f5a7dd31e4bb2e4", "fusion_lat": 0.0, "is_reserved": 0, "lon": -76.92671583333333}, {"type": "electric_scooter", "name": "42e5fc3d3cd61e5fcedd9c2b00e2455f", "rental_uris": {"ios": "https://dc.lft.to/lastmile_qr_scan", "android": "https://dc.lft.to/lastmile_qr_scan"}, "fusion_lon": 0.0, "lat": 38.915289666666666, "is_disabled": 0, "bike_id": "42e5fc3d3cd61e5fcedd9c2b00e2455f", "fusion_lat": 0.0, "is_reserved": 0, "lon": -77.01224133333334}, {"type": "electric_bike", "name": "ae5d9a11e57de7dd557b81c900fcbea6", "rental_uris": {"ios": "https://dc.lft.to/lastmile_qr_scan", "android": "https://dc.lft.to/lastmile_qr_scan"}, "fusion_lon": 0.0, "lat": 38.953548166666664, "is_disabled": 0, "bike_id": "ae5d9a11e57de7dd557b81c900fcbea6", "fusion_lat": 0.0, "is_reserved": 0, "lon": -76.98089633333333}, {"type": "electric_bike", "name": "ac86a53009c86ceee5b8c804183f4961", "rental_uris": {"ios": "https://dc.lft.to/lastmile_qr_scan", "android": "https://dc.lft.to/lastmile_qr_scan"}, "fusion_lon": 0.0, "lat": 38.856482666666665, "is_disabled": 0, "bike_id": "ac86a53009c86ceee5b8c804183f4961", "fusion_lat": 0.0, "is_reserved": 0, "lon": -77.08530633333334}, {"type": "electric_scooter", "name": "faafccb46f87f286440149fd506220c0", "rental_uris": {"ios": "https://dc.lft.to/lastmile_qr_scan", "android": "https://dc.lft.to/lastmile_qr_scan"}, "fusion_lon": 0.0, "lat": 38.88809666666667, "is_disabled": 0, "bike_id": "faafccb46f87f286440149fd506220c0", "fusion_lat": 0.0, "is_reserved": 0, "lon": -76.9835915}, {"type": "electric_scooter", "name": "6c65442daceb416e4ca4a8362268643a", "rental_uris": {"ios": "https://dc.lft.to/lastmile_qr_scan", "android": "https://dc.lft.to/lastmile_qr_scan"}, "fusion_lon": 0.0, "lat": 38.896984333333336, "is_disabled": 0, "bike_id": "6c65442daceb416e4ca4a8362268643a", "fusion_lat": 0.0, "is_reserved": 0, "lon": -77.01616583333333}, {"type": "electric_scooter", "name": "6fe4ddbe7972fcf05a678ceaadb004a5", "rental_uris": {"ios": "https://dc.lft.to/lastmile_qr_scan", "android": "https://dc.lft.to/lastmile_qr_scan"}, "fusion_lon": 0.0, "lat": 38.92088583333334, "is_disabled": 0, "bike_id": "6fe4ddbe7972fcf05a678ceaadb004a5", "fusion_lat": 0.0, "is_reserved": 0, "lon": -77.02251816666667}, {"type": "electric_scooter", "name": "1d447093e67498e2281ecf426fc80142", "rental_uris": {"ios": "https://dc.lft.to/lastmile_qr_scan", "android": "https://dc.lft.to/lastmile_qr_scan"}, "fusion_lon": 0.0, "lat": 38.87545316666667, "is_disabled": 0, "bike_id": "1d447093e67498e2281ecf426fc80142", "fusion_lat": 0.0, "is_reserved": 0, "lon": -77.00535833333333}, {"type": "electric_scooter", "name": "9a666e90900547fbd25528bedb3c30fc", "rental_uris": {"ios": "https://dc.lft.to/lastmile_qr_scan", "android": "https://dc.lft.to/lastmile_qr_scan"}, "fusion_lon": 0.0, "lat": 38.932398, "is_disabled": 0, "bike_id": "9a666e90900547fbd25528bedb3c30fc", "fusion_lat": 0.0, "is_reserved": 0, "lon": -76.995439}, {"type": "electric_scooter", "name": "356f34511487d7c7ef337dcfda97ab5b", "rental_uris": {"ios": "https://dc.lft.to/lastmile_qr_scan", "android": "https://dc.lft.to/lastmile_qr_scan"}, "fusion_lon": 0.0, "lat": 38.919352833333335, "is_disabled": 0, "bike_id": "356f34511487d7c7ef337dcfda97ab5b", "fusion_lat": 0.0, "is_reserved": 0, "lon": -77.04474966666666}, {"type": "electric_bike", "name": "185288290dcf610ce5814c049f03d2e0", "rental_uris": {"ios": "https://dc.lft.to/lastmile_qr_scan", "android": "https://dc.lft.to/lastmile_qr_scan"}, "fusion_lon": 0.0, "lat": 38.959672833333336, "is_disabled": 0, "bike_id": "185288290dcf610ce5814c049f03d2e0", "fusion_lat": 0.0, "is_reserved": 0, "lon": -76.98157166666667}, {"type": "electric_scooter", "name": "44119f9b6b55ca42ceab818f1285facb", "rental_uris": {"ios": "https://dc.lft.to/lastmile_qr_scan", "android": "https://dc.lft.to/lastmile_qr_scan"}, "fusion_lon": 0.0, "lat": 38.920266166666664, "is_disabled": 0, "bike_id": "44119f9b6b55ca42ceab818f1285facb", "fusion_lat": 0.0, "is_reserved": 0, "lon": -77.02189333333334}, {"type": "electric_scooter", "name": "e2864679cfd4f62333698e6a8e71d871", "rental_uris": {"ios": "https://dc.lft.to/lastmile_qr_scan", "android": "https://dc.lft.to/lastmile_qr_scan"}, "fusion_lon": 0.0, "lat": 38.911893166666665, "is_disabled": 0, "bike_id": "e2864679cfd4f62333698e6a8e71d871", "fusion_lat": 0.0, "is_reserved": 0, "lon": -77.03259633333333}, {"type": "electric_scooter", "name": "af229edeaac6d4992a7dbea8fc5649cc", "rental_uris": {"ios": "https://dc.lft.to/lastmile_qr_scan", "android": "https://dc.lft.to/lastmile_qr_scan"}, "fusion_lon": 0.0, "lat": 38.924843, "is_disabled": 0, "bike_id": "af229edeaac6d4992a7dbea8fc5649cc", "fusion_lat": 0.0, "is_reserved": 0, "lon": -77.0275545}, {"type": "electric_bike", "name": "5fd1d910406e287761de72cef9009d14", "rental_uris": {"ios": "https://dc.lft.to/lastmile_qr_scan", "android": "https://dc.lft.to/lastmile_qr_scan"}, "fusion_lon": 0.0, "lat": 38.95760716666667, "is_disabled": 0, "bike_id": "5fd1d910406e287761de72cef9009d14", "fusion_lat": 0.0, "is_reserved": 0, "lon": -76.98090066666667}, {"type": "electric_scooter", "name": "fae66066482a3cdd382d32de55f13d47", "rental_uris": {"ios": "https://dc.lft.to/lastmile_qr_scan", "android": "https://dc.lft.to/lastmile_qr_scan"}, "fusion_lon": 0.0, "lat": 38.89224333333333, "is_disabled": 0, "bike_id": "fae66066482a3cdd382d32de55f13d47", "fusion_lat": 0.0, "is_reserved": 0, "lon": -77.04867683333333}, {"type": "electric_scooter", "name": "7daa85c30168fd984e287bae0fe13e6c", "rental_uris": {"ios": "https://dc.lft.to/lastmile_qr_scan", "android": "https://dc.lft.to/lastmile_qr_scan"}, "fusion_lon": 0.0, "lat": 38.898605833333335, "is_disabled": 0, "bike_id": "7daa85c30168fd984e287bae0fe13e6c", "fusion_lat": 0.0, "is_reserved": 0, "lon": -77.032785}, {"type": "electric_scooter", "name": "d7d0c0a8f955dfb2199f30816144bddd", "rental_uris": {"ios": "https://dc.lft.to/lastmile_qr_scan", "android": "https://dc.lft.to/lastmile_qr_scan"}, "fusion_lon": 0.0, "lat": 38.883280166666665, "is_disabled": 0, "bike_id": "d7d0c0a8f955dfb2199f30816144bddd", "fusion_lat": 0.0, "is_reserved": 0, "lon": -77.01771583333333}, {"type": "electric_scooter", "name": "dc44f52977456e764cb47022d7587844", "rental_uris": {"ios": "https://dc.lft.to/lastmile_qr_scan", "android": "https://dc.lft.to/lastmile_qr_scan"}, "fusion_lon": 0.0, "lat": 38.9181015, "is_disabled": 0, "bike_id": "dc44f52977456e764cb47022d7587844", "fusion_lat": 0.0, "is_reserved": 0, "lon": -77.02820683333333}, {"type": "electric_scooter", "name": "1bace89e39a0d62a3013a3709a81b399", "rental_uris": {"ios": "https://dc.lft.to/lastmile_qr_scan", "android": "https://dc.lft.to/lastmile_qr_scan"}, "fusion_lon": 0.0, "lat": 38.92725683333333, "is_disabled": 0, "bike_id": "1bace89e39a0d62a3013a3709a81b399", "fusion_lat": 0.0, "is_reserved": 0, "lon": -77.03685316666666}, {"type": "electric_scooter", "name": "eb040a8a44752bd532251a421df161a5", "rental_uris": {"ios": "https://dc.lft.to/lastmile_qr_scan", "android": "https://dc.lft.to/lastmile_qr_scan"}, "fusion_lon": 0.0, "lat": 38.92826133333333, "is_disabled": 0, "bike_id": "eb040a8a44752bd532251a421df161a5", "fusion_lat": 0.0, "is_reserved": 0, "lon": -77.05440683333333}, {"type": "electric_scooter", "name": "d6df59f05b11d96919fda232dd0e60c4", "rental_uris": {"ios": "https://dc.lft.to/lastmile_qr_scan", "android": "https://dc.lft.to/lastmile_qr_scan"}, "fusion_lon": 0.0, "lat": 38.912568, "is_disabled": 0, "bike_id": "d6df59f05b11d96919fda232dd0e60c4", "fusion_lat": 0.0, "is_reserved": 0, "lon": -77.03830866666667}, {"type": "electric_scooter", "name": "6ea397943b82efd482611cf96c804bd1", "rental_uris": {"ios": "https://dc.lft.to/lastmile_qr_scan", "android": "https://dc.lft.to/lastmile_qr_scan"}, "fusion_lon": 0.0, "lat": 38.8983505, "is_disabled": 0, "bike_id": "6ea397943b82efd482611cf96c804bd1", "fusion_lat": 0.0, "is_reserved": 0, "lon": -77.031735}, {"type": "electric_scooter", "name": "cd54f36283ea21906b0a940f0c59ebf6", "rental_uris": {"ios": "https://dc.lft.to/lastmile_qr_scan", "android": "https://dc.lft.to/lastmile_qr_scan"}, "fusion_lon": 0.0, "lat": 38.9057815, "is_disabled": 0, "bike_id": "cd54f36283ea21906b0a940f0c59ebf6", "fusion_lat": 0.0, "is_reserved": 0, "lon": -76.9843365}, {"type": "electric_bike", "name": "3f4cb18a31ad4870a52685a57b00a2d9", "rental_uris": {"ios": "https://dc.lft.to/lastmile_qr_scan", "android": "https://dc.lft.to/lastmile_qr_scan"}, "fusion_lon": 0.0, "lat": 38.88010366666666, "is_disabled": 0, "bike_id": "3f4cb18a31ad4870a52685a57b00a2d9", "fusion_lat": 0.0, "is_reserved": 0, "lon": -77.10775933333333}, {"type": "electric_scooter", "name": "434754c4213b86540a949b62d0ad8a85", "rental_uris": {"ios": "https://dc.lft.to/lastmile_qr_scan", "android": "https://dc.lft.to/lastmile_qr_scan"}, "fusion_lon": 0.0, "lat": 38.9177865, "is_disabled": 0, "bike_id": "434754c4213b86540a949b62d0ad8a85", "fusion_lat": 0.0, "is_reserved": 0, "lon": -77.04103183333334}, {"type": "electric_scooter", "name": "1004a46bb23299915104bb5211a79b4f", "rental_uris": {"ios": "https://dc.lft.to/lastmile_qr_scan", "android": "https://dc.lft.to/lastmile_qr_scan"}, "fusion_lon": 0.0, "lat": 38.87660433333333, "is_disabled": 0, "bike_id": "1004a46bb23299915104bb5211a79b4f", "fusion_lat": 0.0, "is_reserved": 0, "lon": -77.01715933333334}, {"type": "electric_bike", "name": "3601fb57e759c7c96412085f818ed314", "rental_uris": {"ios": "https://dc.lft.to/lastmile_qr_scan", "android": "https://dc.lft.to/lastmile_qr_scan"}, "fusion_lon": 0.0, "lat": 38.92457266666667, "is_disabled": 0, "bike_id": "3601fb57e759c7c96412085f818ed314", "fusion_lat": 0.0, "is_reserved": 0, "lon": -77.06737766666667}, {"type": "electric_scooter", "name": "bf4b822bd2227991b399ce9777c8d1a2", "rental_uris": {"ios": "https://dc.lft.to/lastmile_qr_scan", "android": "https://dc.lft.to/lastmile_qr_scan"}, "fusion_lon": 0.0, "lat": 38.88734916666667, "is_disabled": 0, "bike_id": "bf4b822bd2227991b399ce9777c8d1a2", "fusion_lat": 0.0, "is_reserved": 0, "lon": -77.025818}, {"type": "electric_scooter", "name": "1ed4f045693434e5292ba985104999b3", "rental_uris": {"ios": "https://dc.lft.to/lastmile_qr_scan", "android": "https://dc.lft.to/lastmile_qr_scan"}, "fusion_lon": 0.0, "lat": 38.88453166666667, "is_disabled": 0, "bike_id": "1ed4f045693434e5292ba985104999b3", "fusion_lat": 0.0, "is_reserved": 0, "lon": -77.0251425}, {"type": "electric_scooter", "name": "56d3a9c96ba1087a6bcf55985f8de579", "rental_uris": {"ios": "https://dc.lft.to/lastmile_qr_scan", "android": "https://dc.lft.to/lastmile_qr_scan"}, "fusion_lon": 0.0, "lat": 38.924080000000004, "is_disabled": 0, "bike_id": "56d3a9c96ba1087a6bcf55985f8de579", "fusion_lat": 0.0, "is_reserved": 0, "lon": -77.025627}, {"type": "electric_bike", "name": "5334fb3558370f1aaa6e80a25102ada4", "rental_uris": {"ios": "https://dc.lft.to/lastmile_qr_scan", "android": "https://dc.lft.to/lastmile_qr_scan"}, "fusion_lon": 0.0, "lat": 38.922172833333335, "is_disabled": 0, "bike_id": "5334fb3558370f1aaa6e80a25102ada4", "fusion_lat": 0.0, "is_reserved": 0, "lon": -77.201396}, {"type": "electric_scooter", "name": "1c454e871a4dc2340ded933da5858786", "rental_uris": {"ios": "https://dc.lft.to/lastmile_qr_scan", "android": "https://dc.lft.to/lastmile_qr_scan"}, "fusion_lon": 0.0, "lat": 38.900331, "is_disabled": 0, "bike_id": "1c454e871a4dc2340ded933da5858786", "fusion_lat": 0.0, "is_reserved": 0, "lon": -76.9870165}, {"type": "electric_scooter", "name": "6c6c50681f19651d06cd8efe2ea4fbce", "rental_uris": {"ios": "https://dc.lft.to/lastmile_qr_scan", "android": "https://dc.lft.to/lastmile_qr_scan"}, "fusion_lon": 0.0, "lat": 38.915429333333336, "is_disabled": 0, "bike_id": "6c6c50681f19651d06cd8efe2ea4fbce", "fusion_lat": 0.0, "is_reserved": 0, "lon": -77.03854416666667}, {"type": "electric_scooter", "name": "a1a0e15d50591554106d254a4e0485d0", "rental_uris": {"ios": "https://dc.lft.to/lastmile_qr_scan", "android": "https://dc.lft.to/lastmile_qr_scan"}, "fusion_lon": 0.0, "lat": 38.921051, "is_disabled": 0, "bike_id": "a1a0e15d50591554106d254a4e0485d0", "fusion_lat": 0.0, "is_reserved": 0, "lon": -77.0438195}, {"type": "electric_scooter", "name": "7f25f76395c6bed5c8d46cc43720fb39", "rental_uris": {"ios": "https://dc.lft.to/lastmile_qr_scan", "android": "https://dc.lft.to/lastmile_qr_scan"}, "fusion_lon": 0.0, "lat": 38.92854333333333, "is_disabled": 0, "bike_id": "7f25f76395c6bed5c8d46cc43720fb39", "fusion_lat": 0.0, "is_reserved": 0, "lon": -77.013911}, {"type": "electric_scooter", "name": "9807bde2badae86c13063e10f29d9124", "rental_uris": {"ios": "https://dc.lft.to/lastmile_qr_scan", "android": "https://dc.lft.to/lastmile_qr_scan"}, "fusion_lon": 0.0, "lat": 38.92826816666667, "is_disabled": 0, "bike_id": "9807bde2badae86c13063e10f29d9124", "fusion_lat": 0.0, "is_reserved": 0, "lon": -77.05437716666667}, {"type": "electric_scooter", "name": "4538ed8d144823ef46370fad4d036eb2", "rental_uris": {"ios": "https://dc.lft.to/lastmile_qr_scan", "android": "https://dc.lft.to/lastmile_qr_scan"}, "fusion_lon": 0.0, "lat": 38.906016666666666, "is_disabled": 0, "bike_id": "4538ed8d144823ef46370fad4d036eb2", "fusion_lat": 0.0, "is_reserved": 0, "lon": -77.0260045}, {"type": "electric_scooter", "name": "e86fdae548eeb360a71853602b627594", "rental_uris": {"ios": "https://dc.lft.to/lastmile_qr_scan", "android": "https://dc.lft.to/lastmile_qr_scan"}, "fusion_lon": 0.0, "lat": 38.94198333333333, "is_disabled": 0, "bike_id": "e86fdae548eeb360a71853602b627594", "fusion_lat": 0.0, "is_reserved": 0, "lon": -77.02590383333333}, {"type": "electric_scooter", "name": "7a13eac33f9df023050576e7fe6ee793", "rental_uris": {"ios": "https://dc.lft.to/lastmile_qr_scan", "android": "https://dc.lft.to/lastmile_qr_scan"}, "fusion_lon": 0.0, "lat": 38.96038466666667, "is_disabled": 0, "bike_id": "7a13eac33f9df023050576e7fe6ee793", "fusion_lat": 0.0, "is_reserved": 0, "lon": -77.07189566666666}, {"type": "electric_scooter", "name": "fafc10a164e2fb84a7f9c6dbbffcc780", "rental_uris": {"ios": "https://dc.lft.to/lastmile_qr_scan", "android": "https://dc.lft.to/lastmile_qr_scan"}, "fusion_lon": 0.0, "lat": 38.8921445, "is_disabled": 0, "bike_id": "fafc10a164e2fb84a7f9c6dbbffcc780", "fusion_lat": 0.0, "is_reserved": 0, "lon": -76.99575333333334}, {"type": "electric_scooter", "name": "75190544a9f4ee06bc2120a21fc3c842", "rental_uris": {"ios": "https://dc.lft.to/lastmile_qr_scan", "android": "https://dc.lft.to/lastmile_qr_scan"}, "fusion_lon": 0.0, "lat": 38.923013, "is_disabled": 0, "bike_id": "75190544a9f4ee06bc2120a21fc3c842", "fusion_lat": 0.0, "is_reserved": 0, "lon": -77.04177033333333}, {"type": "electric_bike", "name": "e0e5a346b179ff50bc68b1b3189e9c08", "rental_uris": {"ios": "https://dc.lft.to/lastmile_qr_scan", "android": "https://dc.lft.to/lastmile_qr_scan"}, "fusion_lon": 0.0, "lat": 38.956900166666664, "is_disabled": 0, "bike_id": "e0e5a346b179ff50bc68b1b3189e9c08", "fusion_lat": 0.0, "is_reserved": 0, "lon": -77.0222125}, {"type": "electric_scooter", "name": "b195827b6b741d92d6cbc0945c43095a", "rental_uris": {"ios": "https://dc.lft.to/lastmile_qr_scan", "android": "https://dc.lft.to/lastmile_qr_scan"}, "fusion_lon": 0.0, "lat": 38.866286833333334, "is_disabled": 0, "bike_id": "b195827b6b741d92d6cbc0945c43095a", "fusion_lat": 0.0, "is_reserved": 0, "lon": -76.98714266666667}, {"type": "electric_bike", "name": "2bc7cedd592b78fe7ed1668e7b92a527", "rental_uris": {"ios": "https://dc.lft.to/lastmile_qr_scan", "android": "https://dc.lft.to/lastmile_qr_scan"}, "fusion_lon": 0.0, "lat": 38.8200115, "is_disabled": 0, "bike_id": "2bc7cedd592b78fe7ed1668e7b92a527", "fusion_lat": 0.0, "is_reserved": 0, "lon": -76.9981305}, {"type": "electric_scooter", "name": "6f2a2983553f8e06da1819a085e8a369", "rental_uris": {"ios": "https://dc.lft.to/lastmile_qr_scan", "android": "https://dc.lft.to/lastmile_qr_scan"}, "fusion_lon": 0.0, "lat": 38.87847583333333, "is_disabled": 0, "bike_id": "6f2a2983553f8e06da1819a085e8a369", "fusion_lat": 0.0, "is_reserved": 0, "lon": -77.01909383333333}, {"type": "electric_scooter", "name": "2d009a8ec63d4f570d67912548914673", "rental_uris": {"ios": "https://dc.lft.to/lastmile_qr_scan", "android": "https://dc.lft.to/lastmile_qr_scan"}, "fusion_lon": 0.0, "lat": 38.90530416666667, "is_disabled": 0, "bike_id": "2d009a8ec63d4f570d67912548914673", "fusion_lat": 0.0, "is_reserved": 0, "lon": -77.05767333333333}, {"type": "electric_scooter", "name": "f71f0990367c9e948361752d05f9339e", "rental_uris": {"ios": "https://dc.lft.to/lastmile_qr_scan", "android": "https://dc.lft.to/lastmile_qr_scan"}, "fusion_lon": 0.0, "lat": 38.8999495, "is_disabled": 0, "bike_id": "f71f0990367c9e948361752d05f9339e", "fusion_lat": 0.0, "is_reserved": 0, "lon": -77.01966566666667}, {"type": "electric_scooter", "name": "9e734d8c7ec172ee204b3b0c5aca1b4f", "rental_uris": {"ios": "https://dc.lft.to/lastmile_qr_scan", "android": "https://dc.lft.to/lastmile_qr_scan"}, "fusion_lon": 0.0, "lat": 38.907157833333336, "is_disabled": 0, "bike_id": "9e734d8c7ec172ee204b3b0c5aca1b4f", "fusion_lat": 0.0, "is_reserved": 0, "lon": -77.02951583333333}, {"type": "electric_scooter", "name": "b982f3e165ff3178fa8968976baab6b0", "rental_uris": {"ios": "https://dc.lft.to/lastmile_qr_scan", "android": "https://dc.lft.to/lastmile_qr_scan"}, "fusion_lon": 0.0, "lat": 38.87365033333333, "is_disabled": 0, "bike_id": "b982f3e165ff3178fa8968976baab6b0", "fusion_lat": 0.0, "is_reserved": 0, "lon": -77.005708}, {"type": "electric_bike", "name": "d393280ccd16640f3877017ae9fd9bd5", "rental_uris": {"ios": "https://dc.lft.to/lastmile_qr_scan", "android": "https://dc.lft.to/lastmile_qr_scan"}, "fusion_lon": 0.0, "lat": 38.8903825, "is_disabled": 0, "bike_id": "d393280ccd16640f3877017ae9fd9bd5", "fusion_lat": 0.0, "is_reserved": 0, "lon": -77.18397533333334}, {"type": "electric_scooter", "name": "0caa3f039db9667e8e2edc000b16124b", "rental_uris": {"ios": "https://dc.lft.to/lastmile_qr_scan", "android": "https://dc.lft.to/lastmile_qr_scan"}, "fusion_lon": 0.0, "lat": 38.91414666666667, "is_disabled": 0, "bike_id": "0caa3f039db9667e8e2edc000b16124b", "fusion_lat": 0.0, "is_reserved": 0, "lon": -77.03872233333334}, {"type": "electric_scooter", "name": "3c9db6c800308053413b9d5ea1b29413", "rental_uris": {"ios": "https://dc.lft.to/lastmile_qr_scan", "android": "https://dc.lft.to/lastmile_qr_scan"}, "fusion_lon": 0.0, "lat": 38.93106133333333, "is_disabled": 0, "bike_id": "3c9db6c800308053413b9d5ea1b29413", "fusion_lat": 0.0, "is_reserved": 0, "lon": -77.03462166666667}, {"type": "electric_scooter", "name": "192c75de9a7fc290cfec34caaaa9c39f", "rental_uris": {"ios": "https://dc.lft.to/lastmile_qr_scan", "android": "https://dc.lft.to/lastmile_qr_scan"}, "fusion_lon": 0.0, "lat": 38.903105833333335, "is_disabled": 0, "bike_id": "192c75de9a7fc290cfec34caaaa9c39f", "fusion_lat": 0.0, "is_reserved": 0, "lon": -77.06018833333333}, {"type": "electric_scooter", "name": "e6c72a5dbc7ef6e940ee63762e82beb7", "rental_uris": {"ios": "https://dc.lft.to/lastmile_qr_scan", "android": "https://dc.lft.to/lastmile_qr_scan"}, "fusion_lon": 0.0, "lat": 38.9236725, "is_disabled": 0, "bike_id": "e6c72a5dbc7ef6e940ee63762e82beb7", "fusion_lat": 0.0, "is_reserved": 0, "lon": -77.050297}, {"type": "electric_scooter", "name": "4b17639dbdf0597668a3abcea3d65913", "rental_uris": {"ios": "https://dc.lft.to/lastmile_qr_scan", "android": "https://dc.lft.to/lastmile_qr_scan"}, "fusion_lon": 0.0, "lat": 38.91259, "is_disabled": 0, "bike_id": "4b17639dbdf0597668a3abcea3d65913", "fusion_lat": 0.0, "is_reserved": 0, "lon": -76.98360733333334}, {"type": "electric_scooter", "name": "89a08dd4b3005dcc1abe55bf52771e8e", "rental_uris": {"ios": "https://dc.lft.to/lastmile_qr_scan", "android": "https://dc.lft.to/lastmile_qr_scan"}, "fusion_lon": 0.0, "lat": 38.896477833333336, "is_disabled": 0, "bike_id": "89a08dd4b3005dcc1abe55bf52771e8e", "fusion_lat": 0.0, "is_reserved": 0, "lon": -77.02602283333333}, {"type": "electric_scooter", "name": "3ec6885e631f49c6f0b436e972bd8d7a", "rental_uris": {"ios": "https://dc.lft.to/lastmile_qr_scan", "android": "https://dc.lft.to/lastmile_qr_scan"}, "fusion_lon": 0.0, "lat": 38.90587933333333, "is_disabled": 0, "bike_id": "3ec6885e631f49c6f0b436e972bd8d7a", "fusion_lat": 0.0, "is_reserved": 0, "lon": -77.0408105}, {"type": "electric_scooter", "name": "aa3ba84e4e0ddaaa8b9270de9df95f75", "rental_uris": {"ios": "https://dc.lft.to/lastmile_qr_scan", "android": "https://dc.lft.to/lastmile_qr_scan"}, "fusion_lon": 0.0, "lat": 38.912605166666665, "is_disabled": 0, "bike_id": "aa3ba84e4e0ddaaa8b9270de9df95f75", "fusion_lat": 0.0, "is_reserved": 0, "lon": -77.0144115}, {"type": "electric_scooter", "name": "ba7e60b63081bcab9f9244bbdd168142", "rental_uris": {"ios": "https://dc.lft.to/lastmile_qr_scan", "android": "https://dc.lft.to/lastmile_qr_scan"}, "fusion_lon": 0.0, "lat": 38.88621066666666, "is_disabled": 0, "bike_id": "ba7e60b63081bcab9f9244bbdd168142", "fusion_lat": 0.0, "is_reserved": 0, "lon": -77.01537466666667}, {"type": "electric_scooter", "name": "8b1ac671ac46487f86aeda2a919669e3", "rental_uris": {"ios": "https://dc.lft.to/lastmile_qr_scan", "android": "https://dc.lft.to/lastmile_qr_scan"}, "fusion_lon": 0.0, "lat": 38.87654916666666, "is_disabled": 0, "bike_id": "8b1ac671ac46487f86aeda2a919669e3", "fusion_lat": 0.0, "is_reserved": 0, "lon": -77.00522033333333}, {"type": "electric_scooter", "name": "408baf2a342bb3fe357fd120b6673fed", "rental_uris": {"ios": "https://dc.lft.to/lastmile_qr_scan", "android": "https://dc.lft.to/lastmile_qr_scan"}, "fusion_lon": 0.0, "lat": 38.936824333333334, "is_disabled": 0, "bike_id": "408baf2a342bb3fe357fd120b6673fed", "fusion_lat": 0.0, "is_reserved": 0, "lon": -77.08452683333333}, {"type": "electric_scooter", "name": "a1b8999b3ebaef95b0f2374dac895d3c", "rental_uris": {"ios": "https://dc.lft.to/lastmile_qr_scan", "android": "https://dc.lft.to/lastmile_qr_scan"}, "fusion_lon": 0.0, "lat": 38.90042916666667, "is_disabled": 0, "bike_id": "a1b8999b3ebaef95b0f2374dac895d3c", "fusion_lat": 0.0, "is_reserved": 0, "lon": -76.98838566666667}, {"type": "electric_scooter", "name": "00ba67a2caca2c61d1ccc2ec4cfa33cb", "rental_uris": {"ios": "https://dc.lft.to/lastmile_qr_scan", "android": "https://dc.lft.to/lastmile_qr_scan"}, "fusion_lon": 0.0, "lat": 38.915533333333336, "is_disabled": 0, "bike_id": "00ba67a2caca2c61d1ccc2ec4cfa33cb", "fusion_lat": 0.0, "is_reserved": 0, "lon": -77.0377355}, {"type": "electric_scooter", "name": "c52a9cced38f0d6bbba157480830fd26", "rental_uris": {"ios": "https://dc.lft.to/lastmile_qr_scan", "android": "https://dc.lft.to/lastmile_qr_scan"}, "fusion_lon": 0.0, "lat": 38.9260415, "is_disabled": 0, "bike_id": "c52a9cced38f0d6bbba157480830fd26", "fusion_lat": 0.0, "is_reserved": 0, "lon": -77.05712966666667}, {"type": "electric_bike", "name": "599f4ea6090643cf02bdf47addcf6332", "rental_uris": {"ios": "https://dc.lft.to/lastmile_qr_scan", "android": "https://dc.lft.to/lastmile_qr_scan"}, "fusion_lon": 0.0, "lat": 38.909572, "is_disabled": 0, "bike_id": "599f4ea6090643cf02bdf47addcf6332", "fusion_lat": 0.0, "is_reserved": 0, "lon": -76.98438233333333}, {"type": "electric_scooter", "name": "3a810eb3762e664ad793aada46996d56", "rental_uris": {"ios": "https://dc.lft.to/lastmile_qr_scan", "android": "https://dc.lft.to/lastmile_qr_scan"}, "fusion_lon": 0.0, "lat": 38.9014965, "is_disabled": 0, "bike_id": "3a810eb3762e664ad793aada46996d56", "fusion_lat": 0.0, "is_reserved": 0, "lon": -77.04176933333333}, {"type": "electric_scooter", "name": "ecb16d1811bd32b70bc6459eb34f245f", "rental_uris": {"ios": "https://dc.lft.to/lastmile_qr_scan", "android": "https://dc.lft.to/lastmile_qr_scan"}, "fusion_lon": 0.0, "lat": 38.88537733333333, "is_disabled": 0, "bike_id": "ecb16d1811bd32b70bc6459eb34f245f", "fusion_lat": 0.0, "is_reserved": 0, "lon": -77.00054616666667},