{"data": {"bikes": [{"lat": 38.89720533333333, "is_disabled": 0, "type": "electric_bike", "lon": -77.02752566666666, "bike_id": "f516ce9bf538303d5ea4e76a5bd19b1c", "fusion_lat": 0.0, "name": "f516ce9bf538303d5ea4e76a5bd19b1c", "is_reserved": 0, "rental_uris": {"android": "https://dc.lft.to/lastmile_qr_scan", "ios": "https://dc.lft.to/lastmile_qr_scan"}, "fusion_lon": 0.0}, {"lat": 38.92750983333333, "is_disabled": 0, "type": "electric_scooter", "lon": -76.9972375, "bike_id": "acd010c56d1f4cc83887b288948d29ae", "fusion_lat": 0.0, "name": "acd010c56d1f4cc83887b288948d29ae", "is_reserved": 0, "rental_uris": {"android": "https://dc.lft.to/lastmile_qr_scan", "ios": "https://dc.lft.to/lastmile_qr_scan"}, "fusion_lon": 0.0}, {"lat": 38.863681, "is_disabled": 0, "type": "electric_scooter", "lon": -76.99033766666666, "bike_id": "1b3005213aa75c62357f7d1b999e6a20", "fusion_lat": 0.0, "name": "1b3005213aa75c62357f7d1b999e6a20", "is_reserved": 0, "rental_uris": {"android": "https://dc.lft.to/lastmile_qr_scan", "ios": "https://dc.lft.to/lastmile_qr_scan"}, "fusion_lon": 0.0}, {"lat": 38.911197666666666, "is_disabled": 0, "type": "electric_scooter", "lon": -77.042654, "bike_id": "104c12c945834e3220608b9ef2c2637b", "fusion_lat": 0.0, "name": "104c12c945834e3220608b9ef2c2637b", "is_reserved": 0, "rental_uris": {"android": "https://dc.lft.to/lastmile_qr_scan", "ios": "https://dc.lft.to/lastmile_qr_scan"}, "fusion_lon": 0.0}, {"lat": 38.875786166666664, "is_disabled": 0, "type": "electric_scooter", "lon": -77.020826, "bike_id": "1ce5dac4a762ea8e49f864c13caaa910", "fusion_lat": 0.0, "name": "1ce5dac4a762ea8e49f864c13caaa910", "is_reserved": 0, "rental_uris": {"android": "https://dc.lft.to/lastmile_qr_scan", "ios": "https://dc.lft.to/lastmile_qr_scan"}, "fusion_lon": 0.0}, {"lat": 39.030533, "is_disabled": 0, "type": "electric_bike", "lon": -77.09476933333333, "bike_id": "abb21a7a2fd1a4d431d2ffa79454b035", "fusion_lat": 0.0, "name": "abb21a7a2fd1a4d431d2ffa79454b035", "is_reserved": 0, "rental_uris": {"android": "https://dc.lft.to/lastmile_qr_scan", "ios": "https://dc.lft.to/lastmile_qr_scan"}, "fusion_lon": 0.0}, {"lat": 38.907906833333335, "is_disabled": 0, "type": "electric_scooter", "lon": -77.03554616666666, "bike_id": "7e7b7ecee4660683df9f7a3260992226", "fusion_lat": 0.0, "name": "7e7b7ecee4660683df9f7a3260992226", "is_reserved": 0, "rental_uris": {"android": "https://dc.lft.to/lastmile_qr_scan", "ios": "https://dc.lft.to/lastmile_qr_scan"}, "fusion_lon": 0.0}, {"lat": 38.916032666666666, "is_disabled": 0, "type": "electric_scooter", "lon": -77.038581, "bike_id": "d7c6a2d9080fcc748b003531853f4d64", "fusion_lat": 0.0, "name": "d7c6a2d9080fcc748b003531853f4d64", "is_reserved": 0, "rental_uris": {"android": "https://dc.lft.to/lastmile_qr_scan", "ios": "https://dc.lft.to/lastmile_qr_scan"}, "fusion_lon": 0.0}, {"lat": 38.90369166666667, "is_disabled": 0, "type": "electric_scooter", "lon": -77.0384575, "bike_id": "e88b852e39c98e403875fb73680a81c9", "fusion_lat": 0.0, "name": "e88b852e39c98e403875fb73680a81c9", "is_reserved": 0, "rental_uris": {"android": "https://dc.lft.to/lastmile_qr_scan", "ios": "https://dc.lft.to/lastmile_qr_scan"}, "fusion_lon": 0.0}, {"lat": 38.91714016666667, "is_disabled": 0, "type": "electric_scooter", "lon": -77.03861033333334, "bike_id": "31c121534f9d645b4fe8600a556a6ace", "fusion_lat": 0.0, "name": "31c121534f9d645b4fe8600a556a6ace", "is_reserved": 0, "rental_uris": {"android": "https://dc.lft.to/lastmile_qr_scan", "ios": "https://dc.lft.to/lastmile_qr_scan"}, "fusion_lon": 0.0}, {"lat": 38.90781966666667, "is_disabled": 0, "type": "electric_scooter", "lon": -77.03859316666667, "bike_id": "b9b737652950993b92a19af911d23da1", "fusion_lat": 0.0, "name": "b9b737652950993b92a19af911d23da1", "is_reserved": 0, "rental_uris": {"android": "https://dc.lft.to/lastmile_qr_scan", "ios": "https://dc.lft.to/lastmile_qr_scan"}, "fusion_lon": 0.0}, {"lat": 38.91715933333333, "is_disabled": 0, "type": "electric_scooter", "lon": -77.03729, "bike_id": "0cc4bb118e6ebbc025faf04aff050792", "fusion_lat": 0.0, "name": "0cc4bb118e6ebbc025faf04aff050792", "is_reserved": 0, "rental_uris": {"android": "https://dc.lft.to/lastmile_qr_scan", "ios": "https://dc.lft.to/lastmile_qr_scan"}, "fusion_lon": 0.0}, {"lat": 38.885120666666666, "is_disabled": 0, "type": "electric_scooter", "lon": -77.00680616666666, "bike_id": "5cf640d729578e9cf1b3d02bd7d7f7ba", "fusion_lat": 0.0, "name": "5cf640d729578e9cf1b3d02bd7d7f7ba", "is_reserved": 0, "rental_uris": {"android": "https://dc.lft.to/lastmile_qr_scan", "ios": "https://dc.lft.to/lastmile_qr_scan"}, "fusion_lon": 0.0}, {"lat": 38.938424166666664, "is_disabled": 0, "type": "electric_bike", "lon": -76.988614, "bike_id": "939fd99c14a7f81ee371b1e70bfed025", "fusion_lat": 0.0, "name": "939fd99c14a7f81ee371b1e70bfed025", "is_reserved": 0, "rental_uris": {"android": "https://dc.lft.to/lastmile_qr_scan", "ios": "https://dc.lft.to/lastmile_qr_scan"}, "fusion_lon": 0.0}, {"lat": 38.89663083333333, "is_disabled": 0, "type": "electric_scooter", "lon": -77.03974783333334, "bike_id": "e9c57e5735e00bb5638a94f73cd5e39d", "fusion_lat": 0.0, "name": "e9c57e5735e00bb5638a94f73cd5e39d", "is_reserved": 0, "rental_uris": {"android": "https://dc.lft.to/lastmile_qr_scan", "ios": "https://dc.lft.to/lastmile_qr_scan"}, "fusion_lon": 0.0}, {"lat": 38.905801833333335, "is_disabled": 0, "type": "electric_scooter", "lon": -77.00890516666666, "bike_id": "12761950f3fad317fd506967b5fc601d", "fusion_lat": 0.0, "name": "12761950f3fad317fd506967b5fc601d", "is_reserved": 0, "rental_uris": {"android": "https://dc.lft.to/lastmile_qr_scan", "ios": "https://dc.lft.to/lastmile_qr_scan"}, "fusion_lon": 0.0}, {"lat": 38.90065333333333, "is_disabled": 0, "type": "electric_scooter", "lon": -77.00213316666667, "bike_id": "4ada822ea13297dabe1d6c5d44e5fd15", "fusion_lat": 0.0, "name": "4ada822ea13297dabe1d6c5d44e5fd15", "is_reserved": 0, "rental_uris": {"android": "https://dc.lft.to/lastmile_qr_scan", "ios": "https://dc.lft.to/lastmile_qr_scan"}, "fusion_lon": 0.0}, {"lat": 38.938861833333334, "is_disabled": 0, "type": "electric_scooter", "lon": -77.03282216666666, "bike_id": "122070989c61095c91365f3f9b1bd900", "fusion_lat": 0.0, "name": "122070989c61095c91365f3f9b1bd900", "is_reserved": 0, "rental_uris": {"android": "https://dc.lft.to/lastmile_qr_scan", "ios": "https://dc.lft.to/lastmile_qr_scan"}, "fusion_lon": 0.0}, {"lat": 38.9036655, "is_disabled": 0, "type": "electric_scooter", "lon": -77.03846983333334, "bike_id": "f3941c9524c440307cf27aa416ec93b1", "fusion_lat": 0.0, "name": "f3941c9524c440307cf27aa416ec93b1", "is_reserved": 0, "rental_uris": {"android": "https://dc.lft.to/lastmile_qr_scan", "ios": "https://dc.lft.to/lastmile_qr_scan"}, "fusion_lon": 0.0}, {"lat": 38.9161045, "is_disabled": 0, "type": "electric_scooter", "lon": -77.03859933333334, "bike_id": "2a2f9fce9c30c0b30b4fb017af059d1d", "fusion_lat": 0.0, "name": "2a2f9fce9c30c0b30b4fb017af059d1d", "is_reserved": 0, "rental_uris": {"android": "https://dc.lft.to/lastmile_qr_scan", "ios": "https://dc.lft.to/lastmile_qr_scan"}, "fusion_lon": 0.0}, {"lat": 38.91111716666666, "is_disabled": 0, "type": "electric_scooter", "lon": -77.02836833333333, "bike_id": "f4f0d9cfa3b4c1f3dd9f34c8670acfe4", "fusion_lat": 0.0, "name": "f4f0d9cfa3b4c1f3dd9f34c8670acfe4", "is_reserved": 0, "rental_uris": {"android": "https://dc.lft.to/lastmile_qr_scan", "ios": "https://dc.lft.to/lastmile_qr_scan"}, "fusion_lon": 0.0}, {"lat": 38.904606, "is_disabled": 0, "type": "electric_scooter", "lon": -76.99456583333334, "bike_id": "757743b291c5722dbee37f46d27c059c", "fusion_lat": 0.0, "name": "757743b291c5722dbee37f46d27c059c", "is_reserved": 0, "rental_uris": {"android": "https://dc.lft.to/lastmile_qr_scan", "ios": "https://dc.lft.to/lastmile_qr_scan"}, "fusion_lon": 0.0}, {"lat": 38.9206075, "is_disabled": 0, "type": "electric_scooter", "lon": -77.03399666666667, "bike_id": "2b36f94b0b77a9b9649c5eca40ab5525", "fusion_lat": 0.0, "name": "2b36f94b0b77a9b9649c5eca40ab5525", "is_reserved": 0, "rental_uris": {"android": "https://dc.lft.to/lastmile_qr_scan", "ios": "https://dc.lft.to/lastmile_qr_scan"}, "fusion_lon": 0.0}, {"lat": 38.91893833333334, "is_disabled": 0, "type": "electric_scooter", "lon": -77.0390765, "bike_id": "96c6268c0bbd00b182253a6d434e4f26", "fusion_lat": 0.0, "name": "96c6268c0bbd00b182253a6d434e4f26", "is_reserved": 0, "rental_uris": {"android": "https://dc.lft.to/lastmile_qr_scan", "ios": "https://dc.lft.to/lastmile_qr_scan"}, "fusion_lon": 0.0}, {"lat": 38.886538, "is_disabled": 0, "type": "electric_bike", "lon": -77.16235033333334, "bike_id": "d12022958d9512770bbe24624881fbc1", "fusion_lat": 0.0, "name": "d12022958d9512770bbe24624881fbc1", "is_reserved": 0, "rental_uris": {"android": "https://dc.lft.to/lastmile_qr_scan", "ios": "https://dc.lft.to/lastmile_qr_scan"}, "fusion_lon": 0.0}, {"lat": 38.902634666666664, "is_disabled": 0, "type": "electric_scooter", "lon": -77.03147016666667, "bike_id": "d4f7ac5b6f9102cf639515999f870506", "fusion_lat": 0.0, "name": "d4f7ac5b6f9102cf639515999f870506", "is_reserved": 0, "rental_uris": {"android": "https://dc.lft.to/lastmile_qr_scan", "ios": "https://dc.lft.to/lastmile_qr_scan"}, "fusion_lon": 0.0}, {"lat": 38.912931, "is_disabled": 0, "type": "electric_scooter", "lon": -77.02385883333334, "bike_id": "9388b91c469ab281ce3791ff49cd4000", "fusion_lat": 0.0, "name": "9388b91c469ab281ce3791ff49cd4000", "is_reserved": 0, "rental_uris": {"android": "https://dc.lft.to/lastmile_qr_scan", "ios": "https://dc.lft.to/lastmile_qr_scan"}, "fusion_lon": 0.0}, {"lat": 38.904215666666666, "is_disabled": 0, "type": "electric_scooter", "lon": -77.06891866666666, "bike_id": "dddcd0a6bf2e6ffafa2e1453300307e7", "fusion_lat": 0.0, "name": "dddcd0a6bf2e6ffafa2e1453300307e7", "is_reserved": 0, "rental_uris": {"android": "https://dc.lft.to/lastmile_qr_scan", "ios": "https://dc.lft.to/lastmile_qr_scan"}, "fusion_lon": 0.0}, {"lat": 38.89039416666667, "is_disabled": 0, "type": "electric_scooter", "lon": -77.0298015, "bike_id": "d7c5b1bf3098f6ce7599b0ba2eba98ec", "fusion_lat": 0.0, "name": "d7c5b1bf3098f6ce7599b0ba2eba98ec", "is_reserved": 0, "rental_uris": {"android": "https://dc.lft.to/lastmile_qr_scan", "ios": "https://dc.lft.to/lastmile_qr_scan"}, "fusion_lon": 0.0}, {"lat": 38.9430335, "is_disabled": 0, "type": "electric_scooter", "lon": -77.05929033333334, "bike_id": "7d975c5240860eecdccbc0abdd5b79d6", "fusion_lat": 0.0, "name": "7d975c5240860eecdccbc0abdd5b79d6", "is_reserved": 0, "rental_uris": {"android": "https://dc.lft.to/lastmile_qr_scan", "ios": "https://dc.lft.to/lastmile_qr_scan"}, "fusion_lon": 0.0}, {"lat": 38.88504833333333, "is_disabled": 0, "type": "electric_scooter", "lon": -77.00562783333334, "bike_id": "de8c0185be64c68cbe2d3f6c4e8e92ae", "fusion_lat": 0.0, "name": "de8c0185be64c68cbe2d3f6c4e8e92ae", "is_reserved": 0, "rental_uris": {"android": "https://dc.lft.to/lastmile_qr_scan", "ios": "https://dc.lft.to/lastmile_qr_scan"}, "fusion_lon": 0.0}, {"lat": 38.85461883333333, "is_disabled": 0, "type": "electric_scooter", "lon": -76.972374, "bike_id": "81aabddde583337694c2e47f84b2b836", "fusion_lat": 0.0, "name": "81aabddde583337694c2e47f84b2b836", "is_reserved": 0, "rental_uris": {"android": "https://dc.lft.to/lastmile_qr_scan", "ios": "https://dc.lft.to/lastmile_qr_scan"}, "fusion_lon": 0.0}, {"lat": 38.927888833333334, "is_disabled": 0, "type": "electric_bike", "lon": -76.97221516666667, "bike_id": "c811955dd1fa07b9a35457d64dae54d8", "fusion_lat": 0.0, "name": "c811955dd1fa07b9a35457d64dae54d8", "is_reserved": 0, "rental_uris": {"android": "https://dc.lft.to/lastmile_qr_scan", "ios": "https://dc.lft.to/lastmile_qr_scan"}, "fusion_lon": 0.0}, {"lat": 38.91785466666666, "is_disabled": 0, "type": "electric_scooter", "lon": -77.0442145, "bike_id": "d65d71f657e301e760dc905d3fadf89a", "fusion_lat": 0.0, "name": "d65d71f657e301e760dc905d3fadf89a", "is_reserved": 0, "rental_uris": {"android": "https://dc.lft.to/lastmile_qr_scan", "ios": "https://dc.lft.to/lastmile_qr_scan"}, "fusion_lon": 0.0}, {"lat": 38.923633, "is_disabled": 0, "type": "electric_scooter", "lon": -77.0438465, "bike_id": "76ff39c017c4516fed9993577efa521b", "fusion_lat": 0.0, "name": "76ff39c017c4516fed9993577efa521b", "is_reserved": 0, "rental_uris": {"android": "https://dc.lft.to/lastmile_qr_scan", "ios": "https://dc.lft.to/lastmile_qr_scan"}, "fusion_lon": 0.0}, {"lat": 38.855128666666666, "is_disabled": 0, "type": "electric_bike", "lon": -77.12046033333333, "bike_id": "b630a58a8692356bac3b3444fd1671b9", "fusion_lat": 0.0, "name": "b630a58a8692356bac3b3444fd1671b9", "is_reserved": 0, "rental_uris": {"android": "https://dc.lft.to/lastmile_qr_scan", "ios": "https://dc.lft.to/lastmile_qr_scan"}, "fusion_lon": 0.0}, {"lat": 38.978437, "is_disabled": 0, "type": "electric_bike", "lon": -77.02655516666667, "bike_id": "8ea38e360be152e3fd7b104303a658c4", "fusion_lat": 0.0, "name": "8ea38e360be152e3fd7b104303a658c4", "is_reserved": 0, "rental_uris": {"android": "https://dc.lft.to/lastmile_qr_scan", "ios": "https://dc.lft.to/lastmile_qr_scan"}, "fusion_lon": 0.0}, {"lat": 38.86566283333333, "is_disabled": 0, "type": "electric_bike", "lon": -76.973511, "bike_id": "59de767fee0c084cd9eb46fcd3795335", "fusion_lat": 0.0, "name": "59de767fee0c084cd9eb46fcd3795335", "is_reserved": 0, "rental_uris": {"android": "https://dc.lft.to/lastmile_qr_scan", "ios": "https://dc.lft.to/lastmile_qr_scan"}, "fusion_lon": 0.0}, {"lat": 38.86385833333333, "is_disabled": 0, "type": "electric_scooter", "lon": -76.9925145, "bike_id": "36690e0dbaf04362f0b9afa84f426bc7", "fusion_lat": 0.0, "name": "36690e0dbaf04362f0b9afa84f426bc7", "is_reserved": 0, "rental_uris": {"android": "https://dc.lft.to/lastmile_qr_scan", "ios": "https://dc.lft.to/lastmile_qr_scan"}, "fusion_lon": 0.0}, {"lat": 38.90967283333333, "is_disabled": 0, "type": "electric_scooter", "lon": -77.03576633333333, "bike_id": "519d125a5eb39fdb665d82d755f0c305", "fusion_lat": 0.0, "name": "519d125a5eb39fdb665d82d755f0c305", "is_reserved": 0, "rental_uris": {"android": "https://dc.lft.to/lastmile_qr_scan", "ios": "https://dc.lft.to/lastmile_qr_scan"}, "fusion_lon": 0.0}, {"lat": 38.91948466666667, "is_disabled": 0, "type": "electric_scooter", "lon": -77.03196166666666, "bike_id": "d0b353e8af46bf78ad703233a565d607", "fusion_lat": 0.0, "name": "d0b353e8af46bf78ad703233a565d607", "is_reserved": 0, "rental_uris": {"android": "https://dc.lft.to/lastmile_qr_scan", "ios": "https://dc.lft.to/lastmile_qr_scan"}, "fusion_lon": 0.0}, {"lat": 38.93083516666667, "is_disabled": 0, "type": "electric_scooter", "lon": -77.03408133333333, "bike_id": "58506a9c98cfb9f2861132f4afb7dd52", "fusion_lat": 0.0, "name": "58506a9c98cfb9f2861132f4afb7dd52", "is_reserved": 0, "rental_uris": {"android": "https://dc.lft.to/lastmile_qr_scan", "ios": "https://dc.lft.to/lastmile_qr_scan"}, "fusion_lon": 0.0}, {"lat": 38.805787333333335, "is_disabled": 0, "type": "electric_bike", "lon": -77.068616, "bike_id": "0f96d23978668eb7ec5249d42ba21296", "fusion_lat": 0.0, "name": "0f96d23978668eb7ec5249d42ba21296", "is_reserved": 0, "rental_uris": {"android": "https://dc.lft.to/lastmile_qr_scan", "ios": "https://dc.lft.to/lastmile_qr_scan"}, "fusion_lon": 0.0}, {"lat": 38.985089, "is_disabled": 0, "type": "electric_bike", "lon": -76.98198716666667, "bike_id": "0db74a8e70c670d941bafd3f7e1a8ef1", "fusion_lat": 0.0, "name": "0db74a8e70c670d941bafd3f7e1a8ef1", "is_reserved": 0, "rental_uris": {"android": "https://dc.lft.to/lastmile_qr_scan", "ios": "https://dc.lft.to/lastmile_qr_scan"}, "fusion_lon": 0.0}, {"lat": 38.92733283333333, "is_disabled": 0, "type": "electric_scooter", "lon": -77.03448333333333, "bike_id": "2adf6ffbec9d686e54cc88f0f946d10a", "fusion_lat": 0.0, "name": "2adf6ffbec9d686e54cc88f0f946d10a", "is_reserved": 0, "rental_uris": {"android": "https://dc.lft.to/lastmile_qr_scan", "ios": "https://dc.lft.to/lastmile_qr_scan"}, "fusion_lon": 0.0}, {"lat": 38.923509833333334, "is_disabled": 0, "type": "electric_scooter", "lon": -77.03418116666667, "bike_id": "c452e00d105bba2e81cacf4078358c60", "fusion_lat": 0.0, "name": "c452e00d105bba2e81cacf4078358c60", "is_reserved": 0, "rental_uris": {"android": "https://dc.lft.to/lastmile_qr_scan", "ios": "https://dc.lft.to/lastmile_qr_scan"}, "fusion_lon": 0.0}, {"lat": 38.894113833333336, "is_disabled": 0, "type": "electric_scooter", "lon": -77.02422383333334, "bike_id": "3c34cd6b32698e22c56a47440bed6972", "fusion_lat": 0.0, "name": "3c34cd6b32698e22c56a47440bed6972", "is_reserved": 0, "rental_uris": {"android": "https://dc.lft.to/lastmile_qr_scan", "ios": "https://dc.lft.to/lastmile_qr_scan"}, "fusion_lon": 0.0}, {"lat": 38.900151, "is_disabled": 0, "type": "electric_scooter", "lon": -76.99570616666666, "bike_id": "05964fe9c65aaa677564ddddfc05221d", "fusion_lat": 0.0, "name": "05964fe9c65aaa677564ddddfc05221d", "is_reserved": 0, "rental_uris": {"android": "https://dc.lft.to/lastmile_qr_scan", "ios": "https://dc.lft.to/lastmile_qr_scan"}, "fusion_lon": 0.0}, {"lat": 38.982756, "is_disabled": 0, "type": "electric_bike", "lon": -77.01766316666667, "bike_id": "3ceeb4600292e33db86c7cf314e8431d", "fusion_lat": 0.0, "name": "3ceeb4600292e33db86c7cf314e8431d", "is_reserved": 0, "rental_uris": {"android": "https://dc.lft.to/lastmile_qr_scan", "ios": "https://dc.lft.to/lastmile_qr_scan"}, "fusion_lon": 0.0}, {"lat": 38.92015283333333, "is_disabled": 0, "type": "electric_scooter", "lon": -77.01958666666667, "bike_id": "f41120ae68c983dbef75a88dd0c0da9e", "fusion_lat": 0.0, "name": "f41120ae68c983dbef75a88dd0c0da9e", "is_reserved": 0, "rental_uris": {"android": "https://dc.lft.to/lastmile_qr_scan", "ios": "https://dc.lft.to/lastmile_qr_scan"}, "fusion_lon": 0.0}, {"lat": 38.901128, "is_disabled": 0, "type": "electric_scooter", "lon": -77.050017, "bike_id": "39c149cf6f87bf3c0ad491c862d4e98f", "fusion_lat": 0.0, "name": "39c149cf6f87bf3c0ad491c862d4e98f", "is_reserved": 0, "rental_uris": {"android": "https://dc.lft.to/lastmile_qr_scan", "ios": "https://dc.lft.to/lastmile_qr_scan"}, "fusion_lon": 0.0}, {"lat": 38.895580833333334, "is_disabled": 0, "type": "electric_scooter", "lon": -77.02295883333333, "bike_id": "ef5cee95de082b61c53b2b09e7989eb1", "fusion_lat": 0.0, "name": "ef5cee95de082b61c53b2b09e7989eb1", "is_reserved": 0, "rental_uris": {"android": "https://dc.lft.to/lastmile_qr_scan", "ios": "https://dc.lft.to/lastmile_qr_scan"}, "fusion_lon": 0.0}, {"lat": 38.902616333333334, "is_disabled": 0, "type": "electric_scooter", "lon": -77.01854133333333, "bike_id": "2abaf181c3da301eba1aba1fd6625b6a", "fusion_lat": 0.0, "name": "2abaf181c3da301eba1aba1fd6625b6a", "is_reserved": 0, "rental_uris": {"android": "https://dc.lft.to/lastmile_qr_scan", "ios": "https://dc.lft.to/lastmile_qr_scan"}, "fusion_lon": 0.0}, {"lat": 38.993194, "is_disabled": 0, "type": "electric_bike", "lon": -77.03286783333333, "bike_id": "919bc43a8eabf8e93a0bdbb3a4aafb63", "fusion_lat": 0.0, "name": "919bc43a8eabf8e93a0bdbb3a4aafb63", "is_reserved": 0, "rental_uris": {"android": "https://dc.lft.to/lastmile_qr_scan", "ios": "https://dc.lft.to/lastmile_qr_scan"}, "fusion_lon": 0.0}, {"lat": 38.873385, "is_disabled": 0, "type": "electric_bike", "lon": -77.0185835, "bike_id": "b39a86eac543a4b4f3dc47081aac8982", "fusion_lat": 0.0, "name": "b39a86eac543a4b4f3dc47081aac8982", "is_reserved": 0, "rental_uris": {"android": "https://dc.lft.to/lastmile_qr_scan", "ios": "https://dc.lft.to/lastmile_qr_scan"}, "fusion_lon": 0.0}, {"lat": 38.9026065, "is_disabled": 0, "type": "electric_scooter", "lon": -76.98695316666667, "bike_id": "2e096e9b6855cab60451abdd2aa47f34", "fusion_lat": 0.0, "name": "2e096e9b6855cab60451abdd2aa47f34", "is_reserved": 0, "rental_uris": {"android": "https://dc.lft.to/lastmile_qr_scan", "ios": "https://dc.lft.to/lastmile_qr_scan"}, "fusion_lon": 0.0}, {"lat": 38.903810166666666, "is_disabled": 0, "type": "electric_scooter", "lon": -77.029796, "bike_id": "b8a63773cc72c9c40d34deb98a1d3fad", "fusion_lat": 0.0, "name": "b8a63773cc72c9c40d34deb98a1d3fad", "is_reserved": 0, "rental_uris": {"android": "https://dc.lft.to/lastmile_qr_scan", "ios": "https://dc.lft.to/lastmile_qr_scan"}, "fusion_lon": 0.0}, {"lat": 38.90005383333333, "is_disabled": 0, "type": "electric_scooter", "lon": -77.02118516666667, "bike_id": "7c9b94fdfe99856a63ab6eb2a4d2f273", "fusion_lat": 0.0, "name": "7c9b94fdfe99856a63ab6eb2a4d2f273", "is_reserved": 0, "rental_uris": {"android": "https://dc.lft.to/lastmile_qr_scan", "ios": "https://dc.lft.to/lastmile_qr_scan"}, "fusion_lon": 0.0}, {"lat": 38.890382833333334, "is_disabled": 0, "type": "electric_scooter", "lon": -77.02974166666667, "bike_id": "f9ccb7810282ba2dfee8da5dd02f07ac", "fusion_lat": 0.0, "name": "f9ccb7810282ba2dfee8da5dd02f07ac", "is_reserved": 0, "rental_uris": {"android": "https://dc.lft.to/lastmile_qr_scan", "ios": "https://dc.lft.to/lastmile_qr_scan"}, "fusion_lon": 0.0}, {"lat": 38.90418416666667, "is_disabled": 0, "type": "electric_scooter", "lon": -76.99283733333333, "bike_id": "39fe303c1d6fa76b14f96e3c205f0ee1", "fusion_lat": 0.0, "name": "39fe303c1d6fa76b14f96e3c205f0ee1", "is_reserved": 0, "rental_uris": {"android": "https://dc.lft.to/lastmile_qr_scan", "ios": "https://dc.lft.to/lastmile_qr_scan"}, "fusion_lon": 0.0}, {"lat": 38.83214516666666, "is_disabled": 0, "type": "electric_bike", "lon": -76.94619566666667, "bike_id": "6b90c903568d7e0b0a4cc574f6874b4e", "fusion_lat": 0.0, "name": "6b90c903568d7e0b0a4cc574f6874b4e", "is_reserved": 0, "rental_uris": {"android": "https://dc.lft.to/lastmile_qr_scan", "ios": "https://dc.lft.to/lastmile_qr_scan"}, "fusion_lon": 0.0}, {"lat": 38.9007785, "is_disabled": 0, "type": "electric_scooter", "lon": -77.00215433333334, "bike_id": "7befacc28ea1ba5370a95f7aa1f5830b", "fusion_lat": 0.0, "name": "7befacc28ea1ba5370a95f7aa1f5830b", "is_reserved": 0, "rental_uris": {"android": "https://dc.lft.to/lastmile_qr_scan", "ios": "https://dc.lft.to/lastmile_qr_scan"}, "fusion_lon": 0.0}, {"lat": 38.899944, "is_disabled": 0, "type": "electric_scooter", "lon": -77.0526175, "bike_id": "202ba4307af355c6ea3fe1694cd15335", "fusion_lat": 0.0, "name": "202ba4307af355c6ea3fe1694cd15335", "is_reserved": 0, "rental_uris": {"android": "https://dc.lft.to/lastmile_qr_scan", "ios": "https://dc.lft.to/lastmile_qr_scan"}, "fusion_lon": 0.0}, {"lat": 38.917081333333336, "is_disabled": 0, "type": "electric_scooter", "lon": -77.03472166666667, "bike_id": "026a45cdf9911e6ff524a3c1e29ed7cf", "fusion_lat": 0.0, "name": "026a45cdf9911e6ff524a3c1e29ed7cf", "is_reserved": 0, "rental_uris": {"android": "https://dc.lft.to/lastmile_qr_scan", "ios": "https://dc.lft.to/lastmile_qr_scan"}, "fusion_lon": 0.0}, {"lat": 38.907388166666664, "is_disabled": 0, "type": "electric_scooter", "lon": -77.04146833333333, "bike_id": "5c65ab071922afb7628c16fb4ea63d3b", "fusion_lat": 0.0, "name": "5c65ab071922afb7628c16fb4ea63d3b", "is_reserved": 0, "rental_uris": {"android": "https://dc.lft.to/lastmile_qr_scan", "ios": "https://dc.lft.to/lastmile_qr_scan"}, "fusion_lon": 0.0}, {"lat": 38.901857, "is_disabled": 0, "type": "electric_scooter", "lon": -77.02172716666666, "bike_id": "3322d09562ce20a629e6c6047421870e", "fusion_lat": 0.0, "name": "3322d09562ce20a629e6c6047421870e", "is_reserved": 0, "rental_uris": {"android": "https://dc.lft.to/lastmile_qr_scan", "ios": "https://dc.lft.to/lastmile_qr_scan"}, "fusion_lon": 0.0}, {"lat": 38.89971516666667, "is_disabled": 0, "type": "electric_scooter", "lon": -77.0527355, "bike_id": "cdf0b6306735a14ce8e0afdded7bb3f8", "fusion_lat": 0.0, "name": "cdf0b6306735a14ce8e0afdded7bb3f8", "is_reserved": 0, "rental_uris": {"android": "https://dc.lft.to/lastmile_qr_scan", "ios": "https://dc.lft.to/lastmile_qr_scan"}, "fusion_lon": 0.0}, {"lat": 38.88277766666667, "is_disabled": 0, "type": "electric_bike", "lon": -76.9324075, "bike_id": "605bc584c6990ae9d3b349601727785b", "fusion_lat": 0.0, "name": "605bc584c6990ae9d3b349601727785b", "is_reserved": 0, "rental_uris": {"android": "https://dc.lft.to/lastmile_qr_scan", "ios": "https://dc.lft.to/lastmile_qr_scan"}, "fusion_lon": 0.0}, {"lat": 38.903426833333334, "is_disabled": 0, "type": "electric_scooter", "lon": -76.97054283333334, "bike_id": "205e4eede32f036c44c2f1c93db5ea4e", "fusion_lat": 0.0, "name": "205e4eede32f036c44c2f1c93db5ea4e", "is_reserved": 0, "rental_uris": {"android": "https://dc.lft.to/lastmile_qr_scan", "ios": "https://dc.lft.to/lastmile_qr_scan"}, "fusion_lon": 0.0}, {"lat": 38.90643016666667, "is_disabled": 0, "type": "electric_scooter", "lon": -77.00595566666667, "bike_id": "bb337ef1b729f5af9511a36cb4222064", "fusion_lat": 0.0, "name": "bb337ef1b729f5af9511a36cb4222064", "is_reserved": 0, "rental_uris": {"android": "https://dc.lft.to/lastmile_qr_scan", "ios": "https://dc.lft.to/lastmile_qr_scan"}, "fusion_lon": 0.0}, {"lat": 38.9150405, "is_disabled": 0, "type": "electric_scooter", "lon": -76.9836305, "bike_id": "ad7c92cb02e0af83ca97dc043c134c83", "fusion_lat": 0.0, "name": "ad7c92cb02e0af83ca97dc043c134c83", "is_reserved": 0, "rental_uris": {"android": "https://dc.lft.to/lastmile_qr_scan", "ios": "https://dc.lft.to/lastmile_qr_scan"}, "fusion_lon": 0.0}, {"lat": 38.95742416666667, "is_disabled": 0, "type": "electric_scooter", "lon": -77.02387333333333, "bike_id": "0a532eb6b6477cf726843f8012b2213f", "fusion_lat": 0.0, "name": "0a532eb6b6477cf726843f8012b2213f", "is_reserved": 0, "rental_uris": {"android": "https://dc.lft.to/lastmile_qr_scan", "ios": "https://dc.lft.to/lastmile_qr_scan"}, "fusion_lon": 0.0}, {"lat": 38.90880516666667, "is_disabled": 0, "type": "electric_scooter", "lon": -77.03665933333333, "bike_id": "8e1a925a3352edef0dd2162f050c2c91", "fusion_lat": 0.0, "name": "8e1a925a3352edef0dd2162f050c2c91", "is_reserved": 0, "rental_uris": {"android": "https://dc.lft.to/lastmile_qr_scan", "ios": "https://dc.lft.to/lastmile_qr_scan"}, "fusion_lon": 0.0}, {"lat": 38.9120255, "is_disabled": 0, "type": "electric_scooter", "lon": -77.04495683333333, "bike_id": "0d9831d177d123e507169b843de72a45", "fusion_lat": 0.0, "name": "0d9831d177d123e507169b843de72a45", "is_reserved": 0, "rental_uris": {"android": "https://dc.lft.to/lastmile_qr_scan", "ios": "https://dc.lft.to/lastmile_qr_scan"}, "fusion_lon": 0.0}, {"lat": 38.86618416666666, "is_disabled": 0, "type": "electric_scooter", "lon": -76.9866325, "bike_id": "d8229273727f548cbf2f0cd25a9b384f", "fusion_lat": 0.0, "name": "d8229273727f548cbf2f0cd25a9b384f", "is_reserved": 0, "rental_uris": {"android": "https://dc.lft.to/lastmile_qr_scan", "ios": "https://dc.lft.to/lastmile_qr_scan"}, "fusion_lon": 0.0}, {"lat": 38.93579166666667, "is_disabled": 0, "type": "electric_scooter", "lon": -77.037544, "bike_id": "7d26ed8d109db1c08e248498cbd60de7", "fusion_lat": 0.0, "name": "7d26ed8d109db1c08e248498cbd60de7", "is_reserved": 0, "rental_uris": {"android": "https://dc.lft.to/lastmile_qr_scan", "ios": "https://dc.lft.to/lastmile_qr_scan"}, "fusion_lon": 0.0}, {"lat": 38.89424433333333, "is_disabled": 0, "type": "electric_scooter", "lon": -77.02090266666667, "bike_id": "93ebacb2bf788e0931523a37e2f0421a", "fusion_lat": 0.0, "name": "93ebacb2bf788e0931523a37e2f0421a", "is_reserved": 0, "rental_uris": {"android": "https://dc.lft.to/lastmile_qr_scan", "ios": "https://dc.lft.to/lastmile_qr_scan"}, "fusion_lon": 0.0}, {"lat": 38.901525666666664, "is_disabled": 0, "type": "electric_scooter", "lon": -77.05132233333333, "bike_id": "36e58fcc54c1be71aad4da036042bb80", "fusion_lat": 0.0, "name": "36e58fcc54c1be71aad4da036042bb80", "is_reserved": 0, "rental_uris": {"android": "https://dc.lft.to/lastmile_qr_scan", "ios": "https://dc.lft.to/lastmile_qr_scan"}, "fusion_lon": 0.0}, {"lat": 38.95080883333333, "is_disabled": 0, "type": "electric_bike", "lon": -77.0119795, "bike_id": "dbb366a4db21bd3d419a6811092cd9e0", "fusion_lat": 0.0, "name": "dbb366a4db21bd3d419a6811092cd9e0", "is_reserved": 0, "rental_uris": {"android": "https://dc.lft.to/lastmile_qr_scan", "ios": "https://dc.lft.to/lastmile_qr_scan"}, "fusion_lon": 0.0}, {"lat": 38.905791666666666, "is_disabled": 0, "type": "electric_scooter", "lon": -77.02204283333333, "bike_id": "f61e2b3dd09bb3fca15ff84e73f36327", "fusion_lat": 0.0, "name": "f61e2b3dd09bb3fca15ff84e73f36327", "is_reserved": 0, "rental_uris": {"android": "https://dc.lft.to/lastmile_qr_scan", "ios": "https://dc.lft.to/lastmile_qr_scan"}, "fusion_lon": 0.0}, {"lat": 38.89920716666666, "is_disabled": 0, "type": "electric_scooter", "lon": -76.93379333333333, "bike_id": "5d6e7c8b39b42f6cf5a46f568386ed6e", "fusion_lat": 0.0, "name": "5d6e7c8b39b42f6cf5a46f568386ed6e", "is_reserved": 0, "rental_uris": {"android": "https://dc.lft.to/lastmile_qr_scan", "ios": "https://dc.lft.to/lastmile_qr_scan"}, "fusion_lon": 0.0}, {"lat": 38.863518666666664, "is_disabled": 0, "type": "electric_scooter", "lon": -76.99003916666666, "bike_id": "1fc66b3c37b21baa49a61fbf0d762a9c", "fusion_lat": 0.0, "name": "1fc66b3c37b21baa49a61fbf0d762a9c", "is_reserved": 0, "rental_uris": {"android": "https://dc.lft.to/lastmile_qr_scan", "ios": "https://dc.lft.to/lastmile_qr_scan"}, "fusion_lon": 0.0}, {"lat": 38.91554766666667, "is_disabled": 0, "type": "electric_scooter", "lon": -77.02428933333333, "bike_id": "ac16d0f5956e867f514225c1db568111", "fusion_lat": 0.0, "name": "ac16d0f5956e867f514225c1db568111", "is_reserved": 0, "rental_uris": {"android": "https://dc.lft.to/lastmile_qr_scan", "ios": "https://dc.lft.to/lastmile_qr_scan"}, "fusion_lon": 0.0}, {"lat": 38.91259183333333, "is_disabled": 0, "type": "electric_scooter", "lon": -77.04768666666666, "bike_id": "05d5ec422aa6d86dcae7c53c66e40cec", "fusion_lat": 0.0, "name": "05d5ec422aa6d86dcae7c53c66e40cec", "is_reserved": 0, "rental_uris": {"android": "https://dc.lft.to/lastmile_qr_scan", "ios": "https://dc.lft.to/lastmile_qr_scan"}, "fusion_lon": 0.0}, {"lat": 38.84869233333333, "is_disabled": 0, "type": "electric_scooter", "lon": -76.976943, "bike_id": "3a3858cf3cd7220983a61cb5f482c64a", "fusion_lat": 0.0, "name": "3a3858cf3cd7220983a61cb5f482c64a", "is_reserved": 0, "rental_uris": {"android": "https://dc.lft.to/lastmile_qr_scan", "ios": "https://dc.lft.to/lastmile_qr_scan"}, "fusion_lon": 0.0}, {"lat": 38.955558, "is_disabled": 0, "type": "electric_bike", "lon": -76.93535533333333, "bike_id": "e932069b98fd78aa29aa5e1297fc0281", "fusion_lat": 0.0, "name": "e932069b98fd78aa29aa5e1297fc0281", "is_reserved": 0, "rental_uris": {"android": "https://dc.lft.to/lastmile_qr_scan", "ios": "https://dc.lft.to/lastmile_qr_scan"}, "fusion_lon": 0.0}, {"lat": 38.89881483333333, "is_disabled": 0, "type": "electric_scooter", "lon": -77.05340083333333, "bike_id": "ed3f667c76751932580ff4cc86413072", "fusion_lat": 0.0, "name": "ed3f667c76751932580ff4cc86413072", "is_reserved": 0, "rental_uris": {"android": "https://dc.lft.to/lastmile_qr_scan", "ios": "https://dc.lft.to/lastmile_qr_scan"}, "fusion_lon": 0.0}, {"lat": 38.90549516666667, "is_disabled": 0, "type": "electric_scooter", "lon": -77.00571983333333, "bike_id": "fc6b5ecc9a4ec3efd14a3e688cec34e6", "fusion_lat": 0.0, "name": "fc6b5ecc9a4ec3efd14a3e688cec34e6", "is_reserved": 0, "rental_uris": {"android": "https://dc.lft.to/lastmile_qr_scan", "ios": "https://dc.lft.to/lastmile_qr_scan"}, "fusion_lon": 0.0}, {"lat": 38.9926035, "is_disabled": 0, "type": "electric_scooter", "lon": -77.03654116666667, "bike_id": "a2ce3519852aedf5a16ed4ef648a694a", "fusion_lat": 0.0, "name": "a2ce3519852aedf5a16ed4ef648a694a", "is_reserved": 0, "rental_uris": {"android": "https://dc.lft.to/lastmile_qr_scan", "ios": "https://dc.lft.to/lastmile_qr_scan"}, "fusion_lon": 0.0}, {"lat": 38.90517366666667, "is_disabled": 0, "type": "electric_scooter", "lon": -77.06309916666666, "bike_id": "4e059f98317f25d1b6c65280e4050a7e", "fusion_lat": 0.0, "name": "4e059f98317f25d1b6c65280e4050a7e", "is_reserved": 0, "rental_uris": {"android": "https://dc.lft.to/lastmile_qr_scan", "ios": "https://dc.lft.to/lastmile_qr_scan"}, "fusion_lon": 0.0}, {"lat": 38.910517, "is_disabled": 0, "type": "electric_scooter", "lon": -77.04380266666666, "bike_id": "885685ee6c4ca7b9771af95389c0b9dc", "fusion_lat": 0.0, "name": "885685ee6c4ca7b9771af95389c0b9dc", "is_reserved": 0, "rental_uris": {"android": "https://dc.lft.to/lastmile_qr_scan", "ios": "https://dc.lft.to/lastmile_qr_scan"}, "fusion_lon": 0.0}, {"lat": 38.94550533333334, "is_disabled": 0, "type": "electric_bike", "lon": -76.89545216666667, "bike_id": "048e59f45b5cd051928a2a742cb8b8aa", "fusion_lat": 0.0, "name": "048e59f45b5cd051928a2a742cb8b8aa", "is_reserved": 0, "rental_uris": {"android": "https://dc.lft.to/lastmile_qr_scan", "ios": "https://dc.lft.to/lastmile_qr_scan"}, "fusion_lon": 0.0}, {"lat": 38.93660916666666, "is_disabled": 0, "type": "electric_bike", "lon": -76.9522225, "bike_id": "1d4dd9549de66e35050c425271a978dd", "fusion_lat": 0.0, "name": "1d4dd9549de66e35050c425271a978dd", "is_reserved": 0, "rental_uris": {"android": "https://dc.lft.to/lastmile_qr_scan", "ios": "https://dc.lft.to/lastmile_qr_scan"}, "fusion_lon": 0.0}, {"lat": 39.03436116666666, "is_disabled": 0, "type": "electric_bike", "lon": -77.04308916666666, "bike_id": "3fc88903f1bcce30b63b0cc126efc0c4", "fusion_lat": 0.0, "name": "3fc88903f1bcce30b63b0cc126efc0c4", "is_reserved": 0, "rental_uris": {"android": "https://dc.lft.to/lastmile_qr_scan", "ios": "https://dc.lft.to/lastmile_qr_scan"}, "fusion_lon": 0.0}, {"lat": 38.903737166666666, "is_disabled": 0, "type": "electric_scooter", "lon": -77.038516, "bike_id": "29068cc65717d27f0e5033a14f6adad0", "fusion_lat": 0.0, "name": "29068cc65717d27f0e5033a14f6adad0", "is_reserved": 0, "rental_uris": {"android": "https://dc.lft.to/lastmile_qr_scan", "ios": "https://dc.lft.to/lastmile_qr_scan"}, "fusion_lon": 0.0}, {"lat": 38.90993533333334, "is_disabled": 0, "type": "electric_scooter", "lon": -77.031816, "bike_id": "7c586fb1df6768de88f842f4ff01782e", "fusion_lat": 0.0, "name": "7c586fb1df6768de88f842f4ff01782e", "is_reserved": 0, "rental_uris": {"android": "https://dc.lft.to/lastmile_qr_scan", "ios": "https://dc.lft.to/lastmile_qr_scan"}, "fusion_lon": 0.0}, {"lat": 38.86257366666667, "is_disabled": 0, "type": "electric_scooter", "lon": -76.99518133333333, "bike_id": "1b8f6f911068d09e2657b9d10d617d51", "fusion_lat": 0.0, "name": "1b8f6f911068d09e2657b9d10d617d51", "is_reserved": 0, "rental_uris": {"android": "https://dc.lft.to/lastmile_qr_scan", "ios": "https://dc.lft.to/lastmile_qr_scan"}, "fusion_lon": 0.0}, {"lat": 38.937437333333335, "is_disabled": 0, "type": "electric_scooter", "lon": -77.03623783333333, "bike_id": "1315fad4fdf4ba9c4c6795b4c3f707b8", "fusion_lat": 0.0, "name": "1315fad4fdf4ba9c4c6795b4c3f707b8", "is_reserved": 0, "rental_uris": {"android": "https://dc.lft.to/lastmile_qr_scan", "ios": "https://dc.lft.to/lastmile_qr_scan"}, "fusion_lon": 0.0}, {"lat": 38.851888833333334, "is_disabled": 0, "type": "electric_scooter", "lon": -76.97620133333334, "bike_id": "402a81783f0e66a2f026403da3f277c9", "fusion_lat": 0.0, "name": "402a81783f0e66a2f026403da3f277c9", "is_reserved": 0, "rental_uris": {"android": "https://dc.lft.to/lastmile_qr_scan", "ios": "https://dc.lft.to/lastmile_qr_scan"}, "fusion_lon": 0.0}, {"lat": 38.89853333333333, "is_disabled": 0, "type": "electric_scooter", "lon": -76.99029883333333, "bike_id": "55f5a68bd34db99de36abedf35ad5a76", "fusion_lat": 0.0, "name": "55f5a68bd34db99de36abedf35ad5a76", "is_reserved": 0, "rental_uris": {"android": "https://dc.lft.to/lastmile_qr_scan", "ios": "https://dc.lft.to/lastmile_qr_scan"}, "fusion_lon": 0.0}, {"lat": 38.844356166666664, "is_disabled": 0, "type": "electric_scooter", "lon": -76.99660416666667, "bike_id": "d5177af27cf114398e8ab427b43fdf5c", "fusion_lat": 0.0, "name": "d5177af27cf114398e8ab427b43fdf5c", "is_reserved": 0, "rental_uris": {"android": "https://dc.lft.to/lastmile_qr_scan", "ios": "https://dc.lft.to/lastmile_qr_scan"}, "fusion_lon": 0.0}, {"lat": 38.925937, "is_disabled": 0, "type": "electric_scooter", "lon": -77.04409283333334, "bike_id": "7c3835ae67d720c2b1811ef4eaa9618e", "fusion_lat": 0.0, "name": "7c3835ae67d720c2b1811ef4eaa9618e", "is_reserved": 0, "rental_uris": {"android": "https://dc.lft.to/lastmile_qr_scan", "ios": "https://dc.lft.to/lastmile_qr_scan"}, "fusion_lon": 0.0}, {"lat": 38.90528166666667, "is_disabled": 0, "type": "electric_scooter", "lon": -77.05019416666667, "bike_id": "4805b75fa7222a627a1da0e30f422b48", "fusion_lat": 0.0, "name": "4805b75fa7222a627a1da0e30f422b48", "is_reserved": 0, "rental_uris": {"android": "https://dc.lft.to/lastmile_qr_scan", "ios": "https://dc.lft.to/lastmile_qr_scan"}, "fusion_lon": 0.0}, {"lat": 38.9095535, "is_disabled": 0, "type": "electric_scooter", "lon": -77.047939, "bike_id": "3e77fbf74da28f9e161d5758f1bb4c14", "fusion_lat": 0.0, "name": "3e77fbf74da28f9e161d5758f1bb4c14", "is_reserved": 0, "rental_uris": {"android": "https://dc.lft.to/lastmile_qr_scan", "ios": "https://dc.lft.to/lastmile_qr_scan"}, "fusion_lon": 0.0}, {"lat": 38.897294333333335, "is_disabled": 0, "type": "electric_scooter", "lon": -77.0498335, "bike_id": "bfb801b32f71caf809843183f56ba978", "fusion_lat": 0.0, "name": "bfb801b32f71caf809843183f56ba978", "is_reserved": 0, "rental_uris": {"android": "https://dc.lft.to/lastmile_qr_scan", "ios": "https://dc.lft.to/lastmile_qr_scan"}, "fusion_lon": 0.0}, {"lat": 38.900610666666665, "is_disabled": 0, "type": "electric_scooter", "lon": -77.04897433333333, "bike_id": "41ed4e486c63d2ba1112a25be6d8c07d", "fusion_lat": 0.0, "name": "41ed4e486c63d2ba1112a25be6d8c07d", "is_reserved": 0, "rental_uris": {"android": "https://dc.lft.to/lastmile_qr_scan", "ios": "https://dc.lft.to/lastmile_qr_scan"}, "fusion_lon": 0.0}, {"lat": 38.922442, "is_disabled": 0, "type": "electric_scooter", "lon": -77.04247016666666, "bike_id": "76231b4c76c619830e977cc4d3e750e5", "fusion_lat": 0.0, "name": "76231b4c76c619830e977cc4d3e750e5", "is_reserved": 0, "rental_uris": {"android": "https://dc.lft.to/lastmile_qr_scan", "ios": "https://dc.lft.to/lastmile_qr_scan"}, "fusion_lon": 0.0}, {"lat": 38.884948, "is_disabled": 0, "type": "electric_scooter", "lon": -77.00729116666666, "bike_id": "e4ab5a53af5318c9afa5c36af15dcb67", "fusion_lat": 0.0, "name": "e4ab5a53af5318c9afa5c36af15dcb67", "is_reserved": 0, "rental_uris": {"android": "https://dc.lft.to/lastmile_qr_scan", "ios": "https://dc.lft.to/lastmile_qr_scan"}, "fusion_lon": 0.0}, {"lat": 38.9155725, "is_disabled": 0, "type": "electric_scooter", "lon": -77.02428983333333, "bike_id": "dcfa886f697ef4273c4914c03d0fdda9", "fusion_lat": 0.0, "name": "dcfa886f697ef4273c4914c03d0fdda9", "is_reserved": 0, "rental_uris": {"android": "https://dc.lft.to/lastmile_qr_scan", "ios": "https://dc.lft.to/lastmile_qr_scan"}, "fusion_lon": 0.0}, {"lat": 38.933411166666666, "is_disabled": 0, "type": "electric_scooter", "lon": -76.993096, "bike_id": "6dd26f827a9631c0c07ed94d101f2d6c", "fusion_lat": 0.0, "name": "6dd26f827a9631c0c07ed94d101f2d6c", "is_reserved": 0, "rental_uris": {"android": "https://dc.lft.to/lastmile_qr_scan", "ios": "https://dc.lft.to/lastmile_qr_scan"}, "fusion_lon": 0.0}, {"lat": 38.900098166666666, "is_disabled": 0, "type": "electric_scooter", "lon": -76.92238616666667, "bike_id": "d18358de6995cfb23611bbde36cec6c5", "fusion_lat": 0.0, "name": "d18358de6995cfb23611bbde36cec6c5", "is_reserved": 0, "rental_uris": {"android": "https://dc.lft.to/lastmile_qr_scan", "ios": "https://dc.lft.to/lastmile_qr_scan"}, "fusion_lon": 0.0}, {"lat": 38.931475666666664, "is_disabled": 0, "type": "electric_scooter", "lon": -77.021531, "bike_id": "5c9564091de7ea0d8ad2c6a4b1352c26", "fusion_lat": 0.0, "name": "5c9564091de7ea0d8ad2c6a4b1352c26", "is_reserved": 0, "rental_uris": {"android": "https://dc.lft.to/lastmile_qr_scan", "ios": "https://dc.lft.to/lastmile_qr_scan"}, "fusion_lon": 0.0}, {"lat": 38.900711, "is_disabled": 0, "type": "electric_scooter", "lon": -77.0259635, "bike_id": "4a17f079ddf32ca95594e1ee4cb3a892", "fusion_lat": 0.0, "name": "4a17f079ddf32ca95594e1ee4cb3a892", "is_reserved": 0, "rental_uris": {"android": "https://dc.lft.to/lastmile_qr_scan", "ios": "https://dc.lft.to/lastmile_qr_scan"}, "fusion_lon": 0.0}, {"lat": 38.901122, "is_disabled": 0, "type": "electric_scooter", "lon": -76.986392, "bike_id": "ddb484e9dc72a5408966974fa59c69fe", "fusion_lat": 0.0, "name": "ddb484e9dc72a5408966974fa59c69fe", "is_reserved": 0, "rental_uris": {"android": "https://dc.lft.to/lastmile_qr_scan", "ios": "https://dc.lft.to/lastmile_qr_scan"}, "fusion_lon": 0.0}, {"lat": 38.91443866666667, "is_disabled": 0, "type": "electric_scooter", "lon": -77.02970083333334, "bike_id": "f147c9f7b392493e6ee1312e990422e9", "fusion_lat": 0.0, "name": "f147c9f7b392493e6ee1312e990422e9", "is_reserved": 0, "rental_uris": {"android": "https://dc.lft.to/lastmile_qr_scan", "ios": "https://dc.lft.to/lastmile_qr_scan"}, "fusion_lon": 0.0}, {"lat": 38.902439666666666, "is_disabled": 0, "type": "electric_scooter", "lon": -77.02815083333333, "bike_id": "7266a9d15786d8ddd8956c1ec749b2c8", "fusion_lat": 0.0, "name": "7266a9d15786d8ddd8956c1ec749b2c8", "is_reserved": 0, "rental_uris": {"android": "https://dc.lft.to/lastmile_qr_scan", "ios": "https://dc.lft.to/lastmile_qr_scan"}, "fusion_lon": 0.0}, {"lat": 38.89352016666667, "is_disabled": 0, "type": "electric_scooter", "lon": -77.03988633333333, "bike_id": "5e53a4769104ce4b6300bf7ddb0821e6", "fusion_lat": 0.0, "name": "5e53a4769104ce4b6300bf7ddb0821e6", "is_reserved": 0, "rental_uris": {"android": "https://dc.lft.to/lastmile_qr_scan", "ios": "https://dc.lft.to/lastmile_qr_scan"}, "fusion_lon": 0.0}, {"lat": 38.93201033333333, "is_disabled": 0, "type": "electric_scooter", "lon": -77.02354683333333, "bike_id": "7e631d948a08fd3bd722c7cf6c51bb81", "fusion_lat": 0.0, "name": "7e631d948a08fd3bd722c7cf6c51bb81", "is_reserved": 0, "rental_uris": {"android": "https://dc.lft.to/lastmile_qr_scan", "ios": "https://dc.lft.to/lastmile_qr_scan"}, "fusion_lon": 0.0}, {"lat": 38.903997, "is_disabled": 0, "type": "electric_scooter", "lon": -76.984674, "bike_id": "f61783dfcccb3542bc4de693d31404ad", "fusion_lat": 0.0, "name": "f61783dfcccb3542bc4de693d31404ad", "is_reserved": 0, "rental_uris": {"android": "https://dc.lft.to/lastmile_qr_scan", "ios": "https://dc.lft.to/lastmile_qr_scan"}, "fusion_lon": 0.0}, {"lat": 38.88693966666666, "is_disabled": 0, "type": "electric_scooter", "lon": -77.01766466666666, "bike_id": "54493119481c139b6c6a748baec25cef", "fusion_lat": 0.0, "name": "54493119481c139b6c6a748baec25cef", "is_reserved": 0, "rental_uris": {"android": "https://dc.lft.to/lastmile_qr_scan", "ios": "https://dc.lft.to/lastmile_qr_scan"}, "fusion_lon": 0.0}, {"lat": 38.8999585, "is_disabled": 0, "type": "electric_scooter", "lon": -77.02327733333334, "bike_id": "f197e98f5310cc9ddfc831560f519642", "fusion_lat": 0.0, "name": "f197e98f5310cc9ddfc831560f519642", "is_reserved": 0, "rental_uris": {"android": "https://dc.lft.to/lastmile_qr_scan", "ios": "https://dc.lft.to/lastmile_qr_scan"}, "fusion_lon": 0.0}, {"lat": 38.8950105, "is_disabled": 0, "type": "electric_scooter", "lon": -77.00211583333333, "bike_id": "f38d192f1b623e70e979aa7ecf94f5e5", "fusion_lat": 0.0, "name": "f38d192f1b623e70e979aa7ecf94f5e5", "is_reserved": 0, "rental_uris": {"android": "https://dc.lft.to/lastmile_qr_scan", "ios": "https://dc.lft.to/lastmile_qr_scan"}, "fusion_lon": 0.0}, {"lat": 38.89841333333333, "is_disabled": 0, "type": "electric_scooter", "lon": -76.99502616666666, "bike_id": "bd9bf90ccdc2c214837a41201a9572c3", "fusion_lat": 0.0, "name": "bd9bf90ccdc2c214837a41201a9572c3", "is_reserved": 0, "rental_uris": {"android": "https://dc.lft.to/lastmile_qr_scan", "ios": "https://dc.lft.to/lastmile_qr_scan"}, "fusion_lon": 0.0}, {"lat": 38.9020465, "is_disabled": 0, "type": "electric_scooter", "lon": -77.02320233333333, "bike_id": "1f9519c2bf95547b985fc15d811be711", "fusion_lat": 0.0, "name": "1f9519c2bf95547b985fc15d811be711", "is_reserved": 0, "rental_uris": {"android": "https://dc.lft.to/lastmile_qr_scan", "ios": "https://dc.lft.to/lastmile_qr_scan"}, "fusion_lon": 0.0}, {"lat": 38.96223466666667, "is_disabled": 0, "type": "electric_bike", "lon": -77.026252, "bike_id": "3e3ebd15f00b79b4848d0237a09dde74", "fusion_lat": 0.0, "name": "3e3ebd15f00b79b4848d0237a09dde74", "is_reserved": 0, "rental_uris": {"android": "https://dc.lft.to/lastmile_qr_scan", "ios": "https://dc.lft.to/lastmile_qr_scan"}, "fusion_lon": 0.0}, {"lat": 38.892276, "is_disabled": 0, "type": "electric_bike", "lon": -77.10781866666666, "bike_id": "27d2ea84c3a1ff0c7dd8f89ab30ff143", "fusion_lat": 0.0, "name": "27d2ea84c3a1ff0c7dd8f89ab30ff143", "is_reserved": 0, "rental_uris": {"android": "https://dc.lft.to/lastmile_qr_scan", "ios": "https://dc.lft.to/lastmile_qr_scan"}, "fusion_lon": 0.0}, {"lat": 38.9224535, "is_disabled": 0, "type": "electric_scooter", "lon": -77.04343316666667, "bike_id": "a5daa60998c8fddd3426b89362d9ad9c", "fusion_lat": 0.0, "name": "a5daa60998c8fddd3426b89362d9ad9c", "is_reserved": 0, "rental_uris": {"android": "https://dc.lft.to/lastmile_qr_scan", "ios": "https://dc.lft.to/lastmile_qr_scan"}, "fusion_lon": 0.0}, {"lat": 38.908566666666665, "is_disabled": 0, "type": "electric_scooter", "lon": -77.00371966666667, "bike_id": "88748fe10f6d45940ccdce76afcfaec4", "fusion_lat": 0.0, "name": "88748fe10f6d45940ccdce76afcfaec4", "is_reserved": 0, "rental_uris": {"android": "https://dc.lft.to/lastmile_qr_scan", "ios": "https://dc.lft.to/lastmile_qr_scan"}, "fusion_lon": 0.0}, {"lat": 38.92826633333333, "is_disabled": 0, "type": "electric_scooter", "lon": -77.02623133333333, "bike_id": "33646975678d17a31546de6cae85ef33", "fusion_lat": 0.0, "name": "33646975678d17a31546de6cae85ef33", "is_reserved": 0, "rental_uris": {"android": "https://dc.lft.to/lastmile_qr_scan", "ios": "https://dc.lft.to/lastmile_qr_scan"}, "fusion_lon": 0.0}, {"lat": 38.95288, "is_disabled": 0, "type": "electric_bike", "lon": -76.94599566666666, "bike_id": "1c8a28e0d11fa4d6d7098d13b39e30ef", "fusion_lat": 0.0, "name": "1c8a28e0d11fa4d6d7098d13b39e30ef", "is_reserved": 0, "rental_uris": {"android": "https://dc.lft.to/lastmile_qr_scan", "ios": "https://dc.lft.to/lastmile_qr_scan"}, "fusion_lon": 0.0}, {"lat": 38.90274566666667, "is_disabled": 0, "type": "electric_scooter", "lon": -77.0385495, "bike_id": "d2bd460581eb4cd4255973ae34cb4b56", "fusion_lat": 0.0, "name": "d2bd460581eb4cd4255973ae34cb4b56", "is_reserved": 0, "rental_uris": {"android": "https://dc.lft.to/lastmile_qr_scan", "ios": "https://dc.lft.to/lastmile_qr_scan"}, "fusion_lon": 0.0}, {"lat": 38.9035745, "is_disabled": 0, "type": "electric_scooter", "lon": -77.0448925, "bike_id": "405cadb7e3b7695f69cbb20f86e419bf", "fusion_lat": 0.0, "name": "405cadb7e3b7695f69cbb20f86e419bf", "is_reserved": 0, "rental_uris": {"android": "https://dc.lft.to/lastmile_qr_scan", "ios": "https://dc.lft.to/lastmile_qr_scan"}, "fusion_lon": 0.0}, {"lat": 38.90516733333333, "is_disabled": 0, "type": "electric_scooter", "lon": -77.0491355, "bike_id": "e8f10593176c92128f9c5ab8869edd84", "fusion_lat": 0.0, "name": "e8f10593176c92128f9c5ab8869edd84", "is_reserved": 0, "rental_uris": {"android": "https://dc.lft.to/lastmile_qr_scan", "ios": "https://dc.lft.to/lastmile_qr_scan"}, "fusion_lon": 0.0}, {"lat": 38.98423666666667, "is_disabled": 0, "type": "electric_bike", "lon": -76.952004, "bike_id": "b46f46eada8f53f98b71889d79c5e259", "fusion_lat": 0.0, "name": "b46f46eada8f53f98b71889d79c5e259", "is_reserved": 0, "rental_uris": {"android": "https://dc.lft.to/lastmile_qr_scan", "ios": "https://dc.lft.to/lastmile_qr_scan"}, "fusion_lon": 0.0}, {"lat": 38.91703433333333, "is_disabled": 0, "type": "electric_scooter", "lon": -77.00118333333333, "bike_id": "974980e4d697a35369d63e78cc1077dd", "fusion_lat": 0.0, "name": "974980e4d697a35369d63e78cc1077dd", "is_reserved": 0, "rental_uris": {"android": "https://dc.lft.to/lastmile_qr_scan", "ios": "https://dc.lft.to/lastmile_qr_scan"}, "fusion_lon": 0.0}, {"lat": 38.939601833333334, "is_disabled": 0, "type": "electric_bike", "lon": -77.36098483333333, "bike_id": "48309ee8c323f8d3cd9a5b492e737279", "fusion_lat": 0.0, "name": "48309ee8c323f8d3cd9a5b492e737279", "is_reserved": 0, "rental_uris": {"android": "https://dc.lft.to/lastmile_qr_scan", "ios": "https://dc.lft.to/lastmile_qr_scan"}, "fusion_lon": 0.0}, {"lat": 38.884972, "is_disabled": 0, "type": "electric_scooter", "lon": -77.00728433333333, "bike_id": "d8c4cf4ae1c850a6627b4f3e2b0159c1", "fusion_lat": 0.0, "name": "d8c4cf4ae1c850a6627b4f3e2b0159c1", "is_reserved": 0, "rental_uris": {"android": "https://dc.lft.to/lastmile_qr_scan", "ios": "https://dc.lft.to/lastmile_qr_scan"}, "fusion_lon": 0.0}, {"lat": 38.895588833333335, "is_disabled": 0, "type": "electric_scooter", "lon": -76.9308, "bike_id": "78b9debe556e20ab3e6135c328d1a2b0", "fusion_lat": 0.0, "name": "78b9debe556e20ab3e6135c328d1a2b0", "is_reserved": 0, "rental_uris": {"android": "https://dc.lft.to/lastmile_qr_scan", "ios": "https://dc.lft.to/lastmile_qr_scan"}, "fusion_lon": 0.0}, {"lat": 38.9227315, "is_disabled": 0, "type": "electric_scooter", "lon": -77.04146066666667, "bike_id": "8daf9ce6d69afd0370db8d27ef3a86ea", "fusion_lat": 0.0, "name": "8daf9ce6d69afd0370db8d27ef3a86ea", "is_reserved": 0, "rental_uris": {"android": "https://dc.lft.to/lastmile_qr_scan", "ios": "https://dc.lft.to/lastmile_qr_scan"}, "fusion_lon": 0.0}, {"lat": 38.90264716666667, "is_disabled": 0, "type": "electric_scooter", "lon": -77.00326166666666, "bike_id": "101b690e3b8d6bf1bd104246b309c014", "fusion_lat": 0.0, "name": "101b690e3b8d6bf1bd104246b309c014", "is_reserved": 0, "rental_uris": {"android": "https://dc.lft.to/lastmile_qr_scan", "ios": "https://dc.lft.to/lastmile_qr_scan"}, "fusion_lon": 0.0}, {"lat": 38.9335965, "is_disabled": 0, "type": "electric_bike", "lon": -77.09965666666666, "bike_id": "369691922bad715fcb61d5321ac54a6e", "fusion_lat": 0.0, "name": "369691922bad715fcb61d5321ac54a6e", "is_reserved": 0, "rental_uris": {"android": "https://dc.lft.to/lastmile_qr_scan", "ios": "https://dc.lft.to/lastmile_qr_scan"}, "fusion_lon": 0.0}, {"lat": 38.90251333333333, "is_disabled": 0, "type": "electric_scooter", "lon": -77.0395585, "bike_id": "67ac4971959a46237df151e2b6fc8e0c", "fusion_lat": 0.0, "name": "67ac4971959a46237df151e2b6fc8e0c", "is_reserved": 0, "rental_uris": {"android": "https://dc.lft.to/lastmile_qr_scan", "ios": "https://dc.lft.to/lastmile_qr_scan"}, "fusion_lon": 0.0}, {"lat": 38.958246333333335, "is_disabled": 0, "type": "electric_bike", "lon": -76.9409045, "bike_id": "ca3c0552255e82a62f6c4bc6135d9974", "fusion_lat": 0.0, "name": "ca3c0552255e82a62f6c4bc6135d9974", "is_reserved": 0, "rental_uris": {"android": "https://dc.lft.to/lastmile_qr_scan", "ios": "https://dc.lft.to/lastmile_qr_scan"}, "fusion_lon": 0.0}, {"lat": 38.90354216666667, "is_disabled": 0, "type": "electric_scooter", "lon": -77.04500733333333, "bike_id": "873355b9167c7b2bbce77e6076f1ad97", "fusion_lat": 0.0, "name": "873355b9167c7b2bbce77e6076f1ad97", "is_reserved": 0, "rental_uris": {"android": "https://dc.lft.to/lastmile_qr_scan", "ios": "https://dc.lft.to/lastmile_qr_scan"}, "fusion_lon": 0.0}, {"lat": 38.905242, "is_disabled": 0, "type": "electric_scooter", "lon": -77.06469066666666, "bike_id": "dcc1bb46a67a960d05436121d3b561e1", "fusion_lat": 0.0, "name": "dcc1bb46a67a960d05436121d3b561e1", "is_reserved": 0, "rental_uris": {"android": "https://dc.lft.to/lastmile_qr_scan", "ios": "https://dc.lft.to/lastmile_qr_scan"}, "fusion_lon": 0.0}, {"lat": 38.91124683333334, "is_disabled": 0, "type": "electric_scooter", "lon": -77.03209766666667, "bike_id": "1705a40291ab2d5a414ec727dc0f18ec", "fusion_lat": 0.0, "name": "1705a40291ab2d5a414ec727dc0f18ec", "is_reserved": 0, "rental_uris": {"android": "https://dc.lft.to/lastmile_qr_scan", "ios": "https://dc.lft.to/lastmile_qr_scan"}, "fusion_lon": 0.0}, {"lat": 38.95169933333333, "is_disabled": 0, "type": "electric_bike", "lon": -76.96889183333333, "bike_id": "93bdf0a5cfefbd80169ea39c28618e33", "fusion_lat": 0.0, "name": "93bdf0a5cfefbd80169ea39c28618e33", "is_reserved": 0, "rental_uris": {"android": "https://dc.lft.to/lastmile_qr_scan", "ios": "https://dc.lft.to/lastmile_qr_scan"}, "fusion_lon": 0.0}, {"lat": 38.9192015, "is_disabled": 0, "type": "electric_scooter", "lon": -77.03370016666666, "bike_id": "f0fb06d1b8abc18c20a1a069ba98a684", "fusion_lat": 0.0, "name": "f0fb06d1b8abc18c20a1a069ba98a684", "is_reserved": 0, "rental_uris": {"android": "https://dc.lft.to/lastmile_qr_scan", "ios": "https://dc.lft.to/lastmile_qr_scan"}, "fusion_lon": 0.0}, {"lat": 38.91874083333333, "is_disabled": 0, "type": "electric_scooter", "lon": -77.012065, "bike_id": "72332efe05156b43d20e64f1a8fcc7c4", "fusion_lat": 0.0, "name": "72332efe05156b43d20e64f1a8fcc7c4", "is_reserved": 0, "rental_uris": {"android": "https://dc.lft.to/lastmile_qr_scan", "ios": "https://dc.lft.to/lastmile_qr_scan"}, "fusion_lon": 0.0}, {"lat": 38.928604666666665, "is_disabled": 0, "type": "electric_scooter", "lon": -77.01395433333333, "bike_id": "899e428c1fd63054279b2e7938400731", "fusion_lat": 0.0, "name": "899e428c1fd63054279b2e7938400731", "is_reserved": 0, "rental_uris": {"android": "https://dc.lft.to/lastmile_qr_scan", "ios": "https://dc.lft.to/lastmile_qr_scan"}, "fusion_lon": 0.0}, {"lat": 38.900711, "is_disabled": 0, "type": "electric_scooter", "lon": -77.002089, "bike_id": "037149e3cd0ec7313d9f0289c0950839", "fusion_lat": 0.0, "name": "037149e3cd0ec7313d9f0289c0950839", "is_reserved": 0, "rental_uris": {"android": "https://dc.lft.to/lastmile_qr_scan", "ios": "https://dc.lft.to/lastmile_qr_scan"}, "fusion_lon": 0.0}, {"lat": 38.890114, "is_disabled": 0, "type": "electric_scooter", "lon": -77.00060166666667, "bike_id": "5a71a744888fb394ae22a97fa196fbf8", "fusion_lat": 0.0, "name": "5a71a744888fb394ae22a97fa196fbf8", "is_reserved": 0, "rental_uris": {"android": "https://dc.lft.to/lastmile_qr_scan", "ios": "https://dc.lft.to/lastmile_qr_scan"}, "fusion_lon": 0.0}, {"lat": 38.813467833333334, "is_disabled": 0, "type": "electric_bike", "lon": -77.04923733333334, "bike_id": "6b040cfe3771159eb6341361c2b8e5c9", "fusion_lat": 0.0, "name": "6b040cfe3771159eb6341361c2b8e5c9", "is_reserved": 0, "rental_uris": {"android": "https://dc.lft.to/lastmile_qr_scan", "ios": "https://dc.lft.to/lastmile_qr_scan"}, "fusion_lon": 0.0}, {"lat": 38.89757866666667, "is_disabled": 0, "type": "electric_scooter", "lon": -76.9418635, "bike_id": "e25ac9e78c100c8a94fb6baa83ad0fd8", "fusion_lat": 0.0, "name": "e25ac9e78c100c8a94fb6baa83ad0fd8", "is_reserved": 0, "rental_uris": {"android": "https://dc.lft.to/lastmile_qr_scan", "ios": "https://dc.lft.to/lastmile_qr_scan"}, "fusion_lon": 0.0}, {"lat": 38.9053795, "is_disabled": 0, "type": "electric_scooter", "lon": -77.05679766666667, "bike_id": "d7d5660b564f9ccf98feef6a786e7301", "fusion_lat": 0.0, "name": "d7d5660b564f9ccf98feef6a786e7301", "is_reserved": 0, "rental_uris": {"android": "https://dc.lft.to/lastmile_qr_scan", "ios": "https://dc.lft.to/lastmile_qr_scan"}, "fusion_lon": 0.0}, {"lat": 38.902709, "is_disabled": 0, "type": "electric_scooter", "lon": -77.03649883333334, "bike_id": "1d2ed90da7515df66d8e7c1b1d58a578", "fusion_lat": 0.0, "name": "1d2ed90da7515df66d8e7c1b1d58a578", "is_reserved": 0, "rental_uris": {"android": "https://dc.lft.to/lastmile_qr_scan", "ios": "https://dc.lft.to/lastmile_qr_scan"}, "fusion_lon": 0.0}, {"lat": 38.907268, "is_disabled": 0, "type": "electric_scooter", "lon": -77.043476, "bike_id": "854b7517d512e20856ca65bafb221c77", "fusion_lat": 0.0, "name": "854b7517d512e20856ca65bafb221c77", "is_reserved": 0, "rental_uris": {"android": "https://dc.lft.to/lastmile_qr_scan", "ios": "https://dc.lft.to/lastmile_qr_scan"}, "fusion_lon": 0.0}, {"lat": 38.92229716666667, "is_disabled": 0, "type": "electric_scooter", "lon": -77.04344733333333, "bike_id": "78d70f2da28686b9f441ed3e3f00bcc8", "fusion_lat": 0.0, "name": "78d70f2da28686b9f441ed3e3f00bcc8", "is_reserved": 0, "rental_uris": {"android": "https://dc.lft.to/lastmile_qr_scan", "ios": "https://dc.lft.to/lastmile_qr_scan"}, "fusion_lon": 0.0}, {"lat": 38.9149225, "is_disabled": 0, "type": "electric_scooter", "lon": -77.01377416666666, "bike_id": "d6044c7f86409a4c008b21d5a2466f29", "fusion_lat": 0.0, "name": "d6044c7f86409a4c008b21d5a2466f29", "is_reserved": 0, "rental_uris": {"android": "https://dc.lft.to/lastmile_qr_scan", "ios": "https://dc.lft.to/lastmile_qr_scan"}, "fusion_lon": 0.0}, {"lat": 38.91788783333333, "is_disabled": 0, "type": "electric_scooter", "lon": -77.02315233333333, "bike_id": "27461e61d1d2bd2393812d82252152dd", "fusion_lat": 0.0, "name": "27461e61d1d2bd2393812d82252152dd", "is_reserved": 0, "rental_uris": {"android": "https://dc.lft.to/lastmile_qr_scan", "ios": "https://dc.lft.to/lastmile_qr_scan"}, "fusion_lon": 0.0}, {"lat": 38.855161, "is_disabled": 0, "type": "electric_bike", "lon": -76.9843, "bike_id": "f702bd21ff94eb22fbf905a368ba3dce", "fusion_lat": 0.0, "name": "f702bd21ff94eb22fbf905a368ba3dce", "is_reserved": 0, "rental_uris": {"android": "https://dc.lft.to/lastmile_qr_scan", "ios": "https://dc.lft.to/lastmile_qr_scan"}, "fusion_lon": 0.0}, {"lat": 38.90719833333333, "is_disabled": 0, "type": "electric_scooter", "lon": -77.0434845, "bike_id": "e7c5ad0d2998c9f1f9644364dedd8df9", "fusion_lat": 0.0, "name": "e7c5ad0d2998c9f1f9644364dedd8df9", "is_reserved": 0, "rental_uris": {"android": "https://dc.lft.to/lastmile_qr_scan", "ios": "https://dc.lft.to/lastmile_qr_scan"}, "fusion_lon": 0.0}, {"lat": 38.92383266666667, "is_disabled": 0, "type": "electric_scooter", "lon": -77.03058, "bike_id": "c95f9c2908ee09c48d5f3b61b54a8d69", "fusion_lat": 0.0, "name": "c95f9c2908ee09c48d5f3b61b54a8d69", "is_reserved": 0, "rental_uris": {"android": "https://dc.lft.to/lastmile_qr_scan", "ios": "https://dc.lft.to/lastmile_qr_scan"}, "fusion_lon": 0.0}, {"lat": 38.91108416666667, "is_disabled": 0, "type": "electric_scooter", "lon": -77.04815433333333, "bike_id": "ef8f29b9cf1e07dceb9a1980f9ce96a4", "fusion_lat": 0.0, "name": "ef8f29b9cf1e07dceb9a1980f9ce96a4", "is_reserved": 0, "rental_uris": {"android": "https://dc.lft.to/lastmile_qr_scan", "ios": "https://dc.lft.to/lastmile_qr_scan"}, "fusion_lon": 0.0}, {"lat": 38.915458666666666, "is_disabled": 0, "type": "electric_scooter", "lon": -77.03204566666666, "bike_id": "565e8e6679080d041f56a37303e62954", "fusion_lat": 0.0, "name": "565e8e6679080d041f56a37303e62954", "is_reserved": 0, "rental_uris": {"android": "https://dc.lft.to/lastmile_qr_scan", "ios": "https://dc.lft.to/lastmile_qr_scan"}, "fusion_lon": 0.0}, {"lat": 38.89557383333333, "is_disabled": 0, "type": "electric_scooter", "lon": -76.93367833333333, "bike_id": "1ed28a4e2a6a95740f9dd5d08e1c23e1", "fusion_lat": 0.0, "name": "1ed28a4e2a6a95740f9dd5d08e1c23e1", "is_reserved": 0, "rental_uris": {"android": "https://dc.lft.to/lastmile_qr_scan", "ios": "https://dc.lft.to/lastmile_qr_scan"}, "fusion_lon": 0.0}, {"lat": 38.93534016666667, "is_disabled": 0, "type": "electric_scooter", "lon": -77.02366366666666, "bike_id": "c0119787e10189d3c66b25aab713d144", "fusion_lat": 0.0, "name": "c0119787e10189d3c66b25aab713d144", "is_reserved": 0, "rental_uris": {"android": "https://dc.lft.to/lastmile_qr_scan", "ios": "https://dc.lft.to/lastmile_qr_scan"}, "fusion_lon": 0.0}, {"lat": 38.92664083333333, "is_disabled": 0, "type": "electric_scooter", "lon": -77.05598566666667, "bike_id": "9567034a73595cddb0c02b7e537f47e5", "fusion_lat": 0.0, "name": "9567034a73595cddb0c02b7e537f47e5", "is_reserved": 0, "rental_uris": {"android": "https://dc.lft.to/lastmile_qr_scan", "ios": "https://dc.lft.to/lastmile_qr_scan"}, "fusion_lon": 0.0}, {"lat": 38.8923375, "is_disabled": 0, "type": "electric_scooter", "lon": -77.05008116666667, "bike_id": "aaa44ca3eff2b25c047a61503937f49d", "fusion_lat": 0.0, "name": "aaa44ca3eff2b25c047a61503937f49d", "is_reserved": 0, "rental_uris": {"android": "https://dc.lft.to/lastmile_qr_scan", "ios": "https://dc.lft.to/lastmile_qr_scan"}, "fusion_lon": 0.0}, {"lat": 38.92603866666666, "is_disabled": 0, "type": "electric_scooter", "lon": -77.02490533333334, "bike_id": "5599cc42e2a270764fa6ae21f4f6a1ef", "fusion_lat": 0.0, "name": "5599cc42e2a270764fa6ae21f4f6a1ef", "is_reserved": 0, "rental_uris": {"android": "https://dc.lft.to/lastmile_qr_scan", "ios": "https://dc.lft.to/lastmile_qr_scan"}, "fusion_lon": 0.0}, {"lat": 38.89638433333333, "is_disabled": 0, "type": "electric_scooter", "lon": -77.04512633333333, "bike_id": "ded47b357b698faa456e5133c3554272", "fusion_lat": 0.0, "name": "ded47b357b698faa456e5133c3554272", "is_reserved": 0, "rental_uris": {"android": "https://dc.lft.to/lastmile_qr_scan", "ios": "https://dc.lft.to/lastmile_qr_scan"}, "fusion_lon": 0.0}, {"lat": 38.87473283333333, "is_disabled": 0, "type": "electric_scooter", "lon": -77.00521616666667, "bike_id": "a58c3277b91ba56254fab42f24e2a5a6", "fusion_lat": 0.0, "name": "a58c3277b91ba56254fab42f24e2a5a6", "is_reserved": 0, "rental_uris": {"android": "https://dc.lft.to/lastmile_qr_scan", "ios": "https://dc.lft.to/lastmile_qr_scan"}, "fusion_lon": 0.0}, {"lat": 38.96075283333333, "is_disabled": 0, "type": "electric_scooter", "lon": -77.0730005, "bike_id": "2758877bed9da75a5b9737c17d84beab", "fusion_lat": 0.0, "name": "2758877bed9da75a5b9737c17d84beab", "is_reserved": 0, "rental_uris": {"android": "https://dc.lft.to/lastmile_qr_scan", "ios": "https://dc.lft.to/lastmile_qr_scan"}, "fusion_lon": 0.0}, {"lat": 38.89222916666667, "is_disabled": 0, "type": "electric_scooter", "lon": -76.98077766666667, "bike_id": "0ef09ae41e90ac608f5dd10bab84c4fd", "fusion_lat": 0.0, "name": "0ef09ae41e90ac608f5dd10bab84c4fd", "is_reserved": 0, "rental_uris": {"android": "https://dc.lft.to/lastmile_qr_scan", "ios": "https://dc.lft.to/lastmile_qr_scan"}, "fusion_lon": 0.0}, {"lat": 38.90066383333333, "is_disabled": 0, "type": "electric_scooter", "lon": -77.04536766666666, "bike_id": "2666eb985d25614a7160c7bd7427c3cd", "fusion_lat": 0.0, "name": "2666eb985d25614a7160c7bd7427c3cd", "is_reserved": 0, "rental_uris": {"android": "https://dc.lft.to/lastmile_qr_scan", "ios": "https://dc.lft.to/lastmile_qr_scan"}, "fusion_lon": 0.0}, {"lat": 38.913416833333336, "is_disabled": 0, "type": "electric_scooter", "lon": -77.042851, "bike_id": "8184107f4b68f8b6016dca10157d2bbe", "fusion_lat": 0.0, "name": "8184107f4b68f8b6016dca10157d2bbe", "is_reserved": 0, "rental_uris": {"android": "https://dc.lft.to/lastmile_qr_scan", "ios": "https://dc.lft.to/lastmile_qr_scan"}, "fusion_lon": 0.0}, {"lat": 38.9148455, "is_disabled": 0, "type": "electric_scooter", "lon": -77.03235466666666, "bike_id": "4a772f3ee8f1a1e0d8cdc92350ad6c49", "fusion_lat": 0.0, "name": "4a772f3ee8f1a1e0d8cdc92350ad6c49", "is_reserved": 0, "rental_uris": {"android": "https://dc.lft.to/lastmile_qr_scan", "ios": "https://dc.lft.to/lastmile_qr_scan"}, "fusion_lon": 0.0}, {"lat": 38.92858716666667, "is_disabled": 0, "type": "electric_scooter", "lon": -77.03002066666667, "bike_id": "04a7be031086a9ef700e3095ae1a0af7", "fusion_lat": 0.0, "name": "04a7be031086a9ef700e3095ae1a0af7", "is_reserved": 0, "rental_uris": {"android": "https://dc.lft.to/lastmile_qr_scan", "ios": "https://dc.lft.to/lastmile_qr_scan"}, "fusion_lon": 0.0}, {"lat": 38.8767735, "is_disabled": 0, "type": "electric_bike", "lon": -77.0145165, "bike_id": "5bf1c364dcd553fd4c34f83a7eb0463e", "fusion_lat": 0.0, "name": "5bf1c364dcd553fd4c34f83a7eb0463e", "is_reserved": 0, "rental_uris": {"android": "https://dc.lft.to/lastmile_qr_scan", "ios": "https://dc.lft.to/lastmile_qr_scan"}, "fusion_lon": 0.0}, {"lat": 38.911153, "is_disabled": 0, "type": "electric_scooter", "lon": -77.03732383333333, "bike_id": "7eff3323b352ac4e24eba15919a2fb2c", "fusion_lat": 0.0, "name": "7eff3323b352ac4e24eba15919a2fb2c", "is_reserved": 0, "rental_uris": {"android": "https://dc.lft.to/lastmile_qr_scan", "ios": "https://dc.lft.to/lastmile_qr_scan"}, "fusion_lon": 0.0}, {"lat": 38.841111166666664, "is_disabled": 0, "type": "electric_bike", "lon": -77.08941166666666, "bike_id": "b430c326b44ce192a3687d91f8142830", "fusion_lat": 0.0, "name": "b430c326b44ce192a3687d91f8142830", "is_reserved": 0, "rental_uris": {"android": "https://dc.lft.to/lastmile_qr_scan", "ios": "https://dc.lft.to/lastmile_qr_scan"}, "fusion_lon": 0.0}, {"lat": 38.92682083333333, "is_disabled": 0, "type": "electric_scooter", "lon": -77.02858433333333, "bike_id": "a68f555ed14fcf89eb23c40b4781d28b", "fusion_lat": 0.0, "name": "a68f555ed14fcf89eb23c40b4781d28b", "is_reserved": 0, "rental_uris": {"android": "https://dc.lft.to/lastmile_qr_scan", "ios": "https://dc.lft.to/lastmile_qr_scan"}, "fusion_lon": 0.0}, {"lat": 38.911299666666665, "is_disabled": 0, "type": "electric_scooter", "lon": -77.043491, "bike_id": "7123b8854fc7fe77a8872bbcd1f22a3a", "fusion_lat": 0.0, "name": "7123b8854fc7fe77a8872bbcd1f22a3a", "is_reserved": 0, "rental_uris": {"android": "https://dc.lft.to/lastmile_qr_scan", "ios": "https://dc.lft.to/lastmile_qr_scan"}, "fusion_lon": 0.0}, {"lat": 38.91296116666667, "is_disabled": 0, "type": "electric_scooter", "lon": -77.04018116666667, "bike_id": "cc0130e0c232fe17a71d3b0523a39024", "fusion_lat": 0.0, "name": "cc0130e0c232fe17a71d3b0523a39024", "is_reserved": 0, "rental_uris": {"android": "https://dc.lft.to/lastmile_qr_scan", "ios": "https://dc.lft.to/lastmile_qr_scan"}, "fusion_lon": 0.0}, {"lat": 38.97089233333333, "is_disabled": 0, "type": "electric_bike", "lon": -77.06965433333333, "bike_id": "68d5382d922631dfa3a39ce9b715e560", "fusion_lat": 0.0, "name": "68d5382d922631dfa3a39ce9b715e560", "is_reserved": 0, "rental_uris": {"android": "https://dc.lft.to/lastmile_qr_scan", "ios": "https://dc.lft.to/lastmile_qr_scan"}, "fusion_lon": 0.0}, {"lat": 38.90737166666667, "is_disabled": 0, "type": "electric_scooter", "lon": -77.04331483333333, "bike_id": "93cc1250acd4aab95243f8ef05bd2b45", "fusion_lat": 0.0, "name": "93cc1250acd4aab95243f8ef05bd2b45", "is_reserved": 0, "rental_uris": {"android": "https://dc.lft.to/lastmile_qr_scan", "ios": "https://dc.lft.to/lastmile_qr_scan"}, "fusion_lon": 0.0}, {"lat": 38.8922265, "is_disabled": 0, "type": "electric_scooter", "lon": -77.02628433333334, "bike_id": "f1a3fa33cdc69a7b73e6bb865b45484d", "fusion_lat": 0.0, "name": "f1a3fa33cdc69a7b73e6bb865b45484d", "is_reserved": 0, "rental_uris": {"android": "https://dc.lft.to/lastmile_qr_scan", "ios": "https://dc.lft.to/lastmile_qr_scan"}, "fusion_lon": 0.0}, {"lat": 38.920038, "is_disabled": 0, "type": "electric_scooter", "lon": -77.02387466666667, "bike_id": "ef89c4481e29451783bbca6033e03d78", "fusion_lat": 0.0, "name": "ef89c4481e29451783bbca6033e03d78", "is_reserved": 0, "rental_uris": {"android": "https://dc.lft.to/lastmile_qr_scan", "ios": "https://dc.lft.to/lastmile_qr_scan"}, "fusion_lon": 0.0}, {"lat": 38.918165, "is_disabled": 0, "type": "electric_scooter", "lon": -77.0452815, "bike_id": "b7bb69376f755ea46a36fb2c5117359a", "fusion_lat": 0.0, "name": "b7bb69376f755ea46a36fb2c5117359a", "is_reserved": 0, "rental_uris": {"android": "https://dc.lft.to/lastmile_qr_scan", "ios": "https://dc.lft.to/lastmile_qr_scan"}, "fusion_lon": 0.0}, {"lat": 38.903559333333334, "is_disabled": 0, "type": "electric_scooter", "lon": -77.03647133333334, "bike_id": "a84720513a4eb882f948ddfe163c6635", "fusion_lat": 0.0, "name": "a84720513a4eb882f948ddfe163c6635", "is_reserved": 0, "rental_uris": {"android": "https://dc.lft.to/lastmile_qr_scan", "ios": "https://dc.lft.to/lastmile_qr_scan"}, "fusion_lon": 0.0}, {"lat": 38.87296633333333, "is_disabled": 0, "type": "electric_scooter", "lon": -77.009217, "bike_id": "284c3d0b12e65b81a34419ca2aeb2225", "fusion_lat": 0.0, "name": "284c3d0b12e65b81a34419ca2aeb2225", "is_reserved": 0, "rental_uris": {"android": "https://dc.lft.to/lastmile_qr_scan", "ios": "https://dc.lft.to/lastmile_qr_scan"}, "fusion_lon": 0.0}, {"lat": 38.93293416666667, "is_disabled": 0, "type": "electric_scooter", "lon": -77.021955, "bike_id": "041c28e8f96818869d42bf3d82fff549", "fusion_lat": 0.0, "name": "041c28e8f96818869d42bf3d82fff549", "is_reserved": 0, "rental_uris": {"android": "https://dc.lft.to/lastmile_qr_scan", "ios": "https://dc.lft.to/lastmile_qr_scan"}, "fusion_lon": 0.0}, {"lat": 38.899004, "is_disabled": 0, "type": "electric_scooter", "lon": -77.07233416666666, "bike_id": "9e8cca0812d0f6c8dd3df053e6215aa3", "fusion_lat": 0.0, "name": "9e8cca0812d0f6c8dd3df053e6215aa3", "is_reserved": 0, "rental_uris": {"android": "https://dc.lft.to/lastmile_qr_scan", "ios": "https://dc.lft.to/lastmile_qr_scan"}, "fusion_lon": 0.0}, {"lat": 38.912502333333336, "is_disabled": 0, "type": "electric_scooter", "lon": -77.04660683333333, "bike_id": "a0159bf6d978efb478858f7f58264cf3", "fusion_lat": 0.0, "name": "a0159bf6d978efb478858f7f58264cf3", "is_reserved": 0, "rental_uris": {"android": "https://dc.lft.to/lastmile_qr_scan", "ios": "https://dc.lft.to/lastmile_qr_scan"}, "fusion_lon": 0.0}, {"lat": 38.9026235, "is_disabled": 0, "type": "electric_bike", "lon": -77.017928, "bike_id": "eaae0f8e59d23985ac0b6e68af48c48b", "fusion_lat": 0.0, "name": "eaae0f8e59d23985ac0b6e68af48c48b", "is_reserved": 0, "rental_uris": {"android": "https://dc.lft.to/lastmile_qr_scan", "ios": "https://dc.lft.to/lastmile_qr_scan"}, "fusion_lon": 0.0}, {"lat": 38.90701116666666, "is_disabled": 0, "type": "electric_bike", "lon": -77.0819925, "bike_id": "f9464df7bd9730d9a5a2dc2d652637d4", "fusion_lat": 0.0, "name": "f9464df7bd9730d9a5a2dc2d652637d4", "is_reserved": 0, "rental_uris": {"android": "https://dc.lft.to/lastmile_qr_scan", "ios": "https://dc.lft.to/lastmile_qr_scan"}, "fusion_lon": 0.0}, {"lat": 38.9035305, "is_disabled": 0, "type": "electric_scooter", "lon": -77.044936, "bike_id": "d4f7e736e1f068ba627be939cf136da3", "fusion_lat": 0.0, "name": "d4f7e736e1f068ba627be939cf136da3", "is_reserved": 0, "rental_uris": {"android": "https://dc.lft.to/lastmile_qr_scan", "ios": "https://dc.lft.to/lastmile_qr_scan"}, "fusion_lon": 0.0}, {"lat": 38.90121516666667, "is_disabled": 0, "type": "electric_scooter", "lon": -77.03324266666667, "bike_id": "d9bd0222162c70edfbfe2fe670252029", "fusion_lat": 0.0, "name": "d9bd0222162c70edfbfe2fe670252029", "is_reserved": 0, "rental_uris": {"android": "https://dc.lft.to/lastmile_qr_scan", "ios": "https://dc.lft.to/lastmile_qr_scan"}, "fusion_lon": 0.0}, {"lat": 38.9230175, "is_disabled": 0, "type": "electric_scooter", "lon": -77.0233205, "bike_id": "460e6b5541c841f2caf3368cfc3f1770", "fusion_lat": 0.0, "name": "460e6b5541c841f2caf3368cfc3f1770", "is_reserved": 0, "rental_uris": {"android": "https://dc.lft.to/lastmile_qr_scan", "ios": "https://dc.lft.to/lastmile_qr_scan"}, "fusion_lon": 0.0}, {"lat": 38.90109366666667, "is_disabled": 0, "type": "electric_scooter", "lon": -77.05904083333333, "bike_id": "75654a9b3a711de7d9ac45577f17d13a", "fusion_lat": 0.0, "name": "75654a9b3a711de7d9ac45577f17d13a", "is_reserved": 0, "rental_uris": {"android": "https://dc.lft.to/lastmile_qr_scan", "ios": "https://dc.lft.to/lastmile_qr_scan"}, "fusion_lon": 0.0}, {"lat": 38.939821333333335, "is_disabled": 0, "type": "electric_scooter", "lon": -77.0263475, "bike_id": "fd8ec548d0b6d4af5459f0db02bf126a", "fusion_lat": 0.0, "name": "fd8ec548d0b6d4af5459f0db02bf126a", "is_reserved": 0, "rental_uris": {"android": "https://dc.lft.to/lastmile_qr_scan", "ios": "https://dc.lft.to/lastmile_qr_scan"}, "fusion_lon": 0.0}, {"lat": 38.88687633333333, "is_disabled": 0, "type": "electric_scooter", "lon": -77.0137505, "bike_id": "6b154912c644435ef82760dc0e1a69dc", "fusion_lat": 0.0, "name": "6b154912c644435ef82760dc0e1a69dc", "is_reserved": 0, "rental_uris": {"android": "https://dc.lft.to/lastmile_qr_scan", "ios": "https://dc.lft.to/lastmile_qr_scan"}, "fusion_lon": 0.0}, {"lat": 38.91120333333333, "is_disabled": 0, "type": "electric_scooter", "lon": -77.038212, "bike_id": "dffbb43074e927123e130279f5d120bb", "fusion_lat": 0.0, "name": "dffbb43074e927123e130279f5d120bb", "is_reserved": 0, "rental_uris": {"android": "https://dc.lft.to/lastmile_qr_scan", "ios": "https://dc.lft.to/lastmile_qr_scan"}, "fusion_lon": 0.0}, {"lat": 38.8849195, "is_disabled": 0, "type": "electric_scooter", "lon": -77.0070605, "bike_id": "609ffdaea4f9850ab1eaa76eaac82678", "fusion_lat": 0.0, "name": "609ffdaea4f9850ab1eaa76eaac82678", "is_reserved": 0, "rental_uris": {"android": "https://dc.lft.to/lastmile_qr_scan", "ios": "https://dc.lft.to/lastmile_qr_scan"}, "fusion_lon": 0.0}, {"lat": 38.86661433333333, "is_disabled": 0, "type": "electric_scooter", "lon": -76.98880566666666, "bike_id": "d7c9121ee1ed7d0a0bcbbf63ed641217", "fusion_lat": 0.0, "name": "d7c9121ee1ed7d0a0bcbbf63ed641217", "is_reserved": 0, "rental_uris": {"android": "https://dc.lft.to/lastmile_qr_scan", "ios": "https://dc.lft.to/lastmile_qr_scan"}, "fusion_lon": 0.0}, {"lat": 38.94176316666667, "is_disabled": 0, "type": "electric_bike", "lon": -76.98485133333334, "bike_id": "aaa185c3b0254749af48285df0b07f3c", "fusion_lat": 0.0, "name": "aaa185c3b0254749af48285df0b07f3c", "is_reserved": 0, "rental_uris": {"android": "https://dc.lft.to/lastmile_qr_scan", "ios": "https://dc.lft.to/lastmile_qr_scan"}, "fusion_lon": 0.0}, {"lat": 38.911969, "is_disabled": 0, "type": "electric_scooter", "lon": -77.00215966666667, "bike_id": "bec380a90cc63ce1cf3314837bb161d3", "fusion_lat": 0.0, "name": "bec380a90cc63ce1cf3314837bb161d3", "is_reserved": 0, "rental_uris": {"android": "https://dc.lft.to/lastmile_qr_scan", "ios": "https://dc.lft.to/lastmile_qr_scan"}, "fusion_lon": 0.0}, {"lat": 38.8427085, "is_disabled": 0, "type": "electric_bike", "lon": -76.988468, "bike_id": "4b68011043f93dc61b8cb6e4ce755dd4", "fusion_lat": 0.0, "name": "4b68011043f93dc61b8cb6e4ce755dd4", "is_reserved": 0, "rental_uris": {"android": "https://dc.lft.to/lastmile_qr_scan", "ios": "https://dc.lft.to/lastmile_qr_scan"}, "fusion_lon": 0.0}, {"lat": 38.887675333333334, "is_disabled": 0, "type": "electric_scooter", "lon": -76.956022, "bike_id": "eca0e9efacd72cc2eea6609d5495bcc7", "fusion_lat": 0.0, "name": "eca0e9efacd72cc2eea6609d5495bcc7", "is_reserved": 0, "rental_uris": {"android": "https://dc.lft.to/lastmile_qr_scan", "ios": "https://dc.lft.to/lastmile_qr_scan"}, "fusion_lon": 0.0}, {"lat": 38.866342333333336, "is_disabled": 0, "type": "electric_scooter", "lon": -76.9870425, "bike_id": "58ec0262900092fe1a002777b93cfd24", "fusion_lat": 0.0, "name": "58ec0262900092fe1a002777b93cfd24", "is_reserved": 0, "rental_uris": {"android": "https://dc.lft.to/lastmile_qr_scan", "ios": "https://dc.lft.to/lastmile_qr_scan"}, "fusion_lon": 0.0}, {"lat": 38.90149683333333, "is_disabled": 0, "type": "electric_bike", "lon": -77.02298083333334, "bike_id": "c96494aa71b63a656cef527fdc5259ef", "fusion_lat": 0.0, "name": "c96494aa71b63a656cef527fdc5259ef", "is_reserved": 0, "rental_uris": {"android": "https://dc.lft.to/lastmile_qr_scan", "ios": "https://dc.lft.to/lastmile_qr_scan"}, "fusion_lon": 0.0}, {"lat": 38.88491283333333, "is_disabled": 0, "type": "electric_scooter", "lon": -77.0071115, "bike_id": "f28bb3b6c6c3a4e18388b7639f38f978", "fusion_lat": 0.0, "name": "f28bb3b6c6c3a4e18388b7639f38f978", "is_reserved": 0, "rental_uris": {"android": "https://dc.lft.to/lastmile_qr_scan", "ios": "https://dc.lft.to/lastmile_qr_scan"}, "fusion_lon": 0.0}, {"lat": 38.934754166666664, "is_disabled": 0, "type": "electric_scooter", "lon": -77.03577383333334, "bike_id": "2759174e559bd218955e98716c336799", "fusion_lat": 0.0, "name": "2759174e559bd218955e98716c336799", "is_reserved": 0, "rental_uris": {"android": "https://dc.lft.to/lastmile_qr_scan", "ios": "https://dc.lft.to/lastmile_qr_scan"}, "fusion_lon": 0.0}, {"lat": 38.905476166666666, "is_disabled": 0, "type": "electric_scooter", "lon": -77.0468625, "bike_id": "3c24681b42c73ffd68430874dd915860", "fusion_lat": 0.0, "name": "3c24681b42c73ffd68430874dd915860", "is_reserved": 0, "rental_uris": {"android": "https://dc.lft.to/lastmile_qr_scan", "ios": "https://dc.lft.to/lastmile_qr_scan"}, "fusion_lon": 0.0}, {"lat": 38.875846, "is_disabled": 0, "type": "electric_bike", "lon": -77.10560083333333, "bike_id": "c8da42bb5892fa961a3b00c34ac699f1", "fusion_lat": 0.0, "name": "c8da42bb5892fa961a3b00c34ac699f1", "is_reserved": 0, "rental_uris": {"android": "https://dc.lft.to/lastmile_qr_scan", "ios": "https://dc.lft.to/lastmile_qr_scan"}, "fusion_lon": 0.0}, {"lat": 38.84305783333333, "is_disabled": 0, "type": "electric_scooter", "lon": -76.999425, "bike_id": "1df7567cf647cabe9ff5129a203a4d90", "fusion_lat": 0.0, "name": "1df7567cf647cabe9ff5129a203a4d90", "is_reserved": 0, "rental_uris": {"android": "https://dc.lft.to/lastmile_qr_scan", "ios": "https://dc.lft.to/lastmile_qr_scan"}, "fusion_lon": 0.0}, {"lat": 38.932305166666666, "is_disabled": 0, "type": "electric_scooter", "lon": -76.995996, "bike_id": "31ac03290bcd0a16a1ce4bf4290a598a", "fusion_lat": 0.0, "name": "31ac03290bcd0a16a1ce4bf4290a598a", "is_reserved": 0, "rental_uris": {"android": "https://dc.lft.to/lastmile_qr_scan", "ios": "https://dc.lft.to/lastmile_qr_scan"}, "fusion_lon": 0.0}, {"lat": 38.942896, "is_disabled": 0, "type": "electric_scooter", "lon": -77.0217005, "bike_id": "a90aa836d88fc8acd9405ed0c74d746a", "fusion_lat": 0.0, "name": "a90aa836d88fc8acd9405ed0c74d746a", "is_reserved": 0, "rental_uris": {"android": "https://dc.lft.to/lastmile_qr_scan", "ios": "https://dc.lft.to/lastmile_qr_scan"}, "fusion_lon": 0.0}, {"lat": 38.90109733333333, "is_disabled": 0, "type": "electric_scooter", "lon": -77.04999783333334, "bike_id": "b4644f6fe66d984a9cf5ae3c11bfeec3", "fusion_lat": 0.0, "name": "b4644f6fe66d984a9cf5ae3c11bfeec3", "is_reserved": 0, "rental_uris": {"android": "https://dc.lft.to/lastmile_qr_scan", "ios": "https://dc.lft.to/lastmile_qr_scan"}, "fusion_lon": 0.0}, {"lat": 38.93089766666667, "is_disabled": 0, "type": "electric_scooter", "lon": -77.03403266666666, "bike_id": "8740555c1864cec1ecd33c8cd086bfe0", "fusion_lat": 0.0, "name": "8740555c1864cec1ecd33c8cd086bfe0", "is_reserved": 0, "rental_uris": {"android": "https://dc.lft.to/lastmile_qr_scan", "ios": "https://dc.lft.to/lastmile_qr_scan"}, "fusion_lon": 0.0}, {"lat": 38.8845095, "is_disabled": 0, "type": "electric_scooter", "lon": -76.95096916666667, "bike_id": "785a636c348f2db1d664dbdf35f34326", "fusion_lat": 0.0, "name": "785a636c348f2db1d664dbdf35f34326", "is_reserved": 0, "rental_uris": {"android": "https://dc.lft.to/lastmile_qr_scan", "ios": "https://dc.lft.to/lastmile_qr_scan"}, "fusion_lon": 0.0}, {"lat": 38.9482475, "is_disabled": 0, "type": "electric_scooter", "lon": -76.999023, "bike_id": "52bc8fb7f5bb2410f5ab81b0a5ca34cf", "fusion_lat": 0.0, "name": "52bc8fb7f5bb2410f5ab81b0a5ca34cf", "is_reserved": 0, "rental_uris": {"android": "https://dc.lft.to/lastmile_qr_scan", "ios": "https://dc.lft.to/lastmile_qr_scan"}, "fusion_lon": 0.0}, {"lat": 38.921220166666664, "is_disabled": 0, "type": "electric_scooter", "lon": -77.04172133333333, "bike_id": "80975c3f3dab40de6178948894d8cfeb", "fusion_lat": 0.0, "name": "80975c3f3dab40de6178948894d8cfeb", "is_reserved": 0, "rental_uris": {"android": "https://dc.lft.to/lastmile_qr_scan", "ios": "https://dc.lft.to/lastmile_qr_scan"}, "fusion_lon": 0.0}, {"lat": 38.91750016666667, "is_disabled": 0, "type": "electric_scooter", "lon": -77.03195883333333, "bike_id": "2781a007f112c03871a5bdfdfceb7798", "fusion_lat": 0.0, "name": "2781a007f112c03871a5bdfdfceb7798", "is_reserved": 0, "rental_uris": {"android": "https://dc.lft.to/lastmile_qr_scan", "ios": "https://dc.lft.to/lastmile_qr_scan"}, "fusion_lon": 0.0}, {"lat": 38.944746, "is_disabled": 0, "type": "electric_scooter", "lon": -77.06035166666666, "bike_id": "3becad2cbd89612e0c52ae163b6927e5", "fusion_lat": 0.0, "name": "3becad2cbd89612e0c52ae163b6927e5", "is_reserved": 0, "rental_uris": {"android": "https://dc.lft.to/lastmile_qr_scan", "ios": "https://dc.lft.to/lastmile_qr_scan"}, "fusion_lon": 0.0}, {"lat": 38.90271933333333, "is_disabled": 0, "type": "electric_scooter", "lon": -77.03956633333334, "bike_id": "756deaa2414ff5ebb11269c349c8ad4a", "fusion_lat": 0.0, "name": "756deaa2414ff5ebb11269c349c8ad4a", "is_reserved": 0, "rental_uris": {"android": "https://dc.lft.to/lastmile_qr_scan", "ios": "https://dc.lft.to/lastmile_qr_scan"}, "fusion_lon": 0.0}, {"lat": 38.988161, "is_disabled": 0, "type": "electric_bike", "lon": -77.0266225, "bike_id": "27e1d0b0d091caa752e427b599f45626", "fusion_lat": 0.0, "name": "27e1d0b0d091caa752e427b599f45626", "is_reserved": 0, "rental_uris": {"android": "https://dc.lft.to/lastmile_qr_scan", "ios": "https://dc.lft.to/lastmile_qr_scan"}, "fusion_lon": 0.0}, {"lat": 38.92454333333333, "is_disabled": 0, "type": "electric_scooter", "lon": -77.04201966666666, "bike_id": "03acea7640962c33f7d1e1d61c546a2c", "fusion_lat": 0.0, "name": "03acea7640962c33f7d1e1d61c546a2c", "is_reserved": 0, "rental_uris": {"android": "https://dc.lft.to/lastmile_qr_scan", "ios": "https://dc.lft.to/lastmile_qr_scan"}, "fusion_lon": 0.0}, {"lat": 38.896854166666664, "is_disabled": 0, "type": "electric_scooter", "lon": -76.93609233333333, "bike_id": "9e41ccaa3ad8f2f0e4846893ab068211", "fusion_lat": 0.0, "name": "9e41ccaa3ad8f2f0e4846893ab068211", "is_reserved": 0, "rental_uris": {"android": "https://dc.lft.to/lastmile_qr_scan", "ios": "https://dc.lft.to/lastmile_qr_scan"}, "fusion_lon": 0.0}, {"lat": 38.901275, "is_disabled": 0, "type": "electric_scooter", "lon": -77.01778166666666, "bike_id": "4608edcfecb99bb508c96e335e2fe622", "fusion_lat": 0.0, "name": "4608edcfecb99bb508c96e335e2fe622", "is_reserved": 0, "rental_uris": {"android": "https://dc.lft.to/lastmile_qr_scan", "ios": "https://dc.lft.to/lastmile_qr_scan"}, "fusion_lon": 0.0}, {"lat": 38.91120033333333, "is_disabled": 0, "type": "electric_scooter", "lon": -77.03822533333333, "bike_id": "8441117b71dfd6e1d95c09488bcb9f5c", "fusion_lat": 0.0, "name": "8441117b71dfd6e1d95c09488bcb9f5c", "is_reserved": 0, "rental_uris": {"android": "https://dc.lft.to/lastmile_qr_scan", "ios": "https://dc.lft.to/lastmile_qr_scan"}, "fusion_lon": 0.0}, {"lat": 38.813517, "is_disabled": 0, "type": "electric_bike", "lon": -77.049221, "bike_id": "04b9488ab31566a2d68f517c9c9933c0", "fusion_lat": 0.0, "name": "04b9488ab31566a2d68f517c9c9933c0", "is_reserved": 0, "rental_uris": {"android": "https://dc.lft.to/lastmile_qr_scan", "ios": "https://dc.lft.to/lastmile_qr_scan"}, "fusion_lon": 0.0}, {"lat": 38.92576566666666, "is_disabled": 0, "type": "electric_scooter", "lon": -77.04013466666666, "bike_id": "a6527dbaeb67e80fee2e83ed513d7c5a", "fusion_lat": 0.0, "name": "a6527dbaeb67e80fee2e83ed513d7c5a", "is_reserved": 0, "rental_uris": {"android": "https://dc.lft.to/lastmile_qr_scan", "ios": "https://dc.lft.to/lastmile_qr_scan"}, "fusion_lon": 0.0}, {"lat": 38.8716955, "is_disabled": 0, "type": "electric_scooter", "lon": -77.01362933333333, "bike_id": "c528c377276a451cc6672be8c301e8e3", "fusion_lat": 0.0, "name": "c528c377276a451cc6672be8c301e8e3", "is_reserved": 0, "rental_uris": {"android": "https://dc.lft.to/lastmile_qr_scan", "ios": "https://dc.lft.to/lastmile_qr_scan"}, "fusion_lon": 0.0}, {"lat": 38.941107833333334, "is_disabled": 0, "type": "electric_scooter", "lon": -77.00042566666667, "bike_id": "b20c262282f8fe2668f904289c8105db", "fusion_lat": 0.0, "name": "b20c262282f8fe2668f904289c8105db", "is_reserved": 0, "rental_uris": {"android": "https://dc.lft.to/lastmile_qr_scan", "ios": "https://dc.lft.to/lastmile_qr_scan"}, "fusion_lon": 0.0}, {"lat": 38.925174, "is_disabled": 0, "type": "electric_scooter", "lon": -77.0235985, "bike_id": "530ca0bb6ed0d256f2faaa513e0b4caf", "fusion_lat": 0.0, "name": "530ca0bb6ed0d256f2faaa513e0b4caf", "is_reserved": 0, "rental_uris": {"android": "https://dc.lft.to/lastmile_qr_scan", "ios": "https://dc.lft.to/lastmile_qr_scan"}, "fusion_lon": 0.0}, {"lat": 38.9129165, "is_disabled": 0, "type": "electric_scooter", "lon": -77.0384705, "bike_id": "4b52d2ed9cffc29cf6475f1b0f1f2361", "fusion_lat": 0.0, "name": "4b52d2ed9cffc29cf6475f1b0f1f2361", "is_reserved": 0, "rental_uris": {"android": "https://dc.lft.to/lastmile_qr_scan", "ios": "https://dc.lft.to/lastmile_qr_scan"}, "fusion_lon": 0.0}, {"lat": 38.910470833333335, "is_disabled": 0, "type": "electric_scooter", "lon": -77.015175, "bike_id": "0a9c71109fc3189e7e2928edb86086eb", "fusion_lat": 0.0, "name": "0a9c71109fc3189e7e2928edb86086eb", "is_reserved": 0, "rental_uris": {"android": "https://dc.lft.to/lastmile_qr_scan", "ios": "https://dc.lft.to/lastmile_qr_scan"}, "fusion_lon": 0.0}, {"lat": 38.89609316666667, "is_disabled": 0, "type": "electric_scooter", "lon": -76.95663866666666, "bike_id": "a146e8be5f16e74aa112d336d708902f", "fusion_lat": 0.0, "name": "a146e8be5f16e74aa112d336d708902f", "is_reserved": 0, "rental_uris": {"android": "https://dc.lft.to/lastmile_qr_scan", "ios": "https://dc.lft.to/lastmile_qr_scan"}, "fusion_lon": 0.0}, {"lat": 38.877220333333334, "is_disabled": 0, "type": "electric_scooter", "lon": -77.00314866666666, "bike_id": "f97652873bae9f514b71793fb296b209", "fusion_lat": 0.0, "name": "f97652873bae9f514b71793fb296b209", "is_reserved": 0, "rental_uris": {"android": "https://dc.lft.to/lastmile_qr_scan", "ios": "https://dc.lft.to/lastmile_qr_scan"}, "fusion_lon": 0.0}, {"lat": 38.907554166666664, "is_disabled": 0, "type": "electric_scooter", "lon": -76.99883066666666, "bike_id": "430f0bfa7b56dadc0ce6377bd37a63e0", "fusion_lat": 0.0, "name": "430f0bfa7b56dadc0ce6377bd37a63e0", "is_reserved": 0, "rental_uris": {"android": "https://dc.lft.to/lastmile_qr_scan", "ios": "https://dc.lft.to/lastmile_qr_scan"}, "fusion_lon": 0.0}, {"lat": 38.89557966666667, "is_disabled": 0, "type": "electric_scooter", "lon": -77.0036655, "bike_id": "5edd0aa6051375c033e22c1395ea3ec7", "fusion_lat": 0.0, "name": "5edd0aa6051375c033e22c1395ea3ec7", "is_reserved": 0, "rental_uris": {"android": "https://dc.lft.to/lastmile_qr_scan", "ios": "https://dc.lft.to/lastmile_qr_scan"}, "fusion_lon": 0.0}, {"lat": 38.900105333333336, "is_disabled": 0, "type": "electric_scooter", "lon": -77.033148, "bike_id": "463436011c68dbcdcd5906f1525e0211", "fusion_lat": 0.0, "name": "463436011c68dbcdcd5906f1525e0211", "is_reserved": 0, "rental_uris": {"android": "https://dc.lft.to/lastmile_qr_scan", "ios": "https://dc.lft.to/lastmile_qr_scan"}, "fusion_lon": 0.0}, {"lat": 38.907899, "is_disabled": 0, "type": "electric_scooter", "lon": -77.0110255, "bike_id": "8cac386d3b5620daee3bde753ad2a507", "fusion_lat": 0.0, "name": "8cac386d3b5620daee3bde753ad2a507", "is_reserved": 0, "rental_uris": {"android": "https://dc.lft.to/lastmile_qr_scan", "ios": "https://dc.lft.to/lastmile_qr_scan"}, "fusion_lon": 0.0}, {"lat": 38.8531745, "is_disabled": 0, "type": "electric_scooter", "lon": -76.98018716666667, "bike_id": "ff98377c64a6d31a0b48e8732d0c6f0c", "fusion_lat": 0.0, "name": "ff98377c64a6d31a0b48e8732d0c6f0c", "is_reserved": 0, "rental_uris": {"android": "https://dc.lft.to/lastmile_qr_scan", "ios": "https://dc.lft.to/lastmile_qr_scan"}, "fusion_lon": 0.0}, {"lat": 38.938622333333335, "is_disabled": 0, "type": "electric_scooter", "lon": -77.03206083333333, "bike_id": "f3c7b136d4a017ebd30e1e0109e77b61", "fusion_lat": 0.0, "name": "f3c7b136d4a017ebd30e1e0109e77b61", "is_reserved": 0, "rental_uris": {"android": "https://dc.lft.to/lastmile_qr_scan", "ios": "https://dc.lft.to/lastmile_qr_scan"}, "fusion_lon": 0.0}, {"lat": 38.89223666666667, "is_disabled": 0, "type": "electric_scooter", "lon": -77.04867183333333, "bike_id": "0294b016489e446a1c5a6aa47eb5b7e1", "fusion_lat": 0.0, "name": "0294b016489e446a1c5a6aa47eb5b7e1", "is_reserved": 0, "rental_uris": {"android": "https://dc.lft.to/lastmile_qr_scan", "ios": "https://dc.lft.to/lastmile_qr_scan"}, "fusion_lon": 0.0}, {"lat": 38.94913116666667, "is_disabled": 0, "type": "electric_scooter", "lon": -77.06625816666667, "bike_id": "a5da8c4298361fde12db3bbbc772c882", "fusion_lat": 0.0, "name": "a5da8c4298361fde12db3bbbc772c882", "is_reserved": 0, "rental_uris": {"android": "https://dc.lft.to/lastmile_qr_scan", "ios": "https://dc.lft.to/lastmile_qr_scan"}, "fusion_lon": 0.0}, {"lat": 38.962079, "is_disabled": 0, "type": "electric_bike", "lon": -77.03514116666666, "bike_id": "412db227ae79dee8b60b746df3800aec", "fusion_lat": 0.0, "name": "412db227ae79dee8b60b746df3800aec", "is_reserved": 0, "rental_uris": {"android": "https://dc.lft.to/lastmile_qr_scan", "ios": "https://dc.lft.to/lastmile_qr_scan"}, "fusion_lon": 0.0}, {"lat": 38.92433883333333, "is_disabled": 0, "type": "electric_scooter", "lon": -77.05211916666667, "bike_id": "4ac6db4bf2f53f40174d5b8ad5023644", "fusion_lat": 0.0, "name": "4ac6db4bf2f53f40174d5b8ad5023644", "is_reserved": 0, "rental_uris": {"android": "https://dc.lft.to/lastmile_qr_scan", "ios": "https://dc.lft.to/lastmile_qr_scan"}, "fusion_lon": 0.0}, {"lat": 38.917618833333336, "is_disabled": 0, "type": "electric_scooter", "lon": -77.044223, "bike_id": "2bbe0dccbeea3aec7779887b8688f830", "fusion_lat": 0.0, "name": "2bbe0dccbeea3aec7779887b8688f830", "is_reserved": 0, "rental_uris": {"android": "https://dc.lft.to/lastmile_qr_scan", "ios": "https://dc.lft.to/lastmile_qr_scan"}, "fusion_lon": 0.0}, {"lat": 38.98121066666667, "is_disabled": 0, "type": "electric_bike", "lon": -77.09519616666667, "bike_id": "b2277e2cd2d14b9a46da380ca220cfef", "fusion_lat": 0.0, "name": "b2277e2cd2d14b9a46da380ca220cfef", "is_reserved": 0, "rental_uris": {"android": "https://dc.lft.to/lastmile_qr_scan", "ios": "https://dc.lft.to/lastmile_qr_scan"}, "fusion_lon": 0.0}, {"lat": 38.90349666666667, "is_disabled": 0, "type": "electric_scooter", "lon": -77.044846, "bike_id": "62535dd9dff4d4946c5387913f6aa54e", "fusion_lat": 0.0, "name": "62535dd9dff4d4946c5387913f6aa54e", "is_reserved": 0, "rental_uris": {"android": "https://dc.lft.to/lastmile_qr_scan", "ios": "https://dc.lft.to/lastmile_qr_scan"}, "fusion_lon": 0.0}, {"lat": 38.92801333333333, "is_disabled": 0, "type": "electric_scooter", "lon": -77.02600433333333, "bike_id": "2c325c7f213099383c7d63c3d92bbeaa", "fusion_lat": 0.0, "name": "2c325c7f213099383c7d63c3d92bbeaa", "is_reserved": 0, "rental_uris": {"android": "https://dc.lft.to/lastmile_qr_scan", "ios": "https://dc.lft.to/lastmile_qr_scan"}, "fusion_lon": 0.0}, {"lat": 38.863673166666665, "is_disabled": 0, "type": "electric_scooter", "lon": -76.99037366666667, "bike_id": "268bb9fbaa98372cc390bb3a648e2190", "fusion_lat": 0.0, "name": "268bb9fbaa98372cc390bb3a648e2190", "is_reserved": 0, "rental_uris": {"android": "https://dc.lft.to/lastmile_qr_scan", "ios": "https://dc.lft.to/lastmile_qr_scan"}, "fusion_lon": 0.0}, {"lat": 38.921083333333335, "is_disabled": 0, "type": "electric_scooter", "lon": -77.04695016666666, "bike_id": "3515157b528dde4d83c104cc62aa8381", "fusion_lat": 0.0, "name": "3515157b528dde4d83c104cc62aa8381", "is_reserved": 0, "rental_uris": {"android": "https://dc.lft.to/lastmile_qr_scan", "ios": "https://dc.lft.to/lastmile_qr_scan"}, "fusion_lon": 0.0}, {"lat": 38.91802066666666, "is_disabled": 0, "type": "electric_scooter", "lon": -77.032059, "bike_id": "c17dd0b5d036a1cf255ada1fecac66de", "fusion_lat": 0.0, "name": "c17dd0b5d036a1cf255ada1fecac66de", "is_reserved": 0, "rental_uris": {"android": "https://dc.lft.to/lastmile_qr_scan", "ios": "https://dc.lft.to/lastmile_qr_scan"}, "fusion_lon": 0.0}, {"lat": 38.88545283333333, "is_disabled": 0, "type": "electric_scooter", "lon": -76.98267633333333, "bike_id": "11382edc66841c021c239432c0be3240", "fusion_lat": 0.0, "name": "11382edc66841c021c239432c0be3240", "is_reserved": 0, "rental_uris": {"android": "https://dc.lft.to/lastmile_qr_scan", "ios": "https://dc.lft.to/lastmile_qr_scan"}, "fusion_lon": 0.0}, {"lat": 38.80229683333334, "is_disabled": 0, "type": "electric_bike", "lon": -77.0791865, "bike_id": "d782e8b8a7299aa23d7c412ad2178a04", "fusion_lat": 0.0, "name": "d782e8b8a7299aa23d7c412ad2178a04", "is_reserved": 0, "rental_uris": {"android": "https://dc.lft.to/lastmile_qr_scan", "ios": "https://dc.lft.to/lastmile_qr_scan"}, "fusion_lon": 0.0}, {"lat": 38.9338455, "is_disabled": 0, "type": "electric_scooter", "lon": -76.99511883333334, "bike_id": "69ab440cd9bcbe09388b5b3fc1a3638c", "fusion_lat": 0.0, "name": "69ab440cd9bcbe09388b5b3fc1a3638c", "is_reserved": 0, "rental_uris": {"android": "https://dc.lft.to/lastmile_qr_scan", "ios": "https://dc.lft.to/lastmile_qr_scan"}, "fusion_lon": 0.0}, {"lat": 38.96135916666667, "is_disabled": 0, "type": "electric_scooter", "lon": -77.022377, "bike_id": "ea29c0a315a11b6eeae88c37212ff2d6", "fusion_lat": 0.0, "name": "ea29c0a315a11b6eeae88c37212ff2d6", "is_reserved": 0, "rental_uris": {"android": "https://dc.lft.to/lastmile_qr_scan", "ios": "https://dc.lft.to/lastmile_qr_scan"}, "fusion_lon": 0.0}, {"lat": 38.923588333333335, "is_disabled": 0, "type": "electric_bike", "lon": -76.9713675, "bike_id": "642329ec5263698bf726aefd8c5f5b60", "fusion_lat": 0.0, "name": "642329ec5263698bf726aefd8c5f5b60", "is_reserved": 0, "rental_uris": {"android": "https://dc.lft.to/lastmile_qr_scan", "ios": "https://dc.lft.to/lastmile_qr_scan"}, "fusion_lon": 0.0}, {"lat": 38.912979166666666, "is_disabled": 0, "type": "electric_scooter", "lon": -77.03853166666667, "bike_id": "88ff154fc5c0268e2c982747d85128d9", "fusion_lat": 0.0, "name": "88ff154fc5c0268e2c982747d85128d9", "is_reserved": 0, "rental_uris": {"android": "https://dc.lft.to/lastmile_qr_scan", "ios": "https://dc.lft.to/lastmile_qr_scan"}, "fusion_lon": 0.0}, {"lat": 38.9297805, "is_disabled": 0, "type": "electric_scooter", "lon": -77.01302433333333, "bike_id": "651f12ffd2dc4ba6dfee9311977a06e6", "fusion_lat": 0.0, "name": "651f12ffd2dc4ba6dfee9311977a06e6", "is_reserved": 0, "rental_uris": {"android": "https://dc.lft.to/lastmile_qr_scan", "ios": "https://dc.lft.to/lastmile_qr_scan"}, "fusion_lon": 0.0}, {"lat": 38.906670166666665, "is_disabled": 0, "type": "electric_scooter", "lon": -77.03861166666667, "bike_id": "235c687174b6aa06d3a73a67a32f407c", "fusion_lat": 0.0, "name": "235c687174b6aa06d3a73a67a32f407c", "is_reserved": 0, "rental_uris": {"android": "https://dc.lft.to/lastmile_qr_scan", "ios": "https://dc.lft.to/lastmile_qr_scan"}, "fusion_lon": 0.0}, {"lat": 38.91822283333333, "is_disabled": 0, "type": "electric_scooter", "lon": -77.0386455, "bike_id": "069b3cdf87bb908baff080eb771541cc", "fusion_lat": 0.0, "name": "069b3cdf87bb908baff080eb771541cc", "is_reserved": 0, "rental_uris": {"android": "https://dc.lft.to/lastmile_qr_scan", "ios": "https://dc.lft.to/lastmile_qr_scan"}, "fusion_lon": 0.0}, {"lat": 38.9102005, "is_disabled": 0, "type": "electric_scooter", "lon": -77.04880583333333, "bike_id": "029fc65b20535ff3d2f81662354970fd", "fusion_lat": 0.0, "name": "029fc65b20535ff3d2f81662354970fd", "is_reserved": 0, "rental_uris": {"android": "https://dc.lft.to/lastmile_qr_scan", "ios": "https://dc.lft.to/lastmile_qr_scan"}, "fusion_lon": 0.0}, {"lat": 38.871456, "is_disabled": 0, "type": "electric_bike", "lon": -76.93702466666667, "bike_id": "450dde23948cd7ce68c04f39754b8f4b", "fusion_lat": 0.0, "name": "450dde23948cd7ce68c04f39754b8f4b", "is_reserved": 0, "rental_uris": {"android": "https://dc.lft.to/lastmile_qr_scan", "ios": "https://dc.lft.to/lastmile_qr_scan"}, "fusion_lon": 0.0}, {"lat": 38.85718, "is_disabled": 0, "type": "electric_bike", "lon": -76.97104416666667, "bike_id": "3dca3c066de5b286162f606a85e31a18", "fusion_lat": 0.0, "name": "3dca3c066de5b286162f606a85e31a18", "is_reserved": 0, "rental_uris": {"android": "https://dc.lft.to/lastmile_qr_scan", "ios": "https://dc.lft.to/lastmile_qr_scan"}, "fusion_lon": 0.0}, {"lat": 38.90554183333333, "is_disabled": 0, "type": "electric_scooter", "lon": -77.04672666666667, "bike_id": "487e2b4319ae3d1526e9dd894a56ebd3", "fusion_lat": 0.0, "name": "487e2b4319ae3d1526e9dd894a56ebd3", "is_reserved": 0, "rental_uris": {"android": "https://dc.lft.to/lastmile_qr_scan", "ios": "https://dc.lft.to/lastmile_qr_scan"}, "fusion_lon": 0.0}, {"lat": 38.92373966666667, "is_disabled": 0, "type": "electric_scooter", "lon": -77.0316255, "bike_id": "607d78adc4c11ee04c925b8d4f3daf4b", "fusion_lat": 0.0, "name": "607d78adc4c11ee04c925b8d4f3daf4b", "is_reserved": 0, "rental_uris": {"android": "https://dc.lft.to/lastmile_qr_scan", "ios": "https://dc.lft.to/lastmile_qr_scan"}, "fusion_lon": 0.0}, {"lat": 38.802707166666664, "is_disabled": 0, "type": "electric_bike", "lon": -77.08114033333334, "bike_id": "bd49ce65bad08e764288489b00b65ad8", "fusion_lat": 0.0, "name": "bd49ce65bad08e764288489b00b65ad8", "is_reserved": 0, "rental_uris": {"android": "https://dc.lft.to/lastmile_qr_scan", "ios": "https://dc.lft.to/lastmile_qr_scan"}, "fusion_lon": 0.0}, {"lat": 38.933665, "is_disabled": 0, "type": "electric_scooter", "lon": -77.02500883333333, "bike_id": "6fdaf6b99e80a1415bc5052a35a434a6", "fusion_lat": 0.0, "name": "6fdaf6b99e80a1415bc5052a35a434a6", "is_reserved": 0, "rental_uris": {"android": "https://dc.lft.to/lastmile_qr_scan", "ios": "https://dc.lft.to/lastmile_qr_scan"}, "fusion_lon": 0.0}, {"lat": 38.938647333333336, "is_disabled": 0, "type": "electric_scooter", "lon": -77.02326166666667, "bike_id": "9d5038fb9c1630c4edc006f9f0d1bda1", "fusion_lat": 0.0, "name": "9d5038fb9c1630c4edc006f9f0d1bda1", "is_reserved": 0, "rental_uris": {"android": "https://dc.lft.to/lastmile_qr_scan", "ios": "https://dc.lft.to/lastmile_qr_scan"}, "fusion_lon": 0.0}, {"lat": 38.92062833333333, "is_disabled": 0, "type": "electric_scooter", "lon": -77.02363433333333, "bike_id": "8f8bb29e1d56922448c56cd4bb8a3450", "fusion_lat": 0.0, "name": "8f8bb29e1d56922448c56cd4bb8a3450", "is_reserved": 0, "rental_uris": {"android": "https://dc.lft.to/lastmile_qr_scan", "ios": "https://dc.lft.to/lastmile_qr_scan"}, "fusion_lon": 0.0}, {"lat": 38.8625785, "is_disabled": 0, "type": "electric_scooter", "lon": -76.99515866666667, "bike_id": "81a01751903a987faeccd36350a7fcaf", "fusion_lat": 0.0, "name": "81a01751903a987faeccd36350a7fcaf", "is_reserved": 0, "rental_uris": {"android": "https://dc.lft.to/lastmile_qr_scan", "ios": "https://dc.lft.to/lastmile_qr_scan"}, "fusion_lon": 0.0}, {"lat": 38.91919433333333, "is_disabled": 0, "type": "electric_scooter", "lon": -77.03377266666666, "bike_id": "e9313f19cd83c16fa64e63c7bb2b9057", "fusion_lat": 0.0, "name": "e9313f19cd83c16fa64e63c7bb2b9057", "is_reserved": 0, "rental_uris": {"android": "https://dc.lft.to/lastmile_qr_scan", "ios": "https://dc.lft.to/lastmile_qr_scan"}, "fusion_lon": 0.0}, {"lat": 38.95405216666666, "is_disabled": 0, "type": "electric_scooter", "lon": -77.02747733333334, "bike_id": "b731ec4f018517800696ce3d8875a709", "fusion_lat": 0.0, "name": "b731ec4f018517800696ce3d8875a709", "is_reserved": 0, "rental_uris": {"android": "https://dc.lft.to/lastmile_qr_scan", "ios": "https://dc.lft.to/lastmile_qr_scan"}, "fusion_lon": 0.0}, {"lat": 38.90272683333333, "is_disabled": 0, "type": "electric_scooter", "lon": -77.03654566666667, "bike_id": "0a95a7c9e30835a2298961b412b72d74", "fusion_lat": 0.0, "name": "0a95a7c9e30835a2298961b412b72d74", "is_reserved": 0, "rental_uris": {"android": "https://dc.lft.to/lastmile_qr_scan", "ios": "https://dc.lft.to/lastmile_qr_scan"}, "fusion_lon": 0.0}, {"lat": 38.89046316666666, "is_disabled": 0, "type": "electric_scooter", "lon": -76.937571, "bike_id": "e2c1e0bbbfc857f078c31cede60e7dce", "fusion_lat": 0.0, "name": "e2c1e0bbbfc857f078c31cede60e7dce", "is_reserved": 0, "rental_uris": {"android": "https://dc.lft.to/lastmile_qr_scan", "ios": "https://dc.lft.to/lastmile_qr_scan"}, "fusion_lon": 0.0}, {"lat": 38.9323045, "is_disabled": 0, "type": "electric_scooter", "lon": -76.99600416666667, "bike_id": "e27bcadeab66f379e93b56536e6af82b", "fusion_lat": 0.0, "name": "e27bcadeab66f379e93b56536e6af82b", "is_reserved": 0, "rental_uris": {"android": "https://dc.lft.to/lastmile_qr_scan", "ios": "https://dc.lft.to/lastmile_qr_scan"}, "fusion_lon": 0.0}, {"lat": 38.90351833333333, "is_disabled": 0, "type": "electric_scooter", "lon": -77.05323466666667, "bike_id": "9eda3fb72f757770a365877285c0befe", "fusion_lat": 0.0, "name": "9eda3fb72f757770a365877285c0befe", "is_reserved": 0, "rental_uris": {"android": "https://dc.lft.to/lastmile_qr_scan", "ios": "https://dc.lft.to/lastmile_qr_scan"}, "fusion_lon": 0.0},