{"data": {"bikes": [{"bike_id": "39e69453101421c2c093a096d34a63af", "is_reserved": 0, "fusion_lon": 0.0, "lat": 38.905194333333334, "is_disabled": 0, "name": "39e69453101421c2c093a096d34a63af", "fusion_lat": 0.0, "rental_uris": {"ios": "https://dc.lft.to/lastmile_qr_scan", "android": "https://dc.lft.to/lastmile_qr_scan"}, "lon": -77.0654575, "type": "electric_scooter"}, {"bike_id": "27097d45c052bdf7b98b9007aec4c258", "is_reserved": 0, "fusion_lon": 0.0, "lat": 38.898284833333335, "is_disabled": 0, "name": "27097d45c052bdf7b98b9007aec4c258", "fusion_lat": 0.0, "rental_uris": {"ios": "https://dc.lft.to/lastmile_qr_scan", "android": "https://dc.lft.to/lastmile_qr_scan"}, "lon": -76.980288, "type": "electric_scooter"}, {"bike_id": "3fd0a0eb249783528e5ab862ac16bdaa", "is_reserved": 0, "fusion_lon": 0.0, "lat": 38.895615166666666, "is_disabled": 0, "name": "3fd0a0eb249783528e5ab862ac16bdaa", "fusion_lat": 0.0, "rental_uris": {"ios": "https://dc.lft.to/lastmile_qr_scan", "android": "https://dc.lft.to/lastmile_qr_scan"}, "lon": -77.0257045, "type": "electric_scooter"}, {"bike_id": "4cfb5d24919e77134b49b5df676c9931", "is_reserved": 0, "fusion_lon": 0.0, "lat": 38.879951, "is_disabled": 0, "name": "4cfb5d24919e77134b49b5df676c9931", "fusion_lat": 0.0, "rental_uris": {"ios": "https://dc.lft.to/lastmile_qr_scan", "android": "https://dc.lft.to/lastmile_qr_scan"}, "lon": -76.98536783333333, "type": "electric_scooter"}, {"bike_id": "f805ce0d94a5073d3f791851684c09c9", "is_reserved": 0, "fusion_lon": 0.0, "lat": 38.9083255, "is_disabled": 0, "name": "f805ce0d94a5073d3f791851684c09c9", "fusion_lat": 0.0, "rental_uris": {"ios": "https://dc.lft.to/lastmile_qr_scan", "android": "https://dc.lft.to/lastmile_qr_scan"}, "lon": -76.99700133333333, "type": "electric_scooter"}, {"bike_id": "adc06481e58ea9647595da8e9563523f", "is_reserved": 0, "fusion_lon": 0.0, "lat": 38.89701316666667, "is_disabled": 0, "name": "adc06481e58ea9647595da8e9563523f", "fusion_lat": 0.0, "rental_uris": {"ios": "https://dc.lft.to/lastmile_qr_scan", "android": "https://dc.lft.to/lastmile_qr_scan"}, "lon": -77.026937, "type": "electric_scooter"}, {"bike_id": "aedd83f58ae4c760919afc8047e5c846", "is_reserved": 0, "fusion_lon": 0.0, "lat": 38.899747, "is_disabled": 0, "name": "aedd83f58ae4c760919afc8047e5c846", "fusion_lat": 0.0, "rental_uris": {"ios": "https://dc.lft.to/lastmile_qr_scan", "android": "https://dc.lft.to/lastmile_qr_scan"}, "lon": -77.00919433333334, "type": "electric_scooter"}, {"bike_id": "b90a6982da708b0a72a94e098ba729ee", "is_reserved": 0, "fusion_lon": 0.0, "lat": 38.933444, "is_disabled": 0, "name": "b90a6982da708b0a72a94e098ba729ee", "fusion_lat": 0.0, "rental_uris": {"ios": "https://dc.lft.to/lastmile_qr_scan", "android": "https://dc.lft.to/lastmile_qr_scan"}, "lon": -77.05708033333333, "type": "electric_scooter"}, {"bike_id": "c0100f0f4797067a5ec674923fde4035", "is_reserved": 0, "fusion_lon": 0.0, "lat": 38.94413466666666, "is_disabled": 0, "name": "c0100f0f4797067a5ec674923fde4035", "fusion_lat": 0.0, "rental_uris": {"ios": "https://dc.lft.to/lastmile_qr_scan", "android": "https://dc.lft.to/lastmile_qr_scan"}, "lon": -77.06239116666667, "type": "electric_scooter"}, {"bike_id": "94949a1ec8ca50ec45631aa47ee56aed", "is_reserved": 0, "fusion_lon": 0.0, "lat": 38.92036266666667, "is_disabled": 0, "name": "94949a1ec8ca50ec45631aa47ee56aed", "fusion_lat": 0.0, "rental_uris": {"ios": "https://dc.lft.to/lastmile_qr_scan", "android": "https://dc.lft.to/lastmile_qr_scan"}, "lon": -76.9956465, "type": "electric_scooter"}, {"bike_id": "1c278b076c876081f0614e0d9846b498", "is_reserved": 0, "fusion_lon": 0.0, "lat": 38.891983833333335, "is_disabled": 0, "name": "1c278b076c876081f0614e0d9846b498", "fusion_lat": 0.0, "rental_uris": {"ios": "https://dc.lft.to/lastmile_qr_scan", "android": "https://dc.lft.to/lastmile_qr_scan"}, "lon": -77.0155025, "type": "electric_scooter"}, {"bike_id": "3631daf5541422b7b0b57b09024dd131", "is_reserved": 0, "fusion_lon": 0.0, "lat": 39.0304615, "is_disabled": 0, "name": "3631daf5541422b7b0b57b09024dd131", "fusion_lat": 0.0, "rental_uris": {"ios": "https://dc.lft.to/lastmile_qr_scan", "android": "https://dc.lft.to/lastmile_qr_scan"}, "lon": -77.09479716666667, "type": "electric_bike"}, {"bike_id": "1cd6c155aaa55fc89a9105cf8bc7dcd3", "is_reserved": 0, "fusion_lon": 0.0, "lat": 38.900097333333335, "is_disabled": 0, "name": "1cd6c155aaa55fc89a9105cf8bc7dcd3", "fusion_lat": 0.0, "rental_uris": {"ios": "https://dc.lft.to/lastmile_qr_scan", "android": "https://dc.lft.to/lastmile_qr_scan"}, "lon": -76.99765916666666, "type": "electric_scooter"}, {"bike_id": "5c0a35b5b8cf08e74c122b22999dd293", "is_reserved": 0, "fusion_lon": 0.0, "lat": 38.90249216666667, "is_disabled": 0, "name": "5c0a35b5b8cf08e74c122b22999dd293", "fusion_lat": 0.0, "rental_uris": {"ios": "https://dc.lft.to/lastmile_qr_scan", "android": "https://dc.lft.to/lastmile_qr_scan"}, "lon": -77.03479583333333, "type": "electric_scooter"}, {"bike_id": "e678ccfc35c30512020427b63cf38fc7", "is_reserved": 0, "fusion_lon": 0.0, "lat": 38.887057, "is_disabled": 0, "name": "e678ccfc35c30512020427b63cf38fc7", "fusion_lat": 0.0, "rental_uris": {"ios": "https://dc.lft.to/lastmile_qr_scan", "android": "https://dc.lft.to/lastmile_qr_scan"}, "lon": -77.00154016666667, "type": "electric_scooter"}, {"bike_id": "887b55b652a967cc6475f10a5caa6761", "is_reserved": 0, "fusion_lon": 0.0, "lat": 38.91876283333333, "is_disabled": 0, "name": "887b55b652a967cc6475f10a5caa6761", "fusion_lat": 0.0, "rental_uris": {"ios": "https://dc.lft.to/lastmile_qr_scan", "android": "https://dc.lft.to/lastmile_qr_scan"}, "lon": -77.04468716666666, "type": "electric_scooter"}, {"bike_id": "ca2cbee17029133ef8e6a82409649403", "is_reserved": 0, "fusion_lon": 0.0, "lat": 38.912804333333334, "is_disabled": 0, "name": "ca2cbee17029133ef8e6a82409649403", "fusion_lat": 0.0, "rental_uris": {"ios": "https://dc.lft.to/lastmile_qr_scan", "android": "https://dc.lft.to/lastmile_qr_scan"}, "lon": -77.013569, "type": "electric_scooter"}, {"bike_id": "0b56f292409b250f20ed930f97a4be07", "is_reserved": 0, "fusion_lon": 0.0, "lat": 38.919315833333336, "is_disabled": 0, "name": "0b56f292409b250f20ed930f97a4be07", "fusion_lat": 0.0, "rental_uris": {"ios": "https://dc.lft.to/lastmile_qr_scan", "android": "https://dc.lft.to/lastmile_qr_scan"}, "lon": -77.0449945, "type": "electric_scooter"}, {"bike_id": "82b200517786c2d97e521fd2e2241ee9", "is_reserved": 0, "fusion_lon": 0.0, "lat": 38.906221333333335, "is_disabled": 0, "name": "82b200517786c2d97e521fd2e2241ee9", "fusion_lat": 0.0, "rental_uris": {"ios": "https://dc.lft.to/lastmile_qr_scan", "android": "https://dc.lft.to/lastmile_qr_scan"}, "lon": -77.04128166666666, "type": "electric_scooter"}, {"bike_id": "68f0f7c80e575154688aa99815be2502", "is_reserved": 0, "fusion_lon": 0.0, "lat": 38.90964, "is_disabled": 0, "name": "68f0f7c80e575154688aa99815be2502", "fusion_lat": 0.0, "rental_uris": {"ios": "https://dc.lft.to/lastmile_qr_scan", "android": "https://dc.lft.to/lastmile_qr_scan"}, "lon": -77.0255165, "type": "electric_scooter"}, {"bike_id": "d10bdbbed02f3b6743c9bbfa4165549d", "is_reserved": 0, "fusion_lon": 0.0, "lat": 38.89727833333333, "is_disabled": 0, "name": "d10bdbbed02f3b6743c9bbfa4165549d", "fusion_lat": 0.0, "rental_uris": {"ios": "https://dc.lft.to/lastmile_qr_scan", "android": "https://dc.lft.to/lastmile_qr_scan"}, "lon": -77.04336216666667, "type": "electric_scooter"}, {"bike_id": "cad4480316e8a99a24174eb8ad6bc6f5", "is_reserved": 0, "fusion_lon": 0.0, "lat": 38.89266083333333, "is_disabled": 0, "name": "cad4480316e8a99a24174eb8ad6bc6f5", "fusion_lat": 0.0, "rental_uris": {"ios": "https://dc.lft.to/lastmile_qr_scan", "android": "https://dc.lft.to/lastmile_qr_scan"}, "lon": -77.0220285, "type": "electric_bike"}, {"bike_id": "015d75a04f6bbd44c006164452bf3cb8", "is_reserved": 0, "fusion_lon": 0.0, "lat": 38.91551716666667, "is_disabled": 0, "name": "015d75a04f6bbd44c006164452bf3cb8", "fusion_lat": 0.0, "rental_uris": {"ios": "https://dc.lft.to/lastmile_qr_scan", "android": "https://dc.lft.to/lastmile_qr_scan"}, "lon": -77.03863466666667, "type": "electric_scooter"}, {"bike_id": "a4654ef352121aa034be84b232ac7f80", "is_reserved": 0, "fusion_lon": 0.0, "lat": 38.90720066666667, "is_disabled": 0, "name": "a4654ef352121aa034be84b232ac7f80", "fusion_lat": 0.0, "rental_uris": {"ios": "https://dc.lft.to/lastmile_qr_scan", "android": "https://dc.lft.to/lastmile_qr_scan"}, "lon": -77.03213083333333, "type": "electric_scooter"}, {"bike_id": "f1cb75eafcaa15b25c3ffaca25bb69e2", "is_reserved": 0, "fusion_lon": 0.0, "lat": 38.90041733333333, "is_disabled": 0, "name": "f1cb75eafcaa15b25c3ffaca25bb69e2", "fusion_lat": 0.0, "rental_uris": {"ios": "https://dc.lft.to/lastmile_qr_scan", "android": "https://dc.lft.to/lastmile_qr_scan"}, "lon": -77.0405185, "type": "electric_scooter"}, {"bike_id": "176557f59aeb7ac127433c8458b8807c", "is_reserved": 0, "fusion_lon": 0.0, "lat": 38.912714666666666, "is_disabled": 0, "name": "176557f59aeb7ac127433c8458b8807c", "fusion_lat": 0.0, "rental_uris": {"ios": "https://dc.lft.to/lastmile_qr_scan", "android": "https://dc.lft.to/lastmile_qr_scan"}, "lon": -77.02693633333334, "type": "electric_scooter"}, {"bike_id": "f83b825b19e59b012709b754d5baa411", "is_reserved": 0, "fusion_lon": 0.0, "lat": 38.900933333333334, "is_disabled": 0, "name": "f83b825b19e59b012709b754d5baa411", "fusion_lat": 0.0, "rental_uris": {"ios": "https://dc.lft.to/lastmile_qr_scan", "android": "https://dc.lft.to/lastmile_qr_scan"}, "lon": -77.02156383333333, "type": "electric_scooter"}, {"bike_id": "1db5c707516aef70804c7fe3ff27140c", "is_reserved": 0, "fusion_lon": 0.0, "lat": 38.911444833333334, "is_disabled": 0, "name": "1db5c707516aef70804c7fe3ff27140c", "fusion_lat": 0.0, "rental_uris": {"ios": "https://dc.lft.to/lastmile_qr_scan", "android": "https://dc.lft.to/lastmile_qr_scan"}, "lon": -77.0415465, "type": "electric_scooter"}, {"bike_id": "8517115f962de1d3b607d980709d67bc", "is_reserved": 0, "fusion_lon": 0.0, "lat": 38.92462116666667, "is_disabled": 0, "name": "8517115f962de1d3b607d980709d67bc", "fusion_lat": 0.0, "rental_uris": {"ios": "https://dc.lft.to/lastmile_qr_scan", "android": "https://dc.lft.to/lastmile_qr_scan"}, "lon": -77.20837683333333, "type": "electric_bike"}, {"bike_id": "cef13d81268267efe0275d6acc419b3d", "is_reserved": 0, "fusion_lon": 0.0, "lat": 38.924401833333334, "is_disabled": 0, "name": "cef13d81268267efe0275d6acc419b3d", "fusion_lat": 0.0, "rental_uris": {"ios": "https://dc.lft.to/lastmile_qr_scan", "android": "https://dc.lft.to/lastmile_qr_scan"}, "lon": -77.03358383333334, "type": "electric_scooter"}, {"bike_id": "665be6df74e9e4d075e6f07d2851191d", "is_reserved": 0, "fusion_lon": 0.0, "lat": 38.892263666666665, "is_disabled": 0, "name": "665be6df74e9e4d075e6f07d2851191d", "fusion_lat": 0.0, "rental_uris": {"ios": "https://dc.lft.to/lastmile_qr_scan", "android": "https://dc.lft.to/lastmile_qr_scan"}, "lon": -77.03222416666667, "type": "electric_scooter"}, {"bike_id": "2c6dcaaa832d37c53ace14a48fb72919", "is_reserved": 0, "fusion_lon": 0.0, "lat": 38.905568, "is_disabled": 0, "name": "2c6dcaaa832d37c53ace14a48fb72919", "fusion_lat": 0.0, "rental_uris": {"ios": "https://dc.lft.to/lastmile_qr_scan", "android": "https://dc.lft.to/lastmile_qr_scan"}, "lon": -77.00427216666667, "type": "electric_scooter"}, {"bike_id": "910fa099fe151491b9649cd0ef64fd8b", "is_reserved": 0, "fusion_lon": 0.0, "lat": 38.89755383333333, "is_disabled": 0, "name": "910fa099fe151491b9649cd0ef64fd8b", "fusion_lat": 0.0, "rental_uris": {"ios": "https://dc.lft.to/lastmile_qr_scan", "android": "https://dc.lft.to/lastmile_qr_scan"}, "lon": -77.03041833333333, "type": "electric_scooter"}, {"bike_id": "c9a2d5733a01b178102125e2e7a52749", "is_reserved": 0, "fusion_lon": 0.0, "lat": 38.93421566666667, "is_disabled": 0, "name": "c9a2d5733a01b178102125e2e7a52749", "fusion_lat": 0.0, "rental_uris": {"ios": "https://dc.lft.to/lastmile_qr_scan", "android": "https://dc.lft.to/lastmile_qr_scan"}, "lon": -77.03410416666667, "type": "electric_scooter"}, {"bike_id": "3fe0d41a212ffb29e6ad9bdbf1b75599", "is_reserved": 0, "fusion_lon": 0.0, "lat": 38.8803815, "is_disabled": 0, "name": "3fe0d41a212ffb29e6ad9bdbf1b75599", "fusion_lat": 0.0, "rental_uris": {"ios": "https://dc.lft.to/lastmile_qr_scan", "android": "https://dc.lft.to/lastmile_qr_scan"}, "lon": -76.92726133333333, "type": "electric_scooter"}, {"bike_id": "d67baf9f3ad9456e02da8f87d3a09b1f", "is_reserved": 0, "fusion_lon": 0.0, "lat": 38.924458666666666, "is_disabled": 0, "name": "d67baf9f3ad9456e02da8f87d3a09b1f", "fusion_lat": 0.0, "rental_uris": {"ios": "https://dc.lft.to/lastmile_qr_scan", "android": "https://dc.lft.to/lastmile_qr_scan"}, "lon": -77.03411466666667, "type": "electric_scooter"}, {"bike_id": "b3460217f5d0a7ad25fbb183bed99c72", "is_reserved": 0, "fusion_lon": 0.0, "lat": 38.935887, "is_disabled": 0, "name": "b3460217f5d0a7ad25fbb183bed99c72", "fusion_lat": 0.0, "rental_uris": {"ios": "https://dc.lft.to/lastmile_qr_scan", "android": "https://dc.lft.to/lastmile_qr_scan"}, "lon": -77.02323883333334, "type": "electric_scooter"}, {"bike_id": "4ef8f67fe60a1996435760b8db1eba29", "is_reserved": 0, "fusion_lon": 0.0, "lat": 38.924796, "is_disabled": 0, "name": "4ef8f67fe60a1996435760b8db1eba29", "fusion_lat": 0.0, "rental_uris": {"ios": "https://dc.lft.to/lastmile_qr_scan", "android": "https://dc.lft.to/lastmile_qr_scan"}, "lon": -77.0520765, "type": "electric_scooter"}, {"bike_id": "ba4017dd02fbd05969dc51d27cb9e776", "is_reserved": 0, "fusion_lon": 0.0, "lat": 38.858084, "is_disabled": 0, "name": "ba4017dd02fbd05969dc51d27cb9e776", "fusion_lat": 0.0, "rental_uris": {"ios": "https://dc.lft.to/lastmile_qr_scan", "android": "https://dc.lft.to/lastmile_qr_scan"}, "lon": -76.98654583333334, "type": "electric_scooter"}, {"bike_id": "88c62350066f458880c149a4e530958d", "is_reserved": 0, "fusion_lon": 0.0, "lat": 38.95555366666667, "is_disabled": 0, "name": "88c62350066f458880c149a4e530958d", "fusion_lat": 0.0, "rental_uris": {"ios": "https://dc.lft.to/lastmile_qr_scan", "android": "https://dc.lft.to/lastmile_qr_scan"}, "lon": -76.93538716666667, "type": "electric_bike"}, {"bike_id": "6d0ad1332831113b8a2447a52e65020a", "is_reserved": 0, "fusion_lon": 0.0, "lat": 38.905319666666664, "is_disabled": 0, "name": "6d0ad1332831113b8a2447a52e65020a", "fusion_lat": 0.0, "rental_uris": {"ios": "https://dc.lft.to/lastmile_qr_scan", "android": "https://dc.lft.to/lastmile_qr_scan"}, "lon": -77.05032716666666, "type": "electric_scooter"}, {"bike_id": "d635a17fd3810db77d8c1e2bb7d6ab70", "is_reserved": 0, "fusion_lon": 0.0, "lat": 38.90862383333333, "is_disabled": 0, "name": "d635a17fd3810db77d8c1e2bb7d6ab70", "fusion_lat": 0.0, "rental_uris": {"ios": "https://dc.lft.to/lastmile_qr_scan", "android": "https://dc.lft.to/lastmile_qr_scan"}, "lon": -77.02591066666666, "type": "electric_scooter"}, {"bike_id": "ceb100ed0855ca9675a87889f89163d9", "is_reserved": 0, "fusion_lon": 0.0, "lat": 38.9070925, "is_disabled": 0, "name": "ceb100ed0855ca9675a87889f89163d9", "fusion_lat": 0.0, "rental_uris": {"ios": "https://dc.lft.to/lastmile_qr_scan", "android": "https://dc.lft.to/lastmile_qr_scan"}, "lon": -76.99801366666667, "type": "electric_scooter"}, {"bike_id": "0eedf22e4bc4a13588a0aa6d2c99bfbd", "is_reserved": 0, "fusion_lon": 0.0, "lat": 38.9201185, "is_disabled": 0, "name": "0eedf22e4bc4a13588a0aa6d2c99bfbd", "fusion_lat": 0.0, "rental_uris": {"ios": "https://dc.lft.to/lastmile_qr_scan", "android": "https://dc.lft.to/lastmile_qr_scan"}, "lon": -77.0417595, "type": "electric_scooter"}, {"bike_id": "401a46a61a54fe5f29bffb576731a425", "is_reserved": 0, "fusion_lon": 0.0, "lat": 38.891885, "is_disabled": 0, "name": "401a46a61a54fe5f29bffb576731a425", "fusion_lat": 0.0, "rental_uris": {"ios": "https://dc.lft.to/lastmile_qr_scan", "android": "https://dc.lft.to/lastmile_qr_scan"}, "lon": -77.12261066666667, "type": "electric_bike"}, {"bike_id": "974e7bb9e3f8db9ae6fb250ed23c449f", "is_reserved": 0, "fusion_lon": 0.0, "lat": 38.90954933333333, "is_disabled": 0, "name": "974e7bb9e3f8db9ae6fb250ed23c449f", "fusion_lat": 0.0, "rental_uris": {"ios": "https://dc.lft.to/lastmile_qr_scan", "android": "https://dc.lft.to/lastmile_qr_scan"}, "lon": -77.0482375, "type": "electric_scooter"}, {"bike_id": "3ed5e4d18875460dc84d5c111d8998f6", "is_reserved": 0, "fusion_lon": 0.0, "lat": 38.91578666666667, "is_disabled": 0, "name": "3ed5e4d18875460dc84d5c111d8998f6", "fusion_lat": 0.0, "rental_uris": {"ios": "https://dc.lft.to/lastmile_qr_scan", "android": "https://dc.lft.to/lastmile_qr_scan"}, "lon": -77.012425, "type": "electric_scooter"}, {"bike_id": "8cdc0c2ea4b6bdedf85c6e902ab5ffae", "is_reserved": 0, "fusion_lon": 0.0, "lat": 38.907785833333335, "is_disabled": 0, "name": "8cdc0c2ea4b6bdedf85c6e902ab5ffae", "fusion_lat": 0.0, "rental_uris": {"ios": "https://dc.lft.to/lastmile_qr_scan", "android": "https://dc.lft.to/lastmile_qr_scan"}, "lon": -77.0382275, "type": "electric_scooter"}, {"bike_id": "545d23bafde44f1a930cafeea6770d1f", "is_reserved": 0, "fusion_lon": 0.0, "lat": 38.86421166666667, "is_disabled": 0, "name": "545d23bafde44f1a930cafeea6770d1f", "fusion_lat": 0.0, "rental_uris": {"ios": "https://dc.lft.to/lastmile_qr_scan", "android": "https://dc.lft.to/lastmile_qr_scan"}, "lon": -76.98574616666667, "type": "electric_scooter"}, {"bike_id": "22c92741420f0f4cc72d8916dbc793ef", "is_reserved": 0, "fusion_lon": 0.0, "lat": 38.8226015, "is_disabled": 0, "name": "22c92741420f0f4cc72d8916dbc793ef", "fusion_lat": 0.0, "rental_uris": {"ios": "https://dc.lft.to/lastmile_qr_scan", "android": "https://dc.lft.to/lastmile_qr_scan"}, "lon": -77.005559, "type": "electric_bike"}, {"bike_id": "9f12fac18f4d5b3f8e53b3e12df73191", "is_reserved": 0, "fusion_lon": 0.0, "lat": 38.90717816666667, "is_disabled": 0, "name": "9f12fac18f4d5b3f8e53b3e12df73191", "fusion_lat": 0.0, "rental_uris": {"ios": "https://dc.lft.to/lastmile_qr_scan", "android": "https://dc.lft.to/lastmile_qr_scan"}, "lon": -77.032423, "type": "electric_scooter"}, {"bike_id": "51a866692a3b36b75651970263801d43", "is_reserved": 0, "fusion_lon": 0.0, "lat": 38.893451, "is_disabled": 0, "name": "51a866692a3b36b75651970263801d43", "fusion_lat": 0.0, "rental_uris": {"ios": "https://dc.lft.to/lastmile_qr_scan", "android": "https://dc.lft.to/lastmile_qr_scan"}, "lon": -77.02824283333334, "type": "electric_scooter"}, {"bike_id": "6b4c01d62a38381c6d9235139eb4377a", "is_reserved": 0, "fusion_lon": 0.0, "lat": 38.930848, "is_disabled": 0, "name": "6b4c01d62a38381c6d9235139eb4377a", "fusion_lat": 0.0, "rental_uris": {"ios": "https://dc.lft.to/lastmile_qr_scan", "android": "https://dc.lft.to/lastmile_qr_scan"}, "lon": -77.034309, "type": "electric_scooter"}, {"bike_id": "33b5f49cb9b56c72e45fb9c8ceb8f51a", "is_reserved": 0, "fusion_lon": 0.0, "lat": 38.907832, "is_disabled": 0, "name": "33b5f49cb9b56c72e45fb9c8ceb8f51a", "fusion_lat": 0.0, "rental_uris": {"ios": "https://dc.lft.to/lastmile_qr_scan", "android": "https://dc.lft.to/lastmile_qr_scan"}, "lon": -77.0385865, "type": "electric_scooter"}, {"bike_id": "c1d1748881c1bdd8d5515c96c0db17bc", "is_reserved": 0, "fusion_lon": 0.0, "lat": 38.926544666666665, "is_disabled": 0, "name": "c1d1748881c1bdd8d5515c96c0db17bc", "fusion_lat": 0.0, "rental_uris": {"ios": "https://dc.lft.to/lastmile_qr_scan", "android": "https://dc.lft.to/lastmile_qr_scan"}, "lon": -77.03727116666667, "type": "electric_scooter"}, {"bike_id": "f48240723796710fa2cdb78ec81a4601", "is_reserved": 0, "fusion_lon": 0.0, "lat": 38.91838166666667, "is_disabled": 0, "name": "f48240723796710fa2cdb78ec81a4601", "fusion_lat": 0.0, "rental_uris": {"ios": "https://dc.lft.to/lastmile_qr_scan", "android": "https://dc.lft.to/lastmile_qr_scan"}, "lon": -77.02608516666666, "type": "electric_scooter"}, {"bike_id": "921cddbef148a7cbaea50c7eb24ccf4f", "is_reserved": 0, "fusion_lon": 0.0, "lat": 38.894506666666665, "is_disabled": 0, "name": "921cddbef148a7cbaea50c7eb24ccf4f", "fusion_lat": 0.0, "rental_uris": {"ios": "https://dc.lft.to/lastmile_qr_scan", "android": "https://dc.lft.to/lastmile_qr_scan"}, "lon": -76.97033466666667, "type": "electric_bike"}, {"bike_id": "b290903cbf4cf69cc494fb18454127fb", "is_reserved": 0, "fusion_lon": 0.0, "lat": 38.8904455, "is_disabled": 0, "name": "b290903cbf4cf69cc494fb18454127fb", "fusion_lat": 0.0, "rental_uris": {"ios": "https://dc.lft.to/lastmile_qr_scan", "android": "https://dc.lft.to/lastmile_qr_scan"}, "lon": -76.93760016666667, "type": "electric_scooter"}, {"bike_id": "97fa2e0e1a19f59e927f5cd211c13563", "is_reserved": 0, "fusion_lon": 0.0, "lat": 38.907363833333335, "is_disabled": 0, "name": "97fa2e0e1a19f59e927f5cd211c13563", "fusion_lat": 0.0, "rental_uris": {"ios": "https://dc.lft.to/lastmile_qr_scan", "android": "https://dc.lft.to/lastmile_qr_scan"}, "lon": -76.9864575, "type": "electric_scooter"}, {"bike_id": "12651f38d1f68b87778e31a99dabda8a", "is_reserved": 0, "fusion_lon": 0.0, "lat": 38.93364283333333, "is_disabled": 0, "name": "12651f38d1f68b87778e31a99dabda8a", "fusion_lat": 0.0, "rental_uris": {"ios": "https://dc.lft.to/lastmile_qr_scan", "android": "https://dc.lft.to/lastmile_qr_scan"}, "lon": -77.0572195, "type": "electric_scooter"}, {"bike_id": "2483355c7b71831b282597c4fec70cc8", "is_reserved": 0, "fusion_lon": 0.0, "lat": 38.91039, "is_disabled": 0, "name": "2483355c7b71831b282597c4fec70cc8", "fusion_lat": 0.0, "rental_uris": {"ios": "https://dc.lft.to/lastmile_qr_scan", "android": "https://dc.lft.to/lastmile_qr_scan"}, "lon": -77.03580133333334, "type": "electric_scooter"}, {"bike_id": "f4153ad4744cb008263b02f17ac33a99", "is_reserved": 0, "fusion_lon": 0.0, "lat": 38.885907333333336, "is_disabled": 0, "name": "f4153ad4744cb008263b02f17ac33a99", "fusion_lat": 0.0, "rental_uris": {"ios": "https://dc.lft.to/lastmile_qr_scan", "android": "https://dc.lft.to/lastmile_qr_scan"}, "lon": -77.0176195, "type": "electric_scooter"}, {"bike_id": "45c9f3c9f2b4469ae3f6b52aa265d3c6", "is_reserved": 0, "fusion_lon": 0.0, "lat": 38.806923166666664, "is_disabled": 0, "name": "45c9f3c9f2b4469ae3f6b52aa265d3c6", "fusion_lat": 0.0, "rental_uris": {"ios": "https://dc.lft.to/lastmile_qr_scan", "android": "https://dc.lft.to/lastmile_qr_scan"}, "lon": -77.059665, "type": "electric_bike"}, {"bike_id": "33f17e4a13f7aaf1bcfa731ceef87b91", "is_reserved": 0, "fusion_lon": 0.0, "lat": 38.892301333333336, "is_disabled": 0, "name": "33f17e4a13f7aaf1bcfa731ceef87b91", "fusion_lat": 0.0, "rental_uris": {"ios": "https://dc.lft.to/lastmile_qr_scan", "android": "https://dc.lft.to/lastmile_qr_scan"}, "lon": -77.02584483333334, "type": "electric_scooter"}, {"bike_id": "e56627c134f4bb3f07fe102c5ce932e8", "is_reserved": 0, "fusion_lon": 0.0, "lat": 38.920938166666666, "is_disabled": 0, "name": "e56627c134f4bb3f07fe102c5ce932e8", "fusion_lat": 0.0, "rental_uris": {"ios": "https://dc.lft.to/lastmile_qr_scan", "android": "https://dc.lft.to/lastmile_qr_scan"}, "lon": -77.02566766666666, "type": "electric_scooter"}, {"bike_id": "45898b6deb0ec16bdaaa3363b356c81c", "is_reserved": 0, "fusion_lon": 0.0, "lat": 38.89714383333333, "is_disabled": 0, "name": "45898b6deb0ec16bdaaa3363b356c81c", "fusion_lat": 0.0, "rental_uris": {"ios": "https://dc.lft.to/lastmile_qr_scan", "android": "https://dc.lft.to/lastmile_qr_scan"}, "lon": -77.02710233333333, "type": "electric_scooter"}, {"bike_id": "377ff040924b9e55c4b458478d11bd95", "is_reserved": 0, "fusion_lon": 0.0, "lat": 38.916543833333336, "is_disabled": 0, "name": "377ff040924b9e55c4b458478d11bd95", "fusion_lat": 0.0, "rental_uris": {"ios": "https://dc.lft.to/lastmile_qr_scan", "android": "https://dc.lft.to/lastmile_qr_scan"}, "lon": -77.03639966666667, "type": "electric_scooter"}, {"bike_id": "37e1dd7cc32023a8e9532d8b55b74771", "is_reserved": 0, "fusion_lon": 0.0, "lat": 38.91975683333333, "is_disabled": 0, "name": "37e1dd7cc32023a8e9532d8b55b74771", "fusion_lat": 0.0, "rental_uris": {"ios": "https://dc.lft.to/lastmile_qr_scan", "android": "https://dc.lft.to/lastmile_qr_scan"}, "lon": -77.023649, "type": "electric_scooter"}, {"bike_id": "3745b97c45091f751df424fd61fdab23", "is_reserved": 0, "fusion_lon": 0.0, "lat": 38.908903, "is_disabled": 0, "name": "3745b97c45091f751df424fd61fdab23", "fusion_lat": 0.0, "rental_uris": {"ios": "https://dc.lft.to/lastmile_qr_scan", "android": "https://dc.lft.to/lastmile_qr_scan"}, "lon": -77.022933, "type": "electric_scooter"}, {"bike_id": "fae6e1443086977e1693b112648edb75", "is_reserved": 0, "fusion_lon": 0.0, "lat": 38.902758, "is_disabled": 0, "name": "fae6e1443086977e1693b112648edb75", "fusion_lat": 0.0, "rental_uris": {"ios": "https://dc.lft.to/lastmile_qr_scan", "android": "https://dc.lft.to/lastmile_qr_scan"}, "lon": -77.04056933333334, "type": "electric_scooter"}, {"bike_id": "4bebeb49e84d1ed9cd02d848d77790f6", "is_reserved": 0, "fusion_lon": 0.0, "lat": 38.9388775, "is_disabled": 0, "name": "4bebeb49e84d1ed9cd02d848d77790f6", "fusion_lat": 0.0, "rental_uris": {"ios": "https://dc.lft.to/lastmile_qr_scan", "android": "https://dc.lft.to/lastmile_qr_scan"}, "lon": -77.0282865, "type": "electric_scooter"}, {"bike_id": "630bbbda72892f65d8a33e36d488eb85", "is_reserved": 0, "fusion_lon": 0.0, "lat": 38.92752733333333, "is_disabled": 0, "name": "630bbbda72892f65d8a33e36d488eb85", "fusion_lat": 0.0, "rental_uris": {"ios": "https://dc.lft.to/lastmile_qr_scan", "android": "https://dc.lft.to/lastmile_qr_scan"}, "lon": -77.0537615, "type": "electric_scooter"}, {"bike_id": "dfa1aedeac5625a6ce32ad9b18753559", "is_reserved": 0, "fusion_lon": 0.0, "lat": 38.86595283333333, "is_disabled": 0, "name": "dfa1aedeac5625a6ce32ad9b18753559", "fusion_lat": 0.0, "rental_uris": {"ios": "https://dc.lft.to/lastmile_qr_scan", "android": "https://dc.lft.to/lastmile_qr_scan"}, "lon": -76.93230366666667, "type": "electric_bike"}, {"bike_id": "9df52461598e8a6174a6a351c1c7b21c", "is_reserved": 0, "fusion_lon": 0.0, "lat": 38.939505833333335, "is_disabled": 0, "name": "9df52461598e8a6174a6a351c1c7b21c", "fusion_lat": 0.0, "rental_uris": {"ios": "https://dc.lft.to/lastmile_qr_scan", "android": "https://dc.lft.to/lastmile_qr_scan"}, "lon": -77.03265566666667, "type": "electric_scooter"}, {"bike_id": "e45ad55018d72ee3805f65a093bfdfd3", "is_reserved": 0, "fusion_lon": 0.0, "lat": 38.852174833333336, "is_disabled": 0, "name": "e45ad55018d72ee3805f65a093bfdfd3", "fusion_lat": 0.0, "rental_uris": {"ios": "https://dc.lft.to/lastmile_qr_scan", "android": "https://dc.lft.to/lastmile_qr_scan"}, "lon": -77.1294935, "type": "electric_bike"}, {"bike_id": "b9447a62fd917c082f92ccccce70f853", "is_reserved": 0, "fusion_lon": 0.0, "lat": 38.865618, "is_disabled": 0, "name": "b9447a62fd917c082f92ccccce70f853", "fusion_lat": 0.0, "rental_uris": {"ios": "https://dc.lft.to/lastmile_qr_scan", "android": "https://dc.lft.to/lastmile_qr_scan"}, "lon": -76.9895055, "type": "electric_scooter"}, {"bike_id": "8c7322688cc475e00c0c980dfdce6bab", "is_reserved": 0, "fusion_lon": 0.0, "lat": 38.93951916666666, "is_disabled": 0, "name": "8c7322688cc475e00c0c980dfdce6bab", "fusion_lat": 0.0, "rental_uris": {"ios": "https://dc.lft.to/lastmile_qr_scan", "android": "https://dc.lft.to/lastmile_qr_scan"}, "lon": -77.03262916666667, "type": "electric_scooter"}, {"bike_id": "bb8939538173e232bb5d76f6f7cd3a69", "is_reserved": 0, "fusion_lon": 0.0, "lat": 38.92338983333333, "is_disabled": 0, "name": "bb8939538173e232bb5d76f6f7cd3a69", "fusion_lat": 0.0, "rental_uris": {"ios": "https://dc.lft.to/lastmile_qr_scan", "android": "https://dc.lft.to/lastmile_qr_scan"}, "lon": -77.0189705, "type": "electric_scooter"}, {"bike_id": "46adc88ef42e294ad242d2e04d7ad8fd", "is_reserved": 0, "fusion_lon": 0.0, "lat": 38.90042966666667, "is_disabled": 0, "name": "46adc88ef42e294ad242d2e04d7ad8fd", "fusion_lat": 0.0, "rental_uris": {"ios": "https://dc.lft.to/lastmile_qr_scan", "android": "https://dc.lft.to/lastmile_qr_scan"}, "lon": -77.00758433333333, "type": "electric_scooter"}, {"bike_id": "27148fff3dbfc4f9de8e7dc27eeb1e86", "is_reserved": 0, "fusion_lon": 0.0, "lat": 38.89223766666667, "is_disabled": 0, "name": "27148fff3dbfc4f9de8e7dc27eeb1e86", "fusion_lat": 0.0, "rental_uris": {"ios": "https://dc.lft.to/lastmile_qr_scan", "android": "https://dc.lft.to/lastmile_qr_scan"}, "lon": -77.02843066666667, "type": "electric_scooter"}, {"bike_id": "99cdca90afdacc1a506060fd2132edc6", "is_reserved": 0, "fusion_lon": 0.0, "lat": 38.984666, "is_disabled": 0, "name": "99cdca90afdacc1a506060fd2132edc6", "fusion_lat": 0.0, "rental_uris": {"ios": "https://dc.lft.to/lastmile_qr_scan", "android": "https://dc.lft.to/lastmile_qr_scan"}, "lon": -76.95526166666667, "type": "electric_bike"}, {"bike_id": "0f671a4bbfd2a00a9c48529de574205f", "is_reserved": 0, "fusion_lon": 0.0, "lat": 38.94177583333333, "is_disabled": 0, "name": "0f671a4bbfd2a00a9c48529de574205f", "fusion_lat": 0.0, "rental_uris": {"ios": "https://dc.lft.to/lastmile_qr_scan", "android": "https://dc.lft.to/lastmile_qr_scan"}, "lon": -77.03650116666667, "type": "electric_scooter"}, {"bike_id": "1d450c0950b56c4dd4e14b32510c906c", "is_reserved": 0, "fusion_lon": 0.0, "lat": 38.900121, "is_disabled": 0, "name": "1d450c0950b56c4dd4e14b32510c906c", "fusion_lat": 0.0, "rental_uris": {"ios": "https://dc.lft.to/lastmile_qr_scan", "android": "https://dc.lft.to/lastmile_qr_scan"}, "lon": -77.03325983333333, "type": "electric_scooter"}, {"bike_id": "0597db3b0933ce6823c4593a5a92b168", "is_reserved": 0, "fusion_lon": 0.0, "lat": 38.9133275, "is_disabled": 0, "name": "0597db3b0933ce6823c4593a5a92b168", "fusion_lat": 0.0, "rental_uris": {"ios": "https://dc.lft.to/lastmile_qr_scan", "android": "https://dc.lft.to/lastmile_qr_scan"}, "lon": -77.04812666666666, "type": "electric_scooter"}, {"bike_id": "731328e81b7d3fa1548d22d3692a5dd6", "is_reserved": 0, "fusion_lon": 0.0, "lat": 38.89832716666667, "is_disabled": 0, "name": "731328e81b7d3fa1548d22d3692a5dd6", "fusion_lat": 0.0, "rental_uris": {"ios": "https://dc.lft.to/lastmile_qr_scan", "android": "https://dc.lft.to/lastmile_qr_scan"}, "lon": -77.0320205, "type": "electric_scooter"}, {"bike_id": "97dae94596d708df461d3cd937a6b791", "is_reserved": 0, "fusion_lon": 0.0, "lat": 38.87920733333333, "is_disabled": 0, "name": "97dae94596d708df461d3cd937a6b791", "fusion_lat": 0.0, "rental_uris": {"ios": "https://dc.lft.to/lastmile_qr_scan", "android": "https://dc.lft.to/lastmile_qr_scan"}, "lon": -76.99250166666667, "type": "electric_scooter"}, {"bike_id": "e36f747aabe3e9712270f5a111d7d50f", "is_reserved": 0, "fusion_lon": 0.0, "lat": 38.9197845, "is_disabled": 0, "name": "e36f747aabe3e9712270f5a111d7d50f", "fusion_lat": 0.0, "rental_uris": {"ios": "https://dc.lft.to/lastmile_qr_scan", "android": "https://dc.lft.to/lastmile_qr_scan"}, "lon": -77.04447616666667, "type": "electric_scooter"}, {"bike_id": "859bc251c5742972c2f5a427ab02dfa7", "is_reserved": 0, "fusion_lon": 0.0, "lat": 38.9026555, "is_disabled": 0, "name": "859bc251c5742972c2f5a427ab02dfa7", "fusion_lat": 0.0, "rental_uris": {"ios": "https://dc.lft.to/lastmile_qr_scan", "android": "https://dc.lft.to/lastmile_qr_scan"}, "lon": -77.0396935, "type": "electric_scooter"}, {"bike_id": "95dd03dcea80357869b995b113665abd", "is_reserved": 0, "fusion_lon": 0.0, "lat": 38.884906666666666, "is_disabled": 0, "name": "95dd03dcea80357869b995b113665abd", "fusion_lat": 0.0, "rental_uris": {"ios": "https://dc.lft.to/lastmile_qr_scan", "android": "https://dc.lft.to/lastmile_qr_scan"}, "lon": -77.007269, "type": "electric_scooter"}, {"bike_id": "bb98ffa3f822fbb9959e3e48c10c2983", "is_reserved": 0, "fusion_lon": 0.0, "lat": 38.90373233333333, "is_disabled": 0, "name": "bb98ffa3f822fbb9959e3e48c10c2983", "fusion_lat": 0.0, "rental_uris": {"ios": "https://dc.lft.to/lastmile_qr_scan", "android": "https://dc.lft.to/lastmile_qr_scan"}, "lon": -77.03190583333334, "type": "electric_scooter"}, {"bike_id": "93e122def51bb4163a788dc1958d76af", "is_reserved": 0, "fusion_lon": 0.0, "lat": 38.926536666666664, "is_disabled": 0, "name": "93e122def51bb4163a788dc1958d76af", "fusion_lat": 0.0, "rental_uris": {"ios": "https://dc.lft.to/lastmile_qr_scan", "android": "https://dc.lft.to/lastmile_qr_scan"}, "lon": -77.03710433333333, "type": "electric_scooter"}, {"bike_id": "7298a639a34916d641802e6411d0b499", "is_reserved": 0, "fusion_lon": 0.0, "lat": 38.932507666666666, "is_disabled": 0, "name": "7298a639a34916d641802e6411d0b499", "fusion_lat": 0.0, "rental_uris": {"ios": "https://dc.lft.to/lastmile_qr_scan", "android": "https://dc.lft.to/lastmile_qr_scan"}, "lon": -77.032809, "type": "electric_scooter"}, {"bike_id": "0ef37c2a407b238f9ce8f70c222c9ffd", "is_reserved": 0, "fusion_lon": 0.0, "lat": 38.9590655, "is_disabled": 0, "name": "0ef37c2a407b238f9ce8f70c222c9ffd", "fusion_lat": 0.0, "rental_uris": {"ios": "https://dc.lft.to/lastmile_qr_scan", "android": "https://dc.lft.to/lastmile_qr_scan"}, "lon": -77.0807605, "type": "electric_scooter"}, {"bike_id": "1bf71903aa27eceb02a3079eb9fc61da", "is_reserved": 0, "fusion_lon": 0.0, "lat": 38.918073166666666, "is_disabled": 0, "name": "1bf71903aa27eceb02a3079eb9fc61da", "fusion_lat": 0.0, "rental_uris": {"ios": "https://dc.lft.to/lastmile_qr_scan", "android": "https://dc.lft.to/lastmile_qr_scan"}, "lon": -77.0343885, "type": "electric_scooter"}, {"bike_id": "a707e1b2b68e83dab07410a713927de0", "is_reserved": 0, "fusion_lon": 0.0, "lat": 38.902088666666664, "is_disabled": 0, "name": "a707e1b2b68e83dab07410a713927de0", "fusion_lat": 0.0, "rental_uris": {"ios": "https://dc.lft.to/lastmile_qr_scan", "android": "https://dc.lft.to/lastmile_qr_scan"}, "lon": -77.02187983333333, "type": "electric_scooter"}, {"bike_id": "27c60b1522523c12607ab8e39c1daa8e", "is_reserved": 0, "fusion_lon": 0.0, "lat": 38.93400783333333, "is_disabled": 0, "name": "27c60b1522523c12607ab8e39c1daa8e", "fusion_lat": 0.0, "rental_uris": {"ios": "https://dc.lft.to/lastmile_qr_scan", "android": "https://dc.lft.to/lastmile_qr_scan"}, "lon": -77.0388755, "type": "electric_scooter"}, {"bike_id": "696b66956d023a247caf919777266983", "is_reserved": 0, "fusion_lon": 0.0, "lat": 38.89193916666667, "is_disabled": 0, "name": "696b66956d023a247caf919777266983", "fusion_lat": 0.0, "rental_uris": {"ios": "https://dc.lft.to/lastmile_qr_scan", "android": "https://dc.lft.to/lastmile_qr_scan"}, "lon": -77.02980066666667, "type": "electric_scooter"}, {"bike_id": "ab8956dc50c93d135f20d1008f5ac12f", "is_reserved": 0, "fusion_lon": 0.0, "lat": 38.928456833333335, "is_disabled": 0, "name": "ab8956dc50c93d135f20d1008f5ac12f", "fusion_lat": 0.0, "rental_uris": {"ios": "https://dc.lft.to/lastmile_qr_scan", "android": "https://dc.lft.to/lastmile_qr_scan"}, "lon": -77.05434516666666, "type": "electric_scooter"}, {"bike_id": "1a2299616054d49f95c102416e63bcc2", "is_reserved": 0, "fusion_lon": 0.0, "lat": 38.89621616666667, "is_disabled": 0, "name": "1a2299616054d49f95c102416e63bcc2", "fusion_lat": 0.0, "rental_uris": {"ios": "https://dc.lft.to/lastmile_qr_scan", "android": "https://dc.lft.to/lastmile_qr_scan"}, "lon": -76.998471, "type": "electric_scooter"}, {"bike_id": "7485ec5a25628eea07e2ae91f9693173", "is_reserved": 0, "fusion_lon": 0.0, "lat": 38.89480566666667, "is_disabled": 0, "name": "7485ec5a25628eea07e2ae91f9693173", "fusion_lat": 0.0, "rental_uris": {"ios": "https://dc.lft.to/lastmile_qr_scan", "android": "https://dc.lft.to/lastmile_qr_scan"}, "lon": -77.02301216666666, "type": "electric_scooter"}, {"bike_id": "ba17984a83b2670ab35d47f09bdeb341", "is_reserved": 0, "fusion_lon": 0.0, "lat": 38.90561483333333, "is_disabled": 0, "name": "ba17984a83b2670ab35d47f09bdeb341", "fusion_lat": 0.0, "rental_uris": {"ios": "https://dc.lft.to/lastmile_qr_scan", "android": "https://dc.lft.to/lastmile_qr_scan"}, "lon": -77.0381355, "type": "electric_scooter"}, {"bike_id": "e202abc4f7b9b64b7060e5fa803af2f9", "is_reserved": 0, "fusion_lon": 0.0, "lat": 38.902750166666664, "is_disabled": 0, "name": "e202abc4f7b9b64b7060e5fa803af2f9", "fusion_lat": 0.0, "rental_uris": {"ios": "https://dc.lft.to/lastmile_qr_scan", "android": "https://dc.lft.to/lastmile_qr_scan"}, "lon": -77.059212, "type": "electric_scooter"}, {"bike_id": "149983b346da1134d7e8029c529b37a2", "is_reserved": 0, "fusion_lon": 0.0, "lat": 38.907894166666665, "is_disabled": 0, "name": "149983b346da1134d7e8029c529b37a2", "fusion_lat": 0.0, "rental_uris": {"ios": "https://dc.lft.to/lastmile_qr_scan", "android": "https://dc.lft.to/lastmile_qr_scan"}, "lon": -77.009658, "type": "electric_scooter"}, {"bike_id": "853d7522c982dc410324d9f33fc42298", "is_reserved": 0, "fusion_lon": 0.0, "lat": 38.89622383333333, "is_disabled": 0, "name": "853d7522c982dc410324d9f33fc42298", "fusion_lat": 0.0, "rental_uris": {"ios": "https://dc.lft.to/lastmile_qr_scan", "android": "https://dc.lft.to/lastmile_qr_scan"}, "lon": -77.02860083333333, "type": "electric_scooter"}, {"bike_id": "3adce022a181cebac531da3d7d2b37c7", "is_reserved": 0, "fusion_lon": 0.0, "lat": 38.928987166666666, "is_disabled": 0, "name": "3adce022a181cebac531da3d7d2b37c7", "fusion_lat": 0.0, "rental_uris": {"ios": "https://dc.lft.to/lastmile_qr_scan", "android": "https://dc.lft.to/lastmile_qr_scan"}, "lon": -77.031829, "type": "electric_scooter"}, {"bike_id": "782087015c0cb4dcd6844dd74bba9e50", "is_reserved": 0, "fusion_lon": 0.0, "lat": 38.89558383333333, "is_disabled": 0, "name": "782087015c0cb4dcd6844dd74bba9e50", "fusion_lat": 0.0, "rental_uris": {"ios": "https://dc.lft.to/lastmile_qr_scan", "android": "https://dc.lft.to/lastmile_qr_scan"}, "lon": -77.046745, "type": "electric_scooter"}, {"bike_id": "a1cb9e0e9db9747c7976ea88e7f75fbf", "is_reserved": 0, "fusion_lon": 0.0, "lat": 38.893817166666665, "is_disabled": 0, "name": "a1cb9e0e9db9747c7976ea88e7f75fbf", "fusion_lat": 0.0, "rental_uris": {"ios": "https://dc.lft.to/lastmile_qr_scan", "android": "https://dc.lft.to/lastmile_qr_scan"}, "lon": -77.02255183333334, "type": "electric_bike"}, {"bike_id": "3ecf02179fa85e75204760d19de20a04", "is_reserved": 0, "fusion_lon": 0.0, "lat": 38.92791033333334, "is_disabled": 0, "name": "3ecf02179fa85e75204760d19de20a04", "fusion_lat": 0.0, "rental_uris": {"ios": "https://dc.lft.to/lastmile_qr_scan", "android": "https://dc.lft.to/lastmile_qr_scan"}, "lon": -77.032034, "type": "electric_scooter"}, {"bike_id": "038ab98253ea336dd86a5e18395ab4af", "is_reserved": 0, "fusion_lon": 0.0, "lat": 38.8900215, "is_disabled": 0, "name": "038ab98253ea336dd86a5e18395ab4af", "fusion_lat": 0.0, "rental_uris": {"ios": "https://dc.lft.to/lastmile_qr_scan", "android": "https://dc.lft.to/lastmile_qr_scan"}, "lon": -77.048949, "type": "electric_scooter"}, {"bike_id": "4224efbea1514ea64a07d0d98ba3e58f", "is_reserved": 0, "fusion_lon": 0.0, "lat": 38.906885333333335, "is_disabled": 0, "name": "4224efbea1514ea64a07d0d98ba3e58f", "fusion_lat": 0.0, "rental_uris": {"ios": "https://dc.lft.to/lastmile_qr_scan", "android": "https://dc.lft.to/lastmile_qr_scan"}, "lon": -77.01343833333334, "type": "electric_scooter"}, {"bike_id": "0598f4bd65f85d0bb41d0ec18c78ab11", "is_reserved": 0, "fusion_lon": 0.0, "lat": 38.923742, "is_disabled": 0, "name": "0598f4bd65f85d0bb41d0ec18c78ab11", "fusion_lat": 0.0, "rental_uris": {"ios": "https://dc.lft.to/lastmile_qr_scan", "android": "https://dc.lft.to/lastmile_qr_scan"}, "lon": -77.00214766666667, "type": "electric_scooter"}, {"bike_id": "2cab1dbe6fc4c0e63af228bef3670d35", "is_reserved": 0, "fusion_lon": 0.0, "lat": 38.907292166666664, "is_disabled": 0, "name": "2cab1dbe6fc4c0e63af228bef3670d35", "fusion_lat": 0.0, "rental_uris": {"ios": "https://dc.lft.to/lastmile_qr_scan", "android": "https://dc.lft.to/lastmile_qr_scan"}, "lon": -77.046697, "type": "electric_scooter"}, {"bike_id": "6307400a7067cd4c86b2392e7fdf5c78", "is_reserved": 0, "fusion_lon": 0.0, "lat": 38.93422266666666, "is_disabled": 0, "name": "6307400a7067cd4c86b2392e7fdf5c78", "fusion_lat": 0.0, "rental_uris": {"ios": "https://dc.lft.to/lastmile_qr_scan", "android": "https://dc.lft.to/lastmile_qr_scan"}, "lon": -77.04312916666667, "type": "electric_scooter"}, {"bike_id": "5298a4367d594bfb2fc3ddf7e18182e2", "is_reserved": 0, "fusion_lon": 0.0, "lat": 38.869047333333334, "is_disabled": 0, "name": "5298a4367d594bfb2fc3ddf7e18182e2", "fusion_lat": 0.0, "rental_uris": {"ios": "https://dc.lft.to/lastmile_qr_scan", "android": "https://dc.lft.to/lastmile_qr_scan"}, "lon": -77.131733, "type": "electric_bike"}, {"bike_id": "5a02d3081628ceafa49fca2a00ac5ce4", "is_reserved": 0, "fusion_lon": 0.0, "lat": 38.922425, "is_disabled": 0, "name": "5a02d3081628ceafa49fca2a00ac5ce4", "fusion_lat": 0.0, "rental_uris": {"ios": "https://dc.lft.to/lastmile_qr_scan", "android": "https://dc.lft.to/lastmile_qr_scan"}, "lon": -77.0100955, "type": "electric_scooter"}, {"bike_id": "281cd166a2e586ef17b0646070f018a0", "is_reserved": 0, "fusion_lon": 0.0, "lat": 38.89812533333333, "is_disabled": 0, "name": "281cd166a2e586ef17b0646070f018a0", "fusion_lat": 0.0, "rental_uris": {"ios": "https://dc.lft.to/lastmile_qr_scan", "android": "https://dc.lft.to/lastmile_qr_scan"}, "lon": -77.0330865, "type": "electric_scooter"}, {"bike_id": "588a53533287ef40ba08702e4b74f4cd", "is_reserved": 0, "fusion_lon": 0.0, "lat": 38.89902816666667, "is_disabled": 0, "name": "588a53533287ef40ba08702e4b74f4cd", "fusion_lat": 0.0, "rental_uris": {"ios": "https://dc.lft.to/lastmile_qr_scan", "android": "https://dc.lft.to/lastmile_qr_scan"}, "lon": -77.0396675, "type": "electric_scooter"}, {"bike_id": "556624c8238a3164d0c3cb52ff729dc3", "is_reserved": 0, "fusion_lon": 0.0, "lat": 38.9237425, "is_disabled": 0, "name": "556624c8238a3164d0c3cb52ff729dc3", "fusion_lat": 0.0, "rental_uris": {"ios": "https://dc.lft.to/lastmile_qr_scan", "android": "https://dc.lft.to/lastmile_qr_scan"}, "lon": -77.03094833333333, "type": "electric_scooter"}, {"bike_id": "d1437fd0c4b0a3c4188cce214518f564", "is_reserved": 0, "fusion_lon": 0.0, "lat": 38.92168516666667, "is_disabled": 0, "name": "d1437fd0c4b0a3c4188cce214518f564", "fusion_lat": 0.0, "rental_uris": {"ios": "https://dc.lft.to/lastmile_qr_scan", "android": "https://dc.lft.to/lastmile_qr_scan"}, "lon": -77.04217083333333, "type": "electric_scooter"}, {"bike_id": "04581c119471dbebac510b5fdb2e6a32", "is_reserved": 0, "fusion_lon": 0.0, "lat": 38.901763333333335, "is_disabled": 0, "name": "04581c119471dbebac510b5fdb2e6a32", "fusion_lat": 0.0, "rental_uris": {"ios": "https://dc.lft.to/lastmile_qr_scan", "android": "https://dc.lft.to/lastmile_qr_scan"}, "lon": -76.98083383333334, "type": "electric_scooter"}, {"bike_id": "4046231090bf63e7c75e290d1e794d72", "is_reserved": 0, "fusion_lon": 0.0, "lat": 38.91874816666667, "is_disabled": 0, "name": "4046231090bf63e7c75e290d1e794d72", "fusion_lat": 0.0, "rental_uris": {"ios": "https://dc.lft.to/lastmile_qr_scan", "android": "https://dc.lft.to/lastmile_qr_scan"}, "lon": -77.02959433333334, "type": "electric_scooter"}, {"bike_id": "d236dffbb2ffeb2cdca560f212a0974f", "is_reserved": 0, "fusion_lon": 0.0, "lat": 38.92328666666667, "is_disabled": 0, "name": "d236dffbb2ffeb2cdca560f212a0974f", "fusion_lat": 0.0, "rental_uris": {"ios": "https://dc.lft.to/lastmile_qr_scan", "android": "https://dc.lft.to/lastmile_qr_scan"}, "lon": -77.03779483333334, "type": "electric_scooter"}, {"bike_id": "55a3a05d1605674809833c53f6253a4f", "is_reserved": 0, "fusion_lon": 0.0, "lat": 38.90393366666667, "is_disabled": 0, "name": "55a3a05d1605674809833c53f6253a4f", "fusion_lat": 0.0, "rental_uris": {"ios": "https://dc.lft.to/lastmile_qr_scan", "android": "https://dc.lft.to/lastmile_qr_scan"}, "lon": -77.0629405, "type": "electric_scooter"}, {"bike_id": "9e4a366555ae1faa05c9897a40e817e2", "is_reserved": 0, "fusion_lon": 0.0, "lat": 38.918851333333336, "is_disabled": 0, "name": "9e4a366555ae1faa05c9897a40e817e2", "fusion_lat": 0.0, "rental_uris": {"ios": "https://dc.lft.to/lastmile_qr_scan", "android": "https://dc.lft.to/lastmile_qr_scan"}, "lon": -77.03920316666667, "type": "electric_scooter"}, {"bike_id": "c34f008c9d7cfc65f75f866f60847a6c", "is_reserved": 0, "fusion_lon": 0.0, "lat": 38.90385083333334, "is_disabled": 0, "name": "c34f008c9d7cfc65f75f866f60847a6c", "fusion_lat": 0.0, "rental_uris": {"ios": "https://dc.lft.to/lastmile_qr_scan", "android": "https://dc.lft.to/lastmile_qr_scan"}, "lon": -77.04451, "type": "electric_scooter"}, {"bike_id": "30c121c905d08bb406e36b89104812f6", "is_reserved": 0, "fusion_lon": 0.0, "lat": 38.949712, "is_disabled": 0, "name": "30c121c905d08bb406e36b89104812f6", "fusion_lat": 0.0, "rental_uris": {"ios": "https://dc.lft.to/lastmile_qr_scan", "android": "https://dc.lft.to/lastmile_qr_scan"}, "lon": -77.07895, "type": "electric_scooter"}, {"bike_id": "fd0ce66f0a43357359c0f2fc43db996c", "is_reserved": 0, "fusion_lon": 0.0, "lat": 38.89616633333333, "is_disabled": 0, "name": "fd0ce66f0a43357359c0f2fc43db996c", "fusion_lat": 0.0, "rental_uris": {"ios": "https://dc.lft.to/lastmile_qr_scan", "android": "https://dc.lft.to/lastmile_qr_scan"}, "lon": -76.95573383333333, "type": "electric_scooter"}, {"bike_id": "fecec7e275ea2b71df9c83476c96f1cf", "is_reserved": 0, "fusion_lon": 0.0, "lat": 38.93978933333333, "is_disabled": 0, "name": "fecec7e275ea2b71df9c83476c96f1cf", "fusion_lat": 0.0, "rental_uris": {"ios": "https://dc.lft.to/lastmile_qr_scan", "android": "https://dc.lft.to/lastmile_qr_scan"}, "lon": -77.030233, "type": "electric_scooter"}, {"bike_id": "dfa801ebd50f8ef6f5715818101ace01", "is_reserved": 0, "fusion_lon": 0.0, "lat": 38.920402833333334, "is_disabled": 0, "name": "dfa801ebd50f8ef6f5715818101ace01", "fusion_lat": 0.0, "rental_uris": {"ios": "https://dc.lft.to/lastmile_qr_scan", "android": "https://dc.lft.to/lastmile_qr_scan"}, "lon": -76.9790855, "type": "electric_scooter"}, {"bike_id": "18cfc83ec47e0aeefcbf52501d7f6059", "is_reserved": 0, "fusion_lon": 0.0, "lat": 38.91849416666667, "is_disabled": 0, "name": "18cfc83ec47e0aeefcbf52501d7f6059", "fusion_lat": 0.0, "rental_uris": {"ios": "https://dc.lft.to/lastmile_qr_scan", "android": "https://dc.lft.to/lastmile_qr_scan"}, "lon": -77.0232735, "type": "electric_scooter"}, {"bike_id": "817e797b6c6da0051f42d79e1ec019d3", "is_reserved": 0, "fusion_lon": 0.0, "lat": 38.903328333333334, "is_disabled": 0, "name": "817e797b6c6da0051f42d79e1ec019d3", "fusion_lat": 0.0, "rental_uris": {"ios": "https://dc.lft.to/lastmile_qr_scan", "android": "https://dc.lft.to/lastmile_qr_scan"}, "lon": -77.0463945, "type": "electric_scooter"}, {"bike_id": "7c39c7f4cb44d1cb95e74a725093534b", "is_reserved": 0, "fusion_lon": 0.0, "lat": 38.90972816666667, "is_disabled": 0, "name": "7c39c7f4cb44d1cb95e74a725093534b", "fusion_lat": 0.0, "rental_uris": {"ios": "https://dc.lft.to/lastmile_qr_scan", "android": "https://dc.lft.to/lastmile_qr_scan"}, "lon": -77.02722166666666, "type": "electric_scooter"}, {"bike_id": "eb8b2cac01c60676c9a6639735787b99", "is_reserved": 0, "fusion_lon": 0.0, "lat": 38.887393, "is_disabled": 0, "name": "eb8b2cac01c60676c9a6639735787b99", "fusion_lat": 0.0, "rental_uris": {"ios": "https://dc.lft.to/lastmile_qr_scan", "android": "https://dc.lft.to/lastmile_qr_scan"}, "lon": -77.01533883333333, "type": "electric_scooter"}, {"bike_id": "7ab9d102682b557d34b7a33f0695da44", "is_reserved": 0, "fusion_lon": 0.0, "lat": 38.95909133333333, "is_disabled": 0, "name": "7ab9d102682b557d34b7a33f0695da44", "fusion_lat": 0.0, "rental_uris": {"ios": "https://dc.lft.to/lastmile_qr_scan", "android": "https://dc.lft.to/lastmile_qr_scan"}, "lon": -77.0015325, "type": "electric_bike"}, {"bike_id": "4baaeb29ed3d1d0b1eee830c877399a5", "is_reserved": 0, "fusion_lon": 0.0, "lat": 38.874573166666664, "is_disabled": 0, "name": "4baaeb29ed3d1d0b1eee830c877399a5", "fusion_lat": 0.0, "rental_uris": {"ios": "https://dc.lft.to/lastmile_qr_scan", "android": "https://dc.lft.to/lastmile_qr_scan"}, "lon": -77.005421, "type": "electric_scooter"}, {"bike_id": "d3870cc6769529afc46a0d1f4199dd0f", "is_reserved": 0, "fusion_lon": 0.0, "lat": 38.897827, "is_disabled": 0, "name": "d3870cc6769529afc46a0d1f4199dd0f", "fusion_lat": 0.0, "rental_uris": {"ios": "https://dc.lft.to/lastmile_qr_scan", "android": "https://dc.lft.to/lastmile_qr_scan"}, "lon": -77.007402, "type": "electric_scooter"}, {"bike_id": "f18bb32a226b087db6c744bbb5487081", "is_reserved": 0, "fusion_lon": 0.0, "lat": 38.906236666666665, "is_disabled": 0, "name": "f18bb32a226b087db6c744bbb5487081", "fusion_lat": 0.0, "rental_uris": {"ios": "https://dc.lft.to/lastmile_qr_scan", "android": "https://dc.lft.to/lastmile_qr_scan"}, "lon": -77.03970733333334, "type": "electric_scooter"}, {"bike_id": "0213f02dec85b979d5b38eb8fbe0c914", "is_reserved": 0, "fusion_lon": 0.0, "lat": 38.9231765, "is_disabled": 0, "name": "0213f02dec85b979d5b38eb8fbe0c914", "fusion_lat": 0.0, "rental_uris": {"ios": "https://dc.lft.to/lastmile_qr_scan", "android": "https://dc.lft.to/lastmile_qr_scan"}, "lon": -77.0367015, "type": "electric_scooter"}, {"bike_id": "c134e009fb4baad2c85f665ab3490097", "is_reserved": 0, "fusion_lon": 0.0, "lat": 38.938887333333334, "is_disabled": 0, "name": "c134e009fb4baad2c85f665ab3490097", "fusion_lat": 0.0, "rental_uris": {"ios": "https://dc.lft.to/lastmile_qr_scan", "android": "https://dc.lft.to/lastmile_qr_scan"}, "lon": -77.03322016666667, "type": "electric_scooter"}, {"bike_id": "3073b3707877c5ddf4f608292440d9a4", "is_reserved": 0, "fusion_lon": 0.0, "lat": 38.9032775, "is_disabled": 0, "name": "3073b3707877c5ddf4f608292440d9a4", "fusion_lat": 0.0, "rental_uris": {"ios": "https://dc.lft.to/lastmile_qr_scan", "android": "https://dc.lft.to/lastmile_qr_scan"}, "lon": -77.03797566666667, "type": "electric_scooter"}, {"bike_id": "77acad0fdb5f0a33a385c98b9c9fa725", "is_reserved": 0, "fusion_lon": 0.0, "lat": 38.885014, "is_disabled": 0, "name": "77acad0fdb5f0a33a385c98b9c9fa725", "fusion_lat": 0.0, "rental_uris": {"ios": "https://dc.lft.to/lastmile_qr_scan", "android": "https://dc.lft.to/lastmile_qr_scan"}, "lon": -77.00562816666667, "type": "electric_scooter"}, {"bike_id": "a2ce8eed1cd09e55308782f38db1b792", "is_reserved": 0, "fusion_lon": 0.0, "lat": 38.921511833333334, "is_disabled": 0, "name": "a2ce8eed1cd09e55308782f38db1b792", "fusion_lat": 0.0, "rental_uris": {"ios": "https://dc.lft.to/lastmile_qr_scan", "android": "https://dc.lft.to/lastmile_qr_scan"}, "lon": -77.03530716666667, "type": "electric_scooter"}, {"bike_id": "75a5678471fff628e9160d4e49d50462", "is_reserved": 0, "fusion_lon": 0.0, "lat": 38.92382833333333, "is_disabled": 0, "name": "75a5678471fff628e9160d4e49d50462", "fusion_lat": 0.0, "rental_uris": {"ios": "https://dc.lft.to/lastmile_qr_scan", "android": "https://dc.lft.to/lastmile_qr_scan"}, "lon": -77.2239345, "type": "electric_bike"}, {"bike_id": "4724cdc3f62310fba4821ff168a08875", "is_reserved": 0, "fusion_lon": 0.0, "lat": 38.86506166666667, "is_disabled": 0, "name": "4724cdc3f62310fba4821ff168a08875", "fusion_lat": 0.0, "rental_uris": {"ios": "https://dc.lft.to/lastmile_qr_scan", "android": "https://dc.lft.to/lastmile_qr_scan"}, "lon": -76.98978933333333, "type": "electric_scooter"}, {"bike_id": "86ab3453ab1e993d64fdf924c07f1203", "is_reserved": 0, "fusion_lon": 0.0, "lat": 38.92579933333333, "is_disabled": 0, "name": "86ab3453ab1e993d64fdf924c07f1203", "fusion_lat": 0.0, "rental_uris": {"ios": "https://dc.lft.to/lastmile_qr_scan", "android": "https://dc.lft.to/lastmile_qr_scan"}, "lon": -77.00472616666667, "type": "electric_scooter"}, {"bike_id": "f09027c052d8515554d55ebd2f0b6384", "is_reserved": 0, "fusion_lon": 0.0, "lat": 38.926272833333336, "is_disabled": 0, "name": "f09027c052d8515554d55ebd2f0b6384", "fusion_lat": 0.0, "rental_uris": {"ios": "https://dc.lft.to/lastmile_qr_scan", "android": "https://dc.lft.to/lastmile_qr_scan"}, "lon": -77.03790116666667, "type": "electric_scooter"}, {"bike_id": "e16799819d9c4335f158411c3da4dc32", "is_reserved": 0, "fusion_lon": 0.0, "lat": 38.935766666666666, "is_disabled": 0, "name": "e16799819d9c4335f158411c3da4dc32", "fusion_lat": 0.0, "rental_uris": {"ios": "https://dc.lft.to/lastmile_qr_scan", "android": "https://dc.lft.to/lastmile_qr_scan"}, "lon": -77.027641, "type": "electric_scooter"}, {"bike_id": "8a26e1cdf22e60a890a6e6a8e779d9eb", "is_reserved": 0, "fusion_lon": 0.0, "lat": 38.902748833333334, "is_disabled": 0, "name": "8a26e1cdf22e60a890a6e6a8e779d9eb", "fusion_lat": 0.0, "rental_uris": {"ios": "https://dc.lft.to/lastmile_qr_scan", "android": "https://dc.lft.to/lastmile_qr_scan"}, "lon": -77.039742, "type": "electric_scooter"}, {"bike_id": "ba13d36434ea058bacb7706a364f92e0", "is_reserved": 0, "fusion_lon": 0.0, "lat": 38.893403, "is_disabled": 0, "name": "ba13d36434ea058bacb7706a364f92e0", "fusion_lat": 0.0, "rental_uris": {"ios": "https://dc.lft.to/lastmile_qr_scan", "android": "https://dc.lft.to/lastmile_qr_scan"}, "lon": -76.9845415, "type": "electric_scooter"}, {"bike_id": "2c52f42acb7c0eadc2a30a719ded0a2a", "is_reserved": 0, "fusion_lon": 0.0, "lat": 38.885025666666664, "is_disabled": 0, "name": "2c52f42acb7c0eadc2a30a719ded0a2a", "fusion_lat": 0.0, "rental_uris": {"ios": "https://dc.lft.to/lastmile_qr_scan", "android": "https://dc.lft.to/lastmile_qr_scan"}, "lon": -77.01538033333334, "type": "electric_scooter"}, {"bike_id": "563e7dc567784a97a6f1423afa865418", "is_reserved": 0, "fusion_lon": 0.0, "lat": 38.8784155, "is_disabled": 0, "name": "563e7dc567784a97a6f1423afa865418", "fusion_lat": 0.0, "rental_uris": {"ios": "https://dc.lft.to/lastmile_qr_scan", "android": "https://dc.lft.to/lastmile_qr_scan"}, "lon": -77.00502416666667, "type": "electric_scooter"}, {"bike_id": "fa3895fc710dc99ac51df3e55ca24821", "is_reserved": 0, "fusion_lon": 0.0, "lat": 38.91331066666667, "is_disabled": 0, "name": "fa3895fc710dc99ac51df3e55ca24821", "fusion_lat": 0.0, "rental_uris": {"ios": "https://dc.lft.to/lastmile_qr_scan", "android": "https://dc.lft.to/lastmile_qr_scan"}, "lon": -77.048731, "type": "electric_scooter"}, {"bike_id": "76a1c43427015b82882f6954387a5c73", "is_reserved": 0, "fusion_lon": 0.0, "lat": 38.90229816666667, "is_disabled": 0, "name": "76a1c43427015b82882f6954387a5c73", "fusion_lat": 0.0, "rental_uris": {"ios": "https://dc.lft.to/lastmile_qr_scan", "android": "https://dc.lft.to/lastmile_qr_scan"}, "lon": -77.04571566666667, "type": "electric_bike"}, {"bike_id": "3614fb0d9394cf1ecb50860d1cab7847", "is_reserved": 0, "fusion_lon": 0.0, "lat": 38.92649766666667, "is_disabled": 0, "name": "3614fb0d9394cf1ecb50860d1cab7847", "fusion_lat": 0.0, "rental_uris": {"ios": "https://dc.lft.to/lastmile_qr_scan", "android": "https://dc.lft.to/lastmile_qr_scan"}, "lon": -77.03709766666667, "type": "electric_scooter"}, {"bike_id": "c2840c728efdd5d9c3ffe7fa3a8ec028", "is_reserved": 0, "fusion_lon": 0.0, "lat": 38.925068833333334, "is_disabled": 0, "name": "c2840c728efdd5d9c3ffe7fa3a8ec028", "fusion_lat": 0.0, "rental_uris": {"ios": "https://dc.lft.to/lastmile_qr_scan", "android": "https://dc.lft.to/lastmile_qr_scan"}, "lon": -77.03883983333333, "type": "electric_scooter"}, {"bike_id": "0d8b9d1225a5192d9dcd90e3e159cd72", "is_reserved": 0, "fusion_lon": 0.0, "lat": 38.890349666666665, "is_disabled": 0, "name": "0d8b9d1225a5192d9dcd90e3e159cd72", "fusion_lat": 0.0, "rental_uris": {"ios": "https://dc.lft.to/lastmile_qr_scan", "android": "https://dc.lft.to/lastmile_qr_scan"}, "lon": -76.93624966666667, "type": "electric_scooter"}, {"bike_id": "42e5c38dbe4cefcd822092cb665632c9", "is_reserved": 0, "fusion_lon": 0.0, "lat": 38.9028375, "is_disabled": 0, "name": "42e5c38dbe4cefcd822092cb665632c9", "fusion_lat": 0.0, "rental_uris": {"ios": "https://dc.lft.to/lastmile_qr_scan", "android": "https://dc.lft.to/lastmile_qr_scan"}, "lon": -77.01880633333333, "type": "electric_scooter"}, {"bike_id": "779901e0188839f481d1971465620634", "is_reserved": 0, "fusion_lon": 0.0, "lat": 38.8988105, "is_disabled": 0, "name": "779901e0188839f481d1971465620634", "fusion_lat": 0.0, "rental_uris": {"ios": "https://dc.lft.to/lastmile_qr_scan", "android": "https://dc.lft.to/lastmile_qr_scan"}, "lon": -77.03280133333334, "type": "electric_scooter"}, {"bike_id": "a87659ed3d081d930d6a74c1a9324a95", "is_reserved": 0, "fusion_lon": 0.0, "lat": 38.970896333333336, "is_disabled": 0, "name": "a87659ed3d081d930d6a74c1a9324a95", "fusion_lat": 0.0, "rental_uris": {"ios": "https://dc.lft.to/lastmile_qr_scan", "android": "https://dc.lft.to/lastmile_qr_scan"}, "lon": -77.06966966666667, "type": "electric_bike"}, {"bike_id": "de568de0e5bcafb1b2bb8b62b207ab77", "is_reserved": 0, "fusion_lon": 0.0, "lat": 38.88502916666667, "is_disabled": 0, "name": "de568de0e5bcafb1b2bb8b62b207ab77", "fusion_lat": 0.0, "rental_uris": {"ios": "https://dc.lft.to/lastmile_qr_scan", "android": "https://dc.lft.to/lastmile_qr_scan"}, "lon": -77.00566816666667, "type": "electric_scooter"}, {"bike_id": "c5c511135e839e49c8b7b5867d651a33", "is_reserved": 0, "fusion_lon": 0.0, "lat": 38.921315, "is_disabled": 0, "name": "c5c511135e839e49c8b7b5867d651a33", "fusion_lat": 0.0, "rental_uris": {"ios": "https://dc.lft.to/lastmile_qr_scan", "android": "https://dc.lft.to/lastmile_qr_scan"}, "lon": -77.041242, "type": "electric_scooter"}, {"bike_id": "f757dc6c96278f367223ff25fbe3b521", "is_reserved": 0, "fusion_lon": 0.0, "lat": 38.91733133333334, "is_disabled": 0, "name": "f757dc6c96278f367223ff25fbe3b521", "fusion_lat": 0.0, "rental_uris": {"ios": "https://dc.lft.to/lastmile_qr_scan", "android": "https://dc.lft.to/lastmile_qr_scan"}, "lon": -77.00794366666666, "type": "electric_scooter"}, {"bike_id": "f5a0d45844b529851ba2772856253da0", "is_reserved": 0, "fusion_lon": 0.0, "lat": 38.92239083333333, "is_disabled": 0, "name": "f5a0d45844b529851ba2772856253da0", "fusion_lat": 0.0, "rental_uris": {"ios": "https://dc.lft.to/lastmile_qr_scan", "android": "https://dc.lft.to/lastmile_qr_scan"}, "lon": -77.0308725, "type": "electric_scooter"}, {"bike_id": "71c4aa9be38b117554944d86ded0a09d", "is_reserved": 0, "fusion_lon": 0.0, "lat": 38.923726333333335, "is_disabled": 0, "name": "71c4aa9be38b117554944d86ded0a09d", "fusion_lat": 0.0, "rental_uris": {"ios": "https://dc.lft.to/lastmile_qr_scan", "android": "https://dc.lft.to/lastmile_qr_scan"}, "lon": -77.0517075, "type": "electric_scooter"}, {"bike_id": "ca00b0d222fa52cbc5e47cf4d4f3e435", "is_reserved": 0, "fusion_lon": 0.0, "lat": 38.91155083333334, "is_disabled": 0, "name": "ca00b0d222fa52cbc5e47cf4d4f3e435", "fusion_lat": 0.0, "rental_uris": {"ios": "https://dc.lft.to/lastmile_qr_scan", "android": "https://dc.lft.to/lastmile_qr_scan"}, "lon": -77.0030535, "type": "electric_bike"}, {"bike_id": "aa095526d8194fcc5eb2a031f54ceae7", "is_reserved": 0, "fusion_lon": 0.0, "lat": 38.90281783333333, "is_disabled": 0, "name": "aa095526d8194fcc5eb2a031f54ceae7", "fusion_lat": 0.0, "rental_uris": {"ios": "https://dc.lft.to/lastmile_qr_scan", "android": "https://dc.lft.to/lastmile_qr_scan"}, "lon": -77.03847716666667, "type": "electric_scooter"}, {"bike_id": "89d46b0e33bfdf7e0176b50ed4ba06c5", "is_reserved": 0, "fusion_lon": 0.0, "lat": 38.900227, "is_disabled": 0, "name": "89d46b0e33bfdf7e0176b50ed4ba06c5", "fusion_lat": 0.0, "rental_uris": {"ios": "https://dc.lft.to/lastmile_qr_scan", "android": "https://dc.lft.to/lastmile_qr_scan"}, "lon": -77.04382666666666, "type": "electric_scooter"}, {"bike_id": "8f1668d2ca7d2fe44b85128fe5388593", "is_reserved": 0, "fusion_lon": 0.0, "lat": 38.890158166666666, "is_disabled": 0, "name": "8f1668d2ca7d2fe44b85128fe5388593", "fusion_lat": 0.0, "rental_uris": {"ios": "https://dc.lft.to/lastmile_qr_scan", "android": "https://dc.lft.to/lastmile_qr_scan"}, "lon": -76.9373445, "type": "electric_scooter"}, {"bike_id": "ca4d25394a195c854f6c8b56f2de8167", "is_reserved": 0, "fusion_lon": 0.0, "lat": 38.8773215, "is_disabled": 0, "name": "ca4d25394a195c854f6c8b56f2de8167", "fusion_lat": 0.0, "rental_uris": {"ios": "https://dc.lft.to/lastmile_qr_scan", "android": "https://dc.lft.to/lastmile_qr_scan"}, "lon": -77.11849133333334, "type": "electric_bike"}, {"bike_id": "4f1b9f22b8c737317074dcfa0c8adbd1", "is_reserved": 0, "fusion_lon": 0.0, "lat": 38.8786095, "is_disabled": 0, "name": "4f1b9f22b8c737317074dcfa0c8adbd1", "fusion_lat": 0.0, "rental_uris": {"ios": "https://dc.lft.to/lastmile_qr_scan", "android": "https://dc.lft.to/lastmile_qr_scan"}, "lon": -76.9898415, "type": "electric_scooter"}, {"bike_id": "88c8e6d331aa74c6ac585fa33e1dfde7", "is_reserved": 0, "fusion_lon": 0.0, "lat": 38.92877716666667, "is_disabled": 0, "name": "88c8e6d331aa74c6ac585fa33e1dfde7", "fusion_lat": 0.0, "rental_uris": {"ios": "https://dc.lft.to/lastmile_qr_scan", "android": "https://dc.lft.to/lastmile_qr_scan"}, "lon": -77.03311833333333, "type": "electric_scooter"}, {"bike_id": "1613cf7e794d6cd5a32c04c985093184", "is_reserved": 0, "fusion_lon": 0.0, "lat": 38.90294083333333, "is_disabled": 0, "name": "1613cf7e794d6cd5a32c04c985093184", "fusion_lat": 0.0, "rental_uris": {"ios": "https://dc.lft.to/lastmile_qr_scan", "android": "https://dc.lft.to/lastmile_qr_scan"}, "lon": -77.03455016666666, "type": "electric_scooter"}, {"bike_id": "8583864f033cd102afbc447269263136", "is_reserved": 0, "fusion_lon": 0.0, "lat": 38.93275716666667, "is_disabled": 0, "name": "8583864f033cd102afbc447269263136", "fusion_lat": 0.0, "rental_uris": {"ios": "https://dc.lft.to/lastmile_qr_scan", "android": "https://dc.lft.to/lastmile_qr_scan"}, "lon": -77.03635483333333, "type": "electric_scooter"}, {"bike_id": "d8e4803419acad22ca8dfc7fb2831d26", "is_reserved": 0, "fusion_lon": 0.0, "lat": 38.9127575, "is_disabled": 0, "name": "d8e4803419acad22ca8dfc7fb2831d26", "fusion_lat": 0.0, "rental_uris": {"ios": "https://dc.lft.to/lastmile_qr_scan", "android": "https://dc.lft.to/lastmile_qr_scan"}, "lon": -77.03617066666666, "type": "electric_scooter"}, {"bike_id": "33a818ea6fe798183d3bb08a2a746f04", "is_reserved": 0, "fusion_lon": 0.0, "lat": 38.88406233333333, "is_disabled": 0, "name": "33a818ea6fe798183d3bb08a2a746f04", "fusion_lat": 0.0, "rental_uris": {"ios": "https://dc.lft.to/lastmile_qr_scan", "android": "https://dc.lft.to/lastmile_qr_scan"}, "lon": -77.0176955, "type": "electric_scooter"}, {"bike_id": "cb5506777796a3c5d28f5b07dde19fd4", "is_reserved": 0, "fusion_lon": 0.0, "lat": 38.90206633333333, "is_disabled": 0, "name": "cb5506777796a3c5d28f5b07dde19fd4", "fusion_lat": 0.0, "rental_uris": {"ios": "https://dc.lft.to/lastmile_qr_scan", "android": "https://dc.lft.to/lastmile_qr_scan"}, "lon": -77.0217835, "type": "electric_scooter"}, {"bike_id": "361854f79037e7a7145fba17cfafb528", "is_reserved": 0, "fusion_lon": 0.0, "lat": 38.90245383333333, "is_disabled": 0, "name": "361854f79037e7a7145fba17cfafb528", "fusion_lat": 0.0, "rental_uris": {"ios": "https://dc.lft.to/lastmile_qr_scan", "android": "https://dc.lft.to/lastmile_qr_scan"}, "lon": -77.03900366666667, "type": "electric_scooter"}, {"bike_id": "fda0e36955c3292a51e6b22ea5e26515", "is_reserved": 0, "fusion_lon": 0.0, "lat": 38.8792755, "is_disabled": 0, "name": "fda0e36955c3292a51e6b22ea5e26515", "fusion_lat": 0.0, "rental_uris": {"ios": "https://dc.lft.to/lastmile_qr_scan", "android": "https://dc.lft.to/lastmile_qr_scan"}, "lon": -77.01340766666667, "type": "electric_scooter"}, {"bike_id": "0d73b90bbc7ba1270c30802fae3ef5a0", "is_reserved": 0, "fusion_lon": 0.0, "lat": 38.895179166666665, "is_disabled": 0, "name": "0d73b90bbc7ba1270c30802fae3ef5a0", "fusion_lat": 0.0, "rental_uris": {"ios": "https://dc.lft.to/lastmile_qr_scan", "android": "https://dc.lft.to/lastmile_qr_scan"}, "lon": -77.04841866666666, "type": "electric_scooter"}, {"bike_id": "5f3f618fa5544e24e4edce62b8f9c90e", "is_reserved": 0, "fusion_lon": 0.0, "lat": 38.862008, "is_disabled": 0, "name": "5f3f618fa5544e24e4edce62b8f9c90e", "fusion_lat": 0.0, "rental_uris": {"ios": "https://dc.lft.to/lastmile_qr_scan", "android": "https://dc.lft.to/lastmile_qr_scan"}, "lon": -76.99465133333334, "type": "electric_scooter"}, {"bike_id": "61ee4eac13714d3e7ce5856a03304ad2", "is_reserved": 0, "fusion_lon": 0.0, "lat": 38.888667833333336, "is_disabled": 0, "name": "61ee4eac13714d3e7ce5856a03304ad2", "fusion_lat": 0.0, "rental_uris": {"ios": "https://dc.lft.to/lastmile_qr_scan", "android": "https://dc.lft.to/lastmile_qr_scan"}, "lon": -76.994806, "type": "electric_bike"}, {"bike_id": "798ba654d7777bb59e9ebbe078a51cb6", "is_reserved": 0, "fusion_lon": 0.0, "lat": 38.89953966666667, "is_disabled": 0, "name": "798ba654d7777bb59e9ebbe078a51cb6", "fusion_lat": 0.0, "rental_uris": {"ios": "https://dc.lft.to/lastmile_qr_scan", "android": "https://dc.lft.to/lastmile_qr_scan"}, "lon": -76.97547066666667, "type": "electric_scooter"}, {"bike_id": "f77f8b80090137078e80b40751236225", "is_reserved": 0, "fusion_lon": 0.0, "lat": 38.900042166666665, "is_disabled": 0, "name": "f77f8b80090137078e80b40751236225", "fusion_lat": 0.0, "rental_uris": {"ios": "https://dc.lft.to/lastmile_qr_scan", "android": "https://dc.lft.to/lastmile_qr_scan"}, "lon": -77.05241466666666, "type": "electric_scooter"}, {"bike_id": "38e2a5446add764a03c8a8f2c8f4974b", "is_reserved": 0, "fusion_lon": 0.0, "lat": 38.91097516666667, "is_disabled": 0, "name": "38e2a5446add764a03c8a8f2c8f4974b", "fusion_lat": 0.0, "rental_uris": {"ios": "https://dc.lft.to/lastmile_qr_scan", "android": "https://dc.lft.to/lastmile_qr_scan"}, "lon": -77.04838583333333, "type": "electric_scooter"}, {"bike_id": "5d5ad5496c30d6e956259f6a13c5da8e", "is_reserved": 0, "fusion_lon": 0.0, "lat": 38.900291833333334, "is_disabled": 0, "name": "5d5ad5496c30d6e956259f6a13c5da8e", "fusion_lat": 0.0, "rental_uris": {"ios": "https://dc.lft.to/lastmile_qr_scan", "android": "https://dc.lft.to/lastmile_qr_scan"}, "lon": -76.99538533333333, "type": "electric_scooter"}, {"bike_id": "77ff8546fa46839f41cac5b228a56612", "is_reserved": 0, "fusion_lon": 0.0, "lat": 38.894827666666664, "is_disabled": 0, "name": "77ff8546fa46839f41cac5b228a56612", "fusion_lat": 0.0, "rental_uris": {"ios": "https://dc.lft.to/lastmile_qr_scan", "android": "https://dc.lft.to/lastmile_qr_scan"}, "lon": -76.9487205, "type": "electric_scooter"}, {"bike_id": "8b41df33305d6d3c9991c4f986d7da8d", "is_reserved": 0, "fusion_lon": 0.0, "lat": 38.89221, "is_disabled": 0, "name": "8b41df33305d6d3c9991c4f986d7da8d", "fusion_lat": 0.0, "rental_uris": {"ios": "https://dc.lft.to/lastmile_qr_scan", "android": "https://dc.lft.to/lastmile_qr_scan"}, "lon": -77.04370933333334, "type": "electric_scooter"}, {"bike_id": "5c15bf9ece6111e332fec3bef9be6462", "is_reserved": 0, "fusion_lon": 0.0, "lat": 38.8983225, "is_disabled": 0, "name": "5c15bf9ece6111e332fec3bef9be6462", "fusion_lat": 0.0, "rental_uris": {"ios": "https://dc.lft.to/lastmile_qr_scan", "android": "https://dc.lft.to/lastmile_qr_scan"}, "lon": -76.98046283333333, "type": "electric_scooter"}, {"bike_id": "8a7b70e8e4a7b709f47a5497f53c341e", "is_reserved": 0, "fusion_lon": 0.0, "lat": 38.906717666666665, "is_disabled": 0, "name": "8a7b70e8e4a7b709f47a5497f53c341e", "fusion_lat": 0.0, "rental_uris": {"ios": "https://dc.lft.to/lastmile_qr_scan", "android": "https://dc.lft.to/lastmile_qr_scan"}, "lon": -76.98784383333333, "type": "electric_scooter"}, {"bike_id": "a62005e6554b947cd5684cc55e0198d9", "is_reserved": 0, "fusion_lon": 0.0, "lat": 38.88110833333333, "is_disabled": 0, "name": "a62005e6554b947cd5684cc55e0198d9", "fusion_lat": 0.0, "rental_uris": {"ios": "https://dc.lft.to/lastmile_qr_scan", "android": "https://dc.lft.to/lastmile_qr_scan"}, "lon": -77.0167685, "type": "electric_bike"}, {"bike_id": "7d2a7fe20c51fa7a6178765927af1c70", "is_reserved": 0, "fusion_lon": 0.0, "lat": 38.902475333333335, "is_disabled": 0, "name": "7d2a7fe20c51fa7a6178765927af1c70", "fusion_lat": 0.0, "rental_uris": {"ios": "https://dc.lft.to/lastmile_qr_scan", "android": "https://dc.lft.to/lastmile_qr_scan"}, "lon": -77.03282183333333, "type": "electric_scooter"}, {"bike_id": "c434f39ccff8abb3fad13e4e9e82d260", "is_reserved": 0, "fusion_lon": 0.0, "lat": 38.958768, "is_disabled": 0, "name": "c434f39ccff8abb3fad13e4e9e82d260", "fusion_lat": 0.0, "rental_uris": {"ios": "https://dc.lft.to/lastmile_qr_scan", "android": "https://dc.lft.to/lastmile_qr_scan"}, "lon": -76.92478416666667, "type": "electric_bike"}, {"bike_id": "6729064a52e3655aceb58c0e8d38ec36", "is_reserved": 0, "fusion_lon": 0.0, "lat": 38.92574533333333, "is_disabled": 0, "name": "6729064a52e3655aceb58c0e8d38ec36", "fusion_lat": 0.0, "rental_uris": {"ios": "https://dc.lft.to/lastmile_qr_scan", "android": "https://dc.lft.to/lastmile_qr_scan"}, "lon": -77.03101216666667, "type": "electric_scooter"}, {"bike_id": "e9c04c6e7c443bd2a1548c2e0c6af3a1", "is_reserved": 0, "fusion_lon": 0.0, "lat": 38.918451, "is_disabled": 0, "name": "e9c04c6e7c443bd2a1548c2e0c6af3a1", "fusion_lat": 0.0, "rental_uris": {"ios": "https://dc.lft.to/lastmile_qr_scan", "android": "https://dc.lft.to/lastmile_qr_scan"}, "lon": -77.02330766666667, "type": "electric_scooter"}, {"bike_id": "05adaafaab05d0eae5ee492b2c5618c5", "is_reserved": 0, "fusion_lon": 0.0, "lat": 38.91915683333333, "is_disabled": 0, "name": "05adaafaab05d0eae5ee492b2c5618c5", "fusion_lat": 0.0, "rental_uris": {"ios": "https://dc.lft.to/lastmile_qr_scan", "android": "https://dc.lft.to/lastmile_qr_scan"}, "lon": -77.0319565, "type": "electric_scooter"}, {"bike_id": "91b73c2ba8ae1d0975cc1bcc91e0fa62", "is_reserved": 0, "fusion_lon": 0.0, "lat": 38.87548916666667, "is_disabled": 0, "name": "91b73c2ba8ae1d0975cc1bcc91e0fa62", "fusion_lat": 0.0, "rental_uris": {"ios": "https://dc.lft.to/lastmile_qr_scan", "android": "https://dc.lft.to/lastmile_qr_scan"}, "lon": -76.964909, "type": "electric_scooter"}, {"bike_id": "76f88ba605030060ca11b5fbebdc11e2", "is_reserved": 0, "fusion_lon": 0.0, "lat": 38.910333666666666, "is_disabled": 0, "name": "76f88ba605030060ca11b5fbebdc11e2", "fusion_lat": 0.0, "rental_uris": {"ios": "https://dc.lft.to/lastmile_qr_scan", "android": "https://dc.lft.to/lastmile_qr_scan"}, "lon": -77.04392266666666, "type": "electric_scooter"}, {"bike_id": "25a318b54d24ac54a7724b098927d066", "is_reserved": 0, "fusion_lon": 0.0, "lat": 38.90475033333333, "is_disabled": 0, "name": "25a318b54d24ac54a7724b098927d066", "fusion_lat": 0.0, "rental_uris": {"ios": "https://dc.lft.to/lastmile_qr_scan", "android": "https://dc.lft.to/lastmile_qr_scan"}, "lon": -77.02947066666667, "type": "electric_scooter"}, {"bike_id": "97c26fa601be625110f718c6e667b938", "is_reserved": 0, "fusion_lon": 0.0, "lat": 38.9081175, "is_disabled": 0, "name": "97c26fa601be625110f718c6e667b938", "fusion_lat": 0.0, "rental_uris": {"ios": "https://dc.lft.to/lastmile_qr_scan", "android": "https://dc.lft.to/lastmile_qr_scan"}, "lon": -77.03442516666667, "type": "electric_scooter"}, {"bike_id": "5aea29dcfdea203b6072f5fc0046c060", "is_reserved": 0, "fusion_lon": 0.0, "lat": 38.90571516666667, "is_disabled": 0, "name": "5aea29dcfdea203b6072f5fc0046c060", "fusion_lat": 0.0, "rental_uris": {"ios": "https://dc.lft.to/lastmile_qr_scan", "android": "https://dc.lft.to/lastmile_qr_scan"}, "lon": -77.01509116666666, "type": "electric_scooter"}, {"bike_id": "2e8fa110b952ff7d7c263a75cc9965a6", "is_reserved": 0, "fusion_lon": 0.0, "lat": 38.9042615, "is_disabled": 0, "name": "2e8fa110b952ff7d7c263a75cc9965a6", "fusion_lat": 0.0, "rental_uris": {"ios": "https://dc.lft.to/lastmile_qr_scan", "android": "https://dc.lft.to/lastmile_qr_scan"}, "lon": -77.04651283333334, "type": "electric_scooter"}, {"bike_id": "3e81c56a3a65f88df3ce0030e8b55631", "is_reserved": 0, "fusion_lon": 0.0, "lat": 38.86161416666667, "is_disabled": 0, "name": "3e81c56a3a65f88df3ce0030e8b55631", "fusion_lat": 0.0, "rental_uris": {"ios": "https://dc.lft.to/lastmile_qr_scan", "android": "https://dc.lft.to/lastmile_qr_scan"}, "lon": -77.13094216666667, "type": "electric_bike"}, {"bike_id": "c7f1f273de59b0e91331746d6caf9635", "is_reserved": 0, "fusion_lon": 0.0, "lat": 38.9023925, "is_disabled": 0, "name": "c7f1f273de59b0e91331746d6caf9635", "fusion_lat": 0.0, "rental_uris": {"ios": "https://dc.lft.to/lastmile_qr_scan", "android": "https://dc.lft.to/lastmile_qr_scan"}, "lon": -76.97411983333333, "type": "electric_scooter"}, {"bike_id": "982f3ab1c09bac9112b6ac0d86f11e7d", "is_reserved": 0, "fusion_lon": 0.0, "lat": 38.904101, "is_disabled": 0, "name": "982f3ab1c09bac9112b6ac0d86f11e7d", "fusion_lat": 0.0, "rental_uris": {"ios": "https://dc.lft.to/lastmile_qr_scan", "android": "https://dc.lft.to/lastmile_qr_scan"}, "lon": -77.029403, "type": "electric_scooter"}, {"bike_id": "5ed2087ecb0aa29233a77fafd57a5d04", "is_reserved": 0, "fusion_lon": 0.0, "lat": 38.909705, "is_disabled": 0, "name": "5ed2087ecb0aa29233a77fafd57a5d04", "fusion_lat": 0.0, "rental_uris": {"ios": "https://dc.lft.to/lastmile_qr_scan", "android": "https://dc.lft.to/lastmile_qr_scan"}, "lon": -77.0272865, "type": "electric_scooter"}, {"bike_id": "8d97730beaaca42dfe15eef84f9ecfbf", "is_reserved": 0, "fusion_lon": 0.0, "lat": 38.896229, "is_disabled": 0, "name": "8d97730beaaca42dfe15eef84f9ecfbf", "fusion_lat": 0.0, "rental_uris": {"ios": "https://dc.lft.to/lastmile_qr_scan", "android": "https://dc.lft.to/lastmile_qr_scan"}, "lon": -76.995802, "type": "electric_scooter"}, {"bike_id": "e26b33c2118cda85b3e35bb0a51591c7", "is_reserved": 0, "fusion_lon": 0.0, "lat": 38.925844166666664, "is_disabled": 0, "name": "e26b33c2118cda85b3e35bb0a51591c7", "fusion_lat": 0.0, "rental_uris": {"ios": "https://dc.lft.to/lastmile_qr_scan", "android": "https://dc.lft.to/lastmile_qr_scan"}, "lon": -77.0046575, "type": "electric_scooter"}, {"bike_id": "561a2a42dcee880ead53d4a9df80303a", "is_reserved": 0, "fusion_lon": 0.0, "lat": 38.892206333333334, "is_disabled": 0, "name": "561a2a42dcee880ead53d4a9df80303a", "fusion_lat": 0.0, "rental_uris": {"ios": "https://dc.lft.to/lastmile_qr_scan", "android": "https://dc.lft.to/lastmile_qr_scan"}, "lon": -77.033418, "type": "electric_scooter"}, {"bike_id": "399d14a232112d8d0f9ea134b8a84b44", "is_reserved": 0, "fusion_lon": 0.0, "lat": 38.90329283333333, "is_disabled": 0, "name": "399d14a232112d8d0f9ea134b8a84b44", "fusion_lat": 0.0, "rental_uris": {"ios": "https://dc.lft.to/lastmile_qr_scan", "android": "https://dc.lft.to/lastmile_qr_scan"}, "lon": -76.975361, "type": "electric_bike"}, {"bike_id": "812463441f8dc96800c502a83c6be63b", "is_reserved": 0, "fusion_lon": 0.0, "lat": 38.967599666666665, "is_disabled": 0, "name": "812463441f8dc96800c502a83c6be63b", "fusion_lat": 0.0, "rental_uris": {"ios": "https://dc.lft.to/lastmile_qr_scan", "android": "https://dc.lft.to/lastmile_qr_scan"}, "lon": -77.09156933333334, "type": "electric_bike"}, {"bike_id": "90182692501cca7692c0fe6394de2fe7", "is_reserved": 0, "fusion_lon": 0.0, "lat": 38.913363333333336, "is_disabled": 0, "name": "90182692501cca7692c0fe6394de2fe7", "fusion_lat": 0.0, "rental_uris": {"ios": "https://dc.lft.to/lastmile_qr_scan", "android": "https://dc.lft.to/lastmile_qr_scan"}, "lon": -77.03444733333333, "type": "electric_scooter"}, {"bike_id": "05134565368b6afd11c7b95653407b47", "is_reserved": 0, "fusion_lon": 0.0, "lat": 38.89534533333333, "is_disabled": 0, "name": "05134565368b6afd11c7b95653407b47", "fusion_lat": 0.0, "rental_uris": {"ios": "https://dc.lft.to/lastmile_qr_scan", "android": "https://dc.lft.to/lastmile_qr_scan"}, "lon": -76.980755, "type": "electric_scooter"}, {"bike_id": "4da55fbb49402ae7980d0aa41c1015f6", "is_reserved": 0, "fusion_lon": 0.0, "lat": 38.865232, "is_disabled": 0, "name": "4da55fbb49402ae7980d0aa41c1015f6", "fusion_lat": 0.0, "rental_uris": {"ios": "https://dc.lft.to/lastmile_qr_scan", "android": "https://dc.lft.to/lastmile_qr_scan"}, "lon": -76.99030316666666, "type": "electric_scooter"}, {"bike_id": "0064930eb3b7266046e532d9d7b1bdfa", "is_reserved": 0, "fusion_lon": 0.0, "lat": 38.941006, "is_disabled": 0, "name": "0064930eb3b7266046e532d9d7b1bdfa", "fusion_lat": 0.0, "rental_uris": {"ios": "https://dc.lft.to/lastmile_qr_scan", "android": "https://dc.lft.to/lastmile_qr_scan"}, "lon": -77.06190066666667, "type": "electric_scooter"}, {"bike_id": "08ee8c5ed31f90cd6763cd7a71aeb6cb", "is_reserved": 0, "fusion_lon": 0.0, "lat": 38.85177133333333, "is_disabled": 0, "name": "08ee8c5ed31f90cd6763cd7a71aeb6cb", "fusion_lat": 0.0, "rental_uris": {"ios": "https://dc.lft.to/lastmile_qr_scan", "android": "https://dc.lft.to/lastmile_qr_scan"}, "lon": -76.99584616666667, "type": "electric_scooter"}, {"bike_id": "b9cd843c53230ed8dff3effd328af2a3", "is_reserved": 0, "fusion_lon": 0.0, "lat": 38.897372, "is_disabled": 0, "name": "b9cd843c53230ed8dff3effd328af2a3", "fusion_lat": 0.0, "rental_uris": {"ios": "https://dc.lft.to/lastmile_qr_scan", "android": "https://dc.lft.to/lastmile_qr_scan"}, "lon": -77.04615483333333, "type": "electric_scooter"}, {"bike_id": "5299c21abf4e9a9c64671bf083107698", "is_reserved": 0, "fusion_lon": 0.0, "lat": 38.90470783333333, "is_disabled": 0, "name": "5299c21abf4e9a9c64671bf083107698", "fusion_lat": 0.0, "rental_uris": {"ios": "https://dc.lft.to/lastmile_qr_scan", "android": "https://dc.lft.to/lastmile_qr_scan"}, "lon": -77.04666866666666, "type": "electric_scooter"}, {"bike_id": "81ac7e9e7172dfdbf960a18d0ecf5f1b", "is_reserved": 0, "fusion_lon": 0.0, "lat": 38.892759833333336, "is_disabled": 0, "name": "81ac7e9e7172dfdbf960a18d0ecf5f1b", "fusion_lat": 0.0, "rental_uris": {"ios": "https://dc.lft.to/lastmile_qr_scan", "android": "https://dc.lft.to/lastmile_qr_scan"}, "lon": -77.02598066666667, "type": "electric_scooter"}, {"bike_id": "52367ffe063b5510f13ae58005e8cb2b", "is_reserved": 0, "fusion_lon": 0.0, "lat": 38.9160595, "is_disabled": 0, "name": "52367ffe063b5510f13ae58005e8cb2b", "fusion_lat": 0.0, "rental_uris": {"ios": "https://dc.lft.to/lastmile_qr_scan", "android": "https://dc.lft.to/lastmile_qr_scan"}, "lon": -77.0456975, "type": "electric_scooter"}, {"bike_id": "085bb2f15b398b6fbb9eb14f4c20f77c", "is_reserved": 0, "fusion_lon": 0.0, "lat": 38.950785, "is_disabled": 0, "name": "085bb2f15b398b6fbb9eb14f4c20f77c", "fusion_lat": 0.0, "rental_uris": {"ios": "https://dc.lft.to/lastmile_qr_scan", "android": "https://dc.lft.to/lastmile_qr_scan"}, "lon": -77.0120355, "type": "electric_bike"}, {"bike_id": "732383631bc433f9f73794fe824307ed", "is_reserved": 0, "fusion_lon": 0.0, "lat": 38.89878, "is_disabled": 0, "name": "732383631bc433f9f73794fe824307ed", "fusion_lat": 0.0, "rental_uris": {"ios": "https://dc.lft.to/lastmile_qr_scan", "android": "https://dc.lft.to/lastmile_qr_scan"}, "lon": -76.931638, "type": "electric_scooter"}, {"bike_id": "c173e246419a8c3468eaaa6ba6998e1e", "is_reserved": 0, "fusion_lon": 0.0, "lat": 38.934333, "is_disabled": 0, "name": "c173e246419a8c3468eaaa6ba6998e1e", "fusion_lat": 0.0, "rental_uris": {"ios": "https://dc.lft.to/lastmile_qr_scan", "android": "https://dc.lft.to/lastmile_qr_scan"}, "lon": -77.03442166666666, "type": "electric_scooter"}, {"bike_id": "ed5041c8909938a4c399a7f7b1527189", "is_reserved": 0, "fusion_lon": 0.0, "lat": 38.89947766666667, "is_disabled": 0, "name": "ed5041c8909938a4c399a7f7b1527189", "fusion_lat": 0.0, "rental_uris": {"ios": "https://dc.lft.to/lastmile_qr_scan", "android": "https://dc.lft.to/lastmile_qr_scan"}, "lon": -77.03344833333334, "type": "electric_scooter"}, {"bike_id": "8853a09dd2482adada5453d18e4914c2", "is_reserved": 0, "fusion_lon": 0.0, "lat": 38.905234, "is_disabled": 0, "name": "8853a09dd2482adada5453d18e4914c2", "fusion_lat": 0.0, "rental_uris": {"ios": "https://dc.lft.to/lastmile_qr_scan", "android": "https://dc.lft.to/lastmile_qr_scan"}, "lon": -77.04322716666667, "type": "electric_scooter"}, {"bike_id": "4d78a87551eb88a9d1a8ac41543ddc9c", "is_reserved": 0, "fusion_lon": 0.0, "lat": 38.924960166666665, "is_disabled": 0, "name": "4d78a87551eb88a9d1a8ac41543ddc9c", "fusion_lat": 0.0, "rental_uris": {"ios": "https://dc.lft.to/lastmile_qr_scan", "android": "https://dc.lft.to/lastmile_qr_scan"}, "lon": -77.0089145, "type": "electric_scooter"}, {"bike_id": "6c8c78eeb957d63e96676d3f4185c552", "is_reserved": 0, "fusion_lon": 0.0, "lat": 38.9077785, "is_disabled": 0, "name": "6c8c78eeb957d63e96676d3f4185c552", "fusion_lat": 0.0, "rental_uris": {"ios": "https://dc.lft.to/lastmile_qr_scan", "android": "https://dc.lft.to/lastmile_qr_scan"}, "lon": -77.03833116666667, "type": "electric_scooter"}, {"bike_id": "845db8ec938c7f3260557fe7ba541fa4", "is_reserved": 0, "fusion_lon": 0.0, "lat": 38.90205483333333, "is_disabled": 0, "name": "845db8ec938c7f3260557fe7ba541fa4", "fusion_lat": 0.0, "rental_uris": {"ios": "https://dc.lft.to/lastmile_qr_scan", "android": "https://dc.lft.to/lastmile_qr_scan"}, "lon": -77.0217965, "type": "electric_scooter"}, {"bike_id": "cb6d306cb145788362a95f9fdc9d8f9e", "is_reserved": 0, "fusion_lon": 0.0, "lat": 38.8953295, "is_disabled": 0, "name": "cb6d306cb145788362a95f9fdc9d8f9e", "fusion_lat": 0.0, "rental_uris": {"ios": "https://dc.lft.to/lastmile_qr_scan", "android": "https://dc.lft.to/lastmile_qr_scan"}, "lon": -76.948944, "type": "electric_scooter"}, {"bike_id": "6703a07e563974284d8f91f8feec8568", "is_reserved": 0, "fusion_lon": 0.0, "lat": 38.89364533333333, "is_disabled": 0, "name": "6703a07e563974284d8f91f8feec8568", "fusion_lat": 0.0, "rental_uris": {"ios": "https://dc.lft.to/lastmile_qr_scan", "android": "https://dc.lft.to/lastmile_qr_scan"}, "lon": -76.985201, "type": "electric_bike"}, {"bike_id": "29c7a198e0620681551acf705a718425", "is_reserved": 0, "fusion_lon": 0.0, "lat": 38.914305666666664, "is_disabled": 0, "name": "29c7a198e0620681551acf705a718425", "fusion_lat": 0.0, "rental_uris": {"ios": "https://dc.lft.to/lastmile_qr_scan", "android": "https://dc.lft.to/lastmile_qr_scan"}, "lon": -77.04501016666667, "type": "electric_scooter"}, {"bike_id": "62005a3326de7c276c39070ba5eecdc3", "is_reserved": 0, "fusion_lon": 0.0, "lat": 38.89221833333333, "is_disabled": 0, "name": "62005a3326de7c276c39070ba5eecdc3", "fusion_lat": 0.0, "rental_uris": {"ios": "https://dc.lft.to/lastmile_qr_scan", "android": "https://dc.lft.to/lastmile_qr_scan"}, "lon": -77.02444633333333, "type": "electric_scooter"}, {"bike_id": "44b127a862f0ea0b1a1279e1496af302", "is_reserved": 0, "fusion_lon": 0.0, "lat": 38.897378333333336, "is_disabled": 0, "name": "44b127a862f0ea0b1a1279e1496af302", "fusion_lat": 0.0, "rental_uris": {"ios": "https://dc.lft.to/lastmile_qr_scan", "android": "https://dc.lft.to/lastmile_qr_scan"}, "lon": -77.047771, "type": "electric_scooter"}, {"bike_id": "f52114bec7e33d5ce974a420852633cf", "is_reserved": 0, "fusion_lon": 0.0, "lat": 38.906103333333334, "is_disabled": 0, "name": "f52114bec7e33d5ce974a420852633cf", "fusion_lat": 0.0, "rental_uris": {"ios": "https://dc.lft.to/lastmile_qr_scan", "android": "https://dc.lft.to/lastmile_qr_scan"}, "lon": -77.074879, "type": "electric_scooter"}, {"bike_id": "d6bc7bc2c872d5b11e578ddfcbf0e5c9", "is_reserved": 0, "fusion_lon": 0.0, "lat": 38.90503433333333, "is_disabled": 0, "name": "d6bc7bc2c872d5b11e578ddfcbf0e5c9", "fusion_lat": 0.0, "rental_uris": {"ios": "https://dc.lft.to/lastmile_qr_scan", "android": "https://dc.lft.to/lastmile_qr_scan"}, "lon": -77.02948516666666, "type": "electric_scooter"}, {"bike_id": "f74ff68395bdf61040568269b7f0a2ef", "is_reserved": 0, "fusion_lon": 0.0, "lat": 38.88832433333334, "is_disabled": 0, "name": "f74ff68395bdf61040568269b7f0a2ef", "fusion_lat": 0.0, "rental_uris": {"ios": "https://dc.lft.to/lastmile_qr_scan", "android": "https://dc.lft.to/lastmile_qr_scan"}, "lon": -76.9773555, "type": "electric_scooter"}, {"bike_id": "8dfa3d52dbf069701029f0995e470feb", "is_reserved": 0, "fusion_lon": 0.0, "lat": 39.038822833333334, "is_disabled": 0, "name": "8dfa3d52dbf069701029f0995e470feb", "fusion_lat": 0.0, "rental_uris": {"ios": "https://dc.lft.to/lastmile_qr_scan", "android": "https://dc.lft.to/lastmile_qr_scan"}, "lon": -76.99042016666667, "type": "electric_bike"}, {"bike_id": "fb9e235cfc7e18a3a6ea70d91cf037f7", "is_reserved": 0, "fusion_lon": 0.0, "lat": 38.909599, "is_disabled": 0, "name": "fb9e235cfc7e18a3a6ea70d91cf037f7", "fusion_lat": 0.0, "rental_uris": {"ios": "https://dc.lft.to/lastmile_qr_scan", "android": "https://dc.lft.to/lastmile_qr_scan"}, "lon": -77.04865633333333, "type": "electric_scooter"}, {"bike_id": "10c0a954f26159bd159fcf90a6887122", "is_reserved": 0, "fusion_lon": 0.0, "lat": 38.901074666666666, "is_disabled": 0, "name": "10c0a954f26159bd159fcf90a6887122", "fusion_lat": 0.0, "rental_uris": {"ios": "https://dc.lft.to/lastmile_qr_scan", "android": "https://dc.lft.to/lastmile_qr_scan"}, "lon": -77.0433255, "type": "electric_scooter"}, {"bike_id": "9ba6e86528c2793832347b6638f1e611", "is_reserved": 0, "fusion_lon": 0.0, "lat": 38.85807366666667, "is_disabled": 0, "name": "9ba6e86528c2793832347b6638f1e611", "fusion_lat": 0.0, "rental_uris": {"ios": "https://dc.lft.to/lastmile_qr_scan", "android": "https://dc.lft.to/lastmile_qr_scan"}, "lon": -76.986532, "type": "electric_scooter"}, {"bike_id": "bd58da3cb8a21578cc6b91aed2a6e54b", "is_reserved": 0, "fusion_lon": 0.0, "lat": 38.9236665, "is_disabled": 0, "name": "bd58da3cb8a21578cc6b91aed2a6e54b", "fusion_lat": 0.0, "rental_uris": {"ios": "https://dc.lft.to/lastmile_qr_scan", "android": "https://dc.lft.to/lastmile_qr_scan"}, "lon": -77.05029716666667, "type": "electric_scooter"}, {"bike_id": "5fe5a6a664a4bfda0d4795d8218868e5", "is_reserved": 0, "fusion_lon": 0.0, "lat": 38.887657, "is_disabled": 0, "name": "5fe5a6a664a4bfda0d4795d8218868e5", "fusion_lat": 0.0, "rental_uris": {"ios": "https://dc.lft.to/lastmile_qr_scan", "android": "https://dc.lft.to/lastmile_qr_scan"}, "lon": -76.980562, "type": "electric_scooter"}, {"bike_id": "3652b07b696d5bd870dd088679f91c11", "is_reserved": 0, "fusion_lon": 0.0, "lat": 38.90809083333333, "is_disabled": 0, "name": "3652b07b696d5bd870dd088679f91c11", "fusion_lat": 0.0, "rental_uris": {"ios": "https://dc.lft.to/lastmile_qr_scan", "android": "https://dc.lft.to/lastmile_qr_scan"}, "lon": -77.042247, "type": "electric_scooter"}, {"bike_id": "948548d1147d04f4c5a3faf6f02328e6", "is_reserved": 0, "fusion_lon": 0.0, "lat": 38.87327116666667, "is_disabled": 0, "name": "948548d1147d04f4c5a3faf6f02328e6", "fusion_lat": 0.0, "rental_uris": {"ios": "https://dc.lft.to/lastmile_qr_scan", "android": "https://dc.lft.to/lastmile_qr_scan"}, "lon": -77.10607966666667, "type": "electric_bike"}, {"bike_id": "3e15de0e355d65593f8d311d29a84c0c", "is_reserved": 0, "fusion_lon": 0.0, "lat": 38.935108166666666, "is_disabled": 0, "name": "3e15de0e355d65593f8d311d29a84c0c", "fusion_lat": 0.0, "rental_uris": {"ios": "https://dc.lft.to/lastmile_qr_scan", "android": "https://dc.lft.to/lastmile_qr_scan"}, "lon": -77.02004833333334, "type": "electric_scooter"}, {"bike_id": "7b0bb4b552248a9c53b8d51cffa83802", "is_reserved": 0, "fusion_lon": 0.0, "lat": 38.92263583333333, "is_disabled": 0, "name": "7b0bb4b552248a9c53b8d51cffa83802", "fusion_lat": 0.0, "rental_uris": {"ios": "https://dc.lft.to/lastmile_qr_scan", "android": "https://dc.lft.to/lastmile_qr_scan"}, "lon": -76.974266, "type": "electric_bike"}, {"bike_id": "8124e61622b15f4aab7e3b5726e7428c", "is_reserved": 0, "fusion_lon": 0.0, "lat": 38.940432666666666, "is_disabled": 0, "name": "8124e61622b15f4aab7e3b5726e7428c", "fusion_lat": 0.0, "rental_uris": {"ios": "https://dc.lft.to/lastmile_qr_scan", "android": "https://dc.lft.to/lastmile_qr_scan"}, "lon": -77.029017, "type": "electric_scooter"}, {"bike_id": "122b438ec0be125aa671f97b3314bb51", "is_reserved": 0, "fusion_lon": 0.0, "lat": 38.9436735, "is_disabled": 0, "name": "122b438ec0be125aa671f97b3314bb51", "fusion_lat": 0.0, "rental_uris": {"ios": "https://dc.lft.to/lastmile_qr_scan", "android": "https://dc.lft.to/lastmile_qr_scan"}, "lon": -77.02177216666666, "type": "electric_scooter"}, {"bike_id": "127b4ff4286525aa7c73a88d348cb808", "is_reserved": 0, "fusion_lon": 0.0, "lat": 38.8955335, "is_disabled": 0, "name": "127b4ff4286525aa7c73a88d348cb808", "fusion_lat": 0.0, "rental_uris": {"ios": "https://dc.lft.to/lastmile_qr_scan", "android": "https://dc.lft.to/lastmile_qr_scan"}, "lon": -77.00909616666667, "type": "electric_scooter"}, {"bike_id": "8da1238632224dc36e9533b1c14e3f98", "is_reserved": 0, "fusion_lon": 0.0, "lat": 38.90738133333333, "is_disabled": 0, "name": "8da1238632224dc36e9533b1c14e3f98", "fusion_lat": 0.0, "rental_uris": {"ios": "https://dc.lft.to/lastmile_qr_scan", "android": "https://dc.lft.to/lastmile_qr_scan"}, "lon": -77.03448166666666, "type": "electric_scooter"}, {"bike_id": "74f270ef44d25a806832000dbd9c18f0", "is_reserved": 0, "fusion_lon": 0.0, "lat": 38.92404116666667, "is_disabled": 0, "name": "74f270ef44d25a806832000dbd9c18f0", "fusion_lat": 0.0, "rental_uris": {"ios": "https://dc.lft.to/lastmile_qr_scan", "android": "https://dc.lft.to/lastmile_qr_scan"}, "lon": -77.02541016666666, "type": "electric_scooter"}, {"bike_id": "9e2f331fc99c1c53c1937a875a6c3d82", "is_reserved": 0, "fusion_lon": 0.0, "lat": 38.884331, "is_disabled": 0, "name": "9e2f331fc99c1c53c1937a875a6c3d82", "fusion_lat": 0.0, "rental_uris": {"ios": "https://dc.lft.to/lastmile_qr_scan", "android": "https://dc.lft.to/lastmile_qr_scan"}, "lon": -76.95756816666666, "type": "electric_scooter"}, {"bike_id": "eb72789203915de86d40a89f2741b82d", "is_reserved": 0, "fusion_lon": 0.0, "lat": 38.990905166666664, "is_disabled": 0, "name": "eb72789203915de86d40a89f2741b82d", "fusion_lat": 0.0, "rental_uris": {"ios": "https://dc.lft.to/lastmile_qr_scan", "android": "https://dc.lft.to/lastmile_qr_scan"}, "lon": -76.87496983333334, "type": "electric_bike"}, {"bike_id": "5c3ce95d3a2dcab49d7b3c1bb37b7a0e", "is_reserved": 0, "fusion_lon": 0.0, "lat": 38.90063883333333, "is_disabled": 0, "name": "5c3ce95d3a2dcab49d7b3c1bb37b7a0e", "fusion_lat": 0.0, "rental_uris": {"ios": "https://dc.lft.to/lastmile_qr_scan", "android": "https://dc.lft.to/lastmile_qr_scan"}, "lon": -76.933869, "type": "electric_scooter"}, {"bike_id": "55036642f54e9e29589b4de8ee1215c8", "is_reserved": 0, "fusion_lon": 0.0, "lat": 38.916609, "is_disabled": 0, "name": "55036642f54e9e29589b4de8ee1215c8", "fusion_lat": 0.0, "rental_uris": {"ios": "https://dc.lft.to/lastmile_qr_scan", "android": "https://dc.lft.to/lastmile_qr_scan"}, "lon": -77.02703983333333, "type": "electric_scooter"}, {"bike_id": "dc6429275d5eae6993d883fbeccbe2a7", "is_reserved": 0, "fusion_lon": 0.0, "lat": 38.92290583333333, "is_disabled": 0, "name": "dc6429275d5eae6993d883fbeccbe2a7", "fusion_lat": 0.0, "rental_uris": {"ios": "https://dc.lft.to/lastmile_qr_scan", "android": "https://dc.lft.to/lastmile_qr_scan"}, "lon": -77.03196916666667, "type": "electric_scooter"}, {"bike_id": "f2ebc433eec16dcb03898c053f20eb24", "is_reserved": 0, "fusion_lon": 0.0, "lat": 38.90566233333333, "is_disabled": 0, "name": "f2ebc433eec16dcb03898c053f20eb24", "fusion_lat": 0.0, "rental_uris": {"ios": "https://dc.lft.to/lastmile_qr_scan", "android": "https://dc.lft.to/lastmile_qr_scan"}, "lon": -77.03465366666667, "type": "electric_scooter"}, {"bike_id": "19aedd7c2c6ad5b411d09242084584e7", "is_reserved": 0, "fusion_lon": 0.0, "lat": 38.866971166666666, "is_disabled": 0, "name": "19aedd7c2c6ad5b411d09242084584e7", "fusion_lat": 0.0, "rental_uris": {"ios": "https://dc.lft.to/lastmile_qr_scan", "android": "https://dc.lft.to/lastmile_qr_scan"}, "lon": -76.98714183333334, "type": "electric_scooter"}, {"bike_id": "de33e7c504d58b5e675db4828dabba19", "is_reserved": 0, "fusion_lon": 0.0, "lat": 38.93106366666667, "is_disabled": 0, "name": "de33e7c504d58b5e675db4828dabba19", "fusion_lat": 0.0, "rental_uris": {"ios": "https://dc.lft.to/lastmile_qr_scan", "android": "https://dc.lft.to/lastmile_qr_scan"}, "lon": -77.01848716666667, "type": "electric_scooter"}, {"bike_id": "570f9362e3196ad75eb799b8cb52ec88", "is_reserved": 0, "fusion_lon": 0.0, "lat": 38.92290083333333, "is_disabled": 0, "name": "570f9362e3196ad75eb799b8cb52ec88", "fusion_lat": 0.0, "rental_uris": {"ios": "https://dc.lft.to/lastmile_qr_scan", "android": "https://dc.lft.to/lastmile_qr_scan"}, "lon": -77.020765, "type": "electric_scooter"}, {"bike_id": "9c1bbc85e445c6a1e1a46ba479c7fd9e", "is_reserved": 0, "fusion_lon": 0.0, "lat": 38.90530433333333, "is_disabled": 0, "name": "9c1bbc85e445c6a1e1a46ba479c7fd9e", "fusion_lat": 0.0, "rental_uris": {"ios": "https://dc.lft.to/lastmile_qr_scan", "android": "https://dc.lft.to/lastmile_qr_scan"}, "lon": -76.99807216666666, "type": "electric_bike"}, {"bike_id": "1358a3f516f2cdd4ad3dc0a915a07fb1", "is_reserved": 0, "fusion_lon": 0.0, "lat": 38.913310833333334, "is_disabled": 0, "name": "1358a3f516f2cdd4ad3dc0a915a07fb1", "fusion_lat": 0.0, "rental_uris": {"ios": "https://dc.lft.to/lastmile_qr_scan", "android": "https://dc.lft.to/lastmile_qr_scan"}, "lon": -77.03040316666667, "type": "electric_scooter"}, {"bike_id": "dff5b4abe4b0fbf3c272337e7b40c8db", "is_reserved": 0, "fusion_lon": 0.0, "lat": 38.87915616666667, "is_disabled": 0, "name": "dff5b4abe4b0fbf3c272337e7b40c8db", "fusion_lat": 0.0, "rental_uris": {"ios": "https://dc.lft.to/lastmile_qr_scan", "android": "https://dc.lft.to/lastmile_qr_scan"}, "lon": -76.99511033333333, "type": "electric_scooter"}, {"bike_id": "ff10fc7e0e239d0535f05683608c9b06", "is_reserved": 0, "fusion_lon": 0.0, "lat": 38.891035333333335, "is_disabled": 0, "name": "ff10fc7e0e239d0535f05683608c9b06", "fusion_lat": 0.0, "rental_uris": {"ios": "https://dc.lft.to/lastmile_qr_scan", "android": "https://dc.lft.to/lastmile_qr_scan"}, "lon": -76.98701883333334, "type": "electric_scooter"}, {"bike_id": "33a963c91cec3401ab7aefb9e2203b02", "is_reserved": 0, "fusion_lon": 0.0, "lat": 38.902662166666666, "is_disabled": 0, "name": "33a963c91cec3401ab7aefb9e2203b02", "fusion_lat": 0.0, "rental_uris": {"ios": "https://dc.lft.to/lastmile_qr_scan", "android": "https://dc.lft.to/lastmile_qr_scan"}, "lon": -77.04350883333333, "type": "electric_scooter"}, {"bike_id": "47fde5c173a28d6de0d4fe3f78dc3b54", "is_reserved": 0, "fusion_lon": 0.0, "lat": 38.908352, "is_disabled": 0, "name": "47fde5c173a28d6de0d4fe3f78dc3b54", "fusion_lat": 0.0, "rental_uris": {"ios": "https://dc.lft.to/lastmile_qr_scan", "android": "https://dc.lft.to/lastmile_qr_scan"}, "lon": -77.039419, "type": "electric_scooter"}, {"bike_id": "afdcdc6513b2e3c596469eb3d0812963", "is_reserved": 0, "fusion_lon": 0.0, "lat": 38.91668516666667, "is_disabled": 0, "name": "afdcdc6513b2e3c596469eb3d0812963", "fusion_lat": 0.0, "rental_uris": {"ios": "https://dc.lft.to/lastmile_qr_scan", "android": "https://dc.lft.to/lastmile_qr_scan"}, "lon": -77.02953416666666, "type": "electric_scooter"}, {"bike_id": "bd0aadaa42b68e1c066113d3d553d42e", "is_reserved": 0, "fusion_lon": 0.0, "lat": 38.89562566666667, "is_disabled": 0, "name": "bd0aadaa42b68e1c066113d3d553d42e", "fusion_lat": 0.0, "rental_uris": {"ios": "https://dc.lft.to/lastmile_qr_scan", "android": "https://dc.lft.to/lastmile_qr_scan"}, "lon": -77.01904133333333, "type": "electric_scooter"}, {"bike_id": "163a260f26883ea235613b222b87c69c", "is_reserved": 0, "fusion_lon": 0.0, "lat": 38.92896366666667, "is_disabled": 0, "name": "163a260f26883ea235613b222b87c69c", "fusion_lat": 0.0, "rental_uris": {"ios": "https://dc.lft.to/lastmile_qr_scan", "android": "https://dc.lft.to/lastmile_qr_scan"}, "lon": -77.013772, "type": "electric_scooter"}, {"bike_id": "e61e7918b3876e5e6329db226be9e397", "is_reserved": 0, "fusion_lon": 0.0, "lat": 38.89681366666667, "is_disabled": 0, "name": "e61e7918b3876e5e6329db226be9e397", "fusion_lat": 0.0, "rental_uris": {"ios": "https://dc.lft.to/lastmile_qr_scan", "android": "https://dc.lft.to/lastmile_qr_scan"}, "lon": -76.99611483333334, "type": "electric_scooter"}, {"bike_id": "00be39ad8ceeaeefc97a6600cd9e0331", "is_reserved": 0, "fusion_lon": 0.0, "lat": 38.879014166666664, "is_disabled": 0, "name": "00be39ad8ceeaeefc97a6600cd9e0331", "fusion_lat": 0.0, "rental_uris": {"ios": "https://dc.lft.to/lastmile_qr_scan", "android": "https://dc.lft.to/lastmile_qr_scan"}, "lon": -77.02216116666666, "type": "electric_scooter"}, {"bike_id": "a857efb6fec3c746a2320dc94f3a65c3", "is_reserved": 0, "fusion_lon": 0.0, "lat": 38.92505166666667, "is_disabled": 0, "name": "a857efb6fec3c746a2320dc94f3a65c3", "fusion_lat": 0.0, "rental_uris": {"ios": "https://dc.lft.to/lastmile_qr_scan", "android": "https://dc.lft.to/lastmile_qr_scan"}, "lon": -77.0217245, "type": "electric_scooter"}, {"bike_id": "976d32d4b62458cfc59336b9e956843e", "is_reserved": 0, "fusion_lon": 0.0, "lat": 38.898748499999996, "is_disabled": 0, "name": "976d32d4b62458cfc59336b9e956843e", "fusion_lat": 0.0, "rental_uris": {"ios": "https://dc.lft.to/lastmile_qr_scan", "android": "https://dc.lft.to/lastmile_qr_scan"}, "lon": -76.93161266666667, "type": "electric_scooter"}, {"bike_id": "4d1b58ecf29432b912d5973232b947c0", "is_reserved": 0, "fusion_lon": 0.0, "lat": 38.9009255, "is_disabled": 0, "name": "4d1b58ecf29432b912d5973232b947c0", "fusion_lat": 0.0, "rental_uris": {"ios": "https://dc.lft.to/lastmile_qr_scan", "android": "https://dc.lft.to/lastmile_qr_scan"}, "lon": -77.04351883333334, "type": "electric_scooter"}, {"bike_id": "b0ee4bf1c876de300868b3830635ff0b", "is_reserved": 0, "fusion_lon": 0.0, "lat": 38.92485816666667, "is_disabled": 0, "name": "b0ee4bf1c876de300868b3830635ff0b", "fusion_lat": 0.0, "rental_uris": {"ios": "https://dc.lft.to/lastmile_qr_scan", "android": "https://dc.lft.to/lastmile_qr_scan"}, "lon": -77.027139, "type": "electric_scooter"}, {"bike_id": "b4fd32a97e85688c10d7d3155672398d", "is_reserved": 0, "fusion_lon": 0.0, "lat": 38.917924166666666, "is_disabled": 0, "name": "b4fd32a97e85688c10d7d3155672398d", "fusion_lat": 0.0, "rental_uris": {"ios": "https://dc.lft.to/lastmile_qr_scan", "android": "https://dc.lft.to/lastmile_qr_scan"}, "lon": -77.02312366666666, "type": "electric_scooter"}, {"bike_id": "3393ac4f275184a26b674979ca530d33", "is_reserved": 0, "fusion_lon": 0.0, "lat": 38.923191333333335, "is_disabled": 0, "name": "3393ac4f275184a26b674979ca530d33", "fusion_lat": 0.0, "rental_uris": {"ios": "https://dc.lft.to/lastmile_qr_scan", "android": "https://dc.lft.to/lastmile_qr_scan"}, "lon": -77.03670066666666, "type": "electric_scooter"}, {"bike_id": "872d19ba7221b10803bd19a0692a239d", "is_reserved": 0, "fusion_lon": 0.0, "lat": 38.91246916666667, "is_disabled": 0, "name": "872d19ba7221b10803bd19a0692a239d", "fusion_lat": 0.0, "rental_uris": {"ios": "https://dc.lft.to/lastmile_qr_scan", "android": "https://dc.lft.to/lastmile_qr_scan"}, "lon": -77.01620633333333, "type": "electric_scooter"}, {"bike_id": "a6cb56cac92ac39eb8cfca2f4dd63494", "is_reserved": 0, "fusion_lon": 0.0, "lat": 38.921622, "is_disabled": 0, "name": "a6cb56cac92ac39eb8cfca2f4dd63494", "fusion_lat": 0.0, "rental_uris": {"ios": "https://dc.lft.to/lastmile_qr_scan", "android": "https://dc.lft.to/lastmile_qr_scan"}, "lon": -77.032889, "type": "electric_scooter"}, {"bike_id": "0f2c68e7e6f83f4003fec189b0f99d2e", "is_reserved": 0, "fusion_lon": 0.0, "lat": 38.8717365, "is_disabled": 0, "name": "0f2c68e7e6f83f4003fec189b0f99d2e", "fusion_lat": 0.0, "rental_uris": {"ios": "https://dc.lft.to/lastmile_qr_scan", "android": "https://dc.lft.to/lastmile_qr_scan"}, "lon": -77.006327, "type": "electric_scooter"}, {"bike_id": "3680fd8d0c156dd9b02846c1c7197c58", "is_reserved": 0, "fusion_lon": 0.0, "lat": 38.90969916666667, "is_disabled": 0, "name": "3680fd8d0c156dd9b02846c1c7197c58", "fusion_lat": 0.0, "rental_uris": {"ios": "https://dc.lft.to/lastmile_qr_scan", "android": "https://dc.lft.to/lastmile_qr_scan"}, "lon": -77.0272555, "type": "electric_scooter"}, {"bike_id": "e25c911d851bab4494b2862ed7c5d89c", "is_reserved": 0, "fusion_lon": 0.0, "lat": 38.926134166666664, "is_disabled": 0, "name": "e25c911d851bab4494b2862ed7c5d89c", "fusion_lat": 0.0, "rental_uris": {"ios": "https://dc.lft.to/lastmile_qr_scan", "android": "https://dc.lft.to/lastmile_qr_scan"}, "lon": -77.02161116666667, "type": "electric_scooter"}, {"bike_id": "5d6405d014cb1c3aedd116d4ab7b4441", "is_reserved": 0, "fusion_lon": 0.0, "lat": 38.943975, "is_disabled": 0, "name": "5d6405d014cb1c3aedd116d4ab7b4441", "fusion_lat": 0.0, "rental_uris": {"ios": "https://dc.lft.to/lastmile_qr_scan", "android": "https://dc.lft.to/lastmile_qr_scan"}, "lon": -77.03893766666667, "type": "electric_scooter"},