{"data": {"bikes": [{"name": "3cbc52ac5ba08d454df752046658cdee", "lon": -77.01695166666667, "lat": 38.975015166666665, "type": "electric_scooter", "fusion_lon": 0.0, "is_reserved": 0, "bike_id": "3cbc52ac5ba08d454df752046658cdee", "fusion_lat": 0.0, "is_disabled": 0, "rental_uris": {"ios": "https://dc.lft.to/lastmile_qr_scan", "android": "https://dc.lft.to/lastmile_qr_scan"}}, {"name": "876394e6acd445fa184620715b538da3", "lon": -77.03266116666667, "lat": 38.935369666666666, "type": "electric_scooter", "fusion_lon": 0.0, "is_reserved": 0, "bike_id": "876394e6acd445fa184620715b538da3", "fusion_lat": 0.0, "is_disabled": 0, "rental_uris": {"ios": "https://dc.lft.to/lastmile_qr_scan", "android": "https://dc.lft.to/lastmile_qr_scan"}}, {"name": "73d7c0ef496933ea08446317bb656a27", "lon": -76.9479935, "lat": 38.893983166666665, "type": "electric_bike", "fusion_lon": 0.0, "is_reserved": 0, "bike_id": "73d7c0ef496933ea08446317bb656a27", "fusion_lat": 0.0, "is_disabled": 0, "rental_uris": {"ios": "https://dc.lft.to/lastmile_qr_scan", "android": "https://dc.lft.to/lastmile_qr_scan"}}, {"name": "45e98edf60634c57bb39d9b314c26bbf", "lon": -76.92916083333333, "lat": 38.8930045, "type": "electric_scooter", "fusion_lon": 0.0, "is_reserved": 0, "bike_id": "45e98edf60634c57bb39d9b314c26bbf", "fusion_lat": 0.0, "is_disabled": 0, "rental_uris": {"ios": "https://dc.lft.to/lastmile_qr_scan", "android": "https://dc.lft.to/lastmile_qr_scan"}}, {"name": "77b2aa89dcbbf39437aa7036949f82ca", "lon": -77.0220785, "lat": 38.910541, "type": "electric_scooter", "fusion_lon": 0.0, "is_reserved": 0, "bike_id": "77b2aa89dcbbf39437aa7036949f82ca", "fusion_lat": 0.0, "is_disabled": 0, "rental_uris": {"ios": "https://dc.lft.to/lastmile_qr_scan", "android": "https://dc.lft.to/lastmile_qr_scan"}}, {"name": "0567ae90484d7df11d75292e75e3a291", "lon": -77.038521, "lat": 38.867487, "type": "electric_scooter", "fusion_lon": 0.0, "is_reserved": 0, "bike_id": "0567ae90484d7df11d75292e75e3a291", "fusion_lat": 0.0, "is_disabled": 0, "rental_uris": {"ios": "https://dc.lft.to/lastmile_qr_scan", "android": "https://dc.lft.to/lastmile_qr_scan"}}, {"name": "942d89cc7e98e3820081e6a1c202b123", "lon": -77.05514116666667, "lat": 38.928370666666666, "type": "electric_scooter", "fusion_lon": 0.0, "is_reserved": 0, "bike_id": "942d89cc7e98e3820081e6a1c202b123", "fusion_lat": 0.0, "is_disabled": 0, "rental_uris": {"ios": "https://dc.lft.to/lastmile_qr_scan", "android": "https://dc.lft.to/lastmile_qr_scan"}}, {"name": "ffba4ef06bcf722a31601683c898357e", "lon": -76.96059016666666, "lat": 38.884121, "type": "electric_bike", "fusion_lon": 0.0, "is_reserved": 0, "bike_id": "ffba4ef06bcf722a31601683c898357e", "fusion_lat": 0.0, "is_disabled": 0, "rental_uris": {"ios": "https://dc.lft.to/lastmile_qr_scan", "android": "https://dc.lft.to/lastmile_qr_scan"}}, {"name": "3113c47f7b70422c363587e09e6dea56", "lon": -76.9887125, "lat": 38.95478883333333, "type": "electric_bike", "fusion_lon": 0.0, "is_reserved": 0, "bike_id": "3113c47f7b70422c363587e09e6dea56", "fusion_lat": 0.0, "is_disabled": 0, "rental_uris": {"ios": "https://dc.lft.to/lastmile_qr_scan", "android": "https://dc.lft.to/lastmile_qr_scan"}}, {"name": "96535335eb4cb272e5d935d89d20efbe", "lon": -76.99334016666667, "lat": 38.871424166666664, "type": "electric_scooter", "fusion_lon": 0.0, "is_reserved": 0, "bike_id": "96535335eb4cb272e5d935d89d20efbe", "fusion_lat": 0.0, "is_disabled": 0, "rental_uris": {"ios": "https://dc.lft.to/lastmile_qr_scan", "android": "https://dc.lft.to/lastmile_qr_scan"}}, {"name": "140ff1b3c1d18495205048e781c790a5", "lon": -77.03228283333333, "lat": 38.91696533333333, "type": "electric_scooter", "fusion_lon": 0.0, "is_reserved": 0, "bike_id": "140ff1b3c1d18495205048e781c790a5", "fusion_lat": 0.0, "is_disabled": 0, "rental_uris": {"ios": "https://dc.lft.to/lastmile_qr_scan", "android": "https://dc.lft.to/lastmile_qr_scan"}}, {"name": "b65b84513020b9fc9ab7be8d38f6e0a1", "lon": -77.039611, "lat": 38.900252, "type": "electric_scooter", "fusion_lon": 0.0, "is_reserved": 0, "bike_id": "b65b84513020b9fc9ab7be8d38f6e0a1", "fusion_lat": 0.0, "is_disabled": 0, "rental_uris": {"ios": "https://dc.lft.to/lastmile_qr_scan", "android": "https://dc.lft.to/lastmile_qr_scan"}}, {"name": "343eb5c1543b1ff47d1c9811ceda9bc3", "lon": -77.12961466666667, "lat": 38.852197833333335, "type": "electric_bike", "fusion_lon": 0.0, "is_reserved": 0, "bike_id": "343eb5c1543b1ff47d1c9811ceda9bc3", "fusion_lat": 0.0, "is_disabled": 0, "rental_uris": {"ios": "https://dc.lft.to/lastmile_qr_scan", "android": "https://dc.lft.to/lastmile_qr_scan"}}, {"name": "e0443fee85fb3fdbd388c6888201286f", "lon": -77.04396016666666, "lat": 38.910672166666664, "type": "electric_scooter", "fusion_lon": 0.0, "is_reserved": 0, "bike_id": "e0443fee85fb3fdbd388c6888201286f", "fusion_lat": 0.0, "is_disabled": 0, "rental_uris": {"ios": "https://dc.lft.to/lastmile_qr_scan", "android": "https://dc.lft.to/lastmile_qr_scan"}}, {"name": "0c200ca6175f0511748c4073a2dcccf6", "lon": -77.04316166666666, "lat": 38.923766666666666, "type": "electric_scooter", "fusion_lon": 0.0, "is_reserved": 0, "bike_id": "0c200ca6175f0511748c4073a2dcccf6", "fusion_lat": 0.0, "is_disabled": 0, "rental_uris": {"ios": "https://dc.lft.to/lastmile_qr_scan", "android": "https://dc.lft.to/lastmile_qr_scan"}}, {"name": "1c251df553cf9c1e4081423a11d68394", "lon": -77.02558883333333, "lat": 38.904263666666665, "type": "electric_scooter", "fusion_lon": 0.0, "is_reserved": 0, "bike_id": "1c251df553cf9c1e4081423a11d68394", "fusion_lat": 0.0, "is_disabled": 0, "rental_uris": {"ios": "https://dc.lft.to/lastmile_qr_scan", "android": "https://dc.lft.to/lastmile_qr_scan"}}, {"name": "77170c4b0837d49bb00bbacbb6e834ed", "lon": -77.0281295, "lat": 38.96079616666667, "type": "electric_scooter", "fusion_lon": 0.0, "is_reserved": 0, "bike_id": "77170c4b0837d49bb00bbacbb6e834ed", "fusion_lat": 0.0, "is_disabled": 0, "rental_uris": {"ios": "https://dc.lft.to/lastmile_qr_scan", "android": "https://dc.lft.to/lastmile_qr_scan"}}, {"name": "1bfe37cbff628cbcec0c4df5213ca582", "lon": -77.0530475, "lat": 38.898537833333336, "type": "electric_scooter", "fusion_lon": 0.0, "is_reserved": 0, "bike_id": "1bfe37cbff628cbcec0c4df5213ca582", "fusion_lat": 0.0, "is_disabled": 0, "rental_uris": {"ios": "https://dc.lft.to/lastmile_qr_scan", "android": "https://dc.lft.to/lastmile_qr_scan"}}, {"name": "4b34dbc1e475e02cfb92cb60506a77dc", "lon": -77.012315, "lat": 38.8641695, "type": "electric_scooter", "fusion_lon": 0.0, "is_reserved": 0, "bike_id": "4b34dbc1e475e02cfb92cb60506a77dc", "fusion_lat": 0.0, "is_disabled": 0, "rental_uris": {"ios": "https://dc.lft.to/lastmile_qr_scan", "android": "https://dc.lft.to/lastmile_qr_scan"}}, {"name": "839ae03056ab72d609e356b4f5112e61", "lon": -77.0375465, "lat": 38.929088666666665, "type": "electric_scooter", "fusion_lon": 0.0, "is_reserved": 0, "bike_id": "839ae03056ab72d609e356b4f5112e61", "fusion_lat": 0.0, "is_disabled": 0, "rental_uris": {"ios": "https://dc.lft.to/lastmile_qr_scan", "android": "https://dc.lft.to/lastmile_qr_scan"}}, {"name": "aaf37c5ff66622e4a811e3da4e1546be", "lon": -77.01209633333333, "lat": 38.895303166666665, "type": "electric_scooter", "fusion_lon": 0.0, "is_reserved": 0, "bike_id": "aaf37c5ff66622e4a811e3da4e1546be", "fusion_lat": 0.0, "is_disabled": 0, "rental_uris": {"ios": "https://dc.lft.to/lastmile_qr_scan", "android": "https://dc.lft.to/lastmile_qr_scan"}}, {"name": "3906ae608dd6ac67c5dc284bbd3c6c99", "lon": -76.9903335, "lat": 38.86516066666667, "type": "electric_scooter", "fusion_lon": 0.0, "is_reserved": 0, "bike_id": "3906ae608dd6ac67c5dc284bbd3c6c99", "fusion_lat": 0.0, "is_disabled": 0, "rental_uris": {"ios": "https://dc.lft.to/lastmile_qr_scan", "android": "https://dc.lft.to/lastmile_qr_scan"}}, {"name": "903d0ab00daef55b838a4c5d4f9c5793", "lon": -77.08935033333333, "lat": 38.862643166666665, "type": "electric_bike", "fusion_lon": 0.0, "is_reserved": 0, "bike_id": "903d0ab00daef55b838a4c5d4f9c5793", "fusion_lat": 0.0, "is_disabled": 0, "rental_uris": {"ios": "https://dc.lft.to/lastmile_qr_scan", "android": "https://dc.lft.to/lastmile_qr_scan"}}, {"name": "21e366ac0cc8b8085ad57178fdb63417", "lon": -76.99062483333333, "lat": 38.9296565, "type": "electric_bike", "fusion_lon": 0.0, "is_reserved": 0, "bike_id": "21e366ac0cc8b8085ad57178fdb63417", "fusion_lat": 0.0, "is_disabled": 0, "rental_uris": {"ios": "https://dc.lft.to/lastmile_qr_scan", "android": "https://dc.lft.to/lastmile_qr_scan"}}, {"name": "8705d27e904a5f11c3addafbe1d819c3", "lon": -77.04365783333333, "lat": 38.898312, "type": "electric_scooter", "fusion_lon": 0.0, "is_reserved": 0, "bike_id": "8705d27e904a5f11c3addafbe1d819c3", "fusion_lat": 0.0, "is_disabled": 0, "rental_uris": {"ios": "https://dc.lft.to/lastmile_qr_scan", "android": "https://dc.lft.to/lastmile_qr_scan"}}, {"name": "ba5831001b41362b6a93ec976d2d668d", "lon": -77.02050916666667, "lat": 38.9312155, "type": "electric_scooter", "fusion_lon": 0.0, "is_reserved": 0, "bike_id": "ba5831001b41362b6a93ec976d2d668d", "fusion_lat": 0.0, "is_disabled": 0, "rental_uris": {"ios": "https://dc.lft.to/lastmile_qr_scan", "android": "https://dc.lft.to/lastmile_qr_scan"}}, {"name": "8f81c041fa52ff26999670bcc6ff7b1a", "lon": -77.02285016666667, "lat": 38.89991666666667, "type": "electric_scooter", "fusion_lon": 0.0, "is_reserved": 0, "bike_id": "8f81c041fa52ff26999670bcc6ff7b1a", "fusion_lat": 0.0, "is_disabled": 0, "rental_uris": {"ios": "https://dc.lft.to/lastmile_qr_scan", "android": "https://dc.lft.to/lastmile_qr_scan"}}, {"name": "09fe250e77db0cdb7bab248a532e5188", "lon": -77.04362166666667, "lat": 38.907659, "type": "electric_scooter", "fusion_lon": 0.0, "is_reserved": 0, "bike_id": "09fe250e77db0cdb7bab248a532e5188", "fusion_lat": 0.0, "is_disabled": 0, "rental_uris": {"ios": "https://dc.lft.to/lastmile_qr_scan", "android": "https://dc.lft.to/lastmile_qr_scan"}}, {"name": "5f383dad78dc23940e4906207ed98000", "lon": -77.0241755, "lat": 38.90736616666667, "type": "electric_scooter", "fusion_lon": 0.0, "is_reserved": 0, "bike_id": "5f383dad78dc23940e4906207ed98000", "fusion_lat": 0.0, "is_disabled": 0, "rental_uris": {"ios": "https://dc.lft.to/lastmile_qr_scan", "android": "https://dc.lft.to/lastmile_qr_scan"}}, {"name": "9a974e1a59c7c35e37ddecdcc905bf91", "lon": -77.04122583333333, "lat": 38.916365666666664, "type": "electric_scooter", "fusion_lon": 0.0, "is_reserved": 0, "bike_id": "9a974e1a59c7c35e37ddecdcc905bf91", "fusion_lat": 0.0, "is_disabled": 0, "rental_uris": {"ios": "https://dc.lft.to/lastmile_qr_scan", "android": "https://dc.lft.to/lastmile_qr_scan"}}, {"name": "33358a1d4a3d52c6637fa15f15fd6054", "lon": -76.98110583333333, "lat": 38.877308666666664, "type": "electric_bike", "fusion_lon": 0.0, "is_reserved": 0, "bike_id": "33358a1d4a3d52c6637fa15f15fd6054", "fusion_lat": 0.0, "is_disabled": 0, "rental_uris": {"ios": "https://dc.lft.to/lastmile_qr_scan", "android": "https://dc.lft.to/lastmile_qr_scan"}}, {"name": "41a4d866b7cf3b6d70422b20be7ce7c0", "lon": -77.05852216666666, "lat": 38.93609816666667, "type": "electric_scooter", "fusion_lon": 0.0, "is_reserved": 0, "bike_id": "41a4d866b7cf3b6d70422b20be7ce7c0", "fusion_lat": 0.0, "is_disabled": 0, "rental_uris": {"ios": "https://dc.lft.to/lastmile_qr_scan", "android": "https://dc.lft.to/lastmile_qr_scan"}}, {"name": "7b089746dff35a708bcb8454da21c5b5", "lon": -76.99347666666667, "lat": 38.91487083333333, "type": "electric_scooter", "fusion_lon": 0.0, "is_reserved": 0, "bike_id": "7b089746dff35a708bcb8454da21c5b5", "fusion_lat": 0.0, "is_disabled": 0, "rental_uris": {"ios": "https://dc.lft.to/lastmile_qr_scan", "android": "https://dc.lft.to/lastmile_qr_scan"}}, {"name": "c52fdecb62aaae021e5093080ec71e70", "lon": -77.0238695, "lat": 38.90845266666667, "type": "electric_scooter", "fusion_lon": 0.0, "is_reserved": 0, "bike_id": "c52fdecb62aaae021e5093080ec71e70", "fusion_lat": 0.0, "is_disabled": 0, "rental_uris": {"ios": "https://dc.lft.to/lastmile_qr_scan", "android": "https://dc.lft.to/lastmile_qr_scan"}}, {"name": "d70a84bbdff25659e2c9e2a972bf81d5", "lon": -77.03552166666667, "lat": 38.90670216666667, "type": "electric_scooter", "fusion_lon": 0.0, "is_reserved": 0, "bike_id": "d70a84bbdff25659e2c9e2a972bf81d5", "fusion_lat": 0.0, "is_disabled": 0, "rental_uris": {"ios": "https://dc.lft.to/lastmile_qr_scan", "android": "https://dc.lft.to/lastmile_qr_scan"}}, {"name": "57adb6d0961ed6a9ab224a2447d52ba4", "lon": -77.01592466666666, "lat": 38.949384333333334, "type": "electric_scooter", "fusion_lon": 0.0, "is_reserved": 0, "bike_id": "57adb6d0961ed6a9ab224a2447d52ba4", "fusion_lat": 0.0, "is_disabled": 0, "rental_uris": {"ios": "https://dc.lft.to/lastmile_qr_scan", "android": "https://dc.lft.to/lastmile_qr_scan"}}, {"name": "9bc9ecb740201f2130afbab734b330cc", "lon": -77.02721033333333, "lat": 38.949594166666664, "type": "electric_scooter", "fusion_lon": 0.0, "is_reserved": 0, "bike_id": "9bc9ecb740201f2130afbab734b330cc", "fusion_lat": 0.0, "is_disabled": 0, "rental_uris": {"ios": "https://dc.lft.to/lastmile_qr_scan", "android": "https://dc.lft.to/lastmile_qr_scan"}}, {"name": "d47f255c0aaf690772e1752e6dca6b17", "lon": -77.0460415, "lat": 38.919345, "type": "electric_scooter", "fusion_lon": 0.0, "is_reserved": 0, "bike_id": "d47f255c0aaf690772e1752e6dca6b17", "fusion_lat": 0.0, "is_disabled": 0, "rental_uris": {"ios": "https://dc.lft.to/lastmile_qr_scan", "android": "https://dc.lft.to/lastmile_qr_scan"}}, {"name": "73c53174699786453e845eae0a1ee625", "lon": -77.026143, "lat": 38.89670866666667, "type": "electric_scooter", "fusion_lon": 0.0, "is_reserved": 0, "bike_id": "73c53174699786453e845eae0a1ee625", "fusion_lat": 0.0, "is_disabled": 0, "rental_uris": {"ios": "https://dc.lft.to/lastmile_qr_scan", "android": "https://dc.lft.to/lastmile_qr_scan"}}, {"name": "5ae220b26e0cfee30b62169f4d2d91ec", "lon": -77.07584133333333, "lat": 38.938614333333334, "type": "electric_scooter", "fusion_lon": 0.0, "is_reserved": 0, "bike_id": "5ae220b26e0cfee30b62169f4d2d91ec", "fusion_lat": 0.0, "is_disabled": 0, "rental_uris": {"ios": "https://dc.lft.to/lastmile_qr_scan", "android": "https://dc.lft.to/lastmile_qr_scan"}}, {"name": "10e67af695637b4ff5c9afffd39d40cf", "lon": -77.02435383333334, "lat": 38.9028015, "type": "electric_scooter", "fusion_lon": 0.0, "is_reserved": 0, "bike_id": "10e67af695637b4ff5c9afffd39d40cf", "fusion_lat": 0.0, "is_disabled": 0, "rental_uris": {"ios": "https://dc.lft.to/lastmile_qr_scan", "android": "https://dc.lft.to/lastmile_qr_scan"}}, {"name": "973b55211f58da40e97969dcb01f08f4", "lon": -77.03644933333334, "lat": 38.917339, "type": "electric_scooter", "fusion_lon": 0.0, "is_reserved": 0, "bike_id": "973b55211f58da40e97969dcb01f08f4", "fusion_lat": 0.0, "is_disabled": 0, "rental_uris": {"ios": "https://dc.lft.to/lastmile_qr_scan", "android": "https://dc.lft.to/lastmile_qr_scan"}}, {"name": "4cbde5f1966ead58938331c76f3c52d1", "lon": -77.03708033333334, "lat": 38.927789, "type": "electric_scooter", "fusion_lon": 0.0, "is_reserved": 0, "bike_id": "4cbde5f1966ead58938331c76f3c52d1", "fusion_lat": 0.0, "is_disabled": 0, "rental_uris": {"ios": "https://dc.lft.to/lastmile_qr_scan", "android": "https://dc.lft.to/lastmile_qr_scan"}}, {"name": "47480fa47beb4f4fa57da26bdeebc0d8", "lon": -77.01785583333333, "lat": 38.911881666666666, "type": "electric_scooter", "fusion_lon": 0.0, "is_reserved": 0, "bike_id": "47480fa47beb4f4fa57da26bdeebc0d8", "fusion_lat": 0.0, "is_disabled": 0, "rental_uris": {"ios": "https://dc.lft.to/lastmile_qr_scan", "android": "https://dc.lft.to/lastmile_qr_scan"}}, {"name": "bc3b3e0d7fc67dad03e8fa4063932b16", "lon": -77.030422, "lat": 38.8975265, "type": "electric_scooter", "fusion_lon": 0.0, "is_reserved": 0, "bike_id": "bc3b3e0d7fc67dad03e8fa4063932b16", "fusion_lat": 0.0, "is_disabled": 0, "rental_uris": {"ios": "https://dc.lft.to/lastmile_qr_scan", "android": "https://dc.lft.to/lastmile_qr_scan"}}, {"name": "8bcefd775dc5112f82ad6c9a186a1ea5", "lon": -77.03209, "lat": 38.895881, "type": "electric_scooter", "fusion_lon": 0.0, "is_reserved": 0, "bike_id": "8bcefd775dc5112f82ad6c9a186a1ea5", "fusion_lat": 0.0, "is_disabled": 0, "rental_uris": {"ios": "https://dc.lft.to/lastmile_qr_scan", "android": "https://dc.lft.to/lastmile_qr_scan"}}, {"name": "a30151275775f77dd7faee5216384721", "lon": -77.0266485, "lat": 38.897219, "type": "electric_scooter", "fusion_lon": 0.0, "is_reserved": 0, "bike_id": "a30151275775f77dd7faee5216384721", "fusion_lat": 0.0, "is_disabled": 0, "rental_uris": {"ios": "https://dc.lft.to/lastmile_qr_scan", "android": "https://dc.lft.to/lastmile_qr_scan"}}, {"name": "ff06760069536f38f7ccbf71f1cf859f", "lon": -77.0318195, "lat": 38.912325, "type": "electric_scooter", "fusion_lon": 0.0, "is_reserved": 0, "bike_id": "ff06760069536f38f7ccbf71f1cf859f", "fusion_lat": 0.0, "is_disabled": 0, "rental_uris": {"ios": "https://dc.lft.to/lastmile_qr_scan", "android": "https://dc.lft.to/lastmile_qr_scan"}}, {"name": "73b3eb9fd160f812746de4bc48300b75", "lon": -77.02514133333334, "lat": 38.915641666666666, "type": "electric_scooter", "fusion_lon": 0.0, "is_reserved": 0, "bike_id": "73b3eb9fd160f812746de4bc48300b75", "fusion_lat": 0.0, "is_disabled": 0, "rental_uris": {"ios": "https://dc.lft.to/lastmile_qr_scan", "android": "https://dc.lft.to/lastmile_qr_scan"}}, {"name": "797eba0d746463fa421781a4006c8420", "lon": -77.03814766666666, "lat": 38.925270833333336, "type": "electric_scooter", "fusion_lon": 0.0, "is_reserved": 0, "bike_id": "797eba0d746463fa421781a4006c8420", "fusion_lat": 0.0, "is_disabled": 0, "rental_uris": {"ios": "https://dc.lft.to/lastmile_qr_scan", "android": "https://dc.lft.to/lastmile_qr_scan"}}, {"name": "1961d5307a0f8cd690a16f29bb905abf", "lon": -77.02295066666667, "lat": 38.920895333333334, "type": "electric_scooter", "fusion_lon": 0.0, "is_reserved": 0, "bike_id": "1961d5307a0f8cd690a16f29bb905abf", "fusion_lat": 0.0, "is_disabled": 0, "rental_uris": {"ios": "https://dc.lft.to/lastmile_qr_scan", "android": "https://dc.lft.to/lastmile_qr_scan"}}, {"name": "398f73671f53de09136b440359e37a88", "lon": -77.018513, "lat": 38.91525433333334, "type": "electric_scooter", "fusion_lon": 0.0, "is_reserved": 0, "bike_id": "398f73671f53de09136b440359e37a88", "fusion_lat": 0.0, "is_disabled": 0, "rental_uris": {"ios": "https://dc.lft.to/lastmile_qr_scan", "android": "https://dc.lft.to/lastmile_qr_scan"}}, {"name": "c65705e6234a850f05fb5479e5d0aa81", "lon": -76.99611433333334, "lat": 38.903661166666666, "type": "electric_scooter", "fusion_lon": 0.0, "is_reserved": 0, "bike_id": "c65705e6234a850f05fb5479e5d0aa81", "fusion_lat": 0.0, "is_disabled": 0, "rental_uris": {"ios": "https://dc.lft.to/lastmile_qr_scan", "android": "https://dc.lft.to/lastmile_qr_scan"}}, {"name": "5d2f558db430134dda42b1f91632e660", "lon": -76.9861575, "lat": 38.938304, "type": "electric_scooter", "fusion_lon": 0.0, "is_reserved": 0, "bike_id": "5d2f558db430134dda42b1f91632e660", "fusion_lat": 0.0, "is_disabled": 0, "rental_uris": {"ios": "https://dc.lft.to/lastmile_qr_scan", "android": "https://dc.lft.to/lastmile_qr_scan"}}, {"name": "0deab20924e6518c66778ea229e7cb14", "lon": -77.04800916666667, "lat": 38.8922305, "type": "electric_scooter", "fusion_lon": 0.0, "is_reserved": 0, "bike_id": "0deab20924e6518c66778ea229e7cb14", "fusion_lat": 0.0, "is_disabled": 0, "rental_uris": {"ios": "https://dc.lft.to/lastmile_qr_scan", "android": "https://dc.lft.to/lastmile_qr_scan"}}, {"name": "35bfb950ad4dd9f4848fbed7c041b1f2", "lon": -77.03284133333334, "lat": 38.93878, "type": "electric_scooter", "fusion_lon": 0.0, "is_reserved": 0, "bike_id": "35bfb950ad4dd9f4848fbed7c041b1f2", "fusion_lat": 0.0, "is_disabled": 0, "rental_uris": {"ios": "https://dc.lft.to/lastmile_qr_scan", "android": "https://dc.lft.to/lastmile_qr_scan"}}, {"name": "3f0cf11aaff908bfe9afc3302fe2f377", "lon": -76.99776466666667, "lat": 38.90908066666667, "type": "electric_scooter", "fusion_lon": 0.0, "is_reserved": 0, "bike_id": "3f0cf11aaff908bfe9afc3302fe2f377", "fusion_lat": 0.0, "is_disabled": 0, "rental_uris": {"ios": "https://dc.lft.to/lastmile_qr_scan", "android": "https://dc.lft.to/lastmile_qr_scan"}}, {"name": "b3c56da9a93f919597f0a87c8ec7b1b9", "lon": -77.0366565, "lat": 38.927233, "type": "electric_scooter", "fusion_lon": 0.0, "is_reserved": 0, "bike_id": "b3c56da9a93f919597f0a87c8ec7b1b9", "fusion_lat": 0.0, "is_disabled": 0, "rental_uris": {"ios": "https://dc.lft.to/lastmile_qr_scan", "android": "https://dc.lft.to/lastmile_qr_scan"}}, {"name": "9055172383083d5490d3bcc5985d0add", "lon": -77.03172766666667, "lat": 38.9286715, "type": "electric_scooter", "fusion_lon": 0.0, "is_reserved": 0, "bike_id": "9055172383083d5490d3bcc5985d0add", "fusion_lat": 0.0, "is_disabled": 0, "rental_uris": {"ios": "https://dc.lft.to/lastmile_qr_scan", "android": "https://dc.lft.to/lastmile_qr_scan"}}, {"name": "ee857a6f1361292f072a9629d3bf9ba5", "lon": -77.03211533333334, "lat": 38.9148425, "type": "electric_scooter", "fusion_lon": 0.0, "is_reserved": 0, "bike_id": "ee857a6f1361292f072a9629d3bf9ba5", "fusion_lat": 0.0, "is_disabled": 0, "rental_uris": {"ios": "https://dc.lft.to/lastmile_qr_scan", "android": "https://dc.lft.to/lastmile_qr_scan"}}, {"name": "2e880f81d0aac8ad8fd99c6809288c2e", "lon": -77.03220633333333, "lat": 38.92992483333333, "type": "electric_scooter", "fusion_lon": 0.0, "is_reserved": 0, "bike_id": "2e880f81d0aac8ad8fd99c6809288c2e", "fusion_lat": 0.0, "is_disabled": 0, "rental_uris": {"ios": "https://dc.lft.to/lastmile_qr_scan", "android": "https://dc.lft.to/lastmile_qr_scan"}}, {"name": "bb09eda025889c9c3304fee1ef5ad840", "lon": -77.0271795, "lat": 38.94962566666667, "type": "electric_scooter", "fusion_lon": 0.0, "is_reserved": 0, "bike_id": "bb09eda025889c9c3304fee1ef5ad840", "fusion_lat": 0.0, "is_disabled": 0, "rental_uris": {"ios": "https://dc.lft.to/lastmile_qr_scan", "android": "https://dc.lft.to/lastmile_qr_scan"}}, {"name": "a36705c913b5e3aa7ff7ce464c5626c7", "lon": -76.93611566666667, "lat": 38.886726833333334, "type": "electric_scooter", "fusion_lon": 0.0, "is_reserved": 0, "bike_id": "a36705c913b5e3aa7ff7ce464c5626c7", "fusion_lat": 0.0, "is_disabled": 0, "rental_uris": {"ios": "https://dc.lft.to/lastmile_qr_scan", "android": "https://dc.lft.to/lastmile_qr_scan"}}, {"name": "6e022419e601530bf71b469208576e01", "lon": -77.02417616666666, "lat": 38.938055166666665, "type": "electric_scooter", "fusion_lon": 0.0, "is_reserved": 0, "bike_id": "6e022419e601530bf71b469208576e01", "fusion_lat": 0.0, "is_disabled": 0, "rental_uris": {"ios": "https://dc.lft.to/lastmile_qr_scan", "android": "https://dc.lft.to/lastmile_qr_scan"}}, {"name": "47527f03a16d75e0380e1e844f370755", "lon": -77.0454285, "lat": 38.913229, "type": "electric_scooter", "fusion_lon": 0.0, "is_reserved": 0, "bike_id": "47527f03a16d75e0380e1e844f370755", "fusion_lat": 0.0, "is_disabled": 0, "rental_uris": {"ios": "https://dc.lft.to/lastmile_qr_scan", "android": "https://dc.lft.to/lastmile_qr_scan"}}, {"name": "4981cce5ede50d53218d7f03e67db01e", "lon": -76.99041166666666, "lat": 38.9381165, "type": "electric_bike", "fusion_lon": 0.0, "is_reserved": 0, "bike_id": "4981cce5ede50d53218d7f03e67db01e", "fusion_lat": 0.0, "is_disabled": 0, "rental_uris": {"ios": "https://dc.lft.to/lastmile_qr_scan", "android": "https://dc.lft.to/lastmile_qr_scan"}}, {"name": "6bbee17f473b55794fb081e1481c6c3a", "lon": -77.026191, "lat": 38.927545333333335, "type": "electric_scooter", "fusion_lon": 0.0, "is_reserved": 0, "bike_id": "6bbee17f473b55794fb081e1481c6c3a", "fusion_lat": 0.0, "is_disabled": 0, "rental_uris": {"ios": "https://dc.lft.to/lastmile_qr_scan", "android": "https://dc.lft.to/lastmile_qr_scan"}}, {"name": "c5eb2ab2c72d3e9c84b524661c6ab4da", "lon": -77.0239515, "lat": 38.916054833333334, "type": "electric_scooter", "fusion_lon": 0.0, "is_reserved": 0, "bike_id": "c5eb2ab2c72d3e9c84b524661c6ab4da", "fusion_lat": 0.0, "is_disabled": 0, "rental_uris": {"ios": "https://dc.lft.to/lastmile_qr_scan", "android": "https://dc.lft.to/lastmile_qr_scan"}}, {"name": "fee4fdb406accfc2982dfb06dca01a99", "lon": -77.04131333333333, "lat": 38.8050755, "type": "electric_bike", "fusion_lon": 0.0, "is_reserved": 0, "bike_id": "fee4fdb406accfc2982dfb06dca01a99", "fusion_lat": 0.0, "is_disabled": 0, "rental_uris": {"ios": "https://dc.lft.to/lastmile_qr_scan", "android": "https://dc.lft.to/lastmile_qr_scan"}}, {"name": "ef2b66e51fdcad8f48900004aa5ddaa6", "lon": -77.04139483333333, "lat": 38.921686333333334, "type": "electric_scooter", "fusion_lon": 0.0, "is_reserved": 0, "bike_id": "ef2b66e51fdcad8f48900004aa5ddaa6", "fusion_lat": 0.0, "is_disabled": 0, "rental_uris": {"ios": "https://dc.lft.to/lastmile_qr_scan", "android": "https://dc.lft.to/lastmile_qr_scan"}}, {"name": "873ce6bfcfe1981062f45bc1320eb5bd", "lon": -77.02278733333333, "lat": 38.9252175, "type": "electric_scooter", "fusion_lon": 0.0, "is_reserved": 0, "bike_id": "873ce6bfcfe1981062f45bc1320eb5bd", "fusion_lat": 0.0, "is_disabled": 0, "rental_uris": {"ios": "https://dc.lft.to/lastmile_qr_scan", "android": "https://dc.lft.to/lastmile_qr_scan"}}, {"name": "b31396f3abfa35c857f67c2c36bbfdce", "lon": -77.02720783333334, "lat": 38.9270785, "type": "electric_scooter", "fusion_lon": 0.0, "is_reserved": 0, "bike_id": "b31396f3abfa35c857f67c2c36bbfdce", "fusion_lat": 0.0, "is_disabled": 0, "rental_uris": {"ios": "https://dc.lft.to/lastmile_qr_scan", "android": "https://dc.lft.to/lastmile_qr_scan"}}, {"name": "c247734bb1e4cfb3fec7e46f26a81aca", "lon": -77.04029016666667, "lat": 38.92263, "type": "electric_scooter", "fusion_lon": 0.0, "is_reserved": 0, "bike_id": "c247734bb1e4cfb3fec7e46f26a81aca", "fusion_lat": 0.0, "is_disabled": 0, "rental_uris": {"ios": "https://dc.lft.to/lastmile_qr_scan", "android": "https://dc.lft.to/lastmile_qr_scan"}}, {"name": "75c35655e74d6e43c7f1dfd55fa97703", "lon": -77.041312, "lat": 38.923182833333335, "type": "electric_scooter", "fusion_lon": 0.0, "is_reserved": 0, "bike_id": "75c35655e74d6e43c7f1dfd55fa97703", "fusion_lat": 0.0, "is_disabled": 0, "rental_uris": {"ios": "https://dc.lft.to/lastmile_qr_scan", "android": "https://dc.lft.to/lastmile_qr_scan"}}, {"name": "5b7427d7f28bfd36d4d5e9e738aaffdf", "lon": -77.02298883333333, "lat": 38.915518666666664, "type": "electric_scooter", "fusion_lon": 0.0, "is_reserved": 0, "bike_id": "5b7427d7f28bfd36d4d5e9e738aaffdf", "fusion_lat": 0.0, "is_disabled": 0, "rental_uris": {"ios": "https://dc.lft.to/lastmile_qr_scan", "android": "https://dc.lft.to/lastmile_qr_scan"}}, {"name": "01b1052dccf822ecb3d4f13f2f2d93e7", "lon": -77.02206516666666, "lat": 38.914176, "type": "electric_bike", "fusion_lon": 0.0, "is_reserved": 0, "bike_id": "01b1052dccf822ecb3d4f13f2f2d93e7", "fusion_lat": 0.0, "is_disabled": 0, "rental_uris": {"ios": "https://dc.lft.to/lastmile_qr_scan", "android": "https://dc.lft.to/lastmile_qr_scan"}}, {"name": "11dc4f647dda0613e1b36f74a1bc2258", "lon": -77.0020015, "lat": 38.819377, "type": "electric_bike", "fusion_lon": 0.0, "is_reserved": 0, "bike_id": "11dc4f647dda0613e1b36f74a1bc2258", "fusion_lat": 0.0, "is_disabled": 0, "rental_uris": {"ios": "https://dc.lft.to/lastmile_qr_scan", "android": "https://dc.lft.to/lastmile_qr_scan"}}, {"name": "fb5ed13a98edd87695f73675e331b306", "lon": -77.02987466666667, "lat": 38.922873, "type": "electric_scooter", "fusion_lon": 0.0, "is_reserved": 0, "bike_id": "fb5ed13a98edd87695f73675e331b306", "fusion_lat": 0.0, "is_disabled": 0, "rental_uris": {"ios": "https://dc.lft.to/lastmile_qr_scan", "android": "https://dc.lft.to/lastmile_qr_scan"}}, {"name": "b585f06cad5aec4d557705dc866a4477", "lon": -77.0469225, "lat": 38.905397666666666, "type": "electric_scooter", "fusion_lon": 0.0, "is_reserved": 0, "bike_id": "b585f06cad5aec4d557705dc866a4477", "fusion_lat": 0.0, "is_disabled": 0, "rental_uris": {"ios": "https://dc.lft.to/lastmile_qr_scan", "android": "https://dc.lft.to/lastmile_qr_scan"}}, {"name": "1676b393b567f5d52d051c96cc8bb528", "lon": -77.03196016666666, "lat": 38.911746, "type": "electric_scooter", "fusion_lon": 0.0, "is_reserved": 0, "bike_id": "1676b393b567f5d52d051c96cc8bb528", "fusion_lat": 0.0, "is_disabled": 0, "rental_uris": {"ios": "https://dc.lft.to/lastmile_qr_scan", "android": "https://dc.lft.to/lastmile_qr_scan"}}, {"name": "3284d61760b6bef4e0f49e344f3afc33", "lon": -76.950972, "lat": 38.884502, "type": "electric_scooter", "fusion_lon": 0.0, "is_reserved": 0, "bike_id": "3284d61760b6bef4e0f49e344f3afc33", "fusion_lat": 0.0, "is_disabled": 0, "rental_uris": {"ios": "https://dc.lft.to/lastmile_qr_scan", "android": "https://dc.lft.to/lastmile_qr_scan"}}, {"name": "385a53c986863f2569fb73b1f8a2b690", "lon": -77.03257283333333, "lat": 38.93972466666666, "type": "electric_scooter", "fusion_lon": 0.0, "is_reserved": 0, "bike_id": "385a53c986863f2569fb73b1f8a2b690", "fusion_lat": 0.0, "is_disabled": 0, "rental_uris": {"ios": "https://dc.lft.to/lastmile_qr_scan", "android": "https://dc.lft.to/lastmile_qr_scan"}}, {"name": "8bf2e08f98e40e718c551165738016c4", "lon": -76.9824725, "lat": 38.8645925, "type": "electric_scooter", "fusion_lon": 0.0, "is_reserved": 0, "bike_id": "8bf2e08f98e40e718c551165738016c4", "fusion_lat": 0.0, "is_disabled": 0, "rental_uris": {"ios": "https://dc.lft.to/lastmile_qr_scan", "android": "https://dc.lft.to/lastmile_qr_scan"}}, {"name": "c3b6a3ea87e9b7ca56a77240ef9b4c10", "lon": -77.03381616666667, "lat": 38.900008, "type": "electric_scooter", "fusion_lon": 0.0, "is_reserved": 0, "bike_id": "c3b6a3ea87e9b7ca56a77240ef9b4c10", "fusion_lat": 0.0, "is_disabled": 0, "rental_uris": {"ios": "https://dc.lft.to/lastmile_qr_scan", "android": "https://dc.lft.to/lastmile_qr_scan"}}, {"name": "86e18c536c6857a2058aa5ba26d14045", "lon": -76.89536966666667, "lat": 38.945535, "type": "electric_bike", "fusion_lon": 0.0, "is_reserved": 0, "bike_id": "86e18c536c6857a2058aa5ba26d14045", "fusion_lat": 0.0, "is_disabled": 0, "rental_uris": {"ios": "https://dc.lft.to/lastmile_qr_scan", "android": "https://dc.lft.to/lastmile_qr_scan"}}, {"name": "b718ddf10af7342b3bd0d53c7c8e38c7", "lon": -77.028068, "lat": 38.9236845, "type": "electric_scooter", "fusion_lon": 0.0, "is_reserved": 0, "bike_id": "b718ddf10af7342b3bd0d53c7c8e38c7", "fusion_lat": 0.0, "is_disabled": 0, "rental_uris": {"ios": "https://dc.lft.to/lastmile_qr_scan", "android": "https://dc.lft.to/lastmile_qr_scan"}}, {"name": "3aa2064fe293032552bca3495c24c656", "lon": -77.04641533333333, "lat": 38.91937033333333, "type": "electric_scooter", "fusion_lon": 0.0, "is_reserved": 0, "bike_id": "3aa2064fe293032552bca3495c24c656", "fusion_lat": 0.0, "is_disabled": 0, "rental_uris": {"ios": "https://dc.lft.to/lastmile_qr_scan", "android": "https://dc.lft.to/lastmile_qr_scan"}}, {"name": "95ede1006213dce67d644292ba60da87", "lon": -76.99263683333334, "lat": 38.86250416666667, "type": "electric_scooter", "fusion_lon": 0.0, "is_reserved": 0, "bike_id": "95ede1006213dce67d644292ba60da87", "fusion_lat": 0.0, "is_disabled": 0, "rental_uris": {"ios": "https://dc.lft.to/lastmile_qr_scan", "android": "https://dc.lft.to/lastmile_qr_scan"}}, {"name": "d4d679f2bca05712851500428d57854d", "lon": -77.0447945, "lat": 38.924256166666666, "type": "electric_scooter", "fusion_lon": 0.0, "is_reserved": 0, "bike_id": "d4d679f2bca05712851500428d57854d", "fusion_lat": 0.0, "is_disabled": 0, "rental_uris": {"ios": "https://dc.lft.to/lastmile_qr_scan", "android": "https://dc.lft.to/lastmile_qr_scan"}}, {"name": "ee0579bd65b9cc7177dc862c0719ea44", "lon": -77.1176875, "lat": 38.812518, "type": "electric_bike", "fusion_lon": 0.0, "is_reserved": 0, "bike_id": "ee0579bd65b9cc7177dc862c0719ea44", "fusion_lat": 0.0, "is_disabled": 0, "rental_uris": {"ios": "https://dc.lft.to/lastmile_qr_scan", "android": "https://dc.lft.to/lastmile_qr_scan"}}, {"name": "9a64182bca44bb15a0d74cf323fdd94d", "lon": -77.06332983333333, "lat": 38.944215166666666, "type": "electric_scooter", "fusion_lon": 0.0, "is_reserved": 0, "bike_id": "9a64182bca44bb15a0d74cf323fdd94d", "fusion_lat": 0.0, "is_disabled": 0, "rental_uris": {"ios": "https://dc.lft.to/lastmile_qr_scan", "android": "https://dc.lft.to/lastmile_qr_scan"}}, {"name": "a9fb349350f8e8cd2f86c4f2952c7581", "lon": -77.0413955, "lat": 38.8935115, "type": "electric_scooter", "fusion_lon": 0.0, "is_reserved": 0, "bike_id": "a9fb349350f8e8cd2f86c4f2952c7581", "fusion_lat": 0.0, "is_disabled": 0, "rental_uris": {"ios": "https://dc.lft.to/lastmile_qr_scan", "android": "https://dc.lft.to/lastmile_qr_scan"}}, {"name": "71a5f80ffd28ea6cfde539a3f1204204", "lon": -77.02402383333333, "lat": 38.916295166666664, "type": "electric_scooter", "fusion_lon": 0.0, "is_reserved": 0, "bike_id": "71a5f80ffd28ea6cfde539a3f1204204", "fusion_lat": 0.0, "is_disabled": 0, "rental_uris": {"ios": "https://dc.lft.to/lastmile_qr_scan", "android": "https://dc.lft.to/lastmile_qr_scan"}}, {"name": "64e85128ddbf89867c5c7a95ec530d0d", "lon": -77.03176683333334, "lat": 38.914199333333336, "type": "electric_scooter", "fusion_lon": 0.0, "is_reserved": 0, "bike_id": "64e85128ddbf89867c5c7a95ec530d0d", "fusion_lat": 0.0, "is_disabled": 0, "rental_uris": {"ios": "https://dc.lft.to/lastmile_qr_scan", "android": "https://dc.lft.to/lastmile_qr_scan"}}, {"name": "c55531f3ae4d761cceeb09ca1344f45f", "lon": -77.01564616666667, "lat": 38.891776, "type": "electric_scooter", "fusion_lon": 0.0, "is_reserved": 0, "bike_id": "c55531f3ae4d761cceeb09ca1344f45f", "fusion_lat": 0.0, "is_disabled": 0, "rental_uris": {"ios": "https://dc.lft.to/lastmile_qr_scan", "android": "https://dc.lft.to/lastmile_qr_scan"}}, {"name": "f439587cb24fbcae41336adf0ed1472e", "lon": -77.04531316666667, "lat": 38.902697333333336, "type": "electric_scooter", "fusion_lon": 0.0, "is_reserved": 0, "bike_id": "f439587cb24fbcae41336adf0ed1472e", "fusion_lat": 0.0, "is_disabled": 0, "rental_uris": {"ios": "https://dc.lft.to/lastmile_qr_scan", "android": "https://dc.lft.to/lastmile_qr_scan"}}, {"name": "58b0e2a1c2db010d3c1ebe6787de7e4e", "lon": -77.0272785, "lat": 38.94085183333333, "type": "electric_scooter", "fusion_lon": 0.0, "is_reserved": 0, "bike_id": "58b0e2a1c2db010d3c1ebe6787de7e4e", "fusion_lat": 0.0, "is_disabled": 0, "rental_uris": {"ios": "https://dc.lft.to/lastmile_qr_scan", "android": "https://dc.lft.to/lastmile_qr_scan"}}, {"name": "c63a9014e0fc1c13e2ecfca2b83eb86d", "lon": -77.0166105, "lat": 38.881013, "type": "electric_scooter", "fusion_lon": 0.0, "is_reserved": 0, "bike_id": "c63a9014e0fc1c13e2ecfca2b83eb86d", "fusion_lat": 0.0, "is_disabled": 0, "rental_uris": {"ios": "https://dc.lft.to/lastmile_qr_scan", "android": "https://dc.lft.to/lastmile_qr_scan"}}, {"name": "a940ea667b6f8f0c25e1a574edf3de84", "lon": -77.017358, "lat": 38.87831833333333, "type": "electric_scooter", "fusion_lon": 0.0, "is_reserved": 0, "bike_id": "a940ea667b6f8f0c25e1a574edf3de84", "fusion_lat": 0.0, "is_disabled": 0, "rental_uris": {"ios": "https://dc.lft.to/lastmile_qr_scan", "android": "https://dc.lft.to/lastmile_qr_scan"}}, {"name": "635bc16d9c6c34f2249086125b98bc71", "lon": -77.06353966666667, "lat": 38.94452316666667, "type": "electric_scooter", "fusion_lon": 0.0, "is_reserved": 0, "bike_id": "635bc16d9c6c34f2249086125b98bc71", "fusion_lat": 0.0, "is_disabled": 0, "rental_uris": {"ios": "https://dc.lft.to/lastmile_qr_scan", "android": "https://dc.lft.to/lastmile_qr_scan"}}, {"name": "53d124d15154954914e95237f38fc8ce", "lon": -77.043093, "lat": 38.92883666666667, "type": "electric_bike", "fusion_lon": 0.0, "is_reserved": 0, "bike_id": "53d124d15154954914e95237f38fc8ce", "fusion_lat": 0.0, "is_disabled": 0, "rental_uris": {"ios": "https://dc.lft.to/lastmile_qr_scan", "android": "https://dc.lft.to/lastmile_qr_scan"}}, {"name": "728500bfb35225945d126cbf8f253daf", "lon": -77.02885433333333, "lat": 38.9172905, "type": "electric_scooter", "fusion_lon": 0.0, "is_reserved": 0, "bike_id": "728500bfb35225945d126cbf8f253daf", "fusion_lat": 0.0, "is_disabled": 0, "rental_uris": {"ios": "https://dc.lft.to/lastmile_qr_scan", "android": "https://dc.lft.to/lastmile_qr_scan"}}, {"name": "6a173a2e5e03ee44f9b19a787f51e1cd", "lon": -77.04182916666667, "lat": 38.8928855, "type": "electric_scooter", "fusion_lon": 0.0, "is_reserved": 0, "bike_id": "6a173a2e5e03ee44f9b19a787f51e1cd", "fusion_lat": 0.0, "is_disabled": 0, "rental_uris": {"ios": "https://dc.lft.to/lastmile_qr_scan", "android": "https://dc.lft.to/lastmile_qr_scan"}}, {"name": "f18a817ac413c8fcb377a02649b0d58c", "lon": -77.03173466666667, "lat": 38.921272, "type": "electric_scooter", "fusion_lon": 0.0, "is_reserved": 0, "bike_id": "f18a817ac413c8fcb377a02649b0d58c", "fusion_lat": 0.0, "is_disabled": 0, "rental_uris": {"ios": "https://dc.lft.to/lastmile_qr_scan", "android": "https://dc.lft.to/lastmile_qr_scan"}}, {"name": "806421dba0d07456f7ca9d6b34511f47", "lon": -77.03481316666667, "lat": 38.902258333333336, "type": "electric_scooter", "fusion_lon": 0.0, "is_reserved": 0, "bike_id": "806421dba0d07456f7ca9d6b34511f47", "fusion_lat": 0.0, "is_disabled": 0, "rental_uris": {"ios": "https://dc.lft.to/lastmile_qr_scan", "android": "https://dc.lft.to/lastmile_qr_scan"}}, {"name": "eaff6e1d22e14aa0f2c2ff4e418911db", "lon": -77.0240095, "lat": 38.909688833333334, "type": "electric_scooter", "fusion_lon": 0.0, "is_reserved": 0, "bike_id": "eaff6e1d22e14aa0f2c2ff4e418911db", "fusion_lat": 0.0, "is_disabled": 0, "rental_uris": {"ios": "https://dc.lft.to/lastmile_qr_scan", "android": "https://dc.lft.to/lastmile_qr_scan"}}, {"name": "50c76f3ed71c6c23a3dd0a0a55c12b5d", "lon": -77.01027433333333, "lat": 38.91705133333333, "type": "electric_scooter", "fusion_lon": 0.0, "is_reserved": 0, "bike_id": "50c76f3ed71c6c23a3dd0a0a55c12b5d", "fusion_lat": 0.0, "is_disabled": 0, "rental_uris": {"ios": "https://dc.lft.to/lastmile_qr_scan", "android": "https://dc.lft.to/lastmile_qr_scan"}}, {"name": "0f7c0cdf23353971d2a99e38a24a009e", "lon": -77.04263433333334, "lat": 38.90876316666667, "type": "electric_scooter", "fusion_lon": 0.0, "is_reserved": 0, "bike_id": "0f7c0cdf23353971d2a99e38a24a009e", "fusion_lat": 0.0, "is_disabled": 0, "rental_uris": {"ios": "https://dc.lft.to/lastmile_qr_scan", "android": "https://dc.lft.to/lastmile_qr_scan"}}, {"name": "808e712cade523e3ff910a5aac75186f", "lon": -77.02180183333333, "lat": 38.91015816666667, "type": "electric_scooter", "fusion_lon": 0.0, "is_reserved": 0, "bike_id": "808e712cade523e3ff910a5aac75186f", "fusion_lat": 0.0, "is_disabled": 0, "rental_uris": {"ios": "https://dc.lft.to/lastmile_qr_scan", "android": "https://dc.lft.to/lastmile_qr_scan"}}, {"name": "92328822df3d9d8383e360ce552b237e", "lon": -77.034415, "lat": 38.909729666666664, "type": "electric_scooter", "fusion_lon": 0.0, "is_reserved": 0, "bike_id": "92328822df3d9d8383e360ce552b237e", "fusion_lat": 0.0, "is_disabled": 0, "rental_uris": {"ios": "https://dc.lft.to/lastmile_qr_scan", "android": "https://dc.lft.to/lastmile_qr_scan"}}, {"name": "5e120251985c84dd258245418ec501e9", "lon": -77.02909183333334, "lat": 38.8983785, "type": "electric_scooter", "fusion_lon": 0.0, "is_reserved": 0, "bike_id": "5e120251985c84dd258245418ec501e9", "fusion_lat": 0.0, "is_disabled": 0, "rental_uris": {"ios": "https://dc.lft.to/lastmile_qr_scan", "android": "https://dc.lft.to/lastmile_qr_scan"}}, {"name": "9fc538dd0c4e9d3fae87a643ae3c900b", "lon": -76.991199, "lat": 38.862021666666664, "type": "electric_scooter", "fusion_lon": 0.0, "is_reserved": 0, "bike_id": "9fc538dd0c4e9d3fae87a643ae3c900b", "fusion_lat": 0.0, "is_disabled": 0, "rental_uris": {"ios": "https://dc.lft.to/lastmile_qr_scan", "android": "https://dc.lft.to/lastmile_qr_scan"}}, {"name": "b9e58aa43a7bb5ac47bb343e1a6a4051", "lon": -77.05664216666666, "lat": 38.9286605, "type": "electric_bike", "fusion_lon": 0.0, "is_reserved": 0, "bike_id": "b9e58aa43a7bb5ac47bb343e1a6a4051", "fusion_lat": 0.0, "is_disabled": 0, "rental_uris": {"ios": "https://dc.lft.to/lastmile_qr_scan", "android": "https://dc.lft.to/lastmile_qr_scan"}}, {"name": "4837c5aab64377cc4063bd5958f23c03", "lon": -77.03700566666667, "lat": 38.90378066666667, "type": "electric_scooter", "fusion_lon": 0.0, "is_reserved": 0, "bike_id": "4837c5aab64377cc4063bd5958f23c03", "fusion_lat": 0.0, "is_disabled": 0, "rental_uris": {"ios": "https://dc.lft.to/lastmile_qr_scan", "android": "https://dc.lft.to/lastmile_qr_scan"}}, {"name": "b38aa75d7a826d297202c16a4f6be56d", "lon": -76.9863255, "lat": 38.880462666666666, "type": "electric_bike", "fusion_lon": 0.0, "is_reserved": 0, "bike_id": "b38aa75d7a826d297202c16a4f6be56d", "fusion_lat": 0.0, "is_disabled": 0, "rental_uris": {"ios": "https://dc.lft.to/lastmile_qr_scan", "android": "https://dc.lft.to/lastmile_qr_scan"}}, {"name": "669f9323d6886717536405fdd964807e", "lon": -77.03210233333333, "lat": 38.904610166666664, "type": "electric_scooter", "fusion_lon": 0.0, "is_reserved": 0, "bike_id": "669f9323d6886717536405fdd964807e", "fusion_lat": 0.0, "is_disabled": 0, "rental_uris": {"ios": "https://dc.lft.to/lastmile_qr_scan", "android": "https://dc.lft.to/lastmile_qr_scan"}}, {"name": "cf87c39e266804cb78221cffdaad4bca", "lon": -77.11707816666667, "lat": 38.867458166666665, "type": "electric_bike", "fusion_lon": 0.0, "is_reserved": 0, "bike_id": "cf87c39e266804cb78221cffdaad4bca", "fusion_lat": 0.0, "is_disabled": 0, "rental_uris": {"ios": "https://dc.lft.to/lastmile_qr_scan", "android": "https://dc.lft.to/lastmile_qr_scan"}}, {"name": "4e9a0ff93c1ddca69c164b7200003245", "lon": -77.00369466666666, "lat": 38.882658166666666, "type": "electric_scooter", "fusion_lon": 0.0, "is_reserved": 0, "bike_id": "4e9a0ff93c1ddca69c164b7200003245", "fusion_lat": 0.0, "is_disabled": 0, "rental_uris": {"ios": "https://dc.lft.to/lastmile_qr_scan", "android": "https://dc.lft.to/lastmile_qr_scan"}}, {"name": "00f51edd874efa1c0765787d7591a757", "lon": -77.00206516666667, "lat": 38.81941966666667, "type": "electric_bike", "fusion_lon": 0.0, "is_reserved": 0, "bike_id": "00f51edd874efa1c0765787d7591a757", "fusion_lat": 0.0, "is_disabled": 0, "rental_uris": {"ios": "https://dc.lft.to/lastmile_qr_scan", "android": "https://dc.lft.to/lastmile_qr_scan"}}, {"name": "3eec6a6771ae4207566402808b209abe", "lon": -77.06329533333333, "lat": 38.944237333333334, "type": "electric_scooter", "fusion_lon": 0.0, "is_reserved": 0, "bike_id": "3eec6a6771ae4207566402808b209abe", "fusion_lat": 0.0, "is_disabled": 0, "rental_uris": {"ios": "https://dc.lft.to/lastmile_qr_scan", "android": "https://dc.lft.to/lastmile_qr_scan"}}, {"name": "333b79b99b364c0cabbbfab3b04062cf", "lon": -77.02719516666667, "lat": 38.94959, "type": "electric_scooter", "fusion_lon": 0.0, "is_reserved": 0, "bike_id": "333b79b99b364c0cabbbfab3b04062cf", "fusion_lat": 0.0, "is_disabled": 0, "rental_uris": {"ios": "https://dc.lft.to/lastmile_qr_scan", "android": "https://dc.lft.to/lastmile_qr_scan"}}, {"name": "0c4a6229f02bb68aa15d3c72d6a86704", "lon": -77.04906433333333, "lat": 38.888396166666666, "type": "electric_scooter", "fusion_lon": 0.0, "is_reserved": 0, "bike_id": "0c4a6229f02bb68aa15d3c72d6a86704", "fusion_lat": 0.0, "is_disabled": 0, "rental_uris": {"ios": "https://dc.lft.to/lastmile_qr_scan", "android": "https://dc.lft.to/lastmile_qr_scan"}}, {"name": "ccb8714b5a1108221baf3a2a3f31c915", "lon": -77.0479135, "lat": 38.919486666666664, "type": "electric_scooter", "fusion_lon": 0.0, "is_reserved": 0, "bike_id": "ccb8714b5a1108221baf3a2a3f31c915", "fusion_lat": 0.0, "is_disabled": 0, "rental_uris": {"ios": "https://dc.lft.to/lastmile_qr_scan", "android": "https://dc.lft.to/lastmile_qr_scan"}}, {"name": "994199b43a92bd5241aa56dab4da975a", "lon": -77.0065795, "lat": 38.94467183333333, "type": "electric_scooter", "fusion_lon": 0.0, "is_reserved": 0, "bike_id": "994199b43a92bd5241aa56dab4da975a", "fusion_lat": 0.0, "is_disabled": 0, "rental_uris": {"ios": "https://dc.lft.to/lastmile_qr_scan", "android": "https://dc.lft.to/lastmile_qr_scan"}}, {"name": "3effa66ac0b2a4d890a15b4969c1f52e", "lon": -77.03288866666666, "lat": 38.909742333333334, "type": "electric_scooter", "fusion_lon": 0.0, "is_reserved": 0, "bike_id": "3effa66ac0b2a4d890a15b4969c1f52e", "fusion_lat": 0.0, "is_disabled": 0, "rental_uris": {"ios": "https://dc.lft.to/lastmile_qr_scan", "android": "https://dc.lft.to/lastmile_qr_scan"}}, {"name": "178fd36ddd60c474dada0ecdf9407fd8", "lon": -77.0616935, "lat": 38.902672, "type": "electric_scooter", "fusion_lon": 0.0, "is_reserved": 0, "bike_id": "178fd36ddd60c474dada0ecdf9407fd8", "fusion_lat": 0.0, "is_disabled": 0, "rental_uris": {"ios": "https://dc.lft.to/lastmile_qr_scan", "android": "https://dc.lft.to/lastmile_qr_scan"}}, {"name": "390e3917461f2413e1a1949d00ee533b", "lon": -77.041884, "lat": 38.91995433333334, "type": "electric_scooter", "fusion_lon": 0.0, "is_reserved": 0, "bike_id": "390e3917461f2413e1a1949d00ee533b", "fusion_lat": 0.0, "is_disabled": 0, "rental_uris": {"ios": "https://dc.lft.to/lastmile_qr_scan", "android": "https://dc.lft.to/lastmile_qr_scan"}}, {"name": "a6b534e12d789e820ca874d8c2c711cd", "lon": -77.03108033333334, "lat": 38.946513, "type": "electric_scooter", "fusion_lon": 0.0, "is_reserved": 0, "bike_id": "a6b534e12d789e820ca874d8c2c711cd", "fusion_lat": 0.0, "is_disabled": 0, "rental_uris": {"ios": "https://dc.lft.to/lastmile_qr_scan", "android": "https://dc.lft.to/lastmile_qr_scan"}}, {"name": "70c8bc38f5ee7cb1f16866d1068d7795", "lon": -77.02168916666666, "lat": 38.89732, "type": "electric_scooter", "fusion_lon": 0.0, "is_reserved": 0, "bike_id": "70c8bc38f5ee7cb1f16866d1068d7795", "fusion_lat": 0.0, "is_disabled": 0, "rental_uris": {"ios": "https://dc.lft.to/lastmile_qr_scan", "android": "https://dc.lft.to/lastmile_qr_scan"}}, {"name": "6183760d14372799e91846dc3ebd4518", "lon": -76.99801816666667, "lat": 38.908459, "type": "electric_scooter", "fusion_lon": 0.0, "is_reserved": 0, "bike_id": "6183760d14372799e91846dc3ebd4518", "fusion_lat": 0.0, "is_disabled": 0, "rental_uris": {"ios": "https://dc.lft.to/lastmile_qr_scan", "android": "https://dc.lft.to/lastmile_qr_scan"}}, {"name": "d47cf2136194d42e32bc0eba2aec1b22", "lon": -77.02495566666667, "lat": 38.919295, "type": "electric_scooter", "fusion_lon": 0.0, "is_reserved": 0, "bike_id": "d47cf2136194d42e32bc0eba2aec1b22", "fusion_lat": 0.0, "is_disabled": 0, "rental_uris": {"ios": "https://dc.lft.to/lastmile_qr_scan", "android": "https://dc.lft.to/lastmile_qr_scan"}}, {"name": "3ae8bd05eade91840e133984e2771338", "lon": -77.0382805, "lat": 38.888110166666664, "type": "electric_bike", "fusion_lon": 0.0, "is_reserved": 0, "bike_id": "3ae8bd05eade91840e133984e2771338", "fusion_lat": 0.0, "is_disabled": 0, "rental_uris": {"ios": "https://dc.lft.to/lastmile_qr_scan", "android": "https://dc.lft.to/lastmile_qr_scan"}}, {"name": "c7382b2a414ae0822bc5c88b3a08c917", "lon": -76.997767, "lat": 38.844268666666665, "type": "electric_scooter", "fusion_lon": 0.0, "is_reserved": 0, "bike_id": "c7382b2a414ae0822bc5c88b3a08c917", "fusion_lat": 0.0, "is_disabled": 0, "rental_uris": {"ios": "https://dc.lft.to/lastmile_qr_scan", "android": "https://dc.lft.to/lastmile_qr_scan"}}, {"name": "edb74d94f476d53f5eb1d10cb2cb30b8", "lon": -76.9874955, "lat": 38.85776283333333, "type": "electric_bike", "fusion_lon": 0.0, "is_reserved": 0, "bike_id": "edb74d94f476d53f5eb1d10cb2cb30b8", "fusion_lat": 0.0, "is_disabled": 0, "rental_uris": {"ios": "https://dc.lft.to/lastmile_qr_scan", "android": "https://dc.lft.to/lastmile_qr_scan"}}, {"name": "c33f216d11ffd92f8237a782b0bd5e3b", "lon": -77.021872, "lat": 38.89995866666667, "type": "electric_scooter", "fusion_lon": 0.0, "is_reserved": 0, "bike_id": "c33f216d11ffd92f8237a782b0bd5e3b", "fusion_lat": 0.0, "is_disabled": 0, "rental_uris": {"ios": "https://dc.lft.to/lastmile_qr_scan", "android": "https://dc.lft.to/lastmile_qr_scan"}}, {"name": "b0c8354b2947477596c17c9c0e148a4f", "lon": -77.02093566666667, "lat": 38.921389833333336, "type": "electric_scooter", "fusion_lon": 0.0, "is_reserved": 0, "bike_id": "b0c8354b2947477596c17c9c0e148a4f", "fusion_lat": 0.0, "is_disabled": 0, "rental_uris": {"ios": "https://dc.lft.to/lastmile_qr_scan", "android": "https://dc.lft.to/lastmile_qr_scan"}}, {"name": "cf193c7730f8401127fb897b1d5566fd", "lon": -76.94634616666667, "lat": 38.898459333333335, "type": "electric_scooter", "fusion_lon": 0.0, "is_reserved": 0, "bike_id": "cf193c7730f8401127fb897b1d5566fd", "fusion_lat": 0.0, "is_disabled": 0, "rental_uris": {"ios": "https://dc.lft.to/lastmile_qr_scan", "android": "https://dc.lft.to/lastmile_qr_scan"}}, {"name": "e7107bc03b1e7ef7bcbf0d92a88c8aef", "lon": -76.99776816666666, "lat": 38.84435833333333, "type": "electric_scooter", "fusion_lon": 0.0, "is_reserved": 0, "bike_id": "e7107bc03b1e7ef7bcbf0d92a88c8aef", "fusion_lat": 0.0, "is_disabled": 0, "rental_uris": {"ios": "https://dc.lft.to/lastmile_qr_scan", "android": "https://dc.lft.to/lastmile_qr_scan"}}, {"name": "7b4ab89c00804e836ec1024455105ae7", "lon": -77.012328, "lat": 38.931083666666666, "type": "electric_scooter", "fusion_lon": 0.0, "is_reserved": 0, "bike_id": "7b4ab89c00804e836ec1024455105ae7", "fusion_lat": 0.0, "is_disabled": 0, "rental_uris": {"ios": "https://dc.lft.to/lastmile_qr_scan", "android": "https://dc.lft.to/lastmile_qr_scan"}}, {"name": "b38fab3011367b0f8821e3165e5c92d1", "lon": -77.03343, "lat": 38.900318666666664, "type": "electric_scooter", "fusion_lon": 0.0, "is_reserved": 0, "bike_id": "b38fab3011367b0f8821e3165e5c92d1", "fusion_lat": 0.0, "is_disabled": 0, "rental_uris": {"ios": "https://dc.lft.to/lastmile_qr_scan", "android": "https://dc.lft.to/lastmile_qr_scan"}}, {"name": "c82069e15cdcd51a80123f75dafffb8c", "lon": -76.95752016666667, "lat": 38.88432066666667, "type": "electric_scooter", "fusion_lon": 0.0, "is_reserved": 0, "bike_id": "c82069e15cdcd51a80123f75dafffb8c", "fusion_lat": 0.0, "is_disabled": 0, "rental_uris": {"ios": "https://dc.lft.to/lastmile_qr_scan", "android": "https://dc.lft.to/lastmile_qr_scan"}}, {"name": "e198fae268fdd2191afc9b5544263bc4", "lon": -77.04173866666666, "lat": 38.915541, "type": "electric_scooter", "fusion_lon": 0.0, "is_reserved": 0, "bike_id": "e198fae268fdd2191afc9b5544263bc4", "fusion_lat": 0.0, "is_disabled": 0, "rental_uris": {"ios": "https://dc.lft.to/lastmile_qr_scan", "android": "https://dc.lft.to/lastmile_qr_scan"}}, {"name": "0e93c42528dacf9fde72540324f281fe", "lon": -76.937525, "lat": 38.89047383333333, "type": "electric_scooter", "fusion_lon": 0.0, "is_reserved": 0, "bike_id": "0e93c42528dacf9fde72540324f281fe", "fusion_lat": 0.0, "is_disabled": 0, "rental_uris": {"ios": "https://dc.lft.to/lastmile_qr_scan", "android": "https://dc.lft.to/lastmile_qr_scan"}}, {"name": "e7c9c61506eb79c6a4ecb9cc0877fb19", "lon": -77.03757533333334, "lat": 38.929139, "type": "electric_scooter", "fusion_lon": 0.0, "is_reserved": 0, "bike_id": "e7c9c61506eb79c6a4ecb9cc0877fb19", "fusion_lat": 0.0, "is_disabled": 0, "rental_uris": {"ios": "https://dc.lft.to/lastmile_qr_scan", "android": "https://dc.lft.to/lastmile_qr_scan"}}, {"name": "7aaa3c90da8df8223b47aa2d13ef7579", "lon": -76.97825583333334, "lat": 38.843712, "type": "electric_bike", "fusion_lon": 0.0, "is_reserved": 0, "bike_id": "7aaa3c90da8df8223b47aa2d13ef7579", "fusion_lat": 0.0, "is_disabled": 0, "rental_uris": {"ios": "https://dc.lft.to/lastmile_qr_scan", "android": "https://dc.lft.to/lastmile_qr_scan"}}, {"name": "62d8abd59614a41fad265145196217ae", "lon": -77.13104966666667, "lat": 39.02441916666667, "type": "electric_bike", "fusion_lon": 0.0, "is_reserved": 0, "bike_id": "62d8abd59614a41fad265145196217ae", "fusion_lat": 0.0, "is_disabled": 0, "rental_uris": {"ios": "https://dc.lft.to/lastmile_qr_scan", "android": "https://dc.lft.to/lastmile_qr_scan"}}, {"name": "a1aa2a63a21f19274f14d4c81223393d", "lon": -77.04844616666666, "lat": 38.90969116666667, "type": "electric_scooter", "fusion_lon": 0.0, "is_reserved": 0, "bike_id": "a1aa2a63a21f19274f14d4c81223393d", "fusion_lat": 0.0, "is_disabled": 0, "rental_uris": {"ios": "https://dc.lft.to/lastmile_qr_scan", "android": "https://dc.lft.to/lastmile_qr_scan"}}, {"name": "864f6793519cc7245fb2b1bbed9777a8", "lon": -77.06068683333334, "lat": 38.88582866666667, "type": "electric_bike", "fusion_lon": 0.0, "is_reserved": 0, "bike_id": "864f6793519cc7245fb2b1bbed9777a8", "fusion_lat": 0.0, "is_disabled": 0, "rental_uris": {"ios": "https://dc.lft.to/lastmile_qr_scan", "android": "https://dc.lft.to/lastmile_qr_scan"}}, {"name": "e2b5ee91d3d8031b75ce9699df6d6b1e", "lon": -77.03371666666666, "lat": 38.93216066666667, "type": "electric_scooter", "fusion_lon": 0.0, "is_reserved": 0, "bike_id": "e2b5ee91d3d8031b75ce9699df6d6b1e", "fusion_lat": 0.0, "is_disabled": 0, "rental_uris": {"ios": "https://dc.lft.to/lastmile_qr_scan", "android": "https://dc.lft.to/lastmile_qr_scan"}}, {"name": "9eda7d20753b9f89a0cbd3acdaabb3a9", "lon": -77.09488366666666, "lat": 39.030458833333334, "type": "electric_bike", "fusion_lon": 0.0, "is_reserved": 0, "bike_id": "9eda7d20753b9f89a0cbd3acdaabb3a9", "fusion_lat": 0.0, "is_disabled": 0, "rental_uris": {"ios": "https://dc.lft.to/lastmile_qr_scan", "android": "https://dc.lft.to/lastmile_qr_scan"}}, {"name": "daed4ced9f96714257113e026fcd5bca", "lon": -77.02297316666667, "lat": 38.936683, "type": "electric_scooter", "fusion_lon": 0.0, "is_reserved": 0, "bike_id": "daed4ced9f96714257113e026fcd5bca", "fusion_lat": 0.0, "is_disabled": 0, "rental_uris": {"ios": "https://dc.lft.to/lastmile_qr_scan", "android": "https://dc.lft.to/lastmile_qr_scan"}}, {"name": "903824074ccbc557ae7bf96888d77160", "lon": -77.02351383333334, "lat": 38.90863916666667, "type": "electric_scooter", "fusion_lon": 0.0, "is_reserved": 0, "bike_id": "903824074ccbc557ae7bf96888d77160", "fusion_lat": 0.0, "is_disabled": 0, "rental_uris": {"ios": "https://dc.lft.to/lastmile_qr_scan", "android": "https://dc.lft.to/lastmile_qr_scan"}}, {"name": "ae65207806e10f74f64d2d6d1b98a5b2", "lon": -77.02748716666666, "lat": 38.9517225, "type": "electric_scooter", "fusion_lon": 0.0, "is_reserved": 0, "bike_id": "ae65207806e10f74f64d2d6d1b98a5b2", "fusion_lat": 0.0, "is_disabled": 0, "rental_uris": {"ios": "https://dc.lft.to/lastmile_qr_scan", "android": "https://dc.lft.to/lastmile_qr_scan"}}, {"name": "4197fedf1b26be8b8349ad042590f5b1", "lon": -77.0266085, "lat": 38.8961145, "type": "electric_scooter", "fusion_lon": 0.0, "is_reserved": 0, "bike_id": "4197fedf1b26be8b8349ad042590f5b1", "fusion_lat": 0.0, "is_disabled": 0, "rental_uris": {"ios": "https://dc.lft.to/lastmile_qr_scan", "android": "https://dc.lft.to/lastmile_qr_scan"}}, {"name": "ced6e6ad15120ffff27b4169f650ba6c", "lon": -77.02518616666667, "lat": 38.9386425, "type": "electric_scooter", "fusion_lon": 0.0, "is_reserved": 0, "bike_id": "ced6e6ad15120ffff27b4169f650ba6c", "fusion_lat": 0.0, "is_disabled": 0, "rental_uris": {"ios": "https://dc.lft.to/lastmile_qr_scan", "android": "https://dc.lft.to/lastmile_qr_scan"}}, {"name": "de76a4d23f2e597a712fde452d9e5fd9", "lon": -77.018608, "lat": 38.900746166666664, "type": "electric_scooter", "fusion_lon": 0.0, "is_reserved": 0, "bike_id": "de76a4d23f2e597a712fde452d9e5fd9", "fusion_lat": 0.0, "is_disabled": 0, "rental_uris": {"ios": "https://dc.lft.to/lastmile_qr_scan", "android": "https://dc.lft.to/lastmile_qr_scan"}}, {"name": "450f5a93960e3ff2a3e5f8452e0351b0", "lon": -76.94736083333333, "lat": 38.896807833333334, "type": "electric_scooter", "fusion_lon": 0.0, "is_reserved": 0, "bike_id": "450f5a93960e3ff2a3e5f8452e0351b0", "fusion_lat": 0.0, "is_disabled": 0, "rental_uris": {"ios": "https://dc.lft.to/lastmile_qr_scan", "android": "https://dc.lft.to/lastmile_qr_scan"}}, {"name": "1c71ee26f563187734b4e42e536b8ffd", "lon": -77.03372783333333, "lat": 38.932313666666666, "type": "electric_scooter", "fusion_lon": 0.0, "is_reserved": 0, "bike_id": "1c71ee26f563187734b4e42e536b8ffd", "fusion_lat": 0.0, "is_disabled": 0, "rental_uris": {"ios": "https://dc.lft.to/lastmile_qr_scan", "android": "https://dc.lft.to/lastmile_qr_scan"}}, {"name": "689afe5e8c5c23d4536f895d56c61e04", "lon": -77.0271285, "lat": 38.900817333333336, "type": "electric_scooter", "fusion_lon": 0.0, "is_reserved": 0, "bike_id": "689afe5e8c5c23d4536f895d56c61e04", "fusion_lat": 0.0, "is_disabled": 0, "rental_uris": {"ios": "https://dc.lft.to/lastmile_qr_scan", "android": "https://dc.lft.to/lastmile_qr_scan"}}, {"name": "1e303ae2d1642ed5f3fe259bc52d7d49", "lon": -77.02679783333333, "lat": 38.89629133333333, "type": "electric_scooter", "fusion_lon": 0.0, "is_reserved": 0, "bike_id": "1e303ae2d1642ed5f3fe259bc52d7d49", "fusion_lat": 0.0, "is_disabled": 0, "rental_uris": {"ios": "https://dc.lft.to/lastmile_qr_scan", "android": "https://dc.lft.to/lastmile_qr_scan"}}, {"name": "3218fdbe080bb179aef15fed7f9b8507", "lon": -76.98537383333333, "lat": 38.8664845, "type": "electric_scooter", "fusion_lon": 0.0, "is_reserved": 0, "bike_id": "3218fdbe080bb179aef15fed7f9b8507", "fusion_lat": 0.0, "is_disabled": 0, "rental_uris": {"ios": "https://dc.lft.to/lastmile_qr_scan", "android": "https://dc.lft.to/lastmile_qr_scan"}}, {"name": "2016efaa9ef61c8e657ac4147613f76d", "lon": -77.02723333333333, "lat": 38.949610166666666, "type": "electric_scooter", "fusion_lon": 0.0, "is_reserved": 0, "bike_id": "2016efaa9ef61c8e657ac4147613f76d", "fusion_lat": 0.0, "is_disabled": 0, "rental_uris": {"ios": "https://dc.lft.to/lastmile_qr_scan", "android": "https://dc.lft.to/lastmile_qr_scan"}}, {"name": "7d3fa0cc012666dbce9e1042cafcfa21", "lon": -77.0211845, "lat": 38.89961916666667, "type": "electric_scooter", "fusion_lon": 0.0, "is_reserved": 0, "bike_id": "7d3fa0cc012666dbce9e1042cafcfa21", "fusion_lat": 0.0, "is_disabled": 0, "rental_uris": {"ios": "https://dc.lft.to/lastmile_qr_scan", "android": "https://dc.lft.to/lastmile_qr_scan"}}, {"name": "41de9bb5c76c48bc7a18648718702feb", "lon": -77.04874616666666, "lat": 38.90650766666667, "type": "electric_scooter", "fusion_lon": 0.0, "is_reserved": 0, "bike_id": "41de9bb5c76c48bc7a18648718702feb", "fusion_lat": 0.0, "is_disabled": 0, "rental_uris": {"ios": "https://dc.lft.to/lastmile_qr_scan", "android": "https://dc.lft.to/lastmile_qr_scan"}}, {"name": "60630f97b77627f4f8b849dcce3a787b", "lon": -77.041841, "lat": 38.89230033333333, "type": "electric_scooter", "fusion_lon": 0.0, "is_reserved": 0, "bike_id": "60630f97b77627f4f8b849dcce3a787b", "fusion_lat": 0.0, "is_disabled": 0, "rental_uris": {"ios": "https://dc.lft.to/lastmile_qr_scan", "android": "https://dc.lft.to/lastmile_qr_scan"}}, {"name": "20146ef1cd88b57bae9ea975fa52b311", "lon": -77.04862166666666, "lat": 38.906388666666665, "type": "electric_scooter", "fusion_lon": 0.0, "is_reserved": 0, "bike_id": "20146ef1cd88b57bae9ea975fa52b311", "fusion_lat": 0.0, "is_disabled": 0, "rental_uris": {"ios": "https://dc.lft.to/lastmile_qr_scan", "android": "https://dc.lft.to/lastmile_qr_scan"}}, {"name": "9c8d5bca67b73b3bca76ff0b2505884d", "lon": -77.03519516666667, "lat": 38.935996833333334, "type": "electric_scooter", "fusion_lon": 0.0, "is_reserved": 0, "bike_id": "9c8d5bca67b73b3bca76ff0b2505884d", "fusion_lat": 0.0, "is_disabled": 0, "rental_uris": {"ios": "https://dc.lft.to/lastmile_qr_scan", "android": "https://dc.lft.to/lastmile_qr_scan"}}, {"name": "4815c9837a02d383e4dcc5eebbfa9f99", "lon": -77.04448333333333, "lat": 38.90560283333333, "type": "electric_scooter", "fusion_lon": 0.0, "is_reserved": 0, "bike_id": "4815c9837a02d383e4dcc5eebbfa9f99", "fusion_lat": 0.0, "is_disabled": 0, "rental_uris": {"ios": "https://dc.lft.to/lastmile_qr_scan", "android": "https://dc.lft.to/lastmile_qr_scan"}}, {"name": "7936b3843157e439b1e153552a7b1038", "lon": -77.043265, "lat": 38.8922325, "type": "electric_scooter", "fusion_lon": 0.0, "is_reserved": 0, "bike_id": "7936b3843157e439b1e153552a7b1038", "fusion_lat": 0.0, "is_disabled": 0, "rental_uris": {"ios": "https://dc.lft.to/lastmile_qr_scan", "android": "https://dc.lft.to/lastmile_qr_scan"}}, {"name": "0e1c995740a682795082932ab47265f3", "lon": -77.00885083333333, "lat": 38.882179, "type": "electric_scooter", "fusion_lon": 0.0, "is_reserved": 0, "bike_id": "0e1c995740a682795082932ab47265f3", "fusion_lat": 0.0, "is_disabled": 0, "rental_uris": {"ios": "https://dc.lft.to/lastmile_qr_scan", "android": "https://dc.lft.to/lastmile_qr_scan"}}, {"name": "aa65761b586ecf7de9fc6718f3135002", "lon": -76.93753083333333, "lat": 38.8904635, "type": "electric_scooter", "fusion_lon": 0.0, "is_reserved": 0, "bike_id": "aa65761b586ecf7de9fc6718f3135002", "fusion_lat": 0.0, "is_disabled": 0, "rental_uris": {"ios": "https://dc.lft.to/lastmile_qr_scan", "android": "https://dc.lft.to/lastmile_qr_scan"}}, {"name": "3093559aab3482079ebacc57b6e520b5", "lon": -77.05516783333333, "lat": 38.909324, "type": "electric_scooter", "fusion_lon": 0.0, "is_reserved": 0, "bike_id": "3093559aab3482079ebacc57b6e520b5", "fusion_lat": 0.0, "is_disabled": 0, "rental_uris": {"ios": "https://dc.lft.to/lastmile_qr_scan", "android": "https://dc.lft.to/lastmile_qr_scan"}}, {"name": "9a9659acbdf2c39e33cdeff78d19fb2a", "lon": -77.00964416666666, "lat": 38.91414666666667, "type": "electric_scooter", "fusion_lon": 0.0, "is_reserved": 0, "bike_id": "9a9659acbdf2c39e33cdeff78d19fb2a", "fusion_lat": 0.0, "is_disabled": 0, "rental_uris": {"ios": "https://dc.lft.to/lastmile_qr_scan", "android": "https://dc.lft.to/lastmile_qr_scan"}}, {"name": "c91db580bff6751913d5a5b68e74975d", "lon": -77.02887933333334, "lat": 38.9093705, "type": "electric_scooter", "fusion_lon": 0.0, "is_reserved": 0, "bike_id": "c91db580bff6751913d5a5b68e74975d", "fusion_lat": 0.0, "is_disabled": 0, "rental_uris": {"ios": "https://dc.lft.to/lastmile_qr_scan", "android": "https://dc.lft.to/lastmile_qr_scan"}}, {"name": "2ef2c47e1a546deebc059c241bf0a321", "lon": -77.06714366666667, "lat": 38.95064516666667, "type": "electric_scooter", "fusion_lon": 0.0, "is_reserved": 0, "bike_id": "2ef2c47e1a546deebc059c241bf0a321", "fusion_lat": 0.0, "is_disabled": 0, "rental_uris": {"ios": "https://dc.lft.to/lastmile_qr_scan", "android": "https://dc.lft.to/lastmile_qr_scan"}}, {"name": "5b045f771392e693280cb349a96cc334", "lon": -76.99850416666666, "lat": 38.887664666666666, "type": "electric_scooter", "fusion_lon": 0.0, "is_reserved": 0, "bike_id": "5b045f771392e693280cb349a96cc334", "fusion_lat": 0.0, "is_disabled": 0, "rental_uris": {"ios": "https://dc.lft.to/lastmile_qr_scan", "android": "https://dc.lft.to/lastmile_qr_scan"}}, {"name": "ac1f7a568769ee76a28c0ac213c9a22b", "lon": -77.05302416666666, "lat": 38.92780666666667, "type": "electric_scooter", "fusion_lon": 0.0, "is_reserved": 0, "bike_id": "ac1f7a568769ee76a28c0ac213c9a22b", "fusion_lat": 0.0, "is_disabled": 0, "rental_uris": {"ios": "https://dc.lft.to/lastmile_qr_scan", "android": "https://dc.lft.to/lastmile_qr_scan"}}, {"name": "b52bafbd4a69e1930840e67c4bb9aced", "lon": -77.03460566666666, "lat": 38.92260066666667, "type": "electric_scooter", "fusion_lon": 0.0, "is_reserved": 0, "bike_id": "b52bafbd4a69e1930840e67c4bb9aced", "fusion_lat": 0.0, "is_disabled": 0, "rental_uris": {"ios": "https://dc.lft.to/lastmile_qr_scan", "android": "https://dc.lft.to/lastmile_qr_scan"}}, {"name": "7de9354f080892fbbd2bee7c753e65a5", "lon": -77.09960966666667, "lat": 38.85791916666667, "type": "electric_bike", "fusion_lon": 0.0, "is_reserved": 0, "bike_id": "7de9354f080892fbbd2bee7c753e65a5", "fusion_lat": 0.0, "is_disabled": 0, "rental_uris": {"ios": "https://dc.lft.to/lastmile_qr_scan", "android": "https://dc.lft.to/lastmile_qr_scan"}}, {"name": "dd7a9b2464a72669bfba731f2c9b2c1a", "lon": -77.02976933333333, "lat": 38.95194733333334, "type": "electric_scooter", "fusion_lon": 0.0, "is_reserved": 0, "bike_id": "dd7a9b2464a72669bfba731f2c9b2c1a", "fusion_lat": 0.0, "is_disabled": 0, "rental_uris": {"ios": "https://dc.lft.to/lastmile_qr_scan", "android": "https://dc.lft.to/lastmile_qr_scan"}}, {"name": "60506183a553e845dabb3f5c2aaa9426", "lon": -77.04475383333333, "lat": 38.92136333333333, "type": "electric_scooter", "fusion_lon": 0.0, "is_reserved": 0, "bike_id": "60506183a553e845dabb3f5c2aaa9426", "fusion_lat": 0.0, "is_disabled": 0, "rental_uris": {"ios": "https://dc.lft.to/lastmile_qr_scan", "android": "https://dc.lft.to/lastmile_qr_scan"}}, {"name": "cb67a3d3c56f70ebc06f49279c1d564f", "lon": -77.02717866666667, "lat": 38.90906833333333, "type": "electric_scooter", "fusion_lon": 0.0, "is_reserved": 0, "bike_id": "cb67a3d3c56f70ebc06f49279c1d564f", "fusion_lat": 0.0, "is_disabled": 0, "rental_uris": {"ios": "https://dc.lft.to/lastmile_qr_scan", "android": "https://dc.lft.to/lastmile_qr_scan"}}, {"name": "a257afdb8e663a2393cc45f927267b52", "lon": -77.01228783333333, "lat": 38.91698616666667, "type": "electric_scooter", "fusion_lon": 0.0, "is_reserved": 0, "bike_id": "a257afdb8e663a2393cc45f927267b52", "fusion_lat": 0.0, "is_disabled": 0, "rental_uris": {"ios": "https://dc.lft.to/lastmile_qr_scan", "android": "https://dc.lft.to/lastmile_qr_scan"}}, {"name": "65ce96a36d346e24487f123be1e5454f", "lon": -77.02694333333334, "lat": 38.9113465, "type": "electric_scooter", "fusion_lon": 0.0, "is_reserved": 0, "bike_id": "65ce96a36d346e24487f123be1e5454f", "fusion_lat": 0.0, "is_disabled": 0, "rental_uris": {"ios": "https://dc.lft.to/lastmile_qr_scan", "android": "https://dc.lft.to/lastmile_qr_scan"}}, {"name": "2bef8ed316cf868de65bb90047f7b7ba", "lon": -76.99941766666667, "lat": 38.905664, "type": "electric_scooter", "fusion_lon": 0.0, "is_reserved": 0, "bike_id": "2bef8ed316cf868de65bb90047f7b7ba", "fusion_lat": 0.0, "is_disabled": 0, "rental_uris": {"ios": "https://dc.lft.to/lastmile_qr_scan", "android": "https://dc.lft.to/lastmile_qr_scan"}}, {"name": "03c4981746b1c1e0c58ed22632f679bd", "lon": -77.0256355, "lat": 38.918111833333334, "type": "electric_scooter", "fusion_lon": 0.0, "is_reserved": 0, "bike_id": "03c4981746b1c1e0c58ed22632f679bd", "fusion_lat": 0.0, "is_disabled": 0, "rental_uris": {"ios": "https://dc.lft.to/lastmile_qr_scan", "android": "https://dc.lft.to/lastmile_qr_scan"}}, {"name": "0f4192d30d82d031f128c15cb97eb482", "lon": -76.98511433333333, "lat": 38.880774, "type": "electric_bike", "fusion_lon": 0.0, "is_reserved": 0, "bike_id": "0f4192d30d82d031f128c15cb97eb482", "fusion_lat": 0.0, "is_disabled": 0, "rental_uris": {"ios": "https://dc.lft.to/lastmile_qr_scan", "android": "https://dc.lft.to/lastmile_qr_scan"}}, {"name": "7b9365a42dce99b1290c315fde583fcf", "lon": -77.02511916666667, "lat": 38.90729533333333, "type": "electric_scooter", "fusion_lon": 0.0, "is_reserved": 0, "bike_id": "7b9365a42dce99b1290c315fde583fcf", "fusion_lat": 0.0, "is_disabled": 0, "rental_uris": {"ios": "https://dc.lft.to/lastmile_qr_scan", "android": "https://dc.lft.to/lastmile_qr_scan"}}, {"name": "7b7bbc052943cf9f3a16fb55d568eb65", "lon": -77.003785, "lat": 38.876629, "type": "electric_scooter", "fusion_lon": 0.0, "is_reserved": 0, "bike_id": "7b7bbc052943cf9f3a16fb55d568eb65", "fusion_lat": 0.0, "is_disabled": 0, "rental_uris": {"ios": "https://dc.lft.to/lastmile_qr_scan", "android": "https://dc.lft.to/lastmile_qr_scan"}}, {"name": "ec458456634ed3629d8f387a2355fdb1", "lon": -77.03530133333334, "lat": 38.924113, "type": "electric_scooter", "fusion_lon": 0.0, "is_reserved": 0, "bike_id": "ec458456634ed3629d8f387a2355fdb1", "fusion_lat": 0.0, "is_disabled": 0, "rental_uris": {"ios": "https://dc.lft.to/lastmile_qr_scan", "android": "https://dc.lft.to/lastmile_qr_scan"}}, {"name": "d65b60087ba98e7fdea7bae00180671b", "lon": -77.04195266666666, "lat": 38.9187425, "type": "electric_scooter", "fusion_lon": 0.0, "is_reserved": 0, "bike_id": "d65b60087ba98e7fdea7bae00180671b", "fusion_lat": 0.0, "is_disabled": 0, "rental_uris": {"ios": "https://dc.lft.to/lastmile_qr_scan", "android": "https://dc.lft.to/lastmile_qr_scan"}}, {"name": "ff8d7bac95c2f3a841d8bc50a85f632f", "lon": -77.049046, "lat": 38.8883915, "type": "electric_scooter", "fusion_lon": 0.0, "is_reserved": 0, "bike_id": "ff8d7bac95c2f3a841d8bc50a85f632f", "fusion_lat": 0.0, "is_disabled": 0, "rental_uris": {"ios": "https://dc.lft.to/lastmile_qr_scan", "android": "https://dc.lft.to/lastmile_qr_scan"}}, {"name": "ec38ec8d23de805aa90be98535839ca0", "lon": -77.02238333333334, "lat": 38.90213633333333, "type": "electric_scooter", "fusion_lon": 0.0, "is_reserved": 0, "bike_id": "ec38ec8d23de805aa90be98535839ca0", "fusion_lat": 0.0, "is_disabled": 0, "rental_uris": {"ios": "https://dc.lft.to/lastmile_qr_scan", "android": "https://dc.lft.to/lastmile_qr_scan"}}, {"name": "b065876cf737aacf58043be4728be611", "lon": -77.04476366666667, "lat": 38.918726166666666, "type": "electric_scooter", "fusion_lon": 0.0, "is_reserved": 0, "bike_id": "b065876cf737aacf58043be4728be611", "fusion_lat": 0.0, "is_disabled": 0, "rental_uris": {"ios": "https://dc.lft.to/lastmile_qr_scan", "android": "https://dc.lft.to/lastmile_qr_scan"}}, {"name": "5a75739ea1c4518a8c386a4f56436381", "lon": -77.0449825, "lat": 38.90011033333333, "type": "electric_scooter", "fusion_lon": 0.0, "is_reserved": 0, "bike_id": "5a75739ea1c4518a8c386a4f56436381", "fusion_lat": 0.0, "is_disabled": 0, "rental_uris": {"ios": "https://dc.lft.to/lastmile_qr_scan", "android": "https://dc.lft.to/lastmile_qr_scan"}}, {"name": "ab7de1da4d25d077b8f1ed76c2784172", "lon": -77.045674, "lat": 38.9126285, "type": "electric_scooter", "fusion_lon": 0.0, "is_reserved": 0, "bike_id": "ab7de1da4d25d077b8f1ed76c2784172", "fusion_lat": 0.0, "is_disabled": 0, "rental_uris": {"ios": "https://dc.lft.to/lastmile_qr_scan", "android": "https://dc.lft.to/lastmile_qr_scan"}}, {"name": "c3ede85661c427d7a7afe8cb81ea31d2", "lon": -77.05153516666667, "lat": 38.90535966666667, "type": "electric_scooter", "fusion_lon": 0.0, "is_reserved": 0, "bike_id": "c3ede85661c427d7a7afe8cb81ea31d2", "fusion_lat": 0.0, "is_disabled": 0, "rental_uris": {"ios": "https://dc.lft.to/lastmile_qr_scan", "android": "https://dc.lft.to/lastmile_qr_scan"}}, {"name": "9fe5b257ca757575fa4b9fbb6f8e049a", "lon": -76.9319495, "lat": 38.8987875, "type": "electric_scooter", "fusion_lon": 0.0, "is_reserved": 0, "bike_id": "9fe5b257ca757575fa4b9fbb6f8e049a", "fusion_lat": 0.0, "is_disabled": 0, "rental_uris": {"ios": "https://dc.lft.to/lastmile_qr_scan", "android": "https://dc.lft.to/lastmile_qr_scan"}}, {"name": "e3e3176f94f621dd7aebdb8a63b32e34", "lon": -77.04173866666666, "lat": 38.89993466666667, "type": "electric_scooter", "fusion_lon": 0.0, "is_reserved": 0, "bike_id": "e3e3176f94f621dd7aebdb8a63b32e34", "fusion_lat": 0.0, "is_disabled": 0, "rental_uris": {"ios": "https://dc.lft.to/lastmile_qr_scan", "android": "https://dc.lft.to/lastmile_qr_scan"}}, {"name": "ebc0c899112f69fd1bc1b501d15e7d49", "lon": -77.04475783333334, "lat": 38.922431, "type": "electric_scooter", "fusion_lon": 0.0, "is_reserved": 0, "bike_id": "ebc0c899112f69fd1bc1b501d15e7d49", "fusion_lat": 0.0, "is_disabled": 0, "rental_uris": {"ios": "https://dc.lft.to/lastmile_qr_scan", "android": "https://dc.lft.to/lastmile_qr_scan"}}, {"name": "54a8a90c5c9e5bf46a0ed5dbdcf4e07d", "lon": -76.935348, "lat": 38.95563633333333, "type": "electric_bike", "fusion_lon": 0.0, "is_reserved": 0, "bike_id": "54a8a90c5c9e5bf46a0ed5dbdcf4e07d", "fusion_lat": 0.0, "is_disabled": 0, "rental_uris": {"ios": "https://dc.lft.to/lastmile_qr_scan", "android": "https://dc.lft.to/lastmile_qr_scan"}}, {"name": "9e57fa78fd7348496d57b0d38df2a505", "lon": -76.99479166666667, "lat": 38.9029565, "type": "electric_scooter", "fusion_lon": 0.0, "is_reserved": 0, "bike_id": "9e57fa78fd7348496d57b0d38df2a505", "fusion_lat": 0.0, "is_disabled": 0, "rental_uris": {"ios": "https://dc.lft.to/lastmile_qr_scan", "android": "https://dc.lft.to/lastmile_qr_scan"}}, {"name": "ab52a5e2294e764ba3b06f849a476743", "lon": -76.98503566666666, "lat": 38.866730833333335, "type": "electric_scooter", "fusion_lon": 0.0, "is_reserved": 0, "bike_id": "ab52a5e2294e764ba3b06f849a476743", "fusion_lat": 0.0, "is_disabled": 0, "rental_uris": {"ios": "https://dc.lft.to/lastmile_qr_scan", "android": "https://dc.lft.to/lastmile_qr_scan"}}, {"name": "3a8436efcdecb781e70a88b21e6c0810", "lon": -76.997342, "lat": 38.9012705, "type": "electric_scooter", "fusion_lon": 0.0, "is_reserved": 0, "bike_id": "3a8436efcdecb781e70a88b21e6c0810", "fusion_lat": 0.0, "is_disabled": 0, "rental_uris": {"ios": "https://dc.lft.to/lastmile_qr_scan", "android": "https://dc.lft.to/lastmile_qr_scan"}}, {"name": "6086e7da549dbd163d9873012a1b751b", "lon": -77.0313465, "lat": 38.923744666666664, "type": "electric_scooter", "fusion_lon": 0.0, "is_reserved": 0, "bike_id": "6086e7da549dbd163d9873012a1b751b", "fusion_lat": 0.0, "is_disabled": 0, "rental_uris": {"ios": "https://dc.lft.to/lastmile_qr_scan", "android": "https://dc.lft.to/lastmile_qr_scan"}}, {"name": "2537fbd8e671016fc7b03cf2759a09c7", "lon": -77.04023733333334, "lat": 38.9241465, "type": "electric_scooter", "fusion_lon": 0.0, "is_reserved": 0, "bike_id": "2537fbd8e671016fc7b03cf2759a09c7", "fusion_lat": 0.0, "is_disabled": 0, "rental_uris": {"ios": "https://dc.lft.to/lastmile_qr_scan", "android": "https://dc.lft.to/lastmile_qr_scan"}}, {"name": "1e830b9fb9dcb64094706148a59aed78", "lon": -77.006189, "lat": 38.90106, "type": "electric_scooter", "fusion_lon": 0.0, "is_reserved": 0, "bike_id": "1e830b9fb9dcb64094706148a59aed78", "fusion_lat": 0.0, "is_disabled": 0, "rental_uris": {"ios": "https://dc.lft.to/lastmile_qr_scan", "android": "https://dc.lft.to/lastmile_qr_scan"}}, {"name": "50ed1bd764c3a3ea56f6796da78d9fc6", "lon": -77.0501565, "lat": 38.90372433333334, "type": "electric_scooter", "fusion_lon": 0.0, "is_reserved": 0, "bike_id": "50ed1bd764c3a3ea56f6796da78d9fc6", "fusion_lat": 0.0, "is_disabled": 0, "rental_uris": {"ios": "https://dc.lft.to/lastmile_qr_scan", "android": "https://dc.lft.to/lastmile_qr_scan"}}, {"name": "fbe63596ec841423bfccf6e0b9ba44a0", "lon": -77.02400066666667, "lat": 38.9569295, "type": "electric_scooter", "fusion_lon": 0.0, "is_reserved": 0, "bike_id": "fbe63596ec841423bfccf6e0b9ba44a0", "fusion_lat": 0.0, "is_disabled": 0, "rental_uris": {"ios": "https://dc.lft.to/lastmile_qr_scan", "android": "https://dc.lft.to/lastmile_qr_scan"}}, {"name": "f025c9614c4aedc08af03cae3c829f8e", "lon": -76.98700433333333, "lat": 38.86255083333333, "type": "electric_scooter", "fusion_lon": 0.0, "is_reserved": 0, "bike_id": "f025c9614c4aedc08af03cae3c829f8e", "fusion_lat": 0.0, "is_disabled": 0, "rental_uris": {"ios": "https://dc.lft.to/lastmile_qr_scan", "android": "https://dc.lft.to/lastmile_qr_scan"}}, {"name": "e076a2e8588dbd5a67d7d22268496f3c", "lon": -77.016127, "lat": 38.918100833333334, "type": "electric_scooter", "fusion_lon": 0.0, "is_reserved": 0, "bike_id": "e076a2e8588dbd5a67d7d22268496f3c", "fusion_lat": 0.0, "is_disabled": 0, "rental_uris": {"ios": "https://dc.lft.to/lastmile_qr_scan", "android": "https://dc.lft.to/lastmile_qr_scan"}}, {"name": "26cc8772cfef2a81b53619417e4a2a76", "lon": -77.01865233333334, "lat": 38.900580166666664, "type": "electric_scooter", "fusion_lon": 0.0, "is_reserved": 0, "bike_id": "26cc8772cfef2a81b53619417e4a2a76", "fusion_lat": 0.0, "is_disabled": 0, "rental_uris": {"ios": "https://dc.lft.to/lastmile_qr_scan", "android": "https://dc.lft.to/lastmile_qr_scan"}}, {"name": "4a3cd5b2fb107551ddb1c67a86e9b605", "lon": -77.041383, "lat": 38.91967966666667, "type": "electric_scooter", "fusion_lon": 0.0, "is_reserved": 0, "bike_id": "4a3cd5b2fb107551ddb1c67a86e9b605", "fusion_lat": 0.0, "is_disabled": 0, "rental_uris": {"ios": "https://dc.lft.to/lastmile_qr_scan", "android": "https://dc.lft.to/lastmile_qr_scan"}}, {"name": "1d707ffd0c62dbb25220c7edaea2b7c3", "lon": -77.02641983333334, "lat": 38.89197866666667, "type": "electric_scooter", "fusion_lon": 0.0, "is_reserved": 0, "bike_id": "1d707ffd0c62dbb25220c7edaea2b7c3", "fusion_lat": 0.0, "is_disabled": 0, "rental_uris": {"ios": "https://dc.lft.to/lastmile_qr_scan", "android": "https://dc.lft.to/lastmile_qr_scan"}}, {"name": "32381ebd855c01543a7acca7bf4fe634", "lon": -77.027606, "lat": 38.95428966666667, "type": "electric_scooter", "fusion_lon": 0.0, "is_reserved": 0, "bike_id": "32381ebd855c01543a7acca7bf4fe634", "fusion_lat": 0.0, "is_disabled": 0, "rental_uris": {"ios": "https://dc.lft.to/lastmile_qr_scan", "android": "https://dc.lft.to/lastmile_qr_scan"}}, {"name": "9d5d651723eddfe51d4160853e63b4ca", "lon": -77.06329066666666, "lat": 38.907672, "type": "electric_scooter", "fusion_lon": 0.0, "is_reserved": 0, "bike_id": "9d5d651723eddfe51d4160853e63b4ca", "fusion_lat": 0.0, "is_disabled": 0, "rental_uris": {"ios": "https://dc.lft.to/lastmile_qr_scan", "android": "https://dc.lft.to/lastmile_qr_scan"}}, {"name": "f70bf7410e202bb7f6aa109ca5acb8cd", "lon": -77.01437216666666, "lat": 38.91970283333333, "type": "electric_scooter", "fusion_lon": 0.0, "is_reserved": 0, "bike_id": "f70bf7410e202bb7f6aa109ca5acb8cd", "fusion_lat": 0.0, "is_disabled": 0, "rental_uris": {"ios": "https://dc.lft.to/lastmile_qr_scan", "android": "https://dc.lft.to/lastmile_qr_scan"}}, {"name": "29605b57615884a5d7f79c5afc5b15eb", "lon": -77.03284633333334, "lat": 38.936730833333336, "type": "electric_scooter", "fusion_lon": 0.0, "is_reserved": 0, "bike_id": "29605b57615884a5d7f79c5afc5b15eb", "fusion_lat": 0.0, "is_disabled": 0, "rental_uris": {"ios": "https://dc.lft.to/lastmile_qr_scan", "android": "https://dc.lft.to/lastmile_qr_scan"}}, {"name": "dec4d64aeea80b0abd9400619c51bac0", "lon": -77.03131933333333, "lat": 38.92378816666667, "type": "electric_scooter", "fusion_lon": 0.0, "is_reserved": 0, "bike_id": "dec4d64aeea80b0abd9400619c51bac0", "fusion_lat": 0.0, "is_disabled": 0, "rental_uris": {"ios": "https://dc.lft.to/lastmile_qr_scan", "android": "https://dc.lft.to/lastmile_qr_scan"}}, {"name": "2681156ecf2ab5cc18348907f34aaab2", "lon": -76.99509483333334, "lat": 38.88254216666667, "type": "electric_scooter", "fusion_lon": 0.0, "is_reserved": 0, "bike_id": "2681156ecf2ab5cc18348907f34aaab2", "fusion_lat": 0.0, "is_disabled": 0, "rental_uris": {"ios": "https://dc.lft.to/lastmile_qr_scan", "android": "https://dc.lft.to/lastmile_qr_scan"}}, {"name": "b5e69a63c45cac5564b183bdfabc8451", "lon": -77.05351916666666, "lat": 38.923573166666664, "type": "electric_scooter", "fusion_lon": 0.0, "is_reserved": 0, "bike_id": "b5e69a63c45cac5564b183bdfabc8451", "fusion_lat": 0.0, "is_disabled": 0, "rental_uris": {"ios": "https://dc.lft.to/lastmile_qr_scan", "android": "https://dc.lft.to/lastmile_qr_scan"}}, {"name": "f71dda4caad9a3bf34c75402fe3596d5", "lon": -76.9652555, "lat": 38.876302833333334, "type": "electric_scooter", "fusion_lon": 0.0, "is_reserved": 0, "bike_id": "f71dda4caad9a3bf34c75402fe3596d5", "fusion_lat": 0.0, "is_disabled": 0, "rental_uris": {"ios": "https://dc.lft.to/lastmile_qr_scan", "android": "https://dc.lft.to/lastmile_qr_scan"}}, {"name": "9ce0e54de583034a5c57b0f6da758075", "lon": -77.04156633333334, "lat": 38.901211833333335, "type": "electric_scooter", "fusion_lon": 0.0, "is_reserved": 0, "bike_id": "9ce0e54de583034a5c57b0f6da758075", "fusion_lat": 0.0, "is_disabled": 0, "rental_uris": {"ios": "https://dc.lft.to/lastmile_qr_scan", "android": "https://dc.lft.to/lastmile_qr_scan"}}, {"name": "b61199e1791d80ac7cc12479efc76755", "lon": -77.02645316666667, "lat": 38.98449433333333, "type": "electric_scooter", "fusion_lon": 0.0, "is_reserved": 0, "bike_id": "b61199e1791d80ac7cc12479efc76755", "fusion_lat": 0.0, "is_disabled": 0, "rental_uris": {"ios": "https://dc.lft.to/lastmile_qr_scan", "android": "https://dc.lft.to/lastmile_qr_scan"}}, {"name": "8b27756672063aa37db08cfe60f50917", "lon": -77.0426, "lat": 38.9098745, "type": "electric_scooter", "fusion_lon": 0.0, "is_reserved": 0, "bike_id": "8b27756672063aa37db08cfe60f50917", "fusion_lat": 0.0, "is_disabled": 0, "rental_uris": {"ios": "https://dc.lft.to/lastmile_qr_scan", "android": "https://dc.lft.to/lastmile_qr_scan"}}, {"name": "82542846f9c6a850d1c12fed27208fee", "lon": -77.02797633333333, "lat": 38.910483, "type": "electric_scooter", "fusion_lon": 0.0, "is_reserved": 0, "bike_id": "82542846f9c6a850d1c12fed27208fee", "fusion_lat": 0.0, "is_disabled": 0, "rental_uris": {"ios": "https://dc.lft.to/lastmile_qr_scan", "android": "https://dc.lft.to/lastmile_qr_scan"}}, {"name": "faedef2b88764764999573eaa2818590", "lon": -77.00487683333333, "lat": 38.874761666666664, "type": "electric_scooter", "fusion_lon": 0.0, "is_reserved": 0, "bike_id": "faedef2b88764764999573eaa2818590", "fusion_lat": 0.0, "is_disabled": 0, "rental_uris": {"ios": "https://dc.lft.to/lastmile_qr_scan", "android": "https://dc.lft.to/lastmile_qr_scan"}}, {"name": "b43889359986386b22ba8a4d22977504", "lon": -76.90971433333333, "lat": 38.85422533333333, "type": "electric_bike", "fusion_lon": 0.0, "is_reserved": 0, "bike_id": "b43889359986386b22ba8a4d22977504", "fusion_lat": 0.0, "is_disabled": 0, "rental_uris": {"ios": "https://dc.lft.to/lastmile_qr_scan", "android": "https://dc.lft.to/lastmile_qr_scan"}}, {"name": "fcebe3f626bc84840ded2553c2e5a834", "lon": -77.02813133333333, "lat": 38.9169045, "type": "electric_scooter", "fusion_lon": 0.0, "is_reserved": 0, "bike_id": "fcebe3f626bc84840ded2553c2e5a834", "fusion_lat": 0.0, "is_disabled": 0, "rental_uris": {"ios": "https://dc.lft.to/lastmile_qr_scan", "android": "https://dc.lft.to/lastmile_qr_scan"}}, {"name": "d3d13b2b98a2ee633d5f64dce7bd458a", "lon": -77.02308183333334, "lat": 38.91776616666667, "type": "electric_scooter", "fusion_lon": 0.0, "is_reserved": 0, "bike_id": "d3d13b2b98a2ee633d5f64dce7bd458a", "fusion_lat": 0.0, "is_disabled": 0, "rental_uris": {"ios": "https://dc.lft.to/lastmile_qr_scan", "android": "https://dc.lft.to/lastmile_qr_scan"}}, {"name": "76d508afc0c9792f24ea0f66b8fc3aad", "lon": -77.04097133333333, "lat": 38.917699999999996, "type": "electric_scooter", "fusion_lon": 0.0, "is_reserved": 0, "bike_id": "76d508afc0c9792f24ea0f66b8fc3aad", "fusion_lat": 0.0, "is_disabled": 0, "rental_uris": {"ios": "https://dc.lft.to/lastmile_qr_scan", "android": "https://dc.lft.to/lastmile_qr_scan"}}, {"name": "da98adb836178d5dca562f50e0a5dd4d", "lon": -77.04330766666666, "lat": 38.89222183333333, "type": "electric_scooter", "fusion_lon": 0.0, "is_reserved": 0, "bike_id": "da98adb836178d5dca562f50e0a5dd4d", "fusion_lat": 0.0, "is_disabled": 0, "rental_uris": {"ios": "https://dc.lft.to/lastmile_qr_scan", "android": "https://dc.lft.to/lastmile_qr_scan"}}, {"name": "05f8a690a11d7967939451b45d7e3e07", "lon": -77.03263633333333, "lat": 38.9462615, "type": "electric_scooter", "fusion_lon": 0.0, "is_reserved": 0, "bike_id": "05f8a690a11d7967939451b45d7e3e07", "fusion_lat": 0.0, "is_disabled": 0, "rental_uris": {"ios": "https://dc.lft.to/lastmile_qr_scan", "android": "https://dc.lft.to/lastmile_qr_scan"}}, {"name": "8a868dfd089a1b70868f19741d4f4c11", "lon": -76.98094766666667, "lat": 38.921087166666666, "type": "electric_bike", "fusion_lon": 0.0, "is_reserved": 0, "bike_id": "8a868dfd089a1b70868f19741d4f4c11", "fusion_lat": 0.0, "is_disabled": 0, "rental_uris": {"ios": "https://dc.lft.to/lastmile_qr_scan", "android": "https://dc.lft.to/lastmile_qr_scan"}}, {"name": "beecc9f9a2dde1744b279bcb805699c1", "lon": -77.04005, "lat": 38.904228833333335, "type": "electric_scooter", "fusion_lon": 0.0, "is_reserved": 0, "bike_id": "beecc9f9a2dde1744b279bcb805699c1", "fusion_lat": 0.0, "is_disabled": 0, "rental_uris": {"ios": "https://dc.lft.to/lastmile_qr_scan", "android": "https://dc.lft.to/lastmile_qr_scan"}}, {"name": "4737d26ddf239d0f490554d59c68555a", "lon": -77.0268885, "lat": 38.881279, "type": "electric_scooter", "fusion_lon": 0.0, "is_reserved": 0, "bike_id": "4737d26ddf239d0f490554d59c68555a", "fusion_lat": 0.0, "is_disabled": 0, "rental_uris": {"ios": "https://dc.lft.to/lastmile_qr_scan", "android": "https://dc.lft.to/lastmile_qr_scan"}}, {"name": "aa71f73d4e64c5f0e3e8006d4f16dd6e", "lon": -77.03331016666667, "lat": 38.9287585, "type": "electric_scooter", "fusion_lon": 0.0, "is_reserved": 0, "bike_id": "aa71f73d4e64c5f0e3e8006d4f16dd6e", "fusion_lat": 0.0, "is_disabled": 0, "rental_uris": {"ios": "https://dc.lft.to/lastmile_qr_scan", "android": "https://dc.lft.to/lastmile_qr_scan"}}, {"name": "d3646fc014ec3276d1419566fd53dc23", "lon": -77.00207233333333, "lat": 38.90083816666667, "type": "electric_scooter", "fusion_lon": 0.0, "is_reserved": 0, "bike_id": "d3646fc014ec3276d1419566fd53dc23", "fusion_lat": 0.0, "is_disabled": 0, "rental_uris": {"ios": "https://dc.lft.to/lastmile_qr_scan", "android": "https://dc.lft.to/lastmile_qr_scan"}}, {"name": "bdbe30587f9e872af623f513c52075b0", "lon": -77.0344055, "lat": 38.90977216666667, "type": "electric_scooter", "fusion_lon": 0.0, "is_reserved": 0, "bike_id": "bdbe30587f9e872af623f513c52075b0", "fusion_lat": 0.0, "is_disabled": 0, "rental_uris": {"ios": "https://dc.lft.to/lastmile_qr_scan", "android": "https://dc.lft.to/lastmile_qr_scan"}}, {"name": "cb6010a90057c487e4dbb701ab9ad2aa", "lon": -76.99533533333333, "lat": 38.86246283333333, "type": "electric_scooter", "fusion_lon": 0.0, "is_reserved": 0, "bike_id": "cb6010a90057c487e4dbb701ab9ad2aa", "fusion_lat": 0.0, "is_disabled": 0, "rental_uris": {"ios": "https://dc.lft.to/lastmile_qr_scan", "android": "https://dc.lft.to/lastmile_qr_scan"}}, {"name": "e248138dbd7d250c2339fb704332b817", "lon": -77.00828683333333, "lat": 38.8290995, "type": "electric_bike", "fusion_lon": 0.0, "is_reserved": 0, "bike_id": "e248138dbd7d250c2339fb704332b817", "fusion_lat": 0.0, "is_disabled": 0, "rental_uris": {"ios": "https://dc.lft.to/lastmile_qr_scan", "android": "https://dc.lft.to/lastmile_qr_scan"}}, {"name": "5a81fe4c308309d83421ed489bd7d66c", "lon": -77.0386165, "lat": 38.9170925, "type": "electric_scooter", "fusion_lon": 0.0, "is_reserved": 0, "bike_id": "5a81fe4c308309d83421ed489bd7d66c", "fusion_lat": 0.0, "is_disabled": 0, "rental_uris": {"ios": "https://dc.lft.to/lastmile_qr_scan", "android": "https://dc.lft.to/lastmile_qr_scan"}}, {"name": "e8b1f48fce20d166a2a403a92fa3408f", "lon": -76.945442, "lat": 38.86460116666667, "type": "electric_bike", "fusion_lon": 0.0, "is_reserved": 0, "bike_id": "e8b1f48fce20d166a2a403a92fa3408f", "fusion_lat": 0.0, "is_disabled": 0, "rental_uris": {"ios": "https://dc.lft.to/lastmile_qr_scan", "android": "https://dc.lft.to/lastmile_qr_scan"}}, {"name": "4ddfc765c2f5b1dcbae707c1c8501c09", "lon": -77.037738, "lat": 38.9169085, "type": "electric_scooter", "fusion_lon": 0.0, "is_reserved": 0, "bike_id": "4ddfc765c2f5b1dcbae707c1c8501c09", "fusion_lat": 0.0, "is_disabled": 0, "rental_uris": {"ios": "https://dc.lft.to/lastmile_qr_scan", "android": "https://dc.lft.to/lastmile_qr_scan"}}, {"name": "fee199be2ed7bb362c1e011f8c374746", "lon": -76.98597533333333, "lat": 38.91051483333333, "type": "electric_scooter", "fusion_lon": 0.0, "is_reserved": 0, "bike_id": "fee199be2ed7bb362c1e011f8c374746", "fusion_lat": 0.0, "is_disabled": 0, "rental_uris": {"ios": "https://dc.lft.to/lastmile_qr_scan", "android": "https://dc.lft.to/lastmile_qr_scan"}}, {"name": "752c78849fee9e133d184d568faa9920", "lon": -77.01721316666666, "lat": 38.90261066666667, "type": "electric_scooter", "fusion_lon": 0.0, "is_reserved": 0, "bike_id": "752c78849fee9e133d184d568faa9920", "fusion_lat": 0.0, "is_disabled": 0, "rental_uris": {"ios": "https://dc.lft.to/lastmile_qr_scan", "android": "https://dc.lft.to/lastmile_qr_scan"}}, {"name": "bddbbabcf097fb73926f1a65306ede24", "lon": -77.04128266666666, "lat": 38.922739166666666, "type": "electric_scooter", "fusion_lon": 0.0, "is_reserved": 0, "bike_id": "bddbbabcf097fb73926f1a65306ede24", "fusion_lat": 0.0, "is_disabled": 0, "rental_uris": {"ios": "https://dc.lft.to/lastmile_qr_scan", "android": "https://dc.lft.to/lastmile_qr_scan"}}, {"name": "93ac7a61bc78de6a547aacb6e4b3ebe8", "lon": -77.03040033333333, "lat": 38.9387455, "type": "electric_scooter", "fusion_lon": 0.0, "is_reserved": 0, "bike_id": "93ac7a61bc78de6a547aacb6e4b3ebe8", "fusion_lat": 0.0, "is_disabled": 0, "rental_uris": {"ios": "https://dc.lft.to/lastmile_qr_scan", "android": "https://dc.lft.to/lastmile_qr_scan"}}, {"name": "e662d09e0f649ffda5852a5d77734aeb", "lon": -76.949428, "lat": 38.89497183333334, "type": "electric_scooter", "fusion_lon": 0.0, "is_reserved": 0, "bike_id": "e662d09e0f649ffda5852a5d77734aeb", "fusion_lat": 0.0, "is_disabled": 0, "rental_uris": {"ios": "https://dc.lft.to/lastmile_qr_scan", "android": "https://dc.lft.to/lastmile_qr_scan"}}, {"name": "0597b6249a42ad2a9e84a1af0f20b641", "lon": -77.03894616666666, "lat": 38.90785266666666, "type": "electric_scooter", "fusion_lon": 0.0, "is_reserved": 0, "bike_id": "0597b6249a42ad2a9e84a1af0f20b641", "fusion_lat": 0.0, "is_disabled": 0, "rental_uris": {"ios": "https://dc.lft.to/lastmile_qr_scan", "android": "https://dc.lft.to/lastmile_qr_scan"}}, {"name": "ec9e237329af7fbb0023804f7db543b0", "lon": -77.02047883333333, "lat": 38.902467666666666, "type": "electric_scooter", "fusion_lon": 0.0, "is_reserved": 0, "bike_id": "ec9e237329af7fbb0023804f7db543b0", "fusion_lat": 0.0, "is_disabled": 0, "rental_uris": {"ios": "https://dc.lft.to/lastmile_qr_scan", "android": "https://dc.lft.to/lastmile_qr_scan"}}, {"name": "245fe930aa7a765825135d289bb75dd3", "lon": -77.02300033333333, "lat": 38.920879166666666, "type": "electric_scooter", "fusion_lon": 0.0, "is_reserved": 0, "bike_id": "245fe930aa7a765825135d289bb75dd3", "fusion_lat": 0.0, "is_disabled": 0, "rental_uris": {"ios": "https://dc.lft.to/lastmile_qr_scan", "android": "https://dc.lft.to/lastmile_qr_scan"}}, {"name": "6b0ccc8b327c4f9f72705e8a38a34191", "lon": -76.99110033333334, "lat": 38.909919, "type": "electric_scooter", "fusion_lon": 0.0, "is_reserved": 0, "bike_id": "6b0ccc8b327c4f9f72705e8a38a34191", "fusion_lat": 0.0, "is_disabled": 0, "rental_uris": {"ios": "https://dc.lft.to/lastmile_qr_scan", "android": "https://dc.lft.to/lastmile_qr_scan"}}, {"name": "65a5fa4624fb6cd873adbe3288f41414", "lon": -77.05313683333334, "lat": 38.90255716666667, "type": "electric_scooter", "fusion_lon": 0.0, "is_reserved": 0, "bike_id": "65a5fa4624fb6cd873adbe3288f41414", "fusion_lat": 0.0, "is_disabled": 0, "rental_uris": {"ios": "https://dc.lft.to/lastmile_qr_scan", "android": "https://dc.lft.to/lastmile_qr_scan"}}, {"name": "9d7fc3577c1002b1b97a495d93d3497b", "lon": -77.04955566666666, "lat": 38.905329, "type": "electric_scooter", "fusion_lon": 0.0, "is_reserved": 0, "bike_id": "9d7fc3577c1002b1b97a495d93d3497b", "fusion_lat": 0.0, "is_disabled": 0, "rental_uris": {"ios": "https://dc.lft.to/lastmile_qr_scan", "android": "https://dc.lft.to/lastmile_qr_scan"}}, {"name": "0007536f2b51d581dfd5274a82eb98ae", "lon": -76.98653883333333, "lat": 38.900295, "type": "electric_scooter", "fusion_lon": 0.0, "is_reserved": 0, "bike_id": "0007536f2b51d581dfd5274a82eb98ae", "fusion_lat": 0.0, "is_disabled": 0, "rental_uris": {"ios": "https://dc.lft.to/lastmile_qr_scan", "android": "https://dc.lft.to/lastmile_qr_scan"}}, {"name": "185b17d42db28fc311fc21cd5abc3808", "lon": -77.01532866666666, "lat": 38.88663433333333, "type": "electric_scooter", "fusion_lon": 0.0, "is_reserved": 0, "bike_id": "185b17d42db28fc311fc21cd5abc3808", "fusion_lat": 0.0, "is_disabled": 0, "rental_uris": {"ios": "https://dc.lft.to/lastmile_qr_scan", "android": "https://dc.lft.to/lastmile_qr_scan"}}, {"name": "6c1b8af730219579c2576c2f1ea9e7fc", "lon": -77.04392366666667, "lat": 38.914155, "type": "electric_scooter", "fusion_lon": 0.0, "is_reserved": 0, "bike_id": "6c1b8af730219579c2576c2f1ea9e7fc", "fusion_lat": 0.0, "is_disabled": 0, "rental_uris": {"ios": "https://dc.lft.to/lastmile_qr_scan", "android": "https://dc.lft.to/lastmile_qr_scan"}}, {"name": "398104013a12fa952a55feefa99763fc", "lon": -77.0407165, "lat": 38.91708883333333, "type": "electric_scooter", "fusion_lon": 0.0, "is_reserved": 0, "bike_id": "398104013a12fa952a55feefa99763fc", "fusion_lat": 0.0, "is_disabled": 0, "rental_uris": {"ios": "https://dc.lft.to/lastmile_qr_scan", "android": "https://dc.lft.to/lastmile_qr_scan"}}, {"name": "4e3b626f81982bd8cc1d750d0e41af7a", "lon": -76.98239966666667, "lat": 38.864688, "type": "electric_scooter", "fusion_lon": 0.0, "is_reserved": 0, "bike_id": "4e3b626f81982bd8cc1d750d0e41af7a", "fusion_lat": 0.0, "is_disabled": 0, "rental_uris": {"ios": "https://dc.lft.to/lastmile_qr_scan", "android": "https://dc.lft.to/lastmile_qr_scan"}}, {"name": "32e59de1ca8b365593f19513b50accd1", "lon": -77.04074583333333, "lat": 38.90029883333333, "type": "electric_scooter", "fusion_lon": 0.0, "is_reserved": 0, "bike_id": "32e59de1ca8b365593f19513b50accd1", "fusion_lat": 0.0, "is_disabled": 0, "rental_uris": {"ios": "https://dc.lft.to/lastmile_qr_scan", "android": "https://dc.lft.to/lastmile_qr_scan"}}, {"name": "2e78a7aa75ed155edc8114736e6065e4", "lon": -77.023276, "lat": 38.878953833333334, "type": "electric_scooter", "fusion_lon": 0.0, "is_reserved": 0, "bike_id": "2e78a7aa75ed155edc8114736e6065e4", "fusion_lat": 0.0, "is_disabled": 0, "rental_uris": {"ios": "https://dc.lft.to/lastmile_qr_scan", "android": "https://dc.lft.to/lastmile_qr_scan"}}, {"name": "1f7a22edee4340560da0c56ca8d3da68", "lon": -77.0216685, "lat": 38.912947, "type": "electric_scooter", "fusion_lon": 0.0, "is_reserved": 0, "bike_id": "1f7a22edee4340560da0c56ca8d3da68", "fusion_lat": 0.0, "is_disabled": 0, "rental_uris": {"ios": "https://dc.lft.to/lastmile_qr_scan", "android": "https://dc.lft.to/lastmile_qr_scan"}}, {"name": "42e59891b69d182329e983d65926752d", "lon": -77.02527383333333, "lat": 38.94259616666667, "type": "electric_scooter", "fusion_lon": 0.0, "is_reserved": 0, "bike_id": "42e59891b69d182329e983d65926752d", "fusion_lat": 0.0, "is_disabled": 0, "rental_uris": {"ios": "https://dc.lft.to/lastmile_qr_scan", "android": "https://dc.lft.to/lastmile_qr_scan"}}, {"name": "9f155cf2142c2485efa5ea4f0a9b7fcd", "lon": -77.061099, "lat": 38.93994433333334, "type": "electric_scooter", "fusion_lon": 0.0, "is_reserved": 0, "bike_id": "9f155cf2142c2485efa5ea4f0a9b7fcd", "fusion_lat": 0.0, "is_disabled": 0, "rental_uris": {"ios": "https://dc.lft.to/lastmile_qr_scan", "android": "https://dc.lft.to/lastmile_qr_scan"}}, {"name": "ab686a2c44212a83d6ad75e91ccfcbe2", "lon": -77.04440316666667, "lat": 38.90569933333333, "type": "electric_scooter", "fusion_lon": 0.0, "is_reserved": 0, "bike_id": "ab686a2c44212a83d6ad75e91ccfcbe2", "fusion_lat": 0.0, "is_disabled": 0, "rental_uris": {"ios": "https://dc.lft.to/lastmile_qr_scan", "android": "https://dc.lft.to/lastmile_qr_scan"}}, {"name": "1f51ea4fde8f247d54d107ec161c9767", "lon": -77.03211683333333, "lat": 38.91796566666667, "type": "electric_scooter", "fusion_lon": 0.0, "is_reserved": 0, "bike_id": "1f51ea4fde8f247d54d107ec161c9767", "fusion_lat": 0.0, "is_disabled": 0, "rental_uris": {"ios": "https://dc.lft.to/lastmile_qr_scan", "android": "https://dc.lft.to/lastmile_qr_scan"}}, {"name": "c7b2777b7e2842dc9922a72545a4f373", "lon": -77.03123583333333, "lat": 38.91561566666667, "type": "electric_scooter", "fusion_lon": 0.0, "is_reserved": 0, "bike_id": "c7b2777b7e2842dc9922a72545a4f373", "fusion_lat": 0.0, "is_disabled": 0, "rental_uris": {"ios": "https://dc.lft.to/lastmile_qr_scan", "android": "https://dc.lft.to/lastmile_qr_scan"}}, {"name": "eed04a062745a87abe47d73c49475d57", "lon": -77.04154333333334, "lat": 38.91918483333333, "type": "electric_scooter", "fusion_lon": 0.0, "is_reserved": 0, "bike_id": "eed04a062745a87abe47d73c49475d57", "fusion_lat": 0.0, "is_disabled": 0, "rental_uris": {"ios": "https://dc.lft.to/lastmile_qr_scan", "android": "https://dc.lft.to/lastmile_qr_scan"}}, {"name": "9e715aa1cebbfda68a2b01b4ce413e76", "lon": -76.9977915, "lat": 38.8442645, "type": "electric_scooter", "fusion_lon": 0.0, "is_reserved": 0, "bike_id": "9e715aa1cebbfda68a2b01b4ce413e76", "fusion_lat": 0.0, "is_disabled": 0, "rental_uris": {"ios": "https://dc.lft.to/lastmile_qr_scan", "android": "https://dc.lft.to/lastmile_qr_scan"}}, {"name": "2a8052b640ffcad6867e83e5ef1f5331", "lon": -76.99629, "lat": 38.921896333333336, "type": "electric_scooter", "fusion_lon": 0.0, "is_reserved": 0, "bike_id": "2a8052b640ffcad6867e83e5ef1f5331", "fusion_lat": 0.0, "is_disabled": 0, "rental_uris": {"ios": "https://dc.lft.to/lastmile_qr_scan", "android": "https://dc.lft.to/lastmile_qr_scan"}}, {"name": "847c8c25940b52bd2e4ca9a0ac2706fe", "lon": -77.04865116666667, "lat": 38.915280833333334, "type": "electric_scooter", "fusion_lon": 0.0, "is_reserved": 0, "bike_id": "847c8c25940b52bd2e4ca9a0ac2706fe", "fusion_lat": 0.0, "is_disabled": 0, "rental_uris": {"ios": "https://dc.lft.to/lastmile_qr_scan", "android": "https://dc.lft.to/lastmile_qr_scan"}}, {"name": "c3b9cbd1afff656c158b24c34068b974", "lon": -76.957495, "lat": 38.88433533333333, "type": "electric_scooter", "fusion_lon": 0.0, "is_reserved": 0, "bike_id": "c3b9cbd1afff656c158b24c34068b974", "fusion_lat": 0.0, "is_disabled": 0, "rental_uris": {"ios": "https://dc.lft.to/lastmile_qr_scan", "android": "https://dc.lft.to/lastmile_qr_scan"}}, {"name": "ddc979c6f5786afa5069214cf2045438", "lon": -77.041722, "lat": 38.918309, "type": "electric_scooter", "fusion_lon": 0.0, "is_reserved": 0, "bike_id": "ddc979c6f5786afa5069214cf2045438", "fusion_lat": 0.0, "is_disabled": 0, "rental_uris": {"ios": "https://dc.lft.to/lastmile_qr_scan", "android": "https://dc.lft.to/lastmile_qr_scan"}}, {"name": "4fb2c54dae941a2fc69bf648007f5a1f", "lon": -77.02481366666666, "lat": 38.92062816666667, "type": "electric_scooter", "fusion_lon": 0.0, "is_reserved": 0, "bike_id": "4fb2c54dae941a2fc69bf648007f5a1f", "fusion_lat": 0.0, "is_disabled": 0, "rental_uris": {"ios": "https://dc.lft.to/lastmile_qr_scan", "android": "https://dc.lft.to/lastmile_qr_scan"}}, {"name": "20a17a42c18a23986ecf75f46d43a802", "lon": -77.03271016666666, "lat": 38.932542833333336, "type": "electric_scooter", "fusion_lon": 0.0, "is_reserved": 0, "bike_id": "20a17a42c18a23986ecf75f46d43a802", "fusion_lat": 0.0, "is_disabled": 0, "rental_uris": {"ios": "https://dc.lft.to/lastmile_qr_scan", "android": "https://dc.lft.to/lastmile_qr_scan"}}, {"name": "8a9992432a9bcf94f90945425d941510", "lon": -77.01177516666667, "lat": 38.90325383333333, "type": "electric_scooter", "fusion_lon": 0.0, "is_reserved": 0, "bike_id": "8a9992432a9bcf94f90945425d941510", "fusion_lat": 0.0, "is_disabled": 0, "rental_uris": {"ios": "https://dc.lft.to/lastmile_qr_scan", "android": "https://dc.lft.to/lastmile_qr_scan"}}, {"name": "e21474332c8787499f4934e4ee0844be", "lon": -77.03191983333333, "lat": 38.9175655, "type": "electric_scooter", "fusion_lon": 0.0, "is_reserved": 0, "bike_id": "e21474332c8787499f4934e4ee0844be", "fusion_lat": 0.0, "is_disabled": 0, "rental_uris": {"ios": "https://dc.lft.to/lastmile_qr_scan", "android": "https://dc.lft.to/lastmile_qr_scan"}}, {"name": "872843a4e3f9005d47141572dbf40c52", "lon": -77.105989, "lat": 38.92892066666667, "type": "electric_bike", "fusion_lon": 0.0, "is_reserved": 0, "bike_id": "872843a4e3f9005d47141572dbf40c52", "fusion_lat": 0.0, "is_disabled": 0, "rental_uris": {"ios": "https://dc.lft.to/lastmile_qr_scan", "android": "https://dc.lft.to/lastmile_qr_scan"}}, {"name": "cbb97f2b36239eca97dc1d171ceef8ac", "lon": -76.94967266666667, "lat": 38.8936115, "type": "electric_scooter", "fusion_lon": 0.0, "is_reserved": 0, "bike_id": "cbb97f2b36239eca97dc1d171ceef8ac", "fusion_lat": 0.0, "is_disabled": 0, "rental_uris": {"ios": "https://dc.lft.to/lastmile_qr_scan", "android": "https://dc.lft.to/lastmile_qr_scan"}}, {"name": "edae73218993fd0d271b9ea2cb213ea1", "lon": -76.98992616666666, "lat": 38.864983333333335, "type": "electric_scooter", "fusion_lon": 0.0, "is_reserved": 0, "bike_id": "edae73218993fd0d271b9ea2cb213ea1", "fusion_lat": 0.0, "is_disabled": 0, "rental_uris": {"ios": "https://dc.lft.to/lastmile_qr_scan", "android": "https://dc.lft.to/lastmile_qr_scan"}}, {"name": "b01a506ae964f8727fc69245023f6150", "lon": -77.01544833333334, "lat": 38.89222733333333, "type": "electric_scooter", "fusion_lon": 0.0, "is_reserved": 0, "bike_id": "b01a506ae964f8727fc69245023f6150", "fusion_lat": 0.0, "is_disabled": 0, "rental_uris": {"ios": "https://dc.lft.to/lastmile_qr_scan", "android": "https://dc.lft.to/lastmile_qr_scan"}},