{"data": {"bikes": [{"is_disabled": 0, "fusion_lat": 0.0, "lat": 38.905748, "type": "electric_scooter", "lon": -77.022121, "is_reserved": 0, "fusion_lon": 0.0, "bike_id": "010c4566176e5c9a255a7ba261afa276", "name": "010c4566176e5c9a255a7ba261afa276", "rental_uris": {"ios": "https://dc.lft.to/lastmile_qr_scan", "android": "https://dc.lft.to/lastmile_qr_scan"}}, {"is_disabled": 0, "fusion_lat": 0.0, "lat": 38.916185166666665, "type": "electric_scooter", "lon": -77.033043, "is_reserved": 0, "fusion_lon": 0.0, "bike_id": "4d6dc37f01ff7d4907371c23f00bf9fa", "name": "4d6dc37f01ff7d4907371c23f00bf9fa", "rental_uris": {"ios": "https://dc.lft.to/lastmile_qr_scan", "android": "https://dc.lft.to/lastmile_qr_scan"}}, {"is_disabled": 0, "fusion_lat": 0.0, "lat": 38.917222333333335, "type": "electric_scooter", "lon": -77.03186183333334, "is_reserved": 0, "fusion_lon": 0.0, "bike_id": "172dfbe58712337f1b6ce4007a5ade72", "name": "172dfbe58712337f1b6ce4007a5ade72", "rental_uris": {"ios": "https://dc.lft.to/lastmile_qr_scan", "android": "https://dc.lft.to/lastmile_qr_scan"}}, {"is_disabled": 0, "fusion_lat": 0.0, "lat": 38.88508566666667, "type": "electric_scooter", "lon": -77.00578266666666, "is_reserved": 0, "fusion_lon": 0.0, "bike_id": "7a5fb80bb69d3d92026e37a074188e8a", "name": "7a5fb80bb69d3d92026e37a074188e8a", "rental_uris": {"ios": "https://dc.lft.to/lastmile_qr_scan", "android": "https://dc.lft.to/lastmile_qr_scan"}}, {"is_disabled": 0, "fusion_lat": 0.0, "lat": 38.923705166666664, "type": "electric_scooter", "lon": -77.04131583333333, "is_reserved": 0, "fusion_lon": 0.0, "bike_id": "8b946368b1031098832857c49ea734c6", "name": "8b946368b1031098832857c49ea734c6", "rental_uris": {"ios": "https://dc.lft.to/lastmile_qr_scan", "android": "https://dc.lft.to/lastmile_qr_scan"}}, {"is_disabled": 0, "fusion_lat": 0.0, "lat": 39.056348, "type": "electric_bike", "lon": -77.12527083333333, "is_reserved": 0, "fusion_lon": 0.0, "bike_id": "0a79dfee0a4d4d766259c98c6cda512a", "name": "0a79dfee0a4d4d766259c98c6cda512a", "rental_uris": {"ios": "https://dc.lft.to/lastmile_qr_scan", "android": "https://dc.lft.to/lastmile_qr_scan"}}, {"is_disabled": 0, "fusion_lat": 0.0, "lat": 38.90773333333333, "type": "electric_scooter", "lon": -77.03821916666666, "is_reserved": 0, "fusion_lon": 0.0, "bike_id": "05d9a9100fc9a42e196d01af6626ea6a", "name": "05d9a9100fc9a42e196d01af6626ea6a", "rental_uris": {"ios": "https://dc.lft.to/lastmile_qr_scan", "android": "https://dc.lft.to/lastmile_qr_scan"}}, {"is_disabled": 0, "fusion_lat": 0.0, "lat": 38.96140966666667, "type": "electric_scooter", "lon": -77.02786233333333, "is_reserved": 0, "fusion_lon": 0.0, "bike_id": "0c9a46518b93ff0bf405184e53e07799", "name": "0c9a46518b93ff0bf405184e53e07799", "rental_uris": {"ios": "https://dc.lft.to/lastmile_qr_scan", "android": "https://dc.lft.to/lastmile_qr_scan"}}, {"is_disabled": 0, "fusion_lat": 0.0, "lat": 38.9077865, "type": "electric_scooter", "lon": -77.0716115, "is_reserved": 0, "fusion_lon": 0.0, "bike_id": "96f082ded12f7872b9a5cda40e1799c1", "name": "96f082ded12f7872b9a5cda40e1799c1", "rental_uris": {"ios": "https://dc.lft.to/lastmile_qr_scan", "android": "https://dc.lft.to/lastmile_qr_scan"}}, {"is_disabled": 0, "fusion_lat": 0.0, "lat": 38.92524516666667, "type": "electric_scooter", "lon": -77.03850166666666, "is_reserved": 0, "fusion_lon": 0.0, "bike_id": "2e45655c2cc0ccbdf1d4126e30005097", "name": "2e45655c2cc0ccbdf1d4126e30005097", "rental_uris": {"ios": "https://dc.lft.to/lastmile_qr_scan", "android": "https://dc.lft.to/lastmile_qr_scan"}}, {"is_disabled": 0, "fusion_lat": 0.0, "lat": 38.914001666666664, "type": "electric_scooter", "lon": -77.03925033333333, "is_reserved": 0, "fusion_lon": 0.0, "bike_id": "374710c8fda13a30fee60c5049741cd4", "name": "374710c8fda13a30fee60c5049741cd4", "rental_uris": {"ios": "https://dc.lft.to/lastmile_qr_scan", "android": "https://dc.lft.to/lastmile_qr_scan"}}, {"is_disabled": 0, "fusion_lat": 0.0, "lat": 38.90736166666667, "type": "electric_scooter", "lon": -76.99849216666667, "is_reserved": 0, "fusion_lon": 0.0, "bike_id": "dd2c026638e424d2fc5bfde72a50fc34", "name": "dd2c026638e424d2fc5bfde72a50fc34", "rental_uris": {"ios": "https://dc.lft.to/lastmile_qr_scan", "android": "https://dc.lft.to/lastmile_qr_scan"}}, {"is_disabled": 0, "fusion_lat": 0.0, "lat": 38.886399, "type": "electric_bike", "lon": -76.9547315, "is_reserved": 0, "fusion_lon": 0.0, "bike_id": "fafb2135d3cbf88c36d96bda7cd9487b", "name": "fafb2135d3cbf88c36d96bda7cd9487b", "rental_uris": {"ios": "https://dc.lft.to/lastmile_qr_scan", "android": "https://dc.lft.to/lastmile_qr_scan"}}, {"is_disabled": 0, "fusion_lat": 0.0, "lat": 38.917447, "type": "electric_scooter", "lon": -77.0346215, "is_reserved": 0, "fusion_lon": 0.0, "bike_id": "5a94bbe616b3a3f63fd7d069e8d31e88", "name": "5a94bbe616b3a3f63fd7d069e8d31e88", "rental_uris": {"ios": "https://dc.lft.to/lastmile_qr_scan", "android": "https://dc.lft.to/lastmile_qr_scan"}}, {"is_disabled": 0, "fusion_lat": 0.0, "lat": 38.93145833333333, "type": "electric_scooter", "lon": -77.02988883333333, "is_reserved": 0, "fusion_lon": 0.0, "bike_id": "d32a336d998fe3807e04f31970e3344e", "name": "d32a336d998fe3807e04f31970e3344e", "rental_uris": {"ios": "https://dc.lft.to/lastmile_qr_scan", "android": "https://dc.lft.to/lastmile_qr_scan"}}, {"is_disabled": 0, "fusion_lat": 0.0, "lat": 38.855649, "type": "electric_scooter", "lon": -76.99493083333333, "is_reserved": 0, "fusion_lon": 0.0, "bike_id": "fc353cd649e31eaf6f312b72c0303e9e", "name": "fc353cd649e31eaf6f312b72c0303e9e", "rental_uris": {"ios": "https://dc.lft.to/lastmile_qr_scan", "android": "https://dc.lft.to/lastmile_qr_scan"}}, {"is_disabled": 0, "fusion_lat": 0.0, "lat": 38.92721916666667, "type": "electric_scooter", "lon": -77.03662083333333, "is_reserved": 0, "fusion_lon": 0.0, "bike_id": "f7e6a38e603bdfb85a235c927d74e9a1", "name": "f7e6a38e603bdfb85a235c927d74e9a1", "rental_uris": {"ios": "https://dc.lft.to/lastmile_qr_scan", "android": "https://dc.lft.to/lastmile_qr_scan"}}, {"is_disabled": 0, "fusion_lat": 0.0, "lat": 38.9200675, "type": "electric_scooter", "lon": -77.02181783333333, "is_reserved": 0, "fusion_lon": 0.0, "bike_id": "998f9f71d9f2f2d872f0c73a08bffbb1", "name": "998f9f71d9f2f2d872f0c73a08bffbb1", "rental_uris": {"ios": "https://dc.lft.to/lastmile_qr_scan", "android": "https://dc.lft.to/lastmile_qr_scan"}}, {"is_disabled": 0, "fusion_lat": 0.0, "lat": 38.90566233333333, "type": "electric_scooter", "lon": -77.00591183333333, "is_reserved": 0, "fusion_lon": 0.0, "bike_id": "7a8c60cad9de588afd2d4fc8acc2075a", "name": "7a8c60cad9de588afd2d4fc8acc2075a", "rental_uris": {"ios": "https://dc.lft.to/lastmile_qr_scan", "android": "https://dc.lft.to/lastmile_qr_scan"}}, {"is_disabled": 0, "fusion_lat": 0.0, "lat": 38.902701, "type": "electric_scooter", "lon": -77.04022333333333, "is_reserved": 0, "fusion_lon": 0.0, "bike_id": "d225cdd1989d9f71186b76298a574a10", "name": "d225cdd1989d9f71186b76298a574a10", "rental_uris": {"ios": "https://dc.lft.to/lastmile_qr_scan", "android": "https://dc.lft.to/lastmile_qr_scan"}}, {"is_disabled": 0, "fusion_lat": 0.0, "lat": 38.915584333333335, "type": "electric_scooter", "lon": -77.02155816666667, "is_reserved": 0, "fusion_lon": 0.0, "bike_id": "b2557a3430fd90902ffc64a40a8a027b", "name": "b2557a3430fd90902ffc64a40a8a027b", "rental_uris": {"ios": "https://dc.lft.to/lastmile_qr_scan", "android": "https://dc.lft.to/lastmile_qr_scan"}}, {"is_disabled": 0, "fusion_lat": 0.0, "lat": 38.929936, "type": "electric_scooter", "lon": -77.04433816666666, "is_reserved": 0, "fusion_lon": 0.0, "bike_id": "d6b10dc81dd47528ddfab7952b80b073", "name": "d6b10dc81dd47528ddfab7952b80b073", "rental_uris": {"ios": "https://dc.lft.to/lastmile_qr_scan", "android": "https://dc.lft.to/lastmile_qr_scan"}}, {"is_disabled": 0, "fusion_lat": 0.0, "lat": 38.929079, "type": "electric_bike", "lon": -77.02388066666667, "is_reserved": 0, "fusion_lon": 0.0, "bike_id": "a9ce28f53afe634060e069c382cd32f2", "name": "a9ce28f53afe634060e069c382cd32f2", "rental_uris": {"ios": "https://dc.lft.to/lastmile_qr_scan", "android": "https://dc.lft.to/lastmile_qr_scan"}}, {"is_disabled": 0, "fusion_lat": 0.0, "lat": 38.901502666666666, "type": "electric_scooter", "lon": -77.05001483333334, "is_reserved": 0, "fusion_lon": 0.0, "bike_id": "5ce11073a2966d5b9c09ef81d2990e2f", "name": "5ce11073a2966d5b9c09ef81d2990e2f", "rental_uris": {"ios": "https://dc.lft.to/lastmile_qr_scan", "android": "https://dc.lft.to/lastmile_qr_scan"}}, {"is_disabled": 0, "fusion_lat": 0.0, "lat": 38.91053383333333, "type": "electric_scooter", "lon": -77.04585666666667, "is_reserved": 0, "fusion_lon": 0.0, "bike_id": "987b282ec516ae7f05de53adbc4711f3", "name": "987b282ec516ae7f05de53adbc4711f3", "rental_uris": {"ios": "https://dc.lft.to/lastmile_qr_scan", "android": "https://dc.lft.to/lastmile_qr_scan"}}, {"is_disabled": 0, "fusion_lat": 0.0, "lat": 38.9196035, "type": "electric_scooter", "lon": -77.04144133333334, "is_reserved": 0, "fusion_lon": 0.0, "bike_id": "7497d5d88500af57704a068d5166adc7", "name": "7497d5d88500af57704a068d5166adc7", "rental_uris": {"ios": "https://dc.lft.to/lastmile_qr_scan", "android": "https://dc.lft.to/lastmile_qr_scan"}}, {"is_disabled": 0, "fusion_lat": 0.0, "lat": 38.898737, "type": "electric_scooter", "lon": -76.93156716666667, "is_reserved": 0, "fusion_lon": 0.0, "bike_id": "4a2c1756bf9cfed11cac14cf8967088b", "name": "4a2c1756bf9cfed11cac14cf8967088b", "rental_uris": {"ios": "https://dc.lft.to/lastmile_qr_scan", "android": "https://dc.lft.to/lastmile_qr_scan"}}, {"is_disabled": 0, "fusion_lat": 0.0, "lat": 38.931467, "type": "electric_scooter", "lon": -77.03083766666667, "is_reserved": 0, "fusion_lon": 0.0, "bike_id": "ae89998c6c3449601d92221d7f0ee879", "name": "ae89998c6c3449601d92221d7f0ee879", "rental_uris": {"ios": "https://dc.lft.to/lastmile_qr_scan", "android": "https://dc.lft.to/lastmile_qr_scan"}}, {"is_disabled": 0, "fusion_lat": 0.0, "lat": 38.934170333333334, "type": "electric_scooter", "lon": -77.04414066666666, "is_reserved": 0, "fusion_lon": 0.0, "bike_id": "6f2d5f3c69e82dea22c475ccb80e25f6", "name": "6f2d5f3c69e82dea22c475ccb80e25f6", "rental_uris": {"ios": "https://dc.lft.to/lastmile_qr_scan", "android": "https://dc.lft.to/lastmile_qr_scan"}}, {"is_disabled": 0, "fusion_lat": 0.0, "lat": 38.924570833333334, "type": "electric_scooter", "lon": -77.032775, "is_reserved": 0, "fusion_lon": 0.0, "bike_id": "bfb5afbf77b7a4e9986855984a970c3a", "name": "bfb5afbf77b7a4e9986855984a970c3a", "rental_uris": {"ios": "https://dc.lft.to/lastmile_qr_scan", "android": "https://dc.lft.to/lastmile_qr_scan"}}, {"is_disabled": 0, "fusion_lat": 0.0, "lat": 38.916901333333335, "type": "electric_scooter", "lon": -77.03407983333334, "is_reserved": 0, "fusion_lon": 0.0, "bike_id": "1bc6baee56beb7c01910ba5f039fdae9", "name": "1bc6baee56beb7c01910ba5f039fdae9", "rental_uris": {"ios": "https://dc.lft.to/lastmile_qr_scan", "android": "https://dc.lft.to/lastmile_qr_scan"}}, {"is_disabled": 0, "fusion_lat": 0.0, "lat": 38.92853916666667, "type": "electric_bike", "lon": -77.10674933333334, "is_reserved": 0, "fusion_lon": 0.0, "bike_id": "160130a832b20eaa5f7a978387238198", "name": "160130a832b20eaa5f7a978387238198", "rental_uris": {"ios": "https://dc.lft.to/lastmile_qr_scan", "android": "https://dc.lft.to/lastmile_qr_scan"}}, {"is_disabled": 0, "fusion_lat": 0.0, "lat": 38.937603, "type": "electric_scooter", "lon": -77.031345, "is_reserved": 0, "fusion_lon": 0.0, "bike_id": "86d5a74b7fca62fde9ae07e89f4a94d5", "name": "86d5a74b7fca62fde9ae07e89f4a94d5", "rental_uris": {"ios": "https://dc.lft.to/lastmile_qr_scan", "android": "https://dc.lft.to/lastmile_qr_scan"}}, {"is_disabled": 0, "fusion_lat": 0.0, "lat": 38.918769833333336, "type": "electric_scooter", "lon": -77.03500083333333, "is_reserved": 0, "fusion_lon": 0.0, "bike_id": "103e4461a1d220a7c98daac945e0c4bb", "name": "103e4461a1d220a7c98daac945e0c4bb", "rental_uris": {"ios": "https://dc.lft.to/lastmile_qr_scan", "android": "https://dc.lft.to/lastmile_qr_scan"}}, {"is_disabled": 0, "fusion_lat": 0.0, "lat": 38.9482995, "type": "electric_scooter", "lon": -77.02427333333333, "is_reserved": 0, "fusion_lon": 0.0, "bike_id": "acce94d9fd87b5e82b4c4dbdf168d306", "name": "acce94d9fd87b5e82b4c4dbdf168d306", "rental_uris": {"ios": "https://dc.lft.to/lastmile_qr_scan", "android": "https://dc.lft.to/lastmile_qr_scan"}}, {"is_disabled": 0, "fusion_lat": 0.0, "lat": 38.925420333333335, "type": "electric_scooter", "lon": -77.040832, "is_reserved": 0, "fusion_lon": 0.0, "bike_id": "d0a9a9270f3e910876e0657ec9d1fcd2", "name": "d0a9a9270f3e910876e0657ec9d1fcd2", "rental_uris": {"ios": "https://dc.lft.to/lastmile_qr_scan", "android": "https://dc.lft.to/lastmile_qr_scan"}}, {"is_disabled": 0, "fusion_lat": 0.0, "lat": 38.88723016666667, "type": "electric_scooter", "lon": -77.032198, "is_reserved": 0, "fusion_lon": 0.0, "bike_id": "ee403e0261e5dc0ac2cdb15033cee4dc", "name": "ee403e0261e5dc0ac2cdb15033cee4dc", "rental_uris": {"ios": "https://dc.lft.to/lastmile_qr_scan", "android": "https://dc.lft.to/lastmile_qr_scan"}}, {"is_disabled": 0, "fusion_lat": 0.0, "lat": 38.80743566666666, "type": "electric_bike", "lon": -77.09426733333333, "is_reserved": 0, "fusion_lon": 0.0, "bike_id": "663bab39d210e03bfa5ec51ca8900efc", "name": "663bab39d210e03bfa5ec51ca8900efc", "rental_uris": {"ios": "https://dc.lft.to/lastmile_qr_scan", "android": "https://dc.lft.to/lastmile_qr_scan"}}, {"is_disabled": 0, "fusion_lat": 0.0, "lat": 38.90615966666667, "type": "electric_scooter", "lon": -77.06515283333333, "is_reserved": 0, "fusion_lon": 0.0, "bike_id": "1c60dacd9695f1362fe7c88b25338f3e", "name": "1c60dacd9695f1362fe7c88b25338f3e", "rental_uris": {"ios": "https://dc.lft.to/lastmile_qr_scan", "android": "https://dc.lft.to/lastmile_qr_scan"}}, {"is_disabled": 0, "fusion_lat": 0.0, "lat": 38.924082166666665, "type": "electric_bike", "lon": -77.20820933333333, "is_reserved": 0, "fusion_lon": 0.0, "bike_id": "c4e2826ab97ba4a8b74da77588840532", "name": "c4e2826ab97ba4a8b74da77588840532", "rental_uris": {"ios": "https://dc.lft.to/lastmile_qr_scan", "android": "https://dc.lft.to/lastmile_qr_scan"}}, {"is_disabled": 0, "fusion_lat": 0.0, "lat": 38.903505333333335, "type": "electric_scooter", "lon": -77.04016866666667, "is_reserved": 0, "fusion_lon": 0.0, "bike_id": "65b316169a20540de8b4b560a0e3dbaa", "name": "65b316169a20540de8b4b560a0e3dbaa", "rental_uris": {"ios": "https://dc.lft.to/lastmile_qr_scan", "android": "https://dc.lft.to/lastmile_qr_scan"}}, {"is_disabled": 0, "fusion_lat": 0.0, "lat": 38.909169166666665, "type": "electric_scooter", "lon": -76.992732, "is_reserved": 0, "fusion_lon": 0.0, "bike_id": "175ead495fd5f790021b4af95e90e298", "name": "175ead495fd5f790021b4af95e90e298", "rental_uris": {"ios": "https://dc.lft.to/lastmile_qr_scan", "android": "https://dc.lft.to/lastmile_qr_scan"}}, {"is_disabled": 0, "fusion_lat": 0.0, "lat": 38.91792233333334, "type": "electric_scooter", "lon": -77.03427566666667, "is_reserved": 0, "fusion_lon": 0.0, "bike_id": "fab3f0a2b16257bc1fc8e85479c5585a", "name": "fab3f0a2b16257bc1fc8e85479c5585a", "rental_uris": {"ios": "https://dc.lft.to/lastmile_qr_scan", "android": "https://dc.lft.to/lastmile_qr_scan"}}, {"is_disabled": 0, "fusion_lat": 0.0, "lat": 38.9172385, "type": "electric_scooter", "lon": -77.03663683333333, "is_reserved": 0, "fusion_lon": 0.0, "bike_id": "3cd955a0246eb09fc58a2c6d226cc44d", "name": "3cd955a0246eb09fc58a2c6d226cc44d", "rental_uris": {"ios": "https://dc.lft.to/lastmile_qr_scan", "android": "https://dc.lft.to/lastmile_qr_scan"}}, {"is_disabled": 0, "fusion_lat": 0.0, "lat": 38.917255, "type": "electric_scooter", "lon": -77.03658766666666, "is_reserved": 0, "fusion_lon": 0.0, "bike_id": "f652321a6ef924a5d4d5b2c580058eda", "name": "f652321a6ef924a5d4d5b2c580058eda", "rental_uris": {"ios": "https://dc.lft.to/lastmile_qr_scan", "android": "https://dc.lft.to/lastmile_qr_scan"}}, {"is_disabled": 0, "fusion_lat": 0.0, "lat": 38.90845766666666, "type": "electric_scooter", "lon": -77.03291783333333, "is_reserved": 0, "fusion_lon": 0.0, "bike_id": "ad256965ebef0fc9d3d364acf3aca3aa", "name": "ad256965ebef0fc9d3d364acf3aca3aa", "rental_uris": {"ios": "https://dc.lft.to/lastmile_qr_scan", "android": "https://dc.lft.to/lastmile_qr_scan"}}, {"is_disabled": 0, "fusion_lat": 0.0, "lat": 38.90138616666667, "type": "electric_scooter", "lon": -77.04182033333333, "is_reserved": 0, "fusion_lon": 0.0, "bike_id": "02645876832cb57a7fea73cfaab36958", "name": "02645876832cb57a7fea73cfaab36958", "rental_uris": {"ios": "https://dc.lft.to/lastmile_qr_scan", "android": "https://dc.lft.to/lastmile_qr_scan"}}, {"is_disabled": 0, "fusion_lat": 0.0, "lat": 38.871603666666665, "type": "electric_scooter", "lon": -77.01350116666667, "is_reserved": 0, "fusion_lon": 0.0, "bike_id": "3f09c12b7a757877fb9b01d5f7004d3f", "name": "3f09c12b7a757877fb9b01d5f7004d3f", "rental_uris": {"ios": "https://dc.lft.to/lastmile_qr_scan", "android": "https://dc.lft.to/lastmile_qr_scan"}}, {"is_disabled": 0, "fusion_lat": 0.0, "lat": 38.84576633333333, "type": "electric_bike", "lon": -77.09625916666667, "is_reserved": 0, "fusion_lon": 0.0, "bike_id": "be3547a1c9faa3f4cd8f45e1ba0662bc", "name": "be3547a1c9faa3f4cd8f45e1ba0662bc", "rental_uris": {"ios": "https://dc.lft.to/lastmile_qr_scan", "android": "https://dc.lft.to/lastmile_qr_scan"}}, {"is_disabled": 0, "fusion_lat": 0.0, "lat": 38.8921745, "type": "electric_scooter", "lon": -77.02215316666667, "is_reserved": 0, "fusion_lon": 0.0, "bike_id": "5a1fd68b1e242d715d30bf6372e865ab", "name": "5a1fd68b1e242d715d30bf6372e865ab", "rental_uris": {"ios": "https://dc.lft.to/lastmile_qr_scan", "android": "https://dc.lft.to/lastmile_qr_scan"}}, {"is_disabled": 0, "fusion_lat": 0.0, "lat": 38.900337666666665, "type": "electric_scooter", "lon": -76.99867466666667, "is_reserved": 0, "fusion_lon": 0.0, "bike_id": "3dd81b8b2c42f14376f62bb2287050c1", "name": "3dd81b8b2c42f14376f62bb2287050c1", "rental_uris": {"ios": "https://dc.lft.to/lastmile_qr_scan", "android": "https://dc.lft.to/lastmile_qr_scan"}}, {"is_disabled": 0, "fusion_lat": 0.0, "lat": 38.90345683333334, "type": "electric_scooter", "lon": -77.0657535, "is_reserved": 0, "fusion_lon": 0.0, "bike_id": "f3059db42bfec1aa76191c4447bd7538", "name": "f3059db42bfec1aa76191c4447bd7538", "rental_uris": {"ios": "https://dc.lft.to/lastmile_qr_scan", "android": "https://dc.lft.to/lastmile_qr_scan"}}, {"is_disabled": 0, "fusion_lat": 0.0, "lat": 38.88706783333333, "type": "electric_scooter", "lon": -77.00152216666666, "is_reserved": 0, "fusion_lon": 0.0, "bike_id": "24742e125a6572c36664ac9a19aa6d08", "name": "24742e125a6572c36664ac9a19aa6d08", "rental_uris": {"ios": "https://dc.lft.to/lastmile_qr_scan", "android": "https://dc.lft.to/lastmile_qr_scan"}}, {"is_disabled": 0, "fusion_lat": 0.0, "lat": 38.920525166666664, "type": "electric_scooter", "lon": -77.0466185, "is_reserved": 0, "fusion_lon": 0.0, "bike_id": "03536bd7956c1c95799584f9f725ed33", "name": "03536bd7956c1c95799584f9f725ed33", "rental_uris": {"ios": "https://dc.lft.to/lastmile_qr_scan", "android": "https://dc.lft.to/lastmile_qr_scan"}}, {"is_disabled": 0, "fusion_lat": 0.0, "lat": 38.92172933333333, "type": "electric_scooter", "lon": -77.04231183333333, "is_reserved": 0, "fusion_lon": 0.0, "bike_id": "2d88c7afaa9f7875841971b54909eea4", "name": "2d88c7afaa9f7875841971b54909eea4", "rental_uris": {"ios": "https://dc.lft.to/lastmile_qr_scan", "android": "https://dc.lft.to/lastmile_qr_scan"}}, {"is_disabled": 0, "fusion_lat": 0.0, "lat": 38.92305266666666, "type": "electric_scooter", "lon": -77.0211885, "is_reserved": 0, "fusion_lon": 0.0, "bike_id": "c8ad3b6e0008359526d2ecd9fe03b7bd", "name": "c8ad3b6e0008359526d2ecd9fe03b7bd", "rental_uris": {"ios": "https://dc.lft.to/lastmile_qr_scan", "android": "https://dc.lft.to/lastmile_qr_scan"}}, {"is_disabled": 0, "fusion_lat": 0.0, "lat": 38.894629333333334, "type": "electric_scooter", "lon": -76.9937475, "is_reserved": 0, "fusion_lon": 0.0, "bike_id": "1ad5a011133845eee98d4bcc6ba8e230", "name": "1ad5a011133845eee98d4bcc6ba8e230", "rental_uris": {"ios": "https://dc.lft.to/lastmile_qr_scan", "android": "https://dc.lft.to/lastmile_qr_scan"}}, {"is_disabled": 0, "fusion_lat": 0.0, "lat": 38.931640333333334, "type": "electric_scooter", "lon": -77.03628733333333, "is_reserved": 0, "fusion_lon": 0.0, "bike_id": "c84e873a54e62b96e52569b2f8b017ac", "name": "c84e873a54e62b96e52569b2f8b017ac", "rental_uris": {"ios": "https://dc.lft.to/lastmile_qr_scan", "android": "https://dc.lft.to/lastmile_qr_scan"}}, {"is_disabled": 0, "fusion_lat": 0.0, "lat": 38.915521166666664, "type": "electric_scooter", "lon": -77.03511483333334, "is_reserved": 0, "fusion_lon": 0.0, "bike_id": "dfe56bd823ec217268d29bd040eb0d64", "name": "dfe56bd823ec217268d29bd040eb0d64", "rental_uris": {"ios": "https://dc.lft.to/lastmile_qr_scan", "android": "https://dc.lft.to/lastmile_qr_scan"}}, {"is_disabled": 0, "fusion_lat": 0.0, "lat": 38.91720733333333, "type": "electric_scooter", "lon": -77.0289235, "is_reserved": 0, "fusion_lon": 0.0, "bike_id": "30d89dca1a9ef0ed1dbe29b0ea620335", "name": "30d89dca1a9ef0ed1dbe29b0ea620335", "rental_uris": {"ios": "https://dc.lft.to/lastmile_qr_scan", "android": "https://dc.lft.to/lastmile_qr_scan"}}, {"is_disabled": 0, "fusion_lat": 0.0, "lat": 38.923329833333334, "type": "electric_scooter", "lon": -77.03896033333334, "is_reserved": 0, "fusion_lon": 0.0, "bike_id": "94c911b8eaf05e3627c2f362f6604f6e", "name": "94c911b8eaf05e3627c2f362f6604f6e", "rental_uris": {"ios": "https://dc.lft.to/lastmile_qr_scan", "android": "https://dc.lft.to/lastmile_qr_scan"}}, {"is_disabled": 0, "fusion_lat": 0.0, "lat": 39.030492333333335, "type": "electric_bike", "lon": -77.09483583333333, "is_reserved": 0, "fusion_lon": 0.0, "bike_id": "516df83f24ee7ad60d89ab0c0e013d2c", "name": "516df83f24ee7ad60d89ab0c0e013d2c", "rental_uris": {"ios": "https://dc.lft.to/lastmile_qr_scan", "android": "https://dc.lft.to/lastmile_qr_scan"}}, {"is_disabled": 0, "fusion_lat": 0.0, "lat": 38.90558733333334, "type": "electric_scooter", "lon": -77.04679133333333, "is_reserved": 0, "fusion_lon": 0.0, "bike_id": "cc4fed43babdddafeab27356ae243d17", "name": "cc4fed43babdddafeab27356ae243d17", "rental_uris": {"ios": "https://dc.lft.to/lastmile_qr_scan", "android": "https://dc.lft.to/lastmile_qr_scan"}}, {"is_disabled": 0, "fusion_lat": 0.0, "lat": 38.904979833333336, "type": "electric_scooter", "lon": -77.06273766666666, "is_reserved": 0, "fusion_lon": 0.0, "bike_id": "0133f268ec859bfada90e14b787598f9", "name": "0133f268ec859bfada90e14b787598f9", "rental_uris": {"ios": "https://dc.lft.to/lastmile_qr_scan", "android": "https://dc.lft.to/lastmile_qr_scan"}}, {"is_disabled": 0, "fusion_lat": 0.0, "lat": 38.897697666666666, "type": "electric_scooter", "lon": -76.9772025, "is_reserved": 0, "fusion_lon": 0.0, "bike_id": "35a57ac3059dc08d01e3fb1819b79ab1", "name": "35a57ac3059dc08d01e3fb1819b79ab1", "rental_uris": {"ios": "https://dc.lft.to/lastmile_qr_scan", "android": "https://dc.lft.to/lastmile_qr_scan"}}, {"is_disabled": 0, "fusion_lat": 0.0, "lat": 38.9234405, "type": "electric_scooter", "lon": -77.0190305, "is_reserved": 0, "fusion_lon": 0.0, "bike_id": "6bdf8950a722072e57b54b868c956f2d", "name": "6bdf8950a722072e57b54b868c956f2d", "rental_uris": {"ios": "https://dc.lft.to/lastmile_qr_scan", "android": "https://dc.lft.to/lastmile_qr_scan"}}, {"is_disabled": 0, "fusion_lat": 0.0, "lat": 38.91341416666667, "type": "electric_scooter", "lon": -77.00223583333333, "is_reserved": 0, "fusion_lon": 0.0, "bike_id": "bca83c8c2f2194f63a394722b1ecc211", "name": "bca83c8c2f2194f63a394722b1ecc211", "rental_uris": {"ios": "https://dc.lft.to/lastmile_qr_scan", "android": "https://dc.lft.to/lastmile_qr_scan"}}, {"is_disabled": 0, "fusion_lat": 0.0, "lat": 38.870863666666665, "type": "electric_scooter", "lon": -77.0121115, "is_reserved": 0, "fusion_lon": 0.0, "bike_id": "be2e9a3254e86931c589b981ea47d683", "name": "be2e9a3254e86931c589b981ea47d683", "rental_uris": {"ios": "https://dc.lft.to/lastmile_qr_scan", "android": "https://dc.lft.to/lastmile_qr_scan"}}, {"is_disabled": 0, "fusion_lat": 0.0, "lat": 38.902479666666665, "type": "electric_bike", "lon": -77.045519, "is_reserved": 0, "fusion_lon": 0.0, "bike_id": "e9135c0679085270c85ac7b76e676511", "name": "e9135c0679085270c85ac7b76e676511", "rental_uris": {"ios": "https://dc.lft.to/lastmile_qr_scan", "android": "https://dc.lft.to/lastmile_qr_scan"}}, {"is_disabled": 0, "fusion_lat": 0.0, "lat": 38.908154333333336, "type": "electric_scooter", "lon": -77.04323266666667, "is_reserved": 0, "fusion_lon": 0.0, "bike_id": "a8b831d703be2285381dd2ffafb2f8a3", "name": "a8b831d703be2285381dd2ffafb2f8a3", "rental_uris": {"ios": "https://dc.lft.to/lastmile_qr_scan", "android": "https://dc.lft.to/lastmile_qr_scan"}}, {"is_disabled": 0, "fusion_lat": 0.0, "lat": 38.9126865, "type": "electric_scooter", "lon": -77.03088316666667, "is_reserved": 0, "fusion_lon": 0.0, "bike_id": "2a2fb9b32622196e2aacd9942126f7d5", "name": "2a2fb9b32622196e2aacd9942126f7d5", "rental_uris": {"ios": "https://dc.lft.to/lastmile_qr_scan", "android": "https://dc.lft.to/lastmile_qr_scan"}}, {"is_disabled": 0, "fusion_lat": 0.0, "lat": 38.907684, "type": "electric_scooter", "lon": -77.0433975, "is_reserved": 0, "fusion_lon": 0.0, "bike_id": "2840a77676bf2b295f53f1f3e7b64053", "name": "2840a77676bf2b295f53f1f3e7b64053", "rental_uris": {"ios": "https://dc.lft.to/lastmile_qr_scan", "android": "https://dc.lft.to/lastmile_qr_scan"}}, {"is_disabled": 0, "fusion_lat": 0.0, "lat": 38.861018, "type": "electric_scooter", "lon": -76.9835965, "is_reserved": 0, "fusion_lon": 0.0, "bike_id": "6536f9dfaaa65aaed3fc4e246196e848", "name": "6536f9dfaaa65aaed3fc4e246196e848", "rental_uris": {"ios": "https://dc.lft.to/lastmile_qr_scan", "android": "https://dc.lft.to/lastmile_qr_scan"}}, {"is_disabled": 0, "fusion_lat": 0.0, "lat": 38.9027655, "type": "electric_scooter", "lon": -77.03383116666667, "is_reserved": 0, "fusion_lon": 0.0, "bike_id": "c045e995768f9e5d568c590a5132b360", "name": "c045e995768f9e5d568c590a5132b360", "rental_uris": {"ios": "https://dc.lft.to/lastmile_qr_scan", "android": "https://dc.lft.to/lastmile_qr_scan"}}, {"is_disabled": 0, "fusion_lat": 0.0, "lat": 38.8833905, "type": "electric_scooter", "lon": -77.03150066666667, "is_reserved": 0, "fusion_lon": 0.0, "bike_id": "0f34bc7c6e03f5180f6271b9900cc6bc", "name": "0f34bc7c6e03f5180f6271b9900cc6bc", "rental_uris": {"ios": "https://dc.lft.to/lastmile_qr_scan", "android": "https://dc.lft.to/lastmile_qr_scan"}}, {"is_disabled": 0, "fusion_lat": 0.0, "lat": 38.93683716666666, "type": "electric_scooter", "lon": -77.03629016666666, "is_reserved": 0, "fusion_lon": 0.0, "bike_id": "4efba72656b5928f29e0398600b71f7f", "name": "4efba72656b5928f29e0398600b71f7f", "rental_uris": {"ios": "https://dc.lft.to/lastmile_qr_scan", "android": "https://dc.lft.to/lastmile_qr_scan"}}, {"is_disabled": 0, "fusion_lat": 0.0, "lat": 38.90559566666667, "type": "electric_scooter", "lon": -77.02481033333333, "is_reserved": 0, "fusion_lon": 0.0, "bike_id": "45dd53c757857a8d5d0c0eaf6e6aa8f4", "name": "45dd53c757857a8d5d0c0eaf6e6aa8f4", "rental_uris": {"ios": "https://dc.lft.to/lastmile_qr_scan", "android": "https://dc.lft.to/lastmile_qr_scan"}}, {"is_disabled": 0, "fusion_lat": 0.0, "lat": 38.89075366666667, "type": "electric_scooter", "lon": -76.98348916666667, "is_reserved": 0, "fusion_lon": 0.0, "bike_id": "bb06f045c92f61318bad0c60ff16eee8", "name": "bb06f045c92f61318bad0c60ff16eee8", "rental_uris": {"ios": "https://dc.lft.to/lastmile_qr_scan", "android": "https://dc.lft.to/lastmile_qr_scan"}}, {"is_disabled": 0, "fusion_lat": 0.0, "lat": 38.899376333333336, "type": "electric_scooter", "lon": -77.04076533333334, "is_reserved": 0, "fusion_lon": 0.0, "bike_id": "30e1dee30e145a9516a7bc58f10115b4", "name": "30e1dee30e145a9516a7bc58f10115b4", "rental_uris": {"ios": "https://dc.lft.to/lastmile_qr_scan", "android": "https://dc.lft.to/lastmile_qr_scan"}}, {"is_disabled": 0, "fusion_lat": 0.0, "lat": 38.910109, "type": "electric_scooter", "lon": -76.9938645, "is_reserved": 0, "fusion_lon": 0.0, "bike_id": "1ff6a663e7181f1ba2562d17e9746d41", "name": "1ff6a663e7181f1ba2562d17e9746d41", "rental_uris": {"ios": "https://dc.lft.to/lastmile_qr_scan", "android": "https://dc.lft.to/lastmile_qr_scan"}}, {"is_disabled": 0, "fusion_lat": 0.0, "lat": 38.89371833333333, "type": "electric_scooter", "lon": -76.9499905, "is_reserved": 0, "fusion_lon": 0.0, "bike_id": "a7f0b35c7a68ee9f3f19210108778552", "name": "a7f0b35c7a68ee9f3f19210108778552", "rental_uris": {"ios": "https://dc.lft.to/lastmile_qr_scan", "android": "https://dc.lft.to/lastmile_qr_scan"}}, {"is_disabled": 0, "fusion_lat": 0.0, "lat": 38.91879766666667, "type": "electric_scooter", "lon": -77.029555, "is_reserved": 0, "fusion_lon": 0.0, "bike_id": "41cdcd7121a265f5d825aad3511572e7", "name": "41cdcd7121a265f5d825aad3511572e7", "rental_uris": {"ios": "https://dc.lft.to/lastmile_qr_scan", "android": "https://dc.lft.to/lastmile_qr_scan"}}, {"is_disabled": 0, "fusion_lat": 0.0, "lat": 38.8576985, "type": "electric_bike", "lon": -76.98768716666666, "is_reserved": 0, "fusion_lon": 0.0, "bike_id": "88351eb6fb108f28c7e49a2d538a662c", "name": "88351eb6fb108f28c7e49a2d538a662c", "rental_uris": {"ios": "https://dc.lft.to/lastmile_qr_scan", "android": "https://dc.lft.to/lastmile_qr_scan"}}, {"is_disabled": 0, "fusion_lat": 0.0, "lat": 38.905597666666665, "type": "electric_scooter", "lon": -77.00719933333333, "is_reserved": 0, "fusion_lon": 0.0, "bike_id": "849faa12e3cc408d6df303748e366102", "name": "849faa12e3cc408d6df303748e366102", "rental_uris": {"ios": "https://dc.lft.to/lastmile_qr_scan", "android": "https://dc.lft.to/lastmile_qr_scan"}}, {"is_disabled": 0, "fusion_lat": 0.0, "lat": 38.92359966666667, "type": "electric_scooter", "lon": -77.05120133333334, "is_reserved": 0, "fusion_lon": 0.0, "bike_id": "eb5673f3823cc84bf8c0dc408eec99ec", "name": "eb5673f3823cc84bf8c0dc408eec99ec", "rental_uris": {"ios": "https://dc.lft.to/lastmile_qr_scan", "android": "https://dc.lft.to/lastmile_qr_scan"}}, {"is_disabled": 0, "fusion_lat": 0.0, "lat": 38.907112166666664, "type": "electric_scooter", "lon": -77.04346083333333, "is_reserved": 0, "fusion_lon": 0.0, "bike_id": "21c954979410242266ccaa85f77d3dc5", "name": "21c954979410242266ccaa85f77d3dc5", "rental_uris": {"ios": "https://dc.lft.to/lastmile_qr_scan", "android": "https://dc.lft.to/lastmile_qr_scan"}}, {"is_disabled": 0, "fusion_lat": 0.0, "lat": 38.884835833333334, "type": "electric_scooter", "lon": -77.0153315, "is_reserved": 0, "fusion_lon": 0.0, "bike_id": "ed64cdf39abf8468cec1e2f192812efb", "name": "ed64cdf39abf8468cec1e2f192812efb", "rental_uris": {"ios": "https://dc.lft.to/lastmile_qr_scan", "android": "https://dc.lft.to/lastmile_qr_scan"}}, {"is_disabled": 0, "fusion_lat": 0.0, "lat": 38.9150205, "type": "electric_scooter", "lon": -76.98351416666667, "is_reserved": 0, "fusion_lon": 0.0, "bike_id": "3273754c2819e57df9aefacd9a108b1b", "name": "3273754c2819e57df9aefacd9a108b1b", "rental_uris": {"ios": "https://dc.lft.to/lastmile_qr_scan", "android": "https://dc.lft.to/lastmile_qr_scan"}}, {"is_disabled": 0, "fusion_lat": 0.0, "lat": 38.92120083333333, "type": "electric_scooter", "lon": -77.01776616666666, "is_reserved": 0, "fusion_lon": 0.0, "bike_id": "898b9275a9044c2a491c132b89141f70", "name": "898b9275a9044c2a491c132b89141f70", "rental_uris": {"ios": "https://dc.lft.to/lastmile_qr_scan", "android": "https://dc.lft.to/lastmile_qr_scan"}}, {"is_disabled": 0, "fusion_lat": 0.0, "lat": 38.930815333333335, "type": "electric_scooter", "lon": -77.03757616666667, "is_reserved": 0, "fusion_lon": 0.0, "bike_id": "e9c6361e24d91b73a0207726532a30f9", "name": "e9c6361e24d91b73a0207726532a30f9", "rental_uris": {"ios": "https://dc.lft.to/lastmile_qr_scan", "android": "https://dc.lft.to/lastmile_qr_scan"}}, {"is_disabled": 0, "fusion_lat": 0.0, "lat": 38.95269566666666, "type": "electric_bike", "lon": -77.00198716666667, "is_reserved": 0, "fusion_lon": 0.0, "bike_id": "7475505bf29c9ad44b94330a523a55e0", "name": "7475505bf29c9ad44b94330a523a55e0", "rental_uris": {"ios": "https://dc.lft.to/lastmile_qr_scan", "android": "https://dc.lft.to/lastmile_qr_scan"}}, {"is_disabled": 0, "fusion_lat": 0.0, "lat": 38.919964666666665, "type": "electric_scooter", "lon": -77.03187383333334, "is_reserved": 0, "fusion_lon": 0.0, "bike_id": "af7d4efc2f6174dd5a10b6ecb5cb230c", "name": "af7d4efc2f6174dd5a10b6ecb5cb230c", "rental_uris": {"ios": "https://dc.lft.to/lastmile_qr_scan", "android": "https://dc.lft.to/lastmile_qr_scan"}}, {"is_disabled": 0, "fusion_lat": 0.0, "lat": 38.9057315, "type": "electric_scooter", "lon": -77.03826616666667, "is_reserved": 0, "fusion_lon": 0.0, "bike_id": "c1434e30176f47336f1c900488ad54df", "name": "c1434e30176f47336f1c900488ad54df", "rental_uris": {"ios": "https://dc.lft.to/lastmile_qr_scan", "android": "https://dc.lft.to/lastmile_qr_scan"}}, {"is_disabled": 0, "fusion_lat": 0.0, "lat": 38.84930883333333, "type": "electric_bike", "lon": -77.100127, "is_reserved": 0, "fusion_lon": 0.0, "bike_id": "47a21fd62710b497498deedb8dac12c9", "name": "47a21fd62710b497498deedb8dac12c9", "rental_uris": {"ios": "https://dc.lft.to/lastmile_qr_scan", "android": "https://dc.lft.to/lastmile_qr_scan"}}, {"is_disabled": 0, "fusion_lat": 0.0, "lat": 38.9305835, "type": "electric_scooter", "lon": -77.02666966666666, "is_reserved": 0, "fusion_lon": 0.0, "bike_id": "fbc2c15a1e35c5686178507d994c0b78", "name": "fbc2c15a1e35c5686178507d994c0b78", "rental_uris": {"ios": "https://dc.lft.to/lastmile_qr_scan", "android": "https://dc.lft.to/lastmile_qr_scan"}}, {"is_disabled": 0, "fusion_lat": 0.0, "lat": 38.8661815, "type": "electric_scooter", "lon": -76.98694816666666, "is_reserved": 0, "fusion_lon": 0.0, "bike_id": "97acd7f6ef458c3c8ccba2aae2a718c7", "name": "97acd7f6ef458c3c8ccba2aae2a718c7", "rental_uris": {"ios": "https://dc.lft.to/lastmile_qr_scan", "android": "https://dc.lft.to/lastmile_qr_scan"}}, {"is_disabled": 0, "fusion_lat": 0.0, "lat": 38.90129916666667, "type": "electric_scooter", "lon": -77.002721, "is_reserved": 0, "fusion_lon": 0.0, "bike_id": "91d9088d882c863d7286ff8bc951e421", "name": "91d9088d882c863d7286ff8bc951e421", "rental_uris": {"ios": "https://dc.lft.to/lastmile_qr_scan", "android": "https://dc.lft.to/lastmile_qr_scan"}}, {"is_disabled": 0, "fusion_lat": 0.0, "lat": 38.84292683333334, "type": "electric_scooter", "lon": -76.99939983333333, "is_reserved": 0, "fusion_lon": 0.0, "bike_id": "f936bac2f168f29ef75206d8d1e88f47", "name": "f936bac2f168f29ef75206d8d1e88f47", "rental_uris": {"ios": "https://dc.lft.to/lastmile_qr_scan", "android": "https://dc.lft.to/lastmile_qr_scan"}}, {"is_disabled": 0, "fusion_lat": 0.0, "lat": 38.9228905, "type": "electric_scooter", "lon": -77.02080133333334, "is_reserved": 0, "fusion_lon": 0.0, "bike_id": "5c38bf8f4cb8e76c8cd5a9c2a5cbd153", "name": "5c38bf8f4cb8e76c8cd5a9c2a5cbd153", "rental_uris": {"ios": "https://dc.lft.to/lastmile_qr_scan", "android": "https://dc.lft.to/lastmile_qr_scan"}}, {"is_disabled": 0, "fusion_lat": 0.0, "lat": 38.90798516666667, "type": "electric_scooter", "lon": -77.02400383333334, "is_reserved": 0, "fusion_lon": 0.0, "bike_id": "6a20f06e069181335687160ffd2b1145", "name": "6a20f06e069181335687160ffd2b1145", "rental_uris": {"ios": "https://dc.lft.to/lastmile_qr_scan", "android": "https://dc.lft.to/lastmile_qr_scan"}}, {"is_disabled": 0, "fusion_lat": 0.0, "lat": 38.919353666666666, "type": "electric_scooter", "lon": -77.08130133333333, "is_reserved": 0, "fusion_lon": 0.0, "bike_id": "e6766c83109b5cfce589dfd52ff4bbf7", "name": "e6766c83109b5cfce589dfd52ff4bbf7", "rental_uris": {"ios": "https://dc.lft.to/lastmile_qr_scan", "android": "https://dc.lft.to/lastmile_qr_scan"}}, {"is_disabled": 0, "fusion_lat": 0.0, "lat": 38.99073466666667, "type": "electric_bike", "lon": -76.874719, "is_reserved": 0, "fusion_lon": 0.0, "bike_id": "a867a7e4d7ec1f5f9e8acade2df5508a", "name": "a867a7e4d7ec1f5f9e8acade2df5508a", "rental_uris": {"ios": "https://dc.lft.to/lastmile_qr_scan", "android": "https://dc.lft.to/lastmile_qr_scan"}}, {"is_disabled": 0, "fusion_lat": 0.0, "lat": 38.861029333333335, "type": "electric_scooter", "lon": -76.98331583333334, "is_reserved": 0, "fusion_lon": 0.0, "bike_id": "3d4b387239f90649f8de18bece8b620f", "name": "3d4b387239f90649f8de18bece8b620f", "rental_uris": {"ios": "https://dc.lft.to/lastmile_qr_scan", "android": "https://dc.lft.to/lastmile_qr_scan"}}, {"is_disabled": 0, "fusion_lat": 0.0, "lat": 38.919232666666666, "type": "electric_scooter", "lon": -77.03174016666667, "is_reserved": 0, "fusion_lon": 0.0, "bike_id": "9f354b1334f2e21eb469e87753926eb1", "name": "9f354b1334f2e21eb469e87753926eb1", "rental_uris": {"ios": "https://dc.lft.to/lastmile_qr_scan", "android": "https://dc.lft.to/lastmile_qr_scan"}}, {"is_disabled": 0, "fusion_lat": 0.0, "lat": 38.93188816666667, "type": "electric_scooter", "lon": -77.02835816666666, "is_reserved": 0, "fusion_lon": 0.0, "bike_id": "133d533122f73dbd3ed568487f232c11", "name": "133d533122f73dbd3ed568487f232c11", "rental_uris": {"ios": "https://dc.lft.to/lastmile_qr_scan", "android": "https://dc.lft.to/lastmile_qr_scan"}}, {"is_disabled": 0, "fusion_lat": 0.0, "lat": 38.8876765, "type": "electric_scooter", "lon": -77.0222965, "is_reserved": 0, "fusion_lon": 0.0, "bike_id": "b6d988eaaf88348d4e1878b6009ee6cc", "name": "b6d988eaaf88348d4e1878b6009ee6cc", "rental_uris": {"ios": "https://dc.lft.to/lastmile_qr_scan", "android": "https://dc.lft.to/lastmile_qr_scan"}}, {"is_disabled": 0, "fusion_lat": 0.0, "lat": 38.915602, "type": "electric_scooter", "lon": -77.03061516666666, "is_reserved": 0, "fusion_lon": 0.0, "bike_id": "ab82708756463e067f5d59710de44672", "name": "ab82708756463e067f5d59710de44672", "rental_uris": {"ios": "https://dc.lft.to/lastmile_qr_scan", "android": "https://dc.lft.to/lastmile_qr_scan"}}, {"is_disabled": 0, "fusion_lat": 0.0, "lat": 38.90062833333333, "type": "electric_scooter", "lon": -76.93385566666667, "is_reserved": 0, "fusion_lon": 0.0, "bike_id": "bcf23793f8faf46be0361ed149f15543", "name": "bcf23793f8faf46be0361ed149f15543", "rental_uris": {"ios": "https://dc.lft.to/lastmile_qr_scan", "android": "https://dc.lft.to/lastmile_qr_scan"}}, {"is_disabled": 0, "fusion_lat": 0.0, "lat": 38.88432933333333, "type": "electric_scooter", "lon": -76.95750083333333, "is_reserved": 0, "fusion_lon": 0.0, "bike_id": "b6cd42ffdba138e3008026141e3c8182", "name": "b6cd42ffdba138e3008026141e3c8182", "rental_uris": {"ios": "https://dc.lft.to/lastmile_qr_scan", "android": "https://dc.lft.to/lastmile_qr_scan"}}, {"is_disabled": 0, "fusion_lat": 0.0, "lat": 38.9056205, "type": "electric_scooter", "lon": -77.02967433333333, "is_reserved": 0, "fusion_lon": 0.0, "bike_id": "a25e734f0843d67fb39cd51c75e2d97c", "name": "a25e734f0843d67fb39cd51c75e2d97c", "rental_uris": {"ios": "https://dc.lft.to/lastmile_qr_scan", "android": "https://dc.lft.to/lastmile_qr_scan"}}, {"is_disabled": 0, "fusion_lat": 0.0, "lat": 38.9236565, "type": "electric_scooter", "lon": -77.019061, "is_reserved": 0, "fusion_lon": 0.0, "bike_id": "e7ec4c230c0c1b2e4e49ada4df41e162", "name": "e7ec4c230c0c1b2e4e49ada4df41e162", "rental_uris": {"ios": "https://dc.lft.to/lastmile_qr_scan", "android": "https://dc.lft.to/lastmile_qr_scan"}}, {"is_disabled": 0, "fusion_lat": 0.0, "lat": 38.930879833333336, "type": "electric_scooter", "lon": -77.0779525, "is_reserved": 0, "fusion_lon": 0.0, "bike_id": "58c2a28c262d629159c662ccfcf0988f", "name": "58c2a28c262d629159c662ccfcf0988f", "rental_uris": {"ios": "https://dc.lft.to/lastmile_qr_scan", "android": "https://dc.lft.to/lastmile_qr_scan"}}, {"is_disabled": 0, "fusion_lat": 0.0, "lat": 38.927350833333335, "type": "electric_bike", "lon": -76.993616, "is_reserved": 0, "fusion_lon": 0.0, "bike_id": "d787b48d39fd8fb50bbb2725966e157a", "name": "d787b48d39fd8fb50bbb2725966e157a", "rental_uris": {"ios": "https://dc.lft.to/lastmile_qr_scan", "android": "https://dc.lft.to/lastmile_qr_scan"}}, {"is_disabled": 0, "fusion_lat": 0.0, "lat": 38.898441, "type": "electric_scooter", "lon": -77.03959716666667, "is_reserved": 0, "fusion_lon": 0.0, "bike_id": "533ac1fde1fad4b983d4070e61886464", "name": "533ac1fde1fad4b983d4070e61886464", "rental_uris": {"ios": "https://dc.lft.to/lastmile_qr_scan", "android": "https://dc.lft.to/lastmile_qr_scan"}}, {"is_disabled": 0, "fusion_lat": 0.0, "lat": 38.949224666666666, "type": "electric_scooter", "lon": -77.019331, "is_reserved": 0, "fusion_lon": 0.0, "bike_id": "78460d59488a62bcef7ed6e6171cc407", "name": "78460d59488a62bcef7ed6e6171cc407", "rental_uris": {"ios": "https://dc.lft.to/lastmile_qr_scan", "android": "https://dc.lft.to/lastmile_qr_scan"}}, {"is_disabled": 0, "fusion_lat": 0.0, "lat": 38.95638066666667, "type": "electric_scooter", "lon": -77.0330375, "is_reserved": 0, "fusion_lon": 0.0, "bike_id": "39d5eb501a9e778a39f09df6cdd12e7d", "name": "39d5eb501a9e778a39f09df6cdd12e7d", "rental_uris": {"ios": "https://dc.lft.to/lastmile_qr_scan", "android": "https://dc.lft.to/lastmile_qr_scan"}}, {"is_disabled": 0, "fusion_lat": 0.0, "lat": 38.864439, "type": "electric_bike", "lon": -76.94540766666667, "is_reserved": 0, "fusion_lon": 0.0, "bike_id": "f9982cbea2ba1438a3c199c936af980c", "name": "f9982cbea2ba1438a3c199c936af980c", "rental_uris": {"ios": "https://dc.lft.to/lastmile_qr_scan", "android": "https://dc.lft.to/lastmile_qr_scan"}}, {"is_disabled": 0, "fusion_lat": 0.0, "lat": 38.87143, "type": "electric_bike", "lon": -76.936912, "is_reserved": 0, "fusion_lon": 0.0, "bike_id": "4264e1a99a63864ab33f495b417f6f8c", "name": "4264e1a99a63864ab33f495b417f6f8c", "rental_uris": {"ios": "https://dc.lft.to/lastmile_qr_scan", "android": "https://dc.lft.to/lastmile_qr_scan"}}, {"is_disabled": 0, "fusion_lat": 0.0, "lat": 38.91661333333333, "type": "electric_scooter", "lon": -77.0416055, "is_reserved": 0, "fusion_lon": 0.0, "bike_id": "342049172306815f1fcf478196344fe8", "name": "342049172306815f1fcf478196344fe8", "rental_uris": {"ios": "https://dc.lft.to/lastmile_qr_scan", "android": "https://dc.lft.to/lastmile_qr_scan"}}, {"is_disabled": 0, "fusion_lat": 0.0, "lat": 38.898024166666666, "type": "electric_scooter", "lon": -76.99159133333333, "is_reserved": 0, "fusion_lon": 0.0, "bike_id": "3e2ecb82dbd93d4f4208d9bbcde87df4", "name": "3e2ecb82dbd93d4f4208d9bbcde87df4", "rental_uris": {"ios": "https://dc.lft.to/lastmile_qr_scan", "android": "https://dc.lft.to/lastmile_qr_scan"}}, {"is_disabled": 0, "fusion_lat": 0.0, "lat": 38.903586, "type": "electric_scooter", "lon": -77.0450215, "is_reserved": 0, "fusion_lon": 0.0, "bike_id": "d024185c46723694f22564460ed9b515", "name": "d024185c46723694f22564460ed9b515", "rental_uris": {"ios": "https://dc.lft.to/lastmile_qr_scan", "android": "https://dc.lft.to/lastmile_qr_scan"}}, {"is_disabled": 0, "fusion_lat": 0.0, "lat": 38.917044, "type": "electric_scooter", "lon": -77.00716416666667, "is_reserved": 0, "fusion_lon": 0.0, "bike_id": "cb2425e6098766c3e09500399851cec2", "name": "cb2425e6098766c3e09500399851cec2", "rental_uris": {"ios": "https://dc.lft.to/lastmile_qr_scan", "android": "https://dc.lft.to/lastmile_qr_scan"}}, {"is_disabled": 0, "fusion_lat": 0.0, "lat": 38.92380883333333, "type": "electric_scooter", "lon": -77.00066216666667, "is_reserved": 0, "fusion_lon": 0.0, "bike_id": "efa4f3606845913b90bfa931340d65a8", "name": "efa4f3606845913b90bfa931340d65a8", "rental_uris": {"ios": "https://dc.lft.to/lastmile_qr_scan", "android": "https://dc.lft.to/lastmile_qr_scan"}}, {"is_disabled": 0, "fusion_lat": 0.0, "lat": 38.894764, "type": "electric_scooter", "lon": -76.98398916666666, "is_reserved": 0, "fusion_lon": 0.0, "bike_id": "106667bb85abcee03433e6dc2d6a1419", "name": "106667bb85abcee03433e6dc2d6a1419", "rental_uris": {"ios": "https://dc.lft.to/lastmile_qr_scan", "android": "https://dc.lft.to/lastmile_qr_scan"}}, {"is_disabled": 0, "fusion_lat": 0.0, "lat": 38.9101515, "type": "electric_scooter", "lon": -77.08899083333333, "is_reserved": 0, "fusion_lon": 0.0, "bike_id": "583cef9e009fd1f7b3584b45311e4575", "name": "583cef9e009fd1f7b3584b45311e4575", "rental_uris": {"ios": "https://dc.lft.to/lastmile_qr_scan", "android": "https://dc.lft.to/lastmile_qr_scan"}}, {"is_disabled": 0, "fusion_lat": 0.0, "lat": 38.91375583333333, "type": "electric_scooter", "lon": -77.004429, "is_reserved": 0, "fusion_lon": 0.0, "bike_id": "346bce3145111e7a81e2710a1e388dc6", "name": "346bce3145111e7a81e2710a1e388dc6", "rental_uris": {"ios": "https://dc.lft.to/lastmile_qr_scan", "android": "https://dc.lft.to/lastmile_qr_scan"}}, {"is_disabled": 0, "fusion_lat": 0.0, "lat": 38.92152266666667, "type": "electric_scooter", "lon": -77.038836, "is_reserved": 0, "fusion_lon": 0.0, "bike_id": "1f8c8de09fa745650329d4cf508b99a9", "name": "1f8c8de09fa745650329d4cf508b99a9", "rental_uris": {"ios": "https://dc.lft.to/lastmile_qr_scan", "android": "https://dc.lft.to/lastmile_qr_scan"}}, {"is_disabled": 0, "fusion_lat": 0.0, "lat": 38.900051833333336, "type": "electric_scooter", "lon": -76.990156, "is_reserved": 0, "fusion_lon": 0.0, "bike_id": "df0bbd9a6dfc140b86c4e1a1634eec52", "name": "df0bbd9a6dfc140b86c4e1a1634eec52", "rental_uris": {"ios": "https://dc.lft.to/lastmile_qr_scan", "android": "https://dc.lft.to/lastmile_qr_scan"}}, {"is_disabled": 0, "fusion_lat": 0.0, "lat": 38.95095083333333, "type": "electric_scooter", "lon": -77.023379, "is_reserved": 0, "fusion_lon": 0.0, "bike_id": "1bac81d618e3be4ac3ef6a91a68f7ebc", "name": "1bac81d618e3be4ac3ef6a91a68f7ebc", "rental_uris": {"ios": "https://dc.lft.to/lastmile_qr_scan", "android": "https://dc.lft.to/lastmile_qr_scan"}}, {"is_disabled": 0, "fusion_lat": 0.0, "lat": 38.89619666666667, "type": "electric_scooter", "lon": -76.981184, "is_reserved": 0, "fusion_lon": 0.0, "bike_id": "2f115ee26d0c0eb103dc5e0d706dab11", "name": "2f115ee26d0c0eb103dc5e0d706dab11", "rental_uris": {"ios": "https://dc.lft.to/lastmile_qr_scan", "android": "https://dc.lft.to/lastmile_qr_scan"}}, {"is_disabled": 0, "fusion_lat": 0.0, "lat": 38.8723175, "type": "electric_bike", "lon": -77.01170133333333, "is_reserved": 0, "fusion_lon": 0.0, "bike_id": "5e7a747efdcbc2a2ad4f247c3ce36a47", "name": "5e7a747efdcbc2a2ad4f247c3ce36a47", "rental_uris": {"ios": "https://dc.lft.to/lastmile_qr_scan", "android": "https://dc.lft.to/lastmile_qr_scan"}}, {"is_disabled": 0, "fusion_lat": 0.0, "lat": 38.865700333333336, "type": "electric_scooter", "lon": -76.98947716666666, "is_reserved": 0, "fusion_lon": 0.0, "bike_id": "343eaf02b278c55553af7f12c84e8314", "name": "343eaf02b278c55553af7f12c84e8314", "rental_uris": {"ios": "https://dc.lft.to/lastmile_qr_scan", "android": "https://dc.lft.to/lastmile_qr_scan"}}, {"is_disabled": 0, "fusion_lat": 0.0, "lat": 38.949015, "type": "electric_bike", "lon": -76.972364, "is_reserved": 0, "fusion_lon": 0.0, "bike_id": "15ddbb14aa5301a355908b6cb4e5d151", "name": "15ddbb14aa5301a355908b6cb4e5d151", "rental_uris": {"ios": "https://dc.lft.to/lastmile_qr_scan", "android": "https://dc.lft.to/lastmile_qr_scan"}}, {"is_disabled": 0, "fusion_lat": 0.0, "lat": 38.9306635, "type": "electric_scooter", "lon": -77.03118833333333, "is_reserved": 0, "fusion_lon": 0.0, "bike_id": "618e245828a787ff9370637dcf54a01f", "name": "618e245828a787ff9370637dcf54a01f", "rental_uris": {"ios": "https://dc.lft.to/lastmile_qr_scan", "android": "https://dc.lft.to/lastmile_qr_scan"}}, {"is_disabled": 0, "fusion_lat": 0.0, "lat": 38.88863816666667, "type": "electric_bike", "lon": -76.99465366666666, "is_reserved": 0, "fusion_lon": 0.0, "bike_id": "d3876b37b71f1ab454613b03f94ef013", "name": "d3876b37b71f1ab454613b03f94ef013", "rental_uris": {"ios": "https://dc.lft.to/lastmile_qr_scan", "android": "https://dc.lft.to/lastmile_qr_scan"}}, {"is_disabled": 0, "fusion_lat": 0.0, "lat": 38.8937075, "type": "electric_scooter", "lon": -77.047866, "is_reserved": 0, "fusion_lon": 0.0, "bike_id": "a8192843d20009737151b35714cd8083", "name": "a8192843d20009737151b35714cd8083", "rental_uris": {"ios": "https://dc.lft.to/lastmile_qr_scan", "android": "https://dc.lft.to/lastmile_qr_scan"}}, {"is_disabled": 0, "fusion_lat": 0.0, "lat": 38.942385333333334, "type": "electric_scooter", "lon": -77.072385, "is_reserved": 0, "fusion_lon": 0.0, "bike_id": "bf0c34c9eb4f0d5df85751b6dcf82a1f", "name": "bf0c34c9eb4f0d5df85751b6dcf82a1f", "rental_uris": {"ios": "https://dc.lft.to/lastmile_qr_scan", "android": "https://dc.lft.to/lastmile_qr_scan"}}, {"is_disabled": 0, "fusion_lat": 0.0, "lat": 38.9066595, "type": "electric_scooter", "lon": -77.03830983333333, "is_reserved": 0, "fusion_lon": 0.0, "bike_id": "7712d750d900f0be8a5d51f2e5e92b55", "name": "7712d750d900f0be8a5d51f2e5e92b55", "rental_uris": {"ios": "https://dc.lft.to/lastmile_qr_scan", "android": "https://dc.lft.to/lastmile_qr_scan"}}, {"is_disabled": 0, "fusion_lat": 0.0, "lat": 38.898135333333336, "type": "electric_scooter", "lon": -77.0333105, "is_reserved": 0, "fusion_lon": 0.0, "bike_id": "b5558711e09769a409ec59668f35738a", "name": "b5558711e09769a409ec59668f35738a", "rental_uris": {"ios": "https://dc.lft.to/lastmile_qr_scan", "android": "https://dc.lft.to/lastmile_qr_scan"}}, {"is_disabled": 0, "fusion_lat": 0.0, "lat": 38.9414745, "type": "electric_scooter", "lon": -77.0297715, "is_reserved": 0, "fusion_lon": 0.0, "bike_id": "98bedc12d1444e28e2cc56395eaa6b95", "name": "98bedc12d1444e28e2cc56395eaa6b95", "rental_uris": {"ios": "https://dc.lft.to/lastmile_qr_scan", "android": "https://dc.lft.to/lastmile_qr_scan"}}, {"is_disabled": 0, "fusion_lat": 0.0, "lat": 38.89360283333333, "type": "electric_scooter", "lon": -76.949799, "is_reserved": 0, "fusion_lon": 0.0, "bike_id": "e324de1aeb81f5e3b8a2fc47de10a59f", "name": "e324de1aeb81f5e3b8a2fc47de10a59f", "rental_uris": {"ios": "https://dc.lft.to/lastmile_qr_scan", "android": "https://dc.lft.to/lastmile_qr_scan"}}, {"is_disabled": 0, "fusion_lat": 0.0, "lat": 38.9284905, "type": "electric_scooter", "lon": -77.05419383333333, "is_reserved": 0, "fusion_lon": 0.0, "bike_id": "00f2f7598c3aa7b08bd7ce77a51f9338", "name": "00f2f7598c3aa7b08bd7ce77a51f9338", "rental_uris": {"ios": "https://dc.lft.to/lastmile_qr_scan", "android": "https://dc.lft.to/lastmile_qr_scan"}}, {"is_disabled": 0, "fusion_lat": 0.0, "lat": 38.932869, "type": "electric_scooter", "lon": -77.03976983333334, "is_reserved": 0, "fusion_lon": 0.0, "bike_id": "8ce8aae8d1bc6dcc213e7c6d3513576b", "name": "8ce8aae8d1bc6dcc213e7c6d3513576b", "rental_uris": {"ios": "https://dc.lft.to/lastmile_qr_scan", "android": "https://dc.lft.to/lastmile_qr_scan"}}, {"is_disabled": 0, "fusion_lat": 0.0, "lat": 38.90973816666666, "type": "electric_scooter", "lon": -77.04059883333333, "is_reserved": 0, "fusion_lon": 0.0, "bike_id": "ce35c84d06609cd4bfa5f93af5ca619e", "name": "ce35c84d06609cd4bfa5f93af5ca619e", "rental_uris": {"ios": "https://dc.lft.to/lastmile_qr_scan", "android": "https://dc.lft.to/lastmile_qr_scan"}}, {"is_disabled": 0, "fusion_lat": 0.0, "lat": 38.8718755, "type": "electric_bike", "lon": -77.0840425, "is_reserved": 0, "fusion_lon": 0.0, "bike_id": "4b25402e124bcf7d38a8b80754301ffe", "name": "4b25402e124bcf7d38a8b80754301ffe", "rental_uris": {"ios": "https://dc.lft.to/lastmile_qr_scan", "android": "https://dc.lft.to/lastmile_qr_scan"}}, {"is_disabled": 0, "fusion_lat": 0.0, "lat": 38.93235766666667, "type": "electric_scooter", "lon": -77.0327755, "is_reserved": 0, "fusion_lon": 0.0, "bike_id": "d77ea335bed02552f5ac000ac5eae116", "name": "d77ea335bed02552f5ac000ac5eae116", "rental_uris": {"ios": "https://dc.lft.to/lastmile_qr_scan", "android": "https://dc.lft.to/lastmile_qr_scan"}}, {"is_disabled": 0, "fusion_lat": 0.0, "lat": 38.89625083333333, "type": "electric_scooter", "lon": -76.998534, "is_reserved": 0, "fusion_lon": 0.0, "bike_id": "9cdfb033ce8a462a5c5b44bfb9385ce1", "name": "9cdfb033ce8a462a5c5b44bfb9385ce1", "rental_uris": {"ios": "https://dc.lft.to/lastmile_qr_scan", "android": "https://dc.lft.to/lastmile_qr_scan"}}, {"is_disabled": 0, "fusion_lat": 0.0, "lat": 38.8981295, "type": "electric_scooter", "lon": -77.03303433333333, "is_reserved": 0, "fusion_lon": 0.0, "bike_id": "9b8cc1887106d18327b36fcfde08ffe4", "name": "9b8cc1887106d18327b36fcfde08ffe4", "rental_uris": {"ios": "https://dc.lft.to/lastmile_qr_scan", "android": "https://dc.lft.to/lastmile_qr_scan"}}, {"is_disabled": 0, "fusion_lat": 0.0, "lat": 38.911030833333335, "type": "electric_scooter", "lon": -77.0483765, "is_reserved": 0, "fusion_lon": 0.0, "bike_id": "1185e99e3d046b2a80c34703400c6c97", "name": "1185e99e3d046b2a80c34703400c6c97", "rental_uris": {"ios": "https://dc.lft.to/lastmile_qr_scan", "android": "https://dc.lft.to/lastmile_qr_scan"}}, {"is_disabled": 0, "fusion_lat": 0.0, "lat": 38.903861, "type": "electric_scooter", "lon": -77.02482183333333, "is_reserved": 0, "fusion_lon": 0.0, "bike_id": "61c13a25c5c05a6d0f261a3129cfdd8d", "name": "61c13a25c5c05a6d0f261a3129cfdd8d", "rental_uris": {"ios": "https://dc.lft.to/lastmile_qr_scan", "android": "https://dc.lft.to/lastmile_qr_scan"}}, {"is_disabled": 0, "fusion_lat": 0.0, "lat": 38.894972, "type": "electric_scooter", "lon": -77.02276966666666, "is_reserved": 0, "fusion_lon": 0.0, "bike_id": "c3eb57c66ee51d8be4be2ee50c73289c", "name": "c3eb57c66ee51d8be4be2ee50c73289c", "rental_uris": {"ios": "https://dc.lft.to/lastmile_qr_scan", "android": "https://dc.lft.to/lastmile_qr_scan"}}, {"is_disabled": 0, "fusion_lat": 0.0, "lat": 38.905725, "type": "electric_scooter", "lon": -77.0305965, "is_reserved": 0, "fusion_lon": 0.0, "bike_id": "d37f825ad18bdaaa8c905e75db009754", "name": "d37f825ad18bdaaa8c905e75db009754", "rental_uris": {"ios": "https://dc.lft.to/lastmile_qr_scan", "android": "https://dc.lft.to/lastmile_qr_scan"}}, {"is_disabled": 0, "fusion_lat": 0.0, "lat": 38.89226433333333, "type": "electric_scooter", "lon": -77.04640233333333, "is_reserved": 0, "fusion_lon": 0.0, "bike_id": "bb6232f8e5680d8cf6c6e553aa6ec78d", "name": "bb6232f8e5680d8cf6c6e553aa6ec78d", "rental_uris": {"ios": "https://dc.lft.to/lastmile_qr_scan", "android": "https://dc.lft.to/lastmile_qr_scan"}}, {"is_disabled": 0, "fusion_lat": 0.0, "lat": 38.927175, "type": "electric_scooter", "lon": -77.020845, "is_reserved": 0, "fusion_lon": 0.0, "bike_id": "98fc7bc6eed58400dad905cc84fb8962", "name": "98fc7bc6eed58400dad905cc84fb8962", "rental_uris": {"ios": "https://dc.lft.to/lastmile_qr_scan", "android": "https://dc.lft.to/lastmile_qr_scan"}}, {"is_disabled": 0, "fusion_lat": 0.0, "lat": 38.869019, "type": "electric_bike", "lon": -77.13177016666667, "is_reserved": 0, "fusion_lon": 0.0, "bike_id": "8daf9311907635e747aaf19f1a122f3b", "name": "8daf9311907635e747aaf19f1a122f3b", "rental_uris": {"ios": "https://dc.lft.to/lastmile_qr_scan", "android": "https://dc.lft.to/lastmile_qr_scan"}}, {"is_disabled": 0, "fusion_lat": 0.0, "lat": 38.932489333333336, "type": "electric_scooter", "lon": -77.03103883333333, "is_reserved": 0, "fusion_lon": 0.0, "bike_id": "a6e5226d50e324ed183bbe4ec49fff35", "name": "a6e5226d50e324ed183bbe4ec49fff35", "rental_uris": {"ios": "https://dc.lft.to/lastmile_qr_scan", "android": "https://dc.lft.to/lastmile_qr_scan"}}, {"is_disabled": 0, "fusion_lat": 0.0, "lat": 38.82006716666667, "type": "electric_bike", "lon": -76.99811683333333, "is_reserved": 0, "fusion_lon": 0.0, "bike_id": "a0c2a505738124228ebe6f636a74086b", "name": "a0c2a505738124228ebe6f636a74086b", "rental_uris": {"ios": "https://dc.lft.to/lastmile_qr_scan", "android": "https://dc.lft.to/lastmile_qr_scan"}}, {"is_disabled": 0, "fusion_lat": 0.0, "lat": 38.8922535, "type": "electric_scooter", "lon": -77.04636666666667, "is_reserved": 0, "fusion_lon": 0.0, "bike_id": "f022c41175561b2580022779dd05f56e", "name": "f022c41175561b2580022779dd05f56e", "rental_uris": {"ios": "https://dc.lft.to/lastmile_qr_scan", "android": "https://dc.lft.to/lastmile_qr_scan"}}, {"is_disabled": 0, "fusion_lat": 0.0, "lat": 38.92504, "type": "electric_scooter", "lon": -77.0387755, "is_reserved": 0, "fusion_lon": 0.0, "bike_id": "601797596f90a86342952b649e09e8bd", "name": "601797596f90a86342952b649e09e8bd", "rental_uris": {"ios": "https://dc.lft.to/lastmile_qr_scan", "android": "https://dc.lft.to/lastmile_qr_scan"}}, {"is_disabled": 0, "fusion_lat": 0.0, "lat": 38.927481, "type": "electric_scooter", "lon": -77.02491083333334, "is_reserved": 0, "fusion_lon": 0.0, "bike_id": "ec8536253bc36aad2461da5258cb5ff2", "name": "ec8536253bc36aad2461da5258cb5ff2", "rental_uris": {"ios": "https://dc.lft.to/lastmile_qr_scan", "android": "https://dc.lft.to/lastmile_qr_scan"}}, {"is_disabled": 0, "fusion_lat": 0.0, "lat": 38.9196715, "type": "electric_scooter", "lon": -77.03957383333334, "is_reserved": 0, "fusion_lon": 0.0, "bike_id": "3e784b085b0036d9cac0fc0c224fa59a", "name": "3e784b085b0036d9cac0fc0c224fa59a", "rental_uris": {"ios": "https://dc.lft.to/lastmile_qr_scan", "android": "https://dc.lft.to/lastmile_qr_scan"}}, {"is_disabled": 0, "fusion_lat": 0.0, "lat": 38.8994325, "type": "electric_scooter", "lon": -76.990131, "is_reserved": 0, "fusion_lon": 0.0, "bike_id": "bba566e455b82f1c5cd8870e47fbd113", "name": "bba566e455b82f1c5cd8870e47fbd113", "rental_uris": {"ios": "https://dc.lft.to/lastmile_qr_scan", "android": "https://dc.lft.to/lastmile_qr_scan"}}, {"is_disabled": 0, "fusion_lat": 0.0, "lat": 38.91922116666667, "type": "electric_scooter", "lon": -77.03178116666666, "is_reserved": 0, "fusion_lon": 0.0, "bike_id": "17865db0cf1edacc0642a938d6f95afd", "name": "17865db0cf1edacc0642a938d6f95afd", "rental_uris": {"ios": "https://dc.lft.to/lastmile_qr_scan", "android": "https://dc.lft.to/lastmile_qr_scan"}}, {"is_disabled": 0, "fusion_lat": 0.0, "lat": 38.917409166666665, "type": "electric_scooter", "lon": -77.04182216666666, "is_reserved": 0, "fusion_lon": 0.0, "bike_id": "cc3f373150bbaa8e2a8c6ea4f6fc1b62", "name": "cc3f373150bbaa8e2a8c6ea4f6fc1b62", "rental_uris": {"ios": "https://dc.lft.to/lastmile_qr_scan", "android": "https://dc.lft.to/lastmile_qr_scan"}}, {"is_disabled": 0, "fusion_lat": 0.0, "lat": 38.9232855, "type": "electric_scooter", "lon": -77.05468633333334, "is_reserved": 0, "fusion_lon": 0.0, "bike_id": "b2c5ae88cb9c729ab397a9b2d84ead1d", "name": "b2c5ae88cb9c729ab397a9b2d84ead1d", "rental_uris": {"ios": "https://dc.lft.to/lastmile_qr_scan", "android": "https://dc.lft.to/lastmile_qr_scan"}}, {"is_disabled": 0, "fusion_lat": 0.0, "lat": 38.90640633333334, "type": "electric_scooter", "lon": -76.98380566666667, "is_reserved": 0, "fusion_lon": 0.0, "bike_id": "6d85eda942cf0883f91d48794f24d21b", "name": "6d85eda942cf0883f91d48794f24d21b", "rental_uris": {"ios": "https://dc.lft.to/lastmile_qr_scan", "android": "https://dc.lft.to/lastmile_qr_scan"}}, {"is_disabled": 0, "fusion_lat": 0.0, "lat": 38.90121116666667, "type": "electric_scooter", "lon": -77.04879933333333, "is_reserved": 0, "fusion_lon": 0.0, "bike_id": "5ae2f70528a3bfcde45541204a433495", "name": "5ae2f70528a3bfcde45541204a433495", "rental_uris": {"ios": "https://dc.lft.to/lastmile_qr_scan", "android": "https://dc.lft.to/lastmile_qr_scan"}}, {"is_disabled": 0, "fusion_lat": 0.0, "lat": 38.952924, "type": "electric_bike", "lon": -77.06845566666667, "is_reserved": 0, "fusion_lon": 0.0, "bike_id": "c12f340ef10aecb079ab25809c6e1033", "name": "c12f340ef10aecb079ab25809c6e1033", "rental_uris": {"ios": "https://dc.lft.to/lastmile_qr_scan", "android": "https://dc.lft.to/lastmile_qr_scan"}}, {"is_disabled": 0, "fusion_lat": 0.0, "lat": 38.89557083333333, "type": "electric_scooter", "lon": -76.9307675, "is_reserved": 0, "fusion_lon": 0.0, "bike_id": "dcaea2fb7ff4525b2b0ce42b1c253d0c", "name": "dcaea2fb7ff4525b2b0ce42b1c253d0c", "rental_uris": {"ios": "https://dc.lft.to/lastmile_qr_scan", "android": "https://dc.lft.to/lastmile_qr_scan"}}, {"is_disabled": 0, "fusion_lat": 0.0, "lat": 38.9396585, "type": "electric_bike", "lon": -77.36089033333333, "is_reserved": 0, "fusion_lon": 0.0, "bike_id": "01de53f540164e0b03c28c697cca6f1d", "name": "01de53f540164e0b03c28c697cca6f1d", "rental_uris": {"ios": "https://dc.lft.to/lastmile_qr_scan", "android": "https://dc.lft.to/lastmile_qr_scan"}}, {"is_disabled": 0, "fusion_lat": 0.0, "lat": 38.90345883333333, "type": "electric_scooter", "lon": -77.02899166666667, "is_reserved": 0, "fusion_lon": 0.0, "bike_id": "49a27eb0dfd2dbeef7f76ac564f17043", "name": "49a27eb0dfd2dbeef7f76ac564f17043", "rental_uris": {"ios": "https://dc.lft.to/lastmile_qr_scan", "android": "https://dc.lft.to/lastmile_qr_scan"}}, {"is_disabled": 0, "fusion_lat": 0.0, "lat": 38.918223166666664, "type": "electric_scooter", "lon": -77.035363, "is_reserved": 0, "fusion_lon": 0.0, "bike_id": "ab9c0c255d994834f23e61ca3c06ff8a", "name": "ab9c0c255d994834f23e61ca3c06ff8a", "rental_uris": {"ios": "https://dc.lft.to/lastmile_qr_scan", "android": "https://dc.lft.to/lastmile_qr_scan"}}, {"is_disabled": 0, "fusion_lat": 0.0, "lat": 38.90061433333333, "type": "electric_scooter", "lon": -77.01287033333334, "is_reserved": 0, "fusion_lon": 0.0, "bike_id": "856dd6b9b72234c1dca2f68c27de3a1b", "name": "856dd6b9b72234c1dca2f68c27de3a1b", "rental_uris": {"ios": "https://dc.lft.to/lastmile_qr_scan", "android": "https://dc.lft.to/lastmile_qr_scan"}}, {"is_disabled": 0, "fusion_lat": 0.0, "lat": 38.9337665, "type": "electric_scooter", "lon": -77.03264516666667, "is_reserved": 0, "fusion_lon": 0.0, "bike_id": "5a590d6a28ab2d0e0fa216c4626fe5c9", "name": "5a590d6a28ab2d0e0fa216c4626fe5c9", "rental_uris": {"ios": "https://dc.lft.to/lastmile_qr_scan", "android": "https://dc.lft.to/lastmile_qr_scan"}}, {"is_disabled": 0, "fusion_lat": 0.0, "lat": 38.88601033333333, "type": "electric_scooter", "lon": -77.04504133333333, "is_reserved": 0, "fusion_lon": 0.0, "bike_id": "a77294f90eb8490a25b361362d3b377b", "name": "a77294f90eb8490a25b361362d3b377b", "rental_uris": {"ios": "https://dc.lft.to/lastmile_qr_scan", "android": "https://dc.lft.to/lastmile_qr_scan"}}, {"is_disabled": 0, "fusion_lat": 0.0, "lat": 38.901180833333335, "type": "electric_scooter", "lon": -77.022069, "is_reserved": 0, "fusion_lon": 0.0, "bike_id": "7bddc9384d220b40f8571a48f93067c4", "name": "7bddc9384d220b40f8571a48f93067c4", "rental_uris": {"ios": "https://dc.lft.to/lastmile_qr_scan", "android": "https://dc.lft.to/lastmile_qr_scan"}}, {"is_disabled": 0, "fusion_lat": 0.0, "lat": 38.93604883333333, "type": "electric_scooter", "lon": -77.03788033333333, "is_reserved": 0, "fusion_lon": 0.0, "bike_id": "2a4788dd9a2c12a626f91d920c798fc3", "name": "2a4788dd9a2c12a626f91d920c798fc3", "rental_uris": {"ios": "https://dc.lft.to/lastmile_qr_scan", "android": "https://dc.lft.to/lastmile_qr_scan"}}, {"is_disabled": 0, "fusion_lat": 0.0, "lat": 38.95635033333333, "type": "electric_scooter", "lon": -77.033002, "is_reserved": 0, "fusion_lon": 0.0, "bike_id": "cf033931275def778f8c2b220e057fab", "name": "cf033931275def778f8c2b220e057fab", "rental_uris": {"ios": "https://dc.lft.to/lastmile_qr_scan", "android": "https://dc.lft.to/lastmile_qr_scan"}}, {"is_disabled": 0, "fusion_lat": 0.0, "lat": 38.9268085, "type": "electric_scooter", "lon": -77.03048716666666, "is_reserved": 0, "fusion_lon": 0.0, "bike_id": "eeecc91eda8e6a47613d2df99806faee", "name": "eeecc91eda8e6a47613d2df99806faee", "rental_uris": {"ios": "https://dc.lft.to/lastmile_qr_scan", "android": "https://dc.lft.to/lastmile_qr_scan"}}, {"is_disabled": 0, "fusion_lat": 0.0, "lat": 38.924306333333334, "type": "electric_scooter", "lon": -77.05624633333333, "is_reserved": 0, "fusion_lon": 0.0, "bike_id": "279f1153bb6fe983570b886a9908e4e8", "name": "279f1153bb6fe983570b886a9908e4e8", "rental_uris": {"ios": "https://dc.lft.to/lastmile_qr_scan", "android": "https://dc.lft.to/lastmile_qr_scan"}}, {"is_disabled": 0, "fusion_lat": 0.0, "lat": 38.927159, "type": "electric_scooter", "lon": -77.0411095, "is_reserved": 0, "fusion_lon": 0.0, "bike_id": "fc3910426df1c6f21ceae3bcf7c35f8e", "name": "fc3910426df1c6f21ceae3bcf7c35f8e", "rental_uris": {"ios": "https://dc.lft.to/lastmile_qr_scan", "android": "https://dc.lft.to/lastmile_qr_scan"}}, {"is_disabled": 0, "fusion_lat": 0.0, "lat": 38.845881, "type": "electric_scooter", "lon": -76.98159333333334, "is_reserved": 0, "fusion_lon": 0.0, "bike_id": "a6a77c54fb2b8b598dda3c54aaa13ee7", "name": "a6a77c54fb2b8b598dda3c54aaa13ee7", "rental_uris": {"ios": "https://dc.lft.to/lastmile_qr_scan", "android": "https://dc.lft.to/lastmile_qr_scan"}}, {"is_disabled": 0, "fusion_lat": 0.0, "lat": 38.92179866666667, "type": "electric_scooter", "lon": -77.04708733333334, "is_reserved": 0, "fusion_lon": 0.0, "bike_id": "3b530b19e7b990e1152080302ae88728", "name": "3b530b19e7b990e1152080302ae88728", "rental_uris": {"ios": "https://dc.lft.to/lastmile_qr_scan", "android": "https://dc.lft.to/lastmile_qr_scan"}}, {"is_disabled": 0, "fusion_lat": 0.0, "lat": 38.90341883333333, "type": "electric_scooter", "lon": -77.03662716666666, "is_reserved": 0, "fusion_lon": 0.0, "bike_id": "8fc900aab364dc636e8571d0402c6070", "name": "8fc900aab364dc636e8571d0402c6070", "rental_uris": {"ios": "https://dc.lft.to/lastmile_qr_scan", "android": "https://dc.lft.to/lastmile_qr_scan"}}, {"is_disabled": 0, "fusion_lat": 0.0, "lat": 38.90263516666667, "type": "electric_scooter", "lon": -77.03850116666666, "is_reserved": 0, "fusion_lon": 0.0, "bike_id": "cf3ff251808ca3840336048a666d6e22", "name": "cf3ff251808ca3840336048a666d6e22", "rental_uris": {"ios": "https://dc.lft.to/lastmile_qr_scan", "android": "https://dc.lft.to/lastmile_qr_scan"}}, {"is_disabled": 0, "fusion_lat": 0.0, "lat": 38.90986566666667, "type": "electric_scooter", "lon": -77.0385465, "is_reserved": 0, "fusion_lon": 0.0, "bike_id": "faf84b8794375a78a40666dac0d2b1c5", "name": "faf84b8794375a78a40666dac0d2b1c5", "rental_uris": {"ios": "https://dc.lft.to/lastmile_qr_scan", "android": "https://dc.lft.to/lastmile_qr_scan"}}, {"is_disabled": 0, "fusion_lat": 0.0, "lat": 38.8591805, "type": "electric_scooter", "lon": -76.989733, "is_reserved": 0, "fusion_lon": 0.0, "bike_id": "f871e2bd3c541ff0482fc41417b57428", "name": "f871e2bd3c541ff0482fc41417b57428", "rental_uris": {"ios": "https://dc.lft.to/lastmile_qr_scan", "android": "https://dc.lft.to/lastmile_qr_scan"}}, {"is_disabled": 0, "fusion_lat": 0.0, "lat": 38.866513166666664, "type": "electric_scooter", "lon": -76.9887865, "is_reserved": 0, "fusion_lon": 0.0, "bike_id": "5f7b08fedf6966f726b474ebc1a1ec3d", "name": "5f7b08fedf6966f726b474ebc1a1ec3d", "rental_uris": {"ios": "https://dc.lft.to/lastmile_qr_scan", "android": "https://dc.lft.to/lastmile_qr_scan"}}, {"is_disabled": 0, "fusion_lat": 0.0, "lat": 38.939721, "type": "electric_scooter", "lon": -77.0358805, "is_reserved": 0, "fusion_lon": 0.0, "bike_id": "c9061bcaa88a4713b75d89163e86daab", "name": "c9061bcaa88a4713b75d89163e86daab", "rental_uris": {"ios": "https://dc.lft.to/lastmile_qr_scan", "android": "https://dc.lft.to/lastmile_qr_scan"}}, {"is_disabled": 0, "fusion_lat": 0.0, "lat": 38.904699, "type": "electric_scooter", "lon": -77.04860033333334, "is_reserved": 0, "fusion_lon": 0.0, "bike_id": "666c634b2b3ffc66efab44d4404cb767", "name": "666c634b2b3ffc66efab44d4404cb767", "rental_uris": {"ios": "https://dc.lft.to/lastmile_qr_scan", "android": "https://dc.lft.to/lastmile_qr_scan"}}, {"is_disabled": 0, "fusion_lat": 0.0, "lat": 38.993915666666666, "type": "electric_bike", "lon": -77.03202983333334, "is_reserved": 0, "fusion_lon": 0.0, "bike_id": "e99078a7a24b12f638f92b9a208148ad", "name": "e99078a7a24b12f638f92b9a208148ad", "rental_uris": {"ios": "https://dc.lft.to/lastmile_qr_scan", "android": "https://dc.lft.to/lastmile_qr_scan"}}, {"is_disabled": 0, "fusion_lat": 0.0, "lat": 38.9345855, "type": "electric_scooter", "lon": -77.03044716666666, "is_reserved": 0, "fusion_lon": 0.0, "bike_id": "0092bcc3d467455c2ba5873dea997724", "name": "0092bcc3d467455c2ba5873dea997724", "rental_uris": {"ios": "https://dc.lft.to/lastmile_qr_scan", "android": "https://dc.lft.to/lastmile_qr_scan"}}, {"is_disabled": 0, "fusion_lat": 0.0, "lat": 38.928391166666664, "type": "electric_scooter", "lon": -77.01370283333334, "is_reserved": 0, "fusion_lon": 0.0, "bike_id": "5210c312b573534a41b8c3ed88ff84e3", "name": "5210c312b573534a41b8c3ed88ff84e3", "rental_uris": {"ios": "https://dc.lft.to/lastmile_qr_scan", "android": "https://dc.lft.to/lastmile_qr_scan"}}, {"is_disabled": 0, "fusion_lat": 0.0, "lat": 38.8948045, "type": "electric_scooter", "lon": -77.050137, "is_reserved": 0, "fusion_lon": 0.0, "bike_id": "e8ab7f7cdb718a101549d5ff6e89a57d", "name": "e8ab7f7cdb718a101549d5ff6e89a57d", "rental_uris": {"ios": "https://dc.lft.to/lastmile_qr_scan", "android": "https://dc.lft.to/lastmile_qr_scan"}}, {"is_disabled": 0, "fusion_lat": 0.0, "lat": 38.90274566666667, "type": "electric_scooter", "lon": -77.0601245, "is_reserved": 0, "fusion_lon": 0.0, "bike_id": "53feb7e2e97854ca1789f8bb8bb37c16", "name": "53feb7e2e97854ca1789f8bb8bb37c16", "rental_uris": {"ios": "https://dc.lft.to/lastmile_qr_scan", "android": "https://dc.lft.to/lastmile_qr_scan"}}, {"is_disabled": 0, "fusion_lat": 0.0, "lat": 38.90478733333333, "type": "electric_scooter", "lon": -77.05323416666667, "is_reserved": 0, "fusion_lon": 0.0, "bike_id": "fcc7d5ebc8c2037ca5734a4c1af97cdc", "name": "fcc7d5ebc8c2037ca5734a4c1af97cdc", "rental_uris": {"ios": "https://dc.lft.to/lastmile_qr_scan", "android": "https://dc.lft.to/lastmile_qr_scan"}}, {"is_disabled": 0, "fusion_lat": 0.0, "lat": 38.941983666666665, "type": "electric_bike", "lon": -77.01815533333334, "is_reserved": 0, "fusion_lon": 0.0, "bike_id": "d0826952dcdfa42e7d356c6e88be9bcc", "name": "d0826952dcdfa42e7d356c6e88be9bcc", "rental_uris": {"ios": "https://dc.lft.to/lastmile_qr_scan", "android": "https://dc.lft.to/lastmile_qr_scan"}}, {"is_disabled": 0, "fusion_lat": 0.0, "lat": 38.874765333333336, "type": "electric_scooter", "lon": -77.0093925, "is_reserved": 0, "fusion_lon": 0.0, "bike_id": "5776738ea89d101207b49d6b16de24e6", "name": "5776738ea89d101207b49d6b16de24e6", "rental_uris": {"ios": "https://dc.lft.to/lastmile_qr_scan", "android": "https://dc.lft.to/lastmile_qr_scan"}}, {"is_disabled": 0, "fusion_lat": 0.0, "lat": 38.92191533333333, "type": "electric_scooter", "lon": -77.02412, "is_reserved": 0, "fusion_lon": 0.0, "bike_id": "7bfdbdffc59e7b1445191f7dab3994cf", "name": "7bfdbdffc59e7b1445191f7dab3994cf", "rental_uris": {"ios": "https://dc.lft.to/lastmile_qr_scan", "android": "https://dc.lft.to/lastmile_qr_scan"}}, {"is_disabled": 0, "fusion_lat": 0.0, "lat": 38.905077666666664, "type": "electric_scooter", "lon": -77.04083683333333, "is_reserved": 0, "fusion_lon": 0.0, "bike_id": "7d9fc29a412d8a0c5c00ee473ec3967f", "name": "7d9fc29a412d8a0c5c00ee473ec3967f", "rental_uris": {"ios": "https://dc.lft.to/lastmile_qr_scan", "android": "https://dc.lft.to/lastmile_qr_scan"}}, {"is_disabled": 0, "fusion_lat": 0.0, "lat": 38.90348483333333, "type": "electric_scooter", "lon": -77.06221416666666, "is_reserved": 0, "fusion_lon": 0.0, "bike_id": "44c3f9abb0290121fdbb3b546f48b929", "name": "44c3f9abb0290121fdbb3b546f48b929", "rental_uris": {"ios": "https://dc.lft.to/lastmile_qr_scan", "android": "https://dc.lft.to/lastmile_qr_scan"}}, {"is_disabled": 0, "fusion_lat": 0.0, "lat": 38.936813666666666, "type": "electric_scooter", "lon": -77.03624733333334, "is_reserved": 0, "fusion_lon": 0.0, "bike_id": "dc635ef5f2d88debb201dc27f11e025d", "name": "dc635ef5f2d88debb201dc27f11e025d", "rental_uris": {"ios": "https://dc.lft.to/lastmile_qr_scan", "android": "https://dc.lft.to/lastmile_qr_scan"}}, {"is_disabled": 0, "fusion_lat": 0.0, "lat": 38.934010666666666, "type": "electric_scooter", "lon": -77.03886766666666, "is_reserved": 0, "fusion_lon": 0.0, "bike_id": "3480f472f2630c29a7fd24919540ec4c", "name": "3480f472f2630c29a7fd24919540ec4c", "rental_uris": {"ios": "https://dc.lft.to/lastmile_qr_scan", "android": "https://dc.lft.to/lastmile_qr_scan"}}, {"is_disabled": 0, "fusion_lat": 0.0, "lat": 38.89822433333333, "type": "electric_scooter", "lon": -77.00928733333333, "is_reserved": 0, "fusion_lon": 0.0, "bike_id": "6e2677863e48e1a1ed43c3bfebf9e24a", "name": "6e2677863e48e1a1ed43c3bfebf9e24a", "rental_uris": {"ios": "https://dc.lft.to/lastmile_qr_scan", "android": "https://dc.lft.to/lastmile_qr_scan"}}, {"is_disabled": 0, "fusion_lat": 0.0, "lat": 38.85175916666667, "type": "electric_scooter", "lon": -76.99578, "is_reserved": 0, "fusion_lon": 0.0, "bike_id": "0997482d0b4cf953043927b5e437a8ae", "name": "0997482d0b4cf953043927b5e437a8ae", "rental_uris": {"ios": "https://dc.lft.to/lastmile_qr_scan", "android": "https://dc.lft.to/lastmile_qr_scan"}}, {"is_disabled": 0, "fusion_lat": 0.0, "lat": 38.90035983333333, "type": "electric_scooter", "lon": -77.0120815, "is_reserved": 0, "fusion_lon": 0.0, "bike_id": "1a5e86f6296f0c7435a8017e88e3b18c", "name": "1a5e86f6296f0c7435a8017e88e3b18c", "rental_uris": {"ios": "https://dc.lft.to/lastmile_qr_scan", "android": "https://dc.lft.to/lastmile_qr_scan"}}, {"is_disabled": 0, "fusion_lat": 0.0, "lat": 38.91469766666667, "type": "electric_scooter", "lon": -77.03180816666666, "is_reserved": 0, "fusion_lon": 0.0, "bike_id": "6eaf4c0ad25a48a54f67065431a9bf66", "name": "6eaf4c0ad25a48a54f67065431a9bf66", "rental_uris": {"ios": "https://dc.lft.to/lastmile_qr_scan", "android": "https://dc.lft.to/lastmile_qr_scan"}}, {"is_disabled": 0, "fusion_lat": 0.0, "lat": 38.916829666666665, "type": "electric_scooter", "lon": -77.022004, "is_reserved": 0, "fusion_lon": 0.0, "bike_id": "96862e1d12e52c71e2d49969947f4b9a", "name": "96862e1d12e52c71e2d49969947f4b9a", "rental_uris": {"ios": "https://dc.lft.to/lastmile_qr_scan", "android": "https://dc.lft.to/lastmile_qr_scan"}}, {"is_disabled": 0, "fusion_lat": 0.0, "lat": 38.92907316666667, "type": "electric_scooter", "lon": -77.06411816666666, "is_reserved": 0, "fusion_lon": 0.0, "bike_id": "63f6488465a0bbd7ec1c3e8cffebf89d", "name": "63f6488465a0bbd7ec1c3e8cffebf89d", "rental_uris": {"ios": "https://dc.lft.to/lastmile_qr_scan", "android": "https://dc.lft.to/lastmile_qr_scan"}}, {"is_disabled": 0, "fusion_lat": 0.0, "lat": 38.89846466666667, "type": "electric_scooter", "lon": -77.0395715, "is_reserved": 0, "fusion_lon": 0.0, "bike_id": "e8759cead36c8a71b95c52d775623ecb", "name": "e8759cead36c8a71b95c52d775623ecb", "rental_uris": {"ios": "https://dc.lft.to/lastmile_qr_scan", "android": "https://dc.lft.to/lastmile_qr_scan"}}, {"is_disabled": 0, "fusion_lat": 0.0, "lat": 38.91758166666666, "type": "electric_scooter", "lon": -77.03854383333334, "is_reserved": 0, "fusion_lon": 0.0, "bike_id": "f4e7f31fb7fd736ff6728915f8a5cda7", "name": "f4e7f31fb7fd736ff6728915f8a5cda7", "rental_uris": {"ios": "https://dc.lft.to/lastmile_qr_scan", "android": "https://dc.lft.to/lastmile_qr_scan"}}, {"is_disabled": 0, "fusion_lat": 0.0, "lat": 38.905254666666664, "type": "electric_scooter", "lon": -77.06000783333333, "is_reserved": 0, "fusion_lon": 0.0, "bike_id": "6eb15ad27a22608f64d914f9179433f2", "name": "6eb15ad27a22608f64d914f9179433f2", "rental_uris": {"ios": "https://dc.lft.to/lastmile_qr_scan", "android": "https://dc.lft.to/lastmile_qr_scan"}}, {"is_disabled": 0, "fusion_lat": 0.0, "lat": 38.885, "type": "electric_scooter", "lon": -77.00560666666667, "is_reserved": 0, "fusion_lon": 0.0, "bike_id": "e64136a3debac43bc6f060be7b86a6fb", "name": "e64136a3debac43bc6f060be7b86a6fb", "rental_uris": {"ios": "https://dc.lft.to/lastmile_qr_scan", "android": "https://dc.lft.to/lastmile_qr_scan"}}, {"is_disabled": 0, "fusion_lat": 0.0, "lat": 38.8663165, "type": "electric_scooter", "lon": -76.9871335, "is_reserved": 0, "fusion_lon": 0.0, "bike_id": "32e1ac30d5e6b2487112acbdcaa0dad0", "name": "32e1ac30d5e6b2487112acbdcaa0dad0", "rental_uris": {"ios": "https://dc.lft.to/lastmile_qr_scan", "android": "https://dc.lft.to/lastmile_qr_scan"}}, {"is_disabled": 0, "fusion_lat": 0.0, "lat": 38.905743333333334, "type": "electric_scooter", "lon": -77.00581133333333, "is_reserved": 0, "fusion_lon": 0.0, "bike_id": "daab898a875ef364cac7a693e975c525", "name": "daab898a875ef364cac7a693e975c525", "rental_uris": {"ios": "https://dc.lft.to/lastmile_qr_scan", "android": "https://dc.lft.to/lastmile_qr_scan"}}, {"is_disabled": 0, "fusion_lat": 0.0, "lat": 38.92109633333333, "type": "electric_scooter", "lon": -77.03183466666667, "is_reserved": 0, "fusion_lon": 0.0, "bike_id": "6dde394442fb50a007d2d4910f1d5f35", "name": "6dde394442fb50a007d2d4910f1d5f35", "rental_uris": {"ios": "https://dc.lft.to/lastmile_qr_scan", "android": "https://dc.lft.to/lastmile_qr_scan"}}, {"is_disabled": 0, "fusion_lat": 0.0, "lat": 38.970740166666666, "type": "electric_bike", "lon": -76.93603216666666, "is_reserved": 0, "fusion_lon": 0.0, "bike_id": "4a1b9ed6bbe5848131b44c73930f071e", "name": "4a1b9ed6bbe5848131b44c73930f071e", "rental_uris": {"ios": "https://dc.lft.to/lastmile_qr_scan", "android": "https://dc.lft.to/lastmile_qr_scan"}}, {"is_disabled": 0, "fusion_lat": 0.0, "lat": 38.89772983333334, "type": "electric_bike", "lon": -76.90433133333333, "is_reserved": 0, "fusion_lon": 0.0, "bike_id": "b775f3183be04e1d45edab857e165205", "name": "b775f3183be04e1d45edab857e165205", "rental_uris": {"ios": "https://dc.lft.to/lastmile_qr_scan", "android": "https://dc.lft.to/lastmile_qr_scan"}}, {"is_disabled": 0, "fusion_lat": 0.0, "lat": 38.896714, "type": "electric_scooter", "lon": -77.008899, "is_reserved": 0, "fusion_lon": 0.0, "bike_id": "da44862f999fa9930b3b4b6615954176", "name": "da44862f999fa9930b3b4b6615954176", "rental_uris": {"ios": "https://dc.lft.to/lastmile_qr_scan", "android": "https://dc.lft.to/lastmile_qr_scan"}}, {"is_disabled": 0, "fusion_lat": 0.0, "lat": 38.86729883333334, "type": "electric_scooter", "lon": -76.9880275, "is_reserved": 0, "fusion_lon": 0.0, "bike_id": "6c358aee3cadd5c70db820ed8c54c5a6", "name": "6c358aee3cadd5c70db820ed8c54c5a6", "rental_uris": {"ios": "https://dc.lft.to/lastmile_qr_scan", "android": "https://dc.lft.to/lastmile_qr_scan"}}, {"is_disabled": 0, "fusion_lat": 0.0, "lat": 38.898483, "type": "electric_scooter", "lon": -76.990298, "is_reserved": 0, "fusion_lon": 0.0, "bike_id": "94161ecde9503aa9fdd17b2e3723ccbc", "name": "94161ecde9503aa9fdd17b2e3723ccbc", "rental_uris": {"ios": "https://dc.lft.to/lastmile_qr_scan", "android": "https://dc.lft.to/lastmile_qr_scan"}}, {"is_disabled": 0, "fusion_lat": 0.0, "lat": 38.9055135, "type": "electric_scooter", "lon": -77.03469283333334, "is_reserved": 0, "fusion_lon": 0.0, "bike_id": "4671696a43531785ca1aee57cef856b5", "name": "4671696a43531785ca1aee57cef856b5", "rental_uris": {"ios": "https://dc.lft.to/lastmile_qr_scan", "android": "https://dc.lft.to/lastmile_qr_scan"}}, {"is_disabled": 0, "fusion_lat": 0.0, "lat": 38.91373983333333, "type": "electric_scooter", "lon": -77.01991866666667, "is_reserved": 0, "fusion_lon": 0.0, "bike_id": "90d7978412ac6baa293bba372c57de3d", "name": "90d7978412ac6baa293bba372c57de3d", "rental_uris": {"ios": "https://dc.lft.to/lastmile_qr_scan", "android": "https://dc.lft.to/lastmile_qr_scan"}}, {"is_disabled": 0, "fusion_lat": 0.0, "lat": 38.886578666666665, "type": "electric_scooter", "lon": -77.03387083333334, "is_reserved": 0, "fusion_lon": 0.0, "bike_id": "777b18012a0498787c3ff962f1bf789b", "name": "777b18012a0498787c3ff962f1bf789b", "rental_uris": {"ios": "https://dc.lft.to/lastmile_qr_scan", "android": "https://dc.lft.to/lastmile_qr_scan"}}, {"is_disabled": 0, "fusion_lat": 0.0, "lat": 38.9003505, "type": "electric_scooter", "lon": -76.98840266666667, "is_reserved": 0, "fusion_lon": 0.0, "bike_id": "943763b79e9734b1e9a4b8b57231423d", "name": "943763b79e9734b1e9a4b8b57231423d", "rental_uris": {"ios": "https://dc.lft.to/lastmile_qr_scan", "android": "https://dc.lft.to/lastmile_qr_scan"}}, {"is_disabled": 0, "fusion_lat": 0.0, "lat": 38.904345166666666, "type": "electric_scooter", "lon": -77.04342733333333, "is_reserved": 0, "fusion_lon": 0.0, "bike_id": "71d175da63083959fd8f10a028296175", "name": "71d175da63083959fd8f10a028296175", "rental_uris": {"ios": "https://dc.lft.to/lastmile_qr_scan", "android": "https://dc.lft.to/lastmile_qr_scan"}}, {"is_disabled": 0, "fusion_lat": 0.0, "lat": 38.90467983333333, "type": "electric_scooter", "lon": -77.0434605, "is_reserved": 0, "fusion_lon": 0.0, "bike_id": "40d843cfb38644ff8637143c421b2303", "name": "40d843cfb38644ff8637143c421b2303", "rental_uris": {"ios": "https://dc.lft.to/lastmile_qr_scan", "android": "https://dc.lft.to/lastmile_qr_scan"}}, {"is_disabled": 0, "fusion_lat": 0.0, "lat": 38.89706483333333, "type": "electric_scooter", "lon": -76.91766633333333, "is_reserved": 0, "fusion_lon": 0.0, "bike_id": "2c45a116d48fb4157bdf5d6263bfef70", "name": "2c45a116d48fb4157bdf5d6263bfef70", "rental_uris": {"ios": "https://dc.lft.to/lastmile_qr_scan", "android": "https://dc.lft.to/lastmile_qr_scan"}}, {"is_disabled": 0, "fusion_lat": 0.0, "lat": 38.88071883333333, "type": "electric_bike", "lon": -77.08629833333333, "is_reserved": 0, "fusion_lon": 0.0, "bike_id": "a0dbea81422caa8d45c7ec50649fccba", "name": "a0dbea81422caa8d45c7ec50649fccba", "rental_uris": {"ios": "https://dc.lft.to/lastmile_qr_scan", "android": "https://dc.lft.to/lastmile_qr_scan"}}, {"is_disabled": 0, "fusion_lat": 0.0, "lat": 38.827260333333335, "type": "electric_bike", "lon": -77.0086315, "is_reserved": 0, "fusion_lon": 0.0, "bike_id": "823218358e7d201a9449d4403ed3c635", "name": "823218358e7d201a9449d4403ed3c635", "rental_uris": {"ios": "https://dc.lft.to/lastmile_qr_scan", "android": "https://dc.lft.to/lastmile_qr_scan"}}, {"is_disabled": 0, "fusion_lat": 0.0, "lat": 38.88476466666667, "type": "electric_scooter", "lon": -77.0335435, "is_reserved": 0, "fusion_lon": 0.0, "bike_id": "c97713e84b70c4ff679d655096812b91", "name": "c97713e84b70c4ff679d655096812b91", "rental_uris": {"ios": "https://dc.lft.to/lastmile_qr_scan", "android": "https://dc.lft.to/lastmile_qr_scan"}}, {"is_disabled": 0, "fusion_lat": 0.0, "lat": 38.9207295, "type": "electric_scooter", "lon": -77.04684, "is_reserved": 0, "fusion_lon": 0.0, "bike_id": "1f44765d1418fd618fd2543bce71606a", "name": "1f44765d1418fd618fd2543bce71606a", "rental_uris": {"ios": "https://dc.lft.to/lastmile_qr_scan", "android": "https://dc.lft.to/lastmile_qr_scan"}}, {"is_disabled": 0, "fusion_lat": 0.0, "lat": 38.88474, "type": "electric_scooter", "lon": -77.0234765, "is_reserved": 0, "fusion_lon": 0.0, "bike_id": "6f75c2a77c9c0d4d14725d76fc90523e", "name": "6f75c2a77c9c0d4d14725d76fc90523e", "rental_uris": {"ios": "https://dc.lft.to/lastmile_qr_scan", "android": "https://dc.lft.to/lastmile_qr_scan"}}, {"is_disabled": 0, "fusion_lat": 0.0, "lat": 38.925195333333335, "type": "electric_scooter", "lon": -77.0512865, "is_reserved": 0, "fusion_lon": 0.0, "bike_id": "4e9562768d41788420fa4f7895681293", "name": "4e9562768d41788420fa4f7895681293", "rental_uris": {"ios": "https://dc.lft.to/lastmile_qr_scan", "android": "https://dc.lft.to/lastmile_qr_scan"}}, {"is_disabled": 0, "fusion_lat": 0.0, "lat": 38.902386, "type": "electric_scooter", "lon": -77.00192183333333, "is_reserved": 0, "fusion_lon": 0.0, "bike_id": "32d23004d553c301be7fdc3d0417fd62", "name": "32d23004d553c301be7fdc3d0417fd62", "rental_uris": {"ios": "https://dc.lft.to/lastmile_qr_scan", "android": "https://dc.lft.to/lastmile_qr_scan"}}, {"is_disabled": 0, "fusion_lat": 0.0, "lat": 38.880085666666666, "type": "electric_scooter", "lon": -76.93113716666667, "is_reserved": 0, "fusion_lon": 0.0, "bike_id": "1a10959f76b3daf2ed124d1d7d027c44", "name": "1a10959f76b3daf2ed124d1d7d027c44", "rental_uris": {"ios": "https://dc.lft.to/lastmile_qr_scan", "android": "https://dc.lft.to/lastmile_qr_scan"}}, {"is_disabled": 0, "fusion_lat": 0.0, "lat": 38.91880733333333, "type": "electric_scooter", "lon": -77.01590416666667, "is_reserved": 0, "fusion_lon": 0.0, "bike_id": "70ce6a1a10e389c52e2f6d571b1d9043", "name": "70ce6a1a10e389c52e2f6d571b1d9043", "rental_uris": {"ios": "https://dc.lft.to/lastmile_qr_scan", "android": "https://dc.lft.to/lastmile_qr_scan"}}, {"is_disabled": 0, "fusion_lat": 0.0, "lat": 38.9012715, "type": "electric_scooter", "lon": -77.04350616666666, "is_reserved": 0, "fusion_lon": 0.0, "bike_id": "caf8e1a9ae62e5c468ddf61069e52179", "name": "caf8e1a9ae62e5c468ddf61069e52179", "rental_uris": {"ios": "https://dc.lft.to/lastmile_qr_scan", "android": "https://dc.lft.to/lastmile_qr_scan"}}, {"is_disabled": 0, "fusion_lat": 0.0, "lat": 38.924889666666665, "type": "electric_scooter", "lon": -77.05250216666667, "is_reserved": 0, "fusion_lon": 0.0, "bike_id": "c3f96523145778d45dbf08bb71391832", "name": "c3f96523145778d45dbf08bb71391832", "rental_uris": {"ios": "https://dc.lft.to/lastmile_qr_scan", "android": "https://dc.lft.to/lastmile_qr_scan"}}, {"is_disabled": 0, "fusion_lat": 0.0, "lat": 38.871760333333334, "type": "electric_scooter", "lon": -77.0062475, "is_reserved": 0, "fusion_lon": 0.0, "bike_id": "dab81a2049651817a0b7073ecc55e8c2", "name": "dab81a2049651817a0b7073ecc55e8c2", "rental_uris": {"ios": "https://dc.lft.to/lastmile_qr_scan", "android": "https://dc.lft.to/lastmile_qr_scan"}}, {"is_disabled": 0, "fusion_lat": 0.0, "lat": 38.89557283333333, "type": "electric_scooter", "lon": -76.933637, "is_reserved": 0, "fusion_lon": 0.0, "bike_id": "ad783e72fa3e1d8a435ef1c7cc099eee", "name": "ad783e72fa3e1d8a435ef1c7cc099eee", "rental_uris": {"ios": "https://dc.lft.to/lastmile_qr_scan", "android": "https://dc.lft.to/lastmile_qr_scan"}}, {"is_disabled": 0, "fusion_lat": 0.0, "lat": 38.922273833333335, "type": "electric_scooter", "lon": -77.04379466666667, "is_reserved": 0, "fusion_lon": 0.0, "bike_id": "276107776961578ac6f80ea46efa18bf", "name": "276107776961578ac6f80ea46efa18bf", "rental_uris": {"ios": "https://dc.lft.to/lastmile_qr_scan", "android": "https://dc.lft.to/lastmile_qr_scan"}}, {"is_disabled": 0, "fusion_lat": 0.0, "lat": 38.88505266666667, "type": "electric_scooter", "lon": -77.005649, "is_reserved": 0, "fusion_lon": 0.0, "bike_id": "277a96f940b19680290a463ba3de495c", "name": "277a96f940b19680290a463ba3de495c", "rental_uris": {"ios": "https://dc.lft.to/lastmile_qr_scan", "android": "https://dc.lft.to/lastmile_qr_scan"}}, {"is_disabled": 0, "fusion_lat": 0.0, "lat": 38.904444166666664, "type": "electric_scooter", "lon": -77.03267433333333, "is_reserved": 0, "fusion_lon": 0.0, "bike_id": "a3a46824988879ff4ad7d1de262824aa", "name": "a3a46824988879ff4ad7d1de262824aa", "rental_uris": {"ios": "https://dc.lft.to/lastmile_qr_scan", "android": "https://dc.lft.to/lastmile_qr_scan"}}, {"is_disabled": 0, "fusion_lat": 0.0, "lat": 38.91176333333333, "type": "electric_scooter", "lon": -77.06831466666667, "is_reserved": 0, "fusion_lon": 0.0, "bike_id": "a2b03c218b3d190e0e73c0c405774303", "name": "a2b03c218b3d190e0e73c0c405774303", "rental_uris": {"ios": "https://dc.lft.to/lastmile_qr_scan", "android": "https://dc.lft.to/lastmile_qr_scan"}}, {"is_disabled": 0, "fusion_lat": 0.0, "lat": 38.87951483333333, "type": "electric_scooter", "lon": -77.00481983333333, "is_reserved": 0, "fusion_lon": 0.0, "bike_id": "df4736df58e1c1a441b47a75e0164ed8", "name": "df4736df58e1c1a441b47a75e0164ed8", "rental_uris": {"ios": "https://dc.lft.to/lastmile_qr_scan", "android": "https://dc.lft.to/lastmile_qr_scan"}}, {"is_disabled": 0, "fusion_lat": 0.0, "lat": 38.90327166666667, "type": "electric_scooter", "lon": -77.04317283333333, "is_reserved": 0, "fusion_lon": 0.0, "bike_id": "ecb0abffc15ee18bd56ac59cd59bc920", "name": "ecb0abffc15ee18bd56ac59cd59bc920", "rental_uris": {"ios": "https://dc.lft.to/lastmile_qr_scan", "android": "https://dc.lft.to/lastmile_qr_scan"}}, {"is_disabled": 0, "fusion_lat": 0.0, "lat": 38.986502, "type": "electric_bike", "lon": -77.0563745, "is_reserved": 0, "fusion_lon": 0.0, "bike_id": "3e61f0895d9364e401884eeeac56a8c6", "name": "3e61f0895d9364e401884eeeac56a8c6", "rental_uris": {"ios": "https://dc.lft.to/lastmile_qr_scan", "android": "https://dc.lft.to/lastmile_qr_scan"}}, {"is_disabled": 0, "fusion_lat": 0.0, "lat": 38.844244833333335, "type": "electric_scooter", "lon": -76.99780866666667, "is_reserved": 0, "fusion_lon": 0.0, "bike_id": "4e67c3b7cd3185795347ce93336d50fa", "name": "4e67c3b7cd3185795347ce93336d50fa", "rental_uris": {"ios": "https://dc.lft.to/lastmile_qr_scan", "android": "https://dc.lft.to/lastmile_qr_scan"}}, {"is_disabled": 0, "fusion_lat": 0.0, "lat": 38.86922666666667, "type": "electric_scooter", "lon": -76.98305533333334, "is_reserved": 0, "fusion_lon": 0.0, "bike_id": "cf1fa986e9b0db1c3785468fe0d22376", "name": "cf1fa986e9b0db1c3785468fe0d22376", "rental_uris": {"ios": "https://dc.lft.to/lastmile_qr_scan", "android": "https://dc.lft.to/lastmile_qr_scan"}}, {"is_disabled": 0, "fusion_lat": 0.0, "lat": 38.900726, "type": "electric_scooter", "lon": -77.03921216666667, "is_reserved": 0, "fusion_lon": 0.0, "bike_id": "5063a661e3e4df6d899c73ad6624dc0f", "name": "5063a661e3e4df6d899c73ad6624dc0f", "rental_uris": {"ios": "https://dc.lft.to/lastmile_qr_scan", "android": "https://dc.lft.to/lastmile_qr_scan"}}, {"is_disabled": 0, "fusion_lat": 0.0, "lat": 38.89915883333333, "type": "electric_scooter", "lon": -76.93377316666667, "is_reserved": 0, "fusion_lon": 0.0, "bike_id": "89a9fe08c56e60e96da3f36573aef5ae", "name": "89a9fe08c56e60e96da3f36573aef5ae", "rental_uris": {"ios": "https://dc.lft.to/lastmile_qr_scan", "android": "https://dc.lft.to/lastmile_qr_scan"}}, {"is_disabled": 0, "fusion_lat": 0.0, "lat": 38.894966833333335, "type": "electric_scooter", "lon": -77.02284516666667, "is_reserved": 0, "fusion_lon": 0.0, "bike_id": "6898d6cba39298eeb7d3b36e074cac1c", "name": "6898d6cba39298eeb7d3b36e074cac1c", "rental_uris": {"ios": "https://dc.lft.to/lastmile_qr_scan", "android": "https://dc.lft.to/lastmile_qr_scan"}}, {"is_disabled": 0, "fusion_lat": 0.0, "lat": 38.917594333333334, "type": "electric_scooter", "lon": -77.03660633333334, "is_reserved": 0, "fusion_lon": 0.0, "bike_id": "6d4cc8d442d5f654b0128867b9115ec9", "name": "6d4cc8d442d5f654b0128867b9115ec9", "rental_uris": {"ios": "https://dc.lft.to/lastmile_qr_scan", "android": "https://dc.lft.to/lastmile_qr_scan"}}, {"is_disabled": 0, "fusion_lat": 0.0, "lat": 38.8708515, "type": "electric_bike", "lon": -77.01211916666666, "is_reserved": 0, "fusion_lon": 0.0, "bike_id": "0b31e68c87eaeeb4bca693a33a7df493", "name": "0b31e68c87eaeeb4bca693a33a7df493", "rental_uris": {"ios": "https://dc.lft.to/lastmile_qr_scan", "android": "https://dc.lft.to/lastmile_qr_scan"}}, {"is_disabled": 0, "fusion_lat": 0.0, "lat": 38.92240183333333, "type": "electric_scooter", "lon": -77.03082, "is_reserved": 0, "fusion_lon": 0.0, "bike_id": "ef5188af3b0b89173b5d9c17c08a9f07", "name": "ef5188af3b0b89173b5d9c17c08a9f07", "rental_uris": {"ios": "https://dc.lft.to/lastmile_qr_scan", "android": "https://dc.lft.to/lastmile_qr_scan"}}, {"is_disabled": 0, "fusion_lat": 0.0, "lat": 38.88449083333333, "type": "electric_scooter", "lon": -76.9509135, "is_reserved": 0, "fusion_lon": 0.0, "bike_id": "c1d783aeca647dded266ca30467e1931", "name": "c1d783aeca647dded266ca30467e1931", "rental_uris": {"ios": "https://dc.lft.to/lastmile_qr_scan", "android": "https://dc.lft.to/lastmile_qr_scan"}}, {"is_disabled": 0, "fusion_lat": 0.0, "lat": 38.8968675, "type": "electric_scooter", "lon": -76.9962305, "is_reserved": 0, "fusion_lon": 0.0, "bike_id": "eb2d8a46b17a2586355a339ceba26bab", "name": "eb2d8a46b17a2586355a339ceba26bab", "rental_uris": {"ios": "https://dc.lft.to/lastmile_qr_scan", "android": "https://dc.lft.to/lastmile_qr_scan"}}, {"is_disabled": 0, "fusion_lat": 0.0, "lat": 38.92855433333333, "type": "electric_scooter", "lon": -77.01389116666667, "is_reserved": 0, "fusion_lon": 0.0, "bike_id": "55864ed32bf4329d577e2d4e922a51dd", "name": "55864ed32bf4329d577e2d4e922a51dd", "rental_uris": {"ios": "https://dc.lft.to/lastmile_qr_scan", "android": "https://dc.lft.to/lastmile_qr_scan"}}, {"is_disabled": 0, "fusion_lat": 0.0, "lat": 38.89220183333333, "type": "electric_scooter", "lon": -77.04193916666667, "is_reserved": 0, "fusion_lon": 0.0, "bike_id": "30c965eaa45163b554bd225c745a4df2", "name": "30c965eaa45163b554bd225c745a4df2", "rental_uris": {"ios": "https://dc.lft.to/lastmile_qr_scan", "android": "https://dc.lft.to/lastmile_qr_scan"}}, {"is_disabled": 0, "fusion_lat": 0.0, "lat": 38.91564366666667, "type": "electric_scooter", "lon": -77.0303895, "is_reserved": 0, "fusion_lon": 0.0, "bike_id": "e4821b1ec24c936530ceaf3a6d47a8ee", "name": "e4821b1ec24c936530ceaf3a6d47a8ee", "rental_uris": {"ios": "https://dc.lft.to/lastmile_qr_scan", "android": "https://dc.lft.to/lastmile_qr_scan"}}, {"is_disabled": 0, "fusion_lat": 0.0, "lat": 38.864383333333336, "type": "electric_scooter", "lon": -76.97379166666667, "is_reserved": 0, "fusion_lon": 0.0, "bike_id": "bc5113e7e360e902248eaa5d8ffebdb8", "name": "bc5113e7e360e902248eaa5d8ffebdb8", "rental_uris": {"ios": "https://dc.lft.to/lastmile_qr_scan", "android": "https://dc.lft.to/lastmile_qr_scan"}}, {"is_disabled": 0, "fusion_lat": 0.0, "lat": 38.89454283333333, "type": "electric_bike", "lon": -76.97036716666666, "is_reserved": 0, "fusion_lon": 0.0, "bike_id": "83d3344677e4fafaf29ee9424fc8939d", "name": "83d3344677e4fafaf29ee9424fc8939d", "rental_uris": {"ios": "https://dc.lft.to/lastmile_qr_scan", "android": "https://dc.lft.to/lastmile_qr_scan"}}, {"is_disabled": 0, "fusion_lat": 0.0, "lat": 38.876690833333335, "type": "electric_scooter", "lon": -77.00448783333333, "is_reserved": 0, "fusion_lon": 0.0, "bike_id": "fc900a2817fad2931a42a653b2777a5b", "name": "fc900a2817fad2931a42a653b2777a5b", "rental_uris": {"ios": "https://dc.lft.to/lastmile_qr_scan", "android": "https://dc.lft.to/lastmile_qr_scan"}}, {"is_disabled": 0, "fusion_lat": 0.0, "lat": 38.93248033333333, "type": "electric_scooter", "lon": -77.03280266666667, "is_reserved": 0, "fusion_lon": 0.0, "bike_id": "df75fca9462b069bc30cf6a3cc24f2f0", "name": "df75fca9462b069bc30cf6a3cc24f2f0", "rental_uris": {"ios": "https://dc.lft.to/lastmile_qr_scan", "android": "https://dc.lft.to/lastmile_qr_scan"}}, {"is_disabled": 0, "fusion_lat": 0.0, "lat": 38.908021166666664, "type": "electric_scooter", "lon": -76.99838383333334, "is_reserved": 0, "fusion_lon": 0.0, "bike_id": "8d83e573ff04495cfd9fb5a9f2345252", "name": "8d83e573ff04495cfd9fb5a9f2345252", "rental_uris": {"ios": "https://dc.lft.to/lastmile_qr_scan", "android": "https://dc.lft.to/lastmile_qr_scan"}}, {"is_disabled": 0, "fusion_lat": 0.0, "lat": 38.905787333333336, "type": "electric_scooter", "lon": -77.02979383333333, "is_reserved": 0, "fusion_lon": 0.0, "bike_id": "6436ec6fa42492b19bd7a6145b7ac924", "name": "6436ec6fa42492b19bd7a6145b7ac924", "rental_uris": {"ios": "https://dc.lft.to/lastmile_qr_scan", "android": "https://dc.lft.to/lastmile_qr_scan"}}, {"is_disabled": 0, "fusion_lat": 0.0, "lat": 38.89961133333333, "type": "electric_scooter", "lon": -77.05167633333333, "is_reserved": 0, "fusion_lon": 0.0, "bike_id": "a549e06dcee0108981e05378c262a5f0", "name": "a549e06dcee0108981e05378c262a5f0", "rental_uris": {"ios": "https://dc.lft.to/lastmile_qr_scan", "android": "https://dc.lft.to/lastmile_qr_scan"}}, {"is_disabled": 0, "fusion_lat": 0.0, "lat": 38.822625, "type": "electric_bike", "lon": -77.00546266666667, "is_reserved": 0, "fusion_lon": 0.0, "bike_id": "88458af2f540a124bfdd8cc68ce2513c", "name": "88458af2f540a124bfdd8cc68ce2513c", "rental_uris": {"ios": "https://dc.lft.to/lastmile_qr_scan", "android": "https://dc.lft.to/lastmile_qr_scan"}}, {"is_disabled": 0, "fusion_lat": 0.0, "lat": 38.892224666666664, "type": "electric_scooter", "lon": -77.02647116666667, "is_reserved": 0, "fusion_lon": 0.0, "bike_id": "7dce2d23ccb7310f77944da169394e62", "name": "7dce2d23ccb7310f77944da169394e62", "rental_uris": {"ios": "https://dc.lft.to/lastmile_qr_scan", "android": "https://dc.lft.to/lastmile_qr_scan"}}, {"is_disabled": 0, "fusion_lat": 0.0, "lat": 38.9261775, "type": "electric_scooter", "lon": -77.037821, "is_reserved": 0, "fusion_lon": 0.0, "bike_id": "0f112cbb257f0779c888cce4ab05a63d", "name": "0f112cbb257f0779c888cce4ab05a63d", "rental_uris": {"ios": "https://dc.lft.to/lastmile_qr_scan", "android": "https://dc.lft.to/lastmile_qr_scan"}}, {"is_disabled": 0, "fusion_lat": 0.0, "lat": 38.8925905, "type": "electric_scooter", "lon": -76.94149533333334, "is_reserved": 0, "fusion_lon": 0.0, "bike_id": "f65c92e6c89838de126fd05e5c0d3c1d", "name": "f65c92e6c89838de126fd05e5c0d3c1d", "rental_uris": {"ios": "https://dc.lft.to/lastmile_qr_scan", "android": "https://dc.lft.to/lastmile_qr_scan"}}, {"is_disabled": 0, "fusion_lat": 0.0, "lat": 38.897404333333334, "type": "electric_scooter", "lon": -77.04681266666667, "is_reserved": 0, "fusion_lon": 0.0, "bike_id": "68b47f956bfbec6d5fcfe4a22ec503cf", "name": "68b47f956bfbec6d5fcfe4a22ec503cf", "rental_uris": {"ios": "https://dc.lft.to/lastmile_qr_scan", "android": "https://dc.lft.to/lastmile_qr_scan"}}, {"is_disabled": 0, "fusion_lat": 0.0, "lat": 38.923359166666664, "type": "electric_scooter", "lon": -77.03574666666667, "is_reserved": 0, "fusion_lon": 0.0, "bike_id": "9627d5773b4a332ad71677be210783ca", "name": "9627d5773b4a332ad71677be210783ca", "rental_uris": {"ios": "https://dc.lft.to/lastmile_qr_scan", "android": "https://dc.lft.to/lastmile_qr_scan"}}, {"is_disabled": 0, "fusion_lat": 0.0, "lat": 38.9141555, "type": "electric_scooter", "lon": -77.012851, "is_reserved": 0, "fusion_lon": 0.0, "bike_id": "8047f2561d2caa219bc8ea65e701a8d1", "name": "8047f2561d2caa219bc8ea65e701a8d1", "rental_uris": {"ios": "https://dc.lft.to/lastmile_qr_scan", "android": "https://dc.lft.to/lastmile_qr_scan"}}, {"is_disabled": 0, "fusion_lat": 0.0, "lat": 38.89220316666667, "type": "electric_scooter", "lon": -77.04649166666667, "is_reserved": 0, "fusion_lon": 0.0, "bike_id": "89b6208f2dfd283b1c6cb004f8373957", "name": "89b6208f2dfd283b1c6cb004f8373957", "rental_uris": {"ios": "https://dc.lft.to/lastmile_qr_scan", "android": "https://dc.lft.to/lastmile_qr_scan"}}, {"is_disabled": 0, "fusion_lat": 0.0, "lat": 38.922542, "type": "electric_scooter", "lon": -77.0340205, "is_reserved": 0, "fusion_lon": 0.0, "bike_id": "61d365d187725d9723d793a1daf6b149", "name": "61d365d187725d9723d793a1daf6b149", "rental_uris": {"ios": "https://dc.lft.to/lastmile_qr_scan", "android": "https://dc.lft.to/lastmile_qr_scan"}}, {"is_disabled": 0, "fusion_lat": 0.0, "lat": 38.896053333333334, "type": "electric_scooter", "lon": -77.0449975, "is_reserved": 0, "fusion_lon": 0.0, "bike_id": "4c1d8be3aae2f985ef88fa5030ccd57f", "name": "4c1d8be3aae2f985ef88fa5030ccd57f", "rental_uris": {"ios": "https://dc.lft.to/lastmile_qr_scan", "android": "https://dc.lft.to/lastmile_qr_scan"}}, {"is_disabled": 0, "fusion_lat": 0.0, "lat": 38.87474016666667, "type": "electric_scooter", "lon": -77.01066183333333, "is_reserved": 0, "fusion_lon": 0.0, "bike_id": "d634728b272e69aaac65008586bf4ec3", "name": "d634728b272e69aaac65008586bf4ec3", "rental_uris": {"ios": "https://dc.lft.to/lastmile_qr_scan", "android": "https://dc.lft.to/lastmile_qr_scan"}}, {"is_disabled": 0, "fusion_lat": 0.0, "lat": 38.8616495, "type": "electric_bike", "lon": -76.950683, "is_reserved": 0, "fusion_lon": 0.0, "bike_id": "cd1e5539f5b0765ae3483d002c515b30", "name": "cd1e5539f5b0765ae3483d002c515b30", "rental_uris": {"ios": "https://dc.lft.to/lastmile_qr_scan", "android": "https://dc.lft.to/lastmile_qr_scan"}}, {"is_disabled": 0, "fusion_lat": 0.0, "lat": 38.956458166666664, "type": "electric_bike", "lon": -77.02254133333334, "is_reserved": 0, "fusion_lon": 0.0, "bike_id": "1ae7bda14074265753ba67fce2b68c76", "name": "1ae7bda14074265753ba67fce2b68c76", "rental_uris": {"ios": "https://dc.lft.to/lastmile_qr_scan", "android": "https://dc.lft.to/lastmile_qr_scan"}}, {"is_disabled": 0, "fusion_lat": 0.0, "lat": 38.92374616666667, "type": "electric_scooter", "lon": -77.03530683333334, "is_reserved": 0, "fusion_lon": 0.0, "bike_id": "f0f70b5217318cd8ab4760014991a55b", "name": "f0f70b5217318cd8ab4760014991a55b", "rental_uris": {"ios": "https://dc.lft.to/lastmile_qr_scan", "android": "https://dc.lft.to/lastmile_qr_scan"}},