{"data": {"bikes": [{"name": "238354dcb572d8c99c8d224149e1cee8", "fusion_lat": 0.0, "fusion_lon": 0.0, "bike_id": "238354dcb572d8c99c8d224149e1cee8", "rental_uris": {"ios": "https://dc.lft.to/lastmile_qr_scan", "android": "https://dc.lft.to/lastmile_qr_scan"}, "type": "electric_scooter", "lat": 38.943178333333336, "is_disabled": 0, "lon": -77.06170266666666, "is_reserved": 0}, {"name": "5a745307d04d7cf44678750c2c3b59a4", "fusion_lat": 0.0, "fusion_lon": 0.0, "bike_id": "5a745307d04d7cf44678750c2c3b59a4", "rental_uris": {"ios": "https://dc.lft.to/lastmile_qr_scan", "android": "https://dc.lft.to/lastmile_qr_scan"}, "type": "electric_scooter", "lat": 38.92386716666667, "is_disabled": 0, "lon": -77.051606, "is_reserved": 0}, {"name": "755e67533494e41c2dd1d8d4a817a1a0", "fusion_lat": 0.0, "fusion_lon": 0.0, "bike_id": "755e67533494e41c2dd1d8d4a817a1a0", "rental_uris": {"ios": "https://dc.lft.to/lastmile_qr_scan", "android": "https://dc.lft.to/lastmile_qr_scan"}, "type": "electric_scooter", "lat": 38.916920166666664, "is_disabled": 0, "lon": -77.02739983333333, "is_reserved": 0}, {"name": "bf661ddebd1928b1efeb68df344200a7", "fusion_lat": 0.0, "fusion_lon": 0.0, "bike_id": "bf661ddebd1928b1efeb68df344200a7", "rental_uris": {"ios": "https://dc.lft.to/lastmile_qr_scan", "android": "https://dc.lft.to/lastmile_qr_scan"}, "type": "electric_bike", "lat": 39.024921, "is_disabled": 0, "lon": -77.12567316666667, "is_reserved": 0}, {"name": "307bd400856d37bf7ada102569d23ecb", "fusion_lat": 0.0, "fusion_lon": 0.0, "bike_id": "307bd400856d37bf7ada102569d23ecb", "rental_uris": {"ios": "https://dc.lft.to/lastmile_qr_scan", "android": "https://dc.lft.to/lastmile_qr_scan"}, "type": "electric_scooter", "lat": 38.91637, "is_disabled": 0, "lon": -77.03185166666667, "is_reserved": 0}, {"name": "730b2051e86f8198c2bb574b6a86ceca", "fusion_lat": 0.0, "fusion_lon": 0.0, "bike_id": "730b2051e86f8198c2bb574b6a86ceca", "rental_uris": {"ios": "https://dc.lft.to/lastmile_qr_scan", "android": "https://dc.lft.to/lastmile_qr_scan"}, "type": "electric_scooter", "lat": 38.8974795, "is_disabled": 0, "lon": -77.00359116666667, "is_reserved": 0}, {"name": "1a85a6d411593f7a91ea4929b3810939", "fusion_lat": 0.0, "fusion_lon": 0.0, "bike_id": "1a85a6d411593f7a91ea4929b3810939", "rental_uris": {"ios": "https://dc.lft.to/lastmile_qr_scan", "android": "https://dc.lft.to/lastmile_qr_scan"}, "type": "electric_scooter", "lat": 38.89607316666667, "is_disabled": 0, "lon": -77.04645516666666, "is_reserved": 0}, {"name": "9fd91fd0d80198bf9272b31168a16970", "fusion_lat": 0.0, "fusion_lon": 0.0, "bike_id": "9fd91fd0d80198bf9272b31168a16970", "rental_uris": {"ios": "https://dc.lft.to/lastmile_qr_scan", "android": "https://dc.lft.to/lastmile_qr_scan"}, "type": "electric_scooter", "lat": 38.890092, "is_disabled": 0, "lon": -76.938369, "is_reserved": 0}, {"name": "db9625cb9425660fbbd510f012e32ce8", "fusion_lat": 0.0, "fusion_lon": 0.0, "bike_id": "db9625cb9425660fbbd510f012e32ce8", "rental_uris": {"ios": "https://dc.lft.to/lastmile_qr_scan", "android": "https://dc.lft.to/lastmile_qr_scan"}, "type": "electric_scooter", "lat": 38.930883333333334, "is_disabled": 0, "lon": -77.0362155, "is_reserved": 0}, {"name": "86966dcd4bd68cacd84e7afffb5e8fc3", "fusion_lat": 0.0, "fusion_lon": 0.0, "bike_id": "86966dcd4bd68cacd84e7afffb5e8fc3", "rental_uris": {"ios": "https://dc.lft.to/lastmile_qr_scan", "android": "https://dc.lft.to/lastmile_qr_scan"}, "type": "electric_scooter", "lat": 38.930554, "is_disabled": 0, "lon": -77.02961516666667, "is_reserved": 0}, {"name": "12726548d620a7691ffeac3a9ce8db77", "fusion_lat": 0.0, "fusion_lon": 0.0, "bike_id": "12726548d620a7691ffeac3a9ce8db77", "rental_uris": {"ios": "https://dc.lft.to/lastmile_qr_scan", "android": "https://dc.lft.to/lastmile_qr_scan"}, "type": "electric_scooter", "lat": 38.91847516666667, "is_disabled": 0, "lon": -77.0320865, "is_reserved": 0}, {"name": "9584e68ac4ae2907585b1cb3ea5e8bf7", "fusion_lat": 0.0, "fusion_lon": 0.0, "bike_id": "9584e68ac4ae2907585b1cb3ea5e8bf7", "rental_uris": {"ios": "https://dc.lft.to/lastmile_qr_scan", "android": "https://dc.lft.to/lastmile_qr_scan"}, "type": "electric_scooter", "lat": 38.93928533333333, "is_disabled": 0, "lon": -77.07477516666667, "is_reserved": 0}, {"name": "9da64b626fbd7c923fe92685d7ef25dd", "fusion_lat": 0.0, "fusion_lon": 0.0, "bike_id": "9da64b626fbd7c923fe92685d7ef25dd", "rental_uris": {"ios": "https://dc.lft.to/lastmile_qr_scan", "android": "https://dc.lft.to/lastmile_qr_scan"}, "type": "electric_scooter", "lat": 38.90576633333333, "is_disabled": 0, "lon": -77.048683, "is_reserved": 0}, {"name": "ec6df19889b9a7fdf153cdf531247048", "fusion_lat": 0.0, "fusion_lon": 0.0, "bike_id": "ec6df19889b9a7fdf153cdf531247048", "rental_uris": {"ios": "https://dc.lft.to/lastmile_qr_scan", "android": "https://dc.lft.to/lastmile_qr_scan"}, "type": "electric_scooter", "lat": 38.910530666666666, "is_disabled": 0, "lon": -77.04352783333333, "is_reserved": 0}, {"name": "3d08c1ba63c5ad59023c0ce5c84328de", "fusion_lat": 0.0, "fusion_lon": 0.0, "bike_id": "3d08c1ba63c5ad59023c0ce5c84328de", "rental_uris": {"ios": "https://dc.lft.to/lastmile_qr_scan", "android": "https://dc.lft.to/lastmile_qr_scan"}, "type": "electric_scooter", "lat": 38.921624, "is_disabled": 0, "lon": -76.994039, "is_reserved": 0}, {"name": "643402d2ef6ac0c904a9175a0bf8fc9d", "fusion_lat": 0.0, "fusion_lon": 0.0, "bike_id": "643402d2ef6ac0c904a9175a0bf8fc9d", "rental_uris": {"ios": "https://dc.lft.to/lastmile_qr_scan", "android": "https://dc.lft.to/lastmile_qr_scan"}, "type": "electric_scooter", "lat": 38.89507433333333, "is_disabled": 0, "lon": -76.948901, "is_reserved": 0}, {"name": "9108a86cef7f7bb218148d3ccef19b00", "fusion_lat": 0.0, "fusion_lon": 0.0, "bike_id": "9108a86cef7f7bb218148d3ccef19b00", "rental_uris": {"ios": "https://dc.lft.to/lastmile_qr_scan", "android": "https://dc.lft.to/lastmile_qr_scan"}, "type": "electric_scooter", "lat": 38.93118883333333, "is_disabled": 0, "lon": -77.030332, "is_reserved": 0}, {"name": "c6646f00c1dea42840bd98c70b2dad89", "fusion_lat": 0.0, "fusion_lon": 0.0, "bike_id": "c6646f00c1dea42840bd98c70b2dad89", "rental_uris": {"ios": "https://dc.lft.to/lastmile_qr_scan", "android": "https://dc.lft.to/lastmile_qr_scan"}, "type": "electric_scooter", "lat": 38.902671, "is_disabled": 0, "lon": -77.02181216666666, "is_reserved": 0}, {"name": "540ec5e93cc96ee1d8c1532f28227ad0", "fusion_lat": 0.0, "fusion_lon": 0.0, "bike_id": "540ec5e93cc96ee1d8c1532f28227ad0", "rental_uris": {"ios": "https://dc.lft.to/lastmile_qr_scan", "android": "https://dc.lft.to/lastmile_qr_scan"}, "type": "electric_scooter", "lat": 38.924635333333335, "is_disabled": 0, "lon": -77.05229, "is_reserved": 0}, {"name": "21cc64800fd916df1d768916acd56fd1", "fusion_lat": 0.0, "fusion_lon": 0.0, "bike_id": "21cc64800fd916df1d768916acd56fd1", "rental_uris": {"ios": "https://dc.lft.to/lastmile_qr_scan", "android": "https://dc.lft.to/lastmile_qr_scan"}, "type": "electric_scooter", "lat": 38.900136, "is_disabled": 0, "lon": -77.01999983333333, "is_reserved": 0}, {"name": "b781b2f8de396ce768f47e9644f09fee", "fusion_lat": 0.0, "fusion_lon": 0.0, "bike_id": "b781b2f8de396ce768f47e9644f09fee", "rental_uris": {"ios": "https://dc.lft.to/lastmile_qr_scan", "android": "https://dc.lft.to/lastmile_qr_scan"}, "type": "electric_scooter", "lat": 38.89501216666667, "is_disabled": 0, "lon": -77.01978583333333, "is_reserved": 0}, {"name": "bac8041403a7fe12100f24b97d054fe0", "fusion_lat": 0.0, "fusion_lon": 0.0, "bike_id": "bac8041403a7fe12100f24b97d054fe0", "rental_uris": {"ios": "https://dc.lft.to/lastmile_qr_scan", "android": "https://dc.lft.to/lastmile_qr_scan"}, "type": "electric_scooter", "lat": 38.90574516666667, "is_disabled": 0, "lon": -77.00705733333334, "is_reserved": 0}, {"name": "e7ae92410617f262a740366876def951", "fusion_lat": 0.0, "fusion_lon": 0.0, "bike_id": "e7ae92410617f262a740366876def951", "rental_uris": {"ios": "https://dc.lft.to/lastmile_qr_scan", "android": "https://dc.lft.to/lastmile_qr_scan"}, "type": "electric_scooter", "lat": 38.908686833333334, "is_disabled": 0, "lon": -77.03187833333334, "is_reserved": 0}, {"name": "c9482cd2ea288823c21e1ead04ef42a2", "fusion_lat": 0.0, "fusion_lon": 0.0, "bike_id": "c9482cd2ea288823c21e1ead04ef42a2", "rental_uris": {"ios": "https://dc.lft.to/lastmile_qr_scan", "android": "https://dc.lft.to/lastmile_qr_scan"}, "type": "electric_scooter", "lat": 38.9419935, "is_disabled": 0, "lon": -77.01829883333333, "is_reserved": 0}, {"name": "a7f62c56c2e2ee0e0a394b27d59890db", "fusion_lat": 0.0, "fusion_lon": 0.0, "bike_id": "a7f62c56c2e2ee0e0a394b27d59890db", "rental_uris": {"ios": "https://dc.lft.to/lastmile_qr_scan", "android": "https://dc.lft.to/lastmile_qr_scan"}, "type": "electric_scooter", "lat": 38.917503833333335, "is_disabled": 0, "lon": -77.0279315, "is_reserved": 0}, {"name": "1b8c37aa2b7c48f4c1abfa706fbe962a", "fusion_lat": 0.0, "fusion_lon": 0.0, "bike_id": "1b8c37aa2b7c48f4c1abfa706fbe962a", "rental_uris": {"ios": "https://dc.lft.to/lastmile_qr_scan", "android": "https://dc.lft.to/lastmile_qr_scan"}, "type": "electric_scooter", "lat": 38.919861, "is_disabled": 0, "lon": -77.03305333333333, "is_reserved": 0}, {"name": "c797ebb4b8e2dbbf2fe73176a7ce7a06", "fusion_lat": 0.0, "fusion_lon": 0.0, "bike_id": "c797ebb4b8e2dbbf2fe73176a7ce7a06", "rental_uris": {"ios": "https://dc.lft.to/lastmile_qr_scan", "android": "https://dc.lft.to/lastmile_qr_scan"}, "type": "electric_bike", "lat": 38.972590333333336, "is_disabled": 0, "lon": -76.99170916666667, "is_reserved": 0}, {"name": "6dc4d882f549b65afa831cbff86997f4", "fusion_lat": 0.0, "fusion_lon": 0.0, "bike_id": "6dc4d882f549b65afa831cbff86997f4", "rental_uris": {"ios": "https://dc.lft.to/lastmile_qr_scan", "android": "https://dc.lft.to/lastmile_qr_scan"}, "type": "electric_scooter", "lat": 38.93226416666667, "is_disabled": 0, "lon": -76.9948675, "is_reserved": 0}, {"name": "b6b2ced564a6408739c39662a28a9bb9", "fusion_lat": 0.0, "fusion_lon": 0.0, "bike_id": "b6b2ced564a6408739c39662a28a9bb9", "rental_uris": {"ios": "https://dc.lft.to/lastmile_qr_scan", "android": "https://dc.lft.to/lastmile_qr_scan"}, "type": "electric_scooter", "lat": 38.93465916666667, "is_disabled": 0, "lon": -77.06882233333333, "is_reserved": 0}, {"name": "e9d4bef5656b34d2459d81c55585fcc8", "fusion_lat": 0.0, "fusion_lon": 0.0, "bike_id": "e9d4bef5656b34d2459d81c55585fcc8", "rental_uris": {"ios": "https://dc.lft.to/lastmile_qr_scan", "android": "https://dc.lft.to/lastmile_qr_scan"}, "type": "electric_scooter", "lat": 38.8975715, "is_disabled": 0, "lon": -77.01020683333333, "is_reserved": 0}, {"name": "f398d76960cd86f11dc2a416ea95f96c", "fusion_lat": 0.0, "fusion_lon": 0.0, "bike_id": "f398d76960cd86f11dc2a416ea95f96c", "rental_uris": {"ios": "https://dc.lft.to/lastmile_qr_scan", "android": "https://dc.lft.to/lastmile_qr_scan"}, "type": "electric_bike", "lat": 38.839326, "is_disabled": 0, "lon": -77.07910266666667, "is_reserved": 0}, {"name": "c183e844d56346bedac713dd293c21ef", "fusion_lat": 0.0, "fusion_lon": 0.0, "bike_id": "c183e844d56346bedac713dd293c21ef", "rental_uris": {"ios": "https://dc.lft.to/lastmile_qr_scan", "android": "https://dc.lft.to/lastmile_qr_scan"}, "type": "electric_bike", "lat": 38.812706, "is_disabled": 0, "lon": -77.0617505, "is_reserved": 0}, {"name": "47e7e7fff2f9a5f7c6a1658dd87f39ab", "fusion_lat": 0.0, "fusion_lon": 0.0, "bike_id": "47e7e7fff2f9a5f7c6a1658dd87f39ab", "rental_uris": {"ios": "https://dc.lft.to/lastmile_qr_scan", "android": "https://dc.lft.to/lastmile_qr_scan"}, "type": "electric_scooter", "lat": 38.898682666666666, "is_disabled": 0, "lon": -77.01625933333334, "is_reserved": 0}, {"name": "d3d3c224e0dc1b9b41fd1a0f04bbb56d", "fusion_lat": 0.0, "fusion_lon": 0.0, "bike_id": "d3d3c224e0dc1b9b41fd1a0f04bbb56d", "rental_uris": {"ios": "https://dc.lft.to/lastmile_qr_scan", "android": "https://dc.lft.to/lastmile_qr_scan"}, "type": "electric_scooter", "lat": 38.9234485, "is_disabled": 0, "lon": -77.03515233333333, "is_reserved": 0}, {"name": "f8db351a8e07ef626f5a2b154d0e63bd", "fusion_lat": 0.0, "fusion_lon": 0.0, "bike_id": "f8db351a8e07ef626f5a2b154d0e63bd", "rental_uris": {"ios": "https://dc.lft.to/lastmile_qr_scan", "android": "https://dc.lft.to/lastmile_qr_scan"}, "type": "electric_scooter", "lat": 38.879296333333336, "is_disabled": 0, "lon": -77.01468083333333, "is_reserved": 0}, {"name": "82204f741c643e14eee22f28d3fafb9a", "fusion_lat": 0.0, "fusion_lon": 0.0, "bike_id": "82204f741c643e14eee22f28d3fafb9a", "rental_uris": {"ios": "https://dc.lft.to/lastmile_qr_scan", "android": "https://dc.lft.to/lastmile_qr_scan"}, "type": "electric_scooter", "lat": 38.913524333333335, "is_disabled": 0, "lon": -77.0175395, "is_reserved": 0}, {"name": "50bcc704837ffcf178e94f3731ab9549", "fusion_lat": 0.0, "fusion_lon": 0.0, "bike_id": "50bcc704837ffcf178e94f3731ab9549", "rental_uris": {"ios": "https://dc.lft.to/lastmile_qr_scan", "android": "https://dc.lft.to/lastmile_qr_scan"}, "type": "electric_scooter", "lat": 38.8488735, "is_disabled": 0, "lon": -77.0051935, "is_reserved": 0}, {"name": "22949dbcf23bdae74f30ab25a382e844", "fusion_lat": 0.0, "fusion_lon": 0.0, "bike_id": "22949dbcf23bdae74f30ab25a382e844", "rental_uris": {"ios": "https://dc.lft.to/lastmile_qr_scan", "android": "https://dc.lft.to/lastmile_qr_scan"}, "type": "electric_bike", "lat": 38.90254066666667, "is_disabled": 0, "lon": -77.06183583333333, "is_reserved": 0}, {"name": "5fe2fb8547b4d034238b5c8fe63c184d", "fusion_lat": 0.0, "fusion_lon": 0.0, "bike_id": "5fe2fb8547b4d034238b5c8fe63c184d", "rental_uris": {"ios": "https://dc.lft.to/lastmile_qr_scan", "android": "https://dc.lft.to/lastmile_qr_scan"}, "type": "electric_scooter", "lat": 38.9004195, "is_disabled": 0, "lon": -77.00736383333333, "is_reserved": 0}, {"name": "b5042df4604bfb4cc0897605fc8f0250", "fusion_lat": 0.0, "fusion_lon": 0.0, "bike_id": "b5042df4604bfb4cc0897605fc8f0250", "rental_uris": {"ios": "https://dc.lft.to/lastmile_qr_scan", "android": "https://dc.lft.to/lastmile_qr_scan"}, "type": "electric_scooter", "lat": 38.900332666666664, "is_disabled": 0, "lon": -76.999628, "is_reserved": 0}, {"name": "583a57dd7c9f0239236ac611c1f16ea7", "fusion_lat": 0.0, "fusion_lon": 0.0, "bike_id": "583a57dd7c9f0239236ac611c1f16ea7", "rental_uris": {"ios": "https://dc.lft.to/lastmile_qr_scan", "android": "https://dc.lft.to/lastmile_qr_scan"}, "type": "electric_scooter", "lat": 38.920732666666666, "is_disabled": 0, "lon": -77.02396816666666, "is_reserved": 0}, {"name": "2d3624cd4370f6d1bce2bb93faf57959", "fusion_lat": 0.0, "fusion_lon": 0.0, "bike_id": "2d3624cd4370f6d1bce2bb93faf57959", "rental_uris": {"ios": "https://dc.lft.to/lastmile_qr_scan", "android": "https://dc.lft.to/lastmile_qr_scan"}, "type": "electric_scooter", "lat": 38.918096, "is_disabled": 0, "lon": -77.04159566666667, "is_reserved": 0}, {"name": "129e6eb24a5369fd46826197b3ee8471", "fusion_lat": 0.0, "fusion_lon": 0.0, "bike_id": "129e6eb24a5369fd46826197b3ee8471", "rental_uris": {"ios": "https://dc.lft.to/lastmile_qr_scan", "android": "https://dc.lft.to/lastmile_qr_scan"}, "type": "electric_scooter", "lat": 38.915345, "is_disabled": 0, "lon": -77.02207033333333, "is_reserved": 0}, {"name": "2bfe9e0ae3ed4d1a6a177fc2607cc154", "fusion_lat": 0.0, "fusion_lon": 0.0, "bike_id": "2bfe9e0ae3ed4d1a6a177fc2607cc154", "rental_uris": {"ios": "https://dc.lft.to/lastmile_qr_scan", "android": "https://dc.lft.to/lastmile_qr_scan"}, "type": "electric_scooter", "lat": 38.884932666666664, "is_disabled": 0, "lon": -77.00716166666666, "is_reserved": 0}, {"name": "be1579af660fc940dffb21aa57ee192a", "fusion_lat": 0.0, "fusion_lon": 0.0, "bike_id": "be1579af660fc940dffb21aa57ee192a", "rental_uris": {"ios": "https://dc.lft.to/lastmile_qr_scan", "android": "https://dc.lft.to/lastmile_qr_scan"}, "type": "electric_scooter", "lat": 38.9260095, "is_disabled": 0, "lon": -77.02155416666666, "is_reserved": 0}, {"name": "963552ecd51eb387ed2ad5ccc43083c6", "fusion_lat": 0.0, "fusion_lon": 0.0, "bike_id": "963552ecd51eb387ed2ad5ccc43083c6", "rental_uris": {"ios": "https://dc.lft.to/lastmile_qr_scan", "android": "https://dc.lft.to/lastmile_qr_scan"}, "type": "electric_scooter", "lat": 38.87772566666666, "is_disabled": 0, "lon": -77.01435083333334, "is_reserved": 0}, {"name": "e9ba6f0b585001d1b3866478afb03595", "fusion_lat": 0.0, "fusion_lon": 0.0, "bike_id": "e9ba6f0b585001d1b3866478afb03595", "rental_uris": {"ios": "https://dc.lft.to/lastmile_qr_scan", "android": "https://dc.lft.to/lastmile_qr_scan"}, "type": "electric_scooter", "lat": 38.91632533333333, "is_disabled": 0, "lon": -77.0331075, "is_reserved": 0}, {"name": "c3c8e96c84efe98f1843ef72ab67b69e", "fusion_lat": 0.0, "fusion_lon": 0.0, "bike_id": "c3c8e96c84efe98f1843ef72ab67b69e", "rental_uris": {"ios": "https://dc.lft.to/lastmile_qr_scan", "android": "https://dc.lft.to/lastmile_qr_scan"}, "type": "electric_bike", "lat": 38.86971, "is_disabled": 0, "lon": -77.132306, "is_reserved": 0}, {"name": "92f813f9d8b30988072240bcc06fa57f", "fusion_lat": 0.0, "fusion_lon": 0.0, "bike_id": "92f813f9d8b30988072240bcc06fa57f", "rental_uris": {"ios": "https://dc.lft.to/lastmile_qr_scan", "android": "https://dc.lft.to/lastmile_qr_scan"}, "type": "electric_scooter", "lat": 38.932286, "is_disabled": 0, "lon": -76.9993425, "is_reserved": 0}, {"name": "63c82c05271e0ff20cafc177ed44dd9a", "fusion_lat": 0.0, "fusion_lon": 0.0, "bike_id": "63c82c05271e0ff20cafc177ed44dd9a", "rental_uris": {"ios": "https://dc.lft.to/lastmile_qr_scan", "android": "https://dc.lft.to/lastmile_qr_scan"}, "type": "electric_scooter", "lat": 38.909621, "is_disabled": 0, "lon": -77.03304883333334, "is_reserved": 0}, {"name": "db8fea1fa9e2328c4648e82018500fa2", "fusion_lat": 0.0, "fusion_lon": 0.0, "bike_id": "db8fea1fa9e2328c4648e82018500fa2", "rental_uris": {"ios": "https://dc.lft.to/lastmile_qr_scan", "android": "https://dc.lft.to/lastmile_qr_scan"}, "type": "electric_scooter", "lat": 38.88506533333333, "is_disabled": 0, "lon": -77.0249105, "is_reserved": 0}, {"name": "0900e77c357a6e044b1aa23245180969", "fusion_lat": 0.0, "fusion_lon": 0.0, "bike_id": "0900e77c357a6e044b1aa23245180969", "rental_uris": {"ios": "https://dc.lft.to/lastmile_qr_scan", "android": "https://dc.lft.to/lastmile_qr_scan"}, "type": "electric_scooter", "lat": 38.91707533333334, "is_disabled": 0, "lon": -77.02989283333334, "is_reserved": 0}, {"name": "38dc81f6acdffe2794dfd1f508e27c68", "fusion_lat": 0.0, "fusion_lon": 0.0, "bike_id": "38dc81f6acdffe2794dfd1f508e27c68", "rental_uris": {"ios": "https://dc.lft.to/lastmile_qr_scan", "android": "https://dc.lft.to/lastmile_qr_scan"}, "type": "electric_scooter", "lat": 38.92082083333333, "is_disabled": 0, "lon": -77.00061883333333, "is_reserved": 0}, {"name": "ced36685ff4ab02ef8924e0fe1d1a4aa", "fusion_lat": 0.0, "fusion_lon": 0.0, "bike_id": "ced36685ff4ab02ef8924e0fe1d1a4aa", "rental_uris": {"ios": "https://dc.lft.to/lastmile_qr_scan", "android": "https://dc.lft.to/lastmile_qr_scan"}, "type": "electric_scooter", "lat": 38.90089733333333, "is_disabled": 0, "lon": -77.04921883333333, "is_reserved": 0}, {"name": "b2e21f6a2a39a868093e4b2a0767aefa", "fusion_lat": 0.0, "fusion_lon": 0.0, "bike_id": "b2e21f6a2a39a868093e4b2a0767aefa", "rental_uris": {"ios": "https://dc.lft.to/lastmile_qr_scan", "android": "https://dc.lft.to/lastmile_qr_scan"}, "type": "electric_scooter", "lat": 38.90475583333333, "is_disabled": 0, "lon": -77.02826716666667, "is_reserved": 0}, {"name": "eec858f97898b490c576ae46602e2b3b", "fusion_lat": 0.0, "fusion_lon": 0.0, "bike_id": "eec858f97898b490c576ae46602e2b3b", "rental_uris": {"ios": "https://dc.lft.to/lastmile_qr_scan", "android": "https://dc.lft.to/lastmile_qr_scan"}, "type": "electric_scooter", "lat": 38.88732383333333, "is_disabled": 0, "lon": -77.01525233333334, "is_reserved": 0}, {"name": "459ea0c81e5c80b9eadf4afa067e65c0", "fusion_lat": 0.0, "fusion_lon": 0.0, "bike_id": "459ea0c81e5c80b9eadf4afa067e65c0", "rental_uris": {"ios": "https://dc.lft.to/lastmile_qr_scan", "android": "https://dc.lft.to/lastmile_qr_scan"}, "type": "electric_scooter", "lat": 38.91787466666667, "is_disabled": 0, "lon": -77.02319883333334, "is_reserved": 0}, {"name": "fb593482fd2971e6b110038a528c4aa4", "fusion_lat": 0.0, "fusion_lon": 0.0, "bike_id": "fb593482fd2971e6b110038a528c4aa4", "rental_uris": {"ios": "https://dc.lft.to/lastmile_qr_scan", "android": "https://dc.lft.to/lastmile_qr_scan"}, "type": "electric_bike", "lat": 38.84603333333333, "is_disabled": 0, "lon": -76.96885566666667, "is_reserved": 0}, {"name": "9e752dc2bbef6640f9aabc14a7497a98", "fusion_lat": 0.0, "fusion_lon": 0.0, "bike_id": "9e752dc2bbef6640f9aabc14a7497a98", "rental_uris": {"ios": "https://dc.lft.to/lastmile_qr_scan", "android": "https://dc.lft.to/lastmile_qr_scan"}, "type": "electric_scooter", "lat": 38.92857083333333, "is_disabled": 0, "lon": -77.01402633333333, "is_reserved": 0}, {"name": "3fb65808df4c15e1ade5c8223e96c7e2", "fusion_lat": 0.0, "fusion_lon": 0.0, "bike_id": "3fb65808df4c15e1ade5c8223e96c7e2", "rental_uris": {"ios": "https://dc.lft.to/lastmile_qr_scan", "android": "https://dc.lft.to/lastmile_qr_scan"}, "type": "electric_scooter", "lat": 38.88610833333333, "is_disabled": 0, "lon": -76.99655533333333, "is_reserved": 0}, {"name": "4e9c0e61ba89338283503e40173104da", "fusion_lat": 0.0, "fusion_lon": 0.0, "bike_id": "4e9c0e61ba89338283503e40173104da", "rental_uris": {"ios": "https://dc.lft.to/lastmile_qr_scan", "android": "https://dc.lft.to/lastmile_qr_scan"}, "type": "electric_bike", "lat": 38.8840635, "is_disabled": 0, "lon": -77.030893, "is_reserved": 0}, {"name": "074705637c16ccdfda4ca290dd27aac2", "fusion_lat": 0.0, "fusion_lon": 0.0, "bike_id": "074705637c16ccdfda4ca290dd27aac2", "rental_uris": {"ios": "https://dc.lft.to/lastmile_qr_scan", "android": "https://dc.lft.to/lastmile_qr_scan"}, "type": "electric_scooter", "lat": 38.88382033333333, "is_disabled": 0, "lon": -76.9948775, "is_reserved": 0}, {"name": "1d87c99a79296297c5c436af371f5f52", "fusion_lat": 0.0, "fusion_lon": 0.0, "bike_id": "1d87c99a79296297c5c436af371f5f52", "rental_uris": {"ios": "https://dc.lft.to/lastmile_qr_scan", "android": "https://dc.lft.to/lastmile_qr_scan"}, "type": "electric_scooter", "lat": 38.91793, "is_disabled": 0, "lon": -77.03216183333333, "is_reserved": 0}, {"name": "51850f77745916360f3ada2ef1f897ad", "fusion_lat": 0.0, "fusion_lon": 0.0, "bike_id": "51850f77745916360f3ada2ef1f897ad", "rental_uris": {"ios": "https://dc.lft.to/lastmile_qr_scan", "android": "https://dc.lft.to/lastmile_qr_scan"}, "type": "electric_scooter", "lat": 38.9166735, "is_disabled": 0, "lon": -77.02408816666667, "is_reserved": 0}, {"name": "17020f4ffdd229945daf27d9067e7abf", "fusion_lat": 0.0, "fusion_lon": 0.0, "bike_id": "17020f4ffdd229945daf27d9067e7abf", "rental_uris": {"ios": "https://dc.lft.to/lastmile_qr_scan", "android": "https://dc.lft.to/lastmile_qr_scan"}, "type": "electric_scooter", "lat": 38.930835333333334, "is_disabled": 0, "lon": -77.02794783333333, "is_reserved": 0}, {"name": "0d6c78a00b03ff15d604037a602da842", "fusion_lat": 0.0, "fusion_lon": 0.0, "bike_id": "0d6c78a00b03ff15d604037a602da842", "rental_uris": {"ios": "https://dc.lft.to/lastmile_qr_scan", "android": "https://dc.lft.to/lastmile_qr_scan"}, "type": "electric_scooter", "lat": 38.89837133333333, "is_disabled": 0, "lon": -77.04342883333334, "is_reserved": 0}, {"name": "db296878205b8b5cb2cee37b0b5f449a", "fusion_lat": 0.0, "fusion_lon": 0.0, "bike_id": "db296878205b8b5cb2cee37b0b5f449a", "rental_uris": {"ios": "https://dc.lft.to/lastmile_qr_scan", "android": "https://dc.lft.to/lastmile_qr_scan"}, "type": "electric_scooter", "lat": 38.93016816666667, "is_disabled": 0, "lon": -77.05549883333333, "is_reserved": 0}, {"name": "6401d1a81d7568016b6ebc01476c016c", "fusion_lat": 0.0, "fusion_lon": 0.0, "bike_id": "6401d1a81d7568016b6ebc01476c016c", "rental_uris": {"ios": "https://dc.lft.to/lastmile_qr_scan", "android": "https://dc.lft.to/lastmile_qr_scan"}, "type": "electric_scooter", "lat": 38.86713783333333, "is_disabled": 0, "lon": -76.987321, "is_reserved": 0}, {"name": "8a03d82fddd75f8e920ade9d3c6e47a3", "fusion_lat": 0.0, "fusion_lon": 0.0, "bike_id": "8a03d82fddd75f8e920ade9d3c6e47a3", "rental_uris": {"ios": "https://dc.lft.to/lastmile_qr_scan", "android": "https://dc.lft.to/lastmile_qr_scan"}, "type": "electric_scooter", "lat": 38.9036385, "is_disabled": 0, "lon": -77.03323333333333, "is_reserved": 0}, {"name": "61094064705324260bde8060758088b6", "fusion_lat": 0.0, "fusion_lon": 0.0, "bike_id": "61094064705324260bde8060758088b6", "rental_uris": {"ios": "https://dc.lft.to/lastmile_qr_scan", "android": "https://dc.lft.to/lastmile_qr_scan"}, "type": "electric_scooter", "lat": 38.90684383333333, "is_disabled": 0, "lon": -77.00998533333333, "is_reserved": 0}, {"name": "7ce23d52dfc5bd9d543945c2d16c8e02", "fusion_lat": 0.0, "fusion_lon": 0.0, "bike_id": "7ce23d52dfc5bd9d543945c2d16c8e02", "rental_uris": {"ios": "https://dc.lft.to/lastmile_qr_scan", "android": "https://dc.lft.to/lastmile_qr_scan"}, "type": "electric_scooter", "lat": 38.89973583333333, "is_disabled": 0, "lon": -77.041973, "is_reserved": 0}, {"name": "cca81c3c3517528025785cad8c3b6593", "fusion_lat": 0.0, "fusion_lon": 0.0, "bike_id": "cca81c3c3517528025785cad8c3b6593", "rental_uris": {"ios": "https://dc.lft.to/lastmile_qr_scan", "android": "https://dc.lft.to/lastmile_qr_scan"}, "type": "electric_bike", "lat": 38.904772333333334, "is_disabled": 0, "lon": -77.00213, "is_reserved": 0}, {"name": "498357b86056c287fe39a363b7a3f3ae", "fusion_lat": 0.0, "fusion_lon": 0.0, "bike_id": "498357b86056c287fe39a363b7a3f3ae", "rental_uris": {"ios": "https://dc.lft.to/lastmile_qr_scan", "android": "https://dc.lft.to/lastmile_qr_scan"}, "type": "electric_scooter", "lat": 38.90858016666667, "is_disabled": 0, "lon": -77.0454855, "is_reserved": 0}, {"name": "662d251e10af89cb447d724d0e2dc3a9", "fusion_lat": 0.0, "fusion_lon": 0.0, "bike_id": "662d251e10af89cb447d724d0e2dc3a9", "rental_uris": {"ios": "https://dc.lft.to/lastmile_qr_scan", "android": "https://dc.lft.to/lastmile_qr_scan"}, "type": "electric_scooter", "lat": 38.91028566666667, "is_disabled": 0, "lon": -77.03212783333333, "is_reserved": 0}, {"name": "91566003f4349093df141d962519ab23", "fusion_lat": 0.0, "fusion_lon": 0.0, "bike_id": "91566003f4349093df141d962519ab23", "rental_uris": {"ios": "https://dc.lft.to/lastmile_qr_scan", "android": "https://dc.lft.to/lastmile_qr_scan"}, "type": "electric_bike", "lat": 38.88821433333333, "is_disabled": 0, "lon": -77.12738533333334, "is_reserved": 0}, {"name": "befd240f25de34b70a518a28dda0d103", "fusion_lat": 0.0, "fusion_lon": 0.0, "bike_id": "befd240f25de34b70a518a28dda0d103", "rental_uris": {"ios": "https://dc.lft.to/lastmile_qr_scan", "android": "https://dc.lft.to/lastmile_qr_scan"}, "type": "electric_bike", "lat": 38.97573283333333, "is_disabled": 0, "lon": -76.96398116666667, "is_reserved": 0}, {"name": "6b3e2328d0e1e4a3f28fbd5d9dd6da57", "fusion_lat": 0.0, "fusion_lon": 0.0, "bike_id": "6b3e2328d0e1e4a3f28fbd5d9dd6da57", "rental_uris": {"ios": "https://dc.lft.to/lastmile_qr_scan", "android": "https://dc.lft.to/lastmile_qr_scan"}, "type": "electric_bike", "lat": 38.99227466666667, "is_disabled": 0, "lon": -76.87778816666666, "is_reserved": 0}, {"name": "424f439916220497e7f64727ddd1573f", "fusion_lat": 0.0, "fusion_lon": 0.0, "bike_id": "424f439916220497e7f64727ddd1573f", "rental_uris": {"ios": "https://dc.lft.to/lastmile_qr_scan", "android": "https://dc.lft.to/lastmile_qr_scan"}, "type": "electric_bike", "lat": 38.88965, "is_disabled": 0, "lon": -76.94866633333334, "is_reserved": 0}, {"name": "364f4cb7b00e5fbc523394f67b172731", "fusion_lat": 0.0, "fusion_lon": 0.0, "bike_id": "364f4cb7b00e5fbc523394f67b172731", "rental_uris": {"ios": "https://dc.lft.to/lastmile_qr_scan", "android": "https://dc.lft.to/lastmile_qr_scan"}, "type": "electric_scooter", "lat": 38.9076115, "is_disabled": 0, "lon": -77.03236966666667, "is_reserved": 0}, {"name": "465161974901bf26b4f5fce50f2d9763", "fusion_lat": 0.0, "fusion_lon": 0.0, "bike_id": "465161974901bf26b4f5fce50f2d9763", "rental_uris": {"ios": "https://dc.lft.to/lastmile_qr_scan", "android": "https://dc.lft.to/lastmile_qr_scan"}, "type": "electric_scooter", "lat": 38.88738716666667, "is_disabled": 0, "lon": -77.02857066666667, "is_reserved": 0}, {"name": "05c8541169df646f7ec9e81d64fcdcfe", "fusion_lat": 0.0, "fusion_lon": 0.0, "bike_id": "05c8541169df646f7ec9e81d64fcdcfe", "rental_uris": {"ios": "https://dc.lft.to/lastmile_qr_scan", "android": "https://dc.lft.to/lastmile_qr_scan"}, "type": "electric_scooter", "lat": 38.88742466666667, "is_disabled": 0, "lon": -77.0222745, "is_reserved": 0}, {"name": "2891659f607c7942a8c333f5af7816fa", "fusion_lat": 0.0, "fusion_lon": 0.0, "bike_id": "2891659f607c7942a8c333f5af7816fa", "rental_uris": {"ios": "https://dc.lft.to/lastmile_qr_scan", "android": "https://dc.lft.to/lastmile_qr_scan"}, "type": "electric_scooter", "lat": 38.907328, "is_disabled": 0, "lon": -77.02368866666667, "is_reserved": 0}, {"name": "8cc23ca54a6f0379ed4a6cd07c306d25", "fusion_lat": 0.0, "fusion_lon": 0.0, "bike_id": "8cc23ca54a6f0379ed4a6cd07c306d25", "rental_uris": {"ios": "https://dc.lft.to/lastmile_qr_scan", "android": "https://dc.lft.to/lastmile_qr_scan"}, "type": "electric_scooter", "lat": 38.84435716666667, "is_disabled": 0, "lon": -76.98416183333333, "is_reserved": 0}, {"name": "e183b39cfe15175e8613c2f483d8a911", "fusion_lat": 0.0, "fusion_lon": 0.0, "bike_id": "e183b39cfe15175e8613c2f483d8a911", "rental_uris": {"ios": "https://dc.lft.to/lastmile_qr_scan", "android": "https://dc.lft.to/lastmile_qr_scan"}, "type": "electric_scooter", "lat": 38.901362666666664, "is_disabled": 0, "lon": -77.01326283333333, "is_reserved": 0}, {"name": "ef1b521395a9a40a2403e2a4f4e0bfe1", "fusion_lat": 0.0, "fusion_lon": 0.0, "bike_id": "ef1b521395a9a40a2403e2a4f4e0bfe1", "rental_uris": {"ios": "https://dc.lft.to/lastmile_qr_scan", "android": "https://dc.lft.to/lastmile_qr_scan"}, "type": "electric_scooter", "lat": 38.9289565, "is_disabled": 0, "lon": -77.01637516666666, "is_reserved": 0}, {"name": "304d5bab0ca0c4fa64841abafac1bf10", "fusion_lat": 0.0, "fusion_lon": 0.0, "bike_id": "304d5bab0ca0c4fa64841abafac1bf10", "rental_uris": {"ios": "https://dc.lft.to/lastmile_qr_scan", "android": "https://dc.lft.to/lastmile_qr_scan"}, "type": "electric_scooter", "lat": 38.927839166666665, "is_disabled": 0, "lon": -77.02746583333334, "is_reserved": 0}, {"name": "57f908631687b9d8c41e73e777d7ec01", "fusion_lat": 0.0, "fusion_lon": 0.0, "bike_id": "57f908631687b9d8c41e73e777d7ec01", "rental_uris": {"ios": "https://dc.lft.to/lastmile_qr_scan", "android": "https://dc.lft.to/lastmile_qr_scan"}, "type": "electric_scooter", "lat": 38.88737666666667, "is_disabled": 0, "lon": -77.01534683333334, "is_reserved": 0}, {"name": "2ea2f6b2da0eb89f1cb29d1546e65742", "fusion_lat": 0.0, "fusion_lon": 0.0, "bike_id": "2ea2f6b2da0eb89f1cb29d1546e65742", "rental_uris": {"ios": "https://dc.lft.to/lastmile_qr_scan", "android": "https://dc.lft.to/lastmile_qr_scan"}, "type": "electric_bike", "lat": 38.916768166666664, "is_disabled": 0, "lon": -77.09573783333333, "is_reserved": 0}, {"name": "6502f7f831a0a65bd15225f89525ddae", "fusion_lat": 0.0, "fusion_lon": 0.0, "bike_id": "6502f7f831a0a65bd15225f89525ddae", "rental_uris": {"ios": "https://dc.lft.to/lastmile_qr_scan", "android": "https://dc.lft.to/lastmile_qr_scan"}, "type": "electric_scooter", "lat": 38.934671333333334, "is_disabled": 0, "lon": -77.02403633333333, "is_reserved": 0}, {"name": "4ad9247ca3dd55a53034b4ab0be20dfa", "fusion_lat": 0.0, "fusion_lon": 0.0, "bike_id": "4ad9247ca3dd55a53034b4ab0be20dfa", "rental_uris": {"ios": "https://dc.lft.to/lastmile_qr_scan", "android": "https://dc.lft.to/lastmile_qr_scan"}, "type": "electric_scooter", "lat": 38.918069833333334, "is_disabled": 0, "lon": -77.03565383333333, "is_reserved": 0}, {"name": "9461a826056d9b3fb8752c1f01cb80e5", "fusion_lat": 0.0, "fusion_lon": 0.0, "bike_id": "9461a826056d9b3fb8752c1f01cb80e5", "rental_uris": {"ios": "https://dc.lft.to/lastmile_qr_scan", "android": "https://dc.lft.to/lastmile_qr_scan"}, "type": "electric_scooter", "lat": 38.92479766666666, "is_disabled": 0, "lon": -77.02996916666666, "is_reserved": 0}, {"name": "375ec0b614584878c158b36f58a455fc", "fusion_lat": 0.0, "fusion_lon": 0.0, "bike_id": "375ec0b614584878c158b36f58a455fc", "rental_uris": {"ios": "https://dc.lft.to/lastmile_qr_scan", "android": "https://dc.lft.to/lastmile_qr_scan"}, "type": "electric_scooter", "lat": 38.90997333333333, "is_disabled": 0, "lon": -77.040055, "is_reserved": 0}, {"name": "9c7494ee7fbaa7f399a0cef9123b6b1f", "fusion_lat": 0.0, "fusion_lon": 0.0, "bike_id": "9c7494ee7fbaa7f399a0cef9123b6b1f", "rental_uris": {"ios": "https://dc.lft.to/lastmile_qr_scan", "android": "https://dc.lft.to/lastmile_qr_scan"}, "type": "electric_scooter", "lat": 38.908655333333336, "is_disabled": 0, "lon": -77.02424866666667, "is_reserved": 0}, {"name": "f47294e87e47948b964297bd972bd98f", "fusion_lat": 0.0, "fusion_lon": 0.0, "bike_id": "f47294e87e47948b964297bd972bd98f", "rental_uris": {"ios": "https://dc.lft.to/lastmile_qr_scan", "android": "https://dc.lft.to/lastmile_qr_scan"}, "type": "electric_scooter", "lat": 38.90608116666667, "is_disabled": 0, "lon": -77.00050033333333, "is_reserved": 0}, {"name": "47cae107541816bde315c9a8243a3301", "fusion_lat": 0.0, "fusion_lon": 0.0, "bike_id": "47cae107541816bde315c9a8243a3301", "rental_uris": {"ios": "https://dc.lft.to/lastmile_qr_scan", "android": "https://dc.lft.to/lastmile_qr_scan"}, "type": "electric_scooter", "lat": 38.88488233333333, "is_disabled": 0, "lon": -77.00712, "is_reserved": 0}, {"name": "35f5dd1a2fa035cb00bc779515a361c5", "fusion_lat": 0.0, "fusion_lon": 0.0, "bike_id": "35f5dd1a2fa035cb00bc779515a361c5", "rental_uris": {"ios": "https://dc.lft.to/lastmile_qr_scan", "android": "https://dc.lft.to/lastmile_qr_scan"}, "type": "electric_scooter", "lat": 38.91540966666667, "is_disabled": 0, "lon": -76.98348766666666, "is_reserved": 0}, {"name": "891ed04af3682a989002308d1d91dc8a", "fusion_lat": 0.0, "fusion_lon": 0.0, "bike_id": "891ed04af3682a989002308d1d91dc8a", "rental_uris": {"ios": "https://dc.lft.to/lastmile_qr_scan", "android": "https://dc.lft.to/lastmile_qr_scan"}, "type": "electric_bike", "lat": 38.802977, "is_disabled": 0, "lon": -77.039903, "is_reserved": 0}, {"name": "2d81db4e2e7c0e89c8992e8adb8c490a", "fusion_lat": 0.0, "fusion_lon": 0.0, "bike_id": "2d81db4e2e7c0e89c8992e8adb8c490a", "rental_uris": {"ios": "https://dc.lft.to/lastmile_qr_scan", "android": "https://dc.lft.to/lastmile_qr_scan"}, "type": "electric_scooter", "lat": 38.9274185, "is_disabled": 0, "lon": -77.03309583333333, "is_reserved": 0}, {"name": "b619742d1d53eb121fbc1aff4756ddb2", "fusion_lat": 0.0, "fusion_lon": 0.0, "bike_id": "b619742d1d53eb121fbc1aff4756ddb2", "rental_uris": {"ios": "https://dc.lft.to/lastmile_qr_scan", "android": "https://dc.lft.to/lastmile_qr_scan"}, "type": "electric_scooter", "lat": 38.901251333333335, "is_disabled": 0, "lon": -77.02810916666667, "is_reserved": 0}, {"name": "d70bb46a1fceba6917aa41e013283f0d", "fusion_lat": 0.0, "fusion_lon": 0.0, "bike_id": "d70bb46a1fceba6917aa41e013283f0d", "rental_uris": {"ios": "https://dc.lft.to/lastmile_qr_scan", "android": "https://dc.lft.to/lastmile_qr_scan"}, "type": "electric_scooter", "lat": 38.88740716666667, "is_disabled": 0, "lon": -77.02128216666667, "is_reserved": 0}, {"name": "2830dd481c5b1304553b40c3f60bbd7d", "fusion_lat": 0.0, "fusion_lon": 0.0, "bike_id": "2830dd481c5b1304553b40c3f60bbd7d", "rental_uris": {"ios": "https://dc.lft.to/lastmile_qr_scan", "android": "https://dc.lft.to/lastmile_qr_scan"}, "type": "electric_scooter", "lat": 38.89352433333333, "is_disabled": 0, "lon": -77.003373, "is_reserved": 0}, {"name": "2168077ce59a8b5586fcec6a4a3484af", "fusion_lat": 0.0, "fusion_lon": 0.0, "bike_id": "2168077ce59a8b5586fcec6a4a3484af", "rental_uris": {"ios": "https://dc.lft.to/lastmile_qr_scan", "android": "https://dc.lft.to/lastmile_qr_scan"}, "type": "electric_bike", "lat": 39.058075, "is_disabled": 0, "lon": -77.12627066666667, "is_reserved": 0}, {"name": "77d3774b03bd29a74fa3d13ffc3ab50c", "fusion_lat": 0.0, "fusion_lon": 0.0, "bike_id": "77d3774b03bd29a74fa3d13ffc3ab50c", "rental_uris": {"ios": "https://dc.lft.to/lastmile_qr_scan", "android": "https://dc.lft.to/lastmile_qr_scan"}, "type": "electric_scooter", "lat": 38.905078, "is_disabled": 0, "lon": -77.06155766666667, "is_reserved": 0}, {"name": "9a5fe61bbbd6108ea3bd3645559509c2", "fusion_lat": 0.0, "fusion_lon": 0.0, "bike_id": "9a5fe61bbbd6108ea3bd3645559509c2", "rental_uris": {"ios": "https://dc.lft.to/lastmile_qr_scan", "android": "https://dc.lft.to/lastmile_qr_scan"}, "type": "electric_scooter", "lat": 38.9018695, "is_disabled": 0, "lon": -77.02399766666667, "is_reserved": 0}, {"name": "498225c13f745e05e683d236d3affc33", "fusion_lat": 0.0, "fusion_lon": 0.0, "bike_id": "498225c13f745e05e683d236d3affc33", "rental_uris": {"ios": "https://dc.lft.to/lastmile_qr_scan", "android": "https://dc.lft.to/lastmile_qr_scan"}, "type": "electric_scooter", "lat": 38.887424, "is_disabled": 0, "lon": -77.02229266666667, "is_reserved": 0}, {"name": "61d08f5412cdc106dae2af3ba1c471df", "fusion_lat": 0.0, "fusion_lon": 0.0, "bike_id": "61d08f5412cdc106dae2af3ba1c471df", "rental_uris": {"ios": "https://dc.lft.to/lastmile_qr_scan", "android": "https://dc.lft.to/lastmile_qr_scan"}, "type": "electric_scooter", "lat": 38.92968283333333, "is_disabled": 0, "lon": -77.00537633333333, "is_reserved": 0}, {"name": "731bafbf220330235190729f20039411", "fusion_lat": 0.0, "fusion_lon": 0.0, "bike_id": "731bafbf220330235190729f20039411", "rental_uris": {"ios": "https://dc.lft.to/lastmile_qr_scan", "android": "https://dc.lft.to/lastmile_qr_scan"}, "type": "electric_scooter", "lat": 38.8922575, "is_disabled": 0, "lon": -77.02983183333333, "is_reserved": 0}, {"name": "e6e76383e2e7429df655ca8b7cdbb6fa", "fusion_lat": 0.0, "fusion_lon": 0.0, "bike_id": "e6e76383e2e7429df655ca8b7cdbb6fa", "rental_uris": {"ios": "https://dc.lft.to/lastmile_qr_scan", "android": "https://dc.lft.to/lastmile_qr_scan"}, "type": "electric_scooter", "lat": 38.89538833333334, "is_disabled": 0, "lon": -77.04127116666666, "is_reserved": 0}, {"name": "65121d3b81cdd561e75d877e03d78e32", "fusion_lat": 0.0, "fusion_lon": 0.0, "bike_id": "65121d3b81cdd561e75d877e03d78e32", "rental_uris": {"ios": "https://dc.lft.to/lastmile_qr_scan", "android": "https://dc.lft.to/lastmile_qr_scan"}, "type": "electric_scooter", "lat": 38.898334166666665, "is_disabled": 0, "lon": -76.9463595, "is_reserved": 0}, {"name": "8fe1c48ae2d7f5182868ec3f14300686", "fusion_lat": 0.0, "fusion_lon": 0.0, "bike_id": "8fe1c48ae2d7f5182868ec3f14300686", "rental_uris": {"ios": "https://dc.lft.to/lastmile_qr_scan", "android": "https://dc.lft.to/lastmile_qr_scan"}, "type": "electric_scooter", "lat": 38.905404, "is_disabled": 0, "lon": -77.00569716666666, "is_reserved": 0}, {"name": "927f095823ae4d8eae8ebbe9d0210216", "fusion_lat": 0.0, "fusion_lon": 0.0, "bike_id": "927f095823ae4d8eae8ebbe9d0210216", "rental_uris": {"ios": "https://dc.lft.to/lastmile_qr_scan", "android": "https://dc.lft.to/lastmile_qr_scan"}, "type": "electric_scooter", "lat": 38.900254833333335, "is_disabled": 0, "lon": -76.9986165, "is_reserved": 0}, {"name": "28a7b15015be76213e69cf7c5c894757", "fusion_lat": 0.0, "fusion_lon": 0.0, "bike_id": "28a7b15015be76213e69cf7c5c894757", "rental_uris": {"ios": "https://dc.lft.to/lastmile_qr_scan", "android": "https://dc.lft.to/lastmile_qr_scan"}, "type": "electric_scooter", "lat": 38.91642383333333, "is_disabled": 0, "lon": -77.04773866666666, "is_reserved": 0}, {"name": "296635450dd3c1263dc4609923397752", "fusion_lat": 0.0, "fusion_lon": 0.0, "bike_id": "296635450dd3c1263dc4609923397752", "rental_uris": {"ios": "https://dc.lft.to/lastmile_qr_scan", "android": "https://dc.lft.to/lastmile_qr_scan"}, "type": "electric_scooter", "lat": 38.892203, "is_disabled": 0, "lon": -77.04363833333333, "is_reserved": 0}, {"name": "b20a5ae3793db19b99c430ab7ff304aa", "fusion_lat": 0.0, "fusion_lon": 0.0, "bike_id": "b20a5ae3793db19b99c430ab7ff304aa", "rental_uris": {"ios": "https://dc.lft.to/lastmile_qr_scan", "android": "https://dc.lft.to/lastmile_qr_scan"}, "type": "electric_scooter", "lat": 38.9039285, "is_disabled": 0, "lon": -77.04894533333334, "is_reserved": 0}, {"name": "dd04d857d67a583e0c16a8e3a173d77d", "fusion_lat": 0.0, "fusion_lon": 0.0, "bike_id": "dd04d857d67a583e0c16a8e3a173d77d", "rental_uris": {"ios": "https://dc.lft.to/lastmile_qr_scan", "android": "https://dc.lft.to/lastmile_qr_scan"}, "type": "electric_scooter", "lat": 38.92479566666667, "is_disabled": 0, "lon": -77.05212, "is_reserved": 0}, {"name": "db8b3a2e142285891552e3d4f7218456", "fusion_lat": 0.0, "fusion_lon": 0.0, "bike_id": "db8b3a2e142285891552e3d4f7218456", "rental_uris": {"ios": "https://dc.lft.to/lastmile_qr_scan", "android": "https://dc.lft.to/lastmile_qr_scan"}, "type": "electric_scooter", "lat": 38.90020716666667, "is_disabled": 0, "lon": -77.0067615, "is_reserved": 0}, {"name": "9137d7832f68b6c62c3f678c821f002f", "fusion_lat": 0.0, "fusion_lon": 0.0, "bike_id": "9137d7832f68b6c62c3f678c821f002f", "rental_uris": {"ios": "https://dc.lft.to/lastmile_qr_scan", "android": "https://dc.lft.to/lastmile_qr_scan"}, "type": "electric_scooter", "lat": 38.9050655, "is_disabled": 0, "lon": -77.0500055, "is_reserved": 0}, {"name": "2bb0b6f166dbf7a037a484eec49ce522", "fusion_lat": 0.0, "fusion_lon": 0.0, "bike_id": "2bb0b6f166dbf7a037a484eec49ce522", "rental_uris": {"ios": "https://dc.lft.to/lastmile_qr_scan", "android": "https://dc.lft.to/lastmile_qr_scan"}, "type": "electric_scooter", "lat": 38.90558683333333, "is_disabled": 0, "lon": -77.0466605, "is_reserved": 0}, {"name": "1bea53737e0fa90a168285423b2bc226", "fusion_lat": 0.0, "fusion_lon": 0.0, "bike_id": "1bea53737e0fa90a168285423b2bc226", "rental_uris": {"ios": "https://dc.lft.to/lastmile_qr_scan", "android": "https://dc.lft.to/lastmile_qr_scan"}, "type": "electric_scooter", "lat": 38.90034266666667, "is_disabled": 0, "lon": -76.9882605, "is_reserved": 0}, {"name": "8fa3f03a45f3a0c51495b1922e5fca01", "fusion_lat": 0.0, "fusion_lon": 0.0, "bike_id": "8fa3f03a45f3a0c51495b1922e5fca01", "rental_uris": {"ios": "https://dc.lft.to/lastmile_qr_scan", "android": "https://dc.lft.to/lastmile_qr_scan"}, "type": "electric_scooter", "lat": 38.88475966666667, "is_disabled": 0, "lon": -76.92956666666667, "is_reserved": 0}, {"name": "f496af45cdcc685c20a05ec83af34f9b", "fusion_lat": 0.0, "fusion_lon": 0.0, "bike_id": "f496af45cdcc685c20a05ec83af34f9b", "rental_uris": {"ios": "https://dc.lft.to/lastmile_qr_scan", "android": "https://dc.lft.to/lastmile_qr_scan"}, "type": "electric_scooter", "lat": 38.9075695, "is_disabled": 0, "lon": -77.03856116666667, "is_reserved": 0}, {"name": "a61cdb5f93df19e9846ff4a0a91d8344", "fusion_lat": 0.0, "fusion_lon": 0.0, "bike_id": "a61cdb5f93df19e9846ff4a0a91d8344", "rental_uris": {"ios": "https://dc.lft.to/lastmile_qr_scan", "android": "https://dc.lft.to/lastmile_qr_scan"}, "type": "electric_scooter", "lat": 38.933951, "is_disabled": 0, "lon": -77.04121616666667, "is_reserved": 0}, {"name": "46a58f35c650dba28c7b69055bca78fa", "fusion_lat": 0.0, "fusion_lon": 0.0, "bike_id": "46a58f35c650dba28c7b69055bca78fa", "rental_uris": {"ios": "https://dc.lft.to/lastmile_qr_scan", "android": "https://dc.lft.to/lastmile_qr_scan"}, "type": "electric_scooter", "lat": 38.8993815, "is_disabled": 0, "lon": -77.05464366666666, "is_reserved": 0}, {"name": "18e9a4d7e4187f46eb13b1e1b59ae923", "fusion_lat": 0.0, "fusion_lon": 0.0, "bike_id": "18e9a4d7e4187f46eb13b1e1b59ae923", "rental_uris": {"ios": "https://dc.lft.to/lastmile_qr_scan", "android": "https://dc.lft.to/lastmile_qr_scan"}, "type": "electric_scooter", "lat": 38.91404083333333, "is_disabled": 0, "lon": -77.0322735, "is_reserved": 0}, {"name": "8bd62ab8a9176bfc09d2ef61ef924e66", "fusion_lat": 0.0, "fusion_lon": 0.0, "bike_id": "8bd62ab8a9176bfc09d2ef61ef924e66", "rental_uris": {"ios": "https://dc.lft.to/lastmile_qr_scan", "android": "https://dc.lft.to/lastmile_qr_scan"}, "type": "electric_scooter", "lat": 38.866968666666665, "is_disabled": 0, "lon": -76.98711633333333, "is_reserved": 0}, {"name": "295fd862a02940777ca5c5c4248a92dc", "fusion_lat": 0.0, "fusion_lon": 0.0, "bike_id": "295fd862a02940777ca5c5c4248a92dc", "rental_uris": {"ios": "https://dc.lft.to/lastmile_qr_scan", "android": "https://dc.lft.to/lastmile_qr_scan"}, "type": "electric_scooter", "lat": 38.900324, "is_disabled": 0, "lon": -76.998532, "is_reserved": 0}, {"name": "a5f676939a5e7e0384d856d10fdfcc15", "fusion_lat": 0.0, "fusion_lon": 0.0, "bike_id": "a5f676939a5e7e0384d856d10fdfcc15", "rental_uris": {"ios": "https://dc.lft.to/lastmile_qr_scan", "android": "https://dc.lft.to/lastmile_qr_scan"}, "type": "electric_scooter", "lat": 38.92018933333333, "is_disabled": 0, "lon": -77.03147533333333, "is_reserved": 0}, {"name": "0b0822541d70983e39e04056c0235c82", "fusion_lat": 0.0, "fusion_lon": 0.0, "bike_id": "0b0822541d70983e39e04056c0235c82", "rental_uris": {"ios": "https://dc.lft.to/lastmile_qr_scan", "android": "https://dc.lft.to/lastmile_qr_scan"}, "type": "electric_scooter", "lat": 38.92512583333333, "is_disabled": 0, "lon": -77.05115116666667, "is_reserved": 0}, {"name": "8d137671d494bb927852927ac48efbac", "fusion_lat": 0.0, "fusion_lon": 0.0, "bike_id": "8d137671d494bb927852927ac48efbac", "rental_uris": {"ios": "https://dc.lft.to/lastmile_qr_scan", "android": "https://dc.lft.to/lastmile_qr_scan"}, "type": "electric_scooter", "lat": 38.907142, "is_disabled": 0, "lon": -77.04356383333334, "is_reserved": 0}, {"name": "6528385777129139d09dd66cc7be958c", "fusion_lat": 0.0, "fusion_lon": 0.0, "bike_id": "6528385777129139d09dd66cc7be958c", "rental_uris": {"ios": "https://dc.lft.to/lastmile_qr_scan", "android": "https://dc.lft.to/lastmile_qr_scan"}, "type": "electric_scooter", "lat": 38.90386483333333, "is_disabled": 0, "lon": -77.030113, "is_reserved": 0}, {"name": "c96f884d10e540486a0f73f7820dff0b", "fusion_lat": 0.0, "fusion_lon": 0.0, "bike_id": "c96f884d10e540486a0f73f7820dff0b", "rental_uris": {"ios": "https://dc.lft.to/lastmile_qr_scan", "android": "https://dc.lft.to/lastmile_qr_scan"}, "type": "electric_scooter", "lat": 38.929618833333336, "is_disabled": 0, "lon": -77.04203166666667, "is_reserved": 0}, {"name": "a8f4167cb548ed788036e451865fea80", "fusion_lat": 0.0, "fusion_lon": 0.0, "bike_id": "a8f4167cb548ed788036e451865fea80", "rental_uris": {"ios": "https://dc.lft.to/lastmile_qr_scan", "android": "https://dc.lft.to/lastmile_qr_scan"}, "type": "electric_scooter", "lat": 38.9389635, "is_disabled": 0, "lon": -77.024636, "is_reserved": 0}, {"name": "daa6199cec58fa090f45531343093383", "fusion_lat": 0.0, "fusion_lon": 0.0, "bike_id": "daa6199cec58fa090f45531343093383", "rental_uris": {"ios": "https://dc.lft.to/lastmile_qr_scan", "android": "https://dc.lft.to/lastmile_qr_scan"}, "type": "electric_bike", "lat": 38.95001933333333, "is_disabled": 0, "lon": -77.35312066666667, "is_reserved": 0}, {"name": "f92a0c964ec4072ba57db099b7bddebb", "fusion_lat": 0.0, "fusion_lon": 0.0, "bike_id": "f92a0c964ec4072ba57db099b7bddebb", "rental_uris": {"ios": "https://dc.lft.to/lastmile_qr_scan", "android": "https://dc.lft.to/lastmile_qr_scan"}, "type": "electric_scooter", "lat": 38.887426833333336, "is_disabled": 0, "lon": -77.02227283333333, "is_reserved": 0}, {"name": "0017b369b788860db936d4506488063c", "fusion_lat": 0.0, "fusion_lon": 0.0, "bike_id": "0017b369b788860db936d4506488063c", "rental_uris": {"ios": "https://dc.lft.to/lastmile_qr_scan", "android": "https://dc.lft.to/lastmile_qr_scan"}, "type": "electric_scooter", "lat": 38.9245515, "is_disabled": 0, "lon": -76.99736483333334, "is_reserved": 0}, {"name": "0a3c7719d996dd5d237cbf284bc45e3b", "fusion_lat": 0.0, "fusion_lon": 0.0, "bike_id": "0a3c7719d996dd5d237cbf284bc45e3b", "rental_uris": {"ios": "https://dc.lft.to/lastmile_qr_scan", "android": "https://dc.lft.to/lastmile_qr_scan"}, "type": "electric_scooter", "lat": 38.915792833333334, "is_disabled": 0, "lon": -77.04675366666666, "is_reserved": 0}, {"name": "229d953f95c40bc45683d8919d3dbbaa", "fusion_lat": 0.0, "fusion_lon": 0.0, "bike_id": "229d953f95c40bc45683d8919d3dbbaa", "rental_uris": {"ios": "https://dc.lft.to/lastmile_qr_scan", "android": "https://dc.lft.to/lastmile_qr_scan"}, "type": "electric_scooter", "lat": 38.8985575, "is_disabled": 0, "lon": -77.01618183333333, "is_reserved": 0}, {"name": "2ed8b6d01d74ffcf5f3190ca19052c56", "fusion_lat": 0.0, "fusion_lon": 0.0, "bike_id": "2ed8b6d01d74ffcf5f3190ca19052c56", "rental_uris": {"ios": "https://dc.lft.to/lastmile_qr_scan", "android": "https://dc.lft.to/lastmile_qr_scan"}, "type": "electric_scooter", "lat": 38.901468666666666, "is_disabled": 0, "lon": -77.04398966666666, "is_reserved": 0}, {"name": "8bb7e321322d5638f5e1337ed224adb3", "fusion_lat": 0.0, "fusion_lon": 0.0, "bike_id": "8bb7e321322d5638f5e1337ed224adb3", "rental_uris": {"ios": "https://dc.lft.to/lastmile_qr_scan", "android": "https://dc.lft.to/lastmile_qr_scan"}, "type": "electric_scooter", "lat": 38.908115333333335, "is_disabled": 0, "lon": -77.0385145, "is_reserved": 0}, {"name": "1f1ce6ca37f5753955e821a77ac41d16", "fusion_lat": 0.0, "fusion_lon": 0.0, "bike_id": "1f1ce6ca37f5753955e821a77ac41d16", "rental_uris": {"ios": "https://dc.lft.to/lastmile_qr_scan", "android": "https://dc.lft.to/lastmile_qr_scan"}, "type": "electric_scooter", "lat": 38.89524766666667, "is_disabled": 0, "lon": -76.948915, "is_reserved": 0}, {"name": "1b3f0d4021499aca11f5787e15b7a22e", "fusion_lat": 0.0, "fusion_lon": 0.0, "bike_id": "1b3f0d4021499aca11f5787e15b7a22e", "rental_uris": {"ios": "https://dc.lft.to/lastmile_qr_scan", "android": "https://dc.lft.to/lastmile_qr_scan"}, "type": "electric_scooter", "lat": 38.8428645, "is_disabled": 0, "lon": -76.99948716666667, "is_reserved": 0}, {"name": "daba73cb4d3da1fe1708725846f00bc5", "fusion_lat": 0.0, "fusion_lon": 0.0, "bike_id": "daba73cb4d3da1fe1708725846f00bc5", "rental_uris": {"ios": "https://dc.lft.to/lastmile_qr_scan", "android": "https://dc.lft.to/lastmile_qr_scan"}, "type": "electric_scooter", "lat": 38.9000685, "is_disabled": 0, "lon": -77.00682683333334, "is_reserved": 0}, {"name": "e41a2616d2624483f62555a0f5b0f9b6", "fusion_lat": 0.0, "fusion_lon": 0.0, "bike_id": "e41a2616d2624483f62555a0f5b0f9b6", "rental_uris": {"ios": "https://dc.lft.to/lastmile_qr_scan", "android": "https://dc.lft.to/lastmile_qr_scan"}, "type": "electric_scooter", "lat": 38.91917566666667, "is_disabled": 0, "lon": -77.03177716666667, "is_reserved": 0}, {"name": "66fc6effa16a3750ea2aedb700cb7614", "fusion_lat": 0.0, "fusion_lon": 0.0, "bike_id": "66fc6effa16a3750ea2aedb700cb7614", "rental_uris": {"ios": "https://dc.lft.to/lastmile_qr_scan", "android": "https://dc.lft.to/lastmile_qr_scan"}, "type": "electric_scooter", "lat": 38.905316166666665, "is_disabled": 0, "lon": -77.05028216666666, "is_reserved": 0}, {"name": "2af3cbe5f458b2f679bde11f3aed9298", "fusion_lat": 0.0, "fusion_lon": 0.0, "bike_id": "2af3cbe5f458b2f679bde11f3aed9298", "rental_uris": {"ios": "https://dc.lft.to/lastmile_qr_scan", "android": "https://dc.lft.to/lastmile_qr_scan"}, "type": "electric_scooter", "lat": 38.871698, "is_disabled": 0, "lon": -77.0062335, "is_reserved": 0}, {"name": "42607e012a6faf05ee373aae3f0555b1", "fusion_lat": 0.0, "fusion_lon": 0.0, "bike_id": "42607e012a6faf05ee373aae3f0555b1", "rental_uris": {"ios": "https://dc.lft.to/lastmile_qr_scan", "android": "https://dc.lft.to/lastmile_qr_scan"}, "type": "electric_scooter", "lat": 38.86344416666667, "is_disabled": 0, "lon": -76.99062416666666, "is_reserved": 0}, {"name": "77df1cdd2610092ebc4c57072e713724", "fusion_lat": 0.0, "fusion_lon": 0.0, "bike_id": "77df1cdd2610092ebc4c57072e713724", "rental_uris": {"ios": "https://dc.lft.to/lastmile_qr_scan", "android": "https://dc.lft.to/lastmile_qr_scan"}, "type": "electric_scooter", "lat": 38.886977333333334, "is_disabled": 0, "lon": -76.95363083333334, "is_reserved": 0}, {"name": "a7d9bdd9ff6bd4ff63aef81111bf1d9d", "fusion_lat": 0.0, "fusion_lon": 0.0, "bike_id": "a7d9bdd9ff6bd4ff63aef81111bf1d9d", "rental_uris": {"ios": "https://dc.lft.to/lastmile_qr_scan", "android": "https://dc.lft.to/lastmile_qr_scan"}, "type": "electric_scooter", "lat": 38.9167885, "is_disabled": 0, "lon": -77.02694116666666, "is_reserved": 0}, {"name": "f1df4a98f88865a1318a5ecdbbff4811", "fusion_lat": 0.0, "fusion_lon": 0.0, "bike_id": "f1df4a98f88865a1318a5ecdbbff4811", "rental_uris": {"ios": "https://dc.lft.to/lastmile_qr_scan", "android": "https://dc.lft.to/lastmile_qr_scan"}, "type": "electric_scooter", "lat": 38.9042815, "is_disabled": 0, "lon": -77.0260695, "is_reserved": 0}, {"name": "eaa4a345c08529a5fcb8c8c8904fde26", "fusion_lat": 0.0, "fusion_lon": 0.0, "bike_id": "eaa4a345c08529a5fcb8c8c8904fde26", "rental_uris": {"ios": "https://dc.lft.to/lastmile_qr_scan", "android": "https://dc.lft.to/lastmile_qr_scan"}, "type": "electric_scooter", "lat": 38.927864666666665, "is_disabled": 0, "lon": -77.0273265, "is_reserved": 0}, {"name": "ce6d541a839e1b106c8d18cb28289a76", "fusion_lat": 0.0, "fusion_lon": 0.0, "bike_id": "ce6d541a839e1b106c8d18cb28289a76", "rental_uris": {"ios": "https://dc.lft.to/lastmile_qr_scan", "android": "https://dc.lft.to/lastmile_qr_scan"}, "type": "electric_scooter", "lat": 38.92788633333333, "is_disabled": 0, "lon": -77.02735633333333, "is_reserved": 0}, {"name": "98e753a4e65cc91de07c0be283c2628e", "fusion_lat": 0.0, "fusion_lon": 0.0, "bike_id": "98e753a4e65cc91de07c0be283c2628e", "rental_uris": {"ios": "https://dc.lft.to/lastmile_qr_scan", "android": "https://dc.lft.to/lastmile_qr_scan"}, "type": "electric_scooter", "lat": 38.9000875, "is_disabled": 0, "lon": -77.03348916666667, "is_reserved": 0}, {"name": "e769e8e1fa46077aab0a45a90c2a9878", "fusion_lat": 0.0, "fusion_lon": 0.0, "bike_id": "e769e8e1fa46077aab0a45a90c2a9878", "rental_uris": {"ios": "https://dc.lft.to/lastmile_qr_scan", "android": "https://dc.lft.to/lastmile_qr_scan"}, "type": "electric_scooter", "lat": 38.8984895, "is_disabled": 0, "lon": -76.99034233333333, "is_reserved": 0}, {"name": "59c12e42479ff2f0ccae4cac8f3f0069", "fusion_lat": 0.0, "fusion_lon": 0.0, "bike_id": "59c12e42479ff2f0ccae4cac8f3f0069", "rental_uris": {"ios": "https://dc.lft.to/lastmile_qr_scan", "android": "https://dc.lft.to/lastmile_qr_scan"}, "type": "electric_scooter", "lat": 38.874575666666665, "is_disabled": 0, "lon": -77.0050545, "is_reserved": 0}, {"name": "6804fce38f90a4b88f9706b5360eb878", "fusion_lat": 0.0, "fusion_lon": 0.0, "bike_id": "6804fce38f90a4b88f9706b5360eb878", "rental_uris": {"ios": "https://dc.lft.to/lastmile_qr_scan", "android": "https://dc.lft.to/lastmile_qr_scan"}, "type": "electric_scooter", "lat": 38.927347, "is_disabled": 0, "lon": -77.05353816666667, "is_reserved": 0}, {"name": "ffcc6b80ab44c20ccc18ebbef553700d", "fusion_lat": 0.0, "fusion_lon": 0.0, "bike_id": "ffcc6b80ab44c20ccc18ebbef553700d", "rental_uris": {"ios": "https://dc.lft.to/lastmile_qr_scan", "android": "https://dc.lft.to/lastmile_qr_scan"}, "type": "electric_scooter", "lat": 38.91383866666666, "is_disabled": 0, "lon": -77.01703133333334, "is_reserved": 0}, {"name": "01e28ee3369e8c4d8f4815220126e909", "fusion_lat": 0.0, "fusion_lon": 0.0, "bike_id": "01e28ee3369e8c4d8f4815220126e909", "rental_uris": {"ios": "https://dc.lft.to/lastmile_qr_scan", "android": "https://dc.lft.to/lastmile_qr_scan"}, "type": "electric_scooter", "lat": 38.9071945, "is_disabled": 0, "lon": -77.03866733333334, "is_reserved": 0}, {"name": "f7215e0a23335203c428fe6496852c9a", "fusion_lat": 0.0, "fusion_lon": 0.0, "bike_id": "f7215e0a23335203c428fe6496852c9a", "rental_uris": {"ios": "https://dc.lft.to/lastmile_qr_scan", "android": "https://dc.lft.to/lastmile_qr_scan"}, "type": "electric_scooter", "lat": 38.90576183333334, "is_disabled": 0, "lon": -77.00889116666667, "is_reserved": 0}, {"name": "ef44b3c70e106e8376277b64415dbe00", "fusion_lat": 0.0, "fusion_lon": 0.0, "bike_id": "ef44b3c70e106e8376277b64415dbe00", "rental_uris": {"ios": "https://dc.lft.to/lastmile_qr_scan", "android": "https://dc.lft.to/lastmile_qr_scan"}, "type": "electric_scooter", "lat": 38.9181295, "is_disabled": 0, "lon": -77.0269105, "is_reserved": 0}, {"name": "97f83c14079a1e9920d1a299144deba7", "fusion_lat": 0.0, "fusion_lon": 0.0, "bike_id": "97f83c14079a1e9920d1a299144deba7", "rental_uris": {"ios": "https://dc.lft.to/lastmile_qr_scan", "android": "https://dc.lft.to/lastmile_qr_scan"}, "type": "electric_scooter", "lat": 38.914026666666665, "is_disabled": 0, "lon": -77.03217966666666, "is_reserved": 0}, {"name": "033f4debdc30a9b3b5eb7d9259fe596f", "fusion_lat": 0.0, "fusion_lon": 0.0, "bike_id": "033f4debdc30a9b3b5eb7d9259fe596f", "rental_uris": {"ios": "https://dc.lft.to/lastmile_qr_scan", "android": "https://dc.lft.to/lastmile_qr_scan"}, "type": "electric_scooter", "lat": 38.92579283333333, "is_disabled": 0, "lon": -77.03057666666666, "is_reserved": 0}, {"name": "82eb0a7161e195290f6a7a3d11f53b9c", "fusion_lat": 0.0, "fusion_lon": 0.0, "bike_id": "82eb0a7161e195290f6a7a3d11f53b9c", "rental_uris": {"ios": "https://dc.lft.to/lastmile_qr_scan", "android": "https://dc.lft.to/lastmile_qr_scan"}, "type": "electric_bike", "lat": 38.916754, "is_disabled": 0, "lon": -77.095763, "is_reserved": 0}, {"name": "d0bd5f8b3f18c29f3b24f13c8c2026ea", "fusion_lat": 0.0, "fusion_lon": 0.0, "bike_id": "d0bd5f8b3f18c29f3b24f13c8c2026ea", "rental_uris": {"ios": "https://dc.lft.to/lastmile_qr_scan", "android": "https://dc.lft.to/lastmile_qr_scan"}, "type": "electric_scooter", "lat": 38.9226395, "is_disabled": 0, "lon": -77.04220316666667, "is_reserved": 0}, {"name": "295074d466fb4cfd0c54bd58db8e67dd", "fusion_lat": 0.0, "fusion_lon": 0.0, "bike_id": "295074d466fb4cfd0c54bd58db8e67dd", "rental_uris": {"ios": "https://dc.lft.to/lastmile_qr_scan", "android": "https://dc.lft.to/lastmile_qr_scan"}, "type": "electric_bike", "lat": 38.865230333333336, "is_disabled": 0, "lon": -77.12827433333334, "is_reserved": 0}, {"name": "327f14985242f3375619031fce3bf772", "fusion_lat": 0.0, "fusion_lon": 0.0, "bike_id": "327f14985242f3375619031fce3bf772", "rental_uris": {"ios": "https://dc.lft.to/lastmile_qr_scan", "android": "https://dc.lft.to/lastmile_qr_scan"}, "type": "electric_scooter", "lat": 38.9083825, "is_disabled": 0, "lon": -77.02384483333333, "is_reserved": 0}, {"name": "f89ac77aa9b11d33a007729adf6e586b", "fusion_lat": 0.0, "fusion_lon": 0.0, "bike_id": "f89ac77aa9b11d33a007729adf6e586b", "rental_uris": {"ios": "https://dc.lft.to/lastmile_qr_scan", "android": "https://dc.lft.to/lastmile_qr_scan"}, "type": "electric_scooter", "lat": 38.9019535, "is_disabled": 0, "lon": -77.0549045, "is_reserved": 0}, {"name": "11ce24f740cfb993bb6f5795af7a6bd2", "fusion_lat": 0.0, "fusion_lon": 0.0, "bike_id": "11ce24f740cfb993bb6f5795af7a6bd2", "rental_uris": {"ios": "https://dc.lft.to/lastmile_qr_scan", "android": "https://dc.lft.to/lastmile_qr_scan"}, "type": "electric_scooter", "lat": 38.8635125, "is_disabled": 0, "lon": -76.990548, "is_reserved": 0}, {"name": "7ed107776ff6858796f45abe1458267a", "fusion_lat": 0.0, "fusion_lon": 0.0, "bike_id": "7ed107776ff6858796f45abe1458267a", "rental_uris": {"ios": "https://dc.lft.to/lastmile_qr_scan", "android": "https://dc.lft.to/lastmile_qr_scan"}, "type": "electric_bike", "lat": 38.824447666666664, "is_disabled": 0, "lon": -77.070477, "is_reserved": 0}, {"name": "80dfd565ddcc6cb309d9e48f0af36714", "fusion_lat": 0.0, "fusion_lon": 0.0, "bike_id": "80dfd565ddcc6cb309d9e48f0af36714", "rental_uris": {"ios": "https://dc.lft.to/lastmile_qr_scan", "android": "https://dc.lft.to/lastmile_qr_scan"}, "type": "electric_scooter", "lat": 38.92277283333333, "is_disabled": 0, "lon": -77.04475116666667, "is_reserved": 0}, {"name": "0697d8c0772921143e7f4fb5ef729418", "fusion_lat": 0.0, "fusion_lon": 0.0, "bike_id": "0697d8c0772921143e7f4fb5ef729418", "rental_uris": {"ios": "https://dc.lft.to/lastmile_qr_scan", "android": "https://dc.lft.to/lastmile_qr_scan"}, "type": "electric_bike", "lat": 38.892912333333335, "is_disabled": 0, "lon": -76.9761945, "is_reserved": 0}, {"name": "b5910fb27a2ce901c09e8a38da2b802c", "fusion_lat": 0.0, "fusion_lon": 0.0, "bike_id": "b5910fb27a2ce901c09e8a38da2b802c", "rental_uris": {"ios": "https://dc.lft.to/lastmile_qr_scan", "android": "https://dc.lft.to/lastmile_qr_scan"}, "type": "electric_scooter", "lat": 38.8828335, "is_disabled": 0, "lon": -76.99511683333333, "is_reserved": 0}, {"name": "011b65288a167f544bd55720b173b590", "fusion_lat": 0.0, "fusion_lon": 0.0, "bike_id": "011b65288a167f544bd55720b173b590", "rental_uris": {"ios": "https://dc.lft.to/lastmile_qr_scan", "android": "https://dc.lft.to/lastmile_qr_scan"}, "type": "electric_scooter", "lat": 38.91519666666667, "is_disabled": 0, "lon": -76.98340966666666, "is_reserved": 0}, {"name": "f0daf5b04d0b7ba646c4846e1c9fca0b", "fusion_lat": 0.0, "fusion_lon": 0.0, "bike_id": "f0daf5b04d0b7ba646c4846e1c9fca0b", "rental_uris": {"ios": "https://dc.lft.to/lastmile_qr_scan", "android": "https://dc.lft.to/lastmile_qr_scan"}, "type": "electric_scooter", "lat": 38.93651533333333, "is_disabled": 0, "lon": -77.0327905, "is_reserved": 0}, {"name": "ec9182796cc41baf1787fd97fe193f78", "fusion_lat": 0.0, "fusion_lon": 0.0, "bike_id": "ec9182796cc41baf1787fd97fe193f78", "rental_uris": {"ios": "https://dc.lft.to/lastmile_qr_scan", "android": "https://dc.lft.to/lastmile_qr_scan"}, "type": "electric_scooter", "lat": 38.911900833333334, "is_disabled": 0, "lon": -77.0027085, "is_reserved": 0}, {"name": "ba597b7acf3087db50c54b07576005f0", "fusion_lat": 0.0, "fusion_lon": 0.0, "bike_id": "ba597b7acf3087db50c54b07576005f0", "rental_uris": {"ios": "https://dc.lft.to/lastmile_qr_scan", "android": "https://dc.lft.to/lastmile_qr_scan"}, "type": "electric_scooter", "lat": 38.884500833333334, "is_disabled": 0, "lon": -76.95096983333333, "is_reserved": 0}, {"name": "d86008b466d1975dac16e4a42eec8752", "fusion_lat": 0.0, "fusion_lon": 0.0, "bike_id": "d86008b466d1975dac16e4a42eec8752", "rental_uris": {"ios": "https://dc.lft.to/lastmile_qr_scan", "android": "https://dc.lft.to/lastmile_qr_scan"}, "type": "electric_scooter", "lat": 38.90384816666667, "is_disabled": 0, "lon": -77.03480283333333, "is_reserved": 0}, {"name": "19d6af521667db5b6a22d773915a7563", "fusion_lat": 0.0, "fusion_lon": 0.0, "bike_id": "19d6af521667db5b6a22d773915a7563", "rental_uris": {"ios": "https://dc.lft.to/lastmile_qr_scan", "android": "https://dc.lft.to/lastmile_qr_scan"}, "type": "electric_scooter", "lat": 38.91392033333333, "is_disabled": 0, "lon": -77.03210366666667, "is_reserved": 0}, {"name": "c7da8a87fae880faab66bd69370d2f1f", "fusion_lat": 0.0, "fusion_lon": 0.0, "bike_id": "c7da8a87fae880faab66bd69370d2f1f", "rental_uris": {"ios": "https://dc.lft.to/lastmile_qr_scan", "android": "https://dc.lft.to/lastmile_qr_scan"}, "type": "electric_scooter", "lat": 38.934093, "is_disabled": 0, "lon": -77.042683, "is_reserved": 0}, {"name": "4cfa3a2406463a5b9894a218aa2d6a5a", "fusion_lat": 0.0, "fusion_lon": 0.0, "bike_id": "4cfa3a2406463a5b9894a218aa2d6a5a", "rental_uris": {"ios": "https://dc.lft.to/lastmile_qr_scan", "android": "https://dc.lft.to/lastmile_qr_scan"}, "type": "electric_scooter", "lat": 38.8716905, "is_disabled": 0, "lon": -77.00629033333334, "is_reserved": 0}, {"name": "790e0e76dad94deaa908ffbef94bdaa9", "fusion_lat": 0.0, "fusion_lon": 0.0, "bike_id": "790e0e76dad94deaa908ffbef94bdaa9", "rental_uris": {"ios": "https://dc.lft.to/lastmile_qr_scan", "android": "https://dc.lft.to/lastmile_qr_scan"}, "type": "electric_scooter", "lat": 38.907923833333335, "is_disabled": 0, "lon": -77.04986016666666, "is_reserved": 0}, {"name": "bdf044b515f3b1a918da53d68aec7a8d", "fusion_lat": 0.0, "fusion_lon": 0.0, "bike_id": "bdf044b515f3b1a918da53d68aec7a8d", "rental_uris": {"ios": "https://dc.lft.to/lastmile_qr_scan", "android": "https://dc.lft.to/lastmile_qr_scan"}, "type": "electric_scooter", "lat": 38.92092483333333, "is_disabled": 0, "lon": -77.02593783333333, "is_reserved": 0}, {"name": "0dde9cf3892e3c5bb72a419529756744", "fusion_lat": 0.0, "fusion_lon": 0.0, "bike_id": "0dde9cf3892e3c5bb72a419529756744", "rental_uris": {"ios": "https://dc.lft.to/lastmile_qr_scan", "android": "https://dc.lft.to/lastmile_qr_scan"}, "type": "electric_scooter", "lat": 38.91966016666667, "is_disabled": 0, "lon": -77.04177383333334, "is_reserved": 0}, {"name": "58f4f5f84dfe572cb5b6fd0103dd5cdb", "fusion_lat": 0.0, "fusion_lon": 0.0, "bike_id": "58f4f5f84dfe572cb5b6fd0103dd5cdb", "rental_uris": {"ios": "https://dc.lft.to/lastmile_qr_scan", "android": "https://dc.lft.to/lastmile_qr_scan"}, "type": "electric_bike", "lat": 38.9069095, "is_disabled": 0, "lon": -76.95189466666666, "is_reserved": 0}, {"name": "62860f440518ef7addb5ab48f09bf757", "fusion_lat": 0.0, "fusion_lon": 0.0, "bike_id": "62860f440518ef7addb5ab48f09bf757", "rental_uris": {"ios": "https://dc.lft.to/lastmile_qr_scan", "android": "https://dc.lft.to/lastmile_qr_scan"}, "type": "electric_scooter", "lat": 38.877126833333335, "is_disabled": 0, "lon": -77.01650016666666, "is_reserved": 0}, {"name": "36a9d94b9f150b11095dd1ce77bcab5c", "fusion_lat": 0.0, "fusion_lon": 0.0, "bike_id": "36a9d94b9f150b11095dd1ce77bcab5c", "rental_uris": {"ios": "https://dc.lft.to/lastmile_qr_scan", "android": "https://dc.lft.to/lastmile_qr_scan"}, "type": "electric_scooter", "lat": 38.9181605, "is_disabled": 0, "lon": -77.0319155, "is_reserved": 0}, {"name": "3d7f989220be8ec1514fc8ec8a224c94", "fusion_lat": 0.0, "fusion_lon": 0.0, "bike_id": "3d7f989220be8ec1514fc8ec8a224c94", "rental_uris": {"ios": "https://dc.lft.to/lastmile_qr_scan", "android": "https://dc.lft.to/lastmile_qr_scan"}, "type": "electric_scooter", "lat": 38.919835166666665, "is_disabled": 0, "lon": -76.9731795, "is_reserved": 0}, {"name": "df52b10545b084ee09edeaa3e5595958", "fusion_lat": 0.0, "fusion_lon": 0.0, "bike_id": "df52b10545b084ee09edeaa3e5595958", "rental_uris": {"ios": "https://dc.lft.to/lastmile_qr_scan", "android": "https://dc.lft.to/lastmile_qr_scan"}, "type": "electric_scooter", "lat": 38.91693566666667, "is_disabled": 0, "lon": -77.03395866666666, "is_reserved": 0}, {"name": "184b558a037e33289efb87b7eb77cbb5", "fusion_lat": 0.0, "fusion_lon": 0.0, "bike_id": "184b558a037e33289efb87b7eb77cbb5", "rental_uris": {"ios": "https://dc.lft.to/lastmile_qr_scan", "android": "https://dc.lft.to/lastmile_qr_scan"}, "type": "electric_scooter", "lat": 38.895345, "is_disabled": 0, "lon": -77.00344033333333, "is_reserved": 0}, {"name": "0897288dd4fd6bae04a01cc3d141192b", "fusion_lat": 0.0, "fusion_lon": 0.0, "bike_id": "0897288dd4fd6bae04a01cc3d141192b", "rental_uris": {"ios": "https://dc.lft.to/lastmile_qr_scan", "android": "https://dc.lft.to/lastmile_qr_scan"}, "type": "electric_scooter", "lat": 38.90156183333333, "is_disabled": 0, "lon": -77.02477083333333, "is_reserved": 0}, {"name": "7794d0f1941abec222c13cc320c11efb", "fusion_lat": 0.0, "fusion_lon": 0.0, "bike_id": "7794d0f1941abec222c13cc320c11efb", "rental_uris": {"ios": "https://dc.lft.to/lastmile_qr_scan", "android": "https://dc.lft.to/lastmile_qr_scan"}, "type": "electric_scooter", "lat": 38.922899666666666, "is_disabled": 0, "lon": -77.04203183333334, "is_reserved": 0}, {"name": "e2f57198440524ad3a0de7ea68a10f26", "fusion_lat": 0.0, "fusion_lon": 0.0, "bike_id": "e2f57198440524ad3a0de7ea68a10f26", "rental_uris": {"ios": "https://dc.lft.to/lastmile_qr_scan", "android": "https://dc.lft.to/lastmile_qr_scan"}, "type": "electric_scooter", "lat": 38.86709066666667, "is_disabled": 0, "lon": -76.98731116666667, "is_reserved": 0}, {"name": "cbc5a5a530feef133d62b117fc9caacf", "fusion_lat": 0.0, "fusion_lon": 0.0, "bike_id": "cbc5a5a530feef133d62b117fc9caacf", "rental_uris": {"ios": "https://dc.lft.to/lastmile_qr_scan", "android": "https://dc.lft.to/lastmile_qr_scan"}, "type": "electric_scooter", "lat": 38.90252616666667, "is_disabled": 0, "lon": -77.0217715, "is_reserved": 0}, {"name": "a288aec1e2cb1053df579191903366a6", "fusion_lat": 0.0, "fusion_lon": 0.0, "bike_id": "a288aec1e2cb1053df579191903366a6", "rental_uris": {"ios": "https://dc.lft.to/lastmile_qr_scan", "android": "https://dc.lft.to/lastmile_qr_scan"}, "type": "electric_scooter", "lat": 38.898666666666664, "is_disabled": 0, "lon": -77.04147783333333, "is_reserved": 0}, {"name": "824f6afdb0bb4aafcc7593aa038def1c", "fusion_lat": 0.0, "fusion_lon": 0.0, "bike_id": "824f6afdb0bb4aafcc7593aa038def1c", "rental_uris": {"ios": "https://dc.lft.to/lastmile_qr_scan", "android": "https://dc.lft.to/lastmile_qr_scan"}, "type": "electric_bike", "lat": 38.9105965, "is_disabled": 0, "lon": -77.05519066666666, "is_reserved": 0}, {"name": "9db61abb0cfa087fdcd99c424343026f", "fusion_lat": 0.0, "fusion_lon": 0.0, "bike_id": "9db61abb0cfa087fdcd99c424343026f", "rental_uris": {"ios": "https://dc.lft.to/lastmile_qr_scan", "android": "https://dc.lft.to/lastmile_qr_scan"}, "type": "electric_scooter", "lat": 38.905694833333335, "is_disabled": 0, "lon": -77.02371266666667, "is_reserved": 0}, {"name": "79093bfaea5d3de5904280a2241e2c9f", "fusion_lat": 0.0, "fusion_lon": 0.0, "bike_id": "79093bfaea5d3de5904280a2241e2c9f", "rental_uris": {"ios": "https://dc.lft.to/lastmile_qr_scan", "android": "https://dc.lft.to/lastmile_qr_scan"}, "type": "electric_scooter", "lat": 38.9173545, "is_disabled": 0, "lon": -77.036442, "is_reserved": 0}, {"name": "2faab74718c950db2fe9a699580e78d7", "fusion_lat": 0.0, "fusion_lon": 0.0, "bike_id": "2faab74718c950db2fe9a699580e78d7", "rental_uris": {"ios": "https://dc.lft.to/lastmile_qr_scan", "android": "https://dc.lft.to/lastmile_qr_scan"}, "type": "electric_scooter", "lat": 38.89833566666667, "is_disabled": 0, "lon": -77.00756133333333, "is_reserved": 0}, {"name": "96839526a5ea3a571ad4d334814bc3cb", "fusion_lat": 0.0, "fusion_lon": 0.0, "bike_id": "96839526a5ea3a571ad4d334814bc3cb", "rental_uris": {"ios": "https://dc.lft.to/lastmile_qr_scan", "android": "https://dc.lft.to/lastmile_qr_scan"}, "type": "electric_scooter", "lat": 38.89219033333333, "is_disabled": 0, "lon": -77.04190366666667, "is_reserved": 0}, {"name": "3cbd256a1ccb25c199f8409856621147", "fusion_lat": 0.0, "fusion_lon": 0.0, "bike_id": "3cbd256a1ccb25c199f8409856621147", "rental_uris": {"ios": "https://dc.lft.to/lastmile_qr_scan", "android": "https://dc.lft.to/lastmile_qr_scan"}, "type": "electric_scooter", "lat": 38.90022916666667, "is_disabled": 0, "lon": -77.03359466666667, "is_reserved": 0}, {"name": "c8d3c95e1f9d180f9c8f1ef4caf71769", "fusion_lat": 0.0, "fusion_lon": 0.0, "bike_id": "c8d3c95e1f9d180f9c8f1ef4caf71769", "rental_uris": {"ios": "https://dc.lft.to/lastmile_qr_scan", "android": "https://dc.lft.to/lastmile_qr_scan"}, "type": "electric_scooter", "lat": 38.896756833333335, "is_disabled": 0, "lon": -76.93536433333334, "is_reserved": 0}, {"name": "2b72f357e956444287daae63560611d4", "fusion_lat": 0.0, "fusion_lon": 0.0, "bike_id": "2b72f357e956444287daae63560611d4", "rental_uris": {"ios": "https://dc.lft.to/lastmile_qr_scan", "android": "https://dc.lft.to/lastmile_qr_scan"}, "type": "electric_scooter", "lat": 38.903676833333336, "is_disabled": 0, "lon": -77.05025116666667, "is_reserved": 0}, {"name": "76446ab16be77dcd5887817c0bc497a4", "fusion_lat": 0.0, "fusion_lon": 0.0, "bike_id": "76446ab16be77dcd5887817c0bc497a4", "rental_uris": {"ios": "https://dc.lft.to/lastmile_qr_scan", "android": "https://dc.lft.to/lastmile_qr_scan"}, "type": "electric_scooter", "lat": 38.92422883333333, "is_disabled": 0, "lon": -77.02014083333333, "is_reserved": 0}, {"name": "28d899e91f457032483300234da53d08", "fusion_lat": 0.0, "fusion_lon": 0.0, "bike_id": "28d899e91f457032483300234da53d08", "rental_uris": {"ios": "https://dc.lft.to/lastmile_qr_scan", "android": "https://dc.lft.to/lastmile_qr_scan"}, "type": "electric_scooter", "lat": 38.89789283333333, "is_disabled": 0, "lon": -77.03944183333333, "is_reserved": 0}, {"name": "f28366ae7792a9596d1a12fec386d2d7", "fusion_lat": 0.0, "fusion_lon": 0.0, "bike_id": "f28366ae7792a9596d1a12fec386d2d7", "rental_uris": {"ios": "https://dc.lft.to/lastmile_qr_scan", "android": "https://dc.lft.to/lastmile_qr_scan"}, "type": "electric_scooter", "lat": 38.942797666666664, "is_disabled": 0, "lon": -77.02939083333334, "is_reserved": 0}, {"name": "aeed9578cc5ad1efac5d9cc9859ad56a", "fusion_lat": 0.0, "fusion_lon": 0.0, "bike_id": "aeed9578cc5ad1efac5d9cc9859ad56a", "rental_uris": {"ios": "https://dc.lft.to/lastmile_qr_scan", "android": "https://dc.lft.to/lastmile_qr_scan"}, "type": "electric_scooter", "lat": 38.842896833333334, "is_disabled": 0, "lon": -76.99949516666666, "is_reserved": 0}, {"name": "4173f16bd22be9e13520b2d094a5f122", "fusion_lat": 0.0, "fusion_lon": 0.0, "bike_id": "4173f16bd22be9e13520b2d094a5f122", "rental_uris": {"ios": "https://dc.lft.to/lastmile_qr_scan", "android": "https://dc.lft.to/lastmile_qr_scan"}, "type": "electric_bike", "lat": 38.98559616666667, "is_disabled": 0, "lon": -76.98829716666667, "is_reserved": 0}, {"name": "c910d6c75172b50eae96c64ee79056d9", "fusion_lat": 0.0, "fusion_lon": 0.0, "bike_id": "c910d6c75172b50eae96c64ee79056d9", "rental_uris": {"ios": "https://dc.lft.to/lastmile_qr_scan", "android": "https://dc.lft.to/lastmile_qr_scan"}, "type": "electric_bike", "lat": 39.02998, "is_disabled": 0, "lon": -77.106543, "is_reserved": 0}, {"name": "48abc7ada13c08447f97f1a843080eb6", "fusion_lat": 0.0, "fusion_lon": 0.0, "bike_id": "48abc7ada13c08447f97f1a843080eb6", "rental_uris": {"ios": "https://dc.lft.to/lastmile_qr_scan", "android": "https://dc.lft.to/lastmile_qr_scan"}, "type": "electric_scooter", "lat": 38.900649666666666, "is_disabled": 0, "lon": -77.013312, "is_reserved": 0}, {"name": "0809000a3e48025b2d552610b0bde80f", "fusion_lat": 0.0, "fusion_lon": 0.0, "bike_id": "0809000a3e48025b2d552610b0bde80f", "rental_uris": {"ios": "https://dc.lft.to/lastmile_qr_scan", "android": "https://dc.lft.to/lastmile_qr_scan"}, "type": "electric_scooter", "lat": 38.89842766666666, "is_disabled": 0, "lon": -77.03920616666667, "is_reserved": 0}, {"name": "f03f8f976a84d7f155031127d03977a9", "fusion_lat": 0.0, "fusion_lon": 0.0, "bike_id": "f03f8f976a84d7f155031127d03977a9", "rental_uris": {"ios": "https://dc.lft.to/lastmile_qr_scan", "android": "https://dc.lft.to/lastmile_qr_scan"}, "type": "electric_scooter", "lat": 38.922320166666665, "is_disabled": 0, "lon": -77.03353616666666, "is_reserved": 0}, {"name": "eebfb85313b18e3174394ca9c31a9d93", "fusion_lat": 0.0, "fusion_lon": 0.0, "bike_id": "eebfb85313b18e3174394ca9c31a9d93", "rental_uris": {"ios": "https://dc.lft.to/lastmile_qr_scan", "android": "https://dc.lft.to/lastmile_qr_scan"}, "type": "electric_scooter", "lat": 38.93295216666667, "is_disabled": 0, "lon": -77.0284885, "is_reserved": 0}, {"name": "8f187881bc455a36e89af3d5ec8939d0", "fusion_lat": 0.0, "fusion_lon": 0.0, "bike_id": "8f187881bc455a36e89af3d5ec8939d0", "rental_uris": {"ios": "https://dc.lft.to/lastmile_qr_scan", "android": "https://dc.lft.to/lastmile_qr_scan"}, "type": "electric_scooter", "lat": 38.905242, "is_disabled": 0, "lon": -77.05084166666667, "is_reserved": 0}, {"name": "3900e0fb4fe7f9b2a3978ceb438b1ac0", "fusion_lat": 0.0, "fusion_lon": 0.0, "bike_id": "3900e0fb4fe7f9b2a3978ceb438b1ac0", "rental_uris": {"ios": "https://dc.lft.to/lastmile_qr_scan", "android": "https://dc.lft.to/lastmile_qr_scan"}, "type": "electric_scooter", "lat": 38.91672466666667, "is_disabled": 0, "lon": -76.9807095, "is_reserved": 0}, {"name": "77a348c64aa1d8bc1ea83d997ad0e615", "fusion_lat": 0.0, "fusion_lon": 0.0, "bike_id": "77a348c64aa1d8bc1ea83d997ad0e615", "rental_uris": {"ios": "https://dc.lft.to/lastmile_qr_scan", "android": "https://dc.lft.to/lastmile_qr_scan"}, "type": "electric_scooter", "lat": 38.9086875, "is_disabled": 0, "lon": -77.04330616666667, "is_reserved": 0}, {"name": "91add0c7bc43d973551b3099d516c75c", "fusion_lat": 0.0, "fusion_lon": 0.0, "bike_id": "91add0c7bc43d973551b3099d516c75c", "rental_uris": {"ios": "https://dc.lft.to/lastmile_qr_scan", "android": "https://dc.lft.to/lastmile_qr_scan"}, "type": "electric_scooter", "lat": 38.91501683333333, "is_disabled": 0, "lon": -77.01850066666667, "is_reserved": 0}, {"name": "839384731b220a36b503ef87845750db", "fusion_lat": 0.0, "fusion_lon": 0.0, "bike_id": "839384731b220a36b503ef87845750db", "rental_uris": {"ios": "https://dc.lft.to/lastmile_qr_scan", "android": "https://dc.lft.to/lastmile_qr_scan"}, "type": "electric_scooter", "lat": 38.89742833333333, "is_disabled": 0, "lon": -77.0469785, "is_reserved": 0}, {"name": "37c907da0da6b6d63a0c9a7186cceb1f", "fusion_lat": 0.0, "fusion_lon": 0.0, "bike_id": "37c907da0da6b6d63a0c9a7186cceb1f", "rental_uris": {"ios": "https://dc.lft.to/lastmile_qr_scan", "android": "https://dc.lft.to/lastmile_qr_scan"}, "type": "electric_scooter", "lat": 38.903603, "is_disabled": 0, "lon": -77.06272733333333, "is_reserved": 0}, {"name": "c996d2561c8aa2e566d3986f2818fee5", "fusion_lat": 0.0, "fusion_lon": 0.0, "bike_id": "c996d2561c8aa2e566d3986f2818fee5", "rental_uris": {"ios": "https://dc.lft.to/lastmile_qr_scan", "android": "https://dc.lft.to/lastmile_qr_scan"}, "type": "electric_scooter", "lat": 38.90834866666667, "is_disabled": 0, "lon": -76.99694466666666, "is_reserved": 0}, {"name": "fc1bbb1977e425b39ae42972b9f71b57", "fusion_lat": 0.0, "fusion_lon": 0.0, "bike_id": "fc1bbb1977e425b39ae42972b9f71b57", "rental_uris": {"ios": "https://dc.lft.to/lastmile_qr_scan", "android": "https://dc.lft.to/lastmile_qr_scan"}, "type": "electric_scooter", "lat": 38.901348166666665, "is_disabled": 0, "lon": -77.01788883333333, "is_reserved": 0}, {"name": "6142b5d92523b249999a0f4948d6a8c8", "fusion_lat": 0.0, "fusion_lon": 0.0, "bike_id": "6142b5d92523b249999a0f4948d6a8c8", "rental_uris": {"ios": "https://dc.lft.to/lastmile_qr_scan", "android": "https://dc.lft.to/lastmile_qr_scan"}, "type": "electric_scooter", "lat": 38.90529183333334, "is_disabled": 0, "lon": -77.00584866666667, "is_reserved": 0}, {"name": "7dd1d67ad6d6c128ae68ae5ee6ca0c3f", "fusion_lat": 0.0, "fusion_lon": 0.0, "bike_id": "7dd1d67ad6d6c128ae68ae5ee6ca0c3f", "rental_uris": {"ios": "https://dc.lft.to/lastmile_qr_scan", "android": "https://dc.lft.to/lastmile_qr_scan"}, "type": "electric_scooter", "lat": 38.905011, "is_disabled": 0, "lon": -76.99528066666667, "is_reserved": 0}, {"name": "9046082c6a129f8928581ca36d84be89", "fusion_lat": 0.0, "fusion_lon": 0.0, "bike_id": "9046082c6a129f8928581ca36d84be89", "rental_uris": {"ios": "https://dc.lft.to/lastmile_qr_scan", "android": "https://dc.lft.to/lastmile_qr_scan"}, "type": "electric_scooter", "lat": 38.89622466666667, "is_disabled": 0, "lon": -77.02810266666667, "is_reserved": 0}, {"name": "99cfc56732b200747849cfc5a029c0be", "fusion_lat": 0.0, "fusion_lon": 0.0, "bike_id": "99cfc56732b200747849cfc5a029c0be", "rental_uris": {"ios": "https://dc.lft.to/lastmile_qr_scan", "android": "https://dc.lft.to/lastmile_qr_scan"}, "type": "electric_scooter", "lat": 38.911241, "is_disabled": 0, "lon": -77.04096466666667, "is_reserved": 0}, {"name": "2b93a84bdf070f962bf23c8012e81ce6", "fusion_lat": 0.0, "fusion_lon": 0.0, "bike_id": "2b93a84bdf070f962bf23c8012e81ce6", "rental_uris": {"ios": "https://dc.lft.to/lastmile_qr_scan", "android": "https://dc.lft.to/lastmile_qr_scan"}, "type": "electric_scooter", "lat": 38.90606066666667, "is_disabled": 0, "lon": -77.03954016666667, "is_reserved": 0}, {"name": "7b59f27432e936a98173c8b3fe94974c", "fusion_lat": 0.0, "fusion_lon": 0.0, "bike_id": "7b59f27432e936a98173c8b3fe94974c", "rental_uris": {"ios": "https://dc.lft.to/lastmile_qr_scan", "android": "https://dc.lft.to/lastmile_qr_scan"}, "type": "electric_scooter", "lat": 38.862101, "is_disabled": 0, "lon": -76.99475216666667, "is_reserved": 0}, {"name": "b673810e153844e9e3ace7f8231ad6d0", "fusion_lat": 0.0, "fusion_lon": 0.0, "bike_id": "b673810e153844e9e3ace7f8231ad6d0", "rental_uris": {"ios": "https://dc.lft.to/lastmile_qr_scan", "android": "https://dc.lft.to/lastmile_qr_scan"}, "type": "electric_scooter", "lat": 38.90547933333333, "is_disabled": 0, "lon": -77.04002116666666, "is_reserved": 0}, {"name": "395e6615e530fe548eba2109e59e4ee4", "fusion_lat": 0.0, "fusion_lon": 0.0, "bike_id": "395e6615e530fe548eba2109e59e4ee4", "rental_uris": {"ios": "https://dc.lft.to/lastmile_qr_scan", "android": "https://dc.lft.to/lastmile_qr_scan"}, "type": "electric_scooter", "lat": 38.92469883333333, "is_disabled": 0, "lon": -77.02988833333333, "is_reserved": 0}, {"name": "545444d7e6a50a9708795b3ffcd3d344", "fusion_lat": 0.0, "fusion_lon": 0.0, "bike_id": "545444d7e6a50a9708795b3ffcd3d344", "rental_uris": {"ios": "https://dc.lft.to/lastmile_qr_scan", "android": "https://dc.lft.to/lastmile_qr_scan"}, "type": "electric_scooter", "lat": 38.887115666666666, "is_disabled": 0, "lon": -77.01384666666667, "is_reserved": 0}, {"name": "4c7fe69a4740fe9388fbd93bf6f8ccb0", "fusion_lat": 0.0, "fusion_lon": 0.0, "bike_id": "4c7fe69a4740fe9388fbd93bf6f8ccb0", "rental_uris": {"ios": "https://dc.lft.to/lastmile_qr_scan", "android": "https://dc.lft.to/lastmile_qr_scan"}, "type": "electric_scooter", "lat": 38.91684216666667, "is_disabled": 0, "lon": -77.02802116666666, "is_reserved": 0}, {"name": "be7d413041917d903b4de7ed4befde9f", "fusion_lat": 0.0, "fusion_lon": 0.0, "bike_id": "be7d413041917d903b4de7ed4befde9f", "rental_uris": {"ios": "https://dc.lft.to/lastmile_qr_scan", "android": "https://dc.lft.to/lastmile_qr_scan"}, "type": "electric_scooter", "lat": 38.9195475, "is_disabled": 0, "lon": -77.02490366666666, "is_reserved": 0}, {"name": "c5035c8fc828a43ed05df9a7e75618f6", "fusion_lat": 0.0, "fusion_lon": 0.0, "bike_id": "c5035c8fc828a43ed05df9a7e75618f6", "rental_uris": {"ios": "https://dc.lft.to/lastmile_qr_scan", "android": "https://dc.lft.to/lastmile_qr_scan"}, "type": "electric_scooter", "lat": 38.92049316666667, "is_disabled": 0, "lon": -77.02612916666666, "is_reserved": 0}, {"name": "cba94c496597e4975ac9db8f8117c444", "fusion_lat": 0.0, "fusion_lon": 0.0, "bike_id": "cba94c496597e4975ac9db8f8117c444", "rental_uris": {"ios": "https://dc.lft.to/lastmile_qr_scan", "android": "https://dc.lft.to/lastmile_qr_scan"}, "type": "electric_bike", "lat": 38.845122333333336, "is_disabled": 0, "lon": -77.07799366666667, "is_reserved": 0}, {"name": "3ebca59bc06bf12d68928bca7198eff4", "fusion_lat": 0.0, "fusion_lon": 0.0, "bike_id": "3ebca59bc06bf12d68928bca7198eff4", "rental_uris": {"ios": "https://dc.lft.to/lastmile_qr_scan", "android": "https://dc.lft.to/lastmile_qr_scan"}, "type": "electric_scooter", "lat": 38.87629, "is_disabled": 0, "lon": -76.96528316666667, "is_reserved": 0}, {"name": "2cfc1f0f35096905797670dc1e53d19b", "fusion_lat": 0.0, "fusion_lon": 0.0, "bike_id": "2cfc1f0f35096905797670dc1e53d19b", "rental_uris": {"ios": "https://dc.lft.to/lastmile_qr_scan", "android": "https://dc.lft.to/lastmile_qr_scan"}, "type": "electric_scooter", "lat": 38.895517166666664, "is_disabled": 0, "lon": -77.00918283333333, "is_reserved": 0}, {"name": "41dc2b64fc001fb2501bd38fc1313ce5", "fusion_lat": 0.0, "fusion_lon": 0.0, "bike_id": "41dc2b64fc001fb2501bd38fc1313ce5", "rental_uris": {"ios": "https://dc.lft.to/lastmile_qr_scan", "android": "https://dc.lft.to/lastmile_qr_scan"}, "type": "electric_scooter", "lat": 38.917419, "is_disabled": 0, "lon": -77.03660933333333, "is_reserved": 0}, {"name": "c70706599210059204c1428e3c758a59", "fusion_lat": 0.0, "fusion_lon": 0.0, "bike_id": "c70706599210059204c1428e3c758a59", "rental_uris": {"ios": "https://dc.lft.to/lastmile_qr_scan", "android": "https://dc.lft.to/lastmile_qr_scan"}, "type": "electric_scooter", "lat": 38.89260683333333, "is_disabled": 0, "lon": -76.94157683333333, "is_reserved": 0}, {"name": "5c282e09fac8dd1c813f260d5916635c", "fusion_lat": 0.0, "fusion_lon": 0.0, "bike_id": "5c282e09fac8dd1c813f260d5916635c", "rental_uris": {"ios": "https://dc.lft.to/lastmile_qr_scan", "android": "https://dc.lft.to/lastmile_qr_scan"}, "type": "electric_scooter", "lat": 38.8650345, "is_disabled": 0, "lon": -76.990023, "is_reserved": 0}, {"name": "1561ad7de6afecd7a147d7ba10a96fda", "fusion_lat": 0.0, "fusion_lon": 0.0, "bike_id": "1561ad7de6afecd7a147d7ba10a96fda", "rental_uris": {"ios": "https://dc.lft.to/lastmile_qr_scan", "android": "https://dc.lft.to/lastmile_qr_scan"}, "type": "electric_scooter", "lat": 38.924786, "is_disabled": 0, "lon": -77.0272455, "is_reserved": 0}, {"name": "72205736d8778a906a66976b0061e363", "fusion_lat": 0.0, "fusion_lon": 0.0, "bike_id": "72205736d8778a906a66976b0061e363", "rental_uris": {"ios": "https://dc.lft.to/lastmile_qr_scan", "android": "https://dc.lft.to/lastmile_qr_scan"}, "type": "electric_scooter", "lat": 38.939571666666666, "is_disabled": 0, "lon": -77.02775766666667, "is_reserved": 0}, {"name": "0fb3630c53af7cfb1e66af4e914f3544", "fusion_lat": 0.0, "fusion_lon": 0.0, "bike_id": "0fb3630c53af7cfb1e66af4e914f3544", "rental_uris": {"ios": "https://dc.lft.to/lastmile_qr_scan", "android": "https://dc.lft.to/lastmile_qr_scan"}, "type": "electric_scooter", "lat": 38.90236066666667, "is_disabled": 0, "lon": -77.029462, "is_reserved": 0}, {"name": "2ffd119c3381fd1c3c6a4e19e97c70ec", "fusion_lat": 0.0, "fusion_lon": 0.0, "bike_id": "2ffd119c3381fd1c3c6a4e19e97c70ec", "rental_uris": {"ios": "https://dc.lft.to/lastmile_qr_scan", "android": "https://dc.lft.to/lastmile_qr_scan"}, "type": "electric_scooter", "lat": 38.922375, "is_disabled": 0, "lon": -77.02851966666667, "is_reserved": 0}, {"name": "8f6be3d97da18b04c073baa93f5b2276", "fusion_lat": 0.0, "fusion_lon": 0.0, "bike_id": "8f6be3d97da18b04c073baa93f5b2276", "rental_uris": {"ios": "https://dc.lft.to/lastmile_qr_scan", "android": "https://dc.lft.to/lastmile_qr_scan"}, "type": "electric_scooter", "lat": 38.886394, "is_disabled": 0, "lon": -77.02253333333333, "is_reserved": 0}, {"name": "0a5228e88659ccf531659f27fb7ae37f", "fusion_lat": 0.0, "fusion_lon": 0.0, "bike_id": "0a5228e88659ccf531659f27fb7ae37f", "rental_uris": {"ios": "https://dc.lft.to/lastmile_qr_scan", "android": "https://dc.lft.to/lastmile_qr_scan"}, "type": "electric_scooter", "lat": 38.89907083333333, "is_disabled": 0, "lon": -76.93374783333333, "is_reserved": 0}, {"name": "282cc4f374b43ae6a5a922276613b9ea", "fusion_lat": 0.0, "fusion_lon": 0.0, "bike_id": "282cc4f374b43ae6a5a922276613b9ea", "rental_uris": {"ios": "https://dc.lft.to/lastmile_qr_scan", "android": "https://dc.lft.to/lastmile_qr_scan"}, "type": "electric_bike", "lat": 38.9661695, "is_disabled": 0, "lon": -77.0342615, "is_reserved": 0}, {"name": "8b90ed66a1b74d1593d4411eca116d23", "fusion_lat": 0.0, "fusion_lon": 0.0, "bike_id": "8b90ed66a1b74d1593d4411eca116d23", "rental_uris": {"ios": "https://dc.lft.to/lastmile_qr_scan", "android": "https://dc.lft.to/lastmile_qr_scan"}, "type": "electric_scooter", "lat": 38.916954833333335, "is_disabled": 0, "lon": -77.03596966666667, "is_reserved": 0}, {"name": "f232919b1aff646184771fa263593c87", "fusion_lat": 0.0, "fusion_lon": 0.0, "bike_id": "f232919b1aff646184771fa263593c87", "rental_uris": {"ios": "https://dc.lft.to/lastmile_qr_scan", "android": "https://dc.lft.to/lastmile_qr_scan"}, "type": "electric_scooter", "lat": 38.91481066666667, "is_disabled": 0, "lon": -77.03236266666667, "is_reserved": 0}, {"name": "7767f7eda71e2a910e6d450fcd085598", "fusion_lat": 0.0, "fusion_lon": 0.0, "bike_id": "7767f7eda71e2a910e6d450fcd085598", "rental_uris": {"ios": "https://dc.lft.to/lastmile_qr_scan", "android": "https://dc.lft.to/lastmile_qr_scan"}, "type": "electric_scooter", "lat": 38.895739666666664, "is_disabled": 0, "lon": -77.02315033333333, "is_reserved": 0}, {"name": "c8fc98fbdd58cac2fb742fc4c18aab94", "fusion_lat": 0.0, "fusion_lon": 0.0, "bike_id": "c8fc98fbdd58cac2fb742fc4c18aab94", "rental_uris": {"ios": "https://dc.lft.to/lastmile_qr_scan", "android": "https://dc.lft.to/lastmile_qr_scan"}, "type": "electric_scooter", "lat": 38.935279333333334, "is_disabled": 0, "lon": -77.03260866666666, "is_reserved": 0}, {"name": "26879ba3adc7c3e80d32727a3529d2c2", "fusion_lat": 0.0, "fusion_lon": 0.0, "bike_id": "26879ba3adc7c3e80d32727a3529d2c2", "rental_uris": {"ios": "https://dc.lft.to/lastmile_qr_scan", "android": "https://dc.lft.to/lastmile_qr_scan"}, "type": "electric_scooter", "lat": 38.884980166666665, "is_disabled": 0, "lon": -77.00895833333334, "is_reserved": 0}, {"name": "475827ebb5700e0b6692b74cd12422b3", "fusion_lat": 0.0, "fusion_lon": 0.0, "bike_id": "475827ebb5700e0b6692b74cd12422b3", "rental_uris": {"ios": "https://dc.lft.to/lastmile_qr_scan", "android": "https://dc.lft.to/lastmile_qr_scan"}, "type": "electric_scooter", "lat": 38.9126995, "is_disabled": 0, "lon": -77.04155466666667, "is_reserved": 0}, {"name": "c64b82523078e4b88e61743615961785", "fusion_lat": 0.0, "fusion_lon": 0.0, "bike_id": "c64b82523078e4b88e61743615961785", "rental_uris": {"ios": "https://dc.lft.to/lastmile_qr_scan", "android": "https://dc.lft.to/lastmile_qr_scan"}, "type": "electric_scooter", "lat": 38.935515, "is_disabled": 0, "lon": -77.05817366666666, "is_reserved": 0}, {"name": "0793aff305b08f436a201fa7bb4f8e02", "fusion_lat": 0.0, "fusion_lon": 0.0, "bike_id": "0793aff305b08f436a201fa7bb4f8e02", "rental_uris": {"ios": "https://dc.lft.to/lastmile_qr_scan", "android": "https://dc.lft.to/lastmile_qr_scan"}, "type": "electric_bike", "lat": 38.904856833333334, "is_disabled": 0, "lon": -77.00727466666666, "is_reserved": 0}, {"name": "7dc7f3e1b6679b5a1c9e613766faf542", "fusion_lat": 0.0, "fusion_lon": 0.0, "bike_id": "7dc7f3e1b6679b5a1c9e613766faf542", "rental_uris": {"ios": "https://dc.lft.to/lastmile_qr_scan", "android": "https://dc.lft.to/lastmile_qr_scan"}, "type": "electric_scooter", "lat": 38.91769383333333, "is_disabled": 0, "lon": -77.04567266666666, "is_reserved": 0}, {"name": "55bb31478a8f25297719f5b86078948d", "fusion_lat": 0.0, "fusion_lon": 0.0, "bike_id": "55bb31478a8f25297719f5b86078948d", "rental_uris": {"ios": "https://dc.lft.to/lastmile_qr_scan", "android": "https://dc.lft.to/lastmile_qr_scan"}, "type": "electric_scooter", "lat": 38.90614566666667, "is_disabled": 0, "lon": -77.041571, "is_reserved": 0}, {"name": "eed65d2e6661819950ec58fafadfde12", "fusion_lat": 0.0, "fusion_lon": 0.0, "bike_id": "eed65d2e6661819950ec58fafadfde12", "rental_uris": {"ios": "https://dc.lft.to/lastmile_qr_scan", "android": "https://dc.lft.to/lastmile_qr_scan"}, "type": "electric_scooter", "lat": 38.92422916666666, "is_disabled": 0, "lon": -77.04482016666667, "is_reserved": 0}, {"name": "2fec25e7599e251d81ed32736d06e4a2", "fusion_lat": 0.0, "fusion_lon": 0.0, "bike_id": "2fec25e7599e251d81ed32736d06e4a2", "rental_uris": {"ios": "https://dc.lft.to/lastmile_qr_scan", "android": "https://dc.lft.to/lastmile_qr_scan"}, "type": "electric_bike", "lat": 38.992518833333335, "is_disabled": 0, "lon": -77.04998116666667, "is_reserved": 0}, {"name": "73799b4ee46f3e4420bdce51744a63bc", "fusion_lat": 0.0, "fusion_lon": 0.0, "bike_id": "73799b4ee46f3e4420bdce51744a63bc", "rental_uris": {"ios": "https://dc.lft.to/lastmile_qr_scan", "android": "https://dc.lft.to/lastmile_qr_scan"}, "type": "electric_bike", "lat": 38.96200433333333, "is_disabled": 0, "lon": -77.07407633333334, "is_reserved": 0}, {"name": "f66543885d1435a4d301494bc203ce4a", "fusion_lat": 0.0, "fusion_lon": 0.0, "bike_id": "f66543885d1435a4d301494bc203ce4a", "rental_uris": {"ios": "https://dc.lft.to/lastmile_qr_scan", "android": "https://dc.lft.to/lastmile_qr_scan"}, "type": "electric_bike", "lat": 38.9980845, "is_disabled": 0, "lon": -77.02896633333333, "is_reserved": 0}, {"name": "bc246786312d6767555f873216094ca4", "fusion_lat": 0.0, "fusion_lon": 0.0, "bike_id": "bc246786312d6767555f873216094ca4", "rental_uris": {"ios": "https://dc.lft.to/lastmile_qr_scan", "android": "https://dc.lft.to/lastmile_qr_scan"}, "type": "electric_bike", "lat": 38.86856366666667, "is_disabled": 0, "lon": -76.91655783333333, "is_reserved": 0}, {"name": "aad33175d330971fa6a531e3f7ec806c", "fusion_lat": 0.0, "fusion_lon": 0.0, "bike_id": "aad33175d330971fa6a531e3f7ec806c", "rental_uris": {"ios": "https://dc.lft.to/lastmile_qr_scan", "android": "https://dc.lft.to/lastmile_qr_scan"}, "type": "electric_bike", "lat": 38.93190383333334, "is_disabled": 0, "lon": -77.22936416666667, "is_reserved": 0}, {"name": "86ffcfc8a93c2df0fa3b6a0ff94ff7d4", "fusion_lat": 0.0, "fusion_lon": 0.0, "bike_id": "86ffcfc8a93c2df0fa3b6a0ff94ff7d4", "rental_uris": {"ios": "https://dc.lft.to/lastmile_qr_scan", "android": "https://dc.lft.to/lastmile_qr_scan"}, "type": "electric_scooter", "lat": 38.897869166666666, "is_disabled": 0, "lon": -77.00744566666667, "is_reserved": 0}, {"name": "70264f27950c61804c50b8b8e576285e", "fusion_lat": 0.0, "fusion_lon": 0.0, "bike_id": "70264f27950c61804c50b8b8e576285e", "rental_uris": {"ios": "https://dc.lft.to/lastmile_qr_scan", "android": "https://dc.lft.to/lastmile_qr_scan"}, "type": "electric_scooter", "lat": 38.91747083333333, "is_disabled": 0, "lon": -77.02492, "is_reserved": 0}, {"name": "8381b6ec424edf598ff60e0a0306c471", "fusion_lat": 0.0, "fusion_lon": 0.0, "bike_id": "8381b6ec424edf598ff60e0a0306c471", "rental_uris": {"ios": "https://dc.lft.to/lastmile_qr_scan", "android": "https://dc.lft.to/lastmile_qr_scan"}, "type": "electric_scooter", "lat": 38.90966816666667, "is_disabled": 0, "lon": -77.02181933333334, "is_reserved": 0}, {"name": "eb7df7d3f0da255ba74df884c66bd255", "fusion_lat": 0.0, "fusion_lon": 0.0, "bike_id": "eb7df7d3f0da255ba74df884c66bd255", "rental_uris": {"ios": "https://dc.lft.to/lastmile_qr_scan", "android": "https://dc.lft.to/lastmile_qr_scan"}, "type": "electric_scooter", "lat": 38.901036833333336, "is_disabled": 0, "lon": -77.03199433333333, "is_reserved": 0}, {"name": "62b47bcb4642d86b849965541b31b814", "fusion_lat": 0.0, "fusion_lon": 0.0, "bike_id": "62b47bcb4642d86b849965541b31b814", "rental_uris": {"ios": "https://dc.lft.to/lastmile_qr_scan", "android": "https://dc.lft.to/lastmile_qr_scan"}, "type": "electric_scooter", "lat": 38.88504433333333, "is_disabled": 0, "lon": -77.00566566666667, "is_reserved": 0}, {"name": "06febe556552c52756d6b48f034b24f3", "fusion_lat": 0.0, "fusion_lon": 0.0, "bike_id": "06febe556552c52756d6b48f034b24f3", "rental_uris": {"ios": "https://dc.lft.to/lastmile_qr_scan", "android": "https://dc.lft.to/lastmile_qr_scan"}, "type": "electric_scooter", "lat": 38.914213333333336, "is_disabled": 0, "lon": -77.03901433333333, "is_reserved": 0}, {"name": "d8efe03c03ad8e4434f93781a30a6418", "fusion_lat": 0.0, "fusion_lon": 0.0, "bike_id": "d8efe03c03ad8e4434f93781a30a6418", "rental_uris": {"ios": "https://dc.lft.to/lastmile_qr_scan", "android": "https://dc.lft.to/lastmile_qr_scan"}, "type": "electric_scooter", "lat": 38.899308, "is_disabled": 0, "lon": -77.02924983333334, "is_reserved": 0}, {"name": "19b9e31031aaf529648fae3539292f7a", "fusion_lat": 0.0, "fusion_lon": 0.0, "bike_id": "19b9e31031aaf529648fae3539292f7a", "rental_uris": {"ios": "https://dc.lft.to/lastmile_qr_scan", "android": "https://dc.lft.to/lastmile_qr_scan"}, "type": "electric_scooter", "lat": 38.903784, "is_disabled": 0, "lon": -77.01792183333333, "is_reserved": 0}, {"name": "adfbaf072d094b19d25672ab6d14d8d8", "fusion_lat": 0.0, "fusion_lon": 0.0, "bike_id": "adfbaf072d094b19d25672ab6d14d8d8", "rental_uris": {"ios": "https://dc.lft.to/lastmile_qr_scan", "android": "https://dc.lft.to/lastmile_qr_scan"}, "type": "electric_scooter", "lat": 38.927126666666666, "is_disabled": 0, "lon": -77.04197983333333, "is_reserved": 0}, {"name": "410bfa5be44a4f3cee9b006c71c7502c", "fusion_lat": 0.0, "fusion_lon": 0.0, "bike_id": "410bfa5be44a4f3cee9b006c71c7502c", "rental_uris": {"ios": "https://dc.lft.to/lastmile_qr_scan", "android": "https://dc.lft.to/lastmile_qr_scan"}, "type": "electric_bike", "lat": 38.9551845, "is_disabled": 0, "lon": -76.99987833333333, "is_reserved": 0}, {"name": "d8516a3b53a339fbc52d27ab9a66a284", "fusion_lat": 0.0, "fusion_lon": 0.0, "bike_id": "d8516a3b53a339fbc52d27ab9a66a284", "rental_uris": {"ios": "https://dc.lft.to/lastmile_qr_scan", "android": "https://dc.lft.to/lastmile_qr_scan"}, "type": "electric_bike", "lat": 38.869055333333336, "is_disabled": 0, "lon": -77.13179166666667, "is_reserved": 0}, {"name": "1fd48866b2b5af49718abb9a15e209c4", "fusion_lat": 0.0, "fusion_lon": 0.0, "bike_id": "1fd48866b2b5af49718abb9a15e209c4", "rental_uris": {"ios": "https://dc.lft.to/lastmile_qr_scan", "android": "https://dc.lft.to/lastmile_qr_scan"}, "type": "electric_bike", "lat": 38.919766833333334, "is_disabled": 0, "lon": -76.97311816666667, "is_reserved": 0}, {"name": "67f44302e39887172c810a2d4f33c6cf", "fusion_lat": 0.0, "fusion_lon": 0.0, "bike_id": "67f44302e39887172c810a2d4f33c6cf", "rental_uris": {"ios": "https://dc.lft.to/lastmile_qr_scan", "android": "https://dc.lft.to/lastmile_qr_scan"}, "type": "electric_bike", "lat": 38.867312, "is_disabled": 0, "lon": -76.989471, "is_reserved": 0}, {"name": "6a8b61be210d6f8080833e52997ea82b", "fusion_lat": 0.0, "fusion_lon": 0.0, "bike_id": "6a8b61be210d6f8080833e52997ea82b", "rental_uris": {"ios": "https://dc.lft.to/lastmile_qr_scan", "android": "https://dc.lft.to/lastmile_qr_scan"}, "type": "electric_scooter", "lat": 38.9072745, "is_disabled": 0, "lon": -77.01132416666667, "is_reserved": 0}, {"name": "91ab87f58a92ad5207c1119e20093f1a", "fusion_lat": 0.0, "fusion_lon": 0.0, "bike_id": "91ab87f58a92ad5207c1119e20093f1a", "rental_uris": {"ios": "https://dc.lft.to/lastmile_qr_scan", "android": "https://dc.lft.to/lastmile_qr_scan"}, "type": "electric_scooter", "lat": 38.905669333333336, "is_disabled": 0, "lon": -77.02215083333333, "is_reserved": 0}, {"name": "5b50d4db914376f372d5ab0115dbeb4d", "fusion_lat": 0.0, "fusion_lon": 0.0, "bike_id": "5b50d4db914376f372d5ab0115dbeb4d", "rental_uris": {"ios": "https://dc.lft.to/lastmile_qr_scan", "android": "https://dc.lft.to/lastmile_qr_scan"}, "type": "electric_scooter", "lat": 38.884953333333335, "is_disabled": 0, "lon": -77.02081916666667, "is_reserved": 0}, {"name": "304aec7f4afb40a9686f715cbaf9b87d", "fusion_lat": 0.0, "fusion_lon": 0.0, "bike_id": "304aec7f4afb40a9686f715cbaf9b87d", "rental_uris": {"ios": "https://dc.lft.to/lastmile_qr_scan", "android": "https://dc.lft.to/lastmile_qr_scan"}, "type": "electric_bike", "lat": 38.975374333333335, "is_disabled": 0, "lon": -76.995352, "is_reserved": 0}, {"name": "8e2772c2d0ab3ffcd92e5e7b797e6b21", "fusion_lat": 0.0, "fusion_lon": 0.0, "bike_id": "8e2772c2d0ab3ffcd92e5e7b797e6b21", "rental_uris": {"ios": "https://dc.lft.to/lastmile_qr_scan", "android": "https://dc.lft.to/lastmile_qr_scan"}, "type": "electric_scooter", "lat": 38.9170345, "is_disabled": 0, "lon": -77.0298715, "is_reserved": 0}, {"name": "cb283c9e13418f07e381723bd27b67d3", "fusion_lat": 0.0, "fusion_lon": 0.0, "bike_id": "cb283c9e13418f07e381723bd27b67d3", "rental_uris": {"ios": "https://dc.lft.to/lastmile_qr_scan", "android": "https://dc.lft.to/lastmile_qr_scan"}, "type": "electric_scooter", "lat": 38.93661083333333, "is_disabled": 0, "lon": -77.03639183333334, "is_reserved": 0}, {"name": "98a29b3dcbb36a7790c0391ad594997e", "fusion_lat": 0.0, "fusion_lon": 0.0, "bike_id": "98a29b3dcbb36a7790c0391ad594997e", "rental_uris": {"ios": "https://dc.lft.to/lastmile_qr_scan", "android": "https://dc.lft.to/lastmile_qr_scan"}, "type": "electric_scooter", "lat": 38.908842666666665, "is_disabled": 0, "lon": -77.03391083333334, "is_reserved": 0}, {"name": "d34d4ad600b3ea2fbe6ce39cccff9cd4", "fusion_lat": 0.0, "fusion_lon": 0.0, "bike_id": "d34d4ad600b3ea2fbe6ce39cccff9cd4", "rental_uris": {"ios": "https://dc.lft.to/lastmile_qr_scan", "android": "https://dc.lft.to/lastmile_qr_scan"}, "type": "electric_scooter", "lat": 38.90392716666667, "is_disabled": 0, "lon": -77.028043, "is_reserved": 0}, {"name": "13c7dcac464b17088a659512070df033", "fusion_lat": 0.0, "fusion_lon": 0.0, "bike_id": "13c7dcac464b17088a659512070df033", "rental_uris": {"ios": "https://dc.lft.to/lastmile_qr_scan", "android": "https://dc.lft.to/lastmile_qr_scan"}, "type": "electric_scooter", "lat": 38.887362833333334, "is_disabled": 0, "lon": -77.01538366666666, "is_reserved": 0},