{"data": {"bikes": [{"bike_id": "1ab96312f16b0e63273bb8ae4aa18f3d", "fusion_lon": 0.0, "type": "electric_scooter", "name": "1ab96312f16b0e63273bb8ae4aa18f3d", "rental_uris": {"android": "https://dc.lft.to/lastmile_qr_scan", "ios": "https://dc.lft.to/lastmile_qr_scan"}, "fusion_lat": 0.0, "lat": 38.9110665, "is_disabled": 0, "lon": -77.0422655, "is_reserved": 0}, {"bike_id": "6cf83fa30fb3bb7033855d887c6e53d0", "fusion_lon": 0.0, "type": "electric_scooter", "name": "6cf83fa30fb3bb7033855d887c6e53d0", "rental_uris": {"android": "https://dc.lft.to/lastmile_qr_scan", "ios": "https://dc.lft.to/lastmile_qr_scan"}, "fusion_lat": 0.0, "lat": 38.91686966666666, "is_disabled": 0, "lon": -77.02197816666667, "is_reserved": 0}, {"bike_id": "d666f8c230360cc002c172c96e45220d", "fusion_lon": 0.0, "type": "electric_scooter", "name": "d666f8c230360cc002c172c96e45220d", "rental_uris": {"android": "https://dc.lft.to/lastmile_qr_scan", "ios": "https://dc.lft.to/lastmile_qr_scan"}, "fusion_lat": 0.0, "lat": 38.906212333333336, "is_disabled": 0, "lon": -77.07665383333334, "is_reserved": 0}, {"bike_id": "d40c0a1f1915796c36e362ae55e66eea", "fusion_lon": 0.0, "type": "electric_scooter", "name": "d40c0a1f1915796c36e362ae55e66eea", "rental_uris": {"android": "https://dc.lft.to/lastmile_qr_scan", "ios": "https://dc.lft.to/lastmile_qr_scan"}, "fusion_lat": 0.0, "lat": 38.90136666666667, "is_disabled": 0, "lon": -77.040331, "is_reserved": 0}, {"bike_id": "d901dab22bd00fa7402421ac5b3594ba", "fusion_lon": 0.0, "type": "electric_scooter", "name": "d901dab22bd00fa7402421ac5b3594ba", "rental_uris": {"android": "https://dc.lft.to/lastmile_qr_scan", "ios": "https://dc.lft.to/lastmile_qr_scan"}, "fusion_lat": 0.0, "lat": 38.906701, "is_disabled": 0, "lon": -77.07118383333334, "is_reserved": 0}, {"bike_id": "5b6227bc250638b635e98a56b05196b1", "fusion_lon": 0.0, "type": "electric_bike", "name": "5b6227bc250638b635e98a56b05196b1", "rental_uris": {"android": "https://dc.lft.to/lastmile_qr_scan", "ios": "https://dc.lft.to/lastmile_qr_scan"}, "fusion_lat": 0.0, "lat": 38.956184666666665, "is_disabled": 0, "lon": -76.93890716666667, "is_reserved": 0}, {"bike_id": "2f04f7141a313f42c7b78a0fb5fcad4c", "fusion_lon": 0.0, "type": "electric_scooter", "name": "2f04f7141a313f42c7b78a0fb5fcad4c", "rental_uris": {"android": "https://dc.lft.to/lastmile_qr_scan", "ios": "https://dc.lft.to/lastmile_qr_scan"}, "fusion_lat": 0.0, "lat": 38.9044265, "is_disabled": 0, "lon": -77.031401, "is_reserved": 0}, {"bike_id": "39572375555d5081d55019f178aae365", "fusion_lon": 0.0, "type": "electric_scooter", "name": "39572375555d5081d55019f178aae365", "rental_uris": {"android": "https://dc.lft.to/lastmile_qr_scan", "ios": "https://dc.lft.to/lastmile_qr_scan"}, "fusion_lat": 0.0, "lat": 38.935717833333335, "is_disabled": 0, "lon": -77.03500266666667, "is_reserved": 0}, {"bike_id": "55641922a7bf58cfeb1d25f6d4127e5d", "fusion_lon": 0.0, "type": "electric_scooter", "name": "55641922a7bf58cfeb1d25f6d4127e5d", "rental_uris": {"android": "https://dc.lft.to/lastmile_qr_scan", "ios": "https://dc.lft.to/lastmile_qr_scan"}, "fusion_lat": 0.0, "lat": 38.90591383333334, "is_disabled": 0, "lon": -77.071621, "is_reserved": 0}, {"bike_id": "6c17f36d41cf3d52ebb0dd6d25474700", "fusion_lon": 0.0, "type": "electric_scooter", "name": "6c17f36d41cf3d52ebb0dd6d25474700", "rental_uris": {"android": "https://dc.lft.to/lastmile_qr_scan", "ios": "https://dc.lft.to/lastmile_qr_scan"}, "fusion_lat": 0.0, "lat": 38.90320883333333, "is_disabled": 0, "lon": -77.03314233333333, "is_reserved": 0}, {"bike_id": "f0a4e40972c0fadd71644279b4cad064", "fusion_lon": 0.0, "type": "electric_scooter", "name": "f0a4e40972c0fadd71644279b4cad064", "rental_uris": {"android": "https://dc.lft.to/lastmile_qr_scan", "ios": "https://dc.lft.to/lastmile_qr_scan"}, "fusion_lat": 0.0, "lat": 38.921446, "is_disabled": 0, "lon": -77.03511883333333, "is_reserved": 0}, {"bike_id": "edb0da92977a6e9c5ca394397d5d4c26", "fusion_lon": 0.0, "type": "electric_scooter", "name": "edb0da92977a6e9c5ca394397d5d4c26", "rental_uris": {"android": "https://dc.lft.to/lastmile_qr_scan", "ios": "https://dc.lft.to/lastmile_qr_scan"}, "fusion_lat": 0.0, "lat": 38.89051466666667, "is_disabled": 0, "lon": -76.95519166666666, "is_reserved": 0}, {"bike_id": "e5673c25a47bc2ea437a3b9c2f21fbb2", "fusion_lon": 0.0, "type": "electric_bike", "name": "e5673c25a47bc2ea437a3b9c2f21fbb2", "rental_uris": {"android": "https://dc.lft.to/lastmile_qr_scan", "ios": "https://dc.lft.to/lastmile_qr_scan"}, "fusion_lat": 0.0, "lat": 38.86879283333333, "is_disabled": 0, "lon": -76.985622, "is_reserved": 0}, {"bike_id": "c1fff4967fd4000b7751afa4c54e06ef", "fusion_lon": 0.0, "type": "electric_scooter", "name": "c1fff4967fd4000b7751afa4c54e06ef", "rental_uris": {"android": "https://dc.lft.to/lastmile_qr_scan", "ios": "https://dc.lft.to/lastmile_qr_scan"}, "fusion_lat": 0.0, "lat": 38.937956166666666, "is_disabled": 0, "lon": -77.0328605, "is_reserved": 0}, {"bike_id": "d7170bfb60774e3ce9b0bf2f45d95bf7", "fusion_lon": 0.0, "type": "electric_scooter", "name": "d7170bfb60774e3ce9b0bf2f45d95bf7", "rental_uris": {"android": "https://dc.lft.to/lastmile_qr_scan", "ios": "https://dc.lft.to/lastmile_qr_scan"}, "fusion_lat": 0.0, "lat": 38.91625616666666, "is_disabled": 0, "lon": -77.04827566666667, "is_reserved": 0}, {"bike_id": "2aad32e9ef5b71fbca9efa57721e93a8", "fusion_lon": 0.0, "type": "electric_scooter", "name": "2aad32e9ef5b71fbca9efa57721e93a8", "rental_uris": {"android": "https://dc.lft.to/lastmile_qr_scan", "ios": "https://dc.lft.to/lastmile_qr_scan"}, "fusion_lat": 0.0, "lat": 38.920138333333334, "is_disabled": 0, "lon": -77.02482916666666, "is_reserved": 0}, {"bike_id": "1eddfa2e97e1baaf4062d7408f5fef8e", "fusion_lon": 0.0, "type": "electric_scooter", "name": "1eddfa2e97e1baaf4062d7408f5fef8e", "rental_uris": {"android": "https://dc.lft.to/lastmile_qr_scan", "ios": "https://dc.lft.to/lastmile_qr_scan"}, "fusion_lat": 0.0, "lat": 38.891931166666666, "is_disabled": 0, "lon": -76.98127816666667, "is_reserved": 0}, {"bike_id": "bf96ce20bdcb1218061452a3c9a4cfdf", "fusion_lon": 0.0, "type": "electric_scooter", "name": "bf96ce20bdcb1218061452a3c9a4cfdf", "rental_uris": {"android": "https://dc.lft.to/lastmile_qr_scan", "ios": "https://dc.lft.to/lastmile_qr_scan"}, "fusion_lat": 0.0, "lat": 38.914659, "is_disabled": 0, "lon": -77.022222, "is_reserved": 0}, {"bike_id": "c2ea10f58a5856b332c2768dfcb7ad54", "fusion_lon": 0.0, "type": "electric_scooter", "name": "c2ea10f58a5856b332c2768dfcb7ad54", "rental_uris": {"android": "https://dc.lft.to/lastmile_qr_scan", "ios": "https://dc.lft.to/lastmile_qr_scan"}, "fusion_lat": 0.0, "lat": 38.877832166666664, "is_disabled": 0, "lon": -76.994117, "is_reserved": 0}, {"bike_id": "e99920fbcd8e265e289eb795ad6156a3", "fusion_lon": 0.0, "type": "electric_bike", "name": "e99920fbcd8e265e289eb795ad6156a3", "rental_uris": {"android": "https://dc.lft.to/lastmile_qr_scan", "ios": "https://dc.lft.to/lastmile_qr_scan"}, "fusion_lat": 0.0, "lat": 38.941934833333335, "is_disabled": 0, "lon": -77.0242825, "is_reserved": 0}, {"bike_id": "aa00a2b21044953f9ccde1785e6b3fe4", "fusion_lon": 0.0, "type": "electric_scooter", "name": "aa00a2b21044953f9ccde1785e6b3fe4", "rental_uris": {"android": "https://dc.lft.to/lastmile_qr_scan", "ios": "https://dc.lft.to/lastmile_qr_scan"}, "fusion_lat": 0.0, "lat": 38.91814183333334, "is_disabled": 0, "lon": -77.0270835, "is_reserved": 0}, {"bike_id": "fa460401faa52abace147a911e422ae3", "fusion_lon": 0.0, "type": "electric_scooter", "name": "fa460401faa52abace147a911e422ae3", "rental_uris": {"android": "https://dc.lft.to/lastmile_qr_scan", "ios": "https://dc.lft.to/lastmile_qr_scan"}, "fusion_lat": 0.0, "lat": 38.899130666666665, "is_disabled": 0, "lon": -76.986092, "is_reserved": 0}, {"bike_id": "fa626c880b8a2702684e7670c2f4f156", "fusion_lon": 0.0, "type": "electric_scooter", "name": "fa626c880b8a2702684e7670c2f4f156", "rental_uris": {"android": "https://dc.lft.to/lastmile_qr_scan", "ios": "https://dc.lft.to/lastmile_qr_scan"}, "fusion_lat": 0.0, "lat": 38.898868, "is_disabled": 0, "lon": -77.05300566666666, "is_reserved": 0}, {"bike_id": "4c2346b3b4e54f8ea1c1424572dc6a07", "fusion_lon": 0.0, "type": "electric_scooter", "name": "4c2346b3b4e54f8ea1c1424572dc6a07", "rental_uris": {"android": "https://dc.lft.to/lastmile_qr_scan", "ios": "https://dc.lft.to/lastmile_qr_scan"}, "fusion_lat": 0.0, "lat": 38.918847166666666, "is_disabled": 0, "lon": -77.03490833333333, "is_reserved": 0}, {"bike_id": "b197501085ba604a3f0e8416abb46b2e", "fusion_lon": 0.0, "type": "electric_scooter", "name": "b197501085ba604a3f0e8416abb46b2e", "rental_uris": {"android": "https://dc.lft.to/lastmile_qr_scan", "ios": "https://dc.lft.to/lastmile_qr_scan"}, "fusion_lat": 0.0, "lat": 38.9076455, "is_disabled": 0, "lon": -77.03204866666667, "is_reserved": 0}, {"bike_id": "fec71ecfe577096b7b358f591c437f96", "fusion_lon": 0.0, "type": "electric_scooter", "name": "fec71ecfe577096b7b358f591c437f96", "rental_uris": {"android": "https://dc.lft.to/lastmile_qr_scan", "ios": "https://dc.lft.to/lastmile_qr_scan"}, "fusion_lat": 0.0, "lat": 38.933630666666666, "is_disabled": 0, "lon": -77.0373985, "is_reserved": 0}, {"bike_id": "9ff9b1853e83e87b5541218bd6adaeeb", "fusion_lon": 0.0, "type": "electric_scooter", "name": "9ff9b1853e83e87b5541218bd6adaeeb", "rental_uris": {"android": "https://dc.lft.to/lastmile_qr_scan", "ios": "https://dc.lft.to/lastmile_qr_scan"}, "fusion_lat": 0.0, "lat": 38.923624333333336, "is_disabled": 0, "lon": -77.05056383333333, "is_reserved": 0}, {"bike_id": "856cfab9898516b43398ac5d2122155e", "fusion_lon": 0.0, "type": "electric_scooter", "name": "856cfab9898516b43398ac5d2122155e", "rental_uris": {"android": "https://dc.lft.to/lastmile_qr_scan", "ios": "https://dc.lft.to/lastmile_qr_scan"}, "fusion_lat": 0.0, "lat": 38.903617833333335, "is_disabled": 0, "lon": -77.044988, "is_reserved": 0}, {"bike_id": "4338643a8f7be54e8bfd5412fec4c3a8", "fusion_lon": 0.0, "type": "electric_bike", "name": "4338643a8f7be54e8bfd5412fec4c3a8", "rental_uris": {"android": "https://dc.lft.to/lastmile_qr_scan", "ios": "https://dc.lft.to/lastmile_qr_scan"}, "fusion_lat": 0.0, "lat": 38.89280466666666, "is_disabled": 0, "lon": -76.97628066666667, "is_reserved": 0}, {"bike_id": "8bdfdc3bb8d83b495ce7434c271bbd90", "fusion_lon": 0.0, "type": "electric_scooter", "name": "8bdfdc3bb8d83b495ce7434c271bbd90", "rental_uris": {"android": "https://dc.lft.to/lastmile_qr_scan", "ios": "https://dc.lft.to/lastmile_qr_scan"}, "fusion_lat": 0.0, "lat": 38.8637215, "is_disabled": 0, "lon": -76.97459566666667, "is_reserved": 0}, {"bike_id": "99f91bc5728ac017f0840f2d6089c897", "fusion_lon": 0.0, "type": "electric_scooter", "name": "99f91bc5728ac017f0840f2d6089c897", "rental_uris": {"android": "https://dc.lft.to/lastmile_qr_scan", "ios": "https://dc.lft.to/lastmile_qr_scan"}, "fusion_lat": 0.0, "lat": 38.88098183333334, "is_disabled": 0, "lon": -77.02646066666667, "is_reserved": 0}, {"bike_id": "9838e992a446df9cb87474214aba6b36", "fusion_lon": 0.0, "type": "electric_scooter", "name": "9838e992a446df9cb87474214aba6b36", "rental_uris": {"android": "https://dc.lft.to/lastmile_qr_scan", "ios": "https://dc.lft.to/lastmile_qr_scan"}, "fusion_lat": 0.0, "lat": 38.92054516666666, "is_disabled": 0, "lon": -77.04183333333333, "is_reserved": 0}, {"bike_id": "5107824e545a819504cc5ae7c8775af2", "fusion_lon": 0.0, "type": "electric_scooter", "name": "5107824e545a819504cc5ae7c8775af2", "rental_uris": {"android": "https://dc.lft.to/lastmile_qr_scan", "ios": "https://dc.lft.to/lastmile_qr_scan"}, "fusion_lat": 0.0, "lat": 38.905132, "is_disabled": 0, "lon": -77.04352216666666, "is_reserved": 0}, {"bike_id": "bebacf50175923053407bd8835a953e0", "fusion_lon": 0.0, "type": "electric_scooter", "name": "bebacf50175923053407bd8835a953e0", "rental_uris": {"android": "https://dc.lft.to/lastmile_qr_scan", "ios": "https://dc.lft.to/lastmile_qr_scan"}, "fusion_lat": 0.0, "lat": 38.9016895, "is_disabled": 0, "lon": -77.04834216666667, "is_reserved": 0}, {"bike_id": "7fc7d02ed2e496e23714d3988163fb11", "fusion_lon": 0.0, "type": "electric_scooter", "name": "7fc7d02ed2e496e23714d3988163fb11", "rental_uris": {"android": "https://dc.lft.to/lastmile_qr_scan", "ios": "https://dc.lft.to/lastmile_qr_scan"}, "fusion_lat": 0.0, "lat": 38.89836366666667, "is_disabled": 0, "lon": -77.03331566666667, "is_reserved": 0}, {"bike_id": "a07292bb26ec1a05561f90d86979f658", "fusion_lon": 0.0, "type": "electric_scooter", "name": "a07292bb26ec1a05561f90d86979f658", "rental_uris": {"android": "https://dc.lft.to/lastmile_qr_scan", "ios": "https://dc.lft.to/lastmile_qr_scan"}, "fusion_lat": 0.0, "lat": 38.911030833333335, "is_disabled": 0, "lon": -77.04224816666667, "is_reserved": 0}, {"bike_id": "64e545ccbff2494bc57f5dc3c3d8a17a", "fusion_lon": 0.0, "type": "electric_scooter", "name": "64e545ccbff2494bc57f5dc3c3d8a17a", "rental_uris": {"android": "https://dc.lft.to/lastmile_qr_scan", "ios": "https://dc.lft.to/lastmile_qr_scan"}, "fusion_lat": 0.0, "lat": 38.89923183333333, "is_disabled": 0, "lon": -77.02403833333334, "is_reserved": 0}, {"bike_id": "da8bcb4f1bb0d31a28054d43ff1954b5", "fusion_lon": 0.0, "type": "electric_scooter", "name": "da8bcb4f1bb0d31a28054d43ff1954b5", "rental_uris": {"android": "https://dc.lft.to/lastmile_qr_scan", "ios": "https://dc.lft.to/lastmile_qr_scan"}, "fusion_lat": 0.0, "lat": 38.8802955, "is_disabled": 0, "lon": -76.98833333333333, "is_reserved": 0}, {"bike_id": "25a47b9ad3c4fd181382ae40b4422a92", "fusion_lon": 0.0, "type": "electric_scooter", "name": "25a47b9ad3c4fd181382ae40b4422a92", "rental_uris": {"android": "https://dc.lft.to/lastmile_qr_scan", "ios": "https://dc.lft.to/lastmile_qr_scan"}, "fusion_lat": 0.0, "lat": 38.90281683333333, "is_disabled": 0, "lon": -77.034667, "is_reserved": 0}, {"bike_id": "4aa0dd7ee7147a867ee0e44f2071145d", "fusion_lon": 0.0, "type": "electric_scooter", "name": "4aa0dd7ee7147a867ee0e44f2071145d", "rental_uris": {"android": "https://dc.lft.to/lastmile_qr_scan", "ios": "https://dc.lft.to/lastmile_qr_scan"}, "fusion_lat": 0.0, "lat": 38.94646316666667, "is_disabled": 0, "lon": -77.03035533333333, "is_reserved": 0}, {"bike_id": "ba354e8d4782e16476e27db761c6596b", "fusion_lon": 0.0, "type": "electric_scooter", "name": "ba354e8d4782e16476e27db761c6596b", "rental_uris": {"android": "https://dc.lft.to/lastmile_qr_scan", "ios": "https://dc.lft.to/lastmile_qr_scan"}, "fusion_lat": 0.0, "lat": 38.892201, "is_disabled": 0, "lon": -77.03229066666667, "is_reserved": 0}, {"bike_id": "8594070d6654091731a998aa72059717", "fusion_lon": 0.0, "type": "electric_scooter", "name": "8594070d6654091731a998aa72059717", "rental_uris": {"android": "https://dc.lft.to/lastmile_qr_scan", "ios": "https://dc.lft.to/lastmile_qr_scan"}, "fusion_lat": 0.0, "lat": 38.929015166666666, "is_disabled": 0, "lon": -77.03752333333334, "is_reserved": 0}, {"bike_id": "34792a9ae0e925a3dcc3e202aad56d9f", "fusion_lon": 0.0, "type": "electric_scooter", "name": "34792a9ae0e925a3dcc3e202aad56d9f", "rental_uris": {"android": "https://dc.lft.to/lastmile_qr_scan", "ios": "https://dc.lft.to/lastmile_qr_scan"}, "fusion_lat": 0.0, "lat": 38.93391233333333, "is_disabled": 0, "lon": -77.03313116666666, "is_reserved": 0}, {"bike_id": "fc4137f969932fb32ef20059ebb6bc76", "fusion_lon": 0.0, "type": "electric_scooter", "name": "fc4137f969932fb32ef20059ebb6bc76", "rental_uris": {"android": "https://dc.lft.to/lastmile_qr_scan", "ios": "https://dc.lft.to/lastmile_qr_scan"}, "fusion_lat": 0.0, "lat": 38.8970635, "is_disabled": 0, "lon": -77.02308433333333, "is_reserved": 0}, {"bike_id": "b8938b026ab8575f4af2c0c66a64ad65", "fusion_lon": 0.0, "type": "electric_scooter", "name": "b8938b026ab8575f4af2c0c66a64ad65", "rental_uris": {"android": "https://dc.lft.to/lastmile_qr_scan", "ios": "https://dc.lft.to/lastmile_qr_scan"}, "fusion_lat": 0.0, "lat": 38.9168445, "is_disabled": 0, "lon": -77.03500683333333, "is_reserved": 0}, {"bike_id": "605600b292e31fcc1874dd0aecfa1a27", "fusion_lon": 0.0, "type": "electric_scooter", "name": "605600b292e31fcc1874dd0aecfa1a27", "rental_uris": {"android": "https://dc.lft.to/lastmile_qr_scan", "ios": "https://dc.lft.to/lastmile_qr_scan"}, "fusion_lat": 0.0, "lat": 38.90361, "is_disabled": 0, "lon": -77.020095, "is_reserved": 0}, {"bike_id": "be0c14042a2b3d8be09f5e3980108abd", "fusion_lon": 0.0, "type": "electric_bike", "name": "be0c14042a2b3d8be09f5e3980108abd", "rental_uris": {"android": "https://dc.lft.to/lastmile_qr_scan", "ios": "https://dc.lft.to/lastmile_qr_scan"}, "fusion_lat": 0.0, "lat": 38.86620516666667, "is_disabled": 0, "lon": -76.94575083333334, "is_reserved": 0}, {"bike_id": "e1995e1f0dd1020fc8c8cc088b8b339c", "fusion_lon": 0.0, "type": "electric_scooter", "name": "e1995e1f0dd1020fc8c8cc088b8b339c", "rental_uris": {"android": "https://dc.lft.to/lastmile_qr_scan", "ios": "https://dc.lft.to/lastmile_qr_scan"}, "fusion_lat": 0.0, "lat": 38.90446933333333, "is_disabled": 0, "lon": -77.061227, "is_reserved": 0}, {"bike_id": "90bec7d7c90b43a8e8d11543db2de427", "fusion_lon": 0.0, "type": "electric_bike", "name": "90bec7d7c90b43a8e8d11543db2de427", "rental_uris": {"android": "https://dc.lft.to/lastmile_qr_scan", "ios": "https://dc.lft.to/lastmile_qr_scan"}, "fusion_lat": 0.0, "lat": 38.996794333333334, "is_disabled": 0, "lon": -77.03775616666667, "is_reserved": 0}, {"bike_id": "f50bcdca9158300fa31277bdac5f2ce7", "fusion_lon": 0.0, "type": "electric_scooter", "name": "f50bcdca9158300fa31277bdac5f2ce7", "rental_uris": {"android": "https://dc.lft.to/lastmile_qr_scan", "ios": "https://dc.lft.to/lastmile_qr_scan"}, "fusion_lat": 0.0, "lat": 38.91567966666667, "is_disabled": 0, "lon": -77.04663416666666, "is_reserved": 0}, {"bike_id": "02f3d20bad0d70479881c34ad59b9885", "fusion_lon": 0.0, "type": "electric_scooter", "name": "02f3d20bad0d70479881c34ad59b9885", "rental_uris": {"android": "https://dc.lft.to/lastmile_qr_scan", "ios": "https://dc.lft.to/lastmile_qr_scan"}, "fusion_lat": 0.0, "lat": 38.89327266666667, "is_disabled": 0, "lon": -77.01216916666667, "is_reserved": 0}, {"bike_id": "8b162086a560a30a5668569486c87342", "fusion_lon": 0.0, "type": "electric_scooter", "name": "8b162086a560a30a5668569486c87342", "rental_uris": {"android": "https://dc.lft.to/lastmile_qr_scan", "ios": "https://dc.lft.to/lastmile_qr_scan"}, "fusion_lat": 0.0, "lat": 38.90139283333333, "is_disabled": 0, "lon": -77.04998933333333, "is_reserved": 0}, {"bike_id": "d3581b28f9008ff7d6749f0c07ee6284", "fusion_lon": 0.0, "type": "electric_scooter", "name": "d3581b28f9008ff7d6749f0c07ee6284", "rental_uris": {"android": "https://dc.lft.to/lastmile_qr_scan", "ios": "https://dc.lft.to/lastmile_qr_scan"}, "fusion_lat": 0.0, "lat": 38.91667783333333, "is_disabled": 0, "lon": -77.0241825, "is_reserved": 0}, {"bike_id": "a30f1ff7a70da915c0efb4903d31de85", "fusion_lon": 0.0, "type": "electric_scooter", "name": "a30f1ff7a70da915c0efb4903d31de85", "rental_uris": {"android": "https://dc.lft.to/lastmile_qr_scan", "ios": "https://dc.lft.to/lastmile_qr_scan"}, "fusion_lat": 0.0, "lat": 38.88042933333333, "is_disabled": 0, "lon": -77.03071216666666, "is_reserved": 0}, {"bike_id": "73faae06cde692c7af7ae1150c54ad22", "fusion_lon": 0.0, "type": "electric_bike", "name": "73faae06cde692c7af7ae1150c54ad22", "rental_uris": {"android": "https://dc.lft.to/lastmile_qr_scan", "ios": "https://dc.lft.to/lastmile_qr_scan"}, "fusion_lat": 0.0, "lat": 38.86902166666667, "is_disabled": 0, "lon": -77.13182716666667, "is_reserved": 0}, {"bike_id": "7dd513da87c8c0622f00d198be137dc7", "fusion_lon": 0.0, "type": "electric_bike", "name": "7dd513da87c8c0622f00d198be137dc7", "rental_uris": {"android": "https://dc.lft.to/lastmile_qr_scan", "ios": "https://dc.lft.to/lastmile_qr_scan"}, "fusion_lat": 0.0, "lat": 38.89881833333333, "is_disabled": 0, "lon": -76.98392583333333, "is_reserved": 0}, {"bike_id": "5c0da1b0faf6f9156e3b490eecd2f215", "fusion_lon": 0.0, "type": "electric_scooter", "name": "5c0da1b0faf6f9156e3b490eecd2f215", "rental_uris": {"android": "https://dc.lft.to/lastmile_qr_scan", "ios": "https://dc.lft.to/lastmile_qr_scan"}, "fusion_lat": 0.0, "lat": 38.9168605, "is_disabled": 0, "lon": -77.029575, "is_reserved": 0}, {"bike_id": "71c840a97435f9a294f26bae15f07d63", "fusion_lon": 0.0, "type": "electric_scooter", "name": "71c840a97435f9a294f26bae15f07d63", "rental_uris": {"android": "https://dc.lft.to/lastmile_qr_scan", "ios": "https://dc.lft.to/lastmile_qr_scan"}, "fusion_lat": 0.0, "lat": 38.879076166666664, "is_disabled": 0, "lon": -76.99176183333333, "is_reserved": 0}, {"bike_id": "7e851e3d2818c90382632f603acb21ca", "fusion_lon": 0.0, "type": "electric_scooter", "name": "7e851e3d2818c90382632f603acb21ca", "rental_uris": {"android": "https://dc.lft.to/lastmile_qr_scan", "ios": "https://dc.lft.to/lastmile_qr_scan"}, "fusion_lat": 0.0, "lat": 38.91231166666667, "is_disabled": 0, "lon": -77.04507983333333, "is_reserved": 0}, {"bike_id": "0d526bccb1d2adaaa309e2ccc671c48c", "fusion_lon": 0.0, "type": "electric_scooter", "name": "0d526bccb1d2adaaa309e2ccc671c48c", "rental_uris": {"android": "https://dc.lft.to/lastmile_qr_scan", "ios": "https://dc.lft.to/lastmile_qr_scan"}, "fusion_lat": 0.0, "lat": 38.8987645, "is_disabled": 0, "lon": -76.92961583333333, "is_reserved": 0}, {"bike_id": "60087e570305b4bed25dc674f0184f9d", "fusion_lon": 0.0, "type": "electric_scooter", "name": "60087e570305b4bed25dc674f0184f9d", "rental_uris": {"android": "https://dc.lft.to/lastmile_qr_scan", "ios": "https://dc.lft.to/lastmile_qr_scan"}, "fusion_lat": 0.0, "lat": 38.929431666666666, "is_disabled": 0, "lon": -77.03420433333334, "is_reserved": 0}, {"bike_id": "4fe1b5b29ee32055459956a61dc03e3c", "fusion_lon": 0.0, "type": "electric_scooter", "name": "4fe1b5b29ee32055459956a61dc03e3c", "rental_uris": {"android": "https://dc.lft.to/lastmile_qr_scan", "ios": "https://dc.lft.to/lastmile_qr_scan"}, "fusion_lat": 0.0, "lat": 38.92126666666667, "is_disabled": 0, "lon": -77.04432266666667, "is_reserved": 0}, {"bike_id": "a4ed368ac94f4902d4d6ed53f603223e", "fusion_lon": 0.0, "type": "electric_scooter", "name": "a4ed368ac94f4902d4d6ed53f603223e", "rental_uris": {"android": "https://dc.lft.to/lastmile_qr_scan", "ios": "https://dc.lft.to/lastmile_qr_scan"}, "fusion_lat": 0.0, "lat": 38.900431166666664, "is_disabled": 0, "lon": -77.01711266666666, "is_reserved": 0}, {"bike_id": "c7803e950dde55a50b19cecdbac40005", "fusion_lon": 0.0, "type": "electric_scooter", "name": "c7803e950dde55a50b19cecdbac40005", "rental_uris": {"android": "https://dc.lft.to/lastmile_qr_scan", "ios": "https://dc.lft.to/lastmile_qr_scan"}, "fusion_lat": 0.0, "lat": 38.884301666666666, "is_disabled": 0, "lon": -76.95756366666667, "is_reserved": 0}, {"bike_id": "a0e641cbbf6115d83783c38c61a8faae", "fusion_lon": 0.0, "type": "electric_bike", "name": "a0e641cbbf6115d83783c38c61a8faae", "rental_uris": {"android": "https://dc.lft.to/lastmile_qr_scan", "ios": "https://dc.lft.to/lastmile_qr_scan"}, "fusion_lat": 0.0, "lat": 38.982226, "is_disabled": 0, "lon": -77.02647483333334, "is_reserved": 0}, {"bike_id": "dba8658ba406c80b91dcdc8aa532ff89", "fusion_lon": 0.0, "type": "electric_scooter", "name": "dba8658ba406c80b91dcdc8aa532ff89", "rental_uris": {"android": "https://dc.lft.to/lastmile_qr_scan", "ios": "https://dc.lft.to/lastmile_qr_scan"}, "fusion_lat": 0.0, "lat": 38.92356, "is_disabled": 0, "lon": -77.04414416666667, "is_reserved": 0}, {"bike_id": "b69ed4e39759544f263eef584e59edcb", "fusion_lon": 0.0, "type": "electric_scooter", "name": "b69ed4e39759544f263eef584e59edcb", "rental_uris": {"android": "https://dc.lft.to/lastmile_qr_scan", "ios": "https://dc.lft.to/lastmile_qr_scan"}, "fusion_lat": 0.0, "lat": 38.86215966666666, "is_disabled": 0, "lon": -76.99496, "is_reserved": 0}, {"bike_id": "10ad92b6315535b0742a0eaeb970e9c1", "fusion_lon": 0.0, "type": "electric_scooter", "name": "10ad92b6315535b0742a0eaeb970e9c1", "rental_uris": {"android": "https://dc.lft.to/lastmile_qr_scan", "ios": "https://dc.lft.to/lastmile_qr_scan"}, "fusion_lat": 0.0, "lat": 38.903628833333336, "is_disabled": 0, "lon": -77.04493266666667, "is_reserved": 0}, {"bike_id": "fc5ca7ad43353640f37e1942d126a512", "fusion_lon": 0.0, "type": "electric_scooter", "name": "fc5ca7ad43353640f37e1942d126a512", "rental_uris": {"android": "https://dc.lft.to/lastmile_qr_scan", "ios": "https://dc.lft.to/lastmile_qr_scan"}, "fusion_lat": 0.0, "lat": 38.96222933333333, "is_disabled": 0, "lon": -77.029801, "is_reserved": 0}, {"bike_id": "e85567200e526a4ad379414e97b72788", "fusion_lon": 0.0, "type": "electric_bike", "name": "e85567200e526a4ad379414e97b72788", "rental_uris": {"android": "https://dc.lft.to/lastmile_qr_scan", "ios": "https://dc.lft.to/lastmile_qr_scan"}, "fusion_lat": 0.0, "lat": 38.852138833333335, "is_disabled": 0, "lon": -77.10141833333333, "is_reserved": 0}, {"bike_id": "9a2b676d3a9fc8b9b59439514881c33c", "fusion_lon": 0.0, "type": "electric_scooter", "name": "9a2b676d3a9fc8b9b59439514881c33c", "rental_uris": {"android": "https://dc.lft.to/lastmile_qr_scan", "ios": "https://dc.lft.to/lastmile_qr_scan"}, "fusion_lat": 0.0, "lat": 38.9053115, "is_disabled": 0, "lon": -77.06173216666667, "is_reserved": 0}, {"bike_id": "1e85e7bf8f00d991920704271d0a0aed", "fusion_lon": 0.0, "type": "electric_scooter", "name": "1e85e7bf8f00d991920704271d0a0aed", "rental_uris": {"android": "https://dc.lft.to/lastmile_qr_scan", "ios": "https://dc.lft.to/lastmile_qr_scan"}, "fusion_lat": 0.0, "lat": 38.87693066666667, "is_disabled": 0, "lon": -77.00603283333334, "is_reserved": 0}, {"bike_id": "a6ff6b505d94b89868ab7147b3862102", "fusion_lon": 0.0, "type": "electric_scooter", "name": "a6ff6b505d94b89868ab7147b3862102", "rental_uris": {"android": "https://dc.lft.to/lastmile_qr_scan", "ios": "https://dc.lft.to/lastmile_qr_scan"}, "fusion_lat": 0.0, "lat": 38.903474833333334, "is_disabled": 0, "lon": -77.034986, "is_reserved": 0}, {"bike_id": "3bfb70942a0035eb8e74d1bc0800e9cd", "fusion_lon": 0.0, "type": "electric_scooter", "name": "3bfb70942a0035eb8e74d1bc0800e9cd", "rental_uris": {"android": "https://dc.lft.to/lastmile_qr_scan", "ios": "https://dc.lft.to/lastmile_qr_scan"}, "fusion_lat": 0.0, "lat": 38.90408516666667, "is_disabled": 0, "lon": -77.00138533333333, "is_reserved": 0}, {"bike_id": "399e50cbb57fc617e81d9f644808b098", "fusion_lon": 0.0, "type": "electric_scooter", "name": "399e50cbb57fc617e81d9f644808b098", "rental_uris": {"android": "https://dc.lft.to/lastmile_qr_scan", "ios": "https://dc.lft.to/lastmile_qr_scan"}, "fusion_lat": 0.0, "lat": 38.929966, "is_disabled": 0, "lon": -77.02356733333333, "is_reserved": 0}, {"bike_id": "9cfd40d98db310e786336a86bdc0db0f", "fusion_lon": 0.0, "type": "electric_bike", "name": "9cfd40d98db310e786336a86bdc0db0f", "rental_uris": {"android": "https://dc.lft.to/lastmile_qr_scan", "ios": "https://dc.lft.to/lastmile_qr_scan"}, "fusion_lat": 0.0, "lat": 39.05447783333334, "is_disabled": 0, "lon": -77.04308033333334, "is_reserved": 0}, {"bike_id": "e5186acdcf56e3194e983bd5b7804a20", "fusion_lon": 0.0, "type": "electric_scooter", "name": "e5186acdcf56e3194e983bd5b7804a20", "rental_uris": {"android": "https://dc.lft.to/lastmile_qr_scan", "ios": "https://dc.lft.to/lastmile_qr_scan"}, "fusion_lat": 0.0, "lat": 38.935517833333336, "is_disabled": 0, "lon": -77.0821815, "is_reserved": 0}, {"bike_id": "efe3805e544a190ca10a83868d452769", "fusion_lon": 0.0, "type": "electric_scooter", "name": "efe3805e544a190ca10a83868d452769", "rental_uris": {"android": "https://dc.lft.to/lastmile_qr_scan", "ios": "https://dc.lft.to/lastmile_qr_scan"}, "fusion_lat": 0.0, "lat": 38.909534666666666, "is_disabled": 0, "lon": -77.04613583333334, "is_reserved": 0}, {"bike_id": "4a4715eecd109a66b7253e2e3f05cf2e", "fusion_lon": 0.0, "type": "electric_scooter", "name": "4a4715eecd109a66b7253e2e3f05cf2e", "rental_uris": {"android": "https://dc.lft.to/lastmile_qr_scan", "ios": "https://dc.lft.to/lastmile_qr_scan"}, "fusion_lat": 0.0, "lat": 38.94997766666667, "is_disabled": 0, "lon": -77.02713283333334, "is_reserved": 0}, {"bike_id": "92468de69bd2aca810e825b63771ffdd", "fusion_lon": 0.0, "type": "electric_scooter", "name": "92468de69bd2aca810e825b63771ffdd", "rental_uris": {"android": "https://dc.lft.to/lastmile_qr_scan", "ios": "https://dc.lft.to/lastmile_qr_scan"}, "fusion_lat": 0.0, "lat": 38.89921666666667, "is_disabled": 0, "lon": -77.018844, "is_reserved": 0}, {"bike_id": "a7b1a079fa0a0655178a3779c58b68fc", "fusion_lon": 0.0, "type": "electric_scooter", "name": "a7b1a079fa0a0655178a3779c58b68fc", "rental_uris": {"android": "https://dc.lft.to/lastmile_qr_scan", "ios": "https://dc.lft.to/lastmile_qr_scan"}, "fusion_lat": 0.0, "lat": 38.9223965, "is_disabled": 0, "lon": -77.04399083333334, "is_reserved": 0}, {"bike_id": "6748d983a604c9d11970fd3de27fa5f3", "fusion_lon": 0.0, "type": "electric_bike", "name": "6748d983a604c9d11970fd3de27fa5f3", "rental_uris": {"android": "https://dc.lft.to/lastmile_qr_scan", "ios": "https://dc.lft.to/lastmile_qr_scan"}, "fusion_lat": 0.0, "lat": 39.0890265, "is_disabled": 0, "lon": -77.17853033333333, "is_reserved": 0}, {"bike_id": "19328f53f2ea27425a210c031fad8e22", "fusion_lon": 0.0, "type": "electric_scooter", "name": "19328f53f2ea27425a210c031fad8e22", "rental_uris": {"android": "https://dc.lft.to/lastmile_qr_scan", "ios": "https://dc.lft.to/lastmile_qr_scan"}, "fusion_lat": 0.0, "lat": 38.8946235, "is_disabled": 0, "lon": -77.00355333333333, "is_reserved": 0}, {"bike_id": "5dc36a9749cdb844fd5abcd336ff71e9", "fusion_lon": 0.0, "type": "electric_scooter", "name": "5dc36a9749cdb844fd5abcd336ff71e9", "rental_uris": {"android": "https://dc.lft.to/lastmile_qr_scan", "ios": "https://dc.lft.to/lastmile_qr_scan"}, "fusion_lat": 0.0, "lat": 38.90808216666667, "is_disabled": 0, "lon": -77.0181835, "is_reserved": 0}, {"bike_id": "49fce7d0a446d2960d2b3dc079e08cdb", "fusion_lon": 0.0, "type": "electric_scooter", "name": "49fce7d0a446d2960d2b3dc079e08cdb", "rental_uris": {"android": "https://dc.lft.to/lastmile_qr_scan", "ios": "https://dc.lft.to/lastmile_qr_scan"}, "fusion_lat": 0.0, "lat": 38.92269566666667, "is_disabled": 0, "lon": -77.04394916666666, "is_reserved": 0}, {"bike_id": "5b96e8bafaf9e05de3f19b43a5683bc6", "fusion_lon": 0.0, "type": "electric_scooter", "name": "5b96e8bafaf9e05de3f19b43a5683bc6", "rental_uris": {"android": "https://dc.lft.to/lastmile_qr_scan", "ios": "https://dc.lft.to/lastmile_qr_scan"}, "fusion_lat": 0.0, "lat": 38.871071, "is_disabled": 0, "lon": -77.01073316666667, "is_reserved": 0}, {"bike_id": "fd5a20e8ec002de14c1fdbf180a46005", "fusion_lon": 0.0, "type": "electric_scooter", "name": "fd5a20e8ec002de14c1fdbf180a46005", "rental_uris": {"android": "https://dc.lft.to/lastmile_qr_scan", "ios": "https://dc.lft.to/lastmile_qr_scan"}, "fusion_lat": 0.0, "lat": 38.903457, "is_disabled": 0, "lon": -77.0057775, "is_reserved": 0}, {"bike_id": "dc01abb0f4996cf49b08ade2e92c6b56", "fusion_lon": 0.0, "type": "electric_bike", "name": "dc01abb0f4996cf49b08ade2e92c6b56", "rental_uris": {"android": "https://dc.lft.to/lastmile_qr_scan", "ios": "https://dc.lft.to/lastmile_qr_scan"}, "fusion_lat": 0.0, "lat": 39.0520445, "is_disabled": 0, "lon": -77.10928633333333, "is_reserved": 0}, {"bike_id": "07ad43ceb2d731920066a237bd7b51d3", "fusion_lon": 0.0, "type": "electric_scooter", "name": "07ad43ceb2d731920066a237bd7b51d3", "rental_uris": {"android": "https://dc.lft.to/lastmile_qr_scan", "ios": "https://dc.lft.to/lastmile_qr_scan"}, "fusion_lat": 0.0, "lat": 38.915461, "is_disabled": 0, "lon": -77.04183333333333, "is_reserved": 0}, {"bike_id": "90b6936355a429173a6ed153f2385180", "fusion_lon": 0.0, "type": "electric_scooter", "name": "90b6936355a429173a6ed153f2385180", "rental_uris": {"android": "https://dc.lft.to/lastmile_qr_scan", "ios": "https://dc.lft.to/lastmile_qr_scan"}, "fusion_lat": 0.0, "lat": 38.858689, "is_disabled": 0, "lon": -76.990341, "is_reserved": 0}, {"bike_id": "1df1bb6fb9bba989bc2e6aa3df0683d5", "fusion_lon": 0.0, "type": "electric_scooter", "name": "1df1bb6fb9bba989bc2e6aa3df0683d5", "rental_uris": {"android": "https://dc.lft.to/lastmile_qr_scan", "ios": "https://dc.lft.to/lastmile_qr_scan"}, "fusion_lat": 0.0, "lat": 38.892152, "is_disabled": 0, "lon": -77.0321815, "is_reserved": 0}, {"bike_id": "822ea82e255ab0f3a4483904fda5809e", "fusion_lon": 0.0, "type": "electric_scooter", "name": "822ea82e255ab0f3a4483904fda5809e", "rental_uris": {"android": "https://dc.lft.to/lastmile_qr_scan", "ios": "https://dc.lft.to/lastmile_qr_scan"}, "fusion_lat": 0.0, "lat": 38.90342916666667, "is_disabled": 0, "lon": -77.0433475, "is_reserved": 0}, {"bike_id": "572594bac3b391991cea538bd32f8908", "fusion_lon": 0.0, "type": "electric_scooter", "name": "572594bac3b391991cea538bd32f8908", "rental_uris": {"android": "https://dc.lft.to/lastmile_qr_scan", "ios": "https://dc.lft.to/lastmile_qr_scan"}, "fusion_lat": 0.0, "lat": 38.8873885, "is_disabled": 0, "lon": -77.02405766666666, "is_reserved": 0}, {"bike_id": "4febbd35553f541a2b667f20e370a106", "fusion_lon": 0.0, "type": "electric_scooter", "name": "4febbd35553f541a2b667f20e370a106", "rental_uris": {"android": "https://dc.lft.to/lastmile_qr_scan", "ios": "https://dc.lft.to/lastmile_qr_scan"}, "fusion_lat": 0.0, "lat": 38.902545, "is_disabled": 0, "lon": -77.00212783333333, "is_reserved": 0}, {"bike_id": "abc467ec1dab71c4d41e44b2592f8b91", "fusion_lon": 0.0, "type": "electric_scooter", "name": "abc467ec1dab71c4d41e44b2592f8b91", "rental_uris": {"android": "https://dc.lft.to/lastmile_qr_scan", "ios": "https://dc.lft.to/lastmile_qr_scan"}, "fusion_lat": 0.0, "lat": 38.876410666666665, "is_disabled": 0, "lon": -76.96514316666666, "is_reserved": 0}, {"bike_id": "395dafbb213c98e82910517de2e0bd47", "fusion_lon": 0.0, "type": "electric_scooter", "name": "395dafbb213c98e82910517de2e0bd47", "rental_uris": {"android": "https://dc.lft.to/lastmile_qr_scan", "ios": "https://dc.lft.to/lastmile_qr_scan"}, "fusion_lat": 0.0, "lat": 38.908612833333336, "is_disabled": 0, "lon": -77.03838283333333, "is_reserved": 0}, {"bike_id": "b704e001b539cde76c52c54cdf50c550", "fusion_lon": 0.0, "type": "electric_scooter", "name": "b704e001b539cde76c52c54cdf50c550", "rental_uris": {"android": "https://dc.lft.to/lastmile_qr_scan", "ios": "https://dc.lft.to/lastmile_qr_scan"}, "fusion_lat": 0.0, "lat": 38.917330166666666, "is_disabled": 0, "lon": -77.06914716666667, "is_reserved": 0}, {"bike_id": "7249254ae7821b6719e7bfa6c15954d6", "fusion_lon": 0.0, "type": "electric_scooter", "name": "7249254ae7821b6719e7bfa6c15954d6", "rental_uris": {"android": "https://dc.lft.to/lastmile_qr_scan", "ios": "https://dc.lft.to/lastmile_qr_scan"}, "fusion_lat": 0.0, "lat": 38.90053433333333, "is_disabled": 0, "lon": -77.04833933333333, "is_reserved": 0}, {"bike_id": "9b9959aabe2697f89e1b2734800fd7d9", "fusion_lon": 0.0, "type": "electric_scooter", "name": "9b9959aabe2697f89e1b2734800fd7d9", "rental_uris": {"android": "https://dc.lft.to/lastmile_qr_scan", "ios": "https://dc.lft.to/lastmile_qr_scan"}, "fusion_lat": 0.0, "lat": 38.92051883333333, "is_disabled": 0, "lon": -77.03814566666667, "is_reserved": 0}, {"bike_id": "de9699d3ed8f4547fbcd43c775321072", "fusion_lon": 0.0, "type": "electric_scooter", "name": "de9699d3ed8f4547fbcd43c775321072", "rental_uris": {"android": "https://dc.lft.to/lastmile_qr_scan", "ios": "https://dc.lft.to/lastmile_qr_scan"}, "fusion_lat": 0.0, "lat": 38.899990833333334, "is_disabled": 0, "lon": -76.98412816666666, "is_reserved": 0}, {"bike_id": "3b581104b1f8ff0d406dedf35e08e8e8", "fusion_lon": 0.0, "type": "electric_scooter", "name": "3b581104b1f8ff0d406dedf35e08e8e8", "rental_uris": {"android": "https://dc.lft.to/lastmile_qr_scan", "ios": "https://dc.lft.to/lastmile_qr_scan"}, "fusion_lat": 0.0, "lat": 38.8771005, "is_disabled": 0, "lon": -77.01661083333333, "is_reserved": 0}, {"bike_id": "13d780718fa6dd203694a20f5d598223", "fusion_lon": 0.0, "type": "electric_scooter", "name": "13d780718fa6dd203694a20f5d598223", "rental_uris": {"android": "https://dc.lft.to/lastmile_qr_scan", "ios": "https://dc.lft.to/lastmile_qr_scan"}, "fusion_lat": 0.0, "lat": 38.8762245, "is_disabled": 0, "lon": -77.01958066666667, "is_reserved": 0}, {"bike_id": "654cc981282a154b90a6706c42d09876", "fusion_lon": 0.0, "type": "electric_scooter", "name": "654cc981282a154b90a6706c42d09876", "rental_uris": {"android": "https://dc.lft.to/lastmile_qr_scan", "ios": "https://dc.lft.to/lastmile_qr_scan"}, "fusion_lat": 0.0, "lat": 38.90380483333333, "is_disabled": 0, "lon": -77.03383933333333, "is_reserved": 0}, {"bike_id": "de681e819734842a27806c6a88fe9af8", "fusion_lon": 0.0, "type": "electric_scooter", "name": "de681e819734842a27806c6a88fe9af8", "rental_uris": {"android": "https://dc.lft.to/lastmile_qr_scan", "ios": "https://dc.lft.to/lastmile_qr_scan"}, "fusion_lat": 0.0, "lat": 38.960417, "is_disabled": 0, "lon": -77.02823316666667, "is_reserved": 0}, {"bike_id": "f8aa4a781e1d8419ee6f75eb5ef5a508", "fusion_lon": 0.0, "type": "electric_scooter", "name": "f8aa4a781e1d8419ee6f75eb5ef5a508", "rental_uris": {"android": "https://dc.lft.to/lastmile_qr_scan", "ios": "https://dc.lft.to/lastmile_qr_scan"}, "fusion_lat": 0.0, "lat": 38.95191033333333, "is_disabled": 0, "lon": -77.02798433333334, "is_reserved": 0}, {"bike_id": "82766d9c19d1d2ecc2caec770b593912", "fusion_lon": 0.0, "type": "electric_bike", "name": "82766d9c19d1d2ecc2caec770b593912", "rental_uris": {"android": "https://dc.lft.to/lastmile_qr_scan", "ios": "https://dc.lft.to/lastmile_qr_scan"}, "fusion_lat": 0.0, "lat": 38.89779983333333, "is_disabled": 0, "lon": -77.00602333333333, "is_reserved": 0}, {"bike_id": "9e3dc94c7c916d9e70bad44f1a5fa02b", "fusion_lon": 0.0, "type": "electric_scooter", "name": "9e3dc94c7c916d9e70bad44f1a5fa02b", "rental_uris": {"android": "https://dc.lft.to/lastmile_qr_scan", "ios": "https://dc.lft.to/lastmile_qr_scan"}, "fusion_lat": 0.0, "lat": 38.900659, "is_disabled": 0, "lon": -77.00206133333333, "is_reserved": 0}, {"bike_id": "deb2665dc48f70d0bda026138c15105f", "fusion_lon": 0.0, "type": "electric_scooter", "name": "deb2665dc48f70d0bda026138c15105f", "rental_uris": {"android": "https://dc.lft.to/lastmile_qr_scan", "ios": "https://dc.lft.to/lastmile_qr_scan"}, "fusion_lat": 0.0, "lat": 38.9190075, "is_disabled": 0, "lon": -77.03139566666667, "is_reserved": 0}, {"bike_id": "ce5cc45da2d85fcc0397e085729de711", "fusion_lon": 0.0, "type": "electric_scooter", "name": "ce5cc45da2d85fcc0397e085729de711", "rental_uris": {"android": "https://dc.lft.to/lastmile_qr_scan", "ios": "https://dc.lft.to/lastmile_qr_scan"}, "fusion_lat": 0.0, "lat": 38.92399, "is_disabled": 0, "lon": -77.04042166666666, "is_reserved": 0}, {"bike_id": "b47342dc007bbfe001c33b3b41557fb0", "fusion_lon": 0.0, "type": "electric_scooter", "name": "b47342dc007bbfe001c33b3b41557fb0", "rental_uris": {"android": "https://dc.lft.to/lastmile_qr_scan", "ios": "https://dc.lft.to/lastmile_qr_scan"}, "fusion_lat": 0.0, "lat": 38.93416916666666, "is_disabled": 0, "lon": -77.0440545, "is_reserved": 0}, {"bike_id": "513ead3cf2859e136cca244cdfb072a8", "fusion_lon": 0.0, "type": "electric_scooter", "name": "513ead3cf2859e136cca244cdfb072a8", "rental_uris": {"android": "https://dc.lft.to/lastmile_qr_scan", "ios": "https://dc.lft.to/lastmile_qr_scan"}, "fusion_lat": 0.0, "lat": 38.890712666666666, "is_disabled": 0, "lon": -76.91930033333334, "is_reserved": 0}, {"bike_id": "b590fb786f960204276f0f1d30963663", "fusion_lon": 0.0, "type": "electric_scooter", "name": "b590fb786f960204276f0f1d30963663", "rental_uris": {"android": "https://dc.lft.to/lastmile_qr_scan", "ios": "https://dc.lft.to/lastmile_qr_scan"}, "fusion_lat": 0.0, "lat": 38.930613, "is_disabled": 0, "lon": -77.02809583333334, "is_reserved": 0}, {"bike_id": "9e81fde93fdfdddd789e743902ef5c1f", "fusion_lon": 0.0, "type": "electric_scooter", "name": "9e81fde93fdfdddd789e743902ef5c1f", "rental_uris": {"android": "https://dc.lft.to/lastmile_qr_scan", "ios": "https://dc.lft.to/lastmile_qr_scan"}, "fusion_lat": 0.0, "lat": 38.911077666666664, "is_disabled": 0, "lon": -77.04507533333333, "is_reserved": 0}, {"bike_id": "865f7239c7aa0b09a799ccab0017ac26", "fusion_lon": 0.0, "type": "electric_scooter", "name": "865f7239c7aa0b09a799ccab0017ac26", "rental_uris": {"android": "https://dc.lft.to/lastmile_qr_scan", "ios": "https://dc.lft.to/lastmile_qr_scan"}, "fusion_lat": 0.0, "lat": 38.904094666666666, "is_disabled": 0, "lon": -77.0488095, "is_reserved": 0}, {"bike_id": "ef759bb9ff0621cf0a4744f552e18e9c", "fusion_lon": 0.0, "type": "electric_scooter", "name": "ef759bb9ff0621cf0a4744f552e18e9c", "rental_uris": {"android": "https://dc.lft.to/lastmile_qr_scan", "ios": "https://dc.lft.to/lastmile_qr_scan"}, "fusion_lat": 0.0, "lat": 38.92335033333333, "is_disabled": 0, "lon": -77.0362015, "is_reserved": 0}, {"bike_id": "27ee511be1a49c209c0b8f5e896fcdc8", "fusion_lon": 0.0, "type": "electric_scooter", "name": "27ee511be1a49c209c0b8f5e896fcdc8", "rental_uris": {"android": "https://dc.lft.to/lastmile_qr_scan", "ios": "https://dc.lft.to/lastmile_qr_scan"}, "fusion_lat": 0.0, "lat": 38.903832666666666, "is_disabled": 0, "lon": -77.02975933333333, "is_reserved": 0}, {"bike_id": "2e0ad511eff2dbbf04320130d19577bb", "fusion_lon": 0.0, "type": "electric_bike", "name": "2e0ad511eff2dbbf04320130d19577bb", "rental_uris": {"android": "https://dc.lft.to/lastmile_qr_scan", "ios": "https://dc.lft.to/lastmile_qr_scan"}, "fusion_lat": 0.0, "lat": 39.05811033333333, "is_disabled": 0, "lon": -77.12627883333333, "is_reserved": 0}, {"bike_id": "564b6373675b712fba86e250ac6dcbda", "fusion_lon": 0.0, "type": "electric_bike", "name": "564b6373675b712fba86e250ac6dcbda", "rental_uris": {"android": "https://dc.lft.to/lastmile_qr_scan", "ios": "https://dc.lft.to/lastmile_qr_scan"}, "fusion_lat": 0.0, "lat": 38.85786866666667, "is_disabled": 0, "lon": -76.98745333333333, "is_reserved": 0}, {"bike_id": "4bf9a778d39b03ceef5acff14427a8a1", "fusion_lon": 0.0, "type": "electric_scooter", "name": "4bf9a778d39b03ceef5acff14427a8a1", "rental_uris": {"android": "https://dc.lft.to/lastmile_qr_scan", "ios": "https://dc.lft.to/lastmile_qr_scan"}, "fusion_lat": 0.0, "lat": 38.89213683333333, "is_disabled": 0, "lon": -77.029583, "is_reserved": 0}, {"bike_id": "a13a71996c37cd95568d729a84262e60", "fusion_lon": 0.0, "type": "electric_scooter", "name": "a13a71996c37cd95568d729a84262e60", "rental_uris": {"android": "https://dc.lft.to/lastmile_qr_scan", "ios": "https://dc.lft.to/lastmile_qr_scan"}, "fusion_lat": 0.0, "lat": 38.9103905, "is_disabled": 0, "lon": -77.0313765, "is_reserved": 0}, {"bike_id": "787bf8a8af95c4e61fa3145cfe804ec8", "fusion_lon": 0.0, "type": "electric_scooter", "name": "787bf8a8af95c4e61fa3145cfe804ec8", "rental_uris": {"android": "https://dc.lft.to/lastmile_qr_scan", "ios": "https://dc.lft.to/lastmile_qr_scan"}, "fusion_lat": 0.0, "lat": 38.84419783333333, "is_disabled": 0, "lon": -76.99832616666667, "is_reserved": 0}, {"bike_id": "297b4e18ca0e1596a46a08e9b4556032", "fusion_lon": 0.0, "type": "electric_bike", "name": "297b4e18ca0e1596a46a08e9b4556032", "rental_uris": {"android": "https://dc.lft.to/lastmile_qr_scan", "ios": "https://dc.lft.to/lastmile_qr_scan"}, "fusion_lat": 0.0, "lat": 38.951165833333334, "is_disabled": 0, "lon": -76.96556116666666, "is_reserved": 0}, {"bike_id": "957296d981c8a3b106f8d9e8a997b959", "fusion_lon": 0.0, "type": "electric_scooter", "name": "957296d981c8a3b106f8d9e8a997b959", "rental_uris": {"android": "https://dc.lft.to/lastmile_qr_scan", "ios": "https://dc.lft.to/lastmile_qr_scan"}, "fusion_lat": 0.0, "lat": 38.9558675, "is_disabled": 0, "lon": -77.0365185, "is_reserved": 0}, {"bike_id": "44e33739eb915a6402fb28bfa0e93489", "fusion_lon": 0.0, "type": "electric_scooter", "name": "44e33739eb915a6402fb28bfa0e93489", "rental_uris": {"android": "https://dc.lft.to/lastmile_qr_scan", "ios": "https://dc.lft.to/lastmile_qr_scan"}, "fusion_lat": 0.0, "lat": 38.90651316666667, "is_disabled": 0, "lon": -77.05333633333333, "is_reserved": 0}, {"bike_id": "6b11173b1e4c519d9e5fa855e5a41e97", "fusion_lon": 0.0, "type": "electric_scooter", "name": "6b11173b1e4c519d9e5fa855e5a41e97", "rental_uris": {"android": "https://dc.lft.to/lastmile_qr_scan", "ios": "https://dc.lft.to/lastmile_qr_scan"}, "fusion_lat": 0.0, "lat": 38.916434, "is_disabled": 0, "lon": -77.02273883333334, "is_reserved": 0}, {"bike_id": "748850d584c074db0fc9033150951955", "fusion_lon": 0.0, "type": "electric_scooter", "name": "748850d584c074db0fc9033150951955", "rental_uris": {"android": "https://dc.lft.to/lastmile_qr_scan", "ios": "https://dc.lft.to/lastmile_qr_scan"}, "fusion_lat": 0.0, "lat": 38.9304035, "is_disabled": 0, "lon": -77.041441, "is_reserved": 0}, {"bike_id": "1bf22c4e92b50b7bae3b8065dbf44d6e", "fusion_lon": 0.0, "type": "electric_scooter", "name": "1bf22c4e92b50b7bae3b8065dbf44d6e", "rental_uris": {"android": "https://dc.lft.to/lastmile_qr_scan", "ios": "https://dc.lft.to/lastmile_qr_scan"}, "fusion_lat": 0.0, "lat": 38.903616, "is_disabled": 0, "lon": -77.04502483333333, "is_reserved": 0}, {"bike_id": "51327a64c8e17f0c48b0d17a8f991bb2", "fusion_lon": 0.0, "type": "electric_bike", "name": "51327a64c8e17f0c48b0d17a8f991bb2", "rental_uris": {"android": "https://dc.lft.to/lastmile_qr_scan", "ios": "https://dc.lft.to/lastmile_qr_scan"}, "fusion_lat": 0.0, "lat": 38.850526, "is_disabled": 0, "lon": -76.9733585, "is_reserved": 0}, {"bike_id": "0c3ae467ea7fc296a2cbfe1ad59c4633", "fusion_lon": 0.0, "type": "electric_scooter", "name": "0c3ae467ea7fc296a2cbfe1ad59c4633", "rental_uris": {"android": "https://dc.lft.to/lastmile_qr_scan", "ios": "https://dc.lft.to/lastmile_qr_scan"}, "fusion_lat": 0.0, "lat": 38.903084666666665, "is_disabled": 0, "lon": -77.04344716666667, "is_reserved": 0}, {"bike_id": "0c517fa8cfe26dbb5cb896fc5093f993", "fusion_lon": 0.0, "type": "electric_scooter", "name": "0c517fa8cfe26dbb5cb896fc5093f993", "rental_uris": {"android": "https://dc.lft.to/lastmile_qr_scan", "ios": "https://dc.lft.to/lastmile_qr_scan"}, "fusion_lat": 0.0, "lat": 38.89386583333334, "is_disabled": 0, "lon": -77.02330083333334, "is_reserved": 0}, {"bike_id": "596f3be058b48bb4a04652f1ef1220d6", "fusion_lon": 0.0, "type": "electric_scooter", "name": "596f3be058b48bb4a04652f1ef1220d6", "rental_uris": {"android": "https://dc.lft.to/lastmile_qr_scan", "ios": "https://dc.lft.to/lastmile_qr_scan"}, "fusion_lat": 0.0, "lat": 38.928824, "is_disabled": 0, "lon": -77.02712433333333, "is_reserved": 0}, {"bike_id": "b5f388988d46d81acdc27a2e62ec0a24", "fusion_lon": 0.0, "type": "electric_scooter", "name": "b5f388988d46d81acdc27a2e62ec0a24", "rental_uris": {"android": "https://dc.lft.to/lastmile_qr_scan", "ios": "https://dc.lft.to/lastmile_qr_scan"}, "fusion_lat": 0.0, "lat": 38.91853366666667, "is_disabled": 0, "lon": -77.03218016666666, "is_reserved": 0}, {"bike_id": "1fe878d664a9967d4af106363d149858", "fusion_lon": 0.0, "type": "electric_scooter", "name": "1fe878d664a9967d4af106363d149858", "rental_uris": {"android": "https://dc.lft.to/lastmile_qr_scan", "ios": "https://dc.lft.to/lastmile_qr_scan"}, "fusion_lat": 0.0, "lat": 38.91879483333334, "is_disabled": 0, "lon": -77.03766133333333, "is_reserved": 0}, {"bike_id": "7c368c4b991ba8a5fdf0d66e2cfe0a4b", "fusion_lon": 0.0, "type": "electric_scooter", "name": "7c368c4b991ba8a5fdf0d66e2cfe0a4b", "rental_uris": {"android": "https://dc.lft.to/lastmile_qr_scan", "ios": "https://dc.lft.to/lastmile_qr_scan"}, "fusion_lat": 0.0, "lat": 38.90592433333333, "is_disabled": 0, "lon": -77.070176, "is_reserved": 0}, {"bike_id": "0efae5ea856f167a409d68385c8c9b01", "fusion_lon": 0.0, "type": "electric_scooter", "name": "0efae5ea856f167a409d68385c8c9b01", "rental_uris": {"android": "https://dc.lft.to/lastmile_qr_scan", "ios": "https://dc.lft.to/lastmile_qr_scan"}, "fusion_lat": 0.0, "lat": 38.903608, "is_disabled": 0, "lon": -77.03327766666666, "is_reserved": 0}, {"bike_id": "8e520b8a422f770c46a2f60b0fde9bea", "fusion_lon": 0.0, "type": "electric_scooter", "name": "8e520b8a422f770c46a2f60b0fde9bea", "rental_uris": {"android": "https://dc.lft.to/lastmile_qr_scan", "ios": "https://dc.lft.to/lastmile_qr_scan"}, "fusion_lat": 0.0, "lat": 38.897292166666666, "is_disabled": 0, "lon": -77.0556485, "is_reserved": 0}, {"bike_id": "d089faed679768e555d8fe9d9d96e9ad", "fusion_lon": 0.0, "type": "electric_scooter", "name": "d089faed679768e555d8fe9d9d96e9ad", "rental_uris": {"android": "https://dc.lft.to/lastmile_qr_scan", "ios": "https://dc.lft.to/lastmile_qr_scan"}, "fusion_lat": 0.0, "lat": 38.909454, "is_disabled": 0, "lon": -77.03211433333334, "is_reserved": 0}, {"bike_id": "971d28a24657a1c6befcd539adb28d22", "fusion_lon": 0.0, "type": "electric_scooter", "name": "971d28a24657a1c6befcd539adb28d22", "rental_uris": {"android": "https://dc.lft.to/lastmile_qr_scan", "ios": "https://dc.lft.to/lastmile_qr_scan"}, "fusion_lat": 0.0, "lat": 38.921229333333336, "is_disabled": 0, "lon": -77.03655516666667, "is_reserved": 0}, {"bike_id": "05b1b880f63077d56d2b2335191ee807", "fusion_lon": 0.0, "type": "electric_scooter", "name": "05b1b880f63077d56d2b2335191ee807", "rental_uris": {"android": "https://dc.lft.to/lastmile_qr_scan", "ios": "https://dc.lft.to/lastmile_qr_scan"}, "fusion_lat": 0.0, "lat": 38.912659833333336, "is_disabled": 0, "lon": -77.01689066666667, "is_reserved": 0}, {"bike_id": "909e2f0c1caeed6cbbe2a3bca75bd5ba", "fusion_lon": 0.0, "type": "electric_scooter", "name": "909e2f0c1caeed6cbbe2a3bca75bd5ba", "rental_uris": {"android": "https://dc.lft.to/lastmile_qr_scan", "ios": "https://dc.lft.to/lastmile_qr_scan"}, "fusion_lat": 0.0, "lat": 38.91144216666667, "is_disabled": 0, "lon": -77.02808216666666, "is_reserved": 0}, {"bike_id": "8b0ac2f886a5419383173a310173ea16", "fusion_lon": 0.0, "type": "electric_scooter", "name": "8b0ac2f886a5419383173a310173ea16", "rental_uris": {"android": "https://dc.lft.to/lastmile_qr_scan", "ios": "https://dc.lft.to/lastmile_qr_scan"}, "fusion_lat": 0.0, "lat": 38.8988865, "is_disabled": 0, "lon": -76.97856666666667, "is_reserved": 0}, {"bike_id": "405b13afa31a6abcd751d79ca33ffab9", "fusion_lon": 0.0, "type": "electric_bike", "name": "405b13afa31a6abcd751d79ca33ffab9", "rental_uris": {"android": "https://dc.lft.to/lastmile_qr_scan", "ios": "https://dc.lft.to/lastmile_qr_scan"}, "fusion_lat": 0.0, "lat": 38.99965816666667, "is_disabled": 0, "lon": -77.05123733333333, "is_reserved": 0}, {"bike_id": "e4ea41891d798e2a7406a7b8caefaac0", "fusion_lon": 0.0, "type": "electric_scooter", "name": "e4ea41891d798e2a7406a7b8caefaac0", "rental_uris": {"android": "https://dc.lft.to/lastmile_qr_scan", "ios": "https://dc.lft.to/lastmile_qr_scan"}, "fusion_lat": 0.0, "lat": 38.921116833333336, "is_disabled": 0, "lon": -77.0391255, "is_reserved": 0}, {"bike_id": "3b15ecad0f4881e7ac2393ba83709277", "fusion_lon": 0.0, "type": "electric_scooter", "name": "3b15ecad0f4881e7ac2393ba83709277", "rental_uris": {"android": "https://dc.lft.to/lastmile_qr_scan", "ios": "https://dc.lft.to/lastmile_qr_scan"}, "fusion_lat": 0.0, "lat": 38.876498833333336, "is_disabled": 0, "lon": -77.00339966666667, "is_reserved": 0}, {"bike_id": "f863b09bce828a149fee14e5ea14a2eb", "fusion_lon": 0.0, "type": "electric_scooter", "name": "f863b09bce828a149fee14e5ea14a2eb", "rental_uris": {"android": "https://dc.lft.to/lastmile_qr_scan", "ios": "https://dc.lft.to/lastmile_qr_scan"}, "fusion_lat": 0.0, "lat": 38.928610666666664, "is_disabled": 0, "lon": -77.03586216666666, "is_reserved": 0}, {"bike_id": "e173dfff842ff9740afabe6cb6e89665", "fusion_lon": 0.0, "type": "electric_scooter", "name": "e173dfff842ff9740afabe6cb6e89665", "rental_uris": {"android": "https://dc.lft.to/lastmile_qr_scan", "ios": "https://dc.lft.to/lastmile_qr_scan"}, "fusion_lat": 0.0, "lat": 38.91780083333333, "is_disabled": 0, "lon": -76.97335566666666, "is_reserved": 0}, {"bike_id": "6603eb4bb3c5ecfd35d0c96ff84d7006", "fusion_lon": 0.0, "type": "electric_bike", "name": "6603eb4bb3c5ecfd35d0c96ff84d7006", "rental_uris": {"android": "https://dc.lft.to/lastmile_qr_scan", "ios": "https://dc.lft.to/lastmile_qr_scan"}, "fusion_lat": 0.0, "lat": 39.1150555, "is_disabled": 0, "lon": -77.19548166666667, "is_reserved": 0}, {"bike_id": "a8b9afbb0a9e7601d1a2ab3c3b9d6849", "fusion_lon": 0.0, "type": "electric_scooter", "name": "a8b9afbb0a9e7601d1a2ab3c3b9d6849", "rental_uris": {"android": "https://dc.lft.to/lastmile_qr_scan", "ios": "https://dc.lft.to/lastmile_qr_scan"}, "fusion_lat": 0.0, "lat": 38.93685216666667, "is_disabled": 0, "lon": -77.0328665, "is_reserved": 0}, {"bike_id": "6fa7c65f793cf56bef8e515fa887adc7", "fusion_lon": 0.0, "type": "electric_scooter", "name": "6fa7c65f793cf56bef8e515fa887adc7", "rental_uris": {"android": "https://dc.lft.to/lastmile_qr_scan", "ios": "https://dc.lft.to/lastmile_qr_scan"}, "fusion_lat": 0.0, "lat": 38.898431333333335, "is_disabled": 0, "lon": -77.0333795, "is_reserved": 0}, {"bike_id": "b7f9da45216b4c7e18fe77841a2253f9", "fusion_lon": 0.0, "type": "electric_scooter", "name": "b7f9da45216b4c7e18fe77841a2253f9", "rental_uris": {"android": "https://dc.lft.to/lastmile_qr_scan", "ios": "https://dc.lft.to/lastmile_qr_scan"}, "fusion_lat": 0.0, "lat": 38.904796833333336, "is_disabled": 0, "lon": -76.99619683333333, "is_reserved": 0}, {"bike_id": "ee0b1d40defbfbe9f99b0353ce5eb3af", "fusion_lon": 0.0, "type": "electric_bike", "name": "ee0b1d40defbfbe9f99b0353ce5eb3af", "rental_uris": {"android": "https://dc.lft.to/lastmile_qr_scan", "ios": "https://dc.lft.to/lastmile_qr_scan"}, "fusion_lat": 0.0, "lat": 38.896696666666664, "is_disabled": 0, "lon": -76.9812265, "is_reserved": 0}, {"bike_id": "6441d1b8aa62e88f759968be35203cff", "fusion_lon": 0.0, "type": "electric_scooter", "name": "6441d1b8aa62e88f759968be35203cff", "rental_uris": {"android": "https://dc.lft.to/lastmile_qr_scan", "ios": "https://dc.lft.to/lastmile_qr_scan"}, "fusion_lat": 0.0, "lat": 38.887145333333336, "is_disabled": 0, "lon": -77.02207483333333, "is_reserved": 0}, {"bike_id": "d37fce2bdb6e0eb86011b240b4732234", "fusion_lon": 0.0, "type": "electric_scooter", "name": "d37fce2bdb6e0eb86011b240b4732234", "rental_uris": {"android": "https://dc.lft.to/lastmile_qr_scan", "ios": "https://dc.lft.to/lastmile_qr_scan"}, "fusion_lat": 0.0, "lat": 38.926003333333334, "is_disabled": 0, "lon": -77.021592, "is_reserved": 0}, {"bike_id": "9692c37ee86b020e889cb2f634c12e4d", "fusion_lon": 0.0, "type": "electric_scooter", "name": "9692c37ee86b020e889cb2f634c12e4d", "rental_uris": {"android": "https://dc.lft.to/lastmile_qr_scan", "ios": "https://dc.lft.to/lastmile_qr_scan"}, "fusion_lat": 0.0, "lat": 38.9111735, "is_disabled": 0, "lon": -77.04486166666666, "is_reserved": 0}, {"bike_id": "db2a1df56c4fc22c7f50d8609feb3ca8", "fusion_lon": 0.0, "type": "electric_scooter", "name": "db2a1df56c4fc22c7f50d8609feb3ca8", "rental_uris": {"android": "https://dc.lft.to/lastmile_qr_scan", "ios": "https://dc.lft.to/lastmile_qr_scan"}, "fusion_lat": 0.0, "lat": 38.88497316666667, "is_disabled": 0, "lon": -77.00623133333333, "is_reserved": 0}, {"bike_id": "7d5d5a05bcf511e545d74e9b5024766a", "fusion_lon": 0.0, "type": "electric_scooter", "name": "7d5d5a05bcf511e545d74e9b5024766a", "rental_uris": {"android": "https://dc.lft.to/lastmile_qr_scan", "ios": "https://dc.lft.to/lastmile_qr_scan"}, "fusion_lat": 0.0, "lat": 38.91822066666667, "is_disabled": 0, "lon": -77.04008733333333, "is_reserved": 0}, {"bike_id": "9620f698141ab57540c67cbc73204c53", "fusion_lon": 0.0, "type": "electric_bike", "name": "9620f698141ab57540c67cbc73204c53", "rental_uris": {"android": "https://dc.lft.to/lastmile_qr_scan", "ios": "https://dc.lft.to/lastmile_qr_scan"}, "fusion_lat": 0.0, "lat": 38.81218966666667, "is_disabled": 0, "lon": -77.11219183333333, "is_reserved": 0}, {"bike_id": "8a9195c0b9aae397ba3492aa99c52254", "fusion_lon": 0.0, "type": "electric_bike", "name": "8a9195c0b9aae397ba3492aa99c52254", "rental_uris": {"android": "https://dc.lft.to/lastmile_qr_scan", "ios": "https://dc.lft.to/lastmile_qr_scan"}, "fusion_lat": 0.0, "lat": 38.906901500000004, "is_disabled": 0, "lon": -76.95256033333334, "is_reserved": 0}, {"bike_id": "b6d7d8dd542097adb0044db6235233b8", "fusion_lon": 0.0, "type": "electric_bike", "name": "b6d7d8dd542097adb0044db6235233b8", "rental_uris": {"android": "https://dc.lft.to/lastmile_qr_scan", "ios": "https://dc.lft.to/lastmile_qr_scan"}, "fusion_lat": 0.0, "lat": 38.966079, "is_disabled": 0, "lon": -76.9833145, "is_reserved": 0}, {"bike_id": "f2422ffb646ce551d51adcfe5bd3aa6e", "fusion_lon": 0.0, "type": "electric_bike", "name": "f2422ffb646ce551d51adcfe5bd3aa6e", "rental_uris": {"android": "https://dc.lft.to/lastmile_qr_scan", "ios": "https://dc.lft.to/lastmile_qr_scan"}, "fusion_lat": 0.0, "lat": 38.91811383333334, "is_disabled": 0, "lon": -77.101845, "is_reserved": 0}, {"bike_id": "af939a180de2780afae63a0b7dc02714", "fusion_lon": 0.0, "type": "electric_scooter", "name": "af939a180de2780afae63a0b7dc02714", "rental_uris": {"android": "https://dc.lft.to/lastmile_qr_scan", "ios": "https://dc.lft.to/lastmile_qr_scan"}, "fusion_lat": 0.0, "lat": 38.911688166666664, "is_disabled": 0, "lon": -77.03186833333334, "is_reserved": 0}, {"bike_id": "ead98b3caf9f3e45bd2b42ff1fc59141", "fusion_lon": 0.0, "type": "electric_scooter", "name": "ead98b3caf9f3e45bd2b42ff1fc59141", "rental_uris": {"android": "https://dc.lft.to/lastmile_qr_scan", "ios": "https://dc.lft.to/lastmile_qr_scan"}, "fusion_lat": 0.0, "lat": 38.9306055, "is_disabled": 0, "lon": -77.04179333333333, "is_reserved": 0}, {"bike_id": "e84e181f41d056c5045b19b06da72b9d", "fusion_lon": 0.0, "type": "electric_scooter", "name": "e84e181f41d056c5045b19b06da72b9d", "rental_uris": {"android": "https://dc.lft.to/lastmile_qr_scan", "ios": "https://dc.lft.to/lastmile_qr_scan"}, "fusion_lat": 0.0, "lat": 38.884995, "is_disabled": 0, "lon": -77.0057115, "is_reserved": 0}, {"bike_id": "297521baff484d7069d0c6881646213f", "fusion_lon": 0.0, "type": "electric_scooter", "name": "297521baff484d7069d0c6881646213f", "rental_uris": {"android": "https://dc.lft.to/lastmile_qr_scan", "ios": "https://dc.lft.to/lastmile_qr_scan"}, "fusion_lat": 0.0, "lat": 38.905690666666665, "is_disabled": 0, "lon": -77.02499233333333, "is_reserved": 0}, {"bike_id": "0d9bf97275c1cfba76a2cd6ff65e6468", "fusion_lon": 0.0, "type": "electric_scooter", "name": "0d9bf97275c1cfba76a2cd6ff65e6468", "rental_uris": {"android": "https://dc.lft.to/lastmile_qr_scan", "ios": "https://dc.lft.to/lastmile_qr_scan"}, "fusion_lat": 0.0, "lat": 38.907357, "is_disabled": 0, "lon": -77.0220005, "is_reserved": 0}, {"bike_id": "3dc17ff90e0e8c11e68f949916b643bf", "fusion_lon": 0.0, "type": "electric_bike", "name": "3dc17ff90e0e8c11e68f949916b643bf", "rental_uris": {"android": "https://dc.lft.to/lastmile_qr_scan", "ios": "https://dc.lft.to/lastmile_qr_scan"}, "fusion_lat": 0.0, "lat": 38.8541255, "is_disabled": 0, "lon": -76.90960666666666, "is_reserved": 0}, {"bike_id": "4fdf94ad53f32f15e531b0acbb467c99", "fusion_lon": 0.0, "type": "electric_scooter", "name": "4fdf94ad53f32f15e531b0acbb467c99", "rental_uris": {"android": "https://dc.lft.to/lastmile_qr_scan", "ios": "https://dc.lft.to/lastmile_qr_scan"}, "fusion_lat": 0.0, "lat": 38.909557166666666, "is_disabled": 0, "lon": -77.02380966666666, "is_reserved": 0}, {"bike_id": "0563c8cbfaa7699b509438196f07c35b", "fusion_lon": 0.0, "type": "electric_scooter", "name": "0563c8cbfaa7699b509438196f07c35b", "rental_uris": {"android": "https://dc.lft.to/lastmile_qr_scan", "ios": "https://dc.lft.to/lastmile_qr_scan"}, "fusion_lat": 0.0, "lat": 38.892184, "is_disabled": 0, "lon": -77.03230133333334, "is_reserved": 0}, {"bike_id": "3129601c65afdac0a27e5871723d635d", "fusion_lon": 0.0, "type": "electric_scooter", "name": "3129601c65afdac0a27e5871723d635d", "rental_uris": {"android": "https://dc.lft.to/lastmile_qr_scan", "ios": "https://dc.lft.to/lastmile_qr_scan"}, "fusion_lat": 0.0, "lat": 38.90323, "is_disabled": 0, "lon": -77.0334265, "is_reserved": 0}, {"bike_id": "5a0ada2a42a162d755cb173fceccb3b3", "fusion_lon": 0.0, "type": "electric_scooter", "name": "5a0ada2a42a162d755cb173fceccb3b3", "rental_uris": {"android": "https://dc.lft.to/lastmile_qr_scan", "ios": "https://dc.lft.to/lastmile_qr_scan"}, "fusion_lat": 0.0, "lat": 38.914988, "is_disabled": 0, "lon": -77.01382283333334, "is_reserved": 0}, {"bike_id": "682f149c3766ed07937e270da080a151", "fusion_lon": 0.0, "type": "electric_scooter", "name": "682f149c3766ed07937e270da080a151", "rental_uris": {"android": "https://dc.lft.to/lastmile_qr_scan", "ios": "https://dc.lft.to/lastmile_qr_scan"}, "fusion_lat": 0.0, "lat": 38.899648166666665, "is_disabled": 0, "lon": -76.93431733333334, "is_reserved": 0}, {"bike_id": "c50dc79d8ba1f6c1b43a711ae221851b", "fusion_lon": 0.0, "type": "electric_scooter", "name": "c50dc79d8ba1f6c1b43a711ae221851b", "rental_uris": {"android": "https://dc.lft.to/lastmile_qr_scan", "ios": "https://dc.lft.to/lastmile_qr_scan"}, "fusion_lat": 0.0, "lat": 38.86502866666667, "is_disabled": 0, "lon": -76.990046, "is_reserved": 0}, {"bike_id": "93872e776b6dbe3d9155716303ea41fc", "fusion_lon": 0.0, "type": "electric_scooter", "name": "93872e776b6dbe3d9155716303ea41fc", "rental_uris": {"android": "https://dc.lft.to/lastmile_qr_scan", "ios": "https://dc.lft.to/lastmile_qr_scan"}, "fusion_lat": 0.0, "lat": 38.90801833333333, "is_disabled": 0, "lon": -77.051482, "is_reserved": 0}, {"bike_id": "8afe9d19aad7405b6bfedde7bfe64b0c", "fusion_lon": 0.0, "type": "electric_scooter", "name": "8afe9d19aad7405b6bfedde7bfe64b0c", "rental_uris": {"android": "https://dc.lft.to/lastmile_qr_scan", "ios": "https://dc.lft.to/lastmile_qr_scan"}, "fusion_lat": 0.0, "lat": 38.933406833333336, "is_disabled": 0, "lon": -76.9943545, "is_reserved": 0}, {"bike_id": "84835ae4061a43982f04d8c15b91f95c", "fusion_lon": 0.0, "type": "electric_scooter", "name": "84835ae4061a43982f04d8c15b91f95c", "rental_uris": {"android": "https://dc.lft.to/lastmile_qr_scan", "ios": "https://dc.lft.to/lastmile_qr_scan"}, "fusion_lat": 0.0, "lat": 38.909554666666665, "is_disabled": 0, "lon": -77.048509, "is_reserved": 0}, {"bike_id": "cc53fc0389a3947a7b7bc0bdea1b3bfc", "fusion_lon": 0.0, "type": "electric_scooter", "name": "cc53fc0389a3947a7b7bc0bdea1b3bfc", "rental_uris": {"android": "https://dc.lft.to/lastmile_qr_scan", "ios": "https://dc.lft.to/lastmile_qr_scan"}, "fusion_lat": 0.0, "lat": 38.923677166666664, "is_disabled": 0, "lon": -77.050372, "is_reserved": 0}, {"bike_id": "57cdf95f3598e8c6086236c071bd133a", "fusion_lon": 0.0, "type": "electric_scooter", "name": "57cdf95f3598e8c6086236c071bd133a", "rental_uris": {"android": "https://dc.lft.to/lastmile_qr_scan", "ios": "https://dc.lft.to/lastmile_qr_scan"}, "fusion_lat": 0.0, "lat": 38.93664366666667, "is_disabled": 0, "lon": -77.032625, "is_reserved": 0}, {"bike_id": "3e6c82136284199ea571920f0004e61c", "fusion_lon": 0.0, "type": "electric_scooter", "name": "3e6c82136284199ea571920f0004e61c", "rental_uris": {"android": "https://dc.lft.to/lastmile_qr_scan", "ios": "https://dc.lft.to/lastmile_qr_scan"}, "fusion_lat": 0.0, "lat": 38.8968355, "is_disabled": 0, "lon": -77.00500916666667, "is_reserved": 0}, {"bike_id": "584a13d855f43cf19fd933a9fb180565", "fusion_lon": 0.0, "type": "electric_scooter", "name": "584a13d855f43cf19fd933a9fb180565", "rental_uris": {"android": "https://dc.lft.to/lastmile_qr_scan", "ios": "https://dc.lft.to/lastmile_qr_scan"}, "fusion_lat": 0.0, "lat": 38.91473233333333, "is_disabled": 0, "lon": -77.01457983333333, "is_reserved": 0}, {"bike_id": "f2a50e5a38521799465b82d3ad6a4f2d", "fusion_lon": 0.0, "type": "electric_scooter", "name": "f2a50e5a38521799465b82d3ad6a4f2d", "rental_uris": {"android": "https://dc.lft.to/lastmile_qr_scan", "ios": "https://dc.lft.to/lastmile_qr_scan"}, "fusion_lat": 0.0, "lat": 38.9280545, "is_disabled": 0, "lon": -77.04365066666666, "is_reserved": 0}, {"bike_id": "7cff258cb50aec8e544d764e44bb39f7", "fusion_lon": 0.0, "type": "electric_bike", "name": "7cff258cb50aec8e544d764e44bb39f7", "rental_uris": {"android": "https://dc.lft.to/lastmile_qr_scan", "ios": "https://dc.lft.to/lastmile_qr_scan"}, "fusion_lat": 0.0, "lat": 38.845167333333336, "is_disabled": 0, "lon": -77.0779705, "is_reserved": 0}, {"bike_id": "d4795acdc44a3ed36194c8e1e9f34010", "fusion_lon": 0.0, "type": "electric_scooter", "name": "d4795acdc44a3ed36194c8e1e9f34010", "rental_uris": {"android": "https://dc.lft.to/lastmile_qr_scan", "ios": "https://dc.lft.to/lastmile_qr_scan"}, "fusion_lat": 0.0, "lat": 38.84286783333334, "is_disabled": 0, "lon": -76.99950933333334, "is_reserved": 0}, {"bike_id": "59f1825112cf4cb1312e7007c9d13311", "fusion_lon": 0.0, "type": "electric_scooter", "name": "59f1825112cf4cb1312e7007c9d13311", "rental_uris": {"android": "https://dc.lft.to/lastmile_qr_scan", "ios": "https://dc.lft.to/lastmile_qr_scan"}, "fusion_lat": 0.0, "lat": 38.8873395, "is_disabled": 0, "lon": -77.015345, "is_reserved": 0}, {"bike_id": "37b9881b887251fd9045fb8d69817f15", "fusion_lon": 0.0, "type": "electric_scooter", "name": "37b9881b887251fd9045fb8d69817f15", "rental_uris": {"android": "https://dc.lft.to/lastmile_qr_scan", "ios": "https://dc.lft.to/lastmile_qr_scan"}, "fusion_lat": 0.0, "lat": 38.91778133333333, "is_disabled": 0, "lon": -77.02348166666667, "is_reserved": 0}, {"bike_id": "cd6e63a48d8f86d7abceedb7ef82deab", "fusion_lon": 0.0, "type": "electric_scooter", "name": "cd6e63a48d8f86d7abceedb7ef82deab", "rental_uris": {"android": "https://dc.lft.to/lastmile_qr_scan", "ios": "https://dc.lft.to/lastmile_qr_scan"}, "fusion_lat": 0.0, "lat": 38.861968166666664, "is_disabled": 0, "lon": -76.99505383333333, "is_reserved": 0}, {"bike_id": "33cb91cc27d434567416512792886320", "fusion_lon": 0.0, "type": "electric_scooter", "name": "33cb91cc27d434567416512792886320", "rental_uris": {"android": "https://dc.lft.to/lastmile_qr_scan", "ios": "https://dc.lft.to/lastmile_qr_scan"}, "fusion_lat": 0.0, "lat": 38.972380666666666, "is_disabled": 0, "lon": -77.02715333333333, "is_reserved": 0}, {"bike_id": "496fc5b9f01b92715a53c71d7bffcb9c", "fusion_lon": 0.0, "type": "electric_scooter", "name": "496fc5b9f01b92715a53c71d7bffcb9c", "rental_uris": {"android": "https://dc.lft.to/lastmile_qr_scan", "ios": "https://dc.lft.to/lastmile_qr_scan"}, "fusion_lat": 0.0, "lat": 38.92901, "is_disabled": 0, "lon": -77.054569, "is_reserved": 0}, {"bike_id": "456035ae32394b9c4d9e0eb38f2f5cd5", "fusion_lon": 0.0, "type": "electric_scooter", "name": "456035ae32394b9c4d9e0eb38f2f5cd5", "rental_uris": {"android": "https://dc.lft.to/lastmile_qr_scan", "ios": "https://dc.lft.to/lastmile_qr_scan"}, "fusion_lat": 0.0, "lat": 38.899579833333334, "is_disabled": 0, "lon": -76.9845155, "is_reserved": 0}, {"bike_id": "c756edec165e40136320aeef674ddc0a", "fusion_lon": 0.0, "type": "electric_scooter", "name": "c756edec165e40136320aeef674ddc0a", "rental_uris": {"android": "https://dc.lft.to/lastmile_qr_scan", "ios": "https://dc.lft.to/lastmile_qr_scan"}, "fusion_lat": 0.0, "lat": 38.90376833333333, "is_disabled": 0, "lon": -77.01779616666667, "is_reserved": 0}, {"bike_id": "1b52aacac6a41e1ed029736d0205c223", "fusion_lon": 0.0, "type": "electric_scooter", "name": "1b52aacac6a41e1ed029736d0205c223", "rental_uris": {"android": "https://dc.lft.to/lastmile_qr_scan", "ios": "https://dc.lft.to/lastmile_qr_scan"}, "fusion_lat": 0.0, "lat": 38.9206485, "is_disabled": 0, "lon": -77.03389316666667, "is_reserved": 0}, {"bike_id": "fda8ccf90f205e081a66c44f837201f1", "fusion_lon": 0.0, "type": "electric_scooter", "name": "fda8ccf90f205e081a66c44f837201f1", "rental_uris": {"android": "https://dc.lft.to/lastmile_qr_scan", "ios": "https://dc.lft.to/lastmile_qr_scan"}, "fusion_lat": 0.0, "lat": 38.89841783333333, "is_disabled": 0, "lon": -77.03324433333333, "is_reserved": 0}, {"bike_id": "15cd206d3abef4b556c806fda19ab001", "fusion_lon": 0.0, "type": "electric_scooter", "name": "15cd206d3abef4b556c806fda19ab001", "rental_uris": {"android": "https://dc.lft.to/lastmile_qr_scan", "ios": "https://dc.lft.to/lastmile_qr_scan"}, "fusion_lat": 0.0, "lat": 38.918674, "is_disabled": 0, "lon": -77.04721266666667, "is_reserved": 0}, {"bike_id": "bacc4239d7b4386437d066ab552b6314", "fusion_lon": 0.0, "type": "electric_scooter", "name": "bacc4239d7b4386437d066ab552b6314", "rental_uris": {"android": "https://dc.lft.to/lastmile_qr_scan", "ios": "https://dc.lft.to/lastmile_qr_scan"}, "fusion_lat": 0.0, "lat": 38.90242933333333, "is_disabled": 0, "lon": -77.02661683333334, "is_reserved": 0}, {"bike_id": "00106b9fad7bc6bd1945dbdcabc64c31", "fusion_lon": 0.0, "type": "electric_scooter", "name": "00106b9fad7bc6bd1945dbdcabc64c31", "rental_uris": {"android": "https://dc.lft.to/lastmile_qr_scan", "ios": "https://dc.lft.to/lastmile_qr_scan"}, "fusion_lat": 0.0, "lat": 38.91803566666667, "is_disabled": 0, "lon": -77.01028, "is_reserved": 0}, {"bike_id": "f370f90b1ba945614f403f834fed0468", "fusion_lon": 0.0, "type": "electric_scooter", "name": "f370f90b1ba945614f403f834fed0468", "rental_uris": {"android": "https://dc.lft.to/lastmile_qr_scan", "ios": "https://dc.lft.to/lastmile_qr_scan"}, "fusion_lat": 0.0, "lat": 38.914081333333336, "is_disabled": 0, "lon": -77.04027, "is_reserved": 0}, {"bike_id": "ae716b82b91e80c70f0bf80308f49dd6", "fusion_lon": 0.0, "type": "electric_scooter", "name": "ae716b82b91e80c70f0bf80308f49dd6", "rental_uris": {"android": "https://dc.lft.to/lastmile_qr_scan", "ios": "https://dc.lft.to/lastmile_qr_scan"}, "fusion_lat": 0.0, "lat": 38.88735616666666, "is_disabled": 0, "lon": -77.0239285, "is_reserved": 0}, {"bike_id": "c5cd35fa611cc931bf4e1dd2f3de12a4", "fusion_lon": 0.0, "type": "electric_scooter", "name": "c5cd35fa611cc931bf4e1dd2f3de12a4", "rental_uris": {"android": "https://dc.lft.to/lastmile_qr_scan", "ios": "https://dc.lft.to/lastmile_qr_scan"}, "fusion_lat": 0.0, "lat": 38.855681833333335, "is_disabled": 0, "lon": -76.98692883333334, "is_reserved": 0}, {"bike_id": "3250437fa92773252d37df383cd4d479", "fusion_lon": 0.0, "type": "electric_scooter", "name": "3250437fa92773252d37df383cd4d479", "rental_uris": {"android": "https://dc.lft.to/lastmile_qr_scan", "ios": "https://dc.lft.to/lastmile_qr_scan"}, "fusion_lat": 0.0, "lat": 38.942238333333336, "is_disabled": 0, "lon": -77.06174583333333, "is_reserved": 0}, {"bike_id": "60718c07162c88f132f2fdcb5f16633c", "fusion_lon": 0.0, "type": "electric_scooter", "name": "60718c07162c88f132f2fdcb5f16633c", "rental_uris": {"android": "https://dc.lft.to/lastmile_qr_scan", "ios": "https://dc.lft.to/lastmile_qr_scan"}, "fusion_lat": 0.0, "lat": 38.9085855, "is_disabled": 0, "lon": -76.999501, "is_reserved": 0}, {"bike_id": "e90e40afd4254f2c275d9a77f48fe0b1", "fusion_lon": 0.0, "type": "electric_scooter", "name": "e90e40afd4254f2c275d9a77f48fe0b1", "rental_uris": {"android": "https://dc.lft.to/lastmile_qr_scan", "ios": "https://dc.lft.to/lastmile_qr_scan"}, "fusion_lat": 0.0, "lat": 38.90568666666667, "is_disabled": 0, "lon": -77.00607983333333, "is_reserved": 0}, {"bike_id": "f37830b785100b9641c432b7173fcb7d", "fusion_lon": 0.0, "type": "electric_scooter", "name": "f37830b785100b9641c432b7173fcb7d", "rental_uris": {"android": "https://dc.lft.to/lastmile_qr_scan", "ios": "https://dc.lft.to/lastmile_qr_scan"}, "fusion_lat": 0.0, "lat": 38.89875116666666, "is_disabled": 0, "lon": -76.93163916666667, "is_reserved": 0}, {"bike_id": "aad6fe662107fac8b6cfa49903a49284", "fusion_lon": 0.0, "type": "electric_scooter", "name": "aad6fe662107fac8b6cfa49903a49284", "rental_uris": {"android": "https://dc.lft.to/lastmile_qr_scan", "ios": "https://dc.lft.to/lastmile_qr_scan"}, "fusion_lat": 0.0, "lat": 38.924010333333335, "is_disabled": 0, "lon": -77.0254505, "is_reserved": 0}, {"bike_id": "aa352fe87ffd5caea3a3f6b16971b30c", "fusion_lon": 0.0, "type": "electric_scooter", "name": "aa352fe87ffd5caea3a3f6b16971b30c", "rental_uris": {"android": "https://dc.lft.to/lastmile_qr_scan", "ios": "https://dc.lft.to/lastmile_qr_scan"}, "fusion_lat": 0.0, "lat": 38.91109216666667, "is_disabled": 0, "lon": -77.03837833333333, "is_reserved": 0}, {"bike_id": "54686f04e4114a488b4dfe33a0403505", "fusion_lon": 0.0, "type": "electric_scooter", "name": "54686f04e4114a488b4dfe33a0403505", "rental_uris": {"android": "https://dc.lft.to/lastmile_qr_scan", "ios": "https://dc.lft.to/lastmile_qr_scan"}, "fusion_lat": 0.0, "lat": 38.91861216666667, "is_disabled": 0, "lon": -77.04184566666666, "is_reserved": 0}, {"bike_id": "bcd55eb39f7004a320672d9bc8e72073", "fusion_lon": 0.0, "type": "electric_scooter", "name": "bcd55eb39f7004a320672d9bc8e72073", "rental_uris": {"android": "https://dc.lft.to/lastmile_qr_scan", "ios": "https://dc.lft.to/lastmile_qr_scan"}, "fusion_lat": 0.0, "lat": 38.90237833333333, "is_disabled": 0, "lon": -77.03426983333334, "is_reserved": 0}, {"bike_id": "dda03ba007825a06b440930c57763cfd", "fusion_lon": 0.0, "type": "electric_scooter", "name": "dda03ba007825a06b440930c57763cfd", "rental_uris": {"android": "https://dc.lft.to/lastmile_qr_scan", "ios": "https://dc.lft.to/lastmile_qr_scan"}, "fusion_lat": 0.0, "lat": 38.90349766666667, "is_disabled": 0, "lon": -77.02893983333334, "is_reserved": 0}, {"bike_id": "649cdbad8d6d20d2e3b9e279cfe8da3d", "fusion_lon": 0.0, "type": "electric_scooter", "name": "649cdbad8d6d20d2e3b9e279cfe8da3d", "rental_uris": {"android": "https://dc.lft.to/lastmile_qr_scan", "ios": "https://dc.lft.to/lastmile_qr_scan"}, "fusion_lat": 0.0, "lat": 38.91175483333333, "is_disabled": 0, "lon": -76.98769866666666, "is_reserved": 0}, {"bike_id": "8bea613a5aa2cd5febc332ebfdc7a962", "fusion_lon": 0.0, "type": "electric_scooter", "name": "8bea613a5aa2cd5febc332ebfdc7a962", "rental_uris": {"android": "https://dc.lft.to/lastmile_qr_scan", "ios": "https://dc.lft.to/lastmile_qr_scan"}, "fusion_lat": 0.0, "lat": 38.9043875, "is_disabled": 0, "lon": -77.0465855, "is_reserved": 0}, {"bike_id": "0e55d1fe411bcedc72054ed95b695dbf", "fusion_lon": 0.0, "type": "electric_scooter", "name": "0e55d1fe411bcedc72054ed95b695dbf", "rental_uris": {"android": "https://dc.lft.to/lastmile_qr_scan", "ios": "https://dc.lft.to/lastmile_qr_scan"}, "fusion_lat": 0.0, "lat": 38.9079235, "is_disabled": 0, "lon": -76.94122433333334, "is_reserved": 0}, {"bike_id": "e6218f03b0e8f701a2b1b6d5d8ffbdfe", "fusion_lon": 0.0, "type": "electric_scooter", "name": "e6218f03b0e8f701a2b1b6d5d8ffbdfe", "rental_uris": {"android": "https://dc.lft.to/lastmile_qr_scan", "ios": "https://dc.lft.to/lastmile_qr_scan"}, "fusion_lat": 0.0, "lat": 38.90288116666667, "is_disabled": 0, "lon": -76.936622, "is_reserved": 0}, {"bike_id": "bb6246ab591196da518d5dce2a923d2e", "fusion_lon": 0.0, "type": "electric_scooter", "name": "bb6246ab591196da518d5dce2a923d2e", "rental_uris": {"android": "https://dc.lft.to/lastmile_qr_scan", "ios": "https://dc.lft.to/lastmile_qr_scan"}, "fusion_lat": 0.0, "lat": 38.89837633333333, "is_disabled": 0, "lon": -77.0178605, "is_reserved": 0}, {"bike_id": "69011e9172b5b6263be9a86b87676ffe", "fusion_lon": 0.0, "type": "electric_scooter", "name": "69011e9172b5b6263be9a86b87676ffe", "rental_uris": {"android": "https://dc.lft.to/lastmile_qr_scan", "ios": "https://dc.lft.to/lastmile_qr_scan"}, "fusion_lat": 0.0, "lat": 38.93320833333333, "is_disabled": 0, "lon": -77.0379945, "is_reserved": 0}, {"bike_id": "e397c6b8c21e18c0336a546d5188de6c", "fusion_lon": 0.0, "type": "electric_scooter", "name": "e397c6b8c21e18c0336a546d5188de6c", "rental_uris": {"android": "https://dc.lft.to/lastmile_qr_scan", "ios": "https://dc.lft.to/lastmile_qr_scan"}, "fusion_lat": 0.0, "lat": 38.92506633333333, "is_disabled": 0, "lon": -77.02579383333334, "is_reserved": 0}, {"bike_id": "b5c7300cf6295ef013a7f8345dbc0863", "fusion_lon": 0.0, "type": "electric_scooter", "name": "b5c7300cf6295ef013a7f8345dbc0863", "rental_uris": {"android": "https://dc.lft.to/lastmile_qr_scan", "ios": "https://dc.lft.to/lastmile_qr_scan"}, "fusion_lat": 0.0, "lat": 38.904211333333336, "is_disabled": 0, "lon": -77.02883083333333, "is_reserved": 0}, {"bike_id": "27188b152ddebba0d11c329f938de19f", "fusion_lon": 0.0, "type": "electric_scooter", "name": "27188b152ddebba0d11c329f938de19f", "rental_uris": {"android": "https://dc.lft.to/lastmile_qr_scan", "ios": "https://dc.lft.to/lastmile_qr_scan"}, "fusion_lat": 0.0, "lat": 38.903043833333335, "is_disabled": 0, "lon": -77.04876633333333, "is_reserved": 0}, {"bike_id": "31e7db526136523dd76e460e4bc07873", "fusion_lon": 0.0, "type": "electric_scooter", "name": "31e7db526136523dd76e460e4bc07873", "rental_uris": {"android": "https://dc.lft.to/lastmile_qr_scan", "ios": "https://dc.lft.to/lastmile_qr_scan"}, "fusion_lat": 0.0, "lat": 38.919102, "is_disabled": 0, "lon": -77.02139683333333, "is_reserved": 0}, {"bike_id": "5c34462b7c961298021f5e78cda3f702", "fusion_lon": 0.0, "type": "electric_scooter", "name": "5c34462b7c961298021f5e78cda3f702", "rental_uris": {"android": "https://dc.lft.to/lastmile_qr_scan", "ios": "https://dc.lft.to/lastmile_qr_scan"}, "fusion_lat": 0.0, "lat": 38.951238000000004, "is_disabled": 0, "lon": -77.027287, "is_reserved": 0}, {"bike_id": "8ad3c9ff64db15f47369e14cc6f556a2", "fusion_lon": 0.0, "type": "electric_scooter", "name": "8ad3c9ff64db15f47369e14cc6f556a2", "rental_uris": {"android": "https://dc.lft.to/lastmile_qr_scan", "ios": "https://dc.lft.to/lastmile_qr_scan"}, "fusion_lat": 0.0, "lat": 38.915436166666666, "is_disabled": 0, "lon": -77.02432266666666, "is_reserved": 0}, {"bike_id": "4a3c06af87f8b85264a4c2d55caa71e0", "fusion_lon": 0.0, "type": "electric_scooter", "name": "4a3c06af87f8b85264a4c2d55caa71e0", "rental_uris": {"android": "https://dc.lft.to/lastmile_qr_scan", "ios": "https://dc.lft.to/lastmile_qr_scan"}, "fusion_lat": 0.0, "lat": 38.923732333333334, "is_disabled": 0, "lon": -77.04092, "is_reserved": 0}, {"bike_id": "90470dab4147ef26034db31480c27094", "fusion_lon": 0.0, "type": "electric_scooter", "name": "90470dab4147ef26034db31480c27094", "rental_uris": {"android": "https://dc.lft.to/lastmile_qr_scan", "ios": "https://dc.lft.to/lastmile_qr_scan"}, "fusion_lat": 0.0, "lat": 38.93588366666667, "is_disabled": 0, "lon": -77.03364433333333, "is_reserved": 0}, {"bike_id": "98f901416e85a652c425503606ffb5fe", "fusion_lon": 0.0, "type": "electric_scooter", "name": "98f901416e85a652c425503606ffb5fe", "rental_uris": {"android": "https://dc.lft.to/lastmile_qr_scan", "ios": "https://dc.lft.to/lastmile_qr_scan"}, "fusion_lat": 0.0, "lat": 38.896171333333335, "is_disabled": 0, "lon": -76.99935316666667, "is_reserved": 0}, {"bike_id": "b646e73d0f0a843fd0fd125540281ae1", "fusion_lon": 0.0, "type": "electric_scooter", "name": "b646e73d0f0a843fd0fd125540281ae1", "rental_uris": {"android": "https://dc.lft.to/lastmile_qr_scan", "ios": "https://dc.lft.to/lastmile_qr_scan"}, "fusion_lat": 0.0, "lat": 38.88510466666666, "is_disabled": 0, "lon": -77.006084, "is_reserved": 0}, {"bike_id": "b73d97da137e0ea62d16a13e7583e663", "fusion_lon": 0.0, "type": "electric_bike", "name": "b73d97da137e0ea62d16a13e7583e663", "rental_uris": {"android": "https://dc.lft.to/lastmile_qr_scan", "ios": "https://dc.lft.to/lastmile_qr_scan"}, "fusion_lat": 0.0, "lat": 38.8412655, "is_disabled": 0, "lon": -77.06316883333334, "is_reserved": 0}, {"bike_id": "33616037529d7a0866ebe7bc0db22870", "fusion_lon": 0.0, "type": "electric_scooter", "name": "33616037529d7a0866ebe7bc0db22870", "rental_uris": {"android": "https://dc.lft.to/lastmile_qr_scan", "ios": "https://dc.lft.to/lastmile_qr_scan"}, "fusion_lat": 0.0, "lat": 38.930139, "is_disabled": 0, "lon": -77.02124, "is_reserved": 0}, {"bike_id": "3b92cab5620b3d65454c4a92ee623350", "fusion_lon": 0.0, "type": "electric_scooter", "name": "3b92cab5620b3d65454c4a92ee623350", "rental_uris": {"android": "https://dc.lft.to/lastmile_qr_scan", "ios": "https://dc.lft.to/lastmile_qr_scan"}, "fusion_lat": 0.0, "lat": 38.91189383333333, "is_disabled": 0, "lon": -77.02958533333333, "is_reserved": 0}, {"bike_id": "e115284e0b18a939673eb2d21b3e87ed", "fusion_lon": 0.0, "type": "electric_scooter", "name": "e115284e0b18a939673eb2d21b3e87ed", "rental_uris": {"android": "https://dc.lft.to/lastmile_qr_scan", "ios": "https://dc.lft.to/lastmile_qr_scan"}, "fusion_lat": 0.0, "lat": 38.953266666666664, "is_disabled": 0, "lon": -77.01658066666667, "is_reserved": 0}, {"bike_id": "9a54d0a4c900fab4352792b7338312ab", "fusion_lon": 0.0, "type": "electric_bike", "name": "9a54d0a4c900fab4352792b7338312ab", "rental_uris": {"android": "https://dc.lft.to/lastmile_qr_scan", "ios": "https://dc.lft.to/lastmile_qr_scan"}, "fusion_lat": 0.0, "lat": 38.938675, "is_disabled": 0, "lon": -77.042338, "is_reserved": 0}, {"bike_id": "961d401b95b8b898687c551ab6373e41", "fusion_lon": 0.0, "type": "electric_scooter", "name": "961d401b95b8b898687c551ab6373e41", "rental_uris": {"android": "https://dc.lft.to/lastmile_qr_scan", "ios": "https://dc.lft.to/lastmile_qr_scan"}, "fusion_lat": 0.0, "lat": 38.92270333333333, "is_disabled": 0, "lon": -76.99763866666666, "is_reserved": 0}, {"bike_id": "3115ae0e659761b35529e9478481b1db", "fusion_lon": 0.0, "type": "electric_scooter", "name": "3115ae0e659761b35529e9478481b1db", "rental_uris": {"android": "https://dc.lft.to/lastmile_qr_scan", "ios": "https://dc.lft.to/lastmile_qr_scan"}, "fusion_lat": 0.0, "lat": 38.910931833333336, "is_disabled": 0, "lon": -77.00171683333333, "is_reserved": 0}, {"bike_id": "fccfc60a21c06d4408a8f995024ee84c", "fusion_lon": 0.0, "type": "electric_bike", "name": "fccfc60a21c06d4408a8f995024ee84c", "rental_uris": {"android": "https://dc.lft.to/lastmile_qr_scan", "ios": "https://dc.lft.to/lastmile_qr_scan"}, "fusion_lat": 0.0, "lat": 38.935660666666664, "is_disabled": 0, "lon": -76.95466716666667, "is_reserved": 0}, {"bike_id": "83f1b87a78ac1ba0beb9390a717134a8", "fusion_lon": 0.0, "type": "electric_scooter", "name": "83f1b87a78ac1ba0beb9390a717134a8", "rental_uris": {"android": "https://dc.lft.to/lastmile_qr_scan", "ios": "https://dc.lft.to/lastmile_qr_scan"}, "fusion_lat": 0.0, "lat": 38.9169995, "is_disabled": 0, "lon": -77.02907416666666, "is_reserved": 0}, {"bike_id": "1e824ac34cc3336799aefbf6c0053f15", "fusion_lon": 0.0, "type": "electric_scooter", "name": "1e824ac34cc3336799aefbf6c0053f15", "rental_uris": {"android": "https://dc.lft.to/lastmile_qr_scan", "ios": "https://dc.lft.to/lastmile_qr_scan"}, "fusion_lat": 0.0, "lat": 38.898477, "is_disabled": 0, "lon": -76.9903585, "is_reserved": 0}, {"bike_id": "a1fbaed12ed9fbb0c467455ff96e3b78", "fusion_lon": 0.0, "type": "electric_scooter", "name": "a1fbaed12ed9fbb0c467455ff96e3b78", "rental_uris": {"android": "https://dc.lft.to/lastmile_qr_scan", "ios": "https://dc.lft.to/lastmile_qr_scan"}, "fusion_lat": 0.0, "lat": 38.930177666666665, "is_disabled": 0, "lon": -77.03229, "is_reserved": 0}, {"bike_id": "4a3578e7bbfb8f681329183bd52bf202", "fusion_lon": 0.0, "type": "electric_scooter", "name": "4a3578e7bbfb8f681329183bd52bf202", "rental_uris": {"android": "https://dc.lft.to/lastmile_qr_scan", "ios": "https://dc.lft.to/lastmile_qr_scan"}, "fusion_lat": 0.0, "lat": 38.908766666666665, "is_disabled": 0, "lon": -77.0184075, "is_reserved": 0}, {"bike_id": "6a2bb760b6fe763e73b2d6b9add73628", "fusion_lon": 0.0, "type": "electric_scooter", "name": "6a2bb760b6fe763e73b2d6b9add73628", "rental_uris": {"android": "https://dc.lft.to/lastmile_qr_scan", "ios": "https://dc.lft.to/lastmile_qr_scan"}, "fusion_lat": 0.0, "lat": 38.86352133333333, "is_disabled": 0, "lon": -76.98265783333333, "is_reserved": 0}, {"bike_id": "b7f1cfcdaef44718aeb7280b001f0b15", "fusion_lon": 0.0, "type": "electric_scooter", "name": "b7f1cfcdaef44718aeb7280b001f0b15", "rental_uris": {"android": "https://dc.lft.to/lastmile_qr_scan", "ios": "https://dc.lft.to/lastmile_qr_scan"}, "fusion_lat": 0.0, "lat": 38.8859355, "is_disabled": 0, "lon": -76.99462083333333, "is_reserved": 0}, {"bike_id": "13f83be0a279473355d9a25512112b8b", "fusion_lon": 0.0, "type": "electric_scooter", "name": "13f83be0a279473355d9a25512112b8b", "rental_uris": {"android": "https://dc.lft.to/lastmile_qr_scan", "ios": "https://dc.lft.to/lastmile_qr_scan"}, "fusion_lat": 0.0, "lat": 38.88078766666667, "is_disabled": 0, "lon": -76.9852265, "is_reserved": 0}, {"bike_id": "7e32cd2bb07da2a8a556a37a94103cd6", "fusion_lon": 0.0, "type": "electric_bike", "name": "7e32cd2bb07da2a8a556a37a94103cd6", "rental_uris": {"android": "https://dc.lft.to/lastmile_qr_scan", "ios": "https://dc.lft.to/lastmile_qr_scan"}, "fusion_lat": 0.0, "lat": 38.856202333333336, "is_disabled": 0, "lon": -77.08542933333334, "is_reserved": 0}, {"bike_id": "49d852fd7691de33d1f4444e3d6570ba", "fusion_lon": 0.0, "type": "electric_bike", "name": "49d852fd7691de33d1f4444e3d6570ba", "rental_uris": {"android": "https://dc.lft.to/lastmile_qr_scan", "ios": "https://dc.lft.to/lastmile_qr_scan"}, "fusion_lat": 0.0, "lat": 39.0884465, "is_disabled": 0, "lon": -77.17800283333334, "is_reserved": 0}, {"bike_id": "0d3a7221fdbcb9971beb29d82827e313", "fusion_lon": 0.0, "type": "electric_scooter", "name": "0d3a7221fdbcb9971beb29d82827e313", "rental_uris": {"android": "https://dc.lft.to/lastmile_qr_scan", "ios": "https://dc.lft.to/lastmile_qr_scan"}, "fusion_lat": 0.0, "lat": 38.90116, "is_disabled": 0, "lon": -77.01701066666666, "is_reserved": 0}, {"bike_id": "d9b35a6b023de57ab52c4d48be65dcc4", "fusion_lon": 0.0, "type": "electric_scooter", "name": "d9b35a6b023de57ab52c4d48be65dcc4", "rental_uris": {"android": "https://dc.lft.to/lastmile_qr_scan", "ios": "https://dc.lft.to/lastmile_qr_scan"}, "fusion_lat": 0.0, "lat": 38.9356725, "is_disabled": 0, "lon": -77.02127466666667, "is_reserved": 0}, {"bike_id": "2206bcf51e6547ff22f7fc00669a3488", "fusion_lon": 0.0, "type": "electric_scooter", "name": "2206bcf51e6547ff22f7fc00669a3488", "rental_uris": {"android": "https://dc.lft.to/lastmile_qr_scan", "ios": "https://dc.lft.to/lastmile_qr_scan"}, "fusion_lat": 0.0, "lat": 38.866682, "is_disabled": 0, "lon": -76.98897533333333, "is_reserved": 0}, {"bike_id": "ebe0671adde713bb78217dce40d775ac", "fusion_lon": 0.0, "type": "electric_bike", "name": "ebe0671adde713bb78217dce40d775ac", "rental_uris": {"android": "https://dc.lft.to/lastmile_qr_scan", "ios": "https://dc.lft.to/lastmile_qr_scan"}, "fusion_lat": 0.0, "lat": 38.96209016666667, "is_disabled": 0, "lon": -77.0263285, "is_reserved": 0}, {"bike_id": "b6afdaf6892c6a06fe10535f545e272d", "fusion_lon": 0.0, "type": "electric_scooter", "name": "b6afdaf6892c6a06fe10535f545e272d", "rental_uris": {"android": "https://dc.lft.to/lastmile_qr_scan", "ios": "https://dc.lft.to/lastmile_qr_scan"}, "fusion_lat": 0.0, "lat": 38.950693666666666, "is_disabled": 0, "lon": -77.065382, "is_reserved": 0}, {"bike_id": "d7e796a22f0575c34c3f00b7f219d31a", "fusion_lon": 0.0, "type": "electric_scooter", "name": "d7e796a22f0575c34c3f00b7f219d31a", "rental_uris": {"android": "https://dc.lft.to/lastmile_qr_scan", "ios": "https://dc.lft.to/lastmile_qr_scan"}, "fusion_lat": 0.0, "lat": 38.90683716666667, "is_disabled": 0, "lon": -77.02696683333333, "is_reserved": 0}, {"bike_id": "3c85ee77a6b913d45b5729d96311d0d7", "fusion_lon": 0.0, "type": "electric_scooter", "name": "3c85ee77a6b913d45b5729d96311d0d7", "rental_uris": {"android": "https://dc.lft.to/lastmile_qr_scan", "ios": "https://dc.lft.to/lastmile_qr_scan"}, "fusion_lat": 0.0, "lat": 38.89269083333333, "is_disabled": 0, "lon": -77.02039283333333, "is_reserved": 0}, {"bike_id": "0abc6edebe909f4c5ab579d4e71ec847", "fusion_lon": 0.0, "type": "electric_scooter", "name": "0abc6edebe909f4c5ab579d4e71ec847", "rental_uris": {"android": "https://dc.lft.to/lastmile_qr_scan", "ios": "https://dc.lft.to/lastmile_qr_scan"}, "fusion_lat": 0.0, "lat": 38.94092666666667, "is_disabled": 0, "lon": -77.02509933333333, "is_reserved": 0}, {"bike_id": "95475ae185963f347ff40b94298a9687", "fusion_lon": 0.0, "type": "electric_scooter", "name": "95475ae185963f347ff40b94298a9687", "rental_uris": {"android": "https://dc.lft.to/lastmile_qr_scan", "ios": "https://dc.lft.to/lastmile_qr_scan"}, "fusion_lat": 0.0, "lat": 38.88504733333333, "is_disabled": 0, "lon": -77.03359233333333, "is_reserved": 0}, {"bike_id": "7ff6d035870146f0830abacd84e1c921", "fusion_lon": 0.0, "type": "electric_scooter", "name": "7ff6d035870146f0830abacd84e1c921", "rental_uris": {"android": "https://dc.lft.to/lastmile_qr_scan", "ios": "https://dc.lft.to/lastmile_qr_scan"}, "fusion_lat": 0.0, "lat": 38.95662683333333, "is_disabled": 0, "lon": -77.03337883333333, "is_reserved": 0}, {"bike_id": "5137f450e4d16466e3d345aed5b95981", "fusion_lon": 0.0, "type": "electric_scooter", "name": "5137f450e4d16466e3d345aed5b95981", "rental_uris": {"android": "https://dc.lft.to/lastmile_qr_scan", "ios": "https://dc.lft.to/lastmile_qr_scan"}, "fusion_lat": 0.0, "lat": 38.900033, "is_disabled": 0, "lon": -77.00027566666667, "is_reserved": 0}, {"bike_id": "a67afc8f98c53866b375ed87aacfb39b", "fusion_lon": 0.0, "type": "electric_scooter", "name": "a67afc8f98c53866b375ed87aacfb39b", "rental_uris": {"android": "https://dc.lft.to/lastmile_qr_scan", "ios": "https://dc.lft.to/lastmile_qr_scan"}, "fusion_lat": 0.0, "lat": 38.91457483333333, "is_disabled": 0, "lon": -77.0418685, "is_reserved": 0}, {"bike_id": "e4aa192d9c196c2626f4146ae848895a", "fusion_lon": 0.0, "type": "electric_scooter", "name": "e4aa192d9c196c2626f4146ae848895a", "rental_uris": {"android": "https://dc.lft.to/lastmile_qr_scan", "ios": "https://dc.lft.to/lastmile_qr_scan"}, "fusion_lat": 0.0, "lat": 38.91168016666666, "is_disabled": 0, "lon": -77.08441616666667, "is_reserved": 0}, {"bike_id": "4d372ee2b902057ccd2d53fce8efb664", "fusion_lon": 0.0, "type": "electric_scooter", "name": "4d372ee2b902057ccd2d53fce8efb664", "rental_uris": {"android": "https://dc.lft.to/lastmile_qr_scan", "ios": "https://dc.lft.to/lastmile_qr_scan"}, "fusion_lat": 0.0, "lat": 38.930288, "is_disabled": 0, "lon": -77.01296133333334, "is_reserved": 0}, {"bike_id": "3b35fca4ecedd166ca412ffff352ba7a", "fusion_lon": 0.0, "type": "electric_scooter", "name": "3b35fca4ecedd166ca412ffff352ba7a", "rental_uris": {"android": "https://dc.lft.to/lastmile_qr_scan", "ios": "https://dc.lft.to/lastmile_qr_scan"}, "fusion_lat": 0.0, "lat": 38.921719, "is_disabled": 0, "lon": -77.03912966666667, "is_reserved": 0}, {"bike_id": "d78cd02b9c1b1508b6ff74f12696c115", "fusion_lon": 0.0, "type": "electric_scooter", "name": "d78cd02b9c1b1508b6ff74f12696c115", "rental_uris": {"android": "https://dc.lft.to/lastmile_qr_scan", "ios": "https://dc.lft.to/lastmile_qr_scan"}, "fusion_lat": 0.0, "lat": 38.900646333333334, "is_disabled": 0, "lon": -77.027253, "is_reserved": 0}, {"bike_id": "c4f9f363a34e91f409e700df91ff0379", "fusion_lon": 0.0, "type": "electric_scooter", "name": "c4f9f363a34e91f409e700df91ff0379", "rental_uris": {"android": "https://dc.lft.to/lastmile_qr_scan", "ios": "https://dc.lft.to/lastmile_qr_scan"}, "fusion_lat": 0.0, "lat": 38.931757166666664, "is_disabled": 0, "lon": -77.03424583333333, "is_reserved": 0}, {"bike_id": "fd875a10d6715dd296e2fcfb90405132", "fusion_lon": 0.0, "type": "electric_scooter", "name": "fd875a10d6715dd296e2fcfb90405132", "rental_uris": {"android": "https://dc.lft.to/lastmile_qr_scan", "ios": "https://dc.lft.to/lastmile_qr_scan"}, "fusion_lat": 0.0, "lat": 38.9201505, "is_disabled": 0, "lon": -77.01703383333333, "is_reserved": 0}, {"bike_id": "93c92b7e5170b4801b8cb90adb73f2f5", "fusion_lon": 0.0, "type": "electric_scooter", "name": "93c92b7e5170b4801b8cb90adb73f2f5", "rental_uris": {"android": "https://dc.lft.to/lastmile_qr_scan", "ios": "https://dc.lft.to/lastmile_qr_scan"}, "fusion_lat": 0.0, "lat": 38.892302, "is_disabled": 0, "lon": -77.05007916666666, "is_reserved": 0}, {"bike_id": "ff4134a65b506ea2e8e4d4cb92052ab1", "fusion_lon": 0.0, "type": "electric_scooter", "name": "ff4134a65b506ea2e8e4d4cb92052ab1", "rental_uris": {"android": "https://dc.lft.to/lastmile_qr_scan", "ios": "https://dc.lft.to/lastmile_qr_scan"}, "fusion_lat": 0.0, "lat": 38.9095, "is_disabled": 0, "lon": -77.03945916666666, "is_reserved": 0}, {"bike_id": "5cfb814c9db544429dd4a5188b12dea6", "fusion_lon": 0.0, "type": "electric_scooter", "name": "5cfb814c9db544429dd4a5188b12dea6", "rental_uris": {"android": "https://dc.lft.to/lastmile_qr_scan", "ios": "https://dc.lft.to/lastmile_qr_scan"}, "fusion_lat": 0.0, "lat": 38.917208, "is_disabled": 0, "lon": -77.0366485, "is_reserved": 0}, {"bike_id": "5cf56227bb86da2fda53af8b9200308d", "fusion_lon": 0.0, "type": "electric_bike", "name": "5cf56227bb86da2fda53af8b9200308d", "rental_uris": {"android": "https://dc.lft.to/lastmile_qr_scan", "ios": "https://dc.lft.to/lastmile_qr_scan"}, "fusion_lat": 0.0, "lat": 38.99048883333333, "is_disabled": 0, "lon": -77.06955033333334, "is_reserved": 0}, {"bike_id": "e4f32150b4f2739ad78d86595c522d4e", "fusion_lon": 0.0, "type": "electric_scooter", "name": "e4f32150b4f2739ad78d86595c522d4e", "rental_uris": {"android": "https://dc.lft.to/lastmile_qr_scan", "ios": "https://dc.lft.to/lastmile_qr_scan"}, "fusion_lat": 0.0, "lat": 38.91123316666667, "is_disabled": 0, "lon": -77.048217, "is_reserved": 0}, {"bike_id": "6a0031ff1b1a8519b6faa325b973f174", "fusion_lon": 0.0, "type": "electric_scooter", "name": "6a0031ff1b1a8519b6faa325b973f174", "rental_uris": {"android": "https://dc.lft.to/lastmile_qr_scan", "ios": "https://dc.lft.to/lastmile_qr_scan"}, "fusion_lat": 0.0, "lat": 38.91721416666667, "is_disabled": 0, "lon": -77.02710133333333, "is_reserved": 0}, {"bike_id": "27e1ba2808e2fe01c0caaf84bb726692", "fusion_lon": 0.0, "type": "electric_bike", "name": "27e1ba2808e2fe01c0caaf84bb726692", "rental_uris": {"android": "https://dc.lft.to/lastmile_qr_scan", "ios": "https://dc.lft.to/lastmile_qr_scan"}, "fusion_lat": 0.0, "lat": 38.906166, "is_disabled": 0, "lon": -76.98616366666667, "is_reserved": 0}, {"bike_id": "e93e40510a159c5a2efb2f90c061eb23", "fusion_lon": 0.0, "type": "electric_scooter", "name": "e93e40510a159c5a2efb2f90c061eb23", "rental_uris": {"android": "https://dc.lft.to/lastmile_qr_scan", "ios": "https://dc.lft.to/lastmile_qr_scan"}, "fusion_lat": 0.0, "lat": 38.90218183333333, "is_disabled": 0, "lon": -76.99029233333333, "is_reserved": 0}, {"bike_id": "d57aad6206fd0341491f7501da0bc594", "fusion_lon": 0.0, "type": "electric_scooter", "name": "d57aad6206fd0341491f7501da0bc594", "rental_uris": {"android": "https://dc.lft.to/lastmile_qr_scan", "ios": "https://dc.lft.to/lastmile_qr_scan"}, "fusion_lat": 0.0, "lat": 38.92858783333333, "is_disabled": 0, "lon": -77.03447816666667, "is_reserved": 0}, {"bike_id": "c5b5df187965884e38c1feec47fa0624", "fusion_lon": 0.0, "type": "electric_scooter", "name": "c5b5df187965884e38c1feec47fa0624", "rental_uris": {"android": "https://dc.lft.to/lastmile_qr_scan", "ios": "https://dc.lft.to/lastmile_qr_scan"}, "fusion_lat": 0.0, "lat": 38.905030333333336, "is_disabled": 0, "lon": -77.02968316666667, "is_reserved": 0}, {"bike_id": "f506deb6a0583963d8f6122f76342d53", "fusion_lon": 0.0, "type": "electric_scooter", "name": "f506deb6a0583963d8f6122f76342d53", "rental_uris": {"android": "https://dc.lft.to/lastmile_qr_scan", "ios": "https://dc.lft.to/lastmile_qr_scan"}, "fusion_lat": 0.0, "lat": 38.9086575, "is_disabled": 0, "lon": -77.0322035, "is_reserved": 0}, {"bike_id": "3001643905d4fc1b22cfcdfe8de70ef5", "fusion_lon": 0.0, "type": "electric_scooter", "name": "3001643905d4fc1b22cfcdfe8de70ef5", "rental_uris": {"android": "https://dc.lft.to/lastmile_qr_scan", "ios": "https://dc.lft.to/lastmile_qr_scan"}, "fusion_lat": 0.0, "lat": 38.9263975, "is_disabled": 0, "lon": -77.02519116666667, "is_reserved": 0}, {"bike_id": "ed9b86f09dea84b398e78e50537e1b4f", "fusion_lon": 0.0, "type": "electric_scooter", "name": "ed9b86f09dea84b398e78e50537e1b4f", "rental_uris": {"android": "https://dc.lft.to/lastmile_qr_scan", "ios": "https://dc.lft.to/lastmile_qr_scan"}, "fusion_lat": 0.0, "lat": 38.89964466666667, "is_disabled": 0, "lon": -76.9376195, "is_reserved": 0}, {"bike_id": "9e520003d2143d81735f765c20c0b95b", "fusion_lon": 0.0, "type": "electric_scooter", "name": "9e520003d2143d81735f765c20c0b95b", "rental_uris": {"android": "https://dc.lft.to/lastmile_qr_scan", "ios": "https://dc.lft.to/lastmile_qr_scan"}, "fusion_lat": 0.0, "lat": 38.93061633333333, "is_disabled": 0, "lon": -77.0280985, "is_reserved": 0}, {"bike_id": "a562861924213b6498839c8c3c8026d9", "fusion_lon": 0.0, "type": "electric_scooter", "name": "a562861924213b6498839c8c3c8026d9", "rental_uris": {"android": "https://dc.lft.to/lastmile_qr_scan", "ios": "https://dc.lft.to/lastmile_qr_scan"}, "fusion_lat": 0.0, "lat": 38.913931, "is_disabled": 0, "lon": -77.04185916666667, "is_reserved": 0}, {"bike_id": "e8e8fdaba6408e94d0fb568eb5678ad2", "fusion_lon": 0.0, "type": "electric_scooter", "name": "e8e8fdaba6408e94d0fb568eb5678ad2", "rental_uris": {"android": "https://dc.lft.to/lastmile_qr_scan", "ios": "https://dc.lft.to/lastmile_qr_scan"}, "fusion_lat": 0.0, "lat": 38.91718316666667, "is_disabled": 0, "lon": -77.0316795, "is_reserved": 0}, {"bike_id": "a0407068c8867321e8496eebe99200f0", "fusion_lon": 0.0, "type": "electric_scooter", "name": "a0407068c8867321e8496eebe99200f0", "rental_uris": {"android": "https://dc.lft.to/lastmile_qr_scan", "ios": "https://dc.lft.to/lastmile_qr_scan"}, "fusion_lat": 0.0, "lat": 38.903422666666664, "is_disabled": 0, "lon": -76.9885485, "is_reserved": 0}, {"bike_id": "af607fe56b8e652891e0175d5825556f", "fusion_lon": 0.0, "type": "electric_scooter", "name": "af607fe56b8e652891e0175d5825556f", "rental_uris": {"android": "https://dc.lft.to/lastmile_qr_scan", "ios": "https://dc.lft.to/lastmile_qr_scan"}, "fusion_lat": 0.0, "lat": 38.916325666666665, "is_disabled": 0, "lon": -77.03976933333334, "is_reserved": 0}, {"bike_id": "c6d52de08b5e5d44bcd8be3ca3aee194", "fusion_lon": 0.0, "type": "electric_scooter", "name": "c6d52de08b5e5d44bcd8be3ca3aee194", "rental_uris": {"android": "https://dc.lft.to/lastmile_qr_scan", "ios": "https://dc.lft.to/lastmile_qr_scan"}, "fusion_lat": 0.0, "lat": 38.896046, "is_disabled": 0, "lon": -76.97823583333333, "is_reserved": 0}, {"bike_id": "5128ac6328521deaca27374a4175fe2e", "fusion_lon": 0.0, "type": "electric_scooter", "name": "5128ac6328521deaca27374a4175fe2e", "rental_uris": {"android": "https://dc.lft.to/lastmile_qr_scan", "ios": "https://dc.lft.to/lastmile_qr_scan"}, "fusion_lat": 0.0, "lat": 38.902196333333336, "is_disabled": 0, "lon": -77.03273916666667, "is_reserved": 0}, {"bike_id": "cb51ef1dc2e04d2a42f1b02ee784c803", "fusion_lon": 0.0, "type": "electric_scooter", "name": "cb51ef1dc2e04d2a42f1b02ee784c803", "rental_uris": {"android": "https://dc.lft.to/lastmile_qr_scan", "ios": "https://dc.lft.to/lastmile_qr_scan"}, "fusion_lat": 0.0, "lat": 38.892147333333334, "is_disabled": 0, "lon": -77.027771, "is_reserved": 0}, {"bike_id": "22250023f63be5ed2189d362eb8f5281", "fusion_lon": 0.0, "type": "electric_scooter", "name": "22250023f63be5ed2189d362eb8f5281", "rental_uris": {"android": "https://dc.lft.to/lastmile_qr_scan", "ios": "https://dc.lft.to/lastmile_qr_scan"}, "fusion_lat": 0.0, "lat": 38.921507166666665, "is_disabled": 0, "lon": -77.03873266666666, "is_reserved": 0}, {"bike_id": "a154c210e047e1d60af9e5d7b950c144", "fusion_lon": 0.0, "type": "electric_scooter", "name": "a154c210e047e1d60af9e5d7b950c144", "rental_uris": {"android": "https://dc.lft.to/lastmile_qr_scan", "ios": "https://dc.lft.to/lastmile_qr_scan"}, "fusion_lat": 0.0, "lat": 38.8915825, "is_disabled": 0, "lon": -76.95414983333333, "is_reserved": 0}, {"bike_id": "8d61c7acc76a2d9622952e169c5288f9", "fusion_lon": 0.0, "type": "electric_scooter", "name": "8d61c7acc76a2d9622952e169c5288f9", "rental_uris": {"android": "https://dc.lft.to/lastmile_qr_scan", "ios": "https://dc.lft.to/lastmile_qr_scan"}, "fusion_lat": 0.0, "lat": 38.917431666666666, "is_disabled": 0, "lon": -77.0391475, "is_reserved": 0}, {"bike_id": "bf2cda12b8ebb32899b8d0fd50caa9d0", "fusion_lon": 0.0, "type": "electric_scooter", "name": "bf2cda12b8ebb32899b8d0fd50caa9d0", "rental_uris": {"android": "https://dc.lft.to/lastmile_qr_scan", "ios": "https://dc.lft.to/lastmile_qr_scan"}, "fusion_lat": 0.0, "lat": 38.911133, "is_disabled": 0, "lon": -77.073545, "is_reserved": 0},