{"data": {"bikes": [{"rental_uris": {"ios": "https://dc.lft.to/lastmile_qr_scan", "android": "https://dc.lft.to/lastmile_qr_scan"}, "type": "electric_scooter", "name": "ac148334a0f99ce586e270571495481d", "is_reserved": 0, "lon": -77.02399633333333, "is_disabled": 0, "fusion_lat": 0.0, "lat": 38.9006695, "bike_id": "ac148334a0f99ce586e270571495481d", "fusion_lon": 0.0}, {"rental_uris": {"ios": "https://dc.lft.to/lastmile_qr_scan", "android": "https://dc.lft.to/lastmile_qr_scan"}, "type": "electric_scooter", "name": "1aaeda0520d3e26e9dba69c5efa73ab7", "is_reserved": 0, "lon": -77.0180645, "is_disabled": 0, "fusion_lat": 0.0, "lat": 38.92217766666667, "bike_id": "1aaeda0520d3e26e9dba69c5efa73ab7", "fusion_lon": 0.0}, {"rental_uris": {"ios": "https://dc.lft.to/lastmile_qr_scan", "android": "https://dc.lft.to/lastmile_qr_scan"}, "type": "electric_scooter", "name": "8b51d57e559aac3aa755533c82cb49df", "is_reserved": 0, "lon": -77.01860416666666, "is_disabled": 0, "fusion_lat": 0.0, "lat": 38.89961233333333, "bike_id": "8b51d57e559aac3aa755533c82cb49df", "fusion_lon": 0.0}, {"rental_uris": {"ios": "https://dc.lft.to/lastmile_qr_scan", "android": "https://dc.lft.to/lastmile_qr_scan"}, "type": "electric_scooter", "name": "79233282e05eed76121776b26ca37c9a", "is_reserved": 0, "lon": -77.01721283333333, "is_disabled": 0, "fusion_lat": 0.0, "lat": 38.902625666666665, "bike_id": "79233282e05eed76121776b26ca37c9a", "fusion_lon": 0.0}, {"rental_uris": {"ios": "https://dc.lft.to/lastmile_qr_scan", "android": "https://dc.lft.to/lastmile_qr_scan"}, "type": "electric_bike", "name": "e25ce70cff2a3380db4bb1584ded6be2", "is_reserved": 0, "lon": -77.10736316666667, "is_disabled": 0, "fusion_lat": 0.0, "lat": 38.85558266666666, "bike_id": "e25ce70cff2a3380db4bb1584ded6be2", "fusion_lon": 0.0}, {"rental_uris": {"ios": "https://dc.lft.to/lastmile_qr_scan", "android": "https://dc.lft.to/lastmile_qr_scan"}, "type": "electric_bike", "name": "d3317ffa53d31b37338f96cad4df79bb", "is_reserved": 0, "lon": -76.98564383333333, "is_disabled": 0, "fusion_lat": 0.0, "lat": 38.89957283333333, "bike_id": "d3317ffa53d31b37338f96cad4df79bb", "fusion_lon": 0.0}, {"rental_uris": {"ios": "https://dc.lft.to/lastmile_qr_scan", "android": "https://dc.lft.to/lastmile_qr_scan"}, "type": "electric_scooter", "name": "cdf92cbe965f6b1a9951fa588891391b", "is_reserved": 0, "lon": -77.0209375, "is_disabled": 0, "fusion_lat": 0.0, "lat": 38.914137333333336, "bike_id": "cdf92cbe965f6b1a9951fa588891391b", "fusion_lon": 0.0}, {"rental_uris": {"ios": "https://dc.lft.to/lastmile_qr_scan", "android": "https://dc.lft.to/lastmile_qr_scan"}, "type": "electric_scooter", "name": "4b5d1320d82a0dba67521a403a1a2a52", "is_reserved": 0, "lon": -77.01866566666666, "is_disabled": 0, "fusion_lat": 0.0, "lat": 38.95150116666667, "bike_id": "4b5d1320d82a0dba67521a403a1a2a52", "fusion_lon": 0.0}, {"rental_uris": {"ios": "https://dc.lft.to/lastmile_qr_scan", "android": "https://dc.lft.to/lastmile_qr_scan"}, "type": "electric_scooter", "name": "5813a9b03a05e05bfeaff732ebb07fcc", "is_reserved": 0, "lon": -77.02093166666667, "is_disabled": 0, "fusion_lat": 0.0, "lat": 38.9163705, "bike_id": "5813a9b03a05e05bfeaff732ebb07fcc", "fusion_lon": 0.0}, {"rental_uris": {"ios": "https://dc.lft.to/lastmile_qr_scan", "android": "https://dc.lft.to/lastmile_qr_scan"}, "type": "electric_scooter", "name": "a85580704fa6db95643ca9ec27a76daa", "is_reserved": 0, "lon": -77.00739133333333, "is_disabled": 0, "fusion_lat": 0.0, "lat": 38.907528666666664, "bike_id": "a85580704fa6db95643ca9ec27a76daa", "fusion_lon": 0.0}, {"rental_uris": {"ios": "https://dc.lft.to/lastmile_qr_scan", "android": "https://dc.lft.to/lastmile_qr_scan"}, "type": "electric_scooter", "name": "a1ef93bf4f1fb7bfa255326a75163a2a", "is_reserved": 0, "lon": -77.032168, "is_disabled": 0, "fusion_lat": 0.0, "lat": 38.91668383333333, "bike_id": "a1ef93bf4f1fb7bfa255326a75163a2a", "fusion_lon": 0.0}, {"rental_uris": {"ios": "https://dc.lft.to/lastmile_qr_scan", "android": "https://dc.lft.to/lastmile_qr_scan"}, "type": "electric_scooter", "name": "dbdf2dbd6f6158db7f15b3f9da793b07", "is_reserved": 0, "lon": -77.0312885, "is_disabled": 0, "fusion_lat": 0.0, "lat": 38.92375283333333, "bike_id": "dbdf2dbd6f6158db7f15b3f9da793b07", "fusion_lon": 0.0}, {"rental_uris": {"ios": "https://dc.lft.to/lastmile_qr_scan", "android": "https://dc.lft.to/lastmile_qr_scan"}, "type": "electric_scooter", "name": "744dd4a21b0887ea9008e9957bafbd9f", "is_reserved": 0, "lon": -77.021917, "is_disabled": 0, "fusion_lat": 0.0, "lat": 38.89796166666667, "bike_id": "744dd4a21b0887ea9008e9957bafbd9f", "fusion_lon": 0.0}, {"rental_uris": {"ios": "https://dc.lft.to/lastmile_qr_scan", "android": "https://dc.lft.to/lastmile_qr_scan"}, "type": "electric_scooter", "name": "ab1f6f00ec610f9622d2018c2a763cc2", "is_reserved": 0, "lon": -76.93265183333334, "is_disabled": 0, "fusion_lat": 0.0, "lat": 38.887457, "bike_id": "ab1f6f00ec610f9622d2018c2a763cc2", "fusion_lon": 0.0}, {"rental_uris": {"ios": "https://dc.lft.to/lastmile_qr_scan", "android": "https://dc.lft.to/lastmile_qr_scan"}, "type": "electric_scooter", "name": "50b59b9764f4a37610fe74526cf1a1d1", "is_reserved": 0, "lon": -77.04047866666667, "is_disabled": 0, "fusion_lat": 0.0, "lat": 38.917872, "bike_id": "50b59b9764f4a37610fe74526cf1a1d1", "fusion_lon": 0.0}, {"rental_uris": {"ios": "https://dc.lft.to/lastmile_qr_scan", "android": "https://dc.lft.to/lastmile_qr_scan"}, "type": "electric_scooter", "name": "71f5531465e8e6779f294c520b59d47f", "is_reserved": 0, "lon": -77.03192966666667, "is_disabled": 0, "fusion_lat": 0.0, "lat": 38.91659, "bike_id": "71f5531465e8e6779f294c520b59d47f", "fusion_lon": 0.0}, {"rental_uris": {"ios": "https://dc.lft.to/lastmile_qr_scan", "android": "https://dc.lft.to/lastmile_qr_scan"}, "type": "electric_scooter", "name": "0810131a3e804840fedae417d125fc4c", "is_reserved": 0, "lon": -77.0229685, "is_disabled": 0, "fusion_lat": 0.0, "lat": 38.909057833333335, "bike_id": "0810131a3e804840fedae417d125fc4c", "fusion_lon": 0.0}, {"rental_uris": {"ios": "https://dc.lft.to/lastmile_qr_scan", "android": "https://dc.lft.to/lastmile_qr_scan"}, "type": "electric_scooter", "name": "7a0654cd04c1b8cb979cba6bf694d47e", "is_reserved": 0, "lon": -76.94664333333333, "is_disabled": 0, "fusion_lat": 0.0, "lat": 38.898674166666666, "bike_id": "7a0654cd04c1b8cb979cba6bf694d47e", "fusion_lon": 0.0}, {"rental_uris": {"ios": "https://dc.lft.to/lastmile_qr_scan", "android": "https://dc.lft.to/lastmile_qr_scan"}, "type": "electric_scooter", "name": "3150444c7b8591b5ca27717628781e93", "is_reserved": 0, "lon": -77.008929, "is_disabled": 0, "fusion_lat": 0.0, "lat": 38.89599, "bike_id": "3150444c7b8591b5ca27717628781e93", "fusion_lon": 0.0}, {"rental_uris": {"ios": "https://dc.lft.to/lastmile_qr_scan", "android": "https://dc.lft.to/lastmile_qr_scan"}, "type": "electric_scooter", "name": "0cb384bd1df43075ed239f95b388c243", "is_reserved": 0, "lon": -77.02314866666667, "is_disabled": 0, "fusion_lat": 0.0, "lat": 38.91838633333333, "bike_id": "0cb384bd1df43075ed239f95b388c243", "fusion_lon": 0.0}, {"rental_uris": {"ios": "https://dc.lft.to/lastmile_qr_scan", "android": "https://dc.lft.to/lastmile_qr_scan"}, "type": "electric_scooter", "name": "afc6e771797be1f58c42d4e233f7901c", "is_reserved": 0, "lon": -77.0213145, "is_disabled": 0, "fusion_lat": 0.0, "lat": 38.91267333333333, "bike_id": "afc6e771797be1f58c42d4e233f7901c", "fusion_lon": 0.0}, {"rental_uris": {"ios": "https://dc.lft.to/lastmile_qr_scan", "android": "https://dc.lft.to/lastmile_qr_scan"}, "type": "electric_scooter", "name": "6546e81d897154b22dee15e988ad6098", "is_reserved": 0, "lon": -77.04075966666667, "is_disabled": 0, "fusion_lat": 0.0, "lat": 38.920261333333336, "bike_id": "6546e81d897154b22dee15e988ad6098", "fusion_lon": 0.0}, {"rental_uris": {"ios": "https://dc.lft.to/lastmile_qr_scan", "android": "https://dc.lft.to/lastmile_qr_scan"}, "type": "electric_scooter", "name": "870fbed60a57d62f44972ddfe3ea912b", "is_reserved": 0, "lon": -77.02742066666667, "is_disabled": 0, "fusion_lat": 0.0, "lat": 38.923864333333334, "bike_id": "870fbed60a57d62f44972ddfe3ea912b", "fusion_lon": 0.0}, {"rental_uris": {"ios": "https://dc.lft.to/lastmile_qr_scan", "android": "https://dc.lft.to/lastmile_qr_scan"}, "type": "electric_scooter", "name": "a1ab282ac4b98055b32324bb36ba143b", "is_reserved": 0, "lon": -77.05228866666667, "is_disabled": 0, "fusion_lat": 0.0, "lat": 38.92463266666667, "bike_id": "a1ab282ac4b98055b32324bb36ba143b", "fusion_lon": 0.0}, {"rental_uris": {"ios": "https://dc.lft.to/lastmile_qr_scan", "android": "https://dc.lft.to/lastmile_qr_scan"}, "type": "electric_scooter", "name": "44b6ab5c466aecb8eac5977c35737827", "is_reserved": 0, "lon": -77.03180183333333, "is_disabled": 0, "fusion_lat": 0.0, "lat": 38.916570666666665, "bike_id": "44b6ab5c466aecb8eac5977c35737827", "fusion_lon": 0.0}, {"rental_uris": {"ios": "https://dc.lft.to/lastmile_qr_scan", "android": "https://dc.lft.to/lastmile_qr_scan"}, "type": "electric_bike", "name": "f5807814508415beb24debfe542142cc", "is_reserved": 0, "lon": -76.9579605, "is_disabled": 0, "fusion_lat": 0.0, "lat": 38.9804585, "bike_id": "f5807814508415beb24debfe542142cc", "fusion_lon": 0.0}, {"rental_uris": {"ios": "https://dc.lft.to/lastmile_qr_scan", "android": "https://dc.lft.to/lastmile_qr_scan"}, "type": "electric_scooter", "name": "5bbe986b2f80d5c0e1ac9bb65b96c2f0", "is_reserved": 0, "lon": -76.9979515, "is_disabled": 0, "fusion_lat": 0.0, "lat": 38.8763435, "bike_id": "5bbe986b2f80d5c0e1ac9bb65b96c2f0", "fusion_lon": 0.0}, {"rental_uris": {"ios": "https://dc.lft.to/lastmile_qr_scan", "android": "https://dc.lft.to/lastmile_qr_scan"}, "type": "electric_bike", "name": "3d57842a24678b1e20fd9e6fb08b5279", "is_reserved": 0, "lon": -76.99250483333333, "is_disabled": 0, "fusion_lat": 0.0, "lat": 38.96072233333334, "bike_id": "3d57842a24678b1e20fd9e6fb08b5279", "fusion_lon": 0.0}, {"rental_uris": {"ios": "https://dc.lft.to/lastmile_qr_scan", "android": "https://dc.lft.to/lastmile_qr_scan"}, "type": "electric_scooter", "name": "7fa4039240822ff6793bb8195c860ad9", "is_reserved": 0, "lon": -76.975684, "is_disabled": 0, "fusion_lat": 0.0, "lat": 38.94425416666667, "bike_id": "7fa4039240822ff6793bb8195c860ad9", "fusion_lon": 0.0}, {"rental_uris": {"ios": "https://dc.lft.to/lastmile_qr_scan", "android": "https://dc.lft.to/lastmile_qr_scan"}, "type": "electric_scooter", "name": "ecc2364e3580d16d5ff5840d0b6c61c8", "is_reserved": 0, "lon": -77.031952, "is_disabled": 0, "fusion_lat": 0.0, "lat": 38.910925666666664, "bike_id": "ecc2364e3580d16d5ff5840d0b6c61c8", "fusion_lon": 0.0}, {"rental_uris": {"ios": "https://dc.lft.to/lastmile_qr_scan", "android": "https://dc.lft.to/lastmile_qr_scan"}, "type": "electric_scooter", "name": "955e8b3e33ea280bdf749597361c98d7", "is_reserved": 0, "lon": -76.93744766666667, "is_disabled": 0, "fusion_lat": 0.0, "lat": 38.89010316666667, "bike_id": "955e8b3e33ea280bdf749597361c98d7", "fusion_lon": 0.0}, {"rental_uris": {"ios": "https://dc.lft.to/lastmile_qr_scan", "android": "https://dc.lft.to/lastmile_qr_scan"}, "type": "electric_scooter", "name": "dd01b7331723ce1d50abf30fb3597524", "is_reserved": 0, "lon": -77.05509766666667, "is_disabled": 0, "fusion_lat": 0.0, "lat": 38.92834533333333, "bike_id": "dd01b7331723ce1d50abf30fb3597524", "fusion_lon": 0.0}, {"rental_uris": {"ios": "https://dc.lft.to/lastmile_qr_scan", "android": "https://dc.lft.to/lastmile_qr_scan"}, "type": "electric_scooter", "name": "29428c8fb87f83a5c90c29ecf1ef7788", "is_reserved": 0, "lon": -77.061007, "is_disabled": 0, "fusion_lat": 0.0, "lat": 38.9398955, "bike_id": "29428c8fb87f83a5c90c29ecf1ef7788", "fusion_lon": 0.0}, {"rental_uris": {"ios": "https://dc.lft.to/lastmile_qr_scan", "android": "https://dc.lft.to/lastmile_qr_scan"}, "type": "electric_scooter", "name": "5f8a762efee66b5fa8915c8f15419414", "is_reserved": 0, "lon": -77.0733735, "is_disabled": 0, "fusion_lat": 0.0, "lat": 38.96089683333334, "bike_id": "5f8a762efee66b5fa8915c8f15419414", "fusion_lon": 0.0}, {"rental_uris": {"ios": "https://dc.lft.to/lastmile_qr_scan", "android": "https://dc.lft.to/lastmile_qr_scan"}, "type": "electric_bike", "name": "144877b114e955c16280f0d01c803160", "is_reserved": 0, "lon": -77.00139183333333, "is_disabled": 0, "fusion_lat": 0.0, "lat": 38.994956, "bike_id": "144877b114e955c16280f0d01c803160", "fusion_lon": 0.0}, {"rental_uris": {"ios": "https://dc.lft.to/lastmile_qr_scan", "android": "https://dc.lft.to/lastmile_qr_scan"}, "type": "electric_scooter", "name": "0af1830c61be3a30b618c1843c8ebe25", "is_reserved": 0, "lon": -77.02092533333334, "is_disabled": 0, "fusion_lat": 0.0, "lat": 38.92912916666667, "bike_id": "0af1830c61be3a30b618c1843c8ebe25", "fusion_lon": 0.0}, {"rental_uris": {"ios": "https://dc.lft.to/lastmile_qr_scan", "android": "https://dc.lft.to/lastmile_qr_scan"}, "type": "electric_scooter", "name": "c1449951e082ced4da075f76a455f62e", "is_reserved": 0, "lon": -77.00315183333333, "is_disabled": 0, "fusion_lat": 0.0, "lat": 38.87676033333334, "bike_id": "c1449951e082ced4da075f76a455f62e", "fusion_lon": 0.0}, {"rental_uris": {"ios": "https://dc.lft.to/lastmile_qr_scan", "android": "https://dc.lft.to/lastmile_qr_scan"}, "type": "electric_scooter", "name": "8fef44bb3269c1d2f8bdd8ad8ba9d78b", "is_reserved": 0, "lon": -77.06132183333334, "is_disabled": 0, "fusion_lat": 0.0, "lat": 38.94312933333333, "bike_id": "8fef44bb3269c1d2f8bdd8ad8ba9d78b", "fusion_lon": 0.0}, {"rental_uris": {"ios": "https://dc.lft.to/lastmile_qr_scan", "android": "https://dc.lft.to/lastmile_qr_scan"}, "type": "electric_scooter", "name": "d5912ff67632983c62fec80bce484545", "is_reserved": 0, "lon": -76.93001066666666, "is_disabled": 0, "fusion_lat": 0.0, "lat": 38.88991866666667, "bike_id": "d5912ff67632983c62fec80bce484545", "fusion_lon": 0.0}, {"rental_uris": {"ios": "https://dc.lft.to/lastmile_qr_scan", "android": "https://dc.lft.to/lastmile_qr_scan"}, "type": "electric_scooter", "name": "699a18d69dc68f25a9a6e1466b6eb5c9", "is_reserved": 0, "lon": -77.06113116666667, "is_disabled": 0, "fusion_lat": 0.0, "lat": 38.912822166666665, "bike_id": "699a18d69dc68f25a9a6e1466b6eb5c9", "fusion_lon": 0.0}, {"rental_uris": {"ios": "https://dc.lft.to/lastmile_qr_scan", "android": "https://dc.lft.to/lastmile_qr_scan"}, "type": "electric_scooter", "name": "2fce323f8f0c0cb3123b0fc749e3ec03", "is_reserved": 0, "lon": -77.040743, "is_disabled": 0, "fusion_lat": 0.0, "lat": 38.91705816666666, "bike_id": "2fce323f8f0c0cb3123b0fc749e3ec03", "fusion_lon": 0.0}, {"rental_uris": {"ios": "https://dc.lft.to/lastmile_qr_scan", "android": "https://dc.lft.to/lastmile_qr_scan"}, "type": "electric_scooter", "name": "553d032372348c982bf3f35ec1716cde", "is_reserved": 0, "lon": -76.9915775, "is_disabled": 0, "fusion_lat": 0.0, "lat": 38.900359333333334, "bike_id": "553d032372348c982bf3f35ec1716cde", "fusion_lon": 0.0}, {"rental_uris": {"ios": "https://dc.lft.to/lastmile_qr_scan", "android": "https://dc.lft.to/lastmile_qr_scan"}, "type": "electric_scooter", "name": "387bb2fa7a28864c13962fb22518b5eb", "is_reserved": 0, "lon": -76.9934555, "is_disabled": 0, "fusion_lat": 0.0, "lat": 38.88120266666667, "bike_id": "387bb2fa7a28864c13962fb22518b5eb", "fusion_lon": 0.0}, {"rental_uris": {"ios": "https://dc.lft.to/lastmile_qr_scan", "android": "https://dc.lft.to/lastmile_qr_scan"}, "type": "electric_scooter", "name": "7ea630083f01bf50569954e4b1ed8989", "is_reserved": 0, "lon": -77.022832, "is_disabled": 0, "fusion_lat": 0.0, "lat": 38.8950885, "bike_id": "7ea630083f01bf50569954e4b1ed8989", "fusion_lon": 0.0}, {"rental_uris": {"ios": "https://dc.lft.to/lastmile_qr_scan", "android": "https://dc.lft.to/lastmile_qr_scan"}, "type": "electric_scooter", "name": "8c9460d032772c5a6bf71b53b145d20d", "is_reserved": 0, "lon": -77.04046316666667, "is_disabled": 0, "fusion_lat": 0.0, "lat": 38.91786666666667, "bike_id": "8c9460d032772c5a6bf71b53b145d20d", "fusion_lon": 0.0}, {"rental_uris": {"ios": "https://dc.lft.to/lastmile_qr_scan", "android": "https://dc.lft.to/lastmile_qr_scan"}, "type": "electric_scooter", "name": "cb6433bec69b7734abfe9e14fcadb612", "is_reserved": 0, "lon": -77.0238395, "is_disabled": 0, "fusion_lat": 0.0, "lat": 38.9084935, "bike_id": "cb6433bec69b7734abfe9e14fcadb612", "fusion_lon": 0.0}, {"rental_uris": {"ios": "https://dc.lft.to/lastmile_qr_scan", "android": "https://dc.lft.to/lastmile_qr_scan"}, "type": "electric_scooter", "name": "33cc40c46b76a73c109fd56f8ba1be4f", "is_reserved": 0, "lon": -77.01621933333334, "is_disabled": 0, "fusion_lat": 0.0, "lat": 38.8874205, "bike_id": "33cc40c46b76a73c109fd56f8ba1be4f", "fusion_lon": 0.0}, {"rental_uris": {"ios": "https://dc.lft.to/lastmile_qr_scan", "android": "https://dc.lft.to/lastmile_qr_scan"}, "type": "electric_scooter", "name": "5aba2056be9548a9d391c9d787ba06ba", "is_reserved": 0, "lon": -77.0163355, "is_disabled": 0, "fusion_lat": 0.0, "lat": 38.90358633333334, "bike_id": "5aba2056be9548a9d391c9d787ba06ba", "fusion_lon": 0.0}, {"rental_uris": {"ios": "https://dc.lft.to/lastmile_qr_scan", "android": "https://dc.lft.to/lastmile_qr_scan"}, "type": "electric_scooter", "name": "67192c73d2984ab632376a052e6d5c81", "is_reserved": 0, "lon": -77.03608883333334, "is_disabled": 0, "fusion_lat": 0.0, "lat": 38.90335866666667, "bike_id": "67192c73d2984ab632376a052e6d5c81", "fusion_lon": 0.0}, {"rental_uris": {"ios": "https://dc.lft.to/lastmile_qr_scan", "android": "https://dc.lft.to/lastmile_qr_scan"}, "type": "electric_scooter", "name": "db47fe57fdaff84722055f4688cb1806", "is_reserved": 0, "lon": -77.04231466666667, "is_disabled": 0, "fusion_lat": 0.0, "lat": 38.909335166666665, "bike_id": "db47fe57fdaff84722055f4688cb1806", "fusion_lon": 0.0}, {"rental_uris": {"ios": "https://dc.lft.to/lastmile_qr_scan", "android": "https://dc.lft.to/lastmile_qr_scan"}, "type": "electric_scooter", "name": "3d0b9e76a72e2ba71dea26e140a11f1a", "is_reserved": 0, "lon": -77.04144183333334, "is_disabled": 0, "fusion_lat": 0.0, "lat": 38.922502333333334, "bike_id": "3d0b9e76a72e2ba71dea26e140a11f1a", "fusion_lon": 0.0}, {"rental_uris": {"ios": "https://dc.lft.to/lastmile_qr_scan", "android": "https://dc.lft.to/lastmile_qr_scan"}, "type": "electric_scooter", "name": "9b3ab01bdc6483a7935b733ffbf06214", "is_reserved": 0, "lon": -77.0321835, "is_disabled": 0, "fusion_lat": 0.0, "lat": 38.91404766666667, "bike_id": "9b3ab01bdc6483a7935b733ffbf06214", "fusion_lon": 0.0}, {"rental_uris": {"ios": "https://dc.lft.to/lastmile_qr_scan", "android": "https://dc.lft.to/lastmile_qr_scan"}, "type": "electric_scooter", "name": "5f0f05bc18e956e851b50cff3c160d64", "is_reserved": 0, "lon": -77.01092666666666, "is_disabled": 0, "fusion_lat": 0.0, "lat": 38.9033475, "bike_id": "5f0f05bc18e956e851b50cff3c160d64", "fusion_lon": 0.0}, {"rental_uris": {"ios": "https://dc.lft.to/lastmile_qr_scan", "android": "https://dc.lft.to/lastmile_qr_scan"}, "type": "electric_bike", "name": "844330396c605d32575d14fab96e98f3", "is_reserved": 0, "lon": -76.9835085, "is_disabled": 0, "fusion_lat": 0.0, "lat": 38.862694166666664, "bike_id": "844330396c605d32575d14fab96e98f3", "fusion_lon": 0.0}, {"rental_uris": {"ios": "https://dc.lft.to/lastmile_qr_scan", "android": "https://dc.lft.to/lastmile_qr_scan"}, "type": "electric_scooter", "name": "8aa2e8db2a380ef9aa517ea1fd1aada7", "is_reserved": 0, "lon": -77.03169633333333, "is_disabled": 0, "fusion_lat": 0.0, "lat": 38.93858916666667, "bike_id": "8aa2e8db2a380ef9aa517ea1fd1aada7", "fusion_lon": 0.0}, {"rental_uris": {"ios": "https://dc.lft.to/lastmile_qr_scan", "android": "https://dc.lft.to/lastmile_qr_scan"}, "type": "electric_scooter", "name": "1e375445e1421c61f3f38bee26b7e595", "is_reserved": 0, "lon": -77.03658033333333, "is_disabled": 0, "fusion_lat": 0.0, "lat": 38.9204145, "bike_id": "1e375445e1421c61f3f38bee26b7e595", "fusion_lon": 0.0}, {"rental_uris": {"ios": "https://dc.lft.to/lastmile_qr_scan", "android": "https://dc.lft.to/lastmile_qr_scan"}, "type": "electric_scooter", "name": "b0ee827c85cfb65597332d06146b63b1", "is_reserved": 0, "lon": -77.038897, "is_disabled": 0, "fusion_lat": 0.0, "lat": 38.922225833333336, "bike_id": "b0ee827c85cfb65597332d06146b63b1", "fusion_lon": 0.0}, {"rental_uris": {"ios": "https://dc.lft.to/lastmile_qr_scan", "android": "https://dc.lft.to/lastmile_qr_scan"}, "type": "electric_scooter", "name": "e20ec9d1d5e66e8d620b6d9fb021d471", "is_reserved": 0, "lon": -77.041641, "is_disabled": 0, "fusion_lat": 0.0, "lat": 38.9174265, "bike_id": "e20ec9d1d5e66e8d620b6d9fb021d471", "fusion_lon": 0.0}, {"rental_uris": {"ios": "https://dc.lft.to/lastmile_qr_scan", "android": "https://dc.lft.to/lastmile_qr_scan"}, "type": "electric_scooter", "name": "a323854e976ddb37bcaffc3df8f9b2fe", "is_reserved": 0, "lon": -76.98087733333334, "is_disabled": 0, "fusion_lat": 0.0, "lat": 38.90414233333333, "bike_id": "a323854e976ddb37bcaffc3df8f9b2fe", "fusion_lon": 0.0}, {"rental_uris": {"ios": "https://dc.lft.to/lastmile_qr_scan", "android": "https://dc.lft.to/lastmile_qr_scan"}, "type": "electric_scooter", "name": "ece173de5b364f60013a1998ea8497fa", "is_reserved": 0, "lon": -77.03505933333334, "is_disabled": 0, "fusion_lat": 0.0, "lat": 38.91878233333333, "bike_id": "ece173de5b364f60013a1998ea8497fa", "fusion_lon": 0.0}, {"rental_uris": {"ios": "https://dc.lft.to/lastmile_qr_scan", "android": "https://dc.lft.to/lastmile_qr_scan"}, "type": "electric_scooter", "name": "ee5b5143df46167ece5c1f0d61251507", "is_reserved": 0, "lon": -77.02153583333333, "is_disabled": 0, "fusion_lat": 0.0, "lat": 38.8792115, "bike_id": "ee5b5143df46167ece5c1f0d61251507", "fusion_lon": 0.0}, {"rental_uris": {"ios": "https://dc.lft.to/lastmile_qr_scan", "android": "https://dc.lft.to/lastmile_qr_scan"}, "type": "electric_scooter", "name": "2d5322c360fd6d5f6310ce1820e3bdbf", "is_reserved": 0, "lon": -77.00835433333333, "is_disabled": 0, "fusion_lat": 0.0, "lat": 38.879149, "bike_id": "2d5322c360fd6d5f6310ce1820e3bdbf", "fusion_lon": 0.0}, {"rental_uris": {"ios": "https://dc.lft.to/lastmile_qr_scan", "android": "https://dc.lft.to/lastmile_qr_scan"}, "type": "electric_scooter", "name": "4d3837244ff3dfff213d6bca41982dca", "is_reserved": 0, "lon": -77.02164466666666, "is_disabled": 0, "fusion_lat": 0.0, "lat": 38.92497516666667, "bike_id": "4d3837244ff3dfff213d6bca41982dca", "fusion_lon": 0.0}, {"rental_uris": {"ios": "https://dc.lft.to/lastmile_qr_scan", "android": "https://dc.lft.to/lastmile_qr_scan"}, "type": "electric_scooter", "name": "644b28bdf1e3aa6ad5ab723959642ad9", "is_reserved": 0, "lon": -77.03964366666666, "is_disabled": 0, "fusion_lat": 0.0, "lat": 38.931527, "bike_id": "644b28bdf1e3aa6ad5ab723959642ad9", "fusion_lon": 0.0}, {"rental_uris": {"ios": "https://dc.lft.to/lastmile_qr_scan", "android": "https://dc.lft.to/lastmile_qr_scan"}, "type": "electric_scooter", "name": "787a7aff546989aa4d66e97075b0d9b0", "is_reserved": 0, "lon": -77.0348155, "is_disabled": 0, "fusion_lat": 0.0, "lat": 38.930317, "bike_id": "787a7aff546989aa4d66e97075b0d9b0", "fusion_lon": 0.0}, {"rental_uris": {"ios": "https://dc.lft.to/lastmile_qr_scan", "android": "https://dc.lft.to/lastmile_qr_scan"}, "type": "electric_scooter", "name": "b632dfe5ac1ffdfc11a3756c7517c8d2", "is_reserved": 0, "lon": -77.03829033333334, "is_disabled": 0, "fusion_lat": 0.0, "lat": 38.9323695, "bike_id": "b632dfe5ac1ffdfc11a3756c7517c8d2", "fusion_lon": 0.0}, {"rental_uris": {"ios": "https://dc.lft.to/lastmile_qr_scan", "android": "https://dc.lft.to/lastmile_qr_scan"}, "type": "electric_bike", "name": "3a3c3646f14e4bd10f694f05ce1e3ab1", "is_reserved": 0, "lon": -77.000055, "is_disabled": 0, "fusion_lat": 0.0, "lat": 38.9239615, "bike_id": "3a3c3646f14e4bd10f694f05ce1e3ab1", "fusion_lon": 0.0}, {"rental_uris": {"ios": "https://dc.lft.to/lastmile_qr_scan", "android": "https://dc.lft.to/lastmile_qr_scan"}, "type": "electric_scooter", "name": "1367abbff1d10301c70bbb001ce81fa9", "is_reserved": 0, "lon": -77.03956666666667, "is_disabled": 0, "fusion_lat": 0.0, "lat": 38.907148, "bike_id": "1367abbff1d10301c70bbb001ce81fa9", "fusion_lon": 0.0}, {"rental_uris": {"ios": "https://dc.lft.to/lastmile_qr_scan", "android": "https://dc.lft.to/lastmile_qr_scan"}, "type": "electric_scooter", "name": "16db9d831f05890e93b5d7ac8958faf6", "is_reserved": 0, "lon": -77.01838933333333, "is_disabled": 0, "fusion_lat": 0.0, "lat": 38.909567333333335, "bike_id": "16db9d831f05890e93b5d7ac8958faf6", "fusion_lon": 0.0}, {"rental_uris": {"ios": "https://dc.lft.to/lastmile_qr_scan", "android": "https://dc.lft.to/lastmile_qr_scan"}, "type": "electric_scooter", "name": "1bb1524a7695c2bf42f0339a61c66689", "is_reserved": 0, "lon": -77.03471166666667, "is_disabled": 0, "fusion_lat": 0.0, "lat": 38.907111, "bike_id": "1bb1524a7695c2bf42f0339a61c66689", "fusion_lon": 0.0}, {"rental_uris": {"ios": "https://dc.lft.to/lastmile_qr_scan", "android": "https://dc.lft.to/lastmile_qr_scan"}, "type": "electric_scooter", "name": "b562410b1dc4875e74fb998f70f735ba", "is_reserved": 0, "lon": -77.03153616666667, "is_disabled": 0, "fusion_lat": 0.0, "lat": 38.906279166666664, "bike_id": "b562410b1dc4875e74fb998f70f735ba", "fusion_lon": 0.0}, {"rental_uris": {"ios": "https://dc.lft.to/lastmile_qr_scan", "android": "https://dc.lft.to/lastmile_qr_scan"}, "type": "electric_bike", "name": "17469270a9bcbed9d928e0db3472a41c", "is_reserved": 0, "lon": -77.10614783333334, "is_disabled": 0, "fusion_lat": 0.0, "lat": 38.8372775, "bike_id": "17469270a9bcbed9d928e0db3472a41c", "fusion_lon": 0.0}, {"rental_uris": {"ios": "https://dc.lft.to/lastmile_qr_scan", "android": "https://dc.lft.to/lastmile_qr_scan"}, "type": "electric_bike", "name": "992fe19a41c6bc97ece9fe09bbc01909", "is_reserved": 0, "lon": -76.94170183333334, "is_disabled": 0, "fusion_lat": 0.0, "lat": 38.86551633333333, "bike_id": "992fe19a41c6bc97ece9fe09bbc01909", "fusion_lon": 0.0}, {"rental_uris": {"ios": "https://dc.lft.to/lastmile_qr_scan", "android": "https://dc.lft.to/lastmile_qr_scan"}, "type": "electric_scooter", "name": "eb9a77c73d248217832f4ec47ce99c2a", "is_reserved": 0, "lon": -77.03447883333334, "is_disabled": 0, "fusion_lat": 0.0, "lat": 38.9222245, "bike_id": "eb9a77c73d248217832f4ec47ce99c2a", "fusion_lon": 0.0}, {"rental_uris": {"ios": "https://dc.lft.to/lastmile_qr_scan", "android": "https://dc.lft.to/lastmile_qr_scan"}, "type": "electric_scooter", "name": "f66bc83c5b58c3af71806688c3f3c82d", "is_reserved": 0, "lon": -76.98031033333334, "is_disabled": 0, "fusion_lat": 0.0, "lat": 38.916799166666664, "bike_id": "f66bc83c5b58c3af71806688c3f3c82d", "fusion_lon": 0.0}, {"rental_uris": {"ios": "https://dc.lft.to/lastmile_qr_scan", "android": "https://dc.lft.to/lastmile_qr_scan"}, "type": "electric_scooter", "name": "c2bb00f34373c912f3d2eec410a75711", "is_reserved": 0, "lon": -77.03871116666667, "is_disabled": 0, "fusion_lat": 0.0, "lat": 38.921505, "bike_id": "c2bb00f34373c912f3d2eec410a75711", "fusion_lon": 0.0}, {"rental_uris": {"ios": "https://dc.lft.to/lastmile_qr_scan", "android": "https://dc.lft.to/lastmile_qr_scan"}, "type": "electric_scooter", "name": "1d1f65788bc165b75ef4ce0d73444685", "is_reserved": 0, "lon": -77.01742916666667, "is_disabled": 0, "fusion_lat": 0.0, "lat": 38.9124355, "bike_id": "1d1f65788bc165b75ef4ce0d73444685", "fusion_lon": 0.0}, {"rental_uris": {"ios": "https://dc.lft.to/lastmile_qr_scan", "android": "https://dc.lft.to/lastmile_qr_scan"}, "type": "electric_scooter", "name": "91b777b0f4833b7bc75dd2896cdf23d3", "is_reserved": 0, "lon": -77.04395183333334, "is_disabled": 0, "fusion_lat": 0.0, "lat": 38.9235255, "bike_id": "91b777b0f4833b7bc75dd2896cdf23d3", "fusion_lon": 0.0}, {"rental_uris": {"ios": "https://dc.lft.to/lastmile_qr_scan", "android": "https://dc.lft.to/lastmile_qr_scan"}, "type": "electric_scooter", "name": "ae9ca58b32b7fad4411772b676e9d87d", "is_reserved": 0, "lon": -77.009901, "is_disabled": 0, "fusion_lat": 0.0, "lat": 38.87288383333333, "bike_id": "ae9ca58b32b7fad4411772b676e9d87d", "fusion_lon": 0.0}, {"rental_uris": {"ios": "https://dc.lft.to/lastmile_qr_scan", "android": "https://dc.lft.to/lastmile_qr_scan"}, "type": "electric_scooter", "name": "0494d13ff617accd9df619f7f4852308", "is_reserved": 0, "lon": -77.04910366666667, "is_disabled": 0, "fusion_lat": 0.0, "lat": 38.91946766666667, "bike_id": "0494d13ff617accd9df619f7f4852308", "fusion_lon": 0.0}, {"rental_uris": {"ios": "https://dc.lft.to/lastmile_qr_scan", "android": "https://dc.lft.to/lastmile_qr_scan"}, "type": "electric_bike", "name": "8d32967bfc6d1f2a1d961d9ade57fb6b", "is_reserved": 0, "lon": -77.0342775, "is_disabled": 0, "fusion_lat": 0.0, "lat": 38.936636666666665, "bike_id": "8d32967bfc6d1f2a1d961d9ade57fb6b", "fusion_lon": 0.0}, {"rental_uris": {"ios": "https://dc.lft.to/lastmile_qr_scan", "android": "https://dc.lft.to/lastmile_qr_scan"}, "type": "electric_scooter", "name": "f8e8b1641a8c1552987a7590bc664eae", "is_reserved": 0, "lon": -77.041959, "is_disabled": 0, "fusion_lat": 0.0, "lat": 38.920654166666665, "bike_id": "f8e8b1641a8c1552987a7590bc664eae", "fusion_lon": 0.0}, {"rental_uris": {"ios": "https://dc.lft.to/lastmile_qr_scan", "android": "https://dc.lft.to/lastmile_qr_scan"}, "type": "electric_scooter", "name": "ca2e7168ed6d5d6f29db71afa0032ed2", "is_reserved": 0, "lon": -76.99907616666667, "is_disabled": 0, "fusion_lat": 0.0, "lat": 38.952856833333335, "bike_id": "ca2e7168ed6d5d6f29db71afa0032ed2", "fusion_lon": 0.0}, {"rental_uris": {"ios": "https://dc.lft.to/lastmile_qr_scan", "android": "https://dc.lft.to/lastmile_qr_scan"}, "type": "electric_scooter", "name": "2213ef8e7a2480039cb08d51cc336bf6", "is_reserved": 0, "lon": -77.04610683333334, "is_disabled": 0, "fusion_lat": 0.0, "lat": 38.9096765, "bike_id": "2213ef8e7a2480039cb08d51cc336bf6", "fusion_lon": 0.0}, {"rental_uris": {"ios": "https://dc.lft.to/lastmile_qr_scan", "android": "https://dc.lft.to/lastmile_qr_scan"}, "type": "electric_scooter", "name": "f65238d44ed4f07018795c694c1433f7", "is_reserved": 0, "lon": -77.04888266666667, "is_disabled": 0, "fusion_lat": 0.0, "lat": 38.909078, "bike_id": "f65238d44ed4f07018795c694c1433f7", "fusion_lon": 0.0}, {"rental_uris": {"ios": "https://dc.lft.to/lastmile_qr_scan", "android": "https://dc.lft.to/lastmile_qr_scan"}, "type": "electric_scooter", "name": "0eb359ab7cf695dfca1e5f2b0c6d4078", "is_reserved": 0, "lon": -77.02550316666667, "is_disabled": 0, "fusion_lat": 0.0, "lat": 38.91559133333333, "bike_id": "0eb359ab7cf695dfca1e5f2b0c6d4078", "fusion_lon": 0.0}, {"rental_uris": {"ios": "https://dc.lft.to/lastmile_qr_scan", "android": "https://dc.lft.to/lastmile_qr_scan"}, "type": "electric_scooter", "name": "b1e50f031283da7b35df1b28679e6054", "is_reserved": 0, "lon": -77.02971283333333, "is_disabled": 0, "fusion_lat": 0.0, "lat": 38.916772, "bike_id": "b1e50f031283da7b35df1b28679e6054", "fusion_lon": 0.0}, {"rental_uris": {"ios": "https://dc.lft.to/lastmile_qr_scan", "android": "https://dc.lft.to/lastmile_qr_scan"}, "type": "electric_scooter", "name": "88242a865b8a2d564f38b0754380976d", "is_reserved": 0, "lon": -76.9466505, "is_disabled": 0, "fusion_lat": 0.0, "lat": 38.89869616666667, "bike_id": "88242a865b8a2d564f38b0754380976d", "fusion_lon": 0.0}, {"rental_uris": {"ios": "https://dc.lft.to/lastmile_qr_scan", "android": "https://dc.lft.to/lastmile_qr_scan"}, "type": "electric_scooter", "name": "65cb76c8f1b610563a7f3bd088ff7e16", "is_reserved": 0, "lon": -76.9948845, "is_disabled": 0, "fusion_lat": 0.0, "lat": 38.899884, "bike_id": "65cb76c8f1b610563a7f3bd088ff7e16", "fusion_lon": 0.0}, {"rental_uris": {"ios": "https://dc.lft.to/lastmile_qr_scan", "android": "https://dc.lft.to/lastmile_qr_scan"}, "type": "electric_scooter", "name": "8411813ecd3216c5964739c35cd40cf2", "is_reserved": 0, "lon": -77.02948066666667, "is_disabled": 0, "fusion_lat": 0.0, "lat": 38.884158166666666, "bike_id": "8411813ecd3216c5964739c35cd40cf2", "fusion_lon": 0.0}, {"rental_uris": {"ios": "https://dc.lft.to/lastmile_qr_scan", "android": "https://dc.lft.to/lastmile_qr_scan"}, "type": "electric_scooter", "name": "df4e70895597842ba7e4d3b41beb0e8d", "is_reserved": 0, "lon": -77.00687933333333, "is_disabled": 0, "fusion_lat": 0.0, "lat": 38.9057175, "bike_id": "df4e70895597842ba7e4d3b41beb0e8d", "fusion_lon": 0.0}, {"rental_uris": {"ios": "https://dc.lft.to/lastmile_qr_scan", "android": "https://dc.lft.to/lastmile_qr_scan"}, "type": "electric_scooter", "name": "093d12a3151b22ae3b2e6d9e6dd168ba", "is_reserved": 0, "lon": -77.04161416666666, "is_disabled": 0, "fusion_lat": 0.0, "lat": 38.901357833333336, "bike_id": "093d12a3151b22ae3b2e6d9e6dd168ba", "fusion_lon": 0.0}, {"rental_uris": {"ios": "https://dc.lft.to/lastmile_qr_scan", "android": "https://dc.lft.to/lastmile_qr_scan"}, "type": "electric_scooter", "name": "a99f63c25364fbd78076086d9d88251e", "is_reserved": 0, "lon": -76.92662116666666, "is_disabled": 0, "fusion_lat": 0.0, "lat": 38.882392, "bike_id": "a99f63c25364fbd78076086d9d88251e", "fusion_lon": 0.0}, {"rental_uris": {"ios": "https://dc.lft.to/lastmile_qr_scan", "android": "https://dc.lft.to/lastmile_qr_scan"}, "type": "electric_scooter", "name": "62e897a6be3c9b829a9d42861e7c8cf1", "is_reserved": 0, "lon": -77.0483515, "is_disabled": 0, "fusion_lat": 0.0, "lat": 38.900637833333334, "bike_id": "62e897a6be3c9b829a9d42861e7c8cf1", "fusion_lon": 0.0}, {"rental_uris": {"ios": "https://dc.lft.to/lastmile_qr_scan", "android": "https://dc.lft.to/lastmile_qr_scan"}, "type": "electric_bike", "name": "31f67e67b2b996959017fdb91325e32d", "is_reserved": 0, "lon": -76.98999666666667, "is_disabled": 0, "fusion_lat": 0.0, "lat": 38.92437116666667, "bike_id": "31f67e67b2b996959017fdb91325e32d", "fusion_lon": 0.0}, {"rental_uris": {"ios": "https://dc.lft.to/lastmile_qr_scan", "android": "https://dc.lft.to/lastmile_qr_scan"}, "type": "electric_scooter", "name": "e7ef07f2cd0fef4da0240c68b7378c94", "is_reserved": 0, "lon": -77.04501633333334, "is_disabled": 0, "fusion_lat": 0.0, "lat": 38.914166, "bike_id": "e7ef07f2cd0fef4da0240c68b7378c94", "fusion_lon": 0.0}, {"rental_uris": {"ios": "https://dc.lft.to/lastmile_qr_scan", "android": "https://dc.lft.to/lastmile_qr_scan"}, "type": "electric_scooter", "name": "4b46b6fe21c67a6260995889961dc395", "is_reserved": 0, "lon": -77.03185416666666, "is_disabled": 0, "fusion_lat": 0.0, "lat": 38.905322166666664, "bike_id": "4b46b6fe21c67a6260995889961dc395", "fusion_lon": 0.0}, {"rental_uris": {"ios": "https://dc.lft.to/lastmile_qr_scan", "android": "https://dc.lft.to/lastmile_qr_scan"}, "type": "electric_bike", "name": "a3a96d31f4a5222d840048c5ad71987a", "is_reserved": 0, "lon": -77.03441166666667, "is_disabled": 0, "fusion_lat": 0.0, "lat": 38.906289, "bike_id": "a3a96d31f4a5222d840048c5ad71987a", "fusion_lon": 0.0}, {"rental_uris": {"ios": "https://dc.lft.to/lastmile_qr_scan", "android": "https://dc.lft.to/lastmile_qr_scan"}, "type": "electric_scooter", "name": "f9a03735d78590477ccbc322bf370ceb", "is_reserved": 0, "lon": -77.00872833333334, "is_disabled": 0, "fusion_lat": 0.0, "lat": 38.9117525, "bike_id": "f9a03735d78590477ccbc322bf370ceb", "fusion_lon": 0.0}, {"rental_uris": {"ios": "https://dc.lft.to/lastmile_qr_scan", "android": "https://dc.lft.to/lastmile_qr_scan"}, "type": "electric_scooter", "name": "d215b68cdefac7cc6228743c0e581be2", "is_reserved": 0, "lon": -77.020222, "is_disabled": 0, "fusion_lat": 0.0, "lat": 38.9244295, "bike_id": "d215b68cdefac7cc6228743c0e581be2", "fusion_lon": 0.0}, {"rental_uris": {"ios": "https://dc.lft.to/lastmile_qr_scan", "android": "https://dc.lft.to/lastmile_qr_scan"}, "type": "electric_scooter", "name": "a13951340c554f966aac95a4ff790a1e", "is_reserved": 0, "lon": -77.04272233333333, "is_disabled": 0, "fusion_lat": 0.0, "lat": 38.92304133333333, "bike_id": "a13951340c554f966aac95a4ff790a1e", "fusion_lon": 0.0}, {"rental_uris": {"ios": "https://dc.lft.to/lastmile_qr_scan", "android": "https://dc.lft.to/lastmile_qr_scan"}, "type": "electric_bike", "name": "0b7d55bb71344d8f1b9efbc587044706", "is_reserved": 0, "lon": -77.0282215, "is_disabled": 0, "fusion_lat": 0.0, "lat": 38.965601666666664, "bike_id": "0b7d55bb71344d8f1b9efbc587044706", "fusion_lon": 0.0}, {"rental_uris": {"ios": "https://dc.lft.to/lastmile_qr_scan", "android": "https://dc.lft.to/lastmile_qr_scan"}, "type": "electric_scooter", "name": "87de28ca92df0e8e837280694414c855", "is_reserved": 0, "lon": -77.030268, "is_disabled": 0, "fusion_lat": 0.0, "lat": 38.878445666666664, "bike_id": "87de28ca92df0e8e837280694414c855", "fusion_lon": 0.0}, {"rental_uris": {"ios": "https://dc.lft.to/lastmile_qr_scan", "android": "https://dc.lft.to/lastmile_qr_scan"}, "type": "electric_scooter", "name": "452ac42d8f3b30642107f0cd409f5239", "is_reserved": 0, "lon": -77.039716, "is_disabled": 0, "fusion_lat": 0.0, "lat": 38.931555833333334, "bike_id": "452ac42d8f3b30642107f0cd409f5239", "fusion_lon": 0.0}, {"rental_uris": {"ios": "https://dc.lft.to/lastmile_qr_scan", "android": "https://dc.lft.to/lastmile_qr_scan"}, "type": "electric_scooter", "name": "7e23d305ddefe6849f915b041345b658", "is_reserved": 0, "lon": -77.02714116666667, "is_disabled": 0, "fusion_lat": 0.0, "lat": 38.917272833333335, "bike_id": "7e23d305ddefe6849f915b041345b658", "fusion_lon": 0.0}, {"rental_uris": {"ios": "https://dc.lft.to/lastmile_qr_scan", "android": "https://dc.lft.to/lastmile_qr_scan"}, "type": "electric_scooter", "name": "e6282fb258244ef8a43506f392f7ff66", "is_reserved": 0, "lon": -76.99587033333333, "is_disabled": 0, "fusion_lat": 0.0, "lat": 38.909442, "bike_id": "e6282fb258244ef8a43506f392f7ff66", "fusion_lon": 0.0}, {"rental_uris": {"ios": "https://dc.lft.to/lastmile_qr_scan", "android": "https://dc.lft.to/lastmile_qr_scan"}, "type": "electric_scooter", "name": "34d94f5b35149740f17d2f15d0fefafb", "is_reserved": 0, "lon": -77.04930816666666, "is_disabled": 0, "fusion_lat": 0.0, "lat": 38.900834833333334, "bike_id": "34d94f5b35149740f17d2f15d0fefafb", "fusion_lon": 0.0}, {"rental_uris": {"ios": "https://dc.lft.to/lastmile_qr_scan", "android": "https://dc.lft.to/lastmile_qr_scan"}, "type": "electric_scooter", "name": "abd5cde83f2660b76ea7b8a5eaa334f3", "is_reserved": 0, "lon": -77.06849566666666, "is_disabled": 0, "fusion_lat": 0.0, "lat": 38.90405233333333, "bike_id": "abd5cde83f2660b76ea7b8a5eaa334f3", "fusion_lon": 0.0}, {"rental_uris": {"ios": "https://dc.lft.to/lastmile_qr_scan", "android": "https://dc.lft.to/lastmile_qr_scan"}, "type": "electric_scooter", "name": "d56cc2ac6302b7d05f2bb8924ceb8eaf", "is_reserved": 0, "lon": -76.97329116666667, "is_disabled": 0, "fusion_lat": 0.0, "lat": 38.90409566666666, "bike_id": "d56cc2ac6302b7d05f2bb8924ceb8eaf", "fusion_lon": 0.0}, {"rental_uris": {"ios": "https://dc.lft.to/lastmile_qr_scan", "android": "https://dc.lft.to/lastmile_qr_scan"}, "type": "electric_scooter", "name": "b40eb8c6b35284d07679282848707e61", "is_reserved": 0, "lon": -77.06106866666667, "is_disabled": 0, "fusion_lat": 0.0, "lat": 38.9398495, "bike_id": "b40eb8c6b35284d07679282848707e61", "fusion_lon": 0.0}, {"rental_uris": {"ios": "https://dc.lft.to/lastmile_qr_scan", "android": "https://dc.lft.to/lastmile_qr_scan"}, "type": "electric_scooter", "name": "7f14ffbeb5b4a1a7d4ce3ba4641ac529", "is_reserved": 0, "lon": -77.03355783333333, "is_disabled": 0, "fusion_lat": 0.0, "lat": 38.897942, "bike_id": "7f14ffbeb5b4a1a7d4ce3ba4641ac529", "fusion_lon": 0.0}, {"rental_uris": {"ios": "https://dc.lft.to/lastmile_qr_scan", "android": "https://dc.lft.to/lastmile_qr_scan"}, "type": "electric_scooter", "name": "e70e83bb61016b1309fef09b8e544b1c", "is_reserved": 0, "lon": -77.04817966666667, "is_disabled": 0, "fusion_lat": 0.0, "lat": 38.914933833333336, "bike_id": "e70e83bb61016b1309fef09b8e544b1c", "fusion_lon": 0.0}, {"rental_uris": {"ios": "https://dc.lft.to/lastmile_qr_scan", "android": "https://dc.lft.to/lastmile_qr_scan"}, "type": "electric_bike", "name": "b1912a08968d8656f1529fee3fb4c166", "is_reserved": 0, "lon": -77.0694975, "is_disabled": 0, "fusion_lat": 0.0, "lat": 38.8362445, "bike_id": "b1912a08968d8656f1529fee3fb4c166", "fusion_lon": 0.0}, {"rental_uris": {"ios": "https://dc.lft.to/lastmile_qr_scan", "android": "https://dc.lft.to/lastmile_qr_scan"}, "type": "electric_scooter", "name": "c40066d9ed15d627681b2b04798aebd0", "is_reserved": 0, "lon": -77.011472, "is_disabled": 0, "fusion_lat": 0.0, "lat": 38.909609, "bike_id": "c40066d9ed15d627681b2b04798aebd0", "fusion_lon": 0.0}, {"rental_uris": {"ios": "https://dc.lft.to/lastmile_qr_scan", "android": "https://dc.lft.to/lastmile_qr_scan"}, "type": "electric_scooter", "name": "fda898abcd69359d9766dbca2cdeb88c", "is_reserved": 0, "lon": -77.00133366666667, "is_disabled": 0, "fusion_lat": 0.0, "lat": 38.87499833333333, "bike_id": "fda898abcd69359d9766dbca2cdeb88c", "fusion_lon": 0.0}, {"rental_uris": {"ios": "https://dc.lft.to/lastmile_qr_scan", "android": "https://dc.lft.to/lastmile_qr_scan"}, "type": "electric_scooter", "name": "978b681add84c988eefac28f40c02450", "is_reserved": 0, "lon": -77.03394783333333, "is_disabled": 0, "fusion_lat": 0.0, "lat": 38.920474166666665, "bike_id": "978b681add84c988eefac28f40c02450", "fusion_lon": 0.0}, {"rental_uris": {"ios": "https://dc.lft.to/lastmile_qr_scan", "android": "https://dc.lft.to/lastmile_qr_scan"}, "type": "electric_scooter", "name": "f6dd5f74c93597ab28076ad250455188", "is_reserved": 0, "lon": -76.983618, "is_disabled": 0, "fusion_lat": 0.0, "lat": 38.88730366666667, "bike_id": "f6dd5f74c93597ab28076ad250455188", "fusion_lon": 0.0}, {"rental_uris": {"ios": "https://dc.lft.to/lastmile_qr_scan", "android": "https://dc.lft.to/lastmile_qr_scan"}, "type": "electric_scooter", "name": "3ec4527f94616b345b05a60b44de026d", "is_reserved": 0, "lon": -76.93215216666667, "is_disabled": 0, "fusion_lat": 0.0, "lat": 38.880507, "bike_id": "3ec4527f94616b345b05a60b44de026d", "fusion_lon": 0.0}, {"rental_uris": {"ios": "https://dc.lft.to/lastmile_qr_scan", "android": "https://dc.lft.to/lastmile_qr_scan"}, "type": "electric_scooter", "name": "ed212e682afa2354316998841b012861", "is_reserved": 0, "lon": -77.02508716666667, "is_disabled": 0, "fusion_lat": 0.0, "lat": 38.92020683333333, "bike_id": "ed212e682afa2354316998841b012861", "fusion_lon": 0.0}, {"rental_uris": {"ios": "https://dc.lft.to/lastmile_qr_scan", "android": "https://dc.lft.to/lastmile_qr_scan"}, "type": "electric_scooter", "name": "28951f9db715e4b4ff8e323d661daaca", "is_reserved": 0, "lon": -77.0413865, "is_disabled": 0, "fusion_lat": 0.0, "lat": 38.893504666666665, "bike_id": "28951f9db715e4b4ff8e323d661daaca", "fusion_lon": 0.0}, {"rental_uris": {"ios": "https://dc.lft.to/lastmile_qr_scan", "android": "https://dc.lft.to/lastmile_qr_scan"}, "type": "electric_scooter", "name": "20b3c5233cae6b62dea583887e07ebb5", "is_reserved": 0, "lon": -77.03448933333334, "is_disabled": 0, "fusion_lat": 0.0, "lat": 38.90736783333333, "bike_id": "20b3c5233cae6b62dea583887e07ebb5", "fusion_lon": 0.0}, {"rental_uris": {"ios": "https://dc.lft.to/lastmile_qr_scan", "android": "https://dc.lft.to/lastmile_qr_scan"}, "type": "electric_bike", "name": "de172fe3e94b8eb959f4823707cf29b4", "is_reserved": 0, "lon": -77.04374516666667, "is_disabled": 0, "fusion_lat": 0.0, "lat": 38.90733383333333, "bike_id": "de172fe3e94b8eb959f4823707cf29b4", "fusion_lon": 0.0}, {"rental_uris": {"ios": "https://dc.lft.to/lastmile_qr_scan", "android": "https://dc.lft.to/lastmile_qr_scan"}, "type": "electric_scooter", "name": "1d2e326d429d63e175e63400532897c5", "is_reserved": 0, "lon": -77.057258, "is_disabled": 0, "fusion_lat": 0.0, "lat": 38.93356083333333, "bike_id": "1d2e326d429d63e175e63400532897c5", "fusion_lon": 0.0}, {"rental_uris": {"ios": "https://dc.lft.to/lastmile_qr_scan", "android": "https://dc.lft.to/lastmile_qr_scan"}, "type": "electric_scooter", "name": "2ccbd6fcb2592c0265a3380ae58f4c2d", "is_reserved": 0, "lon": -77.0170635, "is_disabled": 0, "fusion_lat": 0.0, "lat": 38.90476866666667, "bike_id": "2ccbd6fcb2592c0265a3380ae58f4c2d", "fusion_lon": 0.0}, {"rental_uris": {"ios": "https://dc.lft.to/lastmile_qr_scan", "android": "https://dc.lft.to/lastmile_qr_scan"}, "type": "electric_scooter", "name": "bf3a4d69fd26abea322a0540b9d211aa", "is_reserved": 0, "lon": -76.9933885, "is_disabled": 0, "fusion_lat": 0.0, "lat": 38.92031566666667, "bike_id": "bf3a4d69fd26abea322a0540b9d211aa", "fusion_lon": 0.0}, {"rental_uris": {"ios": "https://dc.lft.to/lastmile_qr_scan", "android": "https://dc.lft.to/lastmile_qr_scan"}, "type": "electric_bike", "name": "09b21b3b6c805e0c9c2b66c985ef2434", "is_reserved": 0, "lon": -76.97323116666666, "is_disabled": 0, "fusion_lat": 0.0, "lat": 38.857834833333335, "bike_id": "09b21b3b6c805e0c9c2b66c985ef2434", "fusion_lon": 0.0}, {"rental_uris": {"ios": "https://dc.lft.to/lastmile_qr_scan", "android": "https://dc.lft.to/lastmile_qr_scan"}, "type": "electric_scooter", "name": "f27c20e262e8df2993d01fa912ccdde2", "is_reserved": 0, "lon": -77.0355805, "is_disabled": 0, "fusion_lat": 0.0, "lat": 38.9264485, "bike_id": "f27c20e262e8df2993d01fa912ccdde2", "fusion_lon": 0.0}, {"rental_uris": {"ios": "https://dc.lft.to/lastmile_qr_scan", "android": "https://dc.lft.to/lastmile_qr_scan"}, "type": "electric_scooter", "name": "0ddfae40c9ea1771ca67fe20f4cb8ec8", "is_reserved": 0, "lon": -76.99029966666667, "is_disabled": 0, "fusion_lat": 0.0, "lat": 38.8888145, "bike_id": "0ddfae40c9ea1771ca67fe20f4cb8ec8", "fusion_lon": 0.0}, {"rental_uris": {"ios": "https://dc.lft.to/lastmile_qr_scan", "android": "https://dc.lft.to/lastmile_qr_scan"}, "type": "electric_scooter", "name": "15b8d036518f31f0ef9ddf9e22e17950", "is_reserved": 0, "lon": -77.03507133333333, "is_disabled": 0, "fusion_lat": 0.0, "lat": 38.900454, "bike_id": "15b8d036518f31f0ef9ddf9e22e17950", "fusion_lon": 0.0}, {"rental_uris": {"ios": "https://dc.lft.to/lastmile_qr_scan", "android": "https://dc.lft.to/lastmile_qr_scan"}, "type": "electric_scooter", "name": "baff74f5cc69bec2311d786f5c235f9f", "is_reserved": 0, "lon": -77.01703366666666, "is_disabled": 0, "fusion_lat": 0.0, "lat": 38.913843666666665, "bike_id": "baff74f5cc69bec2311d786f5c235f9f", "fusion_lon": 0.0}, {"rental_uris": {"ios": "https://dc.lft.to/lastmile_qr_scan", "android": "https://dc.lft.to/lastmile_qr_scan"}, "type": "electric_bike", "name": "ccf5fee3295505e1c5625db03ff349c1", "is_reserved": 0, "lon": -76.91726866666667, "is_disabled": 0, "fusion_lat": 0.0, "lat": 38.880266, "bike_id": "ccf5fee3295505e1c5625db03ff349c1", "fusion_lon": 0.0}, {"rental_uris": {"ios": "https://dc.lft.to/lastmile_qr_scan", "android": "https://dc.lft.to/lastmile_qr_scan"}, "type": "electric_scooter", "name": "89f50e4fb1c711048a151fc1b0ad2043", "is_reserved": 0, "lon": -77.03064883333333, "is_disabled": 0, "fusion_lat": 0.0, "lat": 38.92245966666667, "bike_id": "89f50e4fb1c711048a151fc1b0ad2043", "fusion_lon": 0.0}, {"rental_uris": {"ios": "https://dc.lft.to/lastmile_qr_scan", "android": "https://dc.lft.to/lastmile_qr_scan"}, "type": "electric_scooter", "name": "91e40f18896fb21328109c458b4853ae", "is_reserved": 0, "lon": -77.04692616666667, "is_disabled": 0, "fusion_lat": 0.0, "lat": 38.897474, "bike_id": "91e40f18896fb21328109c458b4853ae", "fusion_lon": 0.0}, {"rental_uris": {"ios": "https://dc.lft.to/lastmile_qr_scan", "android": "https://dc.lft.to/lastmile_qr_scan"}, "type": "electric_scooter", "name": "480d8a6e6d0ac151e64d745249ea1f7b", "is_reserved": 0, "lon": -77.0395745, "is_disabled": 0, "fusion_lat": 0.0, "lat": 38.89246, "bike_id": "480d8a6e6d0ac151e64d745249ea1f7b", "fusion_lon": 0.0}, {"rental_uris": {"ios": "https://dc.lft.to/lastmile_qr_scan", "android": "https://dc.lft.to/lastmile_qr_scan"}, "type": "electric_scooter", "name": "3582f7b85db04fb39971220eb0c85692", "is_reserved": 0, "lon": -77.03632833333333, "is_disabled": 0, "fusion_lat": 0.0, "lat": 38.925937166666664, "bike_id": "3582f7b85db04fb39971220eb0c85692", "fusion_lon": 0.0}, {"rental_uris": {"ios": "https://dc.lft.to/lastmile_qr_scan", "android": "https://dc.lft.to/lastmile_qr_scan"}, "type": "electric_scooter", "name": "6ab40133c4338306e590f3001e10179d", "is_reserved": 0, "lon": -77.01006883333334, "is_disabled": 0, "fusion_lat": 0.0, "lat": 38.91267033333333, "bike_id": "6ab40133c4338306e590f3001e10179d", "fusion_lon": 0.0}, {"rental_uris": {"ios": "https://dc.lft.to/lastmile_qr_scan", "android": "https://dc.lft.to/lastmile_qr_scan"}, "type": "electric_scooter", "name": "272a0b50a0564e8520dd6a6413653b95", "is_reserved": 0, "lon": -77.0328285, "is_disabled": 0, "fusion_lat": 0.0, "lat": 38.91995033333333, "bike_id": "272a0b50a0564e8520dd6a6413653b95", "fusion_lon": 0.0}, {"rental_uris": {"ios": "https://dc.lft.to/lastmile_qr_scan", "android": "https://dc.lft.to/lastmile_qr_scan"}, "type": "electric_scooter", "name": "0001fc2c3f688ab451c59d82bd79ed1a", "is_reserved": 0, "lon": -77.03856316666666, "is_disabled": 0, "fusion_lat": 0.0, "lat": 38.9165965, "bike_id": "0001fc2c3f688ab451c59d82bd79ed1a", "fusion_lon": 0.0}, {"rental_uris": {"ios": "https://dc.lft.to/lastmile_qr_scan", "android": "https://dc.lft.to/lastmile_qr_scan"}, "type": "electric_scooter", "name": "2dca6a6ef0a5c5ad2c3cefa68ad4b943", "is_reserved": 0, "lon": -77.07863683333333, "is_disabled": 0, "fusion_lat": 0.0, "lat": 38.924641666666666, "bike_id": "2dca6a6ef0a5c5ad2c3cefa68ad4b943", "fusion_lon": 0.0}, {"rental_uris": {"ios": "https://dc.lft.to/lastmile_qr_scan", "android": "https://dc.lft.to/lastmile_qr_scan"}, "type": "electric_scooter", "name": "87e332e1ef5e3fb774ddd92fc8f02fe0", "is_reserved": 0, "lon": -77.05635916666667, "is_disabled": 0, "fusion_lat": 0.0, "lat": 38.936016333333335, "bike_id": "87e332e1ef5e3fb774ddd92fc8f02fe0", "fusion_lon": 0.0}, {"rental_uris": {"ios": "https://dc.lft.to/lastmile_qr_scan", "android": "https://dc.lft.to/lastmile_qr_scan"}, "type": "electric_scooter", "name": "42716d3e6a1519787e2b5137f0e407b6", "is_reserved": 0, "lon": -77.04686483333333, "is_disabled": 0, "fusion_lat": 0.0, "lat": 38.897541333333336, "bike_id": "42716d3e6a1519787e2b5137f0e407b6", "fusion_lon": 0.0}, {"rental_uris": {"ios": "https://dc.lft.to/lastmile_qr_scan", "android": "https://dc.lft.to/lastmile_qr_scan"}, "type": "electric_scooter", "name": "47f29fd6b6ad049b641960b5369aeb43", "is_reserved": 0, "lon": -77.03215833333333, "is_disabled": 0, "fusion_lat": 0.0, "lat": 38.91591566666666, "bike_id": "47f29fd6b6ad049b641960b5369aeb43", "fusion_lon": 0.0}, {"rental_uris": {"ios": "https://dc.lft.to/lastmile_qr_scan", "android": "https://dc.lft.to/lastmile_qr_scan"}, "type": "electric_scooter", "name": "fda9874564f804d873f55502230f4be2", "is_reserved": 0, "lon": -76.99151433333333, "is_disabled": 0, "fusion_lat": 0.0, "lat": 38.9012415, "bike_id": "fda9874564f804d873f55502230f4be2", "fusion_lon": 0.0}, {"rental_uris": {"ios": "https://dc.lft.to/lastmile_qr_scan", "android": "https://dc.lft.to/lastmile_qr_scan"}, "type": "electric_scooter", "name": "88893d00ac813a5b4eec8921fa99e4cb", "is_reserved": 0, "lon": -77.02442333333333, "is_disabled": 0, "fusion_lat": 0.0, "lat": 38.956380333333335, "bike_id": "88893d00ac813a5b4eec8921fa99e4cb", "fusion_lon": 0.0}, {"rental_uris": {"ios": "https://dc.lft.to/lastmile_qr_scan", "android": "https://dc.lft.to/lastmile_qr_scan"}, "type": "electric_scooter", "name": "10a3fcec2dde4f0462d6ae8defa02982", "is_reserved": 0, "lon": -76.97133316666667, "is_disabled": 0, "fusion_lat": 0.0, "lat": 38.8786235, "bike_id": "10a3fcec2dde4f0462d6ae8defa02982", "fusion_lon": 0.0}, {"rental_uris": {"ios": "https://dc.lft.to/lastmile_qr_scan", "android": "https://dc.lft.to/lastmile_qr_scan"}, "type": "electric_scooter", "name": "615164ae39177f245e2e58a258f5a081", "is_reserved": 0, "lon": -77.07095433333333, "is_disabled": 0, "fusion_lat": 0.0, "lat": 38.95326683333333, "bike_id": "615164ae39177f245e2e58a258f5a081", "fusion_lon": 0.0}, {"rental_uris": {"ios": "https://dc.lft.to/lastmile_qr_scan", "android": "https://dc.lft.to/lastmile_qr_scan"}, "type": "electric_bike", "name": "1f2c7d70b08dbd57842e6d7a0a29b27c", "is_reserved": 0, "lon": -77.06567816666667, "is_disabled": 0, "fusion_lat": 0.0, "lat": 38.93260316666667, "bike_id": "1f2c7d70b08dbd57842e6d7a0a29b27c", "fusion_lon": 0.0}, {"rental_uris": {"ios": "https://dc.lft.to/lastmile_qr_scan", "android": "https://dc.lft.to/lastmile_qr_scan"}, "type": "electric_scooter", "name": "65929eb97cff907d441080268f27eef8", "is_reserved": 0, "lon": -77.05519983333333, "is_disabled": 0, "fusion_lat": 0.0, "lat": 38.9077035, "bike_id": "65929eb97cff907d441080268f27eef8", "fusion_lon": 0.0}, {"rental_uris": {"ios": "https://dc.lft.to/lastmile_qr_scan", "android": "https://dc.lft.to/lastmile_qr_scan"}, "type": "electric_scooter", "name": "9ec02004dc8091823c89518248ba8242", "is_reserved": 0, "lon": -77.0530475, "is_disabled": 0, "fusion_lat": 0.0, "lat": 38.9026535, "bike_id": "9ec02004dc8091823c89518248ba8242", "fusion_lon": 0.0}, {"rental_uris": {"ios": "https://dc.lft.to/lastmile_qr_scan", "android": "https://dc.lft.to/lastmile_qr_scan"}, "type": "electric_scooter", "name": "4b45b0e8cddb09aa29ae3edd90ada334", "is_reserved": 0, "lon": -77.02713033333333, "is_disabled": 0, "fusion_lat": 0.0, "lat": 38.917278333333336, "bike_id": "4b45b0e8cddb09aa29ae3edd90ada334", "fusion_lon": 0.0}, {"rental_uris": {"ios": "https://dc.lft.to/lastmile_qr_scan", "android": "https://dc.lft.to/lastmile_qr_scan"}, "type": "electric_scooter", "name": "b94c1a4a0f2113d05fb79c6f65b26c26", "is_reserved": 0, "lon": -77.0199285, "is_disabled": 0, "fusion_lat": 0.0, "lat": 38.876070166666665, "bike_id": "b94c1a4a0f2113d05fb79c6f65b26c26", "fusion_lon": 0.0}, {"rental_uris": {"ios": "https://dc.lft.to/lastmile_qr_scan", "android": "https://dc.lft.to/lastmile_qr_scan"}, "type": "electric_scooter", "name": "7cd08823a7ab3be5d874e936e90e02eb", "is_reserved": 0, "lon": -76.98734183333333, "is_disabled": 0, "fusion_lat": 0.0, "lat": 38.842236166666666, "bike_id": "7cd08823a7ab3be5d874e936e90e02eb", "fusion_lon": 0.0}, {"rental_uris": {"ios": "https://dc.lft.to/lastmile_qr_scan", "android": "https://dc.lft.to/lastmile_qr_scan"}, "type": "electric_scooter", "name": "27b84cea898dcf913820c75d108ca040", "is_reserved": 0, "lon": -77.07290166666667, "is_disabled": 0, "fusion_lat": 0.0, "lat": 38.9144235, "bike_id": "27b84cea898dcf913820c75d108ca040", "fusion_lon": 0.0}, {"rental_uris": {"ios": "https://dc.lft.to/lastmile_qr_scan", "android": "https://dc.lft.to/lastmile_qr_scan"}, "type": "electric_scooter", "name": "085018d510931a0b14a52d95838be123", "is_reserved": 0, "lon": -77.0365535, "is_disabled": 0, "fusion_lat": 0.0, "lat": 38.95460883333333, "bike_id": "085018d510931a0b14a52d95838be123", "fusion_lon": 0.0}, {"rental_uris": {"ios": "https://dc.lft.to/lastmile_qr_scan", "android": "https://dc.lft.to/lastmile_qr_scan"}, "type": "electric_bike", "name": "f603a0e9b2eff15285fb246942388607", "is_reserved": 0, "lon": -77.05270133333333, "is_disabled": 0, "fusion_lat": 0.0, "lat": 38.94091066666667, "bike_id": "f603a0e9b2eff15285fb246942388607", "fusion_lon": 0.0}, {"rental_uris": {"ios": "https://dc.lft.to/lastmile_qr_scan", "android": "https://dc.lft.to/lastmile_qr_scan"}, "type": "electric_scooter", "name": "91da4dab211392bad9ee8eef98fe764c", "is_reserved": 0, "lon": -77.03131033333334, "is_disabled": 0, "fusion_lat": 0.0, "lat": 38.92380966666666, "bike_id": "91da4dab211392bad9ee8eef98fe764c", "fusion_lon": 0.0}, {"rental_uris": {"ios": "https://dc.lft.to/lastmile_qr_scan", "android": "https://dc.lft.to/lastmile_qr_scan"}, "type": "electric_scooter", "name": "f6e9bfc6688642a4705315ce402c4383", "is_reserved": 0, "lon": -77.04907183333333, "is_disabled": 0, "fusion_lat": 0.0, "lat": 38.897344833333335, "bike_id": "f6e9bfc6688642a4705315ce402c4383", "fusion_lon": 0.0}, {"rental_uris": {"ios": "https://dc.lft.to/lastmile_qr_scan", "android": "https://dc.lft.to/lastmile_qr_scan"}, "type": "electric_scooter", "name": "420f16da75d0c4fe2752ca0032e386aa", "is_reserved": 0, "lon": -77.03922016666667, "is_disabled": 0, "fusion_lat": 0.0, "lat": 38.924694, "bike_id": "420f16da75d0c4fe2752ca0032e386aa", "fusion_lon": 0.0}, {"rental_uris": {"ios": "https://dc.lft.to/lastmile_qr_scan", "android": "https://dc.lft.to/lastmile_qr_scan"}, "type": "electric_scooter", "name": "e70c59c47523a22631e48efc9acb515a", "is_reserved": 0, "lon": -76.99514116666667, "is_disabled": 0, "fusion_lat": 0.0, "lat": 38.8810465, "bike_id": "e70c59c47523a22631e48efc9acb515a", "fusion_lon": 0.0}, {"rental_uris": {"ios": "https://dc.lft.to/lastmile_qr_scan", "android": "https://dc.lft.to/lastmile_qr_scan"}, "type": "electric_bike", "name": "cda746a3ea93f3a6515c92aad18c890b", "is_reserved": 0, "lon": -77.02086783333333, "is_disabled": 0, "fusion_lat": 0.0, "lat": 38.958491, "bike_id": "cda746a3ea93f3a6515c92aad18c890b", "fusion_lon": 0.0}, {"rental_uris": {"ios": "https://dc.lft.to/lastmile_qr_scan", "android": "https://dc.lft.to/lastmile_qr_scan"}, "type": "electric_scooter", "name": "49846b86eef98068eed77e2825df0a3a", "is_reserved": 0, "lon": -77.0556355, "is_disabled": 0, "fusion_lat": 0.0, "lat": 38.89967633333333, "bike_id": "49846b86eef98068eed77e2825df0a3a", "fusion_lon": 0.0}, {"rental_uris": {"ios": "https://dc.lft.to/lastmile_qr_scan", "android": "https://dc.lft.to/lastmile_qr_scan"}, "type": "electric_scooter", "name": "373cdad995e2a8f108d599dabf2c8ac8", "is_reserved": 0, "lon": -77.0298255, "is_disabled": 0, "fusion_lat": 0.0, "lat": 38.916707, "bike_id": "373cdad995e2a8f108d599dabf2c8ac8", "fusion_lon": 0.0}, {"rental_uris": {"ios": "https://dc.lft.to/lastmile_qr_scan", "android": "https://dc.lft.to/lastmile_qr_scan"}, "type": "electric_scooter", "name": "29f59b2aefcaf92c1c728fc16c506482", "is_reserved": 0, "lon": -77.02834433333334, "is_disabled": 0, "fusion_lat": 0.0, "lat": 38.887371333333334, "bike_id": "29f59b2aefcaf92c1c728fc16c506482", "fusion_lon": 0.0}, {"rental_uris": {"ios": "https://dc.lft.to/lastmile_qr_scan", "android": "https://dc.lft.to/lastmile_qr_scan"}, "type": "electric_scooter", "name": "55cb9cefe1c5f90c9a2339753ff63df3", "is_reserved": 0, "lon": -77.06564216666666, "is_disabled": 0, "fusion_lat": 0.0, "lat": 38.88334733333333, "bike_id": "55cb9cefe1c5f90c9a2339753ff63df3", "fusion_lon": 0.0}, {"rental_uris": {"ios": "https://dc.lft.to/lastmile_qr_scan", "android": "https://dc.lft.to/lastmile_qr_scan"}, "type": "electric_scooter", "name": "9b31f5c5d2f06b746399f494c9c42593", "is_reserved": 0, "lon": -77.0335895, "is_disabled": 0, "fusion_lat": 0.0, "lat": 38.8979575, "bike_id": "9b31f5c5d2f06b746399f494c9c42593", "fusion_lon": 0.0}, {"rental_uris": {"ios": "https://dc.lft.to/lastmile_qr_scan", "android": "https://dc.lft.to/lastmile_qr_scan"}, "type": "electric_scooter", "name": "a63c860cce9999635cdc43262092e856", "is_reserved": 0, "lon": -76.996319, "is_disabled": 0, "fusion_lat": 0.0, "lat": 38.8773655, "bike_id": "a63c860cce9999635cdc43262092e856", "fusion_lon": 0.0}, {"rental_uris": {"ios": "https://dc.lft.to/lastmile_qr_scan", "android": "https://dc.lft.to/lastmile_qr_scan"}, "type": "electric_scooter", "name": "c7e8cb63720f0b53809f4ed067c3b005", "is_reserved": 0, "lon": -77.02957066666667, "is_disabled": 0, "fusion_lat": 0.0, "lat": 38.912473166666665, "bike_id": "c7e8cb63720f0b53809f4ed067c3b005", "fusion_lon": 0.0}, {"rental_uris": {"ios": "https://dc.lft.to/lastmile_qr_scan", "android": "https://dc.lft.to/lastmile_qr_scan"}, "type": "electric_scooter", "name": "3ac27efee569454b6d99830be45ac788", "is_reserved": 0, "lon": -77.0385215, "is_disabled": 0, "fusion_lat": 0.0, "lat": 38.90822683333333, "bike_id": "3ac27efee569454b6d99830be45ac788", "fusion_lon": 0.0}, {"rental_uris": {"ios": "https://dc.lft.to/lastmile_qr_scan", "android": "https://dc.lft.to/lastmile_qr_scan"}, "type": "electric_scooter", "name": "adc7ab8ae7f89779b3db34dc9938f607", "is_reserved": 0, "lon": -77.0161545, "is_disabled": 0, "fusion_lat": 0.0, "lat": 38.9060745, "bike_id": "adc7ab8ae7f89779b3db34dc9938f607", "fusion_lon": 0.0}, {"rental_uris": {"ios": "https://dc.lft.to/lastmile_qr_scan", "android": "https://dc.lft.to/lastmile_qr_scan"}, "type": "electric_scooter", "name": "23eb1e18afb8905c96518d73ffb1c20f", "is_reserved": 0, "lon": -77.04668183333334, "is_disabled": 0, "fusion_lat": 0.0, "lat": 38.90392833333333, "bike_id": "23eb1e18afb8905c96518d73ffb1c20f", "fusion_lon": 0.0}, {"rental_uris": {"ios": "https://dc.lft.to/lastmile_qr_scan", "android": "https://dc.lft.to/lastmile_qr_scan"}, "type": "electric_scooter", "name": "3a44b65bb42aa23c337a9a3f2dcc8867", "is_reserved": 0, "lon": -76.9652515, "is_disabled": 0, "fusion_lat": 0.0, "lat": 38.8763025, "bike_id": "3a44b65bb42aa23c337a9a3f2dcc8867", "fusion_lon": 0.0}, {"rental_uris": {"ios": "https://dc.lft.to/lastmile_qr_scan", "android": "https://dc.lft.to/lastmile_qr_scan"}, "type": "electric_scooter", "name": "a7260cc1e397d59f0e5ecbdc7def0176", "is_reserved": 0, "lon": -76.99479033333333, "is_disabled": 0, "fusion_lat": 0.0, "lat": 38.86212316666666, "bike_id": "a7260cc1e397d59f0e5ecbdc7def0176", "fusion_lon": 0.0}, {"rental_uris": {"ios": "https://dc.lft.to/lastmile_qr_scan", "android": "https://dc.lft.to/lastmile_qr_scan"}, "type": "electric_scooter", "name": "5173793dabfacb75d671cdb9dc3bf98a", "is_reserved": 0, "lon": -76.9899735, "is_disabled": 0, "fusion_lat": 0.0, "lat": 38.864236, "bike_id": "5173793dabfacb75d671cdb9dc3bf98a", "fusion_lon": 0.0}, {"rental_uris": {"ios": "https://dc.lft.to/lastmile_qr_scan", "android": "https://dc.lft.to/lastmile_qr_scan"}, "type": "electric_scooter", "name": "af78abd07eb9c7c7782ec2524569c97b", "is_reserved": 0, "lon": -76.9951235, "is_disabled": 0, "fusion_lat": 0.0, "lat": 38.8878955, "bike_id": "af78abd07eb9c7c7782ec2524569c97b", "fusion_lon": 0.0}, {"rental_uris": {"ios": "https://dc.lft.to/lastmile_qr_scan", "android": "https://dc.lft.to/lastmile_qr_scan"}, "type": "electric_scooter", "name": "4124b61a1a41526e1fc100422f832fa2", "is_reserved": 0, "lon": -77.02392366666666, "is_disabled": 0, "fusion_lat": 0.0, "lat": 38.9310815, "bike_id": "4124b61a1a41526e1fc100422f832fa2", "fusion_lon": 0.0}, {"rental_uris": {"ios": "https://dc.lft.to/lastmile_qr_scan", "android": "https://dc.lft.to/lastmile_qr_scan"}, "type": "electric_scooter", "name": "16ab60142b1fb30e0524b8baff63e89b", "is_reserved": 0, "lon": -76.98609316666666, "is_disabled": 0, "fusion_lat": 0.0, "lat": 38.882819166666664, "bike_id": "16ab60142b1fb30e0524b8baff63e89b", "fusion_lon": 0.0}, {"rental_uris": {"ios": "https://dc.lft.to/lastmile_qr_scan", "android": "https://dc.lft.to/lastmile_qr_scan"}, "type": "electric_scooter", "name": "2ace7d4eca8e02db329d652d75acc4bd", "is_reserved": 0, "lon": -77.045401, "is_disabled": 0, "fusion_lat": 0.0, "lat": 38.90065533333333, "bike_id": "2ace7d4eca8e02db329d652d75acc4bd", "fusion_lon": 0.0}, {"rental_uris": {"ios": "https://dc.lft.to/lastmile_qr_scan", "android": "https://dc.lft.to/lastmile_qr_scan"}, "type": "electric_scooter", "name": "7ac9513666594e5aacc7ff39b5dc8b09", "is_reserved": 0, "lon": -77.03151683333333, "is_disabled": 0, "fusion_lat": 0.0, "lat": 38.887399333333335, "bike_id": "7ac9513666594e5aacc7ff39b5dc8b09", "fusion_lon": 0.0}, {"rental_uris": {"ios": "https://dc.lft.to/lastmile_qr_scan", "android": "https://dc.lft.to/lastmile_qr_scan"}, "type": "electric_scooter", "name": "c09c5eadfa04fd188301acc7ae86c0bb", "is_reserved": 0, "lon": -77.069849, "is_disabled": 0, "fusion_lat": 0.0, "lat": 38.95225966666667, "bike_id": "c09c5eadfa04fd188301acc7ae86c0bb", "fusion_lon": 0.0}, {"rental_uris": {"ios": "https://dc.lft.to/lastmile_qr_scan", "android": "https://dc.lft.to/lastmile_qr_scan"}, "type": "electric_scooter", "name": "51b4c76c1c3d359d163a10b043bfbd99", "is_reserved": 0, "lon": -77.01102033333333, "is_disabled": 0, "fusion_lat": 0.0, "lat": 38.88539383333333, "bike_id": "51b4c76c1c3d359d163a10b043bfbd99", "fusion_lon": 0.0}, {"rental_uris": {"ios": "https://dc.lft.to/lastmile_qr_scan", "android": "https://dc.lft.to/lastmile_qr_scan"}, "type": "electric_bike", "name": "6c01839882ef2afa24025c56277f47e0", "is_reserved": 0, "lon": -76.96103716666667, "is_disabled": 0, "fusion_lat": 0.0, "lat": 38.949627666666665, "bike_id": "6c01839882ef2afa24025c56277f47e0", "fusion_lon": 0.0}, {"rental_uris": {"ios": "https://dc.lft.to/lastmile_qr_scan", "android": "https://dc.lft.to/lastmile_qr_scan"}, "type": "electric_scooter", "name": "f8165e9eaf6fd778dae7899ec69494fc", "is_reserved": 0, "lon": -77.01606266666667, "is_disabled": 0, "fusion_lat": 0.0, "lat": 38.910716666666666, "bike_id": "f8165e9eaf6fd778dae7899ec69494fc", "fusion_lon": 0.0}, {"rental_uris": {"ios": "https://dc.lft.to/lastmile_qr_scan", "android": "https://dc.lft.to/lastmile_qr_scan"}, "type": "electric_scooter", "name": "09f74041543ed02360262fb4f57f4366", "is_reserved": 0, "lon": -77.03194366666666, "is_disabled": 0, "fusion_lat": 0.0, "lat": 38.905178, "bike_id": "09f74041543ed02360262fb4f57f4366", "fusion_lon": 0.0}, {"rental_uris": {"ios": "https://dc.lft.to/lastmile_qr_scan", "android": "https://dc.lft.to/lastmile_qr_scan"}, "type": "electric_bike", "name": "24c951e9b40e6cec925b96a88801f875", "is_reserved": 0, "lon": -76.981397, "is_disabled": 0, "fusion_lat": 0.0, "lat": 38.93493383333333, "bike_id": "24c951e9b40e6cec925b96a88801f875", "fusion_lon": 0.0}, {"rental_uris": {"ios": "https://dc.lft.to/lastmile_qr_scan", "android": "https://dc.lft.to/lastmile_qr_scan"}, "type": "electric_scooter", "name": "9ee0df5f152f2aa493574c7cdf71498a", "is_reserved": 0, "lon": -77.02974983333333, "is_disabled": 0, "fusion_lat": 0.0, "lat": 38.917250333333335, "bike_id": "9ee0df5f152f2aa493574c7cdf71498a", "fusion_lon": 0.0}, {"rental_uris": {"ios": "https://dc.lft.to/lastmile_qr_scan", "android": "https://dc.lft.to/lastmile_qr_scan"}, "type": "electric_scooter", "name": "854a12cb1b79dbb742c764b949e7d852", "is_reserved": 0, "lon": -76.9880455, "is_disabled": 0, "fusion_lat": 0.0, "lat": 38.89362966666667, "bike_id": "854a12cb1b79dbb742c764b949e7d852", "fusion_lon": 0.0}, {"rental_uris": {"ios": "https://dc.lft.to/lastmile_qr_scan", "android": "https://dc.lft.to/lastmile_qr_scan"}, "type": "electric_scooter", "name": "730308d3edd7f4e8e1653e9b14432c35", "is_reserved": 0, "lon": -76.979873, "is_disabled": 0, "fusion_lat": 0.0, "lat": 38.89442866666667, "bike_id": "730308d3edd7f4e8e1653e9b14432c35", "fusion_lon": 0.0}, {"rental_uris": {"ios": "https://dc.lft.to/lastmile_qr_scan", "android": "https://dc.lft.to/lastmile_qr_scan"}, "type": "electric_bike", "name": "0e80cbb2f382bdb475d2dbcdf63ecd55", "is_reserved": 0, "lon": -76.95251666666667, "is_disabled": 0, "fusion_lat": 0.0, "lat": 38.90697933333333, "bike_id": "0e80cbb2f382bdb475d2dbcdf63ecd55", "fusion_lon": 0.0}, {"rental_uris": {"ios": "https://dc.lft.to/lastmile_qr_scan", "android": "https://dc.lft.to/lastmile_qr_scan"}, "type": "electric_scooter", "name": "4ae1eca52857d17d2b94428f5909c4df", "is_reserved": 0, "lon": -77.0328685, "is_disabled": 0, "fusion_lat": 0.0, "lat": 38.93252966666667, "bike_id": "4ae1eca52857d17d2b94428f5909c4df", "fusion_lon": 0.0}, {"rental_uris": {"ios": "https://dc.lft.to/lastmile_qr_scan", "android": "https://dc.lft.to/lastmile_qr_scan"}, "type": "electric_scooter", "name": "70c5486fd518f58f36701a1f1e5839e0", "is_reserved": 0, "lon": -77.0637495, "is_disabled": 0, "fusion_lat": 0.0, "lat": 38.9355995, "bike_id": "70c5486fd518f58f36701a1f1e5839e0", "fusion_lon": 0.0}, {"rental_uris": {"ios": "https://dc.lft.to/lastmile_qr_scan", "android": "https://dc.lft.to/lastmile_qr_scan"}, "type": "electric_bike", "name": "4be9ef91fcb5f53f8082705aa74c7bbf", "is_reserved": 0, "lon": -77.12650433333333, "is_disabled": 0, "fusion_lat": 0.0, "lat": 38.819046166666666, "bike_id": "4be9ef91fcb5f53f8082705aa74c7bbf", "fusion_lon": 0.0}, {"rental_uris": {"ios": "https://dc.lft.to/lastmile_qr_scan", "android": "https://dc.lft.to/lastmile_qr_scan"}, "type": "electric_scooter", "name": "d856a5e2abc8c188731cf47771b9aca1", "is_reserved": 0, "lon": -76.97964033333334, "is_disabled": 0, "fusion_lat": 0.0, "lat": 38.8979065, "bike_id": "d856a5e2abc8c188731cf47771b9aca1", "fusion_lon": 0.0}, {"rental_uris": {"ios": "https://dc.lft.to/lastmile_qr_scan", "android": "https://dc.lft.to/lastmile_qr_scan"}, "type": "electric_scooter", "name": "e689e4c652a459f90e7715cf3a75fce3", "is_reserved": 0, "lon": -77.03594633333333, "is_disabled": 0, "fusion_lat": 0.0, "lat": 38.92784833333333, "bike_id": "e689e4c652a459f90e7715cf3a75fce3", "fusion_lon": 0.0}, {"rental_uris": {"ios": "https://dc.lft.to/lastmile_qr_scan", "android": "https://dc.lft.to/lastmile_qr_scan"}, "type": "electric_scooter", "name": "9fd73d2963f3b1e60a76452ade960434", "is_reserved": 0, "lon": -77.00626566666666, "is_disabled": 0, "fusion_lat": 0.0, "lat": 38.87173466666667, "bike_id": "9fd73d2963f3b1e60a76452ade960434", "fusion_lon": 0.0}, {"rental_uris": {"ios": "https://dc.lft.to/lastmile_qr_scan", "android": "https://dc.lft.to/lastmile_qr_scan"}, "type": "electric_scooter", "name": "7fc950651a64a020046154562aa37236", "is_reserved": 0, "lon": -77.01388733333333, "is_disabled": 0, "fusion_lat": 0.0, "lat": 38.91107916666667, "bike_id": "7fc950651a64a020046154562aa37236", "fusion_lon": 0.0}, {"rental_uris": {"ios": "https://dc.lft.to/lastmile_qr_scan", "android": "https://dc.lft.to/lastmile_qr_scan"}, "type": "electric_scooter", "name": "f4c9f7f6f908de18d1ca8eef77197c2a", "is_reserved": 0, "lon": -77.03190766666667, "is_disabled": 0, "fusion_lat": 0.0, "lat": 38.91561766666667, "bike_id": "f4c9f7f6f908de18d1ca8eef77197c2a", "fusion_lon": 0.0}, {"rental_uris": {"ios": "https://dc.lft.to/lastmile_qr_scan", "android": "https://dc.lft.to/lastmile_qr_scan"}, "type": "electric_bike", "name": "6f4d93788cd2f146a1ce1146a3558049", "is_reserved": 0, "lon": -77.02451683333334, "is_disabled": 0, "fusion_lat": 0.0, "lat": 38.957335, "bike_id": "6f4d93788cd2f146a1ce1146a3558049", "fusion_lon": 0.0}, {"rental_uris": {"ios": "https://dc.lft.to/lastmile_qr_scan", "android": "https://dc.lft.to/lastmile_qr_scan"}, "type": "electric_scooter", "name": "b6978b4b7fd1101892d21227353912eb", "is_reserved": 0, "lon": -77.02246516666666, "is_disabled": 0, "fusion_lat": 0.0, "lat": 38.8998495, "bike_id": "b6978b4b7fd1101892d21227353912eb", "fusion_lon": 0.0}, {"rental_uris": {"ios": "https://dc.lft.to/lastmile_qr_scan", "android": "https://dc.lft.to/lastmile_qr_scan"}, "type": "electric_bike", "name": "599b1638680dac33811ebaffd9fe666a", "is_reserved": 0, "lon": -76.97134183333333, "is_disabled": 0, "fusion_lat": 0.0, "lat": 38.923539, "bike_id": "599b1638680dac33811ebaffd9fe666a", "fusion_lon": 0.0}, {"rental_uris": {"ios": "https://dc.lft.to/lastmile_qr_scan", "android": "https://dc.lft.to/lastmile_qr_scan"}, "type": "electric_bike", "name": "10d55ef3d5313457847e0a82c6926e3e", "is_reserved": 0, "lon": -77.01233366666666, "is_disabled": 0, "fusion_lat": 0.0, "lat": 38.95079166666667, "bike_id": "10d55ef3d5313457847e0a82c6926e3e", "fusion_lon": 0.0}, {"rental_uris": {"ios": "https://dc.lft.to/lastmile_qr_scan", "android": "https://dc.lft.to/lastmile_qr_scan"}, "type": "electric_scooter", "name": "20526dd9699c20d7fa5adc631e6f7a62", "is_reserved": 0, "lon": -77.028538, "is_disabled": 0, "fusion_lat": 0.0, "lat": 38.893339833333336, "bike_id": "20526dd9699c20d7fa5adc631e6f7a62", "fusion_lon": 0.0}, {"rental_uris": {"ios": "https://dc.lft.to/lastmile_qr_scan", "android": "https://dc.lft.to/lastmile_qr_scan"}, "type": "electric_scooter", "name": "6ee6837d0ead78b261220554db1cf0e9", "is_reserved": 0, "lon": -77.02254083333334, "is_disabled": 0, "fusion_lat": 0.0, "lat": 38.89365033333333, "bike_id": "6ee6837d0ead78b261220554db1cf0e9", "fusion_lon": 0.0}, {"rental_uris": {"ios": "https://dc.lft.to/lastmile_qr_scan", "android": "https://dc.lft.to/lastmile_qr_scan"}, "type": "electric_scooter", "name": "dcf7e60ff2f9b12a7d77e971ba9a6da3", "is_reserved": 0, "lon": -77.03963083333333, "is_disabled": 0, "fusion_lat": 0.0, "lat": 38.90164883333333, "bike_id": "dcf7e60ff2f9b12a7d77e971ba9a6da3", "fusion_lon": 0.0}, {"rental_uris": {"ios": "https://dc.lft.to/lastmile_qr_scan", "android": "https://dc.lft.to/lastmile_qr_scan"}, "type": "electric_scooter", "name": "9a9559a429f2e496a6867e46a64b9c98", "is_reserved": 0, "lon": -77.0213045, "is_disabled": 0, "fusion_lat": 0.0, "lat": 38.927943666666664, "bike_id": "9a9559a429f2e496a6867e46a64b9c98", "fusion_lon": 0.0}, {"rental_uris": {"ios": "https://dc.lft.to/lastmile_qr_scan", "android": "https://dc.lft.to/lastmile_qr_scan"}, "type": "electric_scooter", "name": "4d3af1a0766f66567b740a4970a58fe7", "is_reserved": 0, "lon": -77.06845666666666, "is_disabled": 0, "fusion_lat": 0.0, "lat": 38.90415333333333, "bike_id": "4d3af1a0766f66567b740a4970a58fe7", "fusion_lon": 0.0}, {"rental_uris": {"ios": "https://dc.lft.to/lastmile_qr_scan", "android": "https://dc.lft.to/lastmile_qr_scan"}, "type": "electric_scooter", "name": "db4996ec1e280902935c0b67baa7bfc4", "is_reserved": 0, "lon": -77.03468333333333, "is_disabled": 0, "fusion_lat": 0.0, "lat": 38.92158283333333, "bike_id": "db4996ec1e280902935c0b67baa7bfc4", "fusion_lon": 0.0}, {"rental_uris": {"ios": "https://dc.lft.to/lastmile_qr_scan", "android": "https://dc.lft.to/lastmile_qr_scan"}, "type": "electric_scooter", "name": "47e6683a873b60a5443e6ee92ed7e5a8", "is_reserved": 0, "lon": -77.0459105, "is_disabled": 0, "fusion_lat": 0.0, "lat": 38.914486, "bike_id": "47e6683a873b60a5443e6ee92ed7e5a8", "fusion_lon": 0.0}, {"rental_uris": {"ios": "https://dc.lft.to/lastmile_qr_scan", "android": "https://dc.lft.to/lastmile_qr_scan"}, "type": "electric_scooter", "name": "10aa5030e4f8bf0d76b6955596b0b66e", "is_reserved": 0, "lon": -77.02468983333333, "is_disabled": 0, "fusion_lat": 0.0, "lat": 38.93715066666667, "bike_id": "10aa5030e4f8bf0d76b6955596b0b66e", "fusion_lon": 0.0}, {"rental_uris": {"ios": "https://dc.lft.to/lastmile_qr_scan", "android": "https://dc.lft.to/lastmile_qr_scan"}, "type": "electric_scooter", "name": "4f19835231f49372e4dd3cdbe2b4a43d", "is_reserved": 0, "lon": -77.01750983333334, "is_disabled": 0, "fusion_lat": 0.0, "lat": 38.887320333333335, "bike_id": "4f19835231f49372e4dd3cdbe2b4a43d", "fusion_lon": 0.0}, {"rental_uris": {"ios": "https://dc.lft.to/lastmile_qr_scan", "android": "https://dc.lft.to/lastmile_qr_scan"}, "type": "electric_bike", "name": "86d37ffe85498c63eed795e65e0506b2", "is_reserved": 0, "lon": -77.02031933333333, "is_disabled": 0, "fusion_lat": 0.0, "lat": 38.965575, "bike_id": "86d37ffe85498c63eed795e65e0506b2", "fusion_lon": 0.0}, {"rental_uris": {"ios": "https://dc.lft.to/lastmile_qr_scan", "android": "https://dc.lft.to/lastmile_qr_scan"}, "type": "electric_scooter", "name": "ac799fd5178eb409523e21a9806ab564", "is_reserved": 0, "lon": -77.05290283333333, "is_disabled": 0, "fusion_lat": 0.0, "lat": 38.902484666666666, "bike_id": "ac799fd5178eb409523e21a9806ab564", "fusion_lon": 0.0}, {"rental_uris": {"ios": "https://dc.lft.to/lastmile_qr_scan", "android": "https://dc.lft.to/lastmile_qr_scan"}, "type": "electric_scooter", "name": "dde8c476e433a296ed6982aa4396c932", "is_reserved": 0, "lon": -77.02842466666667, "is_disabled": 0, "fusion_lat": 0.0, "lat": 38.903485333333336, "bike_id": "dde8c476e433a296ed6982aa4396c932", "fusion_lon": 0.0}, {"rental_uris": {"ios": "https://dc.lft.to/lastmile_qr_scan", "android": "https://dc.lft.to/lastmile_qr_scan"}, "type": "electric_scooter", "name": "f5df16a300584751a50b75a728a5e2e9", "is_reserved": 0, "lon": -77.09210333333333, "is_disabled": 0, "fusion_lat": 0.0, "lat": 38.9171125, "bike_id": "f5df16a300584751a50b75a728a5e2e9", "fusion_lon": 0.0}, {"rental_uris": {"ios": "https://dc.lft.to/lastmile_qr_scan", "android": "https://dc.lft.to/lastmile_qr_scan"}, "type": "electric_scooter", "name": "2812cb1d02e8c1b953a4396b53bbf705", "is_reserved": 0, "lon": -77.02402683333334, "is_disabled": 0, "fusion_lat": 0.0, "lat": 38.90585133333333, "bike_id": "2812cb1d02e8c1b953a4396b53bbf705", "fusion_lon": 0.0}, {"rental_uris": {"ios": "https://dc.lft.to/lastmile_qr_scan", "android": "https://dc.lft.to/lastmile_qr_scan"}, "type": "electric_scooter", "name": "b38822dd33d27c8c3a5f228624a5b232", "is_reserved": 0, "lon": -77.01440633333333, "is_disabled": 0, "fusion_lat": 0.0, "lat": 38.90230066666667, "bike_id": "b38822dd33d27c8c3a5f228624a5b232", "fusion_lon": 0.0}, {"rental_uris": {"ios": "https://dc.lft.to/lastmile_qr_scan", "android": "https://dc.lft.to/lastmile_qr_scan"}, "type": "electric_scooter", "name": "7d9b16388e7827dff18639e0fd9d15f0", "is_reserved": 0, "lon": -77.03023966666667, "is_disabled": 0, "fusion_lat": 0.0, "lat": 38.87846033333334, "bike_id": "7d9b16388e7827dff18639e0fd9d15f0", "fusion_lon": 0.0}, {"rental_uris": {"ios": "https://dc.lft.to/lastmile_qr_scan", "android": "https://dc.lft.to/lastmile_qr_scan"}, "type": "electric_scooter", "name": "9038e5dbc76dd3b53a6023f8b507c7dd", "is_reserved": 0, "lon": -77.02961183333333, "is_disabled": 0, "fusion_lat": 0.0, "lat": 38.89778583333333, "bike_id": "9038e5dbc76dd3b53a6023f8b507c7dd", "fusion_lon": 0.0}, {"rental_uris": {"ios": "https://dc.lft.to/lastmile_qr_scan", "android": "https://dc.lft.to/lastmile_qr_scan"}, "type": "electric_scooter", "name": "1011665fdde269fa69375731d2cf49e8", "is_reserved": 0, "lon": -77.00750083333334, "is_disabled": 0, "fusion_lat": 0.0, "lat": 38.89888766666667, "bike_id": "1011665fdde269fa69375731d2cf49e8", "fusion_lon": 0.0}, {"rental_uris": {"ios": "https://dc.lft.to/lastmile_qr_scan", "android": "https://dc.lft.to/lastmile_qr_scan"}, "type": "electric_scooter", "name": "a7bf7a31151838df67511a0d0eec53b4", "is_reserved": 0, "lon": -77.04331733333333, "is_disabled": 0, "fusion_lat": 0.0, "lat": 38.90627216666667, "bike_id": "a7bf7a31151838df67511a0d0eec53b4", "fusion_lon": 0.0}, {"rental_uris": {"ios": "https://dc.lft.to/lastmile_qr_scan", "android": "https://dc.lft.to/lastmile_qr_scan"}, "type": "electric_scooter", "name": "db20c7d546c8d52b925fdcc8f9c1546e", "is_reserved": 0, "lon": -77.05760883333333, "is_disabled": 0, "fusion_lat": 0.0, "lat": 38.92496916666666, "bike_id": "db20c7d546c8d52b925fdcc8f9c1546e", "fusion_lon": 0.0}, {"rental_uris": {"ios": "https://dc.lft.to/lastmile_qr_scan", "android": "https://dc.lft.to/lastmile_qr_scan"}, "type": "electric_bike", "name": "559c0e68758719431ac9111da845330c", "is_reserved": 0, "lon": -76.907422, "is_disabled": 0, "fusion_lat": 0.0, "lat": 38.8961935, "bike_id": "559c0e68758719431ac9111da845330c", "fusion_lon": 0.0}, {"rental_uris": {"ios": "https://dc.lft.to/lastmile_qr_scan", "android": "https://dc.lft.to/lastmile_qr_scan"}, "type": "electric_bike", "name": "f8a94fa2a1250901af1e83da65e047d5", "is_reserved": 0, "lon": -76.99553683333333, "is_disabled": 0, "fusion_lat": 0.0, "lat": 38.862184666666664, "bike_id": "f8a94fa2a1250901af1e83da65e047d5", "fusion_lon": 0.0}, {"rental_uris": {"ios": "https://dc.lft.to/lastmile_qr_scan", "android": "https://dc.lft.to/lastmile_qr_scan"}, "type": "electric_scooter", "name": "3f058fb5889ebaa302d1f65760311d1e", "is_reserved": 0, "lon": -77.03863366666667, "is_disabled": 0, "fusion_lat": 0.0, "lat": 38.91035683333333, "bike_id": "3f058fb5889ebaa302d1f65760311d1e", "fusion_lon": 0.0}, {"rental_uris": {"ios": "https://dc.lft.to/lastmile_qr_scan", "android": "https://dc.lft.to/lastmile_qr_scan"}, "type": "electric_scooter", "name": "e1e4e8c4de61042230e4e325027eb2bb", "is_reserved": 0, "lon": -77.07281933333333, "is_disabled": 0, "fusion_lat": 0.0, "lat": 38.915859166666664, "bike_id": "e1e4e8c4de61042230e4e325027eb2bb", "fusion_lon": 0.0}, {"rental_uris": {"ios": "https://dc.lft.to/lastmile_qr_scan", "android": "https://dc.lft.to/lastmile_qr_scan"}, "type": "electric_scooter", "name": "12d5ba9a2692df163f05b0f788c07a94", "is_reserved": 0, "lon": -77.0319385, "is_disabled": 0, "fusion_lat": 0.0, "lat": 38.907302, "bike_id": "12d5ba9a2692df163f05b0f788c07a94", "fusion_lon": 0.0}, {"rental_uris": {"ios": "https://dc.lft.to/lastmile_qr_scan", "android": "https://dc.lft.to/lastmile_qr_scan"}, "type": "electric_scooter", "name": "b2b696cc52a630256bd21c6d0101e46e", "is_reserved": 0, "lon": -77.01261583333333, "is_disabled": 0, "fusion_lat": 0.0, "lat": 38.8972915, "bike_id": "b2b696cc52a630256bd21c6d0101e46e", "fusion_lon": 0.0}, {"rental_uris": {"ios": "https://dc.lft.to/lastmile_qr_scan", "android": "https://dc.lft.to/lastmile_qr_scan"}, "type": "electric_scooter", "name": "9dea5b5a835b643528d45afe628862a9", "is_reserved": 0, "lon": -77.03849016666666, "is_disabled": 0, "fusion_lat": 0.0, "lat": 38.91661116666667, "bike_id": "9dea5b5a835b643528d45afe628862a9", "fusion_lon": 0.0}, {"rental_uris": {"ios": "https://dc.lft.to/lastmile_qr_scan", "android": "https://dc.lft.to/lastmile_qr_scan"}, "type": "electric_scooter", "name": "7fee648ef2e6385a186a0a6b0bb4fae1", "is_reserved": 0, "lon": -77.00588883333333, "is_disabled": 0, "fusion_lat": 0.0, "lat": 38.905701666666666, "bike_id": "7fee648ef2e6385a186a0a6b0bb4fae1", "fusion_lon": 0.0}, {"rental_uris": {"ios": "https://dc.lft.to/lastmile_qr_scan", "android": "https://dc.lft.to/lastmile_qr_scan"}, "type": "electric_scooter", "name": "e7beebb9054202ad4474e895d0ed8e46", "is_reserved": 0, "lon": -77.02908216666667, "is_disabled": 0, "fusion_lat": 0.0, "lat": 38.898343, "bike_id": "e7beebb9054202ad4474e895d0ed8e46", "fusion_lon": 0.0}, {"rental_uris": {"ios": "https://dc.lft.to/lastmile_qr_scan", "android": "https://dc.lft.to/lastmile_qr_scan"}, "type": "electric_bike", "name": "457014c7230c7c3c38ad3a99198a7ed4", "is_reserved": 0, "lon": -76.975433, "is_disabled": 0, "fusion_lat": 0.0, "lat": 38.9042445, "bike_id": "457014c7230c7c3c38ad3a99198a7ed4", "fusion_lon": 0.0}, {"rental_uris": {"ios": "https://dc.lft.to/lastmile_qr_scan", "android": "https://dc.lft.to/lastmile_qr_scan"}, "type": "electric_scooter", "name": "bca997e6428d09ffab2bed8cf2965d5b", "is_reserved": 0, "lon": -77.02623783333334, "is_disabled": 0, "fusion_lat": 0.0, "lat": 38.89220816666667, "bike_id": "bca997e6428d09ffab2bed8cf2965d5b", "fusion_lon": 0.0}, {"rental_uris": {"ios": "https://dc.lft.to/lastmile_qr_scan", "android": "https://dc.lft.to/lastmile_qr_scan"}, "type": "electric_scooter", "name": "05d6e144c892a65d62717726723b9bcd", "is_reserved": 0, "lon": -77.0305325, "is_disabled": 0, "fusion_lat": 0.0, "lat": 38.898329, "bike_id": "05d6e144c892a65d62717726723b9bcd", "fusion_lon": 0.0}, {"rental_uris": {"ios": "https://dc.lft.to/lastmile_qr_scan", "android": "https://dc.lft.to/lastmile_qr_scan"}, "type": "electric_bike", "name": "871437922f2212f1d4ef6a7a44dd9f27", "is_reserved": 0, "lon": -76.95160833333334, "is_disabled": 0, "fusion_lat": 0.0, "lat": 39.084333, "bike_id": "871437922f2212f1d4ef6a7a44dd9f27", "fusion_lon": 0.0}, {"rental_uris": {"ios": "https://dc.lft.to/lastmile_qr_scan", "android": "https://dc.lft.to/lastmile_qr_scan"}, "type": "electric_scooter", "name": "f3b41a4665cf443f2b2d3d4de5052329", "is_reserved": 0, "lon": -77.0139275, "is_disabled": 0, "fusion_lat": 0.0, "lat": 38.919508, "bike_id": "f3b41a4665cf443f2b2d3d4de5052329", "fusion_lon": 0.0}, {"rental_uris": {"ios": "https://dc.lft.to/lastmile_qr_scan", "android": "https://dc.lft.to/lastmile_qr_scan"}, "type": "electric_scooter", "name": "5739eb916f6f3b3c84ef0984da50e329", "is_reserved": 0, "lon": -77.00156316666667, "is_disabled": 0, "fusion_lat": 0.0, "lat": 38.82134716666667, "bike_id": "5739eb916f6f3b3c84ef0984da50e329", "fusion_lon": 0.0}, {"rental_uris": {"ios": "https://dc.lft.to/lastmile_qr_scan", "android": "https://dc.lft.to/lastmile_qr_scan"}, "type": "electric_scooter", "name": "0773179e76e564491892abe84216e1f7", "is_reserved": 0, "lon": -76.9994345, "is_disabled": 0, "fusion_lat": 0.0, "lat": 38.8908875, "bike_id": "0773179e76e564491892abe84216e1f7", "fusion_lon": 0.0}, {"rental_uris": {"ios": "https://dc.lft.to/lastmile_qr_scan", "android": "https://dc.lft.to/lastmile_qr_scan"}, "type": "electric_scooter", "name": "d512d38b9f19ce4599e139e71d50023f", "is_reserved": 0, "lon": -77.07580183333333, "is_disabled": 0, "fusion_lat": 0.0, "lat": 38.906302333333336, "bike_id": "d512d38b9f19ce4599e139e71d50023f", "fusion_lon": 0.0}, {"rental_uris": {"ios": "https://dc.lft.to/lastmile_qr_scan", "android": "https://dc.lft.to/lastmile_qr_scan"}, "type": "electric_scooter", "name": "22b41385ce764ec5aaf2968abd4010e9", "is_reserved": 0, "lon": -77.01724883333333, "is_disabled": 0, "fusion_lat": 0.0, "lat": 38.8922665, "bike_id": "22b41385ce764ec5aaf2968abd4010e9", "fusion_lon": 0.0}, {"rental_uris": {"ios": "https://dc.lft.to/lastmile_qr_scan", "android": "https://dc.lft.to/lastmile_qr_scan"}, "type": "electric_scooter", "name": "04a1a94a75cf832d94a449c09b1f77b2", "is_reserved": 0, "lon": -77.07260883333333, "is_disabled": 0, "fusion_lat": 0.0, "lat": 38.934363166666664, "bike_id": "04a1a94a75cf832d94a449c09b1f77b2", "fusion_lon": 0.0}, {"rental_uris": {"ios": "https://dc.lft.to/lastmile_qr_scan", "android": "https://dc.lft.to/lastmile_qr_scan"}, "type": "electric_scooter", "name": "efa848ece0702ae804f32e909643ae56", "is_reserved": 0, "lon": -76.996387, "is_disabled": 0, "fusion_lat": 0.0, "lat": 38.88766016666667, "bike_id": "efa848ece0702ae804f32e909643ae56", "fusion_lon": 0.0}, {"rental_uris": {"ios": "https://dc.lft.to/lastmile_qr_scan", "android": "https://dc.lft.to/lastmile_qr_scan"}, "type": "electric_scooter", "name": "059fb359167a842c4c4593ab43a9d430", "is_reserved": 0, "lon": -77.04656033333333, "is_disabled": 0, "fusion_lat": 0.0, "lat": 38.89342833333333, "bike_id": "059fb359167a842c4c4593ab43a9d430", "fusion_lon": 0.0}, {"rental_uris": {"ios": "https://dc.lft.to/lastmile_qr_scan", "android": "https://dc.lft.to/lastmile_qr_scan"}, "type": "electric_scooter", "name": "c84ce4ee0d86a9c7bc5760192d2c794b", "is_reserved": 0, "lon": -77.04674316666667, "is_disabled": 0, "fusion_lat": 0.0, "lat": 38.9054395, "bike_id": "c84ce4ee0d86a9c7bc5760192d2c794b", "fusion_lon": 0.0}, {"rental_uris": {"ios": "https://dc.lft.to/lastmile_qr_scan", "android": "https://dc.lft.to/lastmile_qr_scan"}, "type": "electric_scooter", "name": "eb847fa79affda3ae19bbf947a87a52e", "is_reserved": 0, "lon": -77.02154683333333, "is_disabled": 0, "fusion_lat": 0.0, "lat": 38.887437166666665, "bike_id": "eb847fa79affda3ae19bbf947a87a52e", "fusion_lon": 0.0}, {"rental_uris": {"ios": "https://dc.lft.to/lastmile_qr_scan", "android": "https://dc.lft.to/lastmile_qr_scan"}, "type": "electric_bike", "name": "4de9538fc6a7e084c4a93c3c950e2e90", "is_reserved": 0, "lon": -76.980916, "is_disabled": 0, "fusion_lat": 0.0, "lat": 38.953537, "bike_id": "4de9538fc6a7e084c4a93c3c950e2e90", "fusion_lon": 0.0}, {"rental_uris": {"ios": "https://dc.lft.to/lastmile_qr_scan", "android": "https://dc.lft.to/lastmile_qr_scan"}, "type": "electric_scooter", "name": "957de75a8663d2033dd54e2f31d6fc82", "is_reserved": 0, "lon": -76.95288916666667, "is_disabled": 0, "fusion_lat": 0.0, "lat": 38.89026166666667, "bike_id": "957de75a8663d2033dd54e2f31d6fc82", "fusion_lon": 0.0}, {"rental_uris": {"ios": "https://dc.lft.to/lastmile_qr_scan", "android": "https://dc.lft.to/lastmile_qr_scan"}, "type": "electric_bike", "name": "84876b76c1666d1bfb8a5430f640fc3d", "is_reserved": 0, "lon": -76.99546566666666, "is_disabled": 0, "fusion_lat": 0.0, "lat": 38.83157283333333, "bike_id": "84876b76c1666d1bfb8a5430f640fc3d", "fusion_lon": 0.0}, {"rental_uris": {"ios": "https://dc.lft.to/lastmile_qr_scan", "android": "https://dc.lft.to/lastmile_qr_scan"}, "type": "electric_scooter", "name": "cd846a9f9589c72394f8f40b14595d55", "is_reserved": 0, "lon": -77.015099, "is_disabled": 0, "fusion_lat": 0.0, "lat": 38.88740683333333, "bike_id": "cd846a9f9589c72394f8f40b14595d55", "fusion_lon": 0.0}, {"rental_uris": {"ios": "https://dc.lft.to/lastmile_qr_scan", "android": "https://dc.lft.to/lastmile_qr_scan"}, "type": "electric_scooter", "name": "5ad48be30928f272a14bb81b8e7c6c04", "is_reserved": 0, "lon": -77.00902066666667, "is_disabled": 0, "fusion_lat": 0.0, "lat": 38.89891183333334, "bike_id": "5ad48be30928f272a14bb81b8e7c6c04", "fusion_lon": 0.0}, {"rental_uris": {"ios": "https://dc.lft.to/lastmile_qr_scan", "android": "https://dc.lft.to/lastmile_qr_scan"}, "type": "electric_scooter", "name": "d11fe5318cf2e99a89ffaa1dddd7a3ec", "is_reserved": 0, "lon": -77.00698866666667, "is_disabled": 0, "fusion_lat": 0.0, "lat": 38.904960833333334, "bike_id": "d11fe5318cf2e99a89ffaa1dddd7a3ec", "fusion_lon": 0.0}, {"rental_uris": {"ios": "https://dc.lft.to/lastmile_qr_scan", "android": "https://dc.lft.to/lastmile_qr_scan"}, "type": "electric_scooter", "name": "48c9ee17751cbf17b4a90dfc93290d77", "is_reserved": 0, "lon": -76.9794035, "is_disabled": 0, "fusion_lat": 0.0, "lat": 38.906619666666664, "bike_id": "48c9ee17751cbf17b4a90dfc93290d77", "fusion_lon": 0.0}, {"rental_uris": {"ios": "https://dc.lft.to/lastmile_qr_scan", "android": "https://dc.lft.to/lastmile_qr_scan"}, "type": "electric_scooter", "name": "164fb55f2f18d2815695d284d3ec5175", "is_reserved": 0, "lon": -77.03634966666667, "is_disabled": 0, "fusion_lat": 0.0, "lat": 38.937612, "bike_id": "164fb55f2f18d2815695d284d3ec5175", "fusion_lon": 0.0}, {"rental_uris": {"ios": "https://dc.lft.to/lastmile_qr_scan", "android": "https://dc.lft.to/lastmile_qr_scan"}, "type": "electric_scooter", "name": "ce7ed956a5facbaa129071d46ae59cfa", "is_reserved": 0, "lon": -76.99620666666667, "is_disabled": 0, "fusion_lat": 0.0, "lat": 38.93166983333333, "bike_id": "ce7ed956a5facbaa129071d46ae59cfa", "fusion_lon": 0.0}, {"rental_uris": {"ios": "https://dc.lft.to/lastmile_qr_scan", "android": "https://dc.lft.to/lastmile_qr_scan"}, "type": "electric_scooter", "name": "e145a4b96b3ae49141de1521ad2895ec", "is_reserved": 0, "lon": -77.03664233333333, "is_disabled": 0, "fusion_lat": 0.0, "lat": 38.93209233333333, "bike_id": "e145a4b96b3ae49141de1521ad2895ec", "fusion_lon": 0.0}, {"rental_uris": {"ios": "https://dc.lft.to/lastmile_qr_scan", "android": "https://dc.lft.to/lastmile_qr_scan"}, "type": "electric_scooter", "name": "7bacbe77cf32427082c699336f33096b", "is_reserved": 0, "lon": -77.04689916666666, "is_disabled": 0, "fusion_lat": 0.0, "lat": 38.89744266666666, "bike_id": "7bacbe77cf32427082c699336f33096b", "fusion_lon": 0.0}, {"rental_uris": {"ios": "https://dc.lft.to/lastmile_qr_scan", "android": "https://dc.lft.to/lastmile_qr_scan"}, "type": "electric_scooter", "name": "6ed8440a60ccc609fb2d9b48282e0bce", "is_reserved": 0, "lon": -77.03217383333333, "is_disabled": 0, "fusion_lat": 0.0, "lat": 38.90492316666667, "bike_id": "6ed8440a60ccc609fb2d9b48282e0bce", "fusion_lon": 0.0}, {"rental_uris": {"ios": "https://dc.lft.to/lastmile_qr_scan", "android": "https://dc.lft.to/lastmile_qr_scan"}, "type": "electric_scooter", "name": "020f2918b3ddbd357399f3ee337cb17a", "is_reserved": 0, "lon": -77.03188566666667, "is_disabled": 0, "fusion_lat": 0.0, "lat": 38.9134875, "bike_id": "020f2918b3ddbd357399f3ee337cb17a", "fusion_lon": 0.0}, {"rental_uris": {"ios": "https://dc.lft.to/lastmile_qr_scan", "android": "https://dc.lft.to/lastmile_qr_scan"}, "type": "electric_scooter", "name": "c5b77ecf47dca4527665dcaf15aa9454", "is_reserved": 0, "lon": -77.01764733333333, "is_disabled": 0, "fusion_lat": 0.0, "lat": 38.920996, "bike_id": "c5b77ecf47dca4527665dcaf15aa9454", "fusion_lon": 0.0}, {"rental_uris": {"ios": "https://dc.lft.to/lastmile_qr_scan", "android": "https://dc.lft.to/lastmile_qr_scan"}, "type": "electric_scooter", "name": "84a35d451cc25fa5df388aeeba80c2a9", "is_reserved": 0, "lon": -76.9947765, "is_disabled": 0, "fusion_lat": 0.0, "lat": 38.862124333333334, "bike_id": "84a35d451cc25fa5df388aeeba80c2a9", "fusion_lon": 0.0}, {"rental_uris": {"ios": "https://dc.lft.to/lastmile_qr_scan", "android": "https://dc.lft.to/lastmile_qr_scan"}, "type": "electric_scooter", "name": "748da76837e9c5cc4c0e90f2169b4c4d", "is_reserved": 0, "lon": -76.9903415, "is_disabled": 0, "fusion_lat": 0.0, "lat": 38.898496333333334, "bike_id": "748da76837e9c5cc4c0e90f2169b4c4d", "fusion_lon": 0.0}, {"rental_uris": {"ios": "https://dc.lft.to/lastmile_qr_scan", "android": "https://dc.lft.to/lastmile_qr_scan"}, "type": "electric_scooter", "name": "a8369365163416415005c6dcbdd607fd", "is_reserved": 0, "lon": -77.02837483333333, "is_disabled": 0, "fusion_lat": 0.0, "lat": 38.89222766666666, "bike_id": "a8369365163416415005c6dcbdd607fd", "fusion_lon": 0.0}, {"rental_uris": {"ios": "https://dc.lft.to/lastmile_qr_scan", "android": "https://dc.lft.to/lastmile_qr_scan"}, "type": "electric_bike", "name": "5b1cad43d9fab2024cec46439572969d", "is_reserved": 0, "lon": -77.03442283333334, "is_disabled": 0, "fusion_lat": 0.0, "lat": 38.92864683333333, "bike_id": "5b1cad43d9fab2024cec46439572969d", "fusion_lon": 0.0}, {"rental_uris": {"ios": "https://dc.lft.to/lastmile_qr_scan", "android": "https://dc.lft.to/lastmile_qr_scan"}, "type": "electric_scooter", "name": "25267625bf926c71894ee5ebaf2e4347", "is_reserved": 0, "lon": -77.0465925, "is_disabled": 0, "fusion_lat": 0.0, "lat": 38.90947583333333, "bike_id": "25267625bf926c71894ee5ebaf2e4347", "fusion_lon": 0.0}, {"rental_uris": {"ios": "https://dc.lft.to/lastmile_qr_scan", "android": "https://dc.lft.to/lastmile_qr_scan"}, "type": "electric_scooter", "name": "054e883b6b09c9f8941187bccbf53965", "is_reserved": 0, "lon": -77.02110366666666, "is_disabled": 0, "fusion_lat": 0.0, "lat": 38.9060435, "bike_id": "054e883b6b09c9f8941187bccbf53965", "fusion_lon": 0.0}, {"rental_uris": {"ios": "https://dc.lft.to/lastmile_qr_scan", "android": "https://dc.lft.to/lastmile_qr_scan"}, "type": "electric_scooter", "name": "dbcc77b8bd47931eb0ef0cedecf497ce", "is_reserved": 0, "lon": -77.02415133333334, "is_disabled": 0, "fusion_lat": 0.0, "lat": 38.91705433333333, "bike_id": "dbcc77b8bd47931eb0ef0cedecf497ce", "fusion_lon": 0.0}, {"rental_uris": {"ios": "https://dc.lft.to/lastmile_qr_scan", "android": "https://dc.lft.to/lastmile_qr_scan"}, "type": "electric_scooter", "name": "0a0bd04e06f6e88a9358169e94afa4ee", "is_reserved": 0, "lon": -77.0215265, "is_disabled": 0, "fusion_lat": 0.0, "lat": 38.88742116666667, "bike_id": "0a0bd04e06f6e88a9358169e94afa4ee", "fusion_lon": 0.0}, {"rental_uris": {"ios": "https://dc.lft.to/lastmile_qr_scan", "android": "https://dc.lft.to/lastmile_qr_scan"}, "type": "electric_scooter", "name": "8ac5737064f1ba35193bcfff462a8ece", "is_reserved": 0, "lon": -76.988404, "is_disabled": 0, "fusion_lat": 0.0, "lat": 38.84291833333333, "bike_id": "8ac5737064f1ba35193bcfff462a8ece", "fusion_lon": 0.0}, {"rental_uris": {"ios": "https://dc.lft.to/lastmile_qr_scan", "android": "https://dc.lft.to/lastmile_qr_scan"}, "type": "electric_scooter", "name": "7c7d0eaa33e007ae2959bd2b7f04aa3b", "is_reserved": 0, "lon": -76.9931845, "is_disabled": 0, "fusion_lat": 0.0, "lat": 38.920146, "bike_id": "7c7d0eaa33e007ae2959bd2b7f04aa3b", "fusion_lon": 0.0}, {"rental_uris": {"ios": "https://dc.lft.to/lastmile_qr_scan", "android": "https://dc.lft.to/lastmile_qr_scan"}, "type": "electric_scooter", "name": "aaeb6f30caa5547f78e1a45ec79b3d49", "is_reserved": 0, "lon": -77.03147166666666, "is_disabled": 0, "fusion_lat": 0.0, "lat": 38.909668, "bike_id": "aaeb6f30caa5547f78e1a45ec79b3d49", "fusion_lon": 0.0}, {"rental_uris": {"ios": "https://dc.lft.to/lastmile_qr_scan", "android": "https://dc.lft.to/lastmile_qr_scan"}, "type": "electric_scooter", "name": "55259fe18cbe1fd7181380038cc7265d", "is_reserved": 0, "lon": -77.043616, "is_disabled": 0, "fusion_lat": 0.0, "lat": 38.90723333333333, "bike_id": "55259fe18cbe1fd7181380038cc7265d", "fusion_lon": 0.0}, {"rental_uris": {"ios": "https://dc.lft.to/lastmile_qr_scan", "android": "https://dc.lft.to/lastmile_qr_scan"}, "type": "electric_scooter", "name": "9dccac0aa03685126049daf6beec0ab6", "is_reserved": 0, "lon": -77.04530066666666, "is_disabled": 0, "fusion_lat": 0.0, "lat": 38.907779166666664, "bike_id": "9dccac0aa03685126049daf6beec0ab6", "fusion_lon": 0.0}, {"rental_uris": {"ios": "https://dc.lft.to/lastmile_qr_scan", "android": "https://dc.lft.to/lastmile_qr_scan"}, "type": "electric_bike", "name": "6ab02d508e29f6f3635782f71fe2a569", "is_reserved": 0, "lon": -76.96148516666666, "is_disabled": 0, "fusion_lat": 0.0, "lat": 38.856193833333336, "bike_id": "6ab02d508e29f6f3635782f71fe2a569", "fusion_lon": 0.0}, {"rental_uris": {"ios": "https://dc.lft.to/lastmile_qr_scan", "android": "https://dc.lft.to/lastmile_qr_scan"}, "type": "electric_scooter", "name": "1655cfefc31fd8b587bc95f40f2b7de1", "is_reserved": 0, "lon": -77.0331635, "is_disabled": 0, "fusion_lat": 0.0, "lat": 38.89839166666667, "bike_id": "1655cfefc31fd8b587bc95f40f2b7de1", "fusion_lon": 0.0}, {"rental_uris": {"ios": "https://dc.lft.to/lastmile_qr_scan", "android": "https://dc.lft.to/lastmile_qr_scan"}, "type": "electric_scooter", "name": "aa728d4ea99d57c283bab7020f05666e", "is_reserved": 0, "lon": -77.0073485, "is_disabled": 0, "fusion_lat": 0.0, "lat": 38.8765745, "bike_id": "aa728d4ea99d57c283bab7020f05666e", "fusion_lon": 0.0}, {"rental_uris": {"ios": "https://dc.lft.to/lastmile_qr_scan", "android": "https://dc.lft.to/lastmile_qr_scan"}, "type": "electric_scooter", "name": "c199f09278b33463e0b57ca21e8825fe", "is_reserved": 0, "lon": -77.02816283333334, "is_disabled": 0, "fusion_lat": 0.0, "lat": 38.90910133333333, "bike_id": "c199f09278b33463e0b57ca21e8825fe", "fusion_lon": 0.0}, {"rental_uris": {"ios": "https://dc.lft.to/lastmile_qr_scan", "android": "https://dc.lft.to/lastmile_qr_scan"}, "type": "electric_scooter", "name": "73998ba5be705be5ec723911b6597c94", "is_reserved": 0, "lon": -77.01865933333333, "is_disabled": 0, "fusion_lat": 0.0, "lat": 38.9737035, "bike_id": "73998ba5be705be5ec723911b6597c94", "fusion_lon": 0.0}, {"rental_uris": {"ios": "https://dc.lft.to/lastmile_qr_scan", "android": "https://dc.lft.to/lastmile_qr_scan"}, "type": "electric_scooter", "name": "f0722e1f88cbed5acea5b151a69ff991", "is_reserved": 0, "lon": -76.997539, "is_disabled": 0, "fusion_lat": 0.0, "lat": 38.88508016666667, "bike_id": "f0722e1f88cbed5acea5b151a69ff991", "fusion_lon": 0.0}, {"rental_uris": {"ios": "https://dc.lft.to/lastmile_qr_scan", "android": "https://dc.lft.to/lastmile_qr_scan"}, "type": "electric_scooter", "name": "e7f3be4c853c1f05dedbe8d8dabc0b4d", "is_reserved": 0, "lon": -77.03892116666667, "is_disabled": 0, "fusion_lat": 0.0, "lat": 38.923176166666664, "bike_id": "e7f3be4c853c1f05dedbe8d8dabc0b4d", "fusion_lon": 0.0}, {"rental_uris": {"ios": "https://dc.lft.to/lastmile_qr_scan", "android": "https://dc.lft.to/lastmile_qr_scan"}, "type": "electric_scooter", "name": "f9097df6f238c969a4ad343d184ca7dd", "is_reserved": 0, "lon": -77.042364, "is_disabled": 0, "fusion_lat": 0.0, "lat": 38.9038845, "bike_id": "f9097df6f238c969a4ad343d184ca7dd", "fusion_lon": 0.0}, {"rental_uris": {"ios": "https://dc.lft.to/lastmile_qr_scan", "android": "https://dc.lft.to/lastmile_qr_scan"}, "type": "electric_scooter", "name": "5ca8baf1141ca3fbb8cdc90aafd42ba8", "is_reserved": 0, "lon": -77.01997016666667, "is_disabled": 0, "fusion_lat": 0.0, "lat": 38.96628, "bike_id": "5ca8baf1141ca3fbb8cdc90aafd42ba8", "fusion_lon": 0.0}, {"rental_uris": {"ios": "https://dc.lft.to/lastmile_qr_scan", "android": "https://dc.lft.to/lastmile_qr_scan"}, "type": "electric_scooter", "name": "6b6474454deb0dfcf9407b18afdb56aa", "is_reserved": 0, "lon": -77.061414, "is_disabled": 0, "fusion_lat": 0.0, "lat": 38.902707166666666, "bike_id": "6b6474454deb0dfcf9407b18afdb56aa", "fusion_lon": 0.0}, {"rental_uris": {"ios": "https://dc.lft.to/lastmile_qr_scan", "android": "https://dc.lft.to/lastmile_qr_scan"}, "type": "electric_scooter", "name": "99d74cdb88e363ccb79dc1eb2fac7852", "is_reserved": 0, "lon": -77.04062333333333, "is_disabled": 0, "fusion_lat": 0.0, "lat": 38.91769133333333, "bike_id": "99d74cdb88e363ccb79dc1eb2fac7852", "fusion_lon": 0.0}, {"rental_uris": {"ios": "https://dc.lft.to/lastmile_qr_scan", "android": "https://dc.lft.to/lastmile_qr_scan"}, "type": "electric_scooter", "name": "9f30b5b06d71f7338bb80408575f51cb", "is_reserved": 0, "lon": -77.02003516666667, "is_disabled": 0, "fusion_lat": 0.0, "lat": 38.876057, "bike_id": "9f30b5b06d71f7338bb80408575f51cb", "fusion_lon": 0.0}, {"rental_uris": {"ios": "https://dc.lft.to/lastmile_qr_scan", "android": "https://dc.lft.to/lastmile_qr_scan"},