{"data": {"bikes": [{"is_disabled": 0, "rental_uris": {"android": "https://dc.lft.to/lastmile_qr_scan", "ios": "https://dc.lft.to/lastmile_qr_scan"}, "is_reserved": 0, "name": "402efbda0de48d6d578d6fb019b09d25", "lon": -76.98952733333333, "type": "electric_scooter", "bike_id": "402efbda0de48d6d578d6fb019b09d25", "fusion_lon": 0.0, "lat": 38.844095333333335, "fusion_lat": 0.0}, {"is_disabled": 0, "rental_uris": {"android": "https://dc.lft.to/lastmile_qr_scan", "ios": "https://dc.lft.to/lastmile_qr_scan"}, "is_reserved": 0, "name": "0fd4c862ff3cd0045f917b0a47b0a779", "lon": -77.017679, "type": "electric_scooter", "bike_id": "0fd4c862ff3cd0045f917b0a47b0a779", "fusion_lon": 0.0, "lat": 38.877177333333336, "fusion_lat": 0.0}, {"is_disabled": 0, "rental_uris": {"android": "https://dc.lft.to/lastmile_qr_scan", "ios": "https://dc.lft.to/lastmile_qr_scan"}, "is_reserved": 0, "name": "b76d38432958eb8b439d44ad28beab46", "lon": -77.114354, "type": "electric_bike", "bike_id": "b76d38432958eb8b439d44ad28beab46", "fusion_lon": 0.0, "lat": 38.879454833333334, "fusion_lat": 0.0}, {"is_disabled": 0, "rental_uris": {"android": "https://dc.lft.to/lastmile_qr_scan", "ios": "https://dc.lft.to/lastmile_qr_scan"}, "is_reserved": 0, "name": "3479b43b7fe4bb25fb3533e3ff171ce7", "lon": -77.03261583333334, "type": "electric_scooter", "bike_id": "3479b43b7fe4bb25fb3533e3ff171ce7", "fusion_lon": 0.0, "lat": 38.935224, "fusion_lat": 0.0}, {"is_disabled": 0, "rental_uris": {"android": "https://dc.lft.to/lastmile_qr_scan", "ios": "https://dc.lft.to/lastmile_qr_scan"}, "is_reserved": 0, "name": "5fb1b3b62b3e345bcc36a03d8c7321d4", "lon": -77.04177483333333, "type": "electric_scooter", "bike_id": "5fb1b3b62b3e345bcc36a03d8c7321d4", "fusion_lon": 0.0, "lat": 38.912003166666665, "fusion_lat": 0.0}, {"is_disabled": 0, "rental_uris": {"android": "https://dc.lft.to/lastmile_qr_scan", "ios": "https://dc.lft.to/lastmile_qr_scan"}, "is_reserved": 0, "name": "bc0f83753d5c442b3300832542764cf6", "lon": -77.021868, "type": "electric_scooter", "bike_id": "bc0f83753d5c442b3300832542764cf6", "fusion_lon": 0.0, "lat": 38.9210385, "fusion_lat": 0.0}, {"is_disabled": 0, "rental_uris": {"android": "https://dc.lft.to/lastmile_qr_scan", "ios": "https://dc.lft.to/lastmile_qr_scan"}, "is_reserved": 0, "name": "5a1252dad14716c038e8ec2d312b0daa", "lon": -77.04172633333333, "type": "electric_scooter", "bike_id": "5a1252dad14716c038e8ec2d312b0daa", "fusion_lon": 0.0, "lat": 38.9155055, "fusion_lat": 0.0}, {"is_disabled": 0, "rental_uris": {"android": "https://dc.lft.to/lastmile_qr_scan", "ios": "https://dc.lft.to/lastmile_qr_scan"}, "is_reserved": 0, "name": "78cbd351612887aa08feb00807a2c84d", "lon": -77.091001, "type": "electric_scooter", "bike_id": "78cbd351612887aa08feb00807a2c84d", "fusion_lon": 0.0, "lat": 38.95636616666667, "fusion_lat": 0.0}, {"is_disabled": 0, "rental_uris": {"android": "https://dc.lft.to/lastmile_qr_scan", "ios": "https://dc.lft.to/lastmile_qr_scan"}, "is_reserved": 0, "name": "948b497a91a65d5fe330be45e224c66c", "lon": -77.03211066666667, "type": "electric_scooter", "bike_id": "948b497a91a65d5fe330be45e224c66c", "fusion_lon": 0.0, "lat": 38.925794, "fusion_lat": 0.0}, {"is_disabled": 0, "rental_uris": {"android": "https://dc.lft.to/lastmile_qr_scan", "ios": "https://dc.lft.to/lastmile_qr_scan"}, "is_reserved": 0, "name": "6551746810f7ff8a4a5547ab9c6bd92b", "lon": -76.97222683333334, "type": "electric_scooter", "bike_id": "6551746810f7ff8a4a5547ab9c6bd92b", "fusion_lon": 0.0, "lat": 38.8544725, "fusion_lat": 0.0}, {"is_disabled": 0, "rental_uris": {"android": "https://dc.lft.to/lastmile_qr_scan", "ios": "https://dc.lft.to/lastmile_qr_scan"}, "is_reserved": 0, "name": "69847c322e5b5056a93400f93d15f57f", "lon": -77.00928716666667, "type": "electric_scooter", "bike_id": "69847c322e5b5056a93400f93d15f57f", "fusion_lon": 0.0, "lat": 38.871159666666664, "fusion_lat": 0.0}, {"is_disabled": 0, "rental_uris": {"android": "https://dc.lft.to/lastmile_qr_scan", "ios": "https://dc.lft.to/lastmile_qr_scan"}, "is_reserved": 0, "name": "b93a81b6e32ac2c1fc2435dbc79274d5", "lon": -77.0113765, "type": "electric_scooter", "bike_id": "b93a81b6e32ac2c1fc2435dbc79274d5", "fusion_lon": 0.0, "lat": 38.9096245, "fusion_lat": 0.0}, {"is_disabled": 0, "rental_uris": {"android": "https://dc.lft.to/lastmile_qr_scan", "ios": "https://dc.lft.to/lastmile_qr_scan"}, "is_reserved": 0, "name": "0614c83b6b454201b42457eb862993a5", "lon": -77.0090355, "type": "electric_scooter", "bike_id": "0614c83b6b454201b42457eb862993a5", "fusion_lon": 0.0, "lat": 38.898097666666665, "fusion_lat": 0.0}, {"is_disabled": 0, "rental_uris": {"android": "https://dc.lft.to/lastmile_qr_scan", "ios": "https://dc.lft.to/lastmile_qr_scan"}, "is_reserved": 0, "name": "eb858197116cc6d505a5290a4d312ba7", "lon": -76.98076416666666, "type": "electric_scooter", "bike_id": "eb858197116cc6d505a5290a4d312ba7", "fusion_lon": 0.0, "lat": 38.90168283333333, "fusion_lat": 0.0}, {"is_disabled": 0, "rental_uris": {"android": "https://dc.lft.to/lastmile_qr_scan", "ios": "https://dc.lft.to/lastmile_qr_scan"}, "is_reserved": 0, "name": "46d63d517d9a44632142452d1eb69f86", "lon": -77.04376016666667, "type": "electric_scooter", "bike_id": "46d63d517d9a44632142452d1eb69f86", "fusion_lon": 0.0, "lat": 38.92573383333333, "fusion_lat": 0.0}, {"is_disabled": 0, "rental_uris": {"android": "https://dc.lft.to/lastmile_qr_scan", "ios": "https://dc.lft.to/lastmile_qr_scan"}, "is_reserved": 0, "name": "15fbd2e7d23ba103253aa36b2361e67b", "lon": -77.023759, "type": "electric_scooter", "bike_id": "15fbd2e7d23ba103253aa36b2361e67b", "fusion_lon": 0.0, "lat": 38.9020305, "fusion_lat": 0.0}, {"is_disabled": 0, "rental_uris": {"android": "https://dc.lft.to/lastmile_qr_scan", "ios": "https://dc.lft.to/lastmile_qr_scan"}, "is_reserved": 0, "name": "16ba3d67cd19773e1f31453f31a4dffb", "lon": -77.047544, "type": "electric_scooter", "bike_id": "16ba3d67cd19773e1f31453f31a4dffb", "fusion_lon": 0.0, "lat": 38.90714833333333, "fusion_lat": 0.0}, {"is_disabled": 0, "rental_uris": {"android": "https://dc.lft.to/lastmile_qr_scan", "ios": "https://dc.lft.to/lastmile_qr_scan"}, "is_reserved": 0, "name": "41573aac6eafbdd0d6df268fb1c69380", "lon": -77.06643766666667, "type": "electric_scooter", "bike_id": "41573aac6eafbdd0d6df268fb1c69380", "fusion_lon": 0.0, "lat": 38.926868666666664, "fusion_lat": 0.0}, {"is_disabled": 0, "rental_uris": {"android": "https://dc.lft.to/lastmile_qr_scan", "ios": "https://dc.lft.to/lastmile_qr_scan"}, "is_reserved": 0, "name": "de4fd42606ca4b65593f2e95e8b58ab1", "lon": -77.007728, "type": "electric_scooter", "bike_id": "de4fd42606ca4b65593f2e95e8b58ab1", "fusion_lon": 0.0, "lat": 38.90768683333334, "fusion_lat": 0.0}, {"is_disabled": 0, "rental_uris": {"android": "https://dc.lft.to/lastmile_qr_scan", "ios": "https://dc.lft.to/lastmile_qr_scan"}, "is_reserved": 0, "name": "b51134794e51585027f3689ac9bc8c22", "lon": -77.01980416666666, "type": "electric_scooter", "bike_id": "b51134794e51585027f3689ac9bc8c22", "fusion_lon": 0.0, "lat": 38.877820666666665, "fusion_lat": 0.0}, {"is_disabled": 0, "rental_uris": {"android": "https://dc.lft.to/lastmile_qr_scan", "ios": "https://dc.lft.to/lastmile_qr_scan"}, "is_reserved": 0, "name": "f7a41f94916962c93b2368cdb6d0cb58", "lon": -77.023879, "type": "electric_scooter", "bike_id": "f7a41f94916962c93b2368cdb6d0cb58", "fusion_lon": 0.0, "lat": 38.91671566666667, "fusion_lat": 0.0}, {"is_disabled": 0, "rental_uris": {"android": "https://dc.lft.to/lastmile_qr_scan", "ios": "https://dc.lft.to/lastmile_qr_scan"}, "is_reserved": 0, "name": "4be6f20013c1c631d4a38cd2bafaf728", "lon": -77.03844816666667, "type": "electric_scooter", "bike_id": "4be6f20013c1c631d4a38cd2bafaf728", "fusion_lon": 0.0, "lat": 38.926488166666665, "fusion_lat": 0.0}, {"is_disabled": 0, "rental_uris": {"android": "https://dc.lft.to/lastmile_qr_scan", "ios": "https://dc.lft.to/lastmile_qr_scan"}, "is_reserved": 0, "name": "567a377570a16de359b90549916dccfd", "lon": -77.032024, "type": "electric_scooter", "bike_id": "567a377570a16de359b90549916dccfd", "fusion_lon": 0.0, "lat": 38.917994666666665, "fusion_lat": 0.0}, {"is_disabled": 0, "rental_uris": {"android": "https://dc.lft.to/lastmile_qr_scan", "ios": "https://dc.lft.to/lastmile_qr_scan"}, "is_reserved": 0, "name": "f79a39eb2cacc470f64759711e3b17d1", "lon": -77.02396166666666, "type": "electric_scooter", "bike_id": "f79a39eb2cacc470f64759711e3b17d1", "fusion_lon": 0.0, "lat": 38.93100316666667, "fusion_lat": 0.0}, {"is_disabled": 0, "rental_uris": {"android": "https://dc.lft.to/lastmile_qr_scan", "ios": "https://dc.lft.to/lastmile_qr_scan"}, "is_reserved": 0, "name": "3b8aafe87704e5ef26a6f50c49dd0adf", "lon": -77.01018, "type": "electric_scooter", "bike_id": "3b8aafe87704e5ef26a6f50c49dd0adf", "fusion_lon": 0.0, "lat": 38.906187833333334, "fusion_lat": 0.0}, {"is_disabled": 0, "rental_uris": {"android": "https://dc.lft.to/lastmile_qr_scan", "ios": "https://dc.lft.to/lastmile_qr_scan"}, "is_reserved": 0, "name": "0789b407ffd6b1b8a4ed552a85ed19d6", "lon": -77.023459, "type": "electric_scooter", "bike_id": "0789b407ffd6b1b8a4ed552a85ed19d6", "fusion_lon": 0.0, "lat": 38.922633833333336, "fusion_lat": 0.0}, {"is_disabled": 0, "rental_uris": {"android": "https://dc.lft.to/lastmile_qr_scan", "ios": "https://dc.lft.to/lastmile_qr_scan"}, "is_reserved": 0, "name": "5a8594d808dbb4a79415a7c5eb8f78f5", "lon": -77.028151, "type": "electric_scooter", "bike_id": "5a8594d808dbb4a79415a7c5eb8f78f5", "fusion_lon": 0.0, "lat": 38.9317125, "fusion_lat": 0.0}, {"is_disabled": 0, "rental_uris": {"android": "https://dc.lft.to/lastmile_qr_scan", "ios": "https://dc.lft.to/lastmile_qr_scan"}, "is_reserved": 0, "name": "9fbb9f0edd3b3b026937c9636937220f", "lon": -77.04342033333333, "type": "electric_scooter", "bike_id": "9fbb9f0edd3b3b026937c9636937220f", "fusion_lon": 0.0, "lat": 38.89826683333333, "fusion_lat": 0.0}, {"is_disabled": 0, "rental_uris": {"android": "https://dc.lft.to/lastmile_qr_scan", "ios": "https://dc.lft.to/lastmile_qr_scan"}, "is_reserved": 0, "name": "91c2f387a2c8ea42ecf822e4e1638972", "lon": -77.001222, "type": "electric_scooter", "bike_id": "91c2f387a2c8ea42ecf822e4e1638972", "fusion_lon": 0.0, "lat": 38.9124885, "fusion_lat": 0.0}, {"is_disabled": 0, "rental_uris": {"android": "https://dc.lft.to/lastmile_qr_scan", "ios": "https://dc.lft.to/lastmile_qr_scan"}, "is_reserved": 0, "name": "a0c9a3292a89055f465c7eb03ed0d7ed", "lon": -76.98718166666667, "type": "electric_scooter", "bike_id": "a0c9a3292a89055f465c7eb03ed0d7ed", "fusion_lon": 0.0, "lat": 38.867099, "fusion_lat": 0.0}, {"is_disabled": 0, "rental_uris": {"android": "https://dc.lft.to/lastmile_qr_scan", "ios": "https://dc.lft.to/lastmile_qr_scan"}, "is_reserved": 0, "name": "90fc886fcc3ba55766f02d38d59d3d3b", "lon": -76.95205033333333, "type": "electric_bike", "bike_id": "90fc886fcc3ba55766f02d38d59d3d3b", "fusion_lon": 0.0, "lat": 38.93667583333333, "fusion_lat": 0.0}, {"is_disabled": 0, "rental_uris": {"android": "https://dc.lft.to/lastmile_qr_scan", "ios": "https://dc.lft.to/lastmile_qr_scan"}, "is_reserved": 0, "name": "6e78eaeee6fda4a7a70503667b2090c1", "lon": -77.02687183333333, "type": "electric_scooter", "bike_id": "6e78eaeee6fda4a7a70503667b2090c1", "fusion_lon": 0.0, "lat": 38.90872816666667, "fusion_lat": 0.0}, {"is_disabled": 0, "rental_uris": {"android": "https://dc.lft.to/lastmile_qr_scan", "ios": "https://dc.lft.to/lastmile_qr_scan"}, "is_reserved": 0, "name": "8520da422ec93b3a22d140294444a61d", "lon": -77.02223216666667, "type": "electric_scooter", "bike_id": "8520da422ec93b3a22d140294444a61d", "fusion_lon": 0.0, "lat": 38.9157235, "fusion_lat": 0.0}, {"is_disabled": 0, "rental_uris": {"android": "https://dc.lft.to/lastmile_qr_scan", "ios": "https://dc.lft.to/lastmile_qr_scan"}, "is_reserved": 0, "name": "f67d7ba4315d5a4fdbef11a61d2f0a3b", "lon": -77.02861066666667, "type": "electric_bike", "bike_id": "f67d7ba4315d5a4fdbef11a61d2f0a3b", "fusion_lon": 0.0, "lat": 38.998479, "fusion_lat": 0.0}, {"is_disabled": 0, "rental_uris": {"android": "https://dc.lft.to/lastmile_qr_scan", "ios": "https://dc.lft.to/lastmile_qr_scan"}, "is_reserved": 0, "name": "cb90e944ce7833dfdd03a36de86003c3", "lon": -77.01764383333334, "type": "electric_scooter", "bike_id": "cb90e944ce7833dfdd03a36de86003c3", "fusion_lon": 0.0, "lat": 38.9211485, "fusion_lat": 0.0}, {"is_disabled": 0, "rental_uris": {"android": "https://dc.lft.to/lastmile_qr_scan", "ios": "https://dc.lft.to/lastmile_qr_scan"}, "is_reserved": 0, "name": "af5fc75040b24fb8cdc358616399f7f3", "lon": -77.04721766666667, "type": "electric_scooter", "bike_id": "af5fc75040b24fb8cdc358616399f7f3", "fusion_lon": 0.0, "lat": 38.89844016666667, "fusion_lat": 0.0}, {"is_disabled": 0, "rental_uris": {"android": "https://dc.lft.to/lastmile_qr_scan", "ios": "https://dc.lft.to/lastmile_qr_scan"}, "is_reserved": 0, "name": "0ac796b9b377592719f544c4a6ee7ac8", "lon": -77.041778, "type": "electric_scooter", "bike_id": "0ac796b9b377592719f544c4a6ee7ac8", "fusion_lon": 0.0, "lat": 38.91306383333333, "fusion_lat": 0.0}, {"is_disabled": 0, "rental_uris": {"android": "https://dc.lft.to/lastmile_qr_scan", "ios": "https://dc.lft.to/lastmile_qr_scan"}, "is_reserved": 0, "name": "2e4e382c3fdb729ef1b4e5eb4c29da4b", "lon": -76.9744475, "type": "electric_scooter", "bike_id": "2e4e382c3fdb729ef1b4e5eb4c29da4b", "fusion_lon": 0.0, "lat": 38.865051333333334, "fusion_lat": 0.0}, {"is_disabled": 0, "rental_uris": {"android": "https://dc.lft.to/lastmile_qr_scan", "ios": "https://dc.lft.to/lastmile_qr_scan"}, "is_reserved": 0, "name": "067c4842f0b81949ef42017bd975a809", "lon": -77.06766966666666, "type": "electric_scooter", "bike_id": "067c4842f0b81949ef42017bd975a809", "fusion_lon": 0.0, "lat": 38.9497795, "fusion_lat": 0.0}, {"is_disabled": 0, "rental_uris": {"android": "https://dc.lft.to/lastmile_qr_scan", "ios": "https://dc.lft.to/lastmile_qr_scan"}, "is_reserved": 0, "name": "86f29a241a26ee99a8079ee155f1608f", "lon": -77.0820585, "type": "electric_bike", "bike_id": "86f29a241a26ee99a8079ee155f1608f", "fusion_lon": 0.0, "lat": 38.922057833333334, "fusion_lat": 0.0}, {"is_disabled": 0, "rental_uris": {"android": "https://dc.lft.to/lastmile_qr_scan", "ios": "https://dc.lft.to/lastmile_qr_scan"}, "is_reserved": 0, "name": "baa3a848ef236140381263b62697d02e", "lon": -76.972184, "type": "electric_bike", "bike_id": "baa3a848ef236140381263b62697d02e", "fusion_lon": 0.0, "lat": 38.84481133333333, "fusion_lat": 0.0}, {"is_disabled": 0, "rental_uris": {"android": "https://dc.lft.to/lastmile_qr_scan", "ios": "https://dc.lft.to/lastmile_qr_scan"}, "is_reserved": 0, "name": "88d9af22d4fe0d7b092c00d718f86de5", "lon": -77.04791883333333, "type": "electric_bike", "bike_id": "88d9af22d4fe0d7b092c00d718f86de5", "fusion_lon": 0.0, "lat": 38.91938716666667, "fusion_lat": 0.0}, {"is_disabled": 0, "rental_uris": {"android": "https://dc.lft.to/lastmile_qr_scan", "ios": "https://dc.lft.to/lastmile_qr_scan"}, "is_reserved": 0, "name": "dafd57f1ecdcdee26fbfe52443fa7a65", "lon": -76.94887533333333, "type": "electric_scooter", "bike_id": "dafd57f1ecdcdee26fbfe52443fa7a65", "fusion_lon": 0.0, "lat": 38.89510933333333, "fusion_lat": 0.0}, {"is_disabled": 0, "rental_uris": {"android": "https://dc.lft.to/lastmile_qr_scan", "ios": "https://dc.lft.to/lastmile_qr_scan"}, "is_reserved": 0, "name": "637a5e7b2cb41808be536364cca99c6f", "lon": -77.00122383333333, "type": "electric_bike", "bike_id": "637a5e7b2cb41808be536364cca99c6f", "fusion_lon": 0.0, "lat": 38.999336166666666, "fusion_lat": 0.0}, {"is_disabled": 0, "rental_uris": {"android": "https://dc.lft.to/lastmile_qr_scan", "ios": "https://dc.lft.to/lastmile_qr_scan"}, "is_reserved": 0, "name": "b413a51bdaabed34c38041404b8fe344", "lon": -76.94702816666667, "type": "electric_scooter", "bike_id": "b413a51bdaabed34c38041404b8fe344", "fusion_lon": 0.0, "lat": 38.897341833333336, "fusion_lat": 0.0}, {"is_disabled": 0, "rental_uris": {"android": "https://dc.lft.to/lastmile_qr_scan", "ios": "https://dc.lft.to/lastmile_qr_scan"}, "is_reserved": 0, "name": "dd5f97f3cc5f51c8ac3d4168f76a2c69", "lon": -77.01841, "type": "electric_scooter", "bike_id": "dd5f97f3cc5f51c8ac3d4168f76a2c69", "fusion_lon": 0.0, "lat": 38.904145, "fusion_lat": 0.0}, {"is_disabled": 0, "rental_uris": {"android": "https://dc.lft.to/lastmile_qr_scan", "ios": "https://dc.lft.to/lastmile_qr_scan"}, "is_reserved": 0, "name": "b258f8ef9bdfd5abf5e82bd2ec2e3944", "lon": -76.99228033333333, "type": "electric_scooter", "bike_id": "b258f8ef9bdfd5abf5e82bd2ec2e3944", "fusion_lon": 0.0, "lat": 38.8988435, "fusion_lat": 0.0}, {"is_disabled": 0, "rental_uris": {"android": "https://dc.lft.to/lastmile_qr_scan", "ios": "https://dc.lft.to/lastmile_qr_scan"}, "is_reserved": 0, "name": "8f73ec57b1ddae9e88056f9b108d68e0", "lon": -77.0253565, "type": "electric_scooter", "bike_id": "8f73ec57b1ddae9e88056f9b108d68e0", "fusion_lon": 0.0, "lat": 38.899344, "fusion_lat": 0.0}, {"is_disabled": 0, "rental_uris": {"android": "https://dc.lft.to/lastmile_qr_scan", "ios": "https://dc.lft.to/lastmile_qr_scan"}, "is_reserved": 0, "name": "d693568b5f17664ca563a77c2048de74", "lon": -77.030598, "type": "electric_scooter", "bike_id": "d693568b5f17664ca563a77c2048de74", "fusion_lon": 0.0, "lat": 38.956314666666664, "fusion_lat": 0.0}, {"is_disabled": 0, "rental_uris": {"android": "https://dc.lft.to/lastmile_qr_scan", "ios": "https://dc.lft.to/lastmile_qr_scan"}, "is_reserved": 0, "name": "59d672061083e9361059731189015fca", "lon": -76.99678816666666, "type": "electric_scooter", "bike_id": "59d672061083e9361059731189015fca", "fusion_lon": 0.0, "lat": 38.86038816666667, "fusion_lat": 0.0}, {"is_disabled": 0, "rental_uris": {"android": "https://dc.lft.to/lastmile_qr_scan", "ios": "https://dc.lft.to/lastmile_qr_scan"}, "is_reserved": 0, "name": "e1fd1bf9b43d9235609d93d126634ec0", "lon": -77.04127233333334, "type": "electric_scooter", "bike_id": "e1fd1bf9b43d9235609d93d126634ec0", "fusion_lon": 0.0, "lat": 38.917087333333335, "fusion_lat": 0.0}, {"is_disabled": 0, "rental_uris": {"android": "https://dc.lft.to/lastmile_qr_scan", "ios": "https://dc.lft.to/lastmile_qr_scan"}, "is_reserved": 0, "name": "70d1de3c510e7bb76702e4bd734a30f7", "lon": -77.147797, "type": "electric_bike", "bike_id": "70d1de3c510e7bb76702e4bd734a30f7", "fusion_lon": 0.0, "lat": 39.0959205, "fusion_lat": 0.0}, {"is_disabled": 0, "rental_uris": {"android": "https://dc.lft.to/lastmile_qr_scan", "ios": "https://dc.lft.to/lastmile_qr_scan"}, "is_reserved": 0, "name": "0212196cb0b002dd366e098e3b9cb2f9", "lon": -77.0958085, "type": "electric_bike", "bike_id": "0212196cb0b002dd366e098e3b9cb2f9", "fusion_lon": 0.0, "lat": 38.837915333333335, "fusion_lat": 0.0}, {"is_disabled": 0, "rental_uris": {"android": "https://dc.lft.to/lastmile_qr_scan", "ios": "https://dc.lft.to/lastmile_qr_scan"}, "is_reserved": 0, "name": "5f82924bde01836dfa435789d9b6c677", "lon": -77.00253116666667, "type": "electric_scooter", "bike_id": "5f82924bde01836dfa435789d9b6c677", "fusion_lon": 0.0, "lat": 38.91191966666667, "fusion_lat": 0.0}, {"is_disabled": 0, "rental_uris": {"android": "https://dc.lft.to/lastmile_qr_scan", "ios": "https://dc.lft.to/lastmile_qr_scan"}, "is_reserved": 0, "name": "5bbaffaf9ced16ea7b9378c210e3670c", "lon": -77.036133, "type": "electric_scooter", "bike_id": "5bbaffaf9ced16ea7b9378c210e3670c", "fusion_lon": 0.0, "lat": 38.931503666666664, "fusion_lat": 0.0}, {"is_disabled": 0, "rental_uris": {"android": "https://dc.lft.to/lastmile_qr_scan", "ios": "https://dc.lft.to/lastmile_qr_scan"}, "is_reserved": 0, "name": "7842d6c8d94fa49a31b27b1c8bf64aaf", "lon": -76.99827583333334, "type": "electric_scooter", "bike_id": "7842d6c8d94fa49a31b27b1c8bf64aaf", "fusion_lon": 0.0, "lat": 38.908709333333334, "fusion_lat": 0.0}, {"is_disabled": 0, "rental_uris": {"android": "https://dc.lft.to/lastmile_qr_scan", "ios": "https://dc.lft.to/lastmile_qr_scan"}, "is_reserved": 0, "name": "88377884319971dc10cedf6c717a1cd3", "lon": -77.07275483333333, "type": "electric_scooter", "bike_id": "88377884319971dc10cedf6c717a1cd3", "fusion_lon": 0.0, "lat": 38.934740833333336, "fusion_lat": 0.0}, {"is_disabled": 0, "rental_uris": {"android": "https://dc.lft.to/lastmile_qr_scan", "ios": "https://dc.lft.to/lastmile_qr_scan"}, "is_reserved": 0, "name": "1212ab8d82042970663239097ff5409a", "lon": -77.032557, "type": "electric_scooter", "bike_id": "1212ab8d82042970663239097ff5409a", "fusion_lon": 0.0, "lat": 38.9097015, "fusion_lat": 0.0}, {"is_disabled": 0, "rental_uris": {"android": "https://dc.lft.to/lastmile_qr_scan", "ios": "https://dc.lft.to/lastmile_qr_scan"}, "is_reserved": 0, "name": "f75491b78536e271e92bb07bb54f4830", "lon": -77.02544816666666, "type": "electric_scooter", "bike_id": "f75491b78536e271e92bb07bb54f4830", "fusion_lon": 0.0, "lat": 38.948372, "fusion_lat": 0.0}, {"is_disabled": 0, "rental_uris": {"android": "https://dc.lft.to/lastmile_qr_scan", "ios": "https://dc.lft.to/lastmile_qr_scan"}, "is_reserved": 0, "name": "b672cd638afd385792f755f48d480dc5", "lon": -77.03407566666667, "type": "electric_scooter", "bike_id": "b672cd638afd385792f755f48d480dc5", "fusion_lon": 0.0, "lat": 38.9215595, "fusion_lat": 0.0}, {"is_disabled": 0, "rental_uris": {"android": "https://dc.lft.to/lastmile_qr_scan", "ios": "https://dc.lft.to/lastmile_qr_scan"}, "is_reserved": 0, "name": "a6eaf8bb933ff0a6cd50b0e48baea5a0", "lon": -77.048825, "type": "electric_scooter", "bike_id": "a6eaf8bb933ff0a6cd50b0e48baea5a0", "fusion_lon": 0.0, "lat": 38.90835, "fusion_lat": 0.0}, {"is_disabled": 0, "rental_uris": {"android": "https://dc.lft.to/lastmile_qr_scan", "ios": "https://dc.lft.to/lastmile_qr_scan"}, "is_reserved": 0, "name": "4dc5bd45ab93bdce835c8e2a9a1166c7", "lon": -76.9141985, "type": "electric_bike", "bike_id": "4dc5bd45ab93bdce835c8e2a9a1166c7", "fusion_lon": 0.0, "lat": 38.898317666666664, "fusion_lat": 0.0}, {"is_disabled": 0, "rental_uris": {"android": "https://dc.lft.to/lastmile_qr_scan", "ios": "https://dc.lft.to/lastmile_qr_scan"}, "is_reserved": 0, "name": "3d99b4f1522367591e7ece89e33d70ff", "lon": -76.99399816666667, "type": "electric_scooter", "bike_id": "3d99b4f1522367591e7ece89e33d70ff", "fusion_lon": 0.0, "lat": 38.92125383333333, "fusion_lat": 0.0}, {"is_disabled": 0, "rental_uris": {"android": "https://dc.lft.to/lastmile_qr_scan", "ios": "https://dc.lft.to/lastmile_qr_scan"}, "is_reserved": 0, "name": "3a5b9a1ee5b81a20727f852d804321a0", "lon": -77.0322405, "type": "electric_scooter", "bike_id": "3a5b9a1ee5b81a20727f852d804321a0", "fusion_lon": 0.0, "lat": 38.918336, "fusion_lat": 0.0}, {"is_disabled": 0, "rental_uris": {"android": "https://dc.lft.to/lastmile_qr_scan", "ios": "https://dc.lft.to/lastmile_qr_scan"}, "is_reserved": 0, "name": "ed793e0f59653f9807ca1442f85f333a", "lon": -77.05987116666667, "type": "electric_scooter", "bike_id": "ed793e0f59653f9807ca1442f85f333a", "fusion_lon": 0.0, "lat": 38.911905833333336, "fusion_lat": 0.0}, {"is_disabled": 0, "rental_uris": {"android": "https://dc.lft.to/lastmile_qr_scan", "ios": "https://dc.lft.to/lastmile_qr_scan"}, "is_reserved": 0, "name": "d747ddaeac221309cb9e32a8a6bf31a0", "lon": -77.02652783333333, "type": "electric_scooter", "bike_id": "d747ddaeac221309cb9e32a8a6bf31a0", "fusion_lon": 0.0, "lat": 38.93860983333333, "fusion_lat": 0.0}, {"is_disabled": 0, "rental_uris": {"android": "https://dc.lft.to/lastmile_qr_scan", "ios": "https://dc.lft.to/lastmile_qr_scan"}, "is_reserved": 0, "name": "dda7ca73428b8f774267f59bb330bf8c", "lon": -76.93023966666667, "type": "electric_bike", "bike_id": "dda7ca73428b8f774267f59bb330bf8c", "fusion_lon": 0.0, "lat": 38.96646883333333, "fusion_lat": 0.0}, {"is_disabled": 0, "rental_uris": {"android": "https://dc.lft.to/lastmile_qr_scan", "ios": "https://dc.lft.to/lastmile_qr_scan"}, "is_reserved": 0, "name": "bd133068b5db4691271789e0a43f0438", "lon": -76.918855, "type": "electric_scooter", "bike_id": "bd133068b5db4691271789e0a43f0438", "fusion_lon": 0.0, "lat": 38.89075666666667, "fusion_lat": 0.0}, {"is_disabled": 0, "rental_uris": {"android": "https://dc.lft.to/lastmile_qr_scan", "ios": "https://dc.lft.to/lastmile_qr_scan"}, "is_reserved": 0, "name": "81d0862caca6c8eb91a2800fcf2fa1fb", "lon": -77.01862733333333, "type": "electric_scooter", "bike_id": "81d0862caca6c8eb91a2800fcf2fa1fb", "fusion_lon": 0.0, "lat": 38.915685333333336, "fusion_lat": 0.0}, {"is_disabled": 0, "rental_uris": {"android": "https://dc.lft.to/lastmile_qr_scan", "ios": "https://dc.lft.to/lastmile_qr_scan"}, "is_reserved": 0, "name": "f7bb1e675605f020cd13c5633e576ff3", "lon": -77.040554, "type": "electric_scooter", "bike_id": "f7bb1e675605f020cd13c5633e576ff3", "fusion_lon": 0.0, "lat": 38.901413166666664, "fusion_lat": 0.0}, {"is_disabled": 0, "rental_uris": {"android": "https://dc.lft.to/lastmile_qr_scan", "ios": "https://dc.lft.to/lastmile_qr_scan"}, "is_reserved": 0, "name": "68906a99e2e2e3275bef0dfa7b1e5671", "lon": -76.99280933333333, "type": "electric_bike", "bike_id": "68906a99e2e2e3275bef0dfa7b1e5671", "fusion_lon": 0.0, "lat": 38.8583895, "fusion_lat": 0.0}, {"is_disabled": 0, "rental_uris": {"android": "https://dc.lft.to/lastmile_qr_scan", "ios": "https://dc.lft.to/lastmile_qr_scan"}, "is_reserved": 0, "name": "fe2df30603d7c375413cca5dc3aa2990", "lon": -77.02800883333333, "type": "electric_scooter", "bike_id": "fe2df30603d7c375413cca5dc3aa2990", "fusion_lon": 0.0, "lat": 38.93300583333333, "fusion_lat": 0.0}, {"is_disabled": 0, "rental_uris": {"android": "https://dc.lft.to/lastmile_qr_scan", "ios": "https://dc.lft.to/lastmile_qr_scan"}, "is_reserved": 0, "name": "de8d8e2ca8597720e41a1bb11722feb2", "lon": -76.99032166666667, "type": "electric_scooter", "bike_id": "de8d8e2ca8597720e41a1bb11722feb2", "fusion_lon": 0.0, "lat": 38.902731, "fusion_lat": 0.0}, {"is_disabled": 0, "rental_uris": {"android": "https://dc.lft.to/lastmile_qr_scan", "ios": "https://dc.lft.to/lastmile_qr_scan"}, "is_reserved": 0, "name": "1adc3fd49650ad66f08a39086af41471", "lon": -77.04890816666666, "type": "electric_scooter", "bike_id": "1adc3fd49650ad66f08a39086af41471", "fusion_lon": 0.0, "lat": 38.89812383333334, "fusion_lat": 0.0}, {"is_disabled": 0, "rental_uris": {"android": "https://dc.lft.to/lastmile_qr_scan", "ios": "https://dc.lft.to/lastmile_qr_scan"}, "is_reserved": 0, "name": "d4dddf1223ef9210c367ce4f134c77b3", "lon": -77.03935066666666, "type": "electric_scooter", "bike_id": "d4dddf1223ef9210c367ce4f134c77b3", "fusion_lon": 0.0, "lat": 38.8988755, "fusion_lat": 0.0}, {"is_disabled": 0, "rental_uris": {"android": "https://dc.lft.to/lastmile_qr_scan", "ios": "https://dc.lft.to/lastmile_qr_scan"}, "is_reserved": 0, "name": "a85263d3834131569bb37fbb4ad40d0d", "lon": -77.0216775, "type": "electric_scooter", "bike_id": "a85263d3834131569bb37fbb4ad40d0d", "fusion_lon": 0.0, "lat": 38.88633516666667, "fusion_lat": 0.0}, {"is_disabled": 0, "rental_uris": {"android": "https://dc.lft.to/lastmile_qr_scan", "ios": "https://dc.lft.to/lastmile_qr_scan"}, "is_reserved": 0, "name": "e1959a305167e15aeee575a71f33f0eb", "lon": -77.0419335, "type": "electric_scooter", "bike_id": "e1959a305167e15aeee575a71f33f0eb", "fusion_lon": 0.0, "lat": 38.91876166666667, "fusion_lat": 0.0}, {"is_disabled": 0, "rental_uris": {"android": "https://dc.lft.to/lastmile_qr_scan", "ios": "https://dc.lft.to/lastmile_qr_scan"}, "is_reserved": 0, "name": "b99bdb631339a942f54d4e16e9ce0e39", "lon": -77.0221685, "type": "electric_scooter", "bike_id": "b99bdb631339a942f54d4e16e9ce0e39", "fusion_lon": 0.0, "lat": 38.90565083333333, "fusion_lat": 0.0}, {"is_disabled": 0, "rental_uris": {"android": "https://dc.lft.to/lastmile_qr_scan", "ios": "https://dc.lft.to/lastmile_qr_scan"}, "is_reserved": 0, "name": "9764e661be0c1bdc8169969981e46bbc", "lon": -77.02262266666666, "type": "electric_scooter", "bike_id": "9764e661be0c1bdc8169969981e46bbc", "fusion_lon": 0.0, "lat": 38.92732766666666, "fusion_lat": 0.0}, {"is_disabled": 0, "rental_uris": {"android": "https://dc.lft.to/lastmile_qr_scan", "ios": "https://dc.lft.to/lastmile_qr_scan"}, "is_reserved": 0, "name": "e9bbfb85c28c0fdd77892ef2e58d60df", "lon": -76.98715566666667, "type": "electric_scooter", "bike_id": "e9bbfb85c28c0fdd77892ef2e58d60df", "fusion_lon": 0.0, "lat": 38.866985166666666, "fusion_lat": 0.0}, {"is_disabled": 0, "rental_uris": {"android": "https://dc.lft.to/lastmile_qr_scan", "ios": "https://dc.lft.to/lastmile_qr_scan"}, "is_reserved": 0, "name": "ddcf9d1c609e497b0cf3f54ff77f5899", "lon": -76.98865383333333, "type": "electric_scooter", "bike_id": "ddcf9d1c609e497b0cf3f54ff77f5899", "fusion_lon": 0.0, "lat": 38.89205833333333, "fusion_lat": 0.0}, {"is_disabled": 0, "rental_uris": {"android": "https://dc.lft.to/lastmile_qr_scan", "ios": "https://dc.lft.to/lastmile_qr_scan"}, "is_reserved": 0, "name": "a4bb677ba989e8b994e636f9625292a6", "lon": -77.02653833333333, "type": "electric_scooter", "bike_id": "a4bb677ba989e8b994e636f9625292a6", "fusion_lon": 0.0, "lat": 38.89594233333333, "fusion_lat": 0.0}, {"is_disabled": 0, "rental_uris": {"android": "https://dc.lft.to/lastmile_qr_scan", "ios": "https://dc.lft.to/lastmile_qr_scan"}, "is_reserved": 0, "name": "90045d33a28df5dcf7ab591189bb3326", "lon": -77.0295185, "type": "electric_scooter", "bike_id": "90045d33a28df5dcf7ab591189bb3326", "fusion_lon": 0.0, "lat": 38.91771816666667, "fusion_lat": 0.0}, {"is_disabled": 0, "rental_uris": {"android": "https://dc.lft.to/lastmile_qr_scan", "ios": "https://dc.lft.to/lastmile_qr_scan"}, "is_reserved": 0, "name": "923bdf12d72efa6450a3bb73f48e1182", "lon": -77.03212866666667, "type": "electric_scooter", "bike_id": "923bdf12d72efa6450a3bb73f48e1182", "fusion_lon": 0.0, "lat": 38.9258215, "fusion_lat": 0.0}, {"is_disabled": 0, "rental_uris": {"android": "https://dc.lft.to/lastmile_qr_scan", "ios": "https://dc.lft.to/lastmile_qr_scan"}, "is_reserved": 0, "name": "8ed88f0abb1e58646e637e70aefe1c39", "lon": -77.03772733333334, "type": "electric_bike", "bike_id": "8ed88f0abb1e58646e637e70aefe1c39", "fusion_lon": 0.0, "lat": 38.92948583333333, "fusion_lat": 0.0}, {"is_disabled": 0, "rental_uris": {"android": "https://dc.lft.to/lastmile_qr_scan", "ios": "https://dc.lft.to/lastmile_qr_scan"}, "is_reserved": 0, "name": "2ff41c4d073cea7ab17e59d1b7192ccf", "lon": -77.04028316666667, "type": "electric_scooter", "bike_id": "2ff41c4d073cea7ab17e59d1b7192ccf", "fusion_lon": 0.0, "lat": 38.917084, "fusion_lat": 0.0}, {"is_disabled": 0, "rental_uris": {"android": "https://dc.lft.to/lastmile_qr_scan", "ios": "https://dc.lft.to/lastmile_qr_scan"}, "is_reserved": 0, "name": "4bf9f33763a6cf471f201db5414dc24a", "lon": -76.99571566666667, "type": "electric_bike", "bike_id": "4bf9f33763a6cf471f201db5414dc24a", "fusion_lon": 0.0, "lat": 39.00780116666667, "fusion_lat": 0.0}, {"is_disabled": 0, "rental_uris": {"android": "https://dc.lft.to/lastmile_qr_scan", "ios": "https://dc.lft.to/lastmile_qr_scan"}, "is_reserved": 0, "name": "fa7dec84897c58ec209ca210b7b3ed71", "lon": -77.04523966666666, "type": "electric_scooter", "bike_id": "fa7dec84897c58ec209ca210b7b3ed71", "fusion_lon": 0.0, "lat": 38.90651116666667, "fusion_lat": 0.0}, {"is_disabled": 0, "rental_uris": {"android": "https://dc.lft.to/lastmile_qr_scan", "ios": "https://dc.lft.to/lastmile_qr_scan"}, "is_reserved": 0, "name": "4e80cdbc7460927c57b3c012ce90adf6", "lon": -77.02157416666667, "type": "electric_scooter", "bike_id": "4e80cdbc7460927c57b3c012ce90adf6", "fusion_lon": 0.0, "lat": 38.92600816666667, "fusion_lat": 0.0}, {"is_disabled": 0, "rental_uris": {"android": "https://dc.lft.to/lastmile_qr_scan", "ios": "https://dc.lft.to/lastmile_qr_scan"}, "is_reserved": 0, "name": "db3b4a0b415c8cc8658c8d6df25c415c", "lon": -76.99188933333333, "type": "electric_scooter", "bike_id": "db3b4a0b415c8cc8658c8d6df25c415c", "fusion_lon": 0.0, "lat": 38.889676, "fusion_lat": 0.0}, {"is_disabled": 0, "rental_uris": {"android": "https://dc.lft.to/lastmile_qr_scan", "ios": "https://dc.lft.to/lastmile_qr_scan"}, "is_reserved": 0, "name": "c86a7061ae8957fa5ca0295a8ed8bf31", "lon": -77.0277375, "type": "electric_scooter", "bike_id": "c86a7061ae8957fa5ca0295a8ed8bf31", "fusion_lon": 0.0, "lat": 38.92770183333333, "fusion_lat": 0.0}, {"is_disabled": 0, "rental_uris": {"android": "https://dc.lft.to/lastmile_qr_scan", "ios": "https://dc.lft.to/lastmile_qr_scan"}, "is_reserved": 0, "name": "46f9393683e5c5c06b7d1f632f383857", "lon": -77.030842, "type": "electric_scooter", "bike_id": "46f9393683e5c5c06b7d1f632f383857", "fusion_lon": 0.0, "lat": 38.95829583333333, "fusion_lat": 0.0}, {"is_disabled": 0, "rental_uris": {"android": "https://dc.lft.to/lastmile_qr_scan", "ios": "https://dc.lft.to/lastmile_qr_scan"}, "is_reserved": 0, "name": "125ddab6c27529cdf345f95336329145", "lon": -77.0056665, "type": "electric_scooter", "bike_id": "125ddab6c27529cdf345f95336329145", "fusion_lon": 0.0, "lat": 38.88502966666667, "fusion_lat": 0.0}, {"is_disabled": 0, "rental_uris": {"android": "https://dc.lft.to/lastmile_qr_scan", "ios": "https://dc.lft.to/lastmile_qr_scan"}, "is_reserved": 0, "name": "2a1194e3b921024245c8be2f6fb70f32", "lon": -77.03390266666666, "type": "electric_scooter", "bike_id": "2a1194e3b921024245c8be2f6fb70f32", "fusion_lon": 0.0, "lat": 38.919123666666664, "fusion_lat": 0.0}, {"is_disabled": 0, "rental_uris": {"android": "https://dc.lft.to/lastmile_qr_scan", "ios": "https://dc.lft.to/lastmile_qr_scan"}, "is_reserved": 0, "name": "2a6bee3af5ade756451a10ea0c18a5ad", "lon": -77.0601485, "type": "electric_scooter", "bike_id": "2a6bee3af5ade756451a10ea0c18a5ad", "fusion_lon": 0.0, "lat": 38.9052765, "fusion_lat": 0.0}, {"is_disabled": 0, "rental_uris": {"android": "https://dc.lft.to/lastmile_qr_scan", "ios": "https://dc.lft.to/lastmile_qr_scan"}, "is_reserved": 0, "name": "2d7fa48e6a72b506bcbce392c93594fa", "lon": -77.016407, "type": "electric_scooter", "bike_id": "2d7fa48e6a72b506bcbce392c93594fa", "fusion_lon": 0.0, "lat": 38.876369833333335, "fusion_lat": 0.0}, {"is_disabled": 0, "rental_uris": {"android": "https://dc.lft.to/lastmile_qr_scan", "ios": "https://dc.lft.to/lastmile_qr_scan"}, "is_reserved": 0, "name": "d8e93e8aaa61619342f5fcb0090a138d", "lon": -77.034579, "type": "electric_scooter", "bike_id": "d8e93e8aaa61619342f5fcb0090a138d", "fusion_lon": 0.0, "lat": 38.9215545, "fusion_lat": 0.0}, {"is_disabled": 0, "rental_uris": {"android": "https://dc.lft.to/lastmile_qr_scan", "ios": "https://dc.lft.to/lastmile_qr_scan"}, "is_reserved": 0, "name": "e2aea5e2ea302326a8bb624d1da4921a", "lon": -77.04363366666666, "type": "electric_scooter", "bike_id": "e2aea5e2ea302326a8bb624d1da4921a", "fusion_lon": 0.0, "lat": 38.910582166666664, "fusion_lat": 0.0}, {"is_disabled": 0, "rental_uris": {"android": "https://dc.lft.to/lastmile_qr_scan", "ios": "https://dc.lft.to/lastmile_qr_scan"}, "is_reserved": 0, "name": "3f3929b5dc29777869836d1fdac428c8", "lon": -77.02934466666666, "type": "electric_scooter", "bike_id": "3f3929b5dc29777869836d1fdac428c8", "fusion_lon": 0.0, "lat": 38.904287833333335, "fusion_lat": 0.0}, {"is_disabled": 0, "rental_uris": {"android": "https://dc.lft.to/lastmile_qr_scan", "ios": "https://dc.lft.to/lastmile_qr_scan"}, "is_reserved": 0, "name": "968f5e83b6743716a7407c696fb38804", "lon": -77.03789483333334, "type": "electric_scooter", "bike_id": "968f5e83b6743716a7407c696fb38804", "fusion_lon": 0.0, "lat": 38.93021983333333, "fusion_lat": 0.0}, {"is_disabled": 0, "rental_uris": {"android": "https://dc.lft.to/lastmile_qr_scan", "ios": "https://dc.lft.to/lastmile_qr_scan"}, "is_reserved": 0, "name": "4fe52941c130c0524026a99b2326eeba", "lon": -77.03268883333334, "type": "electric_scooter", "bike_id": "4fe52941c130c0524026a99b2326eeba", "fusion_lon": 0.0, "lat": 38.933268166666664, "fusion_lat": 0.0}, {"is_disabled": 0, "rental_uris": {"android": "https://dc.lft.to/lastmile_qr_scan", "ios": "https://dc.lft.to/lastmile_qr_scan"}, "is_reserved": 0, "name": "8169af125d297da104bd5f8ec337aa17", "lon": -76.94719616666667, "type": "electric_scooter", "bike_id": "8169af125d297da104bd5f8ec337aa17", "fusion_lon": 0.0, "lat": 38.89706416666667, "fusion_lat": 0.0}, {"is_disabled": 0, "rental_uris": {"android": "https://dc.lft.to/lastmile_qr_scan", "ios": "https://dc.lft.to/lastmile_qr_scan"}, "is_reserved": 0, "name": "348021a0a76f2662b14b0e0f533c097b", "lon": -76.94821266666666, "type": "electric_scooter", "bike_id": "348021a0a76f2662b14b0e0f533c097b", "fusion_lon": 0.0, "lat": 38.885119833333334, "fusion_lat": 0.0}, {"is_disabled": 0, "rental_uris": {"android": "https://dc.lft.to/lastmile_qr_scan", "ios": "https://dc.lft.to/lastmile_qr_scan"}, "is_reserved": 0, "name": "83d0217ab82f73286699673a611f9198", "lon": -77.020026, "type": "electric_scooter", "bike_id": "83d0217ab82f73286699673a611f9198", "fusion_lon": 0.0, "lat": 38.9157995, "fusion_lat": 0.0}, {"is_disabled": 0, "rental_uris": {"android": "https://dc.lft.to/lastmile_qr_scan", "ios": "https://dc.lft.to/lastmile_qr_scan"}, "is_reserved": 0, "name": "11fba8ee818d78f70b8bf1bdd2d3d87b", "lon": -77.03869166666667, "type": "electric_scooter", "bike_id": "11fba8ee818d78f70b8bf1bdd2d3d87b", "fusion_lon": 0.0, "lat": 38.91552766666667, "fusion_lat": 0.0}, {"is_disabled": 0, "rental_uris": {"android": "https://dc.lft.to/lastmile_qr_scan", "ios": "https://dc.lft.to/lastmile_qr_scan"}, "is_reserved": 0, "name": "34b76df014ce5e3203fa3b6bd0402e82", "lon": -76.97876466666666, "type": "electric_scooter", "bike_id": "34b76df014ce5e3203fa3b6bd0402e82", "fusion_lon": 0.0, "lat": 38.927254, "fusion_lat": 0.0}, {"is_disabled": 0, "rental_uris": {"android": "https://dc.lft.to/lastmile_qr_scan", "ios": "https://dc.lft.to/lastmile_qr_scan"}, "is_reserved": 0, "name": "560d523a1e3b280e93fa2a401916e057", "lon": -77.012244, "type": "electric_scooter", "bike_id": "560d523a1e3b280e93fa2a401916e057", "fusion_lon": 0.0, "lat": 38.88582733333333, "fusion_lat": 0.0}, {"is_disabled": 0, "rental_uris": {"android": "https://dc.lft.to/lastmile_qr_scan", "ios": "https://dc.lft.to/lastmile_qr_scan"}, "is_reserved": 0, "name": "8bfb8435fe8e84eb1c800772e8b57bac", "lon": -77.03297916666666, "type": "electric_scooter", "bike_id": "8bfb8435fe8e84eb1c800772e8b57bac", "fusion_lon": 0.0, "lat": 38.8984825, "fusion_lat": 0.0}, {"is_disabled": 0, "rental_uris": {"android": "https://dc.lft.to/lastmile_qr_scan", "ios": "https://dc.lft.to/lastmile_qr_scan"}, "is_reserved": 0, "name": "8b901ebce64f240a2e4213c1e90edbfc", "lon": -77.02352966666666, "type": "electric_scooter", "bike_id": "8b901ebce64f240a2e4213c1e90edbfc", "fusion_lon": 0.0, "lat": 38.91590333333333, "fusion_lat": 0.0}, {"is_disabled": 0, "rental_uris": {"android": "https://dc.lft.to/lastmile_qr_scan", "ios": "https://dc.lft.to/lastmile_qr_scan"}, "is_reserved": 0, "name": "d341738653e64c3beb5efe54c819e502", "lon": -77.0230405, "type": "electric_scooter", "bike_id": "d341738653e64c3beb5efe54c819e502", "fusion_lon": 0.0, "lat": 38.916165166666666, "fusion_lat": 0.0}, {"is_disabled": 0, "rental_uris": {"android": "https://dc.lft.to/lastmile_qr_scan", "ios": "https://dc.lft.to/lastmile_qr_scan"}, "is_reserved": 0, "name": "56107a376c973195fd4ad5d3ddae6053", "lon": -77.04568633333334, "type": "electric_scooter", "bike_id": "56107a376c973195fd4ad5d3ddae6053", "fusion_lon": 0.0, "lat": 38.9178445, "fusion_lat": 0.0}, {"is_disabled": 0, "rental_uris": {"android": "https://dc.lft.to/lastmile_qr_scan", "ios": "https://dc.lft.to/lastmile_qr_scan"}, "is_reserved": 0, "name": "df439fa1aeb26ee33b7c1edd83e7ffa7", "lon": -77.0543915, "type": "electric_scooter", "bike_id": "df439fa1aeb26ee33b7c1edd83e7ffa7", "fusion_lon": 0.0, "lat": 38.896020166666666, "fusion_lat": 0.0}, {"is_disabled": 0, "rental_uris": {"android": "https://dc.lft.to/lastmile_qr_scan", "ios": "https://dc.lft.to/lastmile_qr_scan"}, "is_reserved": 0, "name": "1cb4cc5b15a9d7180037005a226271a0", "lon": -77.03659666666667, "type": "electric_scooter", "bike_id": "1cb4cc5b15a9d7180037005a226271a0", "fusion_lon": 0.0, "lat": 38.912454, "fusion_lat": 0.0}, {"is_disabled": 0, "rental_uris": {"android": "https://dc.lft.to/lastmile_qr_scan", "ios": "https://dc.lft.to/lastmile_qr_scan"}, "is_reserved": 0, "name": "ceb25db53a6123d652a8ccbf44a31052", "lon": -77.10441483333334, "type": "electric_bike", "bike_id": "ceb25db53a6123d652a8ccbf44a31052", "fusion_lon": 0.0, "lat": 39.02862533333333, "fusion_lat": 0.0}, {"is_disabled": 0, "rental_uris": {"android": "https://dc.lft.to/lastmile_qr_scan", "ios": "https://dc.lft.to/lastmile_qr_scan"}, "is_reserved": 0, "name": "5884d84c879c7f9b93faec8e819ffa66", "lon": -77.04629216666666, "type": "electric_scooter", "bike_id": "5884d84c879c7f9b93faec8e819ffa66", "fusion_lon": 0.0, "lat": 38.905391, "fusion_lat": 0.0}, {"is_disabled": 0, "rental_uris": {"android": "https://dc.lft.to/lastmile_qr_scan", "ios": "https://dc.lft.to/lastmile_qr_scan"}, "is_reserved": 0, "name": "99ce262b14e64cb138a4aeac2d819865", "lon": -77.00848366666666, "type": "electric_scooter", "bike_id": "99ce262b14e64cb138a4aeac2d819865", "fusion_lon": 0.0, "lat": 38.90659633333333, "fusion_lat": 0.0}, {"is_disabled": 0, "rental_uris": {"android": "https://dc.lft.to/lastmile_qr_scan", "ios": "https://dc.lft.to/lastmile_qr_scan"}, "is_reserved": 0, "name": "306540e2fe2217ce45e3e77aa9cf6e7a", "lon": -76.97513016666667, "type": "electric_bike", "bike_id": "306540e2fe2217ce45e3e77aa9cf6e7a", "fusion_lon": 0.0, "lat": 38.903136, "fusion_lat": 0.0}, {"is_disabled": 0, "rental_uris": {"android": "https://dc.lft.to/lastmile_qr_scan", "ios": "https://dc.lft.to/lastmile_qr_scan"}, "is_reserved": 0, "name": "f409c940a860a459b58dfa64d16e6d5e", "lon": -77.04368966666667, "type": "electric_scooter", "bike_id": "f409c940a860a459b58dfa64d16e6d5e", "fusion_lon": 0.0, "lat": 38.922348666666664, "fusion_lat": 0.0}, {"is_disabled": 0, "rental_uris": {"android": "https://dc.lft.to/lastmile_qr_scan", "ios": "https://dc.lft.to/lastmile_qr_scan"}, "is_reserved": 0, "name": "373634f5aa30e335777bd9f36ccd0e10", "lon": -77.03474633333333, "type": "electric_scooter", "bike_id": "373634f5aa30e335777bd9f36ccd0e10", "fusion_lon": 0.0, "lat": 38.907485, "fusion_lat": 0.0}, {"is_disabled": 0, "rental_uris": {"android": "https://dc.lft.to/lastmile_qr_scan", "ios": "https://dc.lft.to/lastmile_qr_scan"}, "is_reserved": 0, "name": "1bbdcd6cbef06b76be87ca77466216b7", "lon": -77.00043966666667, "type": "electric_scooter", "bike_id": "1bbdcd6cbef06b76be87ca77466216b7", "fusion_lon": 0.0, "lat": 38.91900733333333, "fusion_lat": 0.0}, {"is_disabled": 0, "rental_uris": {"android": "https://dc.lft.to/lastmile_qr_scan", "ios": "https://dc.lft.to/lastmile_qr_scan"}, "is_reserved": 0, "name": "d818ac524f8c09d8b17a376e50685490", "lon": -77.02834716666666, "type": "electric_scooter", "bike_id": "d818ac524f8c09d8b17a376e50685490", "fusion_lon": 0.0, "lat": 38.93190533333333, "fusion_lat": 0.0}, {"is_disabled": 0, "rental_uris": {"android": "https://dc.lft.to/lastmile_qr_scan", "ios": "https://dc.lft.to/lastmile_qr_scan"}, "is_reserved": 0, "name": "bfce3e93253e1432a5e701560ecb22f2", "lon": -77.03351, "type": "electric_scooter", "bike_id": "bfce3e93253e1432a5e701560ecb22f2", "fusion_lon": 0.0, "lat": 38.892289833333336, "fusion_lat": 0.0}, {"is_disabled": 0, "rental_uris": {"android": "https://dc.lft.to/lastmile_qr_scan", "ios": "https://dc.lft.to/lastmile_qr_scan"}, "is_reserved": 0, "name": "55d4c2389b92dae671018238cd2aab4d", "lon": -76.98580083333333, "type": "electric_scooter", "bike_id": "55d4c2389b92dae671018238cd2aab4d", "fusion_lon": 0.0, "lat": 38.910333, "fusion_lat": 0.0}, {"is_disabled": 0, "rental_uris": {"android": "https://dc.lft.to/lastmile_qr_scan", "ios": "https://dc.lft.to/lastmile_qr_scan"}, "is_reserved": 0, "name": "1e47be305434dec50f8c31702e5d23f7", "lon": -77.01180083333334, "type": "electric_scooter", "bike_id": "1e47be305434dec50f8c31702e5d23f7", "fusion_lon": 0.0, "lat": 38.900244, "fusion_lat": 0.0}, {"is_disabled": 0, "rental_uris": {"android": "https://dc.lft.to/lastmile_qr_scan", "ios": "https://dc.lft.to/lastmile_qr_scan"}, "is_reserved": 0, "name": "2a34198a87916e254d298c90b642f3ad", "lon": -77.0190565, "type": "electric_scooter", "bike_id": "2a34198a87916e254d298c90b642f3ad", "fusion_lon": 0.0, "lat": 38.903628, "fusion_lat": 0.0}, {"is_disabled": 0, "rental_uris": {"android": "https://dc.lft.to/lastmile_qr_scan", "ios": "https://dc.lft.to/lastmile_qr_scan"}, "is_reserved": 0, "name": "5b4798d405106336438fb8a186d8638d", "lon": -77.0505895, "type": "electric_scooter", "bike_id": "5b4798d405106336438fb8a186d8638d", "fusion_lon": 0.0, "lat": 38.91639516666667, "fusion_lat": 0.0}, {"is_disabled": 0, "rental_uris": {"android": "https://dc.lft.to/lastmile_qr_scan", "ios": "https://dc.lft.to/lastmile_qr_scan"}, "is_reserved": 0, "name": "3390b6e997f01a4d927a71edbe66e760", "lon": -77.016975, "type": "electric_scooter", "bike_id": "3390b6e997f01a4d927a71edbe66e760", "fusion_lon": 0.0, "lat": 38.974923, "fusion_lat": 0.0}, {"is_disabled": 0, "rental_uris": {"android": "https://dc.lft.to/lastmile_qr_scan", "ios": "https://dc.lft.to/lastmile_qr_scan"}, "is_reserved": 0, "name": "c2c4d14285633a2f25e1265c47c8d032", "lon": -77.03469666666666, "type": "electric_scooter", "bike_id": "c2c4d14285633a2f25e1265c47c8d032", "fusion_lon": 0.0, "lat": 38.90563183333333, "fusion_lat": 0.0}, {"is_disabled": 0, "rental_uris": {"android": "https://dc.lft.to/lastmile_qr_scan", "ios": "https://dc.lft.to/lastmile_qr_scan"}, "is_reserved": 0, "name": "d23324620e2b7d248a891828422cf569", "lon": -77.03030916666667, "type": "electric_scooter", "bike_id": "d23324620e2b7d248a891828422cf569", "fusion_lon": 0.0, "lat": 38.9311745, "fusion_lat": 0.0}, {"is_disabled": 0, "rental_uris": {"android": "https://dc.lft.to/lastmile_qr_scan", "ios": "https://dc.lft.to/lastmile_qr_scan"}, "is_reserved": 0, "name": "bf37de5bdfa686aeb9dff64a06e4a7ed", "lon": -76.98781533333333, "type": "electric_scooter", "bike_id": "bf37de5bdfa686aeb9dff64a06e4a7ed", "fusion_lon": 0.0, "lat": 38.844683333333336, "fusion_lat": 0.0}, {"is_disabled": 0, "rental_uris": {"android": "https://dc.lft.to/lastmile_qr_scan", "ios": "https://dc.lft.to/lastmile_qr_scan"}, "is_reserved": 0, "name": "ab336519d3fd6796a2ff249d7abf781d", "lon": -77.04707, "type": "electric_scooter", "bike_id": "ab336519d3fd6796a2ff249d7abf781d", "fusion_lon": 0.0, "lat": 38.89721183333333, "fusion_lat": 0.0}, {"is_disabled": 0, "rental_uris": {"android": "https://dc.lft.to/lastmile_qr_scan", "ios": "https://dc.lft.to/lastmile_qr_scan"}, "is_reserved": 0, "name": "c4f11a0f49b2366585eb2b9ff2bb8b80", "lon": -77.02746416666666, "type": "electric_scooter", "bike_id": "c4f11a0f49b2366585eb2b9ff2bb8b80", "fusion_lon": 0.0, "lat": 38.94309366666667, "fusion_lat": 0.0}, {"is_disabled": 0, "rental_uris": {"android": "https://dc.lft.to/lastmile_qr_scan", "ios": "https://dc.lft.to/lastmile_qr_scan"}, "is_reserved": 0, "name": "7055180b16321ea8e402bcf3a51dfe4d", "lon": -77.07276933333333, "type": "electric_scooter", "bike_id": "7055180b16321ea8e402bcf3a51dfe4d", "fusion_lon": 0.0, "lat": 38.93476833333333, "fusion_lat": 0.0}, {"is_disabled": 0, "rental_uris": {"android": "https://dc.lft.to/lastmile_qr_scan", "ios": "https://dc.lft.to/lastmile_qr_scan"}, "is_reserved": 0, "name": "edc5e1cf53a39fa5f49236ca4631a71c", "lon": -77.04621483333334, "type": "electric_scooter", "bike_id": "edc5e1cf53a39fa5f49236ca4631a71c", "fusion_lon": 0.0, "lat": 38.923181666666665, "fusion_lat": 0.0}, {"is_disabled": 0, "rental_uris": {"android": "https://dc.lft.to/lastmile_qr_scan", "ios": "https://dc.lft.to/lastmile_qr_scan"}, "is_reserved": 0, "name": "428b721c88c4a4b832141e0e1713afbe", "lon": -77.01762383333333, "type": "electric_scooter", "bike_id": "428b721c88c4a4b832141e0e1713afbe", "fusion_lon": 0.0, "lat": 38.902684, "fusion_lat": 0.0}, {"is_disabled": 0, "rental_uris": {"android": "https://dc.lft.to/lastmile_qr_scan", "ios": "https://dc.lft.to/lastmile_qr_scan"}, "is_reserved": 0, "name": "15428d7894cfbc418e7f2e6537ac564c", "lon": -76.98828033333334, "type": "electric_bike", "bike_id": "15428d7894cfbc418e7f2e6537ac564c", "fusion_lon": 0.0, "lat": 38.9856375, "fusion_lat": 0.0}, {"is_disabled": 0, "rental_uris": {"android": "https://dc.lft.to/lastmile_qr_scan", "ios": "https://dc.lft.to/lastmile_qr_scan"}, "is_reserved": 0, "name": "3999b1063b7f0e93a993e6feaff8e92b", "lon": -77.10650966666667, "type": "electric_bike", "bike_id": "3999b1063b7f0e93a993e6feaff8e92b", "fusion_lon": 0.0, "lat": 39.02998433333333, "fusion_lat": 0.0}, {"is_disabled": 0, "rental_uris": {"android": "https://dc.lft.to/lastmile_qr_scan", "ios": "https://dc.lft.to/lastmile_qr_scan"}, "is_reserved": 0, "name": "53aeb4500b67807e27bf3ff537b4788b", "lon": -76.9808055, "type": "electric_scooter", "bike_id": "53aeb4500b67807e27bf3ff537b4788b", "fusion_lon": 0.0, "lat": 38.91673566666667, "fusion_lat": 0.0}, {"is_disabled": 0, "rental_uris": {"android": "https://dc.lft.to/lastmile_qr_scan", "ios": "https://dc.lft.to/lastmile_qr_scan"}, "is_reserved": 0, "name": "34578d2844d7687b61a79c7e6e861998", "lon": -77.050856, "type": "electric_scooter", "bike_id": "34578d2844d7687b61a79c7e6e861998", "fusion_lon": 0.0, "lat": 38.90526916666666, "fusion_lat": 0.0}, {"is_disabled": 0, "rental_uris": {"android": "https://dc.lft.to/lastmile_qr_scan", "ios": "https://dc.lft.to/lastmile_qr_scan"}, "is_reserved": 0, "name": "fc9a761419f7dbfe92c79ca19b77b84d", "lon": -77.02840366666666, "type": "electric_scooter", "bike_id": "fc9a761419f7dbfe92c79ca19b77b84d", "fusion_lon": 0.0, "lat": 38.932985333333335, "fusion_lat": 0.0}, {"is_disabled": 0, "rental_uris": {"android": "https://dc.lft.to/lastmile_qr_scan", "ios": "https://dc.lft.to/lastmile_qr_scan"}, "is_reserved": 0, "name": "eb76ed9dd6412947cb1f91c2f85f5d17", "lon": -77.03350966666666, "type": "electric_scooter", "bike_id": "eb76ed9dd6412947cb1f91c2f85f5d17", "fusion_lon": 0.0, "lat": 38.92239716666667, "fusion_lat": 0.0}, {"is_disabled": 0, "rental_uris": {"android": "https://dc.lft.to/lastmile_qr_scan", "ios": "https://dc.lft.to/lastmile_qr_scan"}, "is_reserved": 0, "name": "dc7897199c4712838165e2bd0c080d2c", "lon": -77.03860916666666, "type": "electric_scooter", "bike_id": "dc7897199c4712838165e2bd0c080d2c", "fusion_lon": 0.0, "lat": 38.90370933333333, "fusion_lat": 0.0}, {"is_disabled": 0, "rental_uris": {"android": "https://dc.lft.to/lastmile_qr_scan", "ios": "https://dc.lft.to/lastmile_qr_scan"}, "is_reserved": 0, "name": "f8eaf588c2a9d1f97f662b0486c3345d", "lon": -77.0317345, "type": "electric_scooter", "bike_id": "f8eaf588c2a9d1f97f662b0486c3345d", "fusion_lon": 0.0, "lat": 38.91412416666667, "fusion_lat": 0.0}, {"is_disabled": 0, "rental_uris": {"android": "https://dc.lft.to/lastmile_qr_scan", "ios": "https://dc.lft.to/lastmile_qr_scan"}, "is_reserved": 0, "name": "23792cd6fa46c9775d894d942a346f80", "lon": -77.0401985, "type": "electric_scooter", "bike_id": "23792cd6fa46c9775d894d942a346f80", "fusion_lon": 0.0, "lat": 38.91795583333333, "fusion_lat": 0.0}, {"is_disabled": 0, "rental_uris": {"android": "https://dc.lft.to/lastmile_qr_scan", "ios": "https://dc.lft.to/lastmile_qr_scan"}, "is_reserved": 0, "name": "ab1a4424102cfc57e6b23919000bd0ce", "lon": -77.0128765, "type": "electric_scooter", "bike_id": "ab1a4424102cfc57e6b23919000bd0ce", "fusion_lon": 0.0, "lat": 38.900632, "fusion_lat": 0.0}, {"is_disabled": 0, "rental_uris": {"android": "https://dc.lft.to/lastmile_qr_scan", "ios": "https://dc.lft.to/lastmile_qr_scan"}, "is_reserved": 0, "name": "33e8317d9ea139f602ec3bfbca5c3198", "lon": -77.03600116666667, "type": "electric_scooter", "bike_id": "33e8317d9ea139f602ec3bfbca5c3198", "fusion_lon": 0.0, "lat": 38.934834333333335, "fusion_lat": 0.0}, {"is_disabled": 0, "rental_uris": {"android": "https://dc.lft.to/lastmile_qr_scan", "ios": "https://dc.lft.to/lastmile_qr_scan"}, "is_reserved": 0, "name": "3c8812dc6b93ec0d26f48a6acca970ed", "lon": -77.00655666666667, "type": "electric_scooter", "bike_id": "3c8812dc6b93ec0d26f48a6acca970ed", "fusion_lon": 0.0, "lat": 38.94464166666667, "fusion_lat": 0.0}, {"is_disabled": 0, "rental_uris": {"android": "https://dc.lft.to/lastmile_qr_scan", "ios": "https://dc.lft.to/lastmile_qr_scan"}, "is_reserved": 0, "name": "a323c7dccf6eaf3ab4357a5cc6641b32", "lon": -77.03859883333334, "type": "electric_scooter", "bike_id": "a323c7dccf6eaf3ab4357a5cc6641b32", "fusion_lon": 0.0, "lat": 38.91463533333334, "fusion_lat": 0.0}, {"is_disabled": 0, "rental_uris": {"android": "https://dc.lft.to/lastmile_qr_scan", "ios": "https://dc.lft.to/lastmile_qr_scan"}, "is_reserved": 0, "name": "c190a388f1487227cf8fa21f52e1fbe2", "lon": -77.02897583333333, "type": "electric_bike", "bike_id": "c190a388f1487227cf8fa21f52e1fbe2", "fusion_lon": 0.0, "lat": 38.99827916666667, "fusion_lat": 0.0}, {"is_disabled": 0, "rental_uris": {"android": "https://dc.lft.to/lastmile_qr_scan", "ios": "https://dc.lft.to/lastmile_qr_scan"}, "is_reserved": 0, "name": "acb5457981e4875f90ce083b5f7cf807", "lon": -77.2293905, "type": "electric_bike", "bike_id": "acb5457981e4875f90ce083b5f7cf807", "fusion_lon": 0.0, "lat": 38.9318975, "fusion_lat": 0.0}, {"is_disabled": 0, "rental_uris": {"android": "https://dc.lft.to/lastmile_qr_scan", "ios": "https://dc.lft.to/lastmile_qr_scan"}, "is_reserved": 0, "name": "7f98f44dce31d485213557200579cdef", "lon": -77.02227433333333, "type": "electric_scooter", "bike_id": "7f98f44dce31d485213557200579cdef", "fusion_lon": 0.0, "lat": 38.892241, "fusion_lat": 0.0}, {"is_disabled": 0, "rental_uris": {"android": "https://dc.lft.to/lastmile_qr_scan", "ios": "https://dc.lft.to/lastmile_qr_scan"}, "is_reserved": 0, "name": "47d16c604483485e27d2dfdd87c37fd9", "lon": -76.91656983333333, "type": "electric_bike", "bike_id": "47d16c604483485e27d2dfdd87c37fd9", "fusion_lon": 0.0, "lat": 38.868587166666664, "fusion_lat": 0.0}, {"is_disabled": 0, "rental_uris": {"android": "https://dc.lft.to/lastmile_qr_scan", "ios": "https://dc.lft.to/lastmile_qr_scan"}, "is_reserved": 0, "name": "5aa043dfc8ea71e77022729ddcc984aa", "lon": -77.024898, "type": "electric_scooter", "bike_id": "5aa043dfc8ea71e77022729ddcc984aa", "fusion_lon": 0.0, "lat": 38.917501666666666, "fusion_lat": 0.0}, {"is_disabled": 0, "rental_uris": {"android": "https://dc.lft.to/lastmile_qr_scan", "ios": "https://dc.lft.to/lastmile_qr_scan"}, "is_reserved": 0, "name": "24b99eb416446f84aeb45c1f1daedd56", "lon": -77.00569466666667, "type": "electric_scooter", "bike_id": "24b99eb416446f84aeb45c1f1daedd56", "fusion_lon": 0.0, "lat": 38.885057333333336, "fusion_lat": 0.0}, {"is_disabled": 0, "rental_uris": {"android": "https://dc.lft.to/lastmile_qr_scan", "ios": "https://dc.lft.to/lastmile_qr_scan"}, "is_reserved": 0, "name": "40e63144a8bfabeb7b24951c3d99aea0", "lon": -77.02538516666667, "type": "electric_scooter", "bike_id": "40e63144a8bfabeb7b24951c3d99aea0", "fusion_lon": 0.0, "lat": 38.92404283333333, "fusion_lat": 0.0}, {"is_disabled": 0, "rental_uris": {"android": "https://dc.lft.to/lastmile_qr_scan", "ios": "https://dc.lft.to/lastmile_qr_scan"}, "is_reserved": 0, "name": "73334c175e5d88e06ef39621a2e834fd", "lon": -77.08825883333333, "type": "electric_bike", "bike_id": "73334c175e5d88e06ef39621a2e834fd", "fusion_lon": 0.0, "lat": 38.9096785, "fusion_lat": 0.0}, {"is_disabled": 0, "rental_uris": {"android": "https://dc.lft.to/lastmile_qr_scan", "ios": "https://dc.lft.to/lastmile_qr_scan"}, "is_reserved": 0, "name": "be971d9f28ef68ae1346d720d09dc117", "lon": -77.04274466666666, "type": "electric_scooter", "bike_id": "be971d9f28ef68ae1346d720d09dc117", "fusion_lon": 0.0, "lat": 38.9341285, "fusion_lat": 0.0}, {"is_disabled": 0, "rental_uris": {"android": "https://dc.lft.to/lastmile_qr_scan", "ios": "https://dc.lft.to/lastmile_qr_scan"}, "is_reserved": 0, "name": "9cdaea08ce011400e0a0d4481304b00d", "lon": -77.00533533333333, "type": "electric_scooter", "bike_id": "9cdaea08ce011400e0a0d4481304b00d", "fusion_lon": 0.0, "lat": 38.8747065, "fusion_lat": 0.0}, {"is_disabled": 0, "rental_uris": {"android": "https://dc.lft.to/lastmile_qr_scan", "ios": "https://dc.lft.to/lastmile_qr_scan"}, "is_reserved": 0, "name": "74ae007447feba650e0a973375de84b0", "lon": -77.04398, "type": "electric_scooter", "bike_id": "74ae007447feba650e0a973375de84b0", "fusion_lon": 0.0, "lat": 38.8939765, "fusion_lat": 0.0}, {"is_disabled": 0, "rental_uris": {"android": "https://dc.lft.to/lastmile_qr_scan", "ios": "https://dc.lft.to/lastmile_qr_scan"}, "is_reserved": 0, "name": "0d69d0e4abeb13dd4ef4abd309374698", "lon": -77.035476, "type": "electric_scooter", "bike_id": "0d69d0e4abeb13dd4ef4abd309374698", "fusion_lon": 0.0, "lat": 38.9234155, "fusion_lat": 0.0}, {"is_disabled": 0, "rental_uris": {"android": "https://dc.lft.to/lastmile_qr_scan", "ios": "https://dc.lft.to/lastmile_qr_scan"}, "is_reserved": 0, "name": "e5deae449ed95c919ab78b85a4ec3e79", "lon": -77.03480083333334, "type": "electric_scooter", "bike_id": "e5deae449ed95c919ab78b85a4ec3e79", "fusion_lon": 0.0, "lat": 38.924752166666664, "fusion_lat": 0.0}, {"is_disabled": 0, "rental_uris": {"android": "https://dc.lft.to/lastmile_qr_scan", "ios": "https://dc.lft.to/lastmile_qr_scan"}, "is_reserved": 0, "name": "e04c928159e560237e467b924fd624cb", "lon": -76.996486, "type": "electric_scooter", "bike_id": "e04c928159e560237e467b924fd624cb", "fusion_lon": 0.0, "lat": 38.887214166666666, "fusion_lat": 0.0}, {"is_disabled": 0, "rental_uris": {"android": "https://dc.lft.to/lastmile_qr_scan", "ios": "https://dc.lft.to/lastmile_qr_scan"}, "is_reserved": 0, "name": "986cc2f7859f2bc39520f4274264a6d3", "lon": -77.02850383333333, "type": "electric_scooter", "bike_id": "986cc2f7859f2bc39520f4274264a6d3", "fusion_lon": 0.0, "lat": 38.901401166666666, "fusion_lat": 0.0}, {"is_disabled": 0, "rental_uris": {"android": "https://dc.lft.to/lastmile_qr_scan", "ios": "https://dc.lft.to/lastmile_qr_scan"}, "is_reserved": 0, "name": "49a6ef123863df4b7d092722a4068b72", "lon": -77.048185, "type": "electric_scooter", "bike_id": "49a6ef123863df4b7d092722a4068b72", "fusion_lon": 0.0, "lat": 38.920375666666665, "fusion_lat": 0.0}, {"is_disabled": 0, "rental_uris": {"android": "https://dc.lft.to/lastmile_qr_scan", "ios": "https://dc.lft.to/lastmile_qr_scan"}, "is_reserved": 0, "name": "74bd6bcbc71dd01b36d0a7383e02dc00", "lon": -76.97794733333333, "type": "electric_bike", "bike_id": "74bd6bcbc71dd01b36d0a7383e02dc00", "fusion_lon": 0.0, "lat": 38.896069833333335, "fusion_lat": 0.0}, {"is_disabled": 0, "rental_uris": {"android": "https://dc.lft.to/lastmile_qr_scan", "ios": "https://dc.lft.to/lastmile_qr_scan"}, "is_reserved": 0, "name": "8852da6ed5f813d729bb7220010021f4", "lon": -77.02381333333334, "type": "electric_bike", "bike_id": "8852da6ed5f813d729bb7220010021f4", "fusion_lon": 0.0, "lat": 38.99073516666667, "fusion_lat": 0.0}, {"is_disabled": 0, "rental_uris": {"android": "https://dc.lft.to/lastmile_qr_scan", "ios": "https://dc.lft.to/lastmile_qr_scan"}, "is_reserved": 0, "name": "031955a05cef5266846ae033c3b88f6f", "lon": -77.0416725, "type": "electric_scooter", "bike_id": "031955a05cef5266846ae033c3b88f6f", "fusion_lon": 0.0, "lat": 38.912622666666664, "fusion_lat": 0.0}, {"is_disabled": 0, "rental_uris": {"android": "https://dc.lft.to/lastmile_qr_scan", "ios": "https://dc.lft.to/lastmile_qr_scan"}, "is_reserved": 0, "name": "645e14c376c0feb2c36e6551beb6ec08", "lon": -77.0207205, "type": "electric_scooter", "bike_id": "645e14c376c0feb2c36e6551beb6ec08", "fusion_lon": 0.0, "lat": 38.88125683333333, "fusion_lat": 0.0}, {"is_disabled": 0, "rental_uris": {"android": "https://dc.lft.to/lastmile_qr_scan", "ios": "https://dc.lft.to/lastmile_qr_scan"}, "is_reserved": 0, "name": "763dbdebf185349238dfb5f433cea634", "lon": -77.02976083333333, "type": "electric_scooter", "bike_id": "763dbdebf185349238dfb5f433cea634", "fusion_lon": 0.0, "lat": 38.9225355, "fusion_lat": 0.0}, {"is_disabled": 0, "rental_uris": {"android": "https://dc.lft.to/lastmile_qr_scan", "ios": "https://dc.lft.to/lastmile_qr_scan"}, "is_reserved": 0, "name": "11622c64e518170c4019ec768499aeea", "lon": -76.98884433333333, "type": "electric_scooter", "bike_id": "11622c64e518170c4019ec768499aeea", "fusion_lon": 0.0, "lat": 38.86659683333333, "fusion_lat": 0.0}, {"is_disabled": 0, "rental_uris": {"android": "https://dc.lft.to/lastmile_qr_scan", "ios": "https://dc.lft.to/lastmile_qr_scan"}, "is_reserved": 0, "name": "9c58875361aa3eafbd8659257dcea806", "lon": -77.026785, "type": "electric_scooter", "bike_id": "9c58875361aa3eafbd8659257dcea806", "fusion_lon": 0.0, "lat": 38.89639283333333, "fusion_lat": 0.0}, {"is_disabled": 0, "rental_uris": {"android": "https://dc.lft.to/lastmile_qr_scan", "ios": "https://dc.lft.to/lastmile_qr_scan"}, "is_reserved": 0, "name": "67f2c245f330d828832c2700850d69fe", "lon": -77.03176033333334, "type": "electric_scooter", "bike_id": "67f2c245f330d828832c2700850d69fe", "fusion_lon": 0.0, "lat": 38.91417416666667, "fusion_lat": 0.0}, {"is_disabled": 0, "rental_uris": {"android": "https://dc.lft.to/lastmile_qr_scan", "ios": "https://dc.lft.to/lastmile_qr_scan"}, "is_reserved": 0, "name": "750b00194e5c3a308512a4407fbc15f1", "lon": -77.02701266666666, "type": "electric_scooter", "bike_id": "750b00194e5c3a308512a4407fbc15f1", "fusion_lon": 0.0, "lat": 38.94980016666667, "fusion_lat": 0.0}, {"is_disabled": 0, "rental_uris": {"android": "https://dc.lft.to/lastmile_qr_scan", "ios": "https://dc.lft.to/lastmile_qr_scan"}, "is_reserved": 0, "name": "7696a06d7344885ebf174c5361c1e093", "lon": -77.0315725, "type": "electric_scooter", "bike_id": "7696a06d7344885ebf174c5361c1e093", "fusion_lon": 0.0, "lat": 38.928583833333334, "fusion_lat": 0.0}, {"is_disabled": 0, "rental_uris": {"android": "https://dc.lft.to/lastmile_qr_scan", "ios": "https://dc.lft.to/lastmile_qr_scan"}, "is_reserved": 0, "name": "53c7f9ff82fcfc584fbae32f7b6425b4", "lon": -77.046952, "type": "electric_scooter", "bike_id": "53c7f9ff82fcfc584fbae32f7b6425b4", "fusion_lon": 0.0, "lat": 38.897329666666664, "fusion_lat": 0.0}, {"is_disabled": 0, "rental_uris": {"android": "https://dc.lft.to/lastmile_qr_scan", "ios": "https://dc.lft.to/lastmile_qr_scan"}, "is_reserved": 0, "name": "dae8dd54b6b4ab744c5b6976f2653721", "lon": -77.036323, "type": "electric_scooter", "bike_id": "dae8dd54b6b4ab744c5b6976f2653721", "fusion_lon": 0.0, "lat": 38.930456, "fusion_lat": 0.0}, {"is_disabled": 0, "rental_uris": {"android": "https://dc.lft.to/lastmile_qr_scan", "ios": "https://dc.lft.to/lastmile_qr_scan"}, "is_reserved": 0, "name": "ab30888170f8a0a48209eb0b72cf302d", "lon": -77.00683133333334, "type": "electric_bike", "bike_id": "ab30888170f8a0a48209eb0b72cf302d", "fusion_lon": 0.0, "lat": 38.945128833333335, "fusion_lat": 0.0}, {"is_disabled": 0, "rental_uris": {"android": "https://dc.lft.to/lastmile_qr_scan", "ios": "https://dc.lft.to/lastmile_qr_scan"}, "is_reserved": 0, "name": "d482792bc4f65069b61422ab9420e2c9", "lon": -77.0270525, "type": "electric_scooter", "bike_id": "d482792bc4f65069b61422ab9420e2c9", "fusion_lon": 0.0, "lat": 38.90624433333333, "fusion_lat": 0.0}, {"is_disabled": 0, "rental_uris": {"android": "https://dc.lft.to/lastmile_qr_scan", "ios": "https://dc.lft.to/lastmile_qr_scan"}, "is_reserved": 0, "name": "6b33217eb22bbd3f6b2fae70f9064954", "lon": -77.04932966666667, "type": "electric_scooter", "bike_id": "6b33217eb22bbd3f6b2fae70f9064954", "fusion_lon": 0.0, "lat": 38.907079333333336, "fusion_lat": 0.0}, {"is_disabled": 0, "rental_uris": {"android": "https://dc.lft.to/lastmile_qr_scan", "ios": "https://dc.lft.to/lastmile_qr_scan"}, "is_reserved": 0, "name": "53928feb54662dc09ef3657ff72bf123", "lon": -77.00134133333333, "type": "electric_scooter", "bike_id": "53928feb54662dc09ef3657ff72bf123", "fusion_lon": 0.0, "lat": 38.87396433333333, "fusion_lat": 0.0}, {"is_disabled": 0, "rental_uris": {"android": "https://dc.lft.to/lastmile_qr_scan", "ios": "https://dc.lft.to/lastmile_qr_scan"}, "is_reserved": 0, "name": "8b4af0beb6bed99f706d428880b72cf3", "lon": -77.01189383333333, "type": "electric_scooter", "bike_id": "8b4af0beb6bed99f706d428880b72cf3", "fusion_lon": 0.0, "lat": 38.90368566666667, "fusion_lat": 0.0}, {"is_disabled": 0, "rental_uris": {"android": "https://dc.lft.to/lastmile_qr_scan", "ios": "https://dc.lft.to/lastmile_qr_scan"}, "is_reserved": 0, "name": "756c78a033282f20d2550a01e934b1ba", "lon": -77.02475466666667, "type": "electric_scooter", "bike_id": "756c78a033282f20d2550a01e934b1ba", "fusion_lon": 0.0, "lat": 38.93856, "fusion_lat": 0.0}, {"is_disabled": 0, "rental_uris": {"android": "https://dc.lft.to/lastmile_qr_scan", "ios": "https://dc.lft.to/lastmile_qr_scan"}, "is_reserved": 0, "name": "dd7f46e22a523bd4269efa5c6f74fc88", "lon": -77.02876083333334, "type": "electric_scooter", "bike_id": "dd7f46e22a523bd4269efa5c6f74fc88", "fusion_lon": 0.0, "lat": 38.90127233333333, "fusion_lat": 0.0}, {"is_disabled": 0, "rental_uris": {"android": "https://dc.lft.to/lastmile_qr_scan", "ios": "https://dc.lft.to/lastmile_qr_scan"}, "is_reserved": 0, "name": "7ded3eb0f2d886e0006e31f8665c2cc1", "lon": -77.03382933333333, "type": "electric_scooter", "bike_id": "7ded3eb0f2d886e0006e31f8665c2cc1", "fusion_lon": 0.0, "lat": 38.92162166666667, "fusion_lat": 0.0}, {"is_disabled": 0, "rental_uris": {"android": "https://dc.lft.to/lastmile_qr_scan", "ios": "https://dc.lft.to/lastmile_qr_scan"}, "is_reserved": 0, "name": "f0eb28e4c1fb10290bb2481b277f6820", "lon": -77.0280375, "type": "electric_scooter", "bike_id": "f0eb28e4c1fb10290bb2481b277f6820", "fusion_lon": 0.0, "lat": 38.96212883333333, "fusion_lat": 0.0}, {"is_disabled": 0, "rental_uris": {"android": "https://dc.lft.to/lastmile_qr_scan", "ios": "https://dc.lft.to/lastmile_qr_scan"}, "is_reserved": 0, "name": "1b8aaebbeab8e519e4c7492dbc53a753", "lon": -77.0363265, "type": "electric_scooter", "bike_id": "1b8aaebbeab8e519e4c7492dbc53a753", "fusion_lon": 0.0, "lat": 38.942806833333336, "fusion_lat": 0.0}, {"is_disabled": 0, "rental_uris": {"android": "https://dc.lft.to/lastmile_qr_scan", "ios": "https://dc.lft.to/lastmile_qr_scan"}, "is_reserved": 0, "name": "545146c3ef75471647f679a177e04852", "lon": -77.01141766666667, "type": "electric_scooter", "bike_id": "545146c3ef75471647f679a177e04852", "fusion_lon": 0.0, "lat": 38.920328166666664, "fusion_lat": 0.0}, {"is_disabled": 0, "rental_uris": {"android": "https://dc.lft.to/lastmile_qr_scan", "ios": "https://dc.lft.to/lastmile_qr_scan"}, "is_reserved": 0, "name": "6b6d6fd87e2af00df719baf81b676005", "lon": -76.9955565, "type": "electric_scooter", "bike_id": "6b6d6fd87e2af00df719baf81b676005", "fusion_lon": 0.0, "lat": 38.883814666666666, "fusion_lat": 0.0}, {"is_disabled": 0, "rental_uris": {"android": "https://dc.lft.to/lastmile_qr_scan", "ios": "https://dc.lft.to/lastmile_qr_scan"}, "is_reserved": 0, "name": "b1ac4ebda5f786946d81707dd441e1ba", "lon": -76.98077433333333, "type": "electric_scooter", "bike_id": "b1ac4ebda5f786946d81707dd441e1ba", "fusion_lon": 0.0, "lat": 38.93645216666667, "fusion_lat": 0.0}, {"is_disabled": 0, "rental_uris": {"android": "https://dc.lft.to/lastmile_qr_scan", "ios": "https://dc.lft.to/lastmile_qr_scan"}, "is_reserved": 0, "name": "951ae931b88abee1884ad6c2abeeccda", "lon": -77.0199645, "type": "electric_scooter", "bike_id": "951ae931b88abee1884ad6c2abeeccda", "fusion_lon": 0.0, "lat": 38.89858433333333, "fusion_lat": 0.0}, {"is_disabled": 0, "rental_uris": {"android": "https://dc.lft.to/lastmile_qr_scan", "ios": "https://dc.lft.to/lastmile_qr_scan"}, "is_reserved": 0, "name": "990fa3749cbf913490d15ed164c0f99b", "lon": -76.94540116666667, "type": "electric_bike", "bike_id": "990fa3749cbf913490d15ed164c0f99b", "fusion_lon": 0.0, "lat": 38.867531, "fusion_lat": 0.0}, {"is_disabled": 0, "rental_uris": {"android": "https://dc.lft.to/lastmile_qr_scan", "ios": "https://dc.lft.to/lastmile_qr_scan"}, "is_reserved": 0, "name": "b26a204cfd1ef216d2d3c3f51c5540ec", "lon": -77.02719466666667, "type": "electric_scooter", "bike_id": "b26a204cfd1ef216d2d3c3f51c5540ec", "fusion_lon": 0.0, "lat": 38.909595, "fusion_lat": 0.0}, {"is_disabled": 0, "rental_uris": {"android": "https://dc.lft.to/lastmile_qr_scan", "ios": "https://dc.lft.to/lastmile_qr_scan"}, "is_reserved": 0, "name": "2c158245c0bf81cf5701c256c739333f", "lon": -77.059618, "type": "electric_scooter", "bike_id": "2c158245c0bf81cf5701c256c739333f", "fusion_lon": 0.0, "lat": 38.94086383333333, "fusion_lat": 0.0}, {"is_disabled": 0, "rental_uris": {"android": "https://dc.lft.to/lastmile_qr_scan", "ios": "https://dc.lft.to/lastmile_qr_scan"}, "is_reserved": 0, "name": "128a711c5e8cff9abf13254bfa516767", "lon": -77.03651316666667, "type": "electric_scooter", "bike_id": "128a711c5e8cff9abf13254bfa516767", "fusion_lon": 0.0, "lat": 38.91588933333333, "fusion_lat": 0.0}, {"is_disabled": 0, "rental_uris": {"android": "https://dc.lft.to/lastmile_qr_scan", "ios": "https://dc.lft.to/lastmile_qr_scan"}, "is_reserved": 0, "name": "447b63523ad2e198766f093decaa68b8", "lon": -76.9655865, "type": "electric_scooter", "bike_id": "447b63523ad2e198766f093decaa68b8", "fusion_lon": 0.0, "lat": 38.9184135, "fusion_lat": 0.0}, {"is_disabled": 0, "rental_uris": {"android": "https://dc.lft.to/lastmile_qr_scan", "ios": "https://dc.lft.to/lastmile_qr_scan"}, "is_reserved": 0, "name": "49c5a9e67416f55c170d1907962e9ce7", "lon": -76.990641, "type": "electric_scooter", "bike_id": "49c5a9e67416f55c170d1907962e9ce7", "fusion_lon": 0.0, "lat": 38.8635785, "fusion_lat": 0.0}, {"is_disabled": 0, "rental_uris": {"android": "https://dc.lft.to/lastmile_qr_scan", "ios": "https://dc.lft.to/lastmile_qr_scan"}, "is_reserved": 0, "name": "8d2bc75a9c1d5a43a0f25f054d0e52c3", "lon": -77.01741566666666, "type": "electric_scooter", "bike_id": "8d2bc75a9c1d5a43a0f25f054d0e52c3", "fusion_lon": 0.0, "lat": 38.914429, "fusion_lat": 0.0}, {"is_disabled": 0, "rental_uris": {"android": "https://dc.lft.to/lastmile_qr_scan", "ios": "https://dc.lft.to/lastmile_qr_scan"}, "is_reserved": 0, "name": "236255592959c893bcda791f3f2e3182", "lon": -77.03293, "type": "electric_scooter", "bike_id": "236255592959c893bcda791f3f2e3182", "fusion_lon": 0.0, "lat": 38.933859166666664, "fusion_lat": 0.0}, {"is_disabled": 0, "rental_uris": {"android": "https://dc.lft.to/lastmile_qr_scan", "ios": "https://dc.lft.to/lastmile_qr_scan"}, "is_reserved": 0, "name": "58a67ed10d2ba8a02788e7a57629d4cc", "lon": -77.03055866666666, "type": "electric_scooter", "bike_id": "58a67ed10d2ba8a02788e7a57629d4cc", "fusion_lon": 0.0, "lat": 38.899832, "fusion_lat": 0.0}, {"is_disabled": 0, "rental_uris": {"android": "https://dc.lft.to/lastmile_qr_scan", "ios": "https://dc.lft.to/lastmile_qr_scan"}, "is_reserved": 0, "name": "ad58cb4f156e69fda54f0258ceafc4bc", "lon": -77.07298033333333, "type": "electric_scooter", "bike_id": "ad58cb4f156e69fda54f0258ceafc4bc", "fusion_lon": 0.0, "lat": 38.92279333333333, "fusion_lat": 0.0}, {"is_disabled": 0, "rental_uris": {"android": "https://dc.lft.to/lastmile_qr_scan", "ios": "https://dc.lft.to/lastmile_qr_scan"}, "is_reserved": 0, "name": "e3717f3f7aa1a76a3b72b9386247041e", "lon": -77.03444133333333, "type": "electric_scooter", "bike_id": "e3717f3f7aa1a76a3b72b9386247041e", "fusion_lon": 0.0, "lat": 38.910063666666666, "fusion_lat": 0.0}, {"is_disabled": 0, "rental_uris": {"android": "https://dc.lft.to/lastmile_qr_scan", "ios": "https://dc.lft.to/lastmile_qr_scan"}, "is_reserved": 0, "name": "a85ae8ce089ec197dc8ba723d024de48", "lon": -77.01453916666667, "type": "electric_scooter", "bike_id": "a85ae8ce089ec197dc8ba723d024de48", "fusion_lon": 0.0, "lat": 38.92987216666667, "fusion_lat": 0.0}, {"is_disabled": 0, "rental_uris": {"android": "https://dc.lft.to/lastmile_qr_scan", "ios": "https://dc.lft.to/lastmile_qr_scan"}, "is_reserved": 0, "name": "de991d2a3ef91c6a4d5449c33051500f", "lon": -77.01771333333333, "type": "electric_scooter", "bike_id": "de991d2a3ef91c6a4d5449c33051500f", "fusion_lon": 0.0, "lat": 38.87712833333333, "fusion_lat": 0.0}, {"is_disabled": 0, "rental_uris": {"android": "https://dc.lft.to/lastmile_qr_scan", "ios": "https://dc.lft.to/lastmile_qr_scan"}, "is_reserved": 0, "name": "4957fc37270200e952eab94890e651ab", "lon": -77.02779316666667, "type": "electric_scooter", "bike_id": "4957fc37270200e952eab94890e651ab", "fusion_lon": 0.0, "lat": 38.96193433333333, "fusion_lat": 0.0}, {"is_disabled": 0, "rental_uris": {"android": "https://dc.lft.to/lastmile_qr_scan", "ios": "https://dc.lft.to/lastmile_qr_scan"}, "is_reserved": 0, "name": "e3491c5b29c4eea722209acb25b7aecc", "lon": -77.04898616666667, "type": "electric_bike", "bike_id": "e3491c5b29c4eea722209acb25b7aecc", "fusion_lon": 0.0, "lat": 38.87493833333333, "fusion_lat": 0.0}, {"is_disabled": 0, "rental_uris": {"android": "https://dc.lft.to/lastmile_qr_scan", "ios": "https://dc.lft.to/lastmile_qr_scan"}, "is_reserved": 0, "name": "f9a8185e754fad5e81fc2846864d86b4", "lon": -77.04204716666666, "type": "electric_scooter", "bike_id": "f9a8185e754fad5e81fc2846864d86b4", "fusion_lon": 0.0, "lat": 38.911246166666665, "fusion_lat": 0.0}, {"is_disabled": 0, "rental_uris": {"android": "https://dc.lft.to/lastmile_qr_scan", "ios": "https://dc.lft.to/lastmile_qr_scan"}, "is_reserved": 0, "name": "5c94796b026b3304f8d02173722d87d7", "lon": -77.0140795, "type": "electric_scooter", "bike_id": "5c94796b026b3304f8d02173722d87d7", "fusion_lon": 0.0, "lat": 38.928039166666665, "fusion_lat": 0.0}, {"is_disabled": 0, "rental_uris": {"android": "https://dc.lft.to/lastmile_qr_scan", "ios": "https://dc.lft.to/lastmile_qr_scan"}, "is_reserved": 0, "name": "01246e598968bf182ef19023edeb2995", "lon": -77.04180383333333, "type": "electric_scooter", "bike_id": "01246e598968bf182ef19023edeb2995", "fusion_lon": 0.0, "lat": 38.915561833333335, "fusion_lat": 0.0}, {"is_disabled": 0, "rental_uris": {"android": "https://dc.lft.to/lastmile_qr_scan", "ios": "https://dc.lft.to/lastmile_qr_scan"}, "is_reserved": 0, "name": "e247e97312d962e830add5d4b98033be", "lon": -76.87495833333334, "type": "electric_bike", "bike_id": "e247e97312d962e830add5d4b98033be", "fusion_lon": 0.0, "lat": 38.99089133333333, "fusion_lat": 0.0}, {"is_disabled": 0, "rental_uris": {"android": "https://dc.lft.to/lastmile_qr_scan", "ios": "https://dc.lft.to/lastmile_qr_scan"}, "is_reserved": 0, "name": "a39936c08d332d530558a24dcb6d5c9f", "lon": -77.03871783333334, "type": "electric_scooter", "bike_id": "a39936c08d332d530558a24dcb6d5c9f", "fusion_lon": 0.0, "lat": 38.92153966666667, "fusion_lat": 0.0}, {"is_disabled": 0, "rental_uris": {"android": "https://dc.lft.to/lastmile_qr_scan", "ios": "https://dc.lft.to/lastmile_qr_scan"}, "is_reserved": 0, "name": "c2a60ef186fe961391c84e95649621f6", "lon": -77.00526883333333, "type": "electric_scooter", "bike_id": "c2a60ef186fe961391c84e95649621f6", "fusion_lon": 0.0, "lat": 38.880525166666665, "fusion_lat": 0.0}, {"is_disabled": 0, "rental_uris": {"android": "https://dc.lft.to/lastmile_qr_scan", "ios": "https://dc.lft.to/lastmile_qr_scan"}, "is_reserved": 0, "name": "7bbcb07c7758650c5df0cf435cd802d6", "lon": -77.03206116666667, "type": "electric_scooter", "bike_id": "7bbcb07c7758650c5df0cf435cd802d6", "fusion_lon": 0.0, "lat": 38.9180395, "fusion_lat": 0.0}, {"is_disabled": 0, "rental_uris": {"android": "https://dc.lft.to/lastmile_qr_scan", "ios": "https://dc.lft.to/lastmile_qr_scan"}, "is_reserved": 0, "name": "1074ec8e0fb630afe4170b487a74d8a2", "lon": -77.0272525, "type": "electric_scooter", "bike_id": "1074ec8e0fb630afe4170b487a74d8a2", "fusion_lon": 0.0, "lat": 38.903458666666666, "fusion_lat": 0.0}, {"is_disabled": 0, "rental_uris": {"android": "https://dc.lft.to/lastmile_qr_scan", "ios": "https://dc.lft.to/lastmile_qr_scan"}, "is_reserved": 0, "name": "8405b4d0bc30be0a5d08867193d4cd42", "lon": -77.04878266666667, "type": "electric_scooter", "bike_id": "8405b4d0bc30be0a5d08867193d4cd42", "fusion_lon": 0.0, "lat": 38.910215, "fusion_lat": 0.0}, {"is_disabled": 0, "rental_uris": {"android": "https://dc.lft.to/lastmile_qr_scan", "ios": "https://dc.lft.to/lastmile_qr_scan"}, "is_reserved": 0, "name": "bc58bd3a5151a9fb379a8ede72aa22dd", "lon": -77.1002515, "type": "electric_bike", "bike_id": "bc58bd3a5151a9fb379a8ede72aa22dd", "fusion_lon": 0.0, "lat": 38.99062133333334, "fusion_lat": 0.0}, {"is_disabled": 0, "rental_uris": {"android": "https://dc.lft.to/lastmile_qr_scan", "ios": "https://dc.lft.to/lastmile_qr_scan"}, "is_reserved": 0, "name": "7f3171722b8aee92cf9e0d8ce6d8a449", "lon": -77.05506483333333, "type": "electric_scooter", "bike_id": "7f3171722b8aee92cf9e0d8ce6d8a449", "fusion_lon": 0.0, "lat": 38.92978383333333, "fusion_lat": 0.0}, {"is_disabled": 0, "rental_uris": {"android": "https://dc.lft.to/lastmile_qr_scan", "ios": "https://dc.lft.to/lastmile_qr_scan"}, "is_reserved": 0, "name": "2f3c1fa1c4338ee9c4190f7d38abf259", "lon": -77.02825933333334, "type": "electric_scooter", "bike_id": "2f3c1fa1c4338ee9c4190f7d38abf259", "fusion_lon": 0.0, "lat": 38.9046265, "fusion_lat": 0.0}, {"is_disabled": 0, "rental_uris": {"android": "https://dc.lft.to/lastmile_qr_scan", "ios": "https://dc.lft.to/lastmile_qr_scan"}, "is_reserved": 0, "name": "b2df56f9a3c3023c4d29d75dcb2f88c4", "lon": -77.02157583333333, "type": "electric_scooter", "bike_id": "b2df56f9a3c3023c4d29d75dcb2f88c4", "fusion_lon": 0.0, "lat": 38.926073, "fusion_lat": 0.0}, {"is_disabled": 0, "rental_uris": {"android": "https://dc.lft.to/lastmile_qr_scan", "ios": "https://dc.lft.to/lastmile_qr_scan"}, "is_reserved": 0, "name": "6d989b07c85235623b44f6771ebe9adb", "lon": -77.01902633333333, "type": "electric_scooter", "bike_id": "6d989b07c85235623b44f6771ebe9adb", "fusion_lon": 0.0, "lat": 38.911968, "fusion_lat": 0.0}, {"is_disabled": 0, "rental_uris": {"android": "https://dc.lft.to/lastmile_qr_scan", "ios": "https://dc.lft.to/lastmile_qr_scan"}, "is_reserved": 0, "name": "032213d4d28c1bb08cb389c47f5d498e", "lon": -77.03817183333334, "type": "electric_scooter", "bike_id": "032213d4d28c1bb08cb389c47f5d498e", "fusion_lon": 0.0, "lat": 38.91503933333333, "fusion_lat": 0.0}, {"is_disabled": 0, "rental_uris": {"android": "https://dc.lft.to/lastmile_qr_scan", "ios": "https://dc.lft.to/lastmile_qr_scan"}, "is_reserved": 0, "name": "faa05b19db1be703ba05209222cec15c", "lon": -77.03516616666667, "type": "electric_scooter", "bike_id": "faa05b19db1be703ba05209222cec15c", "fusion_lon": 0.0, "lat": 38.9214125, "fusion_lat": 0.0}, {"is_disabled": 0, "rental_uris": {"android": "https://dc.lft.to/lastmile_qr_scan", "ios": "https://dc.lft.to/lastmile_qr_scan"}, "is_reserved": 0, "name": "f21df1eb82b930fd51dccc8412116f89", "lon": -76.954044, "type": "electric_scooter", "bike_id": "f21df1eb82b930fd51dccc8412116f89", "fusion_lon": 0.0, "lat": 38.883967166666665, "fusion_lat": 0.0}, {"is_disabled": 0, "rental_uris": {"android": "https://dc.lft.to/lastmile_qr_scan", "ios": "https://dc.lft.to/lastmile_qr_scan"}, "is_reserved": 0, "name": "e5b55a36898cbece8f1679557cb017f5", "lon": -77.025172, "type": "electric_scooter", "bike_id": "e5b55a36898cbece8f1679557cb017f5", "fusion_lon": 0.0, "lat": 38.91929916666667, "fusion_lat": 0.0}, {"is_disabled": 0, "rental_uris": {"android": "https://dc.lft.to/lastmile_qr_scan", "ios": "https://dc.lft.to/lastmile_qr_scan"}, "is_reserved": 0, "name": "836006fffd143ffdc6c98ad5675d800f", "lon": -77.0283455, "type": "electric_scooter", "bike_id": "836006fffd143ffdc6c98ad5675d800f", "fusion_lon": 0.0, "lat": 38.931912833333335, "fusion_lat": 0.0}, {"is_disabled": 0, "rental_uris": {"android": "https://dc.lft.to/lastmile_qr_scan", "ios": "https://dc.lft.to/lastmile_qr_scan"}, "is_reserved": 0, "name": "8e2992590cdaeaa23363d2aff22e7ec2", "lon": -77.00370966666667, "type": "electric_scooter", "bike_id": "8e2992590cdaeaa23363d2aff22e7ec2", "fusion_lon": 0.0, "lat": 38.877581666666664, "fusion_lat": 0.0}, {"is_disabled": 0, "rental_uris": {"android": "https://dc.lft.to/lastmile_qr_scan", "ios": "https://dc.lft.to/lastmile_qr_scan"}, "is_reserved": 0, "name": "1c6d10f8d78d7fe29c684aa19bfa61f0", "lon": -77.03586816666666, "type": "electric_scooter", "bike_id": "1c6d10f8d78d7fe29c684aa19bfa61f0", "fusion_lon": 0.0, "lat": 38.90768383333333, "fusion_lat": 0.0}, {"is_disabled": 0, "rental_uris": {"android": "https://dc.lft.to/lastmile_qr_scan", "ios": "https://dc.lft.to/lastmile_qr_scan"}, "is_reserved": 0, "name": "5a6232a0f6779e554677ac3a153628c7", "lon": -77.17796016666667, "type": "electric_bike", "bike_id": "5a6232a0f6779e554677ac3a153628c7", "fusion_lon": 0.0, "lat": 39.08842516666667, "fusion_lat": 0.0}, {"is_disabled": 0, "rental_uris": {"android": "https://dc.lft.to/lastmile_qr_scan", "ios": "https://dc.lft.to/lastmile_qr_scan"}, "is_reserved": 0, "name": "be5f82df3fd3a2d67af05a8283b4fc29", "lon": -77.05122816666666, "type": "electric_scooter", "bike_id": "be5f82df3fd3a2d67af05a8283b4fc29", "fusion_lon": 0.0, "lat": 38.92342266666667, "fusion_lat": 0.0}, {"is_disabled": 0, "rental_uris": {"android": "https://dc.lft.to/lastmile_qr_scan", "ios": "https://dc.lft.to/lastmile_qr_scan"}, "is_reserved": 0, "name": "d2b2cf5479e1ec9795a48e958dd96eb4", "lon": -76.98907183333333, "type": "electric_scooter", "bike_id": "d2b2cf5479e1ec9795a48e958dd96eb4", "fusion_lon": 0.0, "lat": 38.86676716666667, "fusion_lat": 0.0}, {"is_disabled": 0, "rental_uris": {"android": "https://dc.lft.to/lastmile_qr_scan", "ios": "https://dc.lft.to/lastmile_qr_scan"}, "is_reserved": 0, "name": "35d0d31d0752bc7dcb44e8de70571aae", "lon": -77.05002483333334, "type": "electric_scooter", "bike_id": "35d0d31d0752bc7dcb44e8de70571aae", "fusion_lon": 0.0, "lat": 38.897827166666666, "fusion_lat": 0.0}, {"is_disabled": 0, "rental_uris": {"android": "https://dc.lft.to/lastmile_qr_scan", "ios": "https://dc.lft.to/lastmile_qr_scan"}, "is_reserved": 0, "name": "9e4f534af4446e1f797dabf9edecb4bd", "lon": -77.02915533333334, "type": "electric_bike", "bike_id": "9e4f534af4446e1f797dabf9edecb4bd", "fusion_lon": 0.0, "lat": 38.9056075, "fusion_lat": 0.0}, {"is_disabled": 0, "rental_uris": {"android": "https://dc.lft.to/lastmile_qr_scan", "ios": "https://dc.lft.to/lastmile_qr_scan"}, "is_reserved": 0, "name": "ce5201fb499e7a45c292d7385b22fe93", "lon": -77.03260466666667, "type": "electric_scooter", "bike_id": "ce5201fb499e7a45c292d7385b22fe93", "fusion_lon": 0.0, "lat": 38.91347583333334, "fusion_lat": 0.0}, {"is_disabled": 0, "rental_uris": {"android": "https://dc.lft.to/lastmile_qr_scan", "ios": "https://dc.lft.to/lastmile_qr_scan"}, "is_reserved": 0, "name": "8d0440ebc6c75d818d1cb6e853cb2163", "lon": -77.03287666666667, "type": "electric_scooter", "bike_id": "8d0440ebc6c75d818d1cb6e853cb2163", "fusion_lon": 0.0, "lat": 38.920497166666664, "fusion_lat": 0.0}, {"is_disabled": 0, "rental_uris": {"android": "https://dc.lft.to/lastmile_qr_scan", "ios": "https://dc.lft.to/lastmile_qr_scan"}, "is_reserved": 0, "name": "a5e17b362121f9271e0e20137e18c64b", "lon": -76.990045, "type": "electric_scooter", "bike_id": "a5e17b362121f9271e0e20137e18c64b", "fusion_lon": 0.0, "lat": 38.86507983333333, "fusion_lat": 0.0}, {"is_disabled": 0, "rental_uris": {"android": "https://dc.lft.to/lastmile_qr_scan", "ios": "https://dc.lft.to/lastmile_qr_scan"}, "is_reserved": 0, "name": "daf4604a4befc482bb89cb3ca0b403a3", "lon": -77.04327316666667, "type": "electric_scooter", "bike_id": "daf4604a4befc482bb89cb3ca0b403a3", "fusion_lon": 0.0, "lat": 38.898213, "fusion_lat": 0.0}, {"is_disabled": 0, "rental_uris": {"android": "https://dc.lft.to/lastmile_qr_scan", "ios": "https://dc.lft.to/lastmile_qr_scan"}, "is_reserved": 0, "name": "3009866703231bb30f972ff968a6e17b", "lon": -76.996331, "type": "electric_scooter", "bike_id": "3009866703231bb30f972ff968a6e17b", "fusion_lon": 0.0, "lat": 38.90034216666667, "fusion_lat": 0.0}, {"is_disabled": 0, "rental_uris": {"android": "https://dc.lft.to/lastmile_qr_scan", "ios": "https://dc.lft.to/lastmile_qr_scan"}, "is_reserved": 0, "name": "87418599eac02a294770c62bf75d6e97", "lon": -76.99635766666667, "type": "electric_scooter", "bike_id": "87418599eac02a294770c62bf75d6e97", "fusion_lon": 0.0, "lat": 38.9003435, "fusion_lat": 0.0}, {"is_disabled": 0, "rental_uris": {"android": "https://dc.lft.to/lastmile_qr_scan", "ios": "https://dc.lft.to/lastmile_qr_scan"}, "is_reserved": 0, "name": "8028a7ef6e0ce576fff78f46734dfd9b", "lon": -77.03516016666667, "type": "electric_bike", "bike_id": "8028a7ef6e0ce576fff78f46734dfd9b", "fusion_lon": 0.0, "lat": 38.9360155, "fusion_lat": 0.0}, {"is_disabled": 0, "rental_uris": {"android": "https://dc.lft.to/lastmile_qr_scan", "ios": "https://dc.lft.to/lastmile_qr_scan"}, "is_reserved": 0, "name": "3d227887b673d74c3c4ebd28e3514896", "lon": -77.0450435, "type": "electric_scooter", "bike_id": "3d227887b673d74c3c4ebd28e3514896", "fusion_lon": 0.0, "lat": 38.92140333333333, "fusion_lat": 0.0}, {"is_disabled": 0, "rental_uris": {"android": "https://dc.lft.to/lastmile_qr_scan", "ios": "https://dc.lft.to/lastmile_qr_scan"}, "is_reserved": 0, "name": "a0e0b05152d26bc94de3601cc46ec10a", "lon": -76.989928, "type": "electric_scooter", "bike_id": "a0e0b05152d26bc94de3601cc46ec10a", "fusion_lon": 0.0, "lat": 38.86431, "fusion_lat": 0.0}, {"is_disabled": 0, "rental_uris": {"android": "https://dc.lft.to/lastmile_qr_scan", "ios": "https://dc.lft.to/lastmile_qr_scan"}, "is_reserved": 0, "name": "76392fe5bcf0ed911fac85b6e366f5d7", "lon": -77.0386965, "type": "electric_scooter", "bike_id": "76392fe5bcf0ed911fac85b6e366f5d7", "fusion_lon": 0.0, "lat": 38.92155783333333, "fusion_lat": 0.0}, {"is_disabled": 0, "rental_uris": {"android": "https://dc.lft.to/lastmile_qr_scan", "ios": "https://dc.lft.to/lastmile_qr_scan"}, "is_reserved": 0, "name": "da4f5c1df582e6ced3d32698dd530863", "lon": -77.05138316666667, "type": "electric_scooter", "bike_id": "da4f5c1df582e6ced3d32698dd530863", "fusion_lon": 0.0, "lat": 38.897745666666665, "fusion_lat": 0.0}, {"is_disabled": 0, "rental_uris": {"android": "https://dc.lft.to/lastmile_qr_scan", "ios": "https://dc.lft.to/lastmile_qr_scan"}, "is_reserved": 0, "name": "559f88a126d70acebd8928fccaddb173", "lon": -77.03169983333333, "type": "electric_scooter", "bike_id": "559f88a126d70acebd8928fccaddb173", "fusion_lon": 0.0, "lat": 38.893690666666664, "fusion_lat": 0.0}, {"is_disabled": 0, "rental_uris": {"android": "https://dc.lft.to/lastmile_qr_scan", "ios": "https://dc.lft.to/lastmile_qr_scan"}, "is_reserved": 0, "name": "e513cfdf64e9620a2c9ac6a4469c3a64", "lon": -77.03848983333333, "type": "electric_scooter", "bike_id": "e513cfdf64e9620a2c9ac6a4469c3a64", "fusion_lon": 0.0, "lat": 38.921655, "fusion_lat": 0.0}, {"is_disabled": 0, "rental_uris": {"android": "https://dc.lft.to/lastmile_qr_scan", "ios": "https://dc.lft.to/lastmile_qr_scan"}, "is_reserved": 0, "name": "170449cab1d47f2220e683f755a624d5", "lon": -77.0419525, "type": "electric_scooter", "bike_id": "170449cab1d47f2220e683f755a624d5", "fusion_lon": 0.0, "lat": 38.9262455, "fusion_lat": 0.0}, {"is_disabled": 0, "rental_uris": {"android": "https://dc.lft.to/lastmile_qr_scan", "ios": "https://dc.lft.to/lastmile_qr_scan"}, "is_reserved": 0, "name": "15c5048dbed328db4daae961b17973fc", "lon": -77.04315333333334, "type": "electric_scooter", "bike_id": "15c5048dbed328db4daae961b17973fc", "fusion_lon": 0.0, "lat": 38.91872883333333, "fusion_lat": 0.0}, {"is_disabled": 0, "rental_uris": {"android": "https://dc.lft.to/lastmile_qr_scan", "ios": "https://dc.lft.to/lastmile_qr_scan"}, "is_reserved": 0, "name": "feaa61c82a3b42d3208da02f6adb3411", "lon": -77.03128416666667, "type": "electric_scooter", "bike_id": "feaa61c82a3b42d3208da02f6adb3411", "fusion_lon": 0.0, "lat": 38.9238795, "fusion_lat": 0.0}, {"is_disabled": 0, "rental_uris": {"android": "https://dc.lft.to/lastmile_qr_scan", "ios": "https://dc.lft.to/lastmile_qr_scan"}, "is_reserved": 0, "name": "0b90fbf38b4fb2e983f7f0c664b2c0fd", "lon": -77.05757833333334, "type": "electric_bike", "bike_id": "0b90fbf38b4fb2e983f7f0c664b2c0fd", "fusion_lon": 0.0, "lat": 38.92432866666667, "fusion_lat": 0.0}, {"is_disabled": 0, "rental_uris": {"android": "https://dc.lft.to/lastmile_qr_scan", "ios": "https://dc.lft.to/lastmile_qr_scan"}, "is_reserved": 0, "name": "e72a2a4bfbfed9990fc0ff3671e10721", "lon": -76.946356, "type": "electric_scooter", "bike_id": "e72a2a4bfbfed9990fc0ff3671e10721", "fusion_lon": 0.0, "lat": 38.898432666666665, "fusion_lat": 0.0}, {"is_disabled": 0, "rental_uris": {"android": "https://dc.lft.to/lastmile_qr_scan", "ios": "https://dc.lft.to/lastmile_qr_scan"}, "is_reserved": 0, "name": "85dae689ae38cc23abd9abf7f7472d7d", "lon": -77.02415333333333, "type": "electric_scooter", "bike_id": "85dae689ae38cc23abd9abf7f7472d7d", "fusion_lon": 0.0, "lat": 38.91255833333334, "fusion_lat": 0.0}, {"is_disabled": 0, "rental_uris": {"android": "https://dc.lft.to/lastmile_qr_scan", "ios": "https://dc.lft.to/lastmile_qr_scan"}, "is_reserved": 0, "name": "f29d78705276b08639234326cfa8feb2", "lon": -77.04996866666667, "type": "electric_scooter", "bike_id": "f29d78705276b08639234326cfa8feb2", "fusion_lon": 0.0, "lat": 38.897267, "fusion_lat": 0.0}, {"is_disabled": 0, "rental_uris": {"android": "https://dc.lft.to/lastmile_qr_scan", "ios": "https://dc.lft.to/lastmile_qr_scan"}, "is_reserved": 0, "name": "a94ebf1efe888a382058f9aa89874f22", "lon": -77.05053166666667, "type": "electric_scooter", "bike_id": "a94ebf1efe888a382058f9aa89874f22", "fusion_lon": 0.0, "lat": 38.91667366666667, "fusion_lat": 0.0}, {"is_disabled": 0, "rental_uris": {"android": "https://dc.lft.to/lastmile_qr_scan", "ios": "https://dc.lft.to/lastmile_qr_scan"}, "is_reserved": 0, "name": "e20427d001790def4c8aba3ff9904bd9", "lon": -77.00921816666667, "type": "electric_bike", "bike_id": "e20427d001790def4c8aba3ff9904bd9", "fusion_lon": 0.0, "lat": 38.978461333333335, "fusion_lat": 0.0}, {"is_disabled": 0, "rental_uris": {"android": "https://dc.lft.to/lastmile_qr_scan", "ios": "https://dc.lft.to/lastmile_qr_scan"}, "is_reserved": 0, "name": "64f15bc4461d91a3a2aae2ee43765900", "lon": -77.0330405, "type": "electric_scooter", "bike_id": "64f15bc4461d91a3a2aae2ee43765900", "fusion_lon": 0.0, "lat": 38.91812566666667, "fusion_lat": 0.0}, {"is_disabled": 0, "rental_uris": {"android": "https://dc.lft.to/lastmile_qr_scan", "ios": "https://dc.lft.to/lastmile_qr_scan"}, "is_reserved": 0, "name": "0372bbf7be1f8f82ef19464be9d96a3d", "lon": -77.02697883333333, "type": "electric_scooter", "bike_id": "0372bbf7be1f8f82ef19464be9d96a3d", "fusion_lon": 0.0, "lat": 38.93636733333334, "fusion_lat": 0.0}, {"is_disabled": 0, "rental_uris": {"android": "https://dc.lft.to/lastmile_qr_scan", "ios": "https://dc.lft.to/lastmile_qr_scan"}, "is_reserved": 0, "name": "81bfdc954c1c43f746c965931328d61f", "lon": -77.02273283333334, "type": "electric_scooter", "bike_id": "81bfdc954c1c43f746c965931328d61f", "fusion_lon": 0.0, "lat": 38.912806833333335, "fusion_lat": 0.0}, {"is_disabled": 0, "rental_uris": {"android": "https://dc.lft.to/lastmile_qr_scan", "ios": "https://dc.lft.to/lastmile_qr_scan"}, "is_reserved": 0, "name": "d36bd63ca32c725b29bb9f147cc52814", "lon": -77.011101, "type": "electric_scooter", "bike_id": "d36bd63ca32c725b29bb9f147cc52814", "fusion_lon": 0.0, "lat": 38.90364533333333, "fusion_lat": 0.0}, {"is_disabled": 0, "rental_uris": {"android": "https://dc.lft.to/lastmile_qr_scan", "ios": "https://dc.lft.to/lastmile_qr_scan"}, "is_reserved": 0, "name": "7c03e5c6832603fabd7a8d1d1bffbf38", "lon": -77.0853225, "type": "electric_bike", "bike_id": "7c03e5c6832603fabd7a8d1d1bffbf38", "fusion_lon": 0.0, "lat": 38.856507, "fusion_lat": 0.0}, {"is_disabled": 0, "rental_uris": {"android": "https://dc.lft.to/lastmile_qr_scan", "ios": "https://dc.lft.to/lastmile_qr_scan"}, "is_reserved": 0, "name": "efd07c08c9dcbc05036d6cd9cb36b1db", "lon": -77.02432116666667, "type": "electric_scooter", "bike_id": "efd07c08c9dcbc05036d6cd9cb36b1db", "fusion_lon": 0.0, "lat": 38.912486666666666, "fusion_lat": 0.0}, {"is_disabled": 0, "rental_uris": {"android": "https://dc.lft.to/lastmile_qr_scan", "ios": "https://dc.lft.to/lastmile_qr_scan"}, "is_reserved": 0, "name": "1267e44c5a140ceaffc8d919ae9e8f67", "lon": -77.03155866666667, "type": "electric_scooter", "bike_id": "1267e44c5a140ceaffc8d919ae9e8f67", "fusion_lon": 0.0, "lat": 38.887524166666665, "fusion_lat": 0.0}, {"is_disabled": 0, "rental_uris": {"android": "https://dc.lft.to/lastmile_qr_scan", "ios": "https://dc.lft.to/lastmile_qr_scan"}, "is_reserved": 0, "name": "544c2fe74df642023a591f0e336232ea", "lon": -77.02721716666667, "type": "electric_scooter", "bike_id": "544c2fe74df642023a591f0e336232ea", "fusion_lon": 0.0, "lat": 38.908542833333335, "fusion_lat": 0.0}, {"is_disabled": 0, "rental_uris": {"android": "https://dc.lft.to/lastmile_qr_scan", "ios": "https://dc.lft.to/lastmile_qr_scan"}, "is_reserved": 0, "name": "bf4b4ef8b1cf2d655f343f7c93c0207e", "lon": -77.00196733333334, "type": "electric_scooter", "bike_id": "bf4b4ef8b1cf2d655f343f7c93c0207e", "fusion_lon": 0.0, "lat": 38.90031483333333, "fusion_lat": 0.0}, {"is_disabled": 0, "rental_uris": {"android": "https://dc.lft.to/lastmile_qr_scan", "ios": "https://dc.lft.to/lastmile_qr_scan"}, "is_reserved": 0, "name": "bdb575e85a4b75d7c3b45f346e0c0b82", "lon": -77.04175866666667, "type": "electric_scooter", "bike_id": "bdb575e85a4b75d7c3b45f346e0c0b82", "fusion_lon": 0.0, "lat": 38.914941, "fusion_lat": 0.0}, {"is_disabled": 0, "rental_uris": {"android": "https://dc.lft.to/lastmile_qr_scan", "ios": "https://dc.lft.to/lastmile_qr_scan"}, "is_reserved": 0, "name": "840087df4a89ecf58688003d9a7a6bad", "lon": -77.04201883333333, "type": "electric_scooter", "bike_id": "840087df4a89ecf58688003d9a7a6bad", "fusion_lon": 0.0, "lat": 38.92963966666667, "fusion_lat": 0.0}, {"is_disabled": 0, "rental_uris": {"android": "https://dc.lft.to/lastmile_qr_scan", "ios": "https://dc.lft.to/lastmile_qr_scan"}, "is_reserved": 0, "name": "a2812f6caacb0c1f35a6ba149b95b3a6", "lon": -77.041629, "type": "electric_scooter", "bike_id": "a2812f6caacb0c1f35a6ba149b95b3a6", "fusion_lon": 0.0, "lat": 38.91030083333333, "fusion_lat": 0.0}, {"is_disabled": 0, "rental_uris": {"android": "https://dc.lft.to/lastmile_qr_scan", "ios": "https://dc.lft.to/lastmile_qr_scan"}, "is_reserved": 0, "name": "db26ccc03a07fe39f9b443f0e0e481b9", "lon": -77.05294483333333, "type": "electric_scooter", "bike_id": "db26ccc03a07fe39f9b443f0e0e481b9", "fusion_lon": 0.0, "lat": 38.9035025, "fusion_lat": 0.0}, {"is_disabled": 0, "rental_uris": {"android": "https://dc.lft.to/lastmile_qr_scan", "ios": "https://dc.lft.to/lastmile_qr_scan"}, "is_reserved": 0, "name": "e4c5a5201690b78dc924247483d472c7", "lon": -77.05249933333333, "type": "electric_scooter", "bike_id": "e4c5a5201690b78dc924247483d472c7", "fusion_lon": 0.0, "lat": 38.927329666666665, "fusion_lat": 0.0}, {"is_disabled": 0, "rental_uris": {"android": "https://dc.lft.to/lastmile_qr_scan", "ios": "https://dc.lft.to/lastmile_qr_scan"}, "is_reserved": 0, "name": "8854aa982e7e2094adc8b154b36c235f", "lon": -77.02264633333333, "type": "electric_scooter", "bike_id": "8854aa982e7e2094adc8b154b36c235f", "fusion_lon": 0.0, "lat": 38.927426833333335, "fusion_lat": 0.0}, {"is_disabled": 0, "rental_uris": {"android": "https://dc.lft.to/lastmile_qr_scan", "ios": "https://dc.lft.to/lastmile_qr_scan"}, "is_reserved": 0, "name": "07d46dab193d2d97c326dea4af0e32c3", "lon": -77.01657516666667, "type": "electric_bike", "bike_id": "07d46dab193d2d97c326dea4af0e32c3", "fusion_lon": 0.0, "lat": 38.9543175, "fusion_lat": 0.0}, {"is_disabled": 0, "rental_uris": {"android": "https://dc.lft.to/lastmile_qr_scan", "ios": "https://dc.lft.to/lastmile_qr_scan"}, "is_reserved": 0, "name": "2d92c2ec9438d9d814f0a86c088ca602", "lon": -77.03266883333333, "type": "electric_scooter", "bike_id": "2d92c2ec9438d9d814f0a86c088ca602", "fusion_lon": 0.0, "lat": 38.9332915, "fusion_lat": 0.0}, {"is_disabled": 0, "rental_uris": {"android": "https://dc.lft.to/lastmile_qr_scan", "ios": "https://dc.lft.to/lastmile_qr_scan"}, "is_reserved": 0, "name": "45bd9f803a90f19cd4f359a80bf240c9", "lon": -76.98711733333333, "type": "electric_scooter", "bike_id": "45bd9f803a90f19cd4f359a80bf240c9", "fusion_lon": 0.0, "lat": 38.866990666666666, "fusion_lat": 0.0}, {"is_disabled": 0, "rental_uris": {"android": "https://dc.lft.to/lastmile_qr_scan", "ios": "https://dc.lft.to/lastmile_qr_scan"}, "is_reserved": 0, "name": "a8fa1c3a7f873b03fdb3e1949cc5e0bc", "lon": -77.00598316666667, "type": "electric_scooter", "bike_id": "a8fa1c3a7f873b03fdb3e1949cc5e0bc", "fusion_lon": 0.0, "lat": 38.9054585, "fusion_lat": 0.0}, {"is_disabled": 0, "rental_uris": {"android": "https://dc.lft.to/lastmile_qr_scan", "ios": "https://dc.lft.to/lastmile_qr_scan"}, "is_reserved": 0, "name": "393ea9991991fb98328a02e9c11b1f39", "lon": -77.009205, "type": "electric_scooter", "bike_id": "393ea9991991fb98328a02e9c11b1f39", "fusion_lon": 0.0, "lat": 38.89784266666667, "fusion_lat": 0.0}, {"is_disabled": 0, "rental_uris": {"android": "https://dc.lft.to/lastmile_qr_scan", "ios": "https://dc.lft.to/lastmile_qr_scan"}, "is_reserved": 0, "name": "05475123731703f36969e1ea0f6c1278", "lon": -77.0269345, "type": "electric_scooter", "bike_id": "05475123731703f36969e1ea0f6c1278", "fusion_lon": 0.0, "lat": 38.90736183333333, "fusion_lat": 0.0}, {"is_disabled": 0, "rental_uris": {"android": "https://dc.lft.to/lastmile_qr_scan", "ios": "https://dc.lft.to/lastmile_qr_scan"}, "is_reserved": 0, "name": "af114e5bc6c592f1f78e32376da16797", "lon": -77.04411516666667, "type": "electric_scooter", "bike_id": "af114e5bc6c592f1f78e32376da16797", "fusion_lon": 0.0, "lat": 38.900527, "fusion_lat": 0.0}, {"is_disabled": 0, "rental_uris": {"android": "https://dc.lft.to/lastmile_qr_scan", "ios": "https://dc.lft.to/lastmile_qr_scan"}, "is_reserved": 0, "name": "6243a3d338de83a69d2c644a3ca957e0", "lon": -77.00146116666667, "type": "electric_scooter", "bike_id": "6243a3d338de83a69d2c644a3ca957e0", "fusion_lon": 0.0, "lat": 38.910745166666665, "fusion_lat": 0.0}, {"is_disabled": 0, "rental_uris": {"android": "https://dc.lft.to/lastmile_qr_scan", "ios": "https://dc.lft.to/lastmile_qr_scan"}, "is_reserved": 0, "name": "fb05508e957c04229962193098df43ec", "lon": -77.03275483333333, "type": "electric_scooter", "bike_id": "fb05508e957c04229962193098df43ec", "fusion_lon": 0.0, "lat": 38.93250233333333, "fusion_lat": 0.0}, {"is_disabled": 0, "rental_uris": {"android": "https://dc.lft.to/lastmile_qr_scan", "ios": "https://dc.lft.to/lastmile_qr_scan"}, "is_reserved": 0, "name": "570fda16faaadc9ea36b8d7b3e073139", "lon": -77.06345216666666, "type": "electric_scooter", "bike_id": "570fda16faaadc9ea36b8d7b3e073139", "fusion_lon": 0.0, "lat": 38.94437116666667, "fusion_lat": 0.0}, {"is_disabled": 0, "rental_uris": {"android": "https://dc.lft.to/lastmile_qr_scan", "ios": "https://dc.lft.to/lastmile_qr_scan"}, "is_reserved": 0, "name": "88a869723ae4be655d65db1d3114bc65", "lon": -77.021605, "type": "electric_scooter", "bike_id": "88a869723ae4be655d65db1d3114bc65", "fusion_lon": 0.0, "lat": 38.899728333333336, "fusion_lat": 0.0}, {"is_disabled": 0, "rental_uris": {"android": "https://dc.lft.to/lastmile_qr_scan", "ios": "https://dc.lft.to/lastmile_qr_scan"}, "is_reserved": 0, "name": "eb36ed7b2a64efaaf82c033ebc40a681", "lon": -77.03151133333333, "type": "electric_scooter", "bike_id": "eb36ed7b2a64efaaf82c033ebc40a681", "fusion_lon": 0.0, "lat": 38.8874525, "fusion_lat": 0.0}, {"is_disabled": 0, "rental_uris": {"android": "https://dc.lft.to/lastmile_qr_scan", "ios": "https://dc.lft.to/lastmile_qr_scan"}, "is_reserved": 0, "name": "72ca0107149f5df8516931376a35066a", "lon": -77.04848883333334, "type": "electric_scooter", "bike_id": "72ca0107149f5df8516931376a35066a", "fusion_lon": 0.0, "lat": 38.9043405, "fusion_lat": 0.0}, {"is_disabled": 0, "rental_uris": {"android": "https://dc.lft.to/lastmile_qr_scan", "ios": "https://dc.lft.to/lastmile_qr_scan"}, "is_reserved": 0, "name": "3b396405c7623b00841fa745d084085a", "lon": -76.92829983333333, "type": "electric_scooter", "bike_id": "3b396405c7623b00841fa745d084085a", "fusion_lon": 0.0, "lat": 38.9017545, "fusion_lat": 0.0}, {"is_disabled": 0, "rental_uris": {"android": "https://dc.lft.to/lastmile_qr_scan", "ios": "https://dc.lft.to/lastmile_qr_scan"},