{"data": {"bikes": [{"bike_id": "8012fffcc012c5bd4b786ed76c62deb4", "type": "electric_scooter", "is_disabled": 0, "lat": 38.90686783333334, "rental_uris": {"ios": "https://dc.lft.to/lastmile_qr_scan", "android": "https://dc.lft.to/lastmile_qr_scan"}, "is_reserved": 0, "fusion_lon": 0.0, "fusion_lat": 0.0, "lon": -77.026871, "name": "8012fffcc012c5bd4b786ed76c62deb4"}, {"bike_id": "1c425925e8d63deccda6fb16b7971b45", "type": "electric_scooter", "is_disabled": 0, "lat": 38.909533333333336, "rental_uris": {"ios": "https://dc.lft.to/lastmile_qr_scan", "android": "https://dc.lft.to/lastmile_qr_scan"}, "is_reserved": 0, "fusion_lon": 0.0, "fusion_lat": 0.0, "lon": -77.03939733333333, "name": "1c425925e8d63deccda6fb16b7971b45"}, {"bike_id": "38fc292f7aef865d5467cb10baa15340", "type": "electric_bike", "is_disabled": 0, "lat": 38.8548925, "rental_uris": {"ios": "https://dc.lft.to/lastmile_qr_scan", "android": "https://dc.lft.to/lastmile_qr_scan"}, "is_reserved": 0, "fusion_lon": 0.0, "fusion_lat": 0.0, "lon": -77.116122, "name": "38fc292f7aef865d5467cb10baa15340"}, {"bike_id": "17a1c90d3c4876c2a809bcfc3c2c2c3e", "type": "electric_scooter", "is_disabled": 0, "lat": 38.92546683333333, "rental_uris": {"ios": "https://dc.lft.to/lastmile_qr_scan", "android": "https://dc.lft.to/lastmile_qr_scan"}, "is_reserved": 0, "fusion_lon": 0.0, "fusion_lat": 0.0, "lon": -77.05278916666667, "name": "17a1c90d3c4876c2a809bcfc3c2c2c3e"}, {"bike_id": "d0a8ef8c03e2b52d71647d9e0814fb95", "type": "electric_scooter", "is_disabled": 0, "lat": 38.909561833333335, "rental_uris": {"ios": "https://dc.lft.to/lastmile_qr_scan", "android": "https://dc.lft.to/lastmile_qr_scan"}, "is_reserved": 0, "fusion_lon": 0.0, "fusion_lat": 0.0, "lon": -77.04871466666667, "name": "d0a8ef8c03e2b52d71647d9e0814fb95"}, {"bike_id": "165614bee3a6aa545e51b0e159eea54f", "type": "electric_scooter", "is_disabled": 0, "lat": 38.9201115, "rental_uris": {"ios": "https://dc.lft.to/lastmile_qr_scan", "android": "https://dc.lft.to/lastmile_qr_scan"}, "is_reserved": 0, "fusion_lon": 0.0, "fusion_lat": 0.0, "lon": -77.023917, "name": "165614bee3a6aa545e51b0e159eea54f"}, {"bike_id": "3b1590a06aabd3345687d6b21e33acdc", "type": "electric_scooter", "is_disabled": 0, "lat": 38.8953295, "rental_uris": {"ios": "https://dc.lft.to/lastmile_qr_scan", "android": "https://dc.lft.to/lastmile_qr_scan"}, "is_reserved": 0, "fusion_lon": 0.0, "fusion_lat": 0.0, "lon": -76.9947655, "name": "3b1590a06aabd3345687d6b21e33acdc"}, {"bike_id": "f64e11bf4119c8a5e3442508e6771757", "type": "electric_scooter", "is_disabled": 0, "lat": 38.91868683333333, "rental_uris": {"ios": "https://dc.lft.to/lastmile_qr_scan", "android": "https://dc.lft.to/lastmile_qr_scan"}, "is_reserved": 0, "fusion_lon": 0.0, "fusion_lat": 0.0, "lon": -77.0702275, "name": "f64e11bf4119c8a5e3442508e6771757"}, {"bike_id": "e14144aa2acc2b6ae5e4c01e11725978", "type": "electric_scooter", "is_disabled": 0, "lat": 38.90024116666667, "rental_uris": {"ios": "https://dc.lft.to/lastmile_qr_scan", "android": "https://dc.lft.to/lastmile_qr_scan"}, "is_reserved": 0, "fusion_lon": 0.0, "fusion_lat": 0.0, "lon": -77.03434416666667, "name": "e14144aa2acc2b6ae5e4c01e11725978"}, {"bike_id": "239fc3cc9f2d49598ac13fe234934f0d", "type": "electric_bike", "is_disabled": 0, "lat": 38.85511783333333, "rental_uris": {"ios": "https://dc.lft.to/lastmile_qr_scan", "android": "https://dc.lft.to/lastmile_qr_scan"}, "is_reserved": 0, "fusion_lon": 0.0, "fusion_lat": 0.0, "lon": -77.120263, "name": "239fc3cc9f2d49598ac13fe234934f0d"}, {"bike_id": "b496d87e3318393d2a9251455381d60d", "type": "electric_bike", "is_disabled": 0, "lat": 38.993273, "rental_uris": {"ios": "https://dc.lft.to/lastmile_qr_scan", "android": "https://dc.lft.to/lastmile_qr_scan"}, "is_reserved": 0, "fusion_lon": 0.0, "fusion_lat": 0.0, "lon": -76.94614466666667, "name": "b496d87e3318393d2a9251455381d60d"}, {"bike_id": "404453ee52a753592a21bdb286705938", "type": "electric_scooter", "is_disabled": 0, "lat": 38.913988833333335, "rental_uris": {"ios": "https://dc.lft.to/lastmile_qr_scan", "android": "https://dc.lft.to/lastmile_qr_scan"}, "is_reserved": 0, "fusion_lon": 0.0, "fusion_lat": 0.0, "lon": -76.98192733333333, "name": "404453ee52a753592a21bdb286705938"}, {"bike_id": "2827dee283610e36d79f32c647895dd1", "type": "electric_scooter", "is_disabled": 0, "lat": 38.93578483333334, "rental_uris": {"ios": "https://dc.lft.to/lastmile_qr_scan", "android": "https://dc.lft.to/lastmile_qr_scan"}, "is_reserved": 0, "fusion_lon": 0.0, "fusion_lat": 0.0, "lon": -77.033607, "name": "2827dee283610e36d79f32c647895dd1"}, {"bike_id": "d6c8ac79918bf54febb77bd843cf816f", "type": "electric_scooter", "is_disabled": 0, "lat": 38.877899166666666, "rental_uris": {"ios": "https://dc.lft.to/lastmile_qr_scan", "android": "https://dc.lft.to/lastmile_qr_scan"}, "is_reserved": 0, "fusion_lon": 0.0, "fusion_lat": 0.0, "lon": -77.017363, "name": "d6c8ac79918bf54febb77bd843cf816f"}, {"bike_id": "9f95b50c10df76cb52e7c9f0c542a9ea", "type": "electric_bike", "is_disabled": 0, "lat": 38.80757583333333, "rental_uris": {"ios": "https://dc.lft.to/lastmile_qr_scan", "android": "https://dc.lft.to/lastmile_qr_scan"}, "is_reserved": 0, "fusion_lon": 0.0, "fusion_lat": 0.0, "lon": -77.09466516666667, "name": "9f95b50c10df76cb52e7c9f0c542a9ea"}, {"bike_id": "1961ede32d650183165d87c9912954a5", "type": "electric_scooter", "is_disabled": 0, "lat": 38.90322116666667, "rental_uris": {"ios": "https://dc.lft.to/lastmile_qr_scan", "android": "https://dc.lft.to/lastmile_qr_scan"}, "is_reserved": 0, "fusion_lon": 0.0, "fusion_lat": 0.0, "lon": -76.98290083333333, "name": "1961ede32d650183165d87c9912954a5"}, {"bike_id": "5088b117492066cd689c37df23522ae5", "type": "electric_scooter", "is_disabled": 0, "lat": 38.91609116666667, "rental_uris": {"ios": "https://dc.lft.to/lastmile_qr_scan", "android": "https://dc.lft.to/lastmile_qr_scan"}, "is_reserved": 0, "fusion_lon": 0.0, "fusion_lat": 0.0, "lon": -77.03382766666667, "name": "5088b117492066cd689c37df23522ae5"}, {"bike_id": "05e5d40d3e192e10d0175a3a40e74885", "type": "electric_scooter", "is_disabled": 0, "lat": 38.920556833333336, "rental_uris": {"ios": "https://dc.lft.to/lastmile_qr_scan", "android": "https://dc.lft.to/lastmile_qr_scan"}, "is_reserved": 0, "fusion_lon": 0.0, "fusion_lat": 0.0, "lon": -77.04408166666667, "name": "05e5d40d3e192e10d0175a3a40e74885"}, {"bike_id": "f07068b0efe342e54daf543646ffa3c4", "type": "electric_scooter", "is_disabled": 0, "lat": 38.92973416666667, "rental_uris": {"ios": "https://dc.lft.to/lastmile_qr_scan", "android": "https://dc.lft.to/lastmile_qr_scan"}, "is_reserved": 0, "fusion_lon": 0.0, "fusion_lat": 0.0, "lon": -77.0313545, "name": "f07068b0efe342e54daf543646ffa3c4"}, {"bike_id": "fe981461f8856dbad18cd94692af0f31", "type": "electric_scooter", "is_disabled": 0, "lat": 38.865015, "rental_uris": {"ios": "https://dc.lft.to/lastmile_qr_scan", "android": "https://dc.lft.to/lastmile_qr_scan"}, "is_reserved": 0, "fusion_lon": 0.0, "fusion_lat": 0.0, "lon": -76.99000733333334, "name": "fe981461f8856dbad18cd94692af0f31"}, {"bike_id": "14a05b8e73fad9c51573da116f8c7c3f", "type": "electric_bike", "is_disabled": 0, "lat": 38.993440666666665, "rental_uris": {"ios": "https://dc.lft.to/lastmile_qr_scan", "android": "https://dc.lft.to/lastmile_qr_scan"}, "is_reserved": 0, "fusion_lon": 0.0, "fusion_lat": 0.0, "lon": -77.11580066666667, "name": "14a05b8e73fad9c51573da116f8c7c3f"}, {"bike_id": "b3439772bd2724a9edbb9eb18845a5f7", "type": "electric_scooter", "is_disabled": 0, "lat": 38.914027833333336, "rental_uris": {"ios": "https://dc.lft.to/lastmile_qr_scan", "android": "https://dc.lft.to/lastmile_qr_scan"}, "is_reserved": 0, "fusion_lon": 0.0, "fusion_lat": 0.0, "lon": -77.03445383333333, "name": "b3439772bd2724a9edbb9eb18845a5f7"}, {"bike_id": "b6aa82e20ef817133a889b2f4153a29b", "type": "electric_scooter", "is_disabled": 0, "lat": 38.92322216666667, "rental_uris": {"ios": "https://dc.lft.to/lastmile_qr_scan", "android": "https://dc.lft.to/lastmile_qr_scan"}, "is_reserved": 0, "fusion_lon": 0.0, "fusion_lat": 0.0, "lon": -77.040434, "name": "b6aa82e20ef817133a889b2f4153a29b"}, {"bike_id": "ac1317ab9cd50f64c43918d1ea1f6298", "type": "electric_scooter", "is_disabled": 0, "lat": 38.9195685, "rental_uris": {"ios": "https://dc.lft.to/lastmile_qr_scan", "android": "https://dc.lft.to/lastmile_qr_scan"}, "is_reserved": 0, "fusion_lon": 0.0, "fusion_lat": 0.0, "lon": -77.03477266666667, "name": "ac1317ab9cd50f64c43918d1ea1f6298"}, {"bike_id": "871c876ed70c35d5ca2ce01536233db6", "type": "electric_scooter", "is_disabled": 0, "lat": 38.902676666666665, "rental_uris": {"ios": "https://dc.lft.to/lastmile_qr_scan", "android": "https://dc.lft.to/lastmile_qr_scan"}, "is_reserved": 0, "fusion_lon": 0.0, "fusion_lat": 0.0, "lon": -77.03836716666666, "name": "871c876ed70c35d5ca2ce01536233db6"}, {"bike_id": "4f0a3cca0dc5d686eb2b7ff274043413", "type": "electric_scooter", "is_disabled": 0, "lat": 38.905917, "rental_uris": {"ios": "https://dc.lft.to/lastmile_qr_scan", "android": "https://dc.lft.to/lastmile_qr_scan"}, "is_reserved": 0, "fusion_lon": 0.0, "fusion_lat": 0.0, "lon": -77.0412295, "name": "4f0a3cca0dc5d686eb2b7ff274043413"}, {"bike_id": "62411bdd40386cdd47f17195dd86efb6", "type": "electric_scooter", "is_disabled": 0, "lat": 38.922048333333336, "rental_uris": {"ios": "https://dc.lft.to/lastmile_qr_scan", "android": "https://dc.lft.to/lastmile_qr_scan"}, "is_reserved": 0, "fusion_lon": 0.0, "fusion_lat": 0.0, "lon": -77.03895116666666, "name": "62411bdd40386cdd47f17195dd86efb6"}, {"bike_id": "053446070cc39151db65a44af27d2fcf", "type": "electric_scooter", "is_disabled": 0, "lat": 38.90035566666667, "rental_uris": {"ios": "https://dc.lft.to/lastmile_qr_scan", "android": "https://dc.lft.to/lastmile_qr_scan"}, "is_reserved": 0, "fusion_lon": 0.0, "fusion_lat": 0.0, "lon": -77.03513166666667, "name": "053446070cc39151db65a44af27d2fcf"}, {"bike_id": "be9137c09df0f14a0f2a66345e2cd287", "type": "electric_scooter", "is_disabled": 0, "lat": 38.901710333333334, "rental_uris": {"ios": "https://dc.lft.to/lastmile_qr_scan", "android": "https://dc.lft.to/lastmile_qr_scan"}, "is_reserved": 0, "fusion_lon": 0.0, "fusion_lat": 0.0, "lon": -77.02485283333333, "name": "be9137c09df0f14a0f2a66345e2cd287"}, {"bike_id": "e3b416c7d5245a6fd3d67d378c848414", "type": "electric_scooter", "is_disabled": 0, "lat": 38.92965016666667, "rental_uris": {"ios": "https://dc.lft.to/lastmile_qr_scan", "android": "https://dc.lft.to/lastmile_qr_scan"}, "is_reserved": 0, "fusion_lon": 0.0, "fusion_lat": 0.0, "lon": -77.01690166666667, "name": "e3b416c7d5245a6fd3d67d378c848414"}, {"bike_id": "ca6ab22b2a080ea9659ce1bfeb2ab1f7", "type": "electric_scooter", "is_disabled": 0, "lat": 38.905608666666666, "rental_uris": {"ios": "https://dc.lft.to/lastmile_qr_scan", "android": "https://dc.lft.to/lastmile_qr_scan"}, "is_reserved": 0, "fusion_lon": 0.0, "fusion_lat": 0.0, "lon": -77.0302735, "name": "ca6ab22b2a080ea9659ce1bfeb2ab1f7"}, {"bike_id": "b51f32cb774f6ac19ec813ec24dba4dd", "type": "electric_scooter", "is_disabled": 0, "lat": 38.905792, "rental_uris": {"ios": "https://dc.lft.to/lastmile_qr_scan", "android": "https://dc.lft.to/lastmile_qr_scan"}, "is_reserved": 0, "fusion_lon": 0.0, "fusion_lat": 0.0, "lon": -77.022029, "name": "b51f32cb774f6ac19ec813ec24dba4dd"}, {"bike_id": "e60183e1b22cda3465418792fa64f6b4", "type": "electric_scooter", "is_disabled": 0, "lat": 38.89543283333333, "rental_uris": {"ios": "https://dc.lft.to/lastmile_qr_scan", "android": "https://dc.lft.to/lastmile_qr_scan"}, "is_reserved": 0, "fusion_lon": 0.0, "fusion_lat": 0.0, "lon": -77.010781, "name": "e60183e1b22cda3465418792fa64f6b4"}, {"bike_id": "4290cf16860eab127e34b0b6cf28fe90", "type": "electric_scooter", "is_disabled": 0, "lat": 38.923406166666666, "rental_uris": {"ios": "https://dc.lft.to/lastmile_qr_scan", "android": "https://dc.lft.to/lastmile_qr_scan"}, "is_reserved": 0, "fusion_lon": 0.0, "fusion_lat": 0.0, "lon": -77.00187816666667, "name": "4290cf16860eab127e34b0b6cf28fe90"}, {"bike_id": "4c6133f062946da0cf9a2f58d13ed6a0", "type": "electric_bike", "is_disabled": 0, "lat": 38.952367, "rental_uris": {"ios": "https://dc.lft.to/lastmile_qr_scan", "android": "https://dc.lft.to/lastmile_qr_scan"}, "is_reserved": 0, "fusion_lon": 0.0, "fusion_lat": 0.0, "lon": -77.007607, "name": "4c6133f062946da0cf9a2f58d13ed6a0"}, {"bike_id": "69f04c763ffc8c6b02d0f9cce502fe61", "type": "electric_scooter", "is_disabled": 0, "lat": 38.936371666666666, "rental_uris": {"ios": "https://dc.lft.to/lastmile_qr_scan", "android": "https://dc.lft.to/lastmile_qr_scan"}, "is_reserved": 0, "fusion_lon": 0.0, "fusion_lat": 0.0, "lon": -77.05882533333333, "name": "69f04c763ffc8c6b02d0f9cce502fe61"}, {"bike_id": "dfffbcd50e410e0014c1b7f4f87700ec", "type": "electric_bike", "is_disabled": 0, "lat": 38.807549333333334, "rental_uris": {"ios": "https://dc.lft.to/lastmile_qr_scan", "android": "https://dc.lft.to/lastmile_qr_scan"}, "is_reserved": 0, "fusion_lon": 0.0, "fusion_lat": 0.0, "lon": -77.09453266666667, "name": "dfffbcd50e410e0014c1b7f4f87700ec"}, {"bike_id": "2becc9fba2f055c0288893b449e2c142", "type": "electric_scooter", "is_disabled": 0, "lat": 38.88935566666667, "rental_uris": {"ios": "https://dc.lft.to/lastmile_qr_scan", "android": "https://dc.lft.to/lastmile_qr_scan"}, "is_reserved": 0, "fusion_lon": 0.0, "fusion_lat": 0.0, "lon": -77.01507666666667, "name": "2becc9fba2f055c0288893b449e2c142"}, {"bike_id": "01835df4e4bdb62cb9fea5213717941c", "type": "electric_scooter", "is_disabled": 0, "lat": 38.9049945, "rental_uris": {"ios": "https://dc.lft.to/lastmile_qr_scan", "android": "https://dc.lft.to/lastmile_qr_scan"}, "is_reserved": 0, "fusion_lon": 0.0, "fusion_lat": 0.0, "lon": -77.020027, "name": "01835df4e4bdb62cb9fea5213717941c"}, {"bike_id": "ed23920780e1bdaf808fcbeba71691b4", "type": "electric_scooter", "is_disabled": 0, "lat": 38.9227945, "rental_uris": {"ios": "https://dc.lft.to/lastmile_qr_scan", "android": "https://dc.lft.to/lastmile_qr_scan"}, "is_reserved": 0, "fusion_lon": 0.0, "fusion_lat": 0.0, "lon": -77.02970383333333, "name": "ed23920780e1bdaf808fcbeba71691b4"}, {"bike_id": "15f319e6f15a52685438b31c4ed62132", "type": "electric_scooter", "is_disabled": 0, "lat": 38.922849, "rental_uris": {"ios": "https://dc.lft.to/lastmile_qr_scan", "android": "https://dc.lft.to/lastmile_qr_scan"}, "is_reserved": 0, "fusion_lon": 0.0, "fusion_lat": 0.0, "lon": -76.99456383333333, "name": "15f319e6f15a52685438b31c4ed62132"}, {"bike_id": "3001d31d52c78bd12afd2a5f7bcc12cf", "type": "electric_bike", "is_disabled": 0, "lat": 38.87080233333333, "rental_uris": {"ios": "https://dc.lft.to/lastmile_qr_scan", "android": "https://dc.lft.to/lastmile_qr_scan"}, "is_reserved": 0, "fusion_lon": 0.0, "fusion_lat": 0.0, "lon": -77.01214083333333, "name": "3001d31d52c78bd12afd2a5f7bcc12cf"}, {"bike_id": "47e0add4236653955e5f09a1c10a3ea3", "type": "electric_scooter", "is_disabled": 0, "lat": 38.905553833333336, "rental_uris": {"ios": "https://dc.lft.to/lastmile_qr_scan", "android": "https://dc.lft.to/lastmile_qr_scan"}, "is_reserved": 0, "fusion_lon": 0.0, "fusion_lat": 0.0, "lon": -76.99620433333334, "name": "47e0add4236653955e5f09a1c10a3ea3"}, {"bike_id": "f8660eabcd8b8293d79ca6e5e1d61042", "type": "electric_scooter", "is_disabled": 0, "lat": 38.922496333333335, "rental_uris": {"ios": "https://dc.lft.to/lastmile_qr_scan", "android": "https://dc.lft.to/lastmile_qr_scan"}, "is_reserved": 0, "fusion_lon": 0.0, "fusion_lat": 0.0, "lon": -77.0389555, "name": "f8660eabcd8b8293d79ca6e5e1d61042"}, {"bike_id": "81fdd514bbef4d4e1e1126c07a810bac", "type": "electric_bike", "is_disabled": 0, "lat": 38.9516675, "rental_uris": {"ios": "https://dc.lft.to/lastmile_qr_scan", "android": "https://dc.lft.to/lastmile_qr_scan"}, "is_reserved": 0, "fusion_lon": 0.0, "fusion_lat": 0.0, "lon": -76.963881, "name": "81fdd514bbef4d4e1e1126c07a810bac"}, {"bike_id": "384914313a76df0a8a6c5500a788cefd", "type": "electric_scooter", "is_disabled": 0, "lat": 38.909592333333336, "rental_uris": {"ios": "https://dc.lft.to/lastmile_qr_scan", "android": "https://dc.lft.to/lastmile_qr_scan"}, "is_reserved": 0, "fusion_lon": 0.0, "fusion_lat": 0.0, "lon": -77.04859616666667, "name": "384914313a76df0a8a6c5500a788cefd"}, {"bike_id": "c2b5c65c55c78a5d010a61918757059a", "type": "electric_scooter", "is_disabled": 0, "lat": 38.90951333333334, "rental_uris": {"ios": "https://dc.lft.to/lastmile_qr_scan", "android": "https://dc.lft.to/lastmile_qr_scan"}, "is_reserved": 0, "fusion_lon": 0.0, "fusion_lat": 0.0, "lon": -77.034468, "name": "c2b5c65c55c78a5d010a61918757059a"}, {"bike_id": "3a26c985db80fa162d2028ddd6a65bed", "type": "electric_bike", "is_disabled": 0, "lat": 38.80413566666667, "rental_uris": {"ios": "https://dc.lft.to/lastmile_qr_scan", "android": "https://dc.lft.to/lastmile_qr_scan"}, "is_reserved": 0, "fusion_lon": 0.0, "fusion_lat": 0.0, "lon": -77.05552466666667, "name": "3a26c985db80fa162d2028ddd6a65bed"}, {"bike_id": "a4ab48cc6fdb2d59c2bcea305a92323e", "type": "electric_scooter", "is_disabled": 0, "lat": 38.924587, "rental_uris": {"ios": "https://dc.lft.to/lastmile_qr_scan", "android": "https://dc.lft.to/lastmile_qr_scan"}, "is_reserved": 0, "fusion_lon": 0.0, "fusion_lat": 0.0, "lon": -76.9991315, "name": "a4ab48cc6fdb2d59c2bcea305a92323e"}, {"bike_id": "2f1d0d8bb9ee5decd72a142e167d5a75", "type": "electric_scooter", "is_disabled": 0, "lat": 38.878159, "rental_uris": {"ios": "https://dc.lft.to/lastmile_qr_scan", "android": "https://dc.lft.to/lastmile_qr_scan"}, "is_reserved": 0, "fusion_lon": 0.0, "fusion_lat": 0.0, "lon": -76.93092966666667, "name": "2f1d0d8bb9ee5decd72a142e167d5a75"}, {"bike_id": "d3268d874d746d921b2bcd0ab6ff5c16", "type": "electric_scooter", "is_disabled": 0, "lat": 38.932535333333334, "rental_uris": {"ios": "https://dc.lft.to/lastmile_qr_scan", "android": "https://dc.lft.to/lastmile_qr_scan"}, "is_reserved": 0, "fusion_lon": 0.0, "fusion_lat": 0.0, "lon": -77.03845216666667, "name": "d3268d874d746d921b2bcd0ab6ff5c16"}, {"bike_id": "16e6c6b080c24fdff1d91ef1cbf8e4af", "type": "electric_bike", "is_disabled": 0, "lat": 38.9364345, "rental_uris": {"ios": "https://dc.lft.to/lastmile_qr_scan", "android": "https://dc.lft.to/lastmile_qr_scan"}, "is_reserved": 0, "fusion_lon": 0.0, "fusion_lat": 0.0, "lon": -77.020881, "name": "16e6c6b080c24fdff1d91ef1cbf8e4af"}, {"bike_id": "6af689fbc492717ff0f318dcac9ad93b", "type": "electric_scooter", "is_disabled": 0, "lat": 38.900063, "rental_uris": {"ios": "https://dc.lft.to/lastmile_qr_scan", "android": "https://dc.lft.to/lastmile_qr_scan"}, "is_reserved": 0, "fusion_lon": 0.0, "fusion_lat": 0.0, "lon": -77.04476033333333, "name": "6af689fbc492717ff0f318dcac9ad93b"}, {"bike_id": "9d84867d2141a2c4a326ff2c58ff9af1", "type": "electric_scooter", "is_disabled": 0, "lat": 38.949895166666664, "rental_uris": {"ios": "https://dc.lft.to/lastmile_qr_scan", "android": "https://dc.lft.to/lastmile_qr_scan"}, "is_reserved": 0, "fusion_lon": 0.0, "fusion_lat": 0.0, "lon": -77.02705, "name": "9d84867d2141a2c4a326ff2c58ff9af1"}, {"bike_id": "78df25ce443ef0024252e5f1a7c8115a", "type": "electric_scooter", "is_disabled": 0, "lat": 38.90837333333333, "rental_uris": {"ios": "https://dc.lft.to/lastmile_qr_scan", "android": "https://dc.lft.to/lastmile_qr_scan"}, "is_reserved": 0, "fusion_lon": 0.0, "fusion_lat": 0.0, "lon": -77.043405, "name": "78df25ce443ef0024252e5f1a7c8115a"}, {"bike_id": "272c9caf6bba90acbd140ea8c2d0efb3", "type": "electric_bike", "is_disabled": 0, "lat": 38.961308, "rental_uris": {"ios": "https://dc.lft.to/lastmile_qr_scan", "android": "https://dc.lft.to/lastmile_qr_scan"}, "is_reserved": 0, "fusion_lon": 0.0, "fusion_lat": 0.0, "lon": -77.03335533333333, "name": "272c9caf6bba90acbd140ea8c2d0efb3"}, {"bike_id": "7bad2e1e6ec1c2d47357ca56cbfa45fd", "type": "electric_scooter", "is_disabled": 0, "lat": 38.905778, "rental_uris": {"ios": "https://dc.lft.to/lastmile_qr_scan", "android": "https://dc.lft.to/lastmile_qr_scan"}, "is_reserved": 0, "fusion_lon": 0.0, "fusion_lat": 0.0, "lon": -77.04877833333333, "name": "7bad2e1e6ec1c2d47357ca56cbfa45fd"}, {"bike_id": "59ef7e06f856f9d0c44f6e4ffd101baf", "type": "electric_scooter", "is_disabled": 0, "lat": 38.885899, "rental_uris": {"ios": "https://dc.lft.to/lastmile_qr_scan", "android": "https://dc.lft.to/lastmile_qr_scan"}, "is_reserved": 0, "fusion_lon": 0.0, "fusion_lat": 0.0, "lon": -77.02839983333334, "name": "59ef7e06f856f9d0c44f6e4ffd101baf"}, {"bike_id": "9df9c2f59e22df3c927bb49aeb7cd735", "type": "electric_scooter", "is_disabled": 0, "lat": 38.92316683333333, "rental_uris": {"ios": "https://dc.lft.to/lastmile_qr_scan", "android": "https://dc.lft.to/lastmile_qr_scan"}, "is_reserved": 0, "fusion_lon": 0.0, "fusion_lat": 0.0, "lon": -77.0381465, "name": "9df9c2f59e22df3c927bb49aeb7cd735"}, {"bike_id": "d4de3c7e4a7fa35ca4939daa1dcf3bea", "type": "electric_bike", "is_disabled": 0, "lat": 38.8729885, "rental_uris": {"ios": "https://dc.lft.to/lastmile_qr_scan", "android": "https://dc.lft.to/lastmile_qr_scan"}, "is_reserved": 0, "fusion_lon": 0.0, "fusion_lat": 0.0, "lon": -76.969803, "name": "d4de3c7e4a7fa35ca4939daa1dcf3bea"}, {"bike_id": "7c48710aed66adc850b9d8d0e7d5d613", "type": "electric_scooter", "is_disabled": 0, "lat": 38.904074333333334, "rental_uris": {"ios": "https://dc.lft.to/lastmile_qr_scan", "android": "https://dc.lft.to/lastmile_qr_scan"}, "is_reserved": 0, "fusion_lon": 0.0, "fusion_lat": 0.0, "lon": -76.97328666666667, "name": "7c48710aed66adc850b9d8d0e7d5d613"}, {"bike_id": "ab92a9e366b4ab36d4a24e822e457863", "type": "electric_scooter", "is_disabled": 0, "lat": 38.932117166666664, "rental_uris": {"ios": "https://dc.lft.to/lastmile_qr_scan", "android": "https://dc.lft.to/lastmile_qr_scan"}, "is_reserved": 0, "fusion_lon": 0.0, "fusion_lat": 0.0, "lon": -77.03508266666667, "name": "ab92a9e366b4ab36d4a24e822e457863"}, {"bike_id": "c528b2f923d2f94d5784b273b4063cc9", "type": "electric_scooter", "is_disabled": 0, "lat": 38.92319916666667, "rental_uris": {"ios": "https://dc.lft.to/lastmile_qr_scan", "android": "https://dc.lft.to/lastmile_qr_scan"}, "is_reserved": 0, "fusion_lon": 0.0, "fusion_lat": 0.0, "lon": -77.02143616666666, "name": "c528b2f923d2f94d5784b273b4063cc9"}, {"bike_id": "ceec214f0d155477809a11023d412ba4", "type": "electric_scooter", "is_disabled": 0, "lat": 38.900741333333336, "rental_uris": {"ios": "https://dc.lft.to/lastmile_qr_scan", "android": "https://dc.lft.to/lastmile_qr_scan"}, "is_reserved": 0, "fusion_lon": 0.0, "fusion_lat": 0.0, "lon": -77.04690483333333, "name": "ceec214f0d155477809a11023d412ba4"}, {"bike_id": "f47b335d05c0ccfb71fc4345a7c69267", "type": "electric_scooter", "is_disabled": 0, "lat": 38.95006883333333, "rental_uris": {"ios": "https://dc.lft.to/lastmile_qr_scan", "android": "https://dc.lft.to/lastmile_qr_scan"}, "is_reserved": 0, "fusion_lon": 0.0, "fusion_lat": 0.0, "lon": -77.00871833333333, "name": "f47b335d05c0ccfb71fc4345a7c69267"}, {"bike_id": "32b727e4b5627d5d6f1aa0536055d60f", "type": "electric_bike", "is_disabled": 0, "lat": 38.84528133333333, "rental_uris": {"ios": "https://dc.lft.to/lastmile_qr_scan", "android": "https://dc.lft.to/lastmile_qr_scan"}, "is_reserved": 0, "fusion_lon": 0.0, "fusion_lat": 0.0, "lon": -76.97395866666666, "name": "32b727e4b5627d5d6f1aa0536055d60f"}, {"bike_id": "5792e4e372e7a93fe98308a1b7df0aea", "type": "electric_scooter", "is_disabled": 0, "lat": 38.93245233333333, "rental_uris": {"ios": "https://dc.lft.to/lastmile_qr_scan", "android": "https://dc.lft.to/lastmile_qr_scan"}, "is_reserved": 0, "fusion_lon": 0.0, "fusion_lat": 0.0, "lon": -77.03640916666667, "name": "5792e4e372e7a93fe98308a1b7df0aea"}, {"bike_id": "154072bd8c8dbe962d2abc963704574c", "type": "electric_scooter", "is_disabled": 0, "lat": 38.887656666666665, "rental_uris": {"ios": "https://dc.lft.to/lastmile_qr_scan", "android": "https://dc.lft.to/lastmile_qr_scan"}, "is_reserved": 0, "fusion_lon": 0.0, "fusion_lat": 0.0, "lon": -76.95598466666667, "name": "154072bd8c8dbe962d2abc963704574c"}, {"bike_id": "e2b5ebd8fb0e53b4048a66ff6c265aa6", "type": "electric_scooter", "is_disabled": 0, "lat": 38.905583666666665, "rental_uris": {"ios": "https://dc.lft.to/lastmile_qr_scan", "android": "https://dc.lft.to/lastmile_qr_scan"}, "is_reserved": 0, "fusion_lon": 0.0, "fusion_lat": 0.0, "lon": -77.005911, "name": "e2b5ebd8fb0e53b4048a66ff6c265aa6"}, {"bike_id": "af60d37b2b02a28c50c589459fb16353", "type": "electric_scooter", "is_disabled": 0, "lat": 38.91276633333333, "rental_uris": {"ios": "https://dc.lft.to/lastmile_qr_scan", "android": "https://dc.lft.to/lastmile_qr_scan"}, "is_reserved": 0, "fusion_lon": 0.0, "fusion_lat": 0.0, "lon": -77.0270635, "name": "af60d37b2b02a28c50c589459fb16353"}, {"bike_id": "59fb39f99f326a782afd1ed2d610b69d", "type": "electric_scooter", "is_disabled": 0, "lat": 38.9115535, "rental_uris": {"ios": "https://dc.lft.to/lastmile_qr_scan", "android": "https://dc.lft.to/lastmile_qr_scan"}, "is_reserved": 0, "fusion_lon": 0.0, "fusion_lat": 0.0, "lon": -77.04421316666667, "name": "59fb39f99f326a782afd1ed2d610b69d"}, {"bike_id": "2b084144ca308d9869ea0ebe39a71fd9", "type": "electric_scooter", "is_disabled": 0, "lat": 38.92936983333333, "rental_uris": {"ios": "https://dc.lft.to/lastmile_qr_scan", "android": "https://dc.lft.to/lastmile_qr_scan"}, "is_reserved": 0, "fusion_lon": 0.0, "fusion_lat": 0.0, "lon": -77.01990233333333, "name": "2b084144ca308d9869ea0ebe39a71fd9"}, {"bike_id": "c1a7995bc9c1064a8350b668d29d1d25", "type": "electric_scooter", "is_disabled": 0, "lat": 38.91633683333333, "rental_uris": {"ios": "https://dc.lft.to/lastmile_qr_scan", "android": "https://dc.lft.to/lastmile_qr_scan"}, "is_reserved": 0, "fusion_lon": 0.0, "fusion_lat": 0.0, "lon": -77.03971083333333, "name": "c1a7995bc9c1064a8350b668d29d1d25"}, {"bike_id": "c5e0f895aed930c22ef81794f245b700", "type": "electric_scooter", "is_disabled": 0, "lat": 38.8897135, "rental_uris": {"ios": "https://dc.lft.to/lastmile_qr_scan", "android": "https://dc.lft.to/lastmile_qr_scan"}, "is_reserved": 0, "fusion_lon": 0.0, "fusion_lat": 0.0, "lon": -76.98239833333334, "name": "c5e0f895aed930c22ef81794f245b700"}, {"bike_id": "4c191f2b4c5595927d0759fc0d5acc7e", "type": "electric_scooter", "is_disabled": 0, "lat": 38.902925833333335, "rental_uris": {"ios": "https://dc.lft.to/lastmile_qr_scan", "android": "https://dc.lft.to/lastmile_qr_scan"}, "is_reserved": 0, "fusion_lon": 0.0, "fusion_lat": 0.0, "lon": -77.00307616666667, "name": "4c191f2b4c5595927d0759fc0d5acc7e"}, {"bike_id": "4fe54eb313bd2973540c1a2f707c35ba", "type": "electric_scooter", "is_disabled": 0, "lat": 38.85893633333333, "rental_uris": {"ios": "https://dc.lft.to/lastmile_qr_scan", "android": "https://dc.lft.to/lastmile_qr_scan"}, "is_reserved": 0, "fusion_lon": 0.0, "fusion_lat": 0.0, "lon": -76.9972685, "name": "4fe54eb313bd2973540c1a2f707c35ba"}, {"bike_id": "90c168d033168dc9304c0a785c258503", "type": "electric_scooter", "is_disabled": 0, "lat": 38.918437, "rental_uris": {"ios": "https://dc.lft.to/lastmile_qr_scan", "android": "https://dc.lft.to/lastmile_qr_scan"}, "is_reserved": 0, "fusion_lon": 0.0, "fusion_lat": 0.0, "lon": -77.0388235, "name": "90c168d033168dc9304c0a785c258503"}, {"bike_id": "6d3254005f6f4645be83508941ed1ce6", "type": "electric_scooter", "is_disabled": 0, "lat": 38.91174133333333, "rental_uris": {"ios": "https://dc.lft.to/lastmile_qr_scan", "android": "https://dc.lft.to/lastmile_qr_scan"}, "is_reserved": 0, "fusion_lon": 0.0, "fusion_lat": 0.0, "lon": -77.00383033333334, "name": "6d3254005f6f4645be83508941ed1ce6"}, {"bike_id": "b2e93216540cadaee84078ad7febc0bd", "type": "electric_scooter", "is_disabled": 0, "lat": 38.8998265, "rental_uris": {"ios": "https://dc.lft.to/lastmile_qr_scan", "android": "https://dc.lft.to/lastmile_qr_scan"}, "is_reserved": 0, "fusion_lon": 0.0, "fusion_lat": 0.0, "lon": -76.950013, "name": "b2e93216540cadaee84078ad7febc0bd"}, {"bike_id": "d376774465295a8a262923c6657c3a70", "type": "electric_scooter", "is_disabled": 0, "lat": 38.93881866666667, "rental_uris": {"ios": "https://dc.lft.to/lastmile_qr_scan", "android": "https://dc.lft.to/lastmile_qr_scan"}, "is_reserved": 0, "fusion_lon": 0.0, "fusion_lat": 0.0, "lon": -77.02483733333334, "name": "d376774465295a8a262923c6657c3a70"}, {"bike_id": "db5263950d19c38c7a83d431cd053dd7", "type": "electric_scooter", "is_disabled": 0, "lat": 38.931717, "rental_uris": {"ios": "https://dc.lft.to/lastmile_qr_scan", "android": "https://dc.lft.to/lastmile_qr_scan"}, "is_reserved": 0, "fusion_lon": 0.0, "fusion_lat": 0.0, "lon": -77.028117, "name": "db5263950d19c38c7a83d431cd053dd7"}, {"bike_id": "3439b4a5dcdfe8f9ad424df2d99100c9", "type": "electric_scooter", "is_disabled": 0, "lat": 38.89342666666667, "rental_uris": {"ios": "https://dc.lft.to/lastmile_qr_scan", "android": "https://dc.lft.to/lastmile_qr_scan"}, "is_reserved": 0, "fusion_lon": 0.0, "fusion_lat": 0.0, "lon": -76.993782, "name": "3439b4a5dcdfe8f9ad424df2d99100c9"}, {"bike_id": "b98fa1c2c7e114e24c544743efbe35bd", "type": "electric_scooter", "is_disabled": 0, "lat": 38.921563, "rental_uris": {"ios": "https://dc.lft.to/lastmile_qr_scan", "android": "https://dc.lft.to/lastmile_qr_scan"}, "is_reserved": 0, "fusion_lon": 0.0, "fusion_lat": 0.0, "lon": -77.03386583333334, "name": "b98fa1c2c7e114e24c544743efbe35bd"}, {"bike_id": "e4f4c534eac7950c2aeba3f192b16e82", "type": "electric_scooter", "is_disabled": 0, "lat": 38.916223333333335, "rental_uris": {"ios": "https://dc.lft.to/lastmile_qr_scan", "android": "https://dc.lft.to/lastmile_qr_scan"}, "is_reserved": 0, "fusion_lon": 0.0, "fusion_lat": 0.0, "lon": -77.02963183333334, "name": "e4f4c534eac7950c2aeba3f192b16e82"}, {"bike_id": "2e60fce0b2ef556ccaffd9e33c9c1425", "type": "electric_bike", "is_disabled": 0, "lat": 38.86335966666667, "rental_uris": {"ios": "https://dc.lft.to/lastmile_qr_scan", "android": "https://dc.lft.to/lastmile_qr_scan"}, "is_reserved": 0, "fusion_lon": 0.0, "fusion_lat": 0.0, "lon": -76.98724216666666, "name": "2e60fce0b2ef556ccaffd9e33c9c1425"}, {"bike_id": "493c34f21df2a50f704b1d2beed43ffb", "type": "electric_scooter", "is_disabled": 0, "lat": 38.9332355, "rental_uris": {"ios": "https://dc.lft.to/lastmile_qr_scan", "android": "https://dc.lft.to/lastmile_qr_scan"}, "is_reserved": 0, "fusion_lon": 0.0, "fusion_lat": 0.0, "lon": -77.03430933333334, "name": "493c34f21df2a50f704b1d2beed43ffb"}, {"bike_id": "88e60acefb3a8240dab3f3a448c83b9e", "type": "electric_scooter", "is_disabled": 0, "lat": 38.914437, "rental_uris": {"ios": "https://dc.lft.to/lastmile_qr_scan", "android": "https://dc.lft.to/lastmile_qr_scan"}, "is_reserved": 0, "fusion_lon": 0.0, "fusion_lat": 0.0, "lon": -77.02294716666667, "name": "88e60acefb3a8240dab3f3a448c83b9e"}, {"bike_id": "e2cee98909b06f29d9c5b7c65295c7dd", "type": "electric_scooter", "is_disabled": 0, "lat": 38.921003166666665, "rental_uris": {"ios": "https://dc.lft.to/lastmile_qr_scan", "android": "https://dc.lft.to/lastmile_qr_scan"}, "is_reserved": 0, "fusion_lon": 0.0, "fusion_lat": 0.0, "lon": -77.0316635, "name": "e2cee98909b06f29d9c5b7c65295c7dd"}, {"bike_id": "37980272de2262b696aa34f45fa03170", "type": "electric_scooter", "is_disabled": 0, "lat": 38.919279, "rental_uris": {"ios": "https://dc.lft.to/lastmile_qr_scan", "android": "https://dc.lft.to/lastmile_qr_scan"}, "is_reserved": 0, "fusion_lon": 0.0, "fusion_lat": 0.0, "lon": -77.07382516666667, "name": "37980272de2262b696aa34f45fa03170"}, {"bike_id": "5212cfe2d96d572681f09115b6c75586", "type": "electric_bike", "is_disabled": 0, "lat": 38.869386166666665, "rental_uris": {"ios": "https://dc.lft.to/lastmile_qr_scan", "android": "https://dc.lft.to/lastmile_qr_scan"}, "is_reserved": 0, "fusion_lon": 0.0, "fusion_lat": 0.0, "lon": -77.09466483333334, "name": "5212cfe2d96d572681f09115b6c75586"}, {"bike_id": "e10c8943a17c75b09fd628f1c9ec5874", "type": "electric_scooter", "is_disabled": 0, "lat": 38.92682466666667, "rental_uris": {"ios": "https://dc.lft.to/lastmile_qr_scan", "android": "https://dc.lft.to/lastmile_qr_scan"}, "is_reserved": 0, "fusion_lon": 0.0, "fusion_lat": 0.0, "lon": -77.0278795, "name": "e10c8943a17c75b09fd628f1c9ec5874"}, {"bike_id": "1ad75c988b3267daaa0bde4fadf7bfd9", "type": "electric_scooter", "is_disabled": 0, "lat": 38.8843145, "rental_uris": {"ios": "https://dc.lft.to/lastmile_qr_scan", "android": "https://dc.lft.to/lastmile_qr_scan"}, "is_reserved": 0, "fusion_lon": 0.0, "fusion_lat": 0.0, "lon": -76.9574135, "name": "1ad75c988b3267daaa0bde4fadf7bfd9"}, {"bike_id": "19edc8d690c25ed639ac99f8c0f986df", "type": "electric_scooter", "is_disabled": 0, "lat": 38.919707333333335, "rental_uris": {"ios": "https://dc.lft.to/lastmile_qr_scan", "android": "https://dc.lft.to/lastmile_qr_scan"}, "is_reserved": 0, "fusion_lon": 0.0, "fusion_lat": 0.0, "lon": -77.0191115, "name": "19edc8d690c25ed639ac99f8c0f986df"}, {"bike_id": "5044f677bfe94d3ff23d7152e87152ba", "type": "electric_scooter", "is_disabled": 0, "lat": 38.9141285, "rental_uris": {"ios": "https://dc.lft.to/lastmile_qr_scan", "android": "https://dc.lft.to/lastmile_qr_scan"}, "is_reserved": 0, "fusion_lon": 0.0, "fusion_lat": 0.0, "lon": -77.04469383333333, "name": "5044f677bfe94d3ff23d7152e87152ba"}, {"bike_id": "cd6dfbfea83b40d3a7d8f2bee071b041", "type": "electric_scooter", "is_disabled": 0, "lat": 38.957372166666666, "rental_uris": {"ios": "https://dc.lft.to/lastmile_qr_scan", "android": "https://dc.lft.to/lastmile_qr_scan"}, "is_reserved": 0, "fusion_lon": 0.0, "fusion_lat": 0.0, "lon": -77.02421433333333, "name": "cd6dfbfea83b40d3a7d8f2bee071b041"}, {"bike_id": "f266d3b1662d6ff118b4ccad3df982d5", "type": "electric_scooter", "is_disabled": 0, "lat": 38.9311275, "rental_uris": {"ios": "https://dc.lft.to/lastmile_qr_scan", "android": "https://dc.lft.to/lastmile_qr_scan"}, "is_reserved": 0, "fusion_lon": 0.0, "fusion_lat": 0.0, "lon": -77.03809216666667, "name": "f266d3b1662d6ff118b4ccad3df982d5"}, {"bike_id": "da11faa277c2b58b6d729fd2b74b4cd7", "type": "electric_scooter", "is_disabled": 0, "lat": 38.936487166666666, "rental_uris": {"ios": "https://dc.lft.to/lastmile_qr_scan", "android": "https://dc.lft.to/lastmile_qr_scan"}, "is_reserved": 0, "fusion_lon": 0.0, "fusion_lat": 0.0, "lon": -77.026358, "name": "da11faa277c2b58b6d729fd2b74b4cd7"}, {"bike_id": "a1d540825748bf71f87554336128f05b", "type": "electric_scooter", "is_disabled": 0, "lat": 38.89204083333333, "rental_uris": {"ios": "https://dc.lft.to/lastmile_qr_scan", "android": "https://dc.lft.to/lastmile_qr_scan"}, "is_reserved": 0, "fusion_lon": 0.0, "fusion_lat": 0.0, "lon": -76.9993785, "name": "a1d540825748bf71f87554336128f05b"}, {"bike_id": "6ed4f47e4d0ac767d1353e25acbc8260", "type": "electric_scooter", "is_disabled": 0, "lat": 38.91694233333333, "rental_uris": {"ios": "https://dc.lft.to/lastmile_qr_scan", "android": "https://dc.lft.to/lastmile_qr_scan"}, "is_reserved": 0, "fusion_lon": 0.0, "fusion_lat": 0.0, "lon": -77.03217966666666, "name": "6ed4f47e4d0ac767d1353e25acbc8260"}, {"bike_id": "afb13c0b3b8c59cfea8927c4e1db9b62", "type": "electric_scooter", "is_disabled": 0, "lat": 38.888455666666665, "rental_uris": {"ios": "https://dc.lft.to/lastmile_qr_scan", "android": "https://dc.lft.to/lastmile_qr_scan"}, "is_reserved": 0, "fusion_lon": 0.0, "fusion_lat": 0.0, "lon": -76.92679966666667, "name": "afb13c0b3b8c59cfea8927c4e1db9b62"}, {"bike_id": "7654895c89c166d50d899d4343f66fdf", "type": "electric_scooter", "is_disabled": 0, "lat": 38.93067583333333, "rental_uris": {"ios": "https://dc.lft.to/lastmile_qr_scan", "android": "https://dc.lft.to/lastmile_qr_scan"}, "is_reserved": 0, "fusion_lon": 0.0, "fusion_lat": 0.0, "lon": -77.02978483333334, "name": "7654895c89c166d50d899d4343f66fdf"}, {"bike_id": "cd969d44c9c4d21a2cb24e62f9b33113", "type": "electric_scooter", "is_disabled": 0, "lat": 38.9155655, "rental_uris": {"ios": "https://dc.lft.to/lastmile_qr_scan", "android": "https://dc.lft.to/lastmile_qr_scan"}, "is_reserved": 0, "fusion_lon": 0.0, "fusion_lat": 0.0, "lon": -77.02339733333334, "name": "cd969d44c9c4d21a2cb24e62f9b33113"}, {"bike_id": "e448630acf76b22725739f0837eafd13", "type": "electric_scooter", "is_disabled": 0, "lat": 38.944638166666664, "rental_uris": {"ios": "https://dc.lft.to/lastmile_qr_scan", "android": "https://dc.lft.to/lastmile_qr_scan"}, "is_reserved": 0, "fusion_lon": 0.0, "fusion_lat": 0.0, "lon": -77.0065725, "name": "e448630acf76b22725739f0837eafd13"}, {"bike_id": "360e068fada1f65f6f60ba32dc1d8cf6", "type": "electric_scooter", "is_disabled": 0, "lat": 38.92795133333333, "rental_uris": {"ios": "https://dc.lft.to/lastmile_qr_scan", "android": "https://dc.lft.to/lastmile_qr_scan"}, "is_reserved": 0, "fusion_lon": 0.0, "fusion_lat": 0.0, "lon": -77.02596916666667, "name": "360e068fada1f65f6f60ba32dc1d8cf6"}, {"bike_id": "4798c9cdaa78761d3229c4289bff0c51", "type": "electric_scooter", "is_disabled": 0, "lat": 38.93608183333333, "rental_uris": {"ios": "https://dc.lft.to/lastmile_qr_scan", "android": "https://dc.lft.to/lastmile_qr_scan"}, "is_reserved": 0, "fusion_lon": 0.0, "fusion_lat": 0.0, "lon": -77.05860816666667, "name": "4798c9cdaa78761d3229c4289bff0c51"}, {"bike_id": "62da2238b085c056aff5202860585c72", "type": "electric_scooter", "is_disabled": 0, "lat": 38.905379833333335, "rental_uris": {"ios": "https://dc.lft.to/lastmile_qr_scan", "android": "https://dc.lft.to/lastmile_qr_scan"}, "is_reserved": 0, "fusion_lon": 0.0, "fusion_lat": 0.0, "lon": -77.03465233333333, "name": "62da2238b085c056aff5202860585c72"}, {"bike_id": "e5925c525eb85ae8b747eb76f205cc91", "type": "electric_scooter", "is_disabled": 0, "lat": 38.9259915, "rental_uris": {"ios": "https://dc.lft.to/lastmile_qr_scan", "android": "https://dc.lft.to/lastmile_qr_scan"}, "is_reserved": 0, "fusion_lon": 0.0, "fusion_lat": 0.0, "lon": -77.02408983333333, "name": "e5925c525eb85ae8b747eb76f205cc91"}, {"bike_id": "0c9db5ef1b15d117e42f36d31ef4dbc2", "type": "electric_scooter", "is_disabled": 0, "lat": 38.892213166666664, "rental_uris": {"ios": "https://dc.lft.to/lastmile_qr_scan", "android": "https://dc.lft.to/lastmile_qr_scan"}, "is_reserved": 0, "fusion_lon": 0.0, "fusion_lat": 0.0, "lon": -77.02583316666667, "name": "0c9db5ef1b15d117e42f36d31ef4dbc2"}, {"bike_id": "02af4c8ebd3e89d0e37eb0a1f7f37537", "type": "electric_scooter", "is_disabled": 0, "lat": 38.91333366666667, "rental_uris": {"ios": "https://dc.lft.to/lastmile_qr_scan", "android": "https://dc.lft.to/lastmile_qr_scan"}, "is_reserved": 0, "fusion_lon": 0.0, "fusion_lat": 0.0, "lon": -77.04724516666667, "name": "02af4c8ebd3e89d0e37eb0a1f7f37537"}, {"bike_id": "d195a9958625da70741c8f99f510fd38", "type": "electric_scooter", "is_disabled": 0, "lat": 38.92559283333333, "rental_uris": {"ios": "https://dc.lft.to/lastmile_qr_scan", "android": "https://dc.lft.to/lastmile_qr_scan"}, "is_reserved": 0, "fusion_lon": 0.0, "fusion_lat": 0.0, "lon": -77.04374116666666, "name": "d195a9958625da70741c8f99f510fd38"}, {"bike_id": "cf3cb7a50e848867706f4169d180fb41", "type": "electric_scooter", "is_disabled": 0, "lat": 38.91268266666667, "rental_uris": {"ios": "https://dc.lft.to/lastmile_qr_scan", "android": "https://dc.lft.to/lastmile_qr_scan"}, "is_reserved": 0, "fusion_lon": 0.0, "fusion_lat": 0.0, "lon": -77.03833183333333, "name": "cf3cb7a50e848867706f4169d180fb41"}, {"bike_id": "c75c3b19e6b453bb599d5a0b231bb15c", "type": "electric_scooter", "is_disabled": 0, "lat": 38.92404833333333, "rental_uris": {"ios": "https://dc.lft.to/lastmile_qr_scan", "android": "https://dc.lft.to/lastmile_qr_scan"}, "is_reserved": 0, "fusion_lon": 0.0, "fusion_lat": 0.0, "lon": -77.02014016666666, "name": "c75c3b19e6b453bb599d5a0b231bb15c"}, {"bike_id": "212d74ec314616b2df87ec922ae847d1", "type": "electric_scooter", "is_disabled": 0, "lat": 38.90647166666667, "rental_uris": {"ios": "https://dc.lft.to/lastmile_qr_scan", "android": "https://dc.lft.to/lastmile_qr_scan"}, "is_reserved": 0, "fusion_lon": 0.0, "fusion_lat": 0.0, "lon": -77.05329616666667, "name": "212d74ec314616b2df87ec922ae847d1"}, {"bike_id": "42232de2e907c7993633ff8c6322ef7c", "type": "electric_scooter", "is_disabled": 0, "lat": 38.871571833333334, "rental_uris": {"ios": "https://dc.lft.to/lastmile_qr_scan", "android": "https://dc.lft.to/lastmile_qr_scan"}, "is_reserved": 0, "fusion_lon": 0.0, "fusion_lat": 0.0, "lon": -76.977405, "name": "42232de2e907c7993633ff8c6322ef7c"}, {"bike_id": "b3e188f797555b4f9702cab2be18db12", "type": "electric_scooter", "is_disabled": 0, "lat": 38.902784833333335, "rental_uris": {"ios": "https://dc.lft.to/lastmile_qr_scan", "android": "https://dc.lft.to/lastmile_qr_scan"}, "is_reserved": 0, "fusion_lon": 0.0, "fusion_lat": 0.0, "lon": -77.04389016666667, "name": "b3e188f797555b4f9702cab2be18db12"}, {"bike_id": "7f14dd1b01b2023ed26308b3a62dafb6", "type": "electric_bike", "is_disabled": 0, "lat": 38.95175066666667, "rental_uris": {"ios": "https://dc.lft.to/lastmile_qr_scan", "android": "https://dc.lft.to/lastmile_qr_scan"}, "is_reserved": 0, "fusion_lon": 0.0, "fusion_lat": 0.0, "lon": -76.97729533333333, "name": "7f14dd1b01b2023ed26308b3a62dafb6"}, {"bike_id": "1b034a63934009f9b421682d6f3f4160", "type": "electric_scooter", "is_disabled": 0, "lat": 38.94114416666667, "rental_uris": {"ios": "https://dc.lft.to/lastmile_qr_scan", "android": "https://dc.lft.to/lastmile_qr_scan"}, "is_reserved": 0, "fusion_lon": 0.0, "fusion_lat": 0.0, "lon": -77.02522416666666, "name": "1b034a63934009f9b421682d6f3f4160"}, {"bike_id": "ade82aa8ca83e44937b79d9bf383e93f", "type": "electric_scooter", "is_disabled": 0, "lat": 38.91038566666667, "rental_uris": {"ios": "https://dc.lft.to/lastmile_qr_scan", "android": "https://dc.lft.to/lastmile_qr_scan"}, "is_reserved": 0, "fusion_lon": 0.0, "fusion_lat": 0.0, "lon": -77.012879, "name": "ade82aa8ca83e44937b79d9bf383e93f"}, {"bike_id": "f857bfde62dde8a9e3277e563f7a2b04", "type": "electric_scooter", "is_disabled": 0, "lat": 38.904843666666665, "rental_uris": {"ios": "https://dc.lft.to/lastmile_qr_scan", "android": "https://dc.lft.to/lastmile_qr_scan"}, "is_reserved": 0, "fusion_lon": 0.0, "fusion_lat": 0.0, "lon": -77.04099083333334, "name": "f857bfde62dde8a9e3277e563f7a2b04"}, {"bike_id": "9a56830d8b6c19848e95c4727c5a032b", "type": "electric_scooter", "is_disabled": 0, "lat": 38.9361775, "rental_uris": {"ios": "https://dc.lft.to/lastmile_qr_scan", "android": "https://dc.lft.to/lastmile_qr_scan"}, "is_reserved": 0, "fusion_lon": 0.0, "fusion_lat": 0.0, "lon": -77.03768916666667, "name": "9a56830d8b6c19848e95c4727c5a032b"}, {"bike_id": "f015bd35c2444f70c6bf360d72b89851", "type": "electric_scooter", "is_disabled": 0, "lat": 38.922612666666666, "rental_uris": {"ios": "https://dc.lft.to/lastmile_qr_scan", "android": "https://dc.lft.to/lastmile_qr_scan"}, "is_reserved": 0, "fusion_lon": 0.0, "fusion_lat": 0.0, "lon": -77.042934, "name": "f015bd35c2444f70c6bf360d72b89851"}, {"bike_id": "e67dd6d0163ee284a4921de8b91a81d5", "type": "electric_scooter", "is_disabled": 0, "lat": 38.904940333333336, "rental_uris": {"ios": "https://dc.lft.to/lastmile_qr_scan", "android": "https://dc.lft.to/lastmile_qr_scan"}, "is_reserved": 0, "fusion_lon": 0.0, "fusion_lat": 0.0, "lon": -76.949637, "name": "e67dd6d0163ee284a4921de8b91a81d5"}, {"bike_id": "3c0aed01bffc45a99f2944157f31ba29", "type": "electric_scooter", "is_disabled": 0, "lat": 38.92870033333333, "rental_uris": {"ios": "https://dc.lft.to/lastmile_qr_scan", "android": "https://dc.lft.to/lastmile_qr_scan"}, "is_reserved": 0, "fusion_lon": 0.0, "fusion_lat": 0.0, "lon": -77.013944, "name": "3c0aed01bffc45a99f2944157f31ba29"}, {"bike_id": "757a081860fd520593fb54314074dec0", "type": "electric_scooter", "is_disabled": 0, "lat": 38.9285125, "rental_uris": {"ios": "https://dc.lft.to/lastmile_qr_scan", "android": "https://dc.lft.to/lastmile_qr_scan"}, "is_reserved": 0, "fusion_lon": 0.0, "fusion_lat": 0.0, "lon": -77.019537, "name": "757a081860fd520593fb54314074dec0"}, {"bike_id": "a8348fdf3e95bc17edbccb93eb027787", "type": "electric_scooter", "is_disabled": 0, "lat": 38.912789833333335, "rental_uris": {"ios": "https://dc.lft.to/lastmile_qr_scan", "android": "https://dc.lft.to/lastmile_qr_scan"}, "is_reserved": 0, "fusion_lon": 0.0, "fusion_lat": 0.0, "lon": -77.047321, "name": "a8348fdf3e95bc17edbccb93eb027787"}, {"bike_id": "6a059879ba748fcc4e1b054ac43d68fc", "type": "electric_scooter", "is_disabled": 0, "lat": 38.857015833333335, "rental_uris": {"ios": "https://dc.lft.to/lastmile_qr_scan", "android": "https://dc.lft.to/lastmile_qr_scan"}, "is_reserved": 0, "fusion_lon": 0.0, "fusion_lat": 0.0, "lon": -76.9896505, "name": "6a059879ba748fcc4e1b054ac43d68fc"}, {"bike_id": "49046104d971965ab7c164345d9c4d20", "type": "electric_scooter", "is_disabled": 0, "lat": 38.90061333333333, "rental_uris": {"ios": "https://dc.lft.to/lastmile_qr_scan", "android": "https://dc.lft.to/lastmile_qr_scan"}, "is_reserved": 0, "fusion_lon": 0.0, "fusion_lat": 0.0, "lon": -76.93472633333333, "name": "49046104d971965ab7c164345d9c4d20"}, {"bike_id": "3eb9bd51756b61b2b51d1c72df5ab2e6", "type": "electric_bike", "is_disabled": 0, "lat": 39.057869833333335, "rental_uris": {"ios": "https://dc.lft.to/lastmile_qr_scan", "android": "https://dc.lft.to/lastmile_qr_scan"}, "is_reserved": 0, "fusion_lon": 0.0, "fusion_lat": 0.0, "lon": -77.15020566666666, "name": "3eb9bd51756b61b2b51d1c72df5ab2e6"}, {"bike_id": "5864f70612f6a07ad6e3b3fcb6ebfb55", "type": "electric_scooter", "is_disabled": 0, "lat": 38.93009633333333, "rental_uris": {"ios": "https://dc.lft.to/lastmile_qr_scan", "android": "https://dc.lft.to/lastmile_qr_scan"}, "is_reserved": 0, "fusion_lon": 0.0, "fusion_lat": 0.0, "lon": -77.014301, "name": "5864f70612f6a07ad6e3b3fcb6ebfb55"}, {"bike_id": "58606020a8c3ea9535e3c630f580e0d6", "type": "electric_bike", "is_disabled": 0, "lat": 38.853133166666666, "rental_uris": {"ios": "https://dc.lft.to/lastmile_qr_scan", "android": "https://dc.lft.to/lastmile_qr_scan"}, "is_reserved": 0, "fusion_lon": 0.0, "fusion_lat": 0.0, "lon": -76.98008483333334, "name": "58606020a8c3ea9535e3c630f580e0d6"}, {"bike_id": "d0868b6b0a178d93d7e8468f14bb99b8", "type": "electric_scooter", "is_disabled": 0, "lat": 38.935293, "rental_uris": {"ios": "https://dc.lft.to/lastmile_qr_scan", "android": "https://dc.lft.to/lastmile_qr_scan"}, "is_reserved": 0, "fusion_lon": 0.0, "fusion_lat": 0.0, "lon": -77.02344966666666, "name": "d0868b6b0a178d93d7e8468f14bb99b8"}, {"bike_id": "d5d54f595a2bb5df21a3f9af15027434", "type": "electric_scooter", "is_disabled": 0, "lat": 38.852021, "rental_uris": {"ios": "https://dc.lft.to/lastmile_qr_scan", "android": "https://dc.lft.to/lastmile_qr_scan"}, "is_reserved": 0, "fusion_lon": 0.0, "fusion_lat": 0.0, "lon": -76.98556266666667, "name": "d5d54f595a2bb5df21a3f9af15027434"}, {"bike_id": "6f00d366f8ba6aaec35c5081b565b903", "type": "electric_scooter", "is_disabled": 0, "lat": 38.903571666666664, "rental_uris": {"ios": "https://dc.lft.to/lastmile_qr_scan", "android": "https://dc.lft.to/lastmile_qr_scan"}, "is_reserved": 0, "fusion_lon": 0.0, "fusion_lat": 0.0, "lon": -76.99383566666667, "name": "6f00d366f8ba6aaec35c5081b565b903"}, {"bike_id": "d3a5e1560712d136e4b2ead97be5a592", "type": "electric_bike", "is_disabled": 0, "lat": 38.89738583333333, "rental_uris": {"ios": "https://dc.lft.to/lastmile_qr_scan", "android": "https://dc.lft.to/lastmile_qr_scan"}, "is_reserved": 0, "fusion_lon": 0.0, "fusion_lat": 0.0, "lon": -76.94247516666667, "name": "d3a5e1560712d136e4b2ead97be5a592"}, {"bike_id": "de12a74d875ee163d8c4b0d97dc40791", "type": "electric_scooter", "is_disabled": 0, "lat": 38.934436, "rental_uris": {"ios": "https://dc.lft.to/lastmile_qr_scan", "android": "https://dc.lft.to/lastmile_qr_scan"}, "is_reserved": 0, "fusion_lon": 0.0, "fusion_lat": 0.0, "lon": -77.029796, "name": "de12a74d875ee163d8c4b0d97dc40791"}, {"bike_id": "f1d2fe7b46ad0c78c125bdbe046856fa", "type": "electric_scooter", "is_disabled": 0, "lat": 38.921938833333336, "rental_uris": {"ios": "https://dc.lft.to/lastmile_qr_scan", "android": "https://dc.lft.to/lastmile_qr_scan"}, "is_reserved": 0, "fusion_lon": 0.0, "fusion_lat": 0.0, "lon": -76.99361916666666, "name": "f1d2fe7b46ad0c78c125bdbe046856fa"}, {"bike_id": "945f697aa7c17a4b32b054292095f93f", "type": "electric_bike", "is_disabled": 0, "lat": 38.95624216666667, "rental_uris": {"ios": "https://dc.lft.to/lastmile_qr_scan", "android": "https://dc.lft.to/lastmile_qr_scan"}, "is_reserved": 0, "fusion_lon": 0.0, "fusion_lat": 0.0, "lon": -76.93872983333333, "name": "945f697aa7c17a4b32b054292095f93f"}, {"bike_id": "dc52ceaf297c8a9a10088a33e6043af6", "type": "electric_scooter", "is_disabled": 0, "lat": 38.924245166666665, "rental_uris": {"ios": "https://dc.lft.to/lastmile_qr_scan", "android": "https://dc.lft.to/lastmile_qr_scan"}, "is_reserved": 0, "fusion_lon": 0.0, "fusion_lat": 0.0, "lon": -77.0226355, "name": "dc52ceaf297c8a9a10088a33e6043af6"}, {"bike_id": "88b8685095b0e144ca7b9b444cbe8e44", "type": "electric_scooter", "is_disabled": 0, "lat": 38.884217166666666, "rental_uris": {"ios": "https://dc.lft.to/lastmile_qr_scan", "android": "https://dc.lft.to/lastmile_qr_scan"}, "is_reserved": 0, "fusion_lon": 0.0, "fusion_lat": 0.0, "lon": -77.00744516666667, "name": "88b8685095b0e144ca7b9b444cbe8e44"}, {"bike_id": "1181b1edcf90fd3b4469381b1bc904ca", "type": "electric_scooter", "is_disabled": 0, "lat": 38.872265666666664, "rental_uris": {"ios": "https://dc.lft.to/lastmile_qr_scan", "android": "https://dc.lft.to/lastmile_qr_scan"}, "is_reserved": 0, "fusion_lon": 0.0, "fusion_lat": 0.0, "lon": -77.01181883333334, "name": "1181b1edcf90fd3b4469381b1bc904ca"}, {"bike_id": "0dc3411355f371085fe84ce9974ef6e5", "type": "electric_scooter", "is_disabled": 0, "lat": 38.86374166666667, "rental_uris": {"ios": "https://dc.lft.to/lastmile_qr_scan", "android": "https://dc.lft.to/lastmile_qr_scan"}, "is_reserved": 0, "fusion_lon": 0.0, "fusion_lat": 0.0, "lon": -76.99059366666667, "name": "0dc3411355f371085fe84ce9974ef6e5"}, {"bike_id": "2cc51c20649382f7ce9aac0bb57cb112", "type": "electric_scooter", "is_disabled": 0, "lat": 38.98430183333333, "rental_uris": {"ios": "https://dc.lft.to/lastmile_qr_scan", "android": "https://dc.lft.to/lastmile_qr_scan"}, "is_reserved": 0, "fusion_lon": 0.0, "fusion_lat": 0.0, "lon": -77.0266975, "name": "2cc51c20649382f7ce9aac0bb57cb112"}, {"bike_id": "ba6a2a0a34a7c072c4f31db90ba71c2a", "type": "electric_scooter", "is_disabled": 0, "lat": 38.935482, "rental_uris": {"ios": "https://dc.lft.to/lastmile_qr_scan", "android": "https://dc.lft.to/lastmile_qr_scan"}, "is_reserved": 0, "fusion_lon": 0.0, "fusion_lat": 0.0, "lon": -77.02510166666667, "name": "ba6a2a0a34a7c072c4f31db90ba71c2a"}, {"bike_id": "1c93477e27d06baca55ff9737bda02ac", "type": "electric_scooter", "is_disabled": 0, "lat": 38.9176555, "rental_uris": {"ios": "https://dc.lft.to/lastmile_qr_scan", "android": "https://dc.lft.to/lastmile_qr_scan"}, "is_reserved": 0, "fusion_lon": 0.0, "fusion_lat": 0.0, "lon": -77.04768416666667, "name": "1c93477e27d06baca55ff9737bda02ac"}, {"bike_id": "ee94813405bcd9b732365a60167ebfed", "type": "electric_scooter", "is_disabled": 0, "lat": 38.9282495, "rental_uris": {"ios": "https://dc.lft.to/lastmile_qr_scan", "android": "https://dc.lft.to/lastmile_qr_scan"}, "is_reserved": 0, "fusion_lon": 0.0, "fusion_lat": 0.0, "lon": -77.02258233333333, "name": "ee94813405bcd9b732365a60167ebfed"}, {"bike_id": "81f03480be4a82df1ce53761ae8ccfaf", "type": "electric_scooter", "is_disabled": 0, "lat": 38.902652, "rental_uris": {"ios": "https://dc.lft.to/lastmile_qr_scan", "android": "https://dc.lft.to/lastmile_qr_scan"}, "is_reserved": 0, "fusion_lon": 0.0, "fusion_lat": 0.0, "lon": -77.03388533333333, "name": "81f03480be4a82df1ce53761ae8ccfaf"}, {"bike_id": "dd543d2708314bca49da04e840f19b91", "type": "electric_scooter", "is_disabled": 0, "lat": 38.92070666666667, "rental_uris": {"ios": "https://dc.lft.to/lastmile_qr_scan", "android": "https://dc.lft.to/lastmile_qr_scan"}, "is_reserved": 0, "fusion_lon": 0.0, "fusion_lat": 0.0, "lon": -77.0250585, "name": "dd543d2708314bca49da04e840f19b91"}, {"bike_id": "0aaf65c792c4f1b6f28b5c294d0f9bca", "type": "electric_scooter", "is_disabled": 0, "lat": 38.9067025, "rental_uris": {"ios": "https://dc.lft.to/lastmile_qr_scan", "android": "https://dc.lft.to/lastmile_qr_scan"}, "is_reserved": 0, "fusion_lon": 0.0, "fusion_lat": 0.0, "lon": -77.02717, "name": "0aaf65c792c4f1b6f28b5c294d0f9bca"}, {"bike_id": "c7631680cc8d7098b99ad3c2f95e63d4", "type": "electric_bike", "is_disabled": 0, "lat": 38.9402025, "rental_uris": {"ios": "https://dc.lft.to/lastmile_qr_scan", "android": "https://dc.lft.to/lastmile_qr_scan"}, "is_reserved": 0, "fusion_lon": 0.0, "fusion_lat": 0.0, "lon": -76.97606316666666, "name": "c7631680cc8d7098b99ad3c2f95e63d4"}, {"bike_id": "cb4364f91152a52f42c2c53c2a32088b", "type": "electric_scooter", "is_disabled": 0, "lat": 38.900312666666665, "rental_uris": {"ios": "https://dc.lft.to/lastmile_qr_scan", "android": "https://dc.lft.to/lastmile_qr_scan"}, "is_reserved": 0, "fusion_lon": 0.0, "fusion_lat": 0.0, "lon": -77.00212083333334, "name": "cb4364f91152a52f42c2c53c2a32088b"}, {"bike_id": "09eb33bdd1fbc99e92e81421d2ca5e84", "type": "electric_bike", "is_disabled": 0, "lat": 38.87479366666667, "rental_uris": {"ios": "https://dc.lft.to/lastmile_qr_scan", "android": "https://dc.lft.to/lastmile_qr_scan"}, "is_reserved": 0, "fusion_lon": 0.0, "fusion_lat": 0.0, "lon": -76.9652555, "name": "09eb33bdd1fbc99e92e81421d2ca5e84"}, {"bike_id": "ead1a5a22fb75ee1d8fd67e956597282", "type": "electric_scooter", "is_disabled": 0, "lat": 38.9319055, "rental_uris": {"ios": "https://dc.lft.to/lastmile_qr_scan", "android": "https://dc.lft.to/lastmile_qr_scan"}, "is_reserved": 0, "fusion_lon": 0.0, "fusion_lat": 0.0, "lon": -77.0453345, "name": "ead1a5a22fb75ee1d8fd67e956597282"}, {"bike_id": "f2b31a77e5888b19c3304ba3417cb72a", "type": "electric_scooter", "is_disabled": 0, "lat": 38.901710666666666, "rental_uris": {"ios": "https://dc.lft.to/lastmile_qr_scan", "android": "https://dc.lft.to/lastmile_qr_scan"}, "is_reserved": 0, "fusion_lon": 0.0, "fusion_lat": 0.0, "lon": -76.93027633333334, "name": "f2b31a77e5888b19c3304ba3417cb72a"}, {"bike_id": "c3e16ffce24881d0d74ea4aadb0c4028", "type": "electric_scooter", "is_disabled": 0, "lat": 38.876378, "rental_uris": {"ios": "https://dc.lft.to/lastmile_qr_scan", "android": "https://dc.lft.to/lastmile_qr_scan"}, "is_reserved": 0, "fusion_lon": 0.0, "fusion_lat": 0.0, "lon": -77.01692183333333, "name": "c3e16ffce24881d0d74ea4aadb0c4028"}, {"bike_id": "0280cb004b688ac054f70b042d0b4ef2", "type": "electric_scooter", "is_disabled": 0, "lat": 38.91280716666667, "rental_uris": {"ios": "https://dc.lft.to/lastmile_qr_scan", "android": "https://dc.lft.to/lastmile_qr_scan"}, "is_reserved": 0, "fusion_lon": 0.0, "fusion_lat": 0.0, "lon": -77.03653316666667, "name": "0280cb004b688ac054f70b042d0b4ef2"}, {"bike_id": "1f7a1036fa1e28a73e896b1014fea2b2", "type": "electric_scooter", "is_disabled": 0, "lat": 38.922828833333334, "rental_uris": {"ios": "https://dc.lft.to/lastmile_qr_scan", "android": "https://dc.lft.to/lastmile_qr_scan"}, "is_reserved": 0, "fusion_lon": 0.0, "fusion_lat": 0.0, "lon": -77.036831, "name": "1f7a1036fa1e28a73e896b1014fea2b2"}, {"bike_id": "9e0a5b83efd5918d57f4993bf9c9bb89", "type": "electric_scooter", "is_disabled": 0, "lat": 38.887113, "rental_uris": {"ios": "https://dc.lft.to/lastmile_qr_scan", "android": "https://dc.lft.to/lastmile_qr_scan"}, "is_reserved": 0, "fusion_lon": 0.0, "fusion_lat": 0.0, "lon": -77.0220025, "name": "9e0a5b83efd5918d57f4993bf9c9bb89"}, {"bike_id": "38b3038817b6bad3e131008d32a84eaa", "type": "electric_scooter", "is_disabled": 0, "lat": 38.91719233333333, "rental_uris": {"ios": "https://dc.lft.to/lastmile_qr_scan", "android": "https://dc.lft.to/lastmile_qr_scan"}, "is_reserved": 0, "fusion_lon": 0.0, "fusion_lat": 0.0, "lon": -77.03659666666667, "name": "38b3038817b6bad3e131008d32a84eaa"}, {"bike_id": "19b9538fa225e3b23f790edb4a14997e", "type": "electric_scooter", "is_disabled": 0, "lat": 38.90242933333333, "rental_uris": {"ios": "https://dc.lft.to/lastmile_qr_scan", "android": "https://dc.lft.to/lastmile_qr_scan"}, "is_reserved": 0, "fusion_lon": 0.0, "fusion_lat": 0.0, "lon": -77.02113833333334, "name": "19b9538fa225e3b23f790edb4a14997e"}, {"bike_id": "18c8e92a12fd50aa0058aa51b03cd26c", "type": "electric_bike", "is_disabled": 0, "lat": 38.813059, "rental_uris": {"ios": "https://dc.lft.to/lastmile_qr_scan", "android": "https://dc.lft.to/lastmile_qr_scan"}, "is_reserved": 0, "fusion_lon": 0.0, "fusion_lat": 0.0, "lon": -77.10964333333334, "name": "18c8e92a12fd50aa0058aa51b03cd26c"}, {"bike_id": "16059c441e7e56c799c572e6d780105d", "type": "electric_scooter", "is_disabled": 0, "lat": 38.900784333333334, "rental_uris": {"ios": "https://dc.lft.to/lastmile_qr_scan", "android": "https://dc.lft.to/lastmile_qr_scan"}, "is_reserved": 0, "fusion_lon": 0.0, "fusion_lat": 0.0, "lon": -77.01899733333333, "name": "16059c441e7e56c799c572e6d780105d"}, {"bike_id": "6ad70be007a1d401c6f3d0de8b89b64a", "type": "electric_scooter", "is_disabled": 0, "lat": 38.956298, "rental_uris": {"ios": "https://dc.lft.to/lastmile_qr_scan", "android": "https://dc.lft.to/lastmile_qr_scan"}, "is_reserved": 0, "fusion_lon": 0.0, "fusion_lat": 0.0, "lon": -77.01163616666666, "name": "6ad70be007a1d401c6f3d0de8b89b64a"}, {"bike_id": "5c2a9b9ff436c7e3bed8ad664e8c2c9f", "type": "electric_scooter", "is_disabled": 0, "lat": 38.887084333333334, "rental_uris": {"ios": "https://dc.lft.to/lastmile_qr_scan", "android": "https://dc.lft.to/lastmile_qr_scan"}, "is_reserved": 0, "fusion_lon": 0.0, "fusion_lat": 0.0, "lon": -77.02198833333334, "name": "5c2a9b9ff436c7e3bed8ad664e8c2c9f"}, {"bike_id": "785d8ba9424f11de8561eb19c4c11498", "type": "electric_scooter", "is_disabled": 0, "lat": 38.89738633333333, "rental_uris": {"ios": "https://dc.lft.to/lastmile_qr_scan", "android": "https://dc.lft.to/lastmile_qr_scan"}, "is_reserved": 0, "fusion_lon": 0.0, "fusion_lat": 0.0, "lon": -76.99755616666667, "name": "785d8ba9424f11de8561eb19c4c11498"}, {"bike_id": "b09e6e714a83f1beecf72e0d20bab27c", "type": "electric_scooter", "is_disabled": 0, "lat": 38.924123, "rental_uris": {"ios": "https://dc.lft.to/lastmile_qr_scan", "android": "https://dc.lft.to/lastmile_qr_scan"}, "is_reserved": 0, "fusion_lon": 0.0, "fusion_lat": 0.0, "lon": -77.0506005, "name": "b09e6e714a83f1beecf72e0d20bab27c"}, {"bike_id": "f65a9da1a6758be176a8c0168f642356", "type": "electric_scooter", "is_disabled": 0, "lat": 38.90738316666667, "rental_uris": {"ios": "https://dc.lft.to/lastmile_qr_scan", "android": "https://dc.lft.to/lastmile_qr_scan"}, "is_reserved": 0, "fusion_lon": 0.0, "fusion_lat": 0.0, "lon": -77.028068, "name": "f65a9da1a6758be176a8c0168f642356"}, {"bike_id": "ccb7ced1ab1c51166bcfa9f1af1e0963", "type": "electric_scooter", "is_disabled": 0, "lat": 38.9040065, "rental_uris": {"ios": "https://dc.lft.to/lastmile_qr_scan", "android": "https://dc.lft.to/lastmile_qr_scan"}, "is_reserved": 0, "fusion_lon": 0.0, "fusion_lat": 0.0, "lon": -77.00580683333334, "name": "ccb7ced1ab1c51166bcfa9f1af1e0963"}, {"bike_id": "ee5de5adc5547eac8ea69071308d0750", "type": "electric_scooter", "is_disabled": 0, "lat": 38.89726366666667, "rental_uris": {"ios": "https://dc.lft.to/lastmile_qr_scan", "android": "https://dc.lft.to/lastmile_qr_scan"}, "is_reserved": 0, "fusion_lon": 0.0, "fusion_lat": 0.0, "lon": -77.04858433333334, "name": "ee5de5adc5547eac8ea69071308d0750"}, {"bike_id": "881b26491cb597fcdc93540fa92133af", "type": "electric_scooter", "is_disabled": 0, "lat": 38.92478933333334, "rental_uris": {"ios": "https://dc.lft.to/lastmile_qr_scan", "android": "https://dc.lft.to/lastmile_qr_scan"}, "is_reserved": 0, "fusion_lon": 0.0, "fusion_lat": 0.0, "lon": -77.0266865, "name": "881b26491cb597fcdc93540fa92133af"}, {"bike_id": "15d4b3f55945db76ea5a77955079a673", "type": "electric_scooter", "is_disabled": 0, "lat": 38.941972666666665, "rental_uris": {"ios": "https://dc.lft.to/lastmile_qr_scan", "android": "https://dc.lft.to/lastmile_qr_scan"}, "is_reserved": 0, "fusion_lon": 0.0, "fusion_lat": 0.0, "lon": -77.02348516666666, "name": "15d4b3f55945db76ea5a77955079a673"}, {"bike_id": "9e0bc682ac72b9e4bc5a051e25b4dcf7", "type": "electric_scooter", "is_disabled": 0, "lat": 38.87021416666666, "rental_uris": {"ios": "https://dc.lft.to/lastmile_qr_scan", "android": "https://dc.lft.to/lastmile_qr_scan"}, "is_reserved": 0, "fusion_lon": 0.0, "fusion_lat": 0.0, "lon": -76.980797, "name": "9e0bc682ac72b9e4bc5a051e25b4dcf7"}, {"bike_id": "85cfd03a7996e574843206f70670efbe", "type": "electric_scooter", "is_disabled": 0, "lat": 38.92821166666667, "rental_uris": {"ios": "https://dc.lft.to/lastmile_qr_scan", "android": "https://dc.lft.to/lastmile_qr_scan"}, "is_reserved": 0, "fusion_lon": 0.0, "fusion_lat": 0.0, "lon": -77.0225505, "name": "85cfd03a7996e574843206f70670efbe"}, {"bike_id": "538b5ebe8c1edf91257822f7ff9f8dfe", "type": "electric_scooter", "is_disabled": 0, "lat": 38.907159, "rental_uris": {"ios": "https://dc.lft.to/lastmile_qr_scan", "android": "https://dc.lft.to/lastmile_qr_scan"}, "is_reserved": 0, "fusion_lon": 0.0, "fusion_lat": 0.0, "lon": -77.01465466666667, "name": "538b5ebe8c1edf91257822f7ff9f8dfe"}, {"bike_id": "dcfae9b5afe25e9e2aadf43d48106414", "type": "electric_scooter", "is_disabled": 0, "lat": 38.934593166666666, "rental_uris": {"ios": "https://dc.lft.to/lastmile_qr_scan", "android": "https://dc.lft.to/lastmile_qr_scan"}, "is_reserved": 0, "fusion_lon": 0.0, "fusion_lat": 0.0, "lon": -77.029326, "name": "dcfae9b5afe25e9e2aadf43d48106414"}, {"bike_id": "ab79a166e4106f061c3ce35981167014", "type": "electric_scooter", "is_disabled": 0, "lat": 38.905755166666665, "rental_uris": {"ios": "https://dc.lft.to/lastmile_qr_scan", "android": "https://dc.lft.to/lastmile_qr_scan"}, "is_reserved": 0, "fusion_lon": 0.0, "fusion_lat": 0.0, "lon": -77.026043, "name": "ab79a166e4106f061c3ce35981167014"}, {"bike_id": "c8b431307777cf872bb806fef4475bca", "type": "electric_scooter", "is_disabled": 0, "lat": 38.89177566666667, "rental_uris": {"ios": "https://dc.lft.to/lastmile_qr_scan", "android": "https://dc.lft.to/lastmile_qr_scan"}, "is_reserved": 0, "fusion_lon": 0.0, "fusion_lat": 0.0, "lon": -77.02204, "name": "c8b431307777cf872bb806fef4475bca"}, {"bike_id": "0b03d0c8f8d08cb9b4a830d0bb108c68", "type": "electric_scooter", "is_disabled": 0, "lat": 38.93531933333333, "rental_uris": {"ios": "https://dc.lft.to/lastmile_qr_scan", "android": "https://dc.lft.to/lastmile_qr_scan"}, "is_reserved": 0, "fusion_lon": 0.0, "fusion_lat": 0.0, "lon": -77.02349333333333, "name": "0b03d0c8f8d08cb9b4a830d0bb108c68"}, {"bike_id": "59cf9556e322beb517563977ab425831", "type": "electric_scooter", "is_disabled": 0, "lat": 38.91419116666667, "rental_uris": {"ios": "https://dc.lft.to/lastmile_qr_scan", "android": "https://dc.lft.to/lastmile_qr_scan"}, "is_reserved": 0, "fusion_lon": 0.0, "fusion_lat": 0.0, "lon": -77.02287116666666, "name": "59cf9556e322beb517563977ab425831"}, {"bike_id": "2dab50751c43444388c62a91ae93e3b4", "type": "electric_scooter", "is_disabled": 0, "lat": 38.920681333333334, "rental_uris": {"ios": "https://dc.lft.to/lastmile_qr_scan", "android": "https://dc.lft.to/lastmile_qr_scan"}, "is_reserved": 0, "fusion_lon": 0.0, "fusion_lat": 0.0, "lon": -77.025115, "name": "2dab50751c43444388c62a91ae93e3b4"}, {"bike_id": "d4b099fd357f4a394546c6f19c93b675", "type": "electric_bike", "is_disabled": 0, "lat": 38.865108666666664, "rental_uris": {"ios": "https://dc.lft.to/lastmile_qr_scan", "android": "https://dc.lft.to/lastmile_qr_scan"}, "is_reserved": 0, "fusion_lon": 0.0, "fusion_lat": 0.0, "lon": -76.973348, "name": "d4b099fd357f4a394546c6f19c93b675"}, {"bike_id": "02a16b145f1f063e328fc41baedf19fc", "type": "electric_scooter", "is_disabled": 0, "lat": 38.90505433333333, "rental_uris": {"ios": "https://dc.lft.to/lastmile_qr_scan", "android": "https://dc.lft.to/lastmile_qr_scan"}, "is_reserved": 0, "fusion_lon": 0.0, "fusion_lat": 0.0, "lon": -77.06004033333333, "name": "02a16b145f1f063e328fc41baedf19fc"}, {"bike_id": "9038672238771abe15a8ed2359e84361", "type": "electric_scooter", "is_disabled": 0, "lat": 38.8887825, "rental_uris": {"ios": "https://dc.lft.to/lastmile_qr_scan", "android": "https://dc.lft.to/lastmile_qr_scan"}, "is_reserved": 0, "fusion_lon": 0.0, "fusion_lat": 0.0, "lon": -76.99027616666666, "name": "9038672238771abe15a8ed2359e84361"}, {"bike_id": "b33be54be594511276696912dcdfc412", "type": "electric_scooter", "is_disabled": 0, "lat": 38.8431615, "rental_uris": {"ios": "https://dc.lft.to/lastmile_qr_scan", "android": "https://dc.lft.to/lastmile_qr_scan"}, "is_reserved": 0, "fusion_lon": 0.0, "fusion_lat": 0.0, "lon": -76.9992845, "name": "b33be54be594511276696912dcdfc412"}, {"bike_id": "74b895c241f0f8ebabf28f0f9fd9e25a", "type": "electric_scooter", "is_disabled": 0, "lat": 38.8949325, "rental_uris": {"ios": "https://dc.lft.to/lastmile_qr_scan", "android": "https://dc.lft.to/lastmile_qr_scan"}, "is_reserved": 0, "fusion_lon": 0.0, "fusion_lat": 0.0, "lon": -76.9883365, "name": "74b895c241f0f8ebabf28f0f9fd9e25a"}, {"bike_id": "a7dcbfea4fadbeed659221af80cdf13b", "type": "electric_scooter", "is_disabled": 0, "lat": 38.89607183333333, "rental_uris": {"ios": "https://dc.lft.to/lastmile_qr_scan", "android": "https://dc.lft.to/lastmile_qr_scan"}, "is_reserved": 0, "fusion_lon": 0.0, "fusion_lat": 0.0, "lon": -77.02699183333333, "name": "a7dcbfea4fadbeed659221af80cdf13b"}, {"bike_id": "b0ddd12ded62e7c8be7f835763731b76", "type": "electric_scooter", "is_disabled": 0, "lat": 38.89230033333333, "rental_uris": {"ios": "https://dc.lft.to/lastmile_qr_scan", "android": "https://dc.lft.to/lastmile_qr_scan"}, "is_reserved": 0, "fusion_lon": 0.0, "fusion_lat": 0.0, "lon": -77.049929, "name": "b0ddd12ded62e7c8be7f835763731b76"}, {"bike_id": "5a9a2d20a88e891b1cfafadff56d8a94", "type": "electric_scooter", "is_disabled": 0, "lat": 38.92013766666667, "rental_uris": {"ios": "https://dc.lft.to/lastmile_qr_scan", "android": "https://dc.lft.to/lastmile_qr_scan"}, "is_reserved": 0, "fusion_lon": 0.0, "fusion_lat": 0.0, "lon": -77.02387933333333, "name": "5a9a2d20a88e891b1cfafadff56d8a94"}, {"bike_id": "f2c302eabe21edc160acbe23dfe64bcf", "type": "electric_scooter", "is_disabled": 0, "lat": 38.899671833333336, "rental_uris": {"ios": "https://dc.lft.to/lastmile_qr_scan", "android": "https://dc.lft.to/lastmile_qr_scan"}, "is_reserved": 0, "fusion_lon": 0.0, "fusion_lat": 0.0, "lon": -76.9830145, "name": "f2c302eabe21edc160acbe23dfe64bcf"}, {"bike_id": "31e91e3de31571cfe295a5fc980f0b2f", "type": "electric_scooter", "is_disabled": 0, "lat": 38.925255166666666, "rental_uris": {"ios": "https://dc.lft.to/lastmile_qr_scan", "android": "https://dc.lft.to/lastmile_qr_scan"}, "is_reserved": 0, "fusion_lon": 0.0, "fusion_lat": 0.0, "lon": -77.07715866666666, "name": "31e91e3de31571cfe295a5fc980f0b2f"}, {"bike_id": "5e8f93a8fbd3c79a67301e3a65e52ed5", "type": "electric_scooter", "is_disabled": 0, "lat": 38.917245, "rental_uris": {"ios": "https://dc.lft.to/lastmile_qr_scan", "android": "https://dc.lft.to/lastmile_qr_scan"}, "is_reserved": 0, "fusion_lon": 0.0, "fusion_lat": 0.0, "lon": -77.03124033333333, "name": "5e8f93a8fbd3c79a67301e3a65e52ed5"}, {"bike_id": "a34274c450fd623fd3b1ad5d3a07e41d", "type": "electric_scooter", "is_disabled": 0, "lat": 38.9096225, "rental_uris": {"ios": "https://dc.lft.to/lastmile_qr_scan", "android": "https://dc.lft.to/lastmile_qr_scan"}, "is_reserved": 0, "fusion_lon": 0.0, "fusion_lat": 0.0, "lon": -77.023061, "name": "a34274c450fd623fd3b1ad5d3a07e41d"}, {"bike_id": "f3cdcdcf83b9ee848198498de3a7dc07", "type": "electric_scooter", "is_disabled": 0, "lat": 38.927575833333336, "rental_uris": {"ios": "https://dc.lft.to/lastmile_qr_scan", "android": "https://dc.lft.to/lastmile_qr_scan"}, "is_reserved": 0, "fusion_lon": 0.0, "fusion_lat": 0.0, "lon": -77.03270666666667, "name": "f3cdcdcf83b9ee848198498de3a7dc07"}, {"bike_id": "a513620fd3d83578ab89433330fd18e7", "type": "electric_scooter", "is_disabled": 0, "lat": 38.920686833333335, "rental_uris": {"ios": "https://dc.lft.to/lastmile_qr_scan", "android": "https://dc.lft.to/lastmile_qr_scan"}, "is_reserved": 0, "fusion_lon": 0.0, "fusion_lat": 0.0, "lon": -77.0250855, "name": "a513620fd3d83578ab89433330fd18e7"}, {"bike_id": "1c75099cb5decdce9c817e386e35abdb", "type": "electric_bike", "is_disabled": 0, "lat": 38.990917, "rental_uris": {"ios": "https://dc.lft.to/lastmile_qr_scan", "android": "https://dc.lft.to/lastmile_qr_scan"}, "is_reserved": 0, "fusion_lon": 0.0, "fusion_lat": 0.0, "lon": -76.87494183333334, "name": "1c75099cb5decdce9c817e386e35abdb"}, {"bike_id": "400c9b1b7236cfd30081055d445b5fb2", "type": "electric_scooter", "is_disabled": 0, "lat": 38.90393316666667, "rental_uris": {"ios": "https://dc.lft.to/lastmile_qr_scan", "android": "https://dc.lft.to/lastmile_qr_scan"}, "is_reserved": 0, "fusion_lon": 0.0, "fusion_lat": 0.0, "lon": -77.05368816666666, "name": "400c9b1b7236cfd30081055d445b5fb2"}, {"bike_id": "b80e8f6ecb39173a5b352709f9efac34", "type": "electric_scooter", "is_disabled": 0, "lat": 38.9260875, "rental_uris": {"ios": "https://dc.lft.to/lastmile_qr_scan", "android": "https://dc.lft.to/lastmile_qr_scan"}, "is_reserved": 0, "fusion_lon": 0.0, "fusion_lat": 0.0, "lon": -77.02651083333333, "name": "b80e8f6ecb39173a5b352709f9efac34"}, {"bike_id": "f82a2d6a763fd6afc235821050940ca8", "type": "electric_scooter", "is_disabled": 0, "lat": 38.905787333333336, "rental_uris": {"ios": "https://dc.lft.to/lastmile_qr_scan", "android": "https://dc.lft.to/lastmile_qr_scan"}, "is_reserved": 0, "fusion_lon": 0.0, "fusion_lat": 0.0, "lon": -77.0260005, "name": "f82a2d6a763fd6afc235821050940ca8"}, {"bike_id": "74e8ae332fb7cf24c6cc3b58c9cc84bb", "type": "electric_scooter", "is_disabled": 0, "lat": 38.91563433333334, "rental_uris": {"ios": "https://dc.lft.to/lastmile_qr_scan", "android": "https://dc.lft.to/lastmile_qr_scan"}, "is_reserved": 0, "fusion_lon": 0.0, "fusion_lat": 0.0, "lon": -77.03874116666667, "name": "74e8ae332fb7cf24c6cc3b58c9cc84bb"}, {"bike_id": "891d3db46defc8d0ccc28894a21a1a64", "type": "electric_scooter", "is_disabled": 0, "lat": 38.9127315, "rental_uris": {"ios": "https://dc.lft.to/lastmile_qr_scan", "android": "https://dc.lft.to/lastmile_qr_scan"}, "is_reserved": 0, "fusion_lon": 0.0, "fusion_lat": 0.0, "lon": -77.0224545, "name": "891d3db46defc8d0ccc28894a21a1a64"}, {"bike_id": "911908005f7253048dd92c146ff80ff4", "type": "electric_scooter", "is_disabled": 0, "lat": 38.90515033333333, "rental_uris": {"ios": "https://dc.lft.to/lastmile_qr_scan", "android": "https://dc.lft.to/lastmile_qr_scan"}, "is_reserved": 0, "fusion_lon": 0.0, "fusion_lat": 0.0, "lon": -77.06871583333333, "name": "911908005f7253048dd92c146ff80ff4"}, {"bike_id": "7c036c7232483ed6375e358d5a3e7710", "type": "electric_scooter", "is_disabled": 0, "lat": 38.921523, "rental_uris": {"ios": "https://dc.lft.to/lastmile_qr_scan", "android": "https://dc.lft.to/lastmile_qr_scan"}, "is_reserved": 0, "fusion_lon": 0.0, "fusion_lat": 0.0, "lon": -77.03444633333334, "name": "7c036c7232483ed6375e358d5a3e7710"}, {"bike_id": "478a047f0d447b2b5d5c4f444189405f", "type": "electric_scooter", "is_disabled": 0, "lat": 38.8782975, "rental_uris": {"ios": "https://dc.lft.to/lastmile_qr_scan", "android": "https://dc.lft.to/lastmile_qr_scan"}, "is_reserved": 0, "fusion_lon": 0.0, "fusion_lat": 0.0, "lon": -77.00570383333333, "name": "478a047f0d447b2b5d5c4f444189405f"}, {"bike_id": "d19e1562f2596cbd709bffeaafa322ba", "type": "electric_scooter", "is_disabled": 0, "lat": 38.890872, "rental_uris": {"ios": "https://dc.lft.to/lastmile_qr_scan", "android": "https://dc.lft.to/lastmile_qr_scan"}, "is_reserved": 0, "fusion_lon": 0.0, "fusion_lat": 0.0, "lon": -77.00257716666667, "name": "d19e1562f2596cbd709bffeaafa322ba"}, {"bike_id": "d31903b7e9be2ae99f3d9eedc2810646", "type": "electric_scooter", "is_disabled": 0, "lat": 38.942166666666665, "rental_uris": {"ios": "https://dc.lft.to/lastmile_qr_scan", "android": "https://dc.lft.to/lastmile_qr_scan"}, "is_reserved": 0, "fusion_lon": 0.0, "fusion_lat": 0.0, "lon": -77.02585783333333, "name": "d31903b7e9be2ae99f3d9eedc2810646"}, {"bike_id": "e007dfcbc060ad201d0f353eb4404b64", "type": "electric_scooter", "is_disabled": 0, "lat": 38.91914416666667, "rental_uris": {"ios": "https://dc.lft.to/lastmile_qr_scan", "android": "https://dc.lft.to/lastmile_qr_scan"}, "is_reserved": 0, "fusion_lon": 0.0, "fusion_lat": 0.0, "lon": -77.03111783333334, "name": "e007dfcbc060ad201d0f353eb4404b64"}, {"bike_id": "f0779e014d34cd565a251d0e0f1a7fde", "type": "electric_scooter", "is_disabled": 0, "lat": 38.87663883333333, "rental_uris": {"ios": "https://dc.lft.to/lastmile_qr_scan", "android": "https://dc.lft.to/lastmile_qr_scan"}, "is_reserved": 0, "fusion_lon": 0.0, "fusion_lat": 0.0, "lon": -77.00422, "name": "f0779e014d34cd565a251d0e0f1a7fde"}, {"bike_id": "928b846e3279a32044a23eb89c239224", "type": "electric_scooter", "is_disabled": 0, "lat": 38.91976483333333, "rental_uris": {"ios": "https://dc.lft.to/lastmile_qr_scan", "android": "https://dc.lft.to/lastmile_qr_scan"}, "is_reserved": 0, "fusion_lon": 0.0, "fusion_lat": 0.0, "lon": -77.0184845, "name": "928b846e3279a32044a23eb89c239224"}, {"bike_id": "ed46421ce9cf0d45db9ecc7dfbb2f7d5", "type": "electric_scooter", "is_disabled": 0, "lat": 38.90759083333333, "rental_uris": {"ios": "https://dc.lft.to/lastmile_qr_scan", "android": "https://dc.lft.to/lastmile_qr_scan"}, "is_reserved": 0, "fusion_lon": 0.0, "fusion_lat": 0.0, "lon": -77.03070766666667, "name": "ed46421ce9cf0d45db9ecc7dfbb2f7d5"}, {"bike_id": "9232843663d5c79ba0a3f1773156416b", "type": "electric_scooter", "is_disabled": 0, "lat": 38.934867833333335, "rental_uris": {"ios": "https://dc.lft.to/lastmile_qr_scan", "android": "https://dc.lft.to/lastmile_qr_scan"}, "is_reserved": 0, "fusion_lon": 0.0, "fusion_lat": 0.0, "lon": -77.032765, "name": "9232843663d5c79ba0a3f1773156416b"}, {"bike_id": "73e462d9f78a9637835f799c8da7bd72", "type": "electric_scooter", "is_disabled": 0, "lat": 38.92330333333334, "rental_uris": {"ios": "https://dc.lft.to/lastmile_qr_scan", "android": "https://dc.lft.to/lastmile_qr_scan"}, "is_reserved": 0, "fusion_lon": 0.0, "fusion_lat": 0.0, "lon": -77.04612, "name": "73e462d9f78a9637835f799c8da7bd72"}, {"bike_id": "ff48ea95476b31417a0836e939b61858", "type": "electric_scooter", "is_disabled": 0, "lat": 38.90955, "rental_uris": {"ios": "https://dc.lft.to/lastmile_qr_scan", "android": "https://dc.lft.to/lastmile_qr_scan"}, "is_reserved": 0, "fusion_lon": 0.0, "fusion_lat": 0.0, "lon": -77.023026, "name": "ff48ea95476b31417a0836e939b61858"}, {"bike_id": "ac31faf4eea4381a86a993c892f78c13", "type": "electric_scooter", "is_disabled": 0, "lat": 38.924816666666665, "rental_uris": {"ios": "https://dc.lft.to/lastmile_qr_scan", "android": "https://dc.lft.to/lastmile_qr_scan"}, "is_reserved": 0, "fusion_lon": 0.0, "fusion_lat": 0.0, "lon": -77.05754566666667, "name": "ac31faf4eea4381a86a993c892f78c13"}, {"bike_id": "77e6f1ec6b187ee20c5bf55a1c890575", "type": "electric_scooter", "is_disabled": 0, "lat": 38.909105, "rental_uris": {"ios": "https://dc.lft.to/lastmile_qr_scan", "android": "https://dc.lft.to/lastmile_qr_scan"}, "is_reserved": 0, "fusion_lon": 0.0, "fusion_lat": 0.0, "lon": -76.98420583333333, "name": "77e6f1ec6b187ee20c5bf55a1c890575"}, {"bike_id": "4a6107028c739085c21f0c915a764d53", "type": "electric_scooter", "is_disabled": 0, "lat": 38.933207, "rental_uris": {"ios": "https://dc.lft.to/lastmile_qr_scan", "android": "https://dc.lft.to/lastmile_qr_scan"}, "is_reserved": 0, "fusion_lon": 0.0, "fusion_lat": 0.0, "lon": -77.03257833333333, "name": "4a6107028c739085c21f0c915a764d53"}, {"bike_id": "6dd49e4dc31e7e7ae497155fc924f984", "type": "electric_scooter", "is_disabled": 0, "lat": 38.91638183333333, "rental_uris": {"ios": "https://dc.lft.to/lastmile_qr_scan", "android": "https://dc.lft.to/lastmile_qr_scan"}, "is_reserved": 0, "fusion_lon": 0.0, "fusion_lat": 0.0, "lon": -77.04818216666666, "name": "6dd49e4dc31e7e7ae497155fc924f984"}, {"bike_id": "b9941b7377ad23aad7278d7909454a16", "type": "electric_scooter", "is_disabled": 0, "lat": 38.893118, "rental_uris": {"ios": "https://dc.lft.to/lastmile_qr_scan", "android": "https://dc.lft.to/lastmile_qr_scan"}, "is_reserved": 0, "fusion_lon": 0.0, "fusion_lat": 0.0, "lon": -76.93960216666666, "name": "b9941b7377ad23aad7278d7909454a16"}, {"bike_id": "1961086febda3b5acb9e421792e8b47e", "type": "electric_scooter", "is_disabled": 0, "lat": 38.87965583333333, "rental_uris": {"ios": "https://dc.lft.to/lastmile_qr_scan", "android": "https://dc.lft.to/lastmile_qr_scan"}, "is_reserved": 0, "fusion_lon": 0.0, "fusion_lat": 0.0, "lon": -76.98535433333333, "name": "1961086febda3b5acb9e421792e8b47e"}, {"bike_id": "641b89d38c68d3fcad030c5a6f17e721", "type": "electric_scooter", "is_disabled": 0, "lat": 38.915873166666664, "rental_uris": {"ios": "https://dc.lft.to/lastmile_qr_scan", "android": "https://dc.lft.to/lastmile_qr_scan"}, "is_reserved": 0, "fusion_lon": 0.0, "fusion_lat": 0.0, "lon": -77.04535316666667, "name": "641b89d38c68d3fcad030c5a6f17e721"}, {"bike_id": "3fb4b1e526b2d45fc48ebfbaa597b116", "type": "electric_scooter", "is_disabled": 0, "lat": 38.920465166666666, "rental_uris": {"ios": "https://dc.lft.to/lastmile_qr_scan", "android": "https://dc.lft.to/lastmile_qr_scan"}, "is_reserved": 0, "fusion_lon": 0.0, "fusion_lat": 0.0, "lon": -77.017329, "name": "3fb4b1e526b2d45fc48ebfbaa597b116"}, {"bike_id": "9437d283a039559db4031d6dfc8dab11", "type": "electric_scooter", "is_disabled": 0, "lat": 38.877294166666665, "rental_uris": {"ios": "https://dc.lft.to/lastmile_qr_scan", "android": "https://dc.lft.to/lastmile_qr_scan"}, "is_reserved": 0, "fusion_lon": 0.0, "fusion_lat": 0.0, "lon": -77.01760366666667, "name": "9437d283a039559db4031d6dfc8dab11"}, {"bike_id": "51d38734e47f4645f404653427912cb3", "type": "electric_scooter", "is_disabled": 0, "lat": 38.9265855, "rental_uris": {"ios": "https://dc.lft.to/lastmile_qr_scan", "android": "https://dc.lft.to/lastmile_qr_scan"}, "is_reserved": 0, "fusion_lon": 0.0, "fusion_lat": 0.0, "lon": -77.0373035, "name": "51d38734e47f4645f404653427912cb3"}, {"bike_id": "1446ef77edb0078ef63964f135a525df", "type": "electric_scooter", "is_disabled": 0, "lat": 38.92151533333333, "rental_uris": {"ios": "https://dc.lft.to/lastmile_qr_scan", "android": "https://dc.lft.to/lastmile_qr_scan"}, "is_reserved": 0, "fusion_lon": 0.0, "fusion_lat": 0.0, "lon": -77.03869816666666, "name": "1446ef77edb0078ef63964f135a525df"}, {"bike_id": "33b8e6b4f10b9da19da8d4a0332d60d7", "type": "electric_scooter", "is_disabled": 0, "lat": 38.91815733333333, "rental_uris": {"ios": "https://dc.lft.to/lastmile_qr_scan", "android": "https://dc.lft.to/lastmile_qr_scan"}, "is_reserved": 0, "fusion_lon": 0.0, "fusion_lat": 0.0, "lon": -77.0494205, "name": "33b8e6b4f10b9da19da8d4a0332d60d7"}, {"bike_id": "d6d4306a6a3e4e814214ef05089e7186", "type": "electric_scooter", "is_disabled": 0, "lat": 38.860026500000004, "rental_uris": {"ios": "https://dc.lft.to/lastmile_qr_scan", "android": "https://dc.lft.to/lastmile_qr_scan"}, "is_reserved": 0, "fusion_lon": 0.0, "fusion_lat": 0.0, "lon": -76.985165, "name": "d6d4306a6a3e4e814214ef05089e7186"}, {"bike_id": "cd8a0791aae721e032934b4251276bf4", "type": "electric_scooter", "is_disabled": 0, "lat": 38.908516166666665, "rental_uris": {"ios": "https://dc.lft.to/lastmile_qr_scan", "android": "https://dc.lft.to/lastmile_qr_scan"}, "is_reserved": 0, "fusion_lon": 0.0, "fusion_lat": 0.0, "lon": -76.99956716666667, "name": "cd8a0791aae721e032934b4251276bf4"}, {"bike_id": "ba8abb36d58f732069cc743c637a3cf4", "type": "electric_scooter", "is_disabled": 0, "lat": 38.8919275, "rental_uris": {"ios": "https://dc.lft.to/lastmile_qr_scan", "android": "https://dc.lft.to/lastmile_qr_scan"}, "is_reserved": 0, "fusion_lon": 0.0, "fusion_lat": 0.0, "lon": -77.029786, "name": "ba8abb36d58f732069cc743c637a3cf4"}, {"bike_id": "ab66d74a2311247f962fd050a465f7eb", "type": "electric_scooter", "is_disabled": 0, "lat": 38.92211366666667, "rental_uris": {"ios": "https://dc.lft.to/lastmile_qr_scan", "android": "https://dc.lft.to/lastmile_qr_scan"}, "is_reserved": 0, "fusion_lon": 0.0, "fusion_lat": 0.0, "lon": -77.03288916666666, "name": "ab66d74a2311247f962fd050a465f7eb"}, {"bike_id": "8b2fc7cd52065a7565e5de3393a5c995", "type": "electric_scooter", "is_disabled": 0, "lat": 38.908623666666664, "rental_uris": {"ios": "https://dc.lft.to/lastmile_qr_scan", "android": "https://dc.lft.to/lastmile_qr_scan"}, "is_reserved": 0, "fusion_lon": 0.0, "fusion_lat": 0.0, "lon": -77.003225, "name": "8b2fc7cd52065a7565e5de3393a5c995"}, {"bike_id": "09ad95adab6ece1d96a122eea9576338", "type": "electric_scooter", "is_disabled": 0, "lat": 38.905914833333334, "rental_uris": {"ios": "https://dc.lft.to/lastmile_qr_scan", "android": "https://dc.lft.to/lastmile_qr_scan"}, "is_reserved": 0, "fusion_lon": 0.0, "fusion_lat": 0.0, "lon": -77.07011716666666, "name": "09ad95adab6ece1d96a122eea9576338"}, {"bike_id": "76e87ce4086651b918b3eec8a959ce33", "type": "electric_scooter", "is_disabled": 0, "lat": 38.91922133333333, "rental_uris": {"ios": "https://dc.lft.to/lastmile_qr_scan", "android": "https://dc.lft.to/lastmile_qr_scan"}, "is_reserved": 0, "fusion_lon": 0.0, "fusion_lat": 0.0, "lon": -77.04628366666667, "name": "76e87ce4086651b918b3eec8a959ce33"}, {"bike_id": "871b69806265d0ad9eed1cc1a9cd5272", "type": "electric_scooter", "is_disabled": 0, "lat": 38.91923633333333, "rental_uris": {"ios": "https://dc.lft.to/lastmile_qr_scan", "android": "https://dc.lft.to/lastmile_qr_scan"}, "is_reserved": 0, "fusion_lon": 0.0, "fusion_lat": 0.0, "lon": -77.03362666666666, "name": "871b69806265d0ad9eed1cc1a9cd5272"}, {"bike_id": "deac8ebe956d922a40284e32fff1d0be", "type": "electric_scooter", "is_disabled": 0, "lat": 38.9309265, "rental_uris": {"ios": "https://dc.lft.to/lastmile_qr_scan", "android": "https://dc.lft.to/lastmile_qr_scan"}, "is_reserved": 0, "fusion_lon": 0.0, "fusion_lat": 0.0, "lon": -77.0247615, "name": "deac8ebe956d922a40284e32fff1d0be"}, {"bike_id": "37d62696b12be234695e74e819b86a0f", "type": "electric_bike", "is_disabled": 0, "lat": 38.882458, "rental_uris": {"ios": "https://dc.lft.to/lastmile_qr_scan", "android": "https://dc.lft.to/lastmile_qr_scan"}, "is_reserved": 0, "fusion_lon": 0.0, "fusion_lat": 0.0, "lon": -76.9625445, "name": "37d62696b12be234695e74e819b86a0f"}, {"bike_id": "3302c0c4264c8929b0137b746cead700", "type": "electric_scooter", "is_disabled": 0, "lat": 38.9072765, "rental_uris": {"ios": "https://dc.lft.to/lastmile_qr_scan", "android": "https://dc.lft.to/lastmile_qr_scan"}, "is_reserved": 0, "fusion_lon": 0.0, "fusion_lat": 0.0, "lon": -77.03451633333333, "name": "3302c0c4264c8929b0137b746cead700"}, {"bike_id": "88b47a44712a0163b723aff25fa2fd5f", "type": "electric_scooter", "is_disabled": 0, "lat": 38.8949305, "rental_uris": {"ios": "https://dc.lft.to/lastmile_qr_scan", "android": "https://dc.lft.to/lastmile_qr_scan"}, "is_reserved": 0, "fusion_lon": 0.0, "fusion_lat": 0.0, "lon": -77.02168966666666, "name": "88b47a44712a0163b723aff25fa2fd5f"}, {"bike_id": "fb02ae16115e8a8b4f03491fbdf1bd66", "type": "electric_scooter", "is_disabled": 0, "lat": 38.879465833333335, "rental_uris": {"ios": "https://dc.lft.to/lastmile_qr_scan", "android": "https://dc.lft.to/lastmile_qr_scan"}, "is_reserved": 0, "fusion_lon": 0.0, "fusion_lat": 0.0, "lon": -77.02359, "name": "fb02ae16115e8a8b4f03491fbdf1bd66"}, {"bike_id": "d887f7f92454d6980a885027c12c39ea", "type": "electric_scooter", "is_disabled": 0, "lat": 38.9329215, "rental_uris": {"ios": "https://dc.lft.to/lastmile_qr_scan", "android": "https://dc.lft.to/lastmile_qr_scan"}, "is_reserved": 0, "fusion_lon": 0.0, "fusion_lat": 0.0, "lon": -77.0354025, "name": "d887f7f92454d6980a885027c12c39ea"}, {"bike_id": "18dff97d1788a5c479b2128733b1a6ba", "type": "electric_scooter", "is_disabled": 0, "lat": 38.899757666666666, "rental_uris": {"ios": "https://dc.lft.to/lastmile_qr_scan", "android": "https://dc.lft.to/lastmile_qr_scan"}, "is_reserved": 0, "fusion_lon": 0.0, "fusion_lat": 0.0, "lon": -77.04783816666666, "name": "18dff97d1788a5c479b2128733b1a6ba"}, {"bike_id": "568b4e831f10b1286116baecfe30edf5", "type": "electric_scooter", "is_disabled": 0, "lat": 38.92329066666667, "rental_uris": {"ios": "https://dc.lft.to/lastmile_qr_scan", "android": "https://dc.lft.to/lastmile_qr_scan"}, "is_reserved": 0, "fusion_lon": 0.0, "fusion_lat": 0.0, "lon": -77.03592866666666, "name": "568b4e831f10b1286116baecfe30edf5"}, {"bike_id": "4ca8b96da7e38b2812e751a5452860d7", "type": "electric_scooter", "is_disabled": 0, "lat": 38.91051066666667, "rental_uris": {"ios": "https://dc.lft.to/lastmile_qr_scan", "android": "https://dc.lft.to/lastmile_qr_scan"}, "is_reserved": 0, "fusion_lon": 0.0, "fusion_lat": 0.0, "lon": -77.00924166666667, "name": "4ca8b96da7e38b2812e751a5452860d7"}, {"bike_id": "edb6caaddd413641184a7c365762fa03", "type": "electric_scooter", "is_disabled": 0, "lat": 38.91107916666667, "rental_uris": {"ios": "https://dc.lft.to/lastmile_qr_scan", "android": "https://dc.lft.to/lastmile_qr_scan"}, "is_reserved": 0, "fusion_lon": 0.0, "fusion_lat": 0.0, "lon": -77.038362, "name": "edb6caaddd413641184a7c365762fa03"}, {"bike_id": "e3ac5f69cf2c2efb87ffa7e538dab92a", "type": "electric_bike", "is_disabled": 0, "lat": 39.04306716666667, "rental_uris": {"ios": "https://dc.lft.to/lastmile_qr_scan", "android": "https://dc.lft.to/lastmile_qr_scan"}, "is_reserved": 0, "fusion_lon": 0.0, "fusion_lat": 0.0, "lon": -77.05159683333333, "name": "e3ac5f69cf2c2efb87ffa7e538dab92a"}, {"bike_id": "1da1e2b0ae6c16b8d3dfec3eec67cf4a", "type": "electric_scooter", "is_disabled": 0, "lat": 38.8619145, "rental_uris": {"ios": "https://dc.lft.to/lastmile_qr_scan", "android": "https://dc.lft.to/lastmile_qr_scan"}, "is_reserved": 0, "fusion_lon": 0.0, "fusion_lat": 0.0, "lon": -77.08816333333333, "name": "1da1e2b0ae6c16b8d3dfec3eec67cf4a"}, {"bike_id": "00023848c3f0b8e51031dfadd9a94c1a", "type": "electric_scooter", "is_disabled": 0, "lat": 38.938611333333334, "rental_uris": {"ios": "https://dc.lft.to/lastmile_qr_scan", "android": "https://dc.lft.to/lastmile_qr_scan"}, "is_reserved": 0, "fusion_lon": 0.0, "fusion_lat": 0.0, "lon": -77.03084233333334, "name": "00023848c3f0b8e51031dfadd9a94c1a"}, {"bike_id": "65a8f0d2a95dbed055727e6ba742d293", "type": "electric_scooter", "is_disabled": 0, "lat": 38.844398166666664, "rental_uris": {"ios": "https://dc.lft.to/lastmile_qr_scan", "android": "https://dc.lft.to/lastmile_qr_scan"}, "is_reserved": 0, "fusion_lon": 0.0, "fusion_lat": 0.0, "lon": -76.99773383333333, "name": "65a8f0d2a95dbed055727e6ba742d293"}, {"bike_id": "0117cc6f520cbb90786546b24ca5671e", "type": "electric_scooter", "is_disabled": 0, "lat": 38.921916, "rental_uris": {"ios": "https://dc.lft.to/lastmile_qr_scan", "android": "https://dc.lft.to/lastmile_qr_scan"}, "is_reserved": 0, "fusion_lon": 0.0, "fusion_lat": 0.0, "lon": -76.99359616666666, "name": "0117cc6f520cbb90786546b24ca5671e"}, {"bike_id": "afdbc406e696911fe7c004d20ae4e8ff", "type": "electric_bike", "is_disabled": 0, "lat": 38.82379816666667, "rental_uris": {"ios": "https://dc.lft.to/lastmile_qr_scan", "android": "https://dc.lft.to/lastmile_qr_scan"}, "is_reserved": 0, "fusion_lon": 0.0, "fusion_lat": 0.0, "lon": -77.00225283333333, "name": "afdbc406e696911fe7c004d20ae4e8ff"}, {"bike_id": "4e5498a7270c7ff19c4945b91750d896", "type": "electric_scooter", "is_disabled": 0, "lat": 38.901742166666665, "rental_uris": {"ios": "https://dc.lft.to/lastmile_qr_scan", "android": "https://dc.lft.to/lastmile_qr_scan"}, "is_reserved": 0, "fusion_lon": 0.0, "fusion_lat": 0.0, "lon": -77.031805, "name": "4e5498a7270c7ff19c4945b91750d896"}, {"bike_id": "a6be93f9b8efe4aca14dd0bc5e31f0ef", "type": "electric_bike", "is_disabled": 0, "lat": 38.905056, "rental_uris": {"ios": "https://dc.lft.to/lastmile_qr_scan", "android": "https://dc.lft.to/lastmile_qr_scan"}, "is_reserved": 0, "fusion_lon": 0.0, "fusion_lat": 0.0, "lon": -76.98720783333333, "name": "a6be93f9b8efe4aca14dd0bc5e31f0ef"}, {"bike_id": "00cec95b2dac9c3feddf9a74cb4f302c", "type": "electric_scooter", "is_disabled": 0, "lat": 38.900953666666666, "rental_uris": {"ios": "https://dc.lft.to/lastmile_qr_scan", "android": "https://dc.lft.to/lastmile_qr_scan"}, "is_reserved": 0, "fusion_lon": 0.0, "fusion_lat": 0.0, "lon": -77.024167, "name": "00cec95b2dac9c3feddf9a74cb4f302c"}, {"bike_id": "4e9466a8e70f7cc1f619a639327b7db7", "type": "electric_scooter", "is_disabled": 0, "lat": 38.91878366666667, "rental_uris": {"ios": "https://dc.lft.to/lastmile_qr_scan", "android": "https://dc.lft.to/lastmile_qr_scan"}, "is_reserved": 0, "fusion_lon": 0.0, "fusion_lat": 0.0, "lon": -77.0350115, "name": "4e9466a8e70f7cc1f619a639327b7db7"}, {"bike_id": "d063973e092a7f315fb18fffdb94d392", "type": "electric_scooter", "is_disabled": 0, "lat": 38.9104575, "rental_uris": {"ios": "https://dc.lft.to/lastmile_qr_scan", "android": "https://dc.lft.to/lastmile_qr_scan"}, "is_reserved": 0, "fusion_lon": 0.0, "fusion_lat": 0.0, "lon": -77.07349616666667, "name": "d063973e092a7f315fb18fffdb94d392"}, {"bike_id": "5cb49734e75852629c23a241cd84318d", "type": "electric_scooter", "is_disabled": 0, "lat": 38.927995833333334, "rental_uris": {"ios": "https://dc.lft.to/lastmile_qr_scan", "android": "https://dc.lft.to/lastmile_qr_scan"}, "is_reserved": 0, "fusion_lon": 0.0, "fusion_lat": 0.0, "lon": -77.031959, "name": "5cb49734e75852629c23a241cd84318d"}, {"bike_id": "22a783605445edf266818d858270f0ec", "type": "electric_scooter", "is_disabled": 0, "lat": 38.89360283333333, "rental_uris": {"ios": "https://dc.lft.to/lastmile_qr_scan", "android": "https://dc.lft.to/lastmile_qr_scan"}, "is_reserved": 0, "fusion_lon": 0.0, "fusion_lat": 0.0, "lon": -76.949318, "name": "22a783605445edf266818d858270f0ec"}, {"bike_id": "32d0e6e956eaebaed6791c33010b33d4", "type": "electric_scooter", "is_disabled": 0, "lat": 38.91538, "rental_uris": {"ios": "https://dc.lft.to/lastmile_qr_scan", "android": "https://dc.lft.to/lastmile_qr_scan"}, "is_reserved": 0, "fusion_lon": 0.0, "fusion_lat": 0.0, "lon": -76.97006233333333, "name": "32d0e6e956eaebaed6791c33010b33d4"}, {"bike_id": "afe70913d2ecbeb99f423c3ca73be16f", "type": "electric_scooter", "is_disabled": 0, "lat": 38.900116, "rental_uris": {"ios": "https://dc.lft.to/lastmile_qr_scan", "android": "https://dc.lft.to/lastmile_qr_scan"}, "is_reserved": 0, "fusion_lon": 0.0, "fusion_lat": 0.0, "lon": -76.9961435, "name": "afe70913d2ecbeb99f423c3ca73be16f"}, {"bike_id": "8056327713fbba3d42668228463dbe5c", "type": "electric_scooter", "is_disabled": 0, "lat": 38.90233766666667, "rental_uris": {"ios": "https://dc.lft.to/lastmile_qr_scan", "android": "https://dc.lft.to/lastmile_qr_scan"}, "is_reserved": 0, "fusion_lon": 0.0, "fusion_lat": 0.0, "lon": -77.018593, "name": "8056327713fbba3d42668228463dbe5c"}, {"bike_id": "e848b9782b26e4a0cfc08ac680fbfa70", "type": "electric_scooter", "is_disabled": 0, "lat": 38.9593475, "rental_uris": {"ios": "https://dc.lft.to/lastmile_qr_scan", "android": "https://dc.lft.to/lastmile_qr_scan"}, "is_reserved": 0, "fusion_lon": 0.0, "fusion_lat": 0.0, "lon": -77.03120483333333, "name": "e848b9782b26e4a0cfc08ac680fbfa70"}, {"bike_id": "376d7da32f5d96d87d145651e6822de3", "type": "electric_scooter", "is_disabled": 0, "lat": 38.9419925, "rental_uris": {"ios": "https://dc.lft.to/lastmile_qr_scan", "android": "https://dc.lft.to/lastmile_qr_scan"}, "is_reserved": 0, "fusion_lon": 0.0, "fusion_lat": 0.0, "lon": -77.02350033333333, "name": "376d7da32f5d96d87d145651e6822de3"}, {"bike_id": "a3c52d4d24dcf5395fb9995a1c8b4a8f", "type": "electric_scooter", "is_disabled": 0, "lat": 38.9142855, "rental_uris": {"ios": "https://dc.lft.to/lastmile_qr_scan", "android": "https://dc.lft.to/lastmile_qr_scan"}, "is_reserved": 0, "fusion_lon": 0.0, "fusion_lat": 0.0, "lon": -77.02188533333333, "name": "a3c52d4d24dcf5395fb9995a1c8b4a8f"}, {"bike_id": "19722993431562245df8ee7f2660e22c", "type": "electric_scooter", "is_disabled": 0, "lat": 38.88348833333333, "rental_uris": {"ios": "https://dc.lft.to/lastmile_qr_scan", "android": "https://dc.lft.to/lastmile_qr_scan"}, "is_reserved": 0, "fusion_lon": 0.0, "fusion_lat": 0.0, "lon": -76.9950355, "name": "19722993431562245df8ee7f2660e22c"}, {"bike_id": "9d64088781f67140b6c13071abb20b76", "type": "electric_scooter", "is_disabled": 0, "lat": 38.958359333333334, "rental_uris": {"ios": "https://dc.lft.to/lastmile_qr_scan", "android": "https://dc.lft.to/lastmile_qr_scan"}, "is_reserved": 0, "fusion_lon": 0.0, "fusion_lat": 0.0, "lon": -77.01509733333333, "name": "9d64088781f67140b6c13071abb20b76"}, {"bike_id": "014467e2d963a4550597ed15452b397d", "type": "electric_scooter", "is_disabled": 0, "lat": 38.87648133333333, "rental_uris": {"ios": "https://dc.lft.to/lastmile_qr_scan", "android": "https://dc.lft.to/lastmile_qr_scan"}, "is_reserved": 0, "fusion_lon": 0.0, "fusion_lat": 0.0, "lon": -76.96508166666666, "name": "014467e2d963a4550597ed15452b397d"}, {"bike_id": "37bb4f7f451485a8396ba92094cd4a47", "type": "electric_scooter", "is_disabled": 0, "lat": 38.917149, "rental_uris": {"ios": "https://dc.lft.to/lastmile_qr_scan", "android": "https://dc.lft.to/lastmile_qr_scan"}, "is_reserved": 0, "fusion_lon": 0.0, "fusion_lat": 0.0, "lon": -77.03659383333333, "name": "37bb4f7f451485a8396ba92094cd4a47"}, {"bike_id": "374c4aea4fc895be110d9237f7715283", "type": "electric_bike", "is_disabled": 0, "lat": 39.03698466666667, "rental_uris": {"ios": "https://dc.lft.to/lastmile_qr_scan", "android": "https://dc.lft.to/lastmile_qr_scan"}, "is_reserved": 0, "fusion_lon": 0.0, "fusion_lat": 0.0, "lon": -77.02854433333333, "name": "374c4aea4fc895be110d9237f7715283"}, {"bike_id": "5bb738f03b3b8f2d28a0466bb9e3762c", "type": "electric_scooter", "is_disabled": 0, "lat": 38.9013865, "rental_uris": {"ios": "https://dc.lft.to/lastmile_qr_scan", "android": "https://dc.lft.to/lastmile_qr_scan"}, "is_reserved": 0, "fusion_lon": 0.0, "fusion_lat": 0.0, "lon": -77.0161885, "name": "5bb738f03b3b8f2d28a0466bb9e3762c"}, {"bike_id": "913e7b5edc4f093f3bfacfe9ed6d02f9", "type": "electric_scooter", "is_disabled": 0, "lat": 38.91997333333333, "rental_uris": {"ios": "https://dc.lft.to/lastmile_qr_scan", "android": "https://dc.lft.to/lastmile_qr_scan"}, "is_reserved": 0, "fusion_lon": 0.0, "fusion_lat": 0.0, "lon": -77.02396283333333, "name": "913e7b5edc4f093f3bfacfe9ed6d02f9"}, {"bike_id": "76c106e007689d9c98b6ebee81caf2b7", "type": "electric_scooter", "is_disabled": 0, "lat": 38.93704266666667, "rental_uris": {"ios": "https://dc.lft.to/lastmile_qr_scan", "android": "https://dc.lft.to/lastmile_qr_scan"}, "is_reserved": 0, "fusion_lon": 0.0, "fusion_lat": 0.0, "lon": -77.0328385, "name": "76c106e007689d9c98b6ebee81caf2b7"}, {"bike_id": "190945a4daa0a87b783a874b59705796", "type": "electric_bike", "is_disabled": 0, "lat": 38.954994166666665, "rental_uris": {"ios": "https://dc.lft.to/lastmile_qr_scan", "android": "https://dc.lft.to/lastmile_qr_scan"}, "is_reserved": 0, "fusion_lon": 0.0, "fusion_lat": 0.0, "lon": -76.99352816666666, "name": "190945a4daa0a87b783a874b59705796"}, {"bike_id": "b5267979f7512e5834d109fef9aed688", "type": "electric_scooter", "is_disabled": 0, "lat": 38.903417166666664, "rental_uris": {"ios": "https://dc.lft.to/lastmile_qr_scan", "android": "https://dc.lft.to/lastmile_qr_scan"}, "is_reserved": 0, "fusion_lon": 0.0, "fusion_lat": 0.0, "lon": -76.9850765, "name": "b5267979f7512e5834d109fef9aed688"}, {"bike_id": "affed4439092e3380e0b3a8c8a228e66", "type": "electric_scooter", "is_disabled": 0, "lat": 38.91681883333333, "rental_uris": {"ios": "https://dc.lft.to/lastmile_qr_scan", "android": "https://dc.lft.to/lastmile_qr_scan"}, "is_reserved": 0, "fusion_lon": 0.0, "fusion_lat": 0.0, "lon": -77.022951, "name": "affed4439092e3380e0b3a8c8a228e66"}, {"bike_id": "1e7000c0554e79a23bea436e83c12a77", "type": "electric_scooter", "is_disabled": 0, "lat": 38.906912166666665, "rental_uris": {"ios": "https://dc.lft.to/lastmile_qr_scan", "android": "https://dc.lft.to/lastmile_qr_scan"}, "is_reserved": 0, "fusion_lon": 0.0, "fusion_lat": 0.0, "lon": -77.03575266666667, "name": "1e7000c0554e79a23bea436e83c12a77"}, {"bike_id": "762a4238347ebeed1d23753623259856", "type": "electric_scooter", "is_disabled": 0, "lat": 38.9160525, "rental_uris": {"ios": "https://dc.lft.to/lastmile_qr_scan", "android": "https://dc.lft.to/lastmile_qr_scan"}, "is_reserved": 0, "fusion_lon": 0.0, "fusion_lat": 0.0, "lon": -77.04849966666667, "name": "762a4238347ebeed1d23753623259856"}, {"bike_id": "8455ca32e9f8b919c41301ee3fc0e818", "type": "electric_bike", "is_disabled": 0, "lat": 38.88055083333333, "rental_uris": {"ios": "https://dc.lft.to/lastmile_qr_scan", "android": "https://dc.lft.to/lastmile_qr_scan"}, "is_reserved": 0, "fusion_lon": 0.0, "fusion_lat": 0.0, "lon": -76.96236933333333, "name": "8455ca32e9f8b919c41301ee3fc0e818"}, {"bike_id": "af145bf797a80aad0f15474dd13b825a", "type": "electric_scooter", "is_disabled": 0, "lat": 38.913729833333335, "rental_uris": {"ios": "https://dc.lft.to/lastmile_qr_scan", "android": "https://dc.lft.to/lastmile_qr_scan"}, "is_reserved": 0, "fusion_lon": 0.0, "fusion_lat": 0.0, "lon": -77.072704, "name": "af145bf797a80aad0f15474dd13b825a"}, {"bike_id": "e1c560f3f2960eaaacc4de52d33f5a99", "type": "electric_scooter", "is_disabled": 0, "lat": 38.921278, "rental_uris": {"ios": "https://dc.lft.to/lastmile_qr_scan", "android": "https://dc.lft.to/lastmile_qr_scan"}, "is_reserved": 0, "fusion_lon": 0.0, "fusion_lat": 0.0, "lon": -77.04572016666667, "name": "e1c560f3f2960eaaacc4de52d33f5a99"}, {"bike_id": "23ad857422d76f626e26e278603ccd9b", "type": "electric_scooter", "is_disabled": 0, "lat": 38.94705483333333, "rental_uris": {"ios": "https://dc.lft.to/lastmile_qr_scan", "android": "https://dc.lft.to/lastmile_qr_scan"}, "is_reserved": 0, "fusion_lon": 0.0, "fusion_lat": 0.0, "lon": -77.0193755, "name": "23ad857422d76f626e26e278603ccd9b"}, {"bike_id": "4c8303c974bdca9c78dffe4e004916d3", "type": "electric_bike", "is_disabled": 0, "lat": 38.910154666666664, "rental_uris": {"ios": "https://dc.lft.to/lastmile_qr_scan", "android": "https://dc.lft.to/lastmile_qr_scan"}, "is_reserved": 0, "fusion_lon": 0.0, "fusion_lat": 0.0, "lon": -77.22797233333333, "name": "4c8303c974bdca9c78dffe4e004916d3"}, {"bike_id": "6f8888fb93dc4ad4d41a1b0f4cd879d7", "type": "electric_bike", "is_disabled": 0, "lat": 38.872770333333335, "rental_uris": {"ios": "https://dc.lft.to/lastmile_qr_scan", "android": "https://dc.lft.to/lastmile_qr_scan"}, "is_reserved": 0, "fusion_lon": 0.0, "fusion_lat": 0.0, "lon": -77.23316083333333, "name": "6f8888fb93dc4ad4d41a1b0f4cd879d7"}, {"bike_id": "689f064735c01a3ac5a7cf57d2fa3f7d", "type": "electric_scooter", "is_disabled": 0, "lat": 38.91917016666667, "rental_uris": {"ios": "https://dc.lft.to/lastmile_qr_scan", "android": "https://dc.lft.to/lastmile_qr_scan"}, "is_reserved": 0, "fusion_lon": 0.0, "fusion_lat": 0.0, "lon": -77.014165, "name": "689f064735c01a3ac5a7cf57d2fa3f7d"}, {"bike_id": "b18155d5f6a0aeb20a2f36dd7c710fd2", "type": "electric_scooter", "is_disabled": 0, "lat": 38.92585616666667, "rental_uris": {"ios": "https://dc.lft.to/lastmile_qr_scan", "android": "https://dc.lft.to/lastmile_qr_scan"}, "is_reserved": 0, "fusion_lon": 0.0, "fusion_lat": 0.0, "lon": -77.02496066666667, "name": "b18155d5f6a0aeb20a2f36dd7c710fd2"}, {"bike_id": "44de563c8c696a907f40452c427eef44", "type": "electric_scooter", "is_disabled": 0, "lat": 38.9244395, "rental_uris": {"ios": "https://dc.lft.to/lastmile_qr_scan", "android": "https://dc.lft.to/lastmile_qr_scan"}, "is_reserved": 0, "fusion_lon": 0.0, "fusion_lat": 0.0, "lon": -77.033532, "name": "44de563c8c696a907f40452c427eef44"}, {"bike_id": "7845e02e781c0e5b21bde75c70d199ec", "type": "electric_scooter", "is_disabled": 0, "lat": 38.914055166666664, "rental_uris": {"ios": "https://dc.lft.to/lastmile_qr_scan", "android": "https://dc.lft.to/lastmile_qr_scan"},