{"data": {"bikes": [{"is_reserved": 0, "is_disabled": 0, "fusion_lon": 0.0, "lat": 38.89188883333333, "name": "82b667ba0bf4c908b16e56a180ef1d89", "bike_id": "82b667ba0bf4c908b16e56a180ef1d89", "lon": -76.998421, "fusion_lat": 0.0, "rental_uris": {"android": "https://dc.lft.to/lastmile_qr_scan", "ios": "https://dc.lft.to/lastmile_qr_scan"}, "type": "electric_scooter"}, {"is_reserved": 0, "is_disabled": 0, "fusion_lon": 0.0, "lat": 38.906884, "name": "aeaefc8a120d5d7e4573b789e5d23d89", "bike_id": "aeaefc8a120d5d7e4573b789e5d23d89", "lon": -77.0268715, "fusion_lat": 0.0, "rental_uris": {"android": "https://dc.lft.to/lastmile_qr_scan", "ios": "https://dc.lft.to/lastmile_qr_scan"}, "type": "electric_scooter"}, {"is_reserved": 0, "is_disabled": 0, "fusion_lon": 0.0, "lat": 38.90069366666667, "name": "6992c3d4902a05bd2730ced7671d37bb", "bike_id": "6992c3d4902a05bd2730ced7671d37bb", "lon": -76.927424, "fusion_lat": 0.0, "rental_uris": {"android": "https://dc.lft.to/lastmile_qr_scan", "ios": "https://dc.lft.to/lastmile_qr_scan"}, "type": "electric_scooter"}, {"is_reserved": 0, "is_disabled": 0, "fusion_lon": 0.0, "lat": 38.907996, "name": "80a032132e9a6c827efc1461ad3821c2", "bike_id": "80a032132e9a6c827efc1461ad3821c2", "lon": -77.04982183333334, "fusion_lat": 0.0, "rental_uris": {"android": "https://dc.lft.to/lastmile_qr_scan", "ios": "https://dc.lft.to/lastmile_qr_scan"}, "type": "electric_scooter"}, {"is_reserved": 0, "is_disabled": 0, "fusion_lon": 0.0, "lat": 38.878598333333336, "name": "2531fd94b4f1673e40cf48ca3de06bbc", "bike_id": "2531fd94b4f1673e40cf48ca3de06bbc", "lon": -76.99156366666666, "fusion_lat": 0.0, "rental_uris": {"android": "https://dc.lft.to/lastmile_qr_scan", "ios": "https://dc.lft.to/lastmile_qr_scan"}, "type": "electric_scooter"}, {"is_reserved": 0, "is_disabled": 0, "fusion_lon": 0.0, "lat": 38.88129283333333, "name": "683ad0eec9f259d878831cba5b189a82", "bike_id": "683ad0eec9f259d878831cba5b189a82", "lon": -76.99295766666667, "fusion_lat": 0.0, "rental_uris": {"android": "https://dc.lft.to/lastmile_qr_scan", "ios": "https://dc.lft.to/lastmile_qr_scan"}, "type": "electric_scooter"}, {"is_reserved": 0, "is_disabled": 0, "fusion_lon": 0.0, "lat": 38.94038183333333, "name": "b844b75a42f8770edaf46853c769799e", "bike_id": "b844b75a42f8770edaf46853c769799e", "lon": -77.07568233333333, "fusion_lat": 0.0, "rental_uris": {"android": "https://dc.lft.to/lastmile_qr_scan", "ios": "https://dc.lft.to/lastmile_qr_scan"}, "type": "electric_scooter"}, {"is_reserved": 0, "is_disabled": 0, "fusion_lon": 0.0, "lat": 38.91822283333333, "name": "1f866e50b96c4b63348f1d680f21fc50", "bike_id": "1f866e50b96c4b63348f1d680f21fc50", "lon": -77.047562, "fusion_lat": 0.0, "rental_uris": {"android": "https://dc.lft.to/lastmile_qr_scan", "ios": "https://dc.lft.to/lastmile_qr_scan"}, "type": "electric_scooter"}, {"is_reserved": 0, "is_disabled": 0, "fusion_lon": 0.0, "lat": 38.894542, "name": "564dbe6e2602f717d42a199848acf2a9", "bike_id": "564dbe6e2602f717d42a199848acf2a9", "lon": -77.003412, "fusion_lat": 0.0, "rental_uris": {"android": "https://dc.lft.to/lastmile_qr_scan", "ios": "https://dc.lft.to/lastmile_qr_scan"}, "type": "electric_scooter"}, {"is_reserved": 0, "is_disabled": 0, "fusion_lon": 0.0, "lat": 38.92833516666666, "name": "e653d28d7b16f261c5de6598cacee457", "bike_id": "e653d28d7b16f261c5de6598cacee457", "lon": -76.99584183333333, "fusion_lat": 0.0, "rental_uris": {"android": "https://dc.lft.to/lastmile_qr_scan", "ios": "https://dc.lft.to/lastmile_qr_scan"}, "type": "electric_scooter"}, {"is_reserved": 0, "is_disabled": 0, "fusion_lon": 0.0, "lat": 38.91552316666667, "name": "3ee6b4ad39fb0629f6da1533febb94fd", "bike_id": "3ee6b4ad39fb0629f6da1533febb94fd", "lon": -77.03640083333333, "fusion_lat": 0.0, "rental_uris": {"android": "https://dc.lft.to/lastmile_qr_scan", "ios": "https://dc.lft.to/lastmile_qr_scan"}, "type": "electric_scooter"}, {"is_reserved": 0, "is_disabled": 0, "fusion_lon": 0.0, "lat": 38.92341666666667, "name": "e4bfc15fa15d92a0327ee634411205ae", "bike_id": "e4bfc15fa15d92a0327ee634411205ae", "lon": -77.03541716666666, "fusion_lat": 0.0, "rental_uris": {"android": "https://dc.lft.to/lastmile_qr_scan", "ios": "https://dc.lft.to/lastmile_qr_scan"}, "type": "electric_scooter"}, {"is_reserved": 0, "is_disabled": 0, "fusion_lon": 0.0, "lat": 38.91786833333333, "name": "f87afa3f15a53459485084f3edc24f1d", "bike_id": "f87afa3f15a53459485084f3edc24f1d", "lon": -77.03639633333333, "fusion_lat": 0.0, "rental_uris": {"android": "https://dc.lft.to/lastmile_qr_scan", "ios": "https://dc.lft.to/lastmile_qr_scan"}, "type": "electric_scooter"}, {"is_reserved": 0, "is_disabled": 0, "fusion_lon": 0.0, "lat": 38.9324085, "name": "6e1d271c37a6f4fe3438c16a18d8d544", "bike_id": "6e1d271c37a6f4fe3438c16a18d8d544", "lon": -77.02948066666667, "fusion_lat": 0.0, "rental_uris": {"android": "https://dc.lft.to/lastmile_qr_scan", "ios": "https://dc.lft.to/lastmile_qr_scan"}, "type": "electric_scooter"}, {"is_reserved": 0, "is_disabled": 0, "fusion_lon": 0.0, "lat": 38.9095795, "name": "e39cf8e71da4d2dac3cc2a289ea21cc0", "bike_id": "e39cf8e71da4d2dac3cc2a289ea21cc0", "lon": -77.04604066666667, "fusion_lat": 0.0, "rental_uris": {"android": "https://dc.lft.to/lastmile_qr_scan", "ios": "https://dc.lft.to/lastmile_qr_scan"}, "type": "electric_scooter"}, {"is_reserved": 0, "is_disabled": 0, "fusion_lon": 0.0, "lat": 38.92404166666667, "name": "d4c4e2e648dc5ce92e137e2394a966b5", "bike_id": "d4c4e2e648dc5ce92e137e2394a966b5", "lon": -77.026942, "fusion_lat": 0.0, "rental_uris": {"android": "https://dc.lft.to/lastmile_qr_scan", "ios": "https://dc.lft.to/lastmile_qr_scan"}, "type": "electric_scooter"}, {"is_reserved": 0, "is_disabled": 0, "fusion_lon": 0.0, "lat": 38.902539, "name": "940d4a90ed201cff098a7cab571d7cd2", "bike_id": "940d4a90ed201cff098a7cab571d7cd2", "lon": -76.9847225, "fusion_lat": 0.0, "rental_uris": {"android": "https://dc.lft.to/lastmile_qr_scan", "ios": "https://dc.lft.to/lastmile_qr_scan"}, "type": "electric_scooter"}, {"is_reserved": 0, "is_disabled": 0, "fusion_lon": 0.0, "lat": 38.8801835, "name": "54f45767ec638de1c7e632c0adc8a6a5", "bike_id": "54f45767ec638de1c7e632c0adc8a6a5", "lon": -77.02318016666666, "fusion_lat": 0.0, "rental_uris": {"android": "https://dc.lft.to/lastmile_qr_scan", "ios": "https://dc.lft.to/lastmile_qr_scan"}, "type": "electric_scooter"}, {"is_reserved": 0, "is_disabled": 0, "fusion_lon": 0.0, "lat": 38.919503166666665, "name": "3ab5d2a01e15c55231a26768093ecc5e", "bike_id": "3ab5d2a01e15c55231a26768093ecc5e", "lon": -77.014166, "fusion_lat": 0.0, "rental_uris": {"android": "https://dc.lft.to/lastmile_qr_scan", "ios": "https://dc.lft.to/lastmile_qr_scan"}, "type": "electric_scooter"}, {"is_reserved": 0, "is_disabled": 0, "fusion_lon": 0.0, "lat": 38.903921833333335, "name": "8850fdf393f237431547f0fac8178d53", "bike_id": "8850fdf393f237431547f0fac8178d53", "lon": -76.97385533333333, "fusion_lat": 0.0, "rental_uris": {"android": "https://dc.lft.to/lastmile_qr_scan", "ios": "https://dc.lft.to/lastmile_qr_scan"}, "type": "electric_scooter"}, {"is_reserved": 0, "is_disabled": 0, "fusion_lon": 0.0, "lat": 38.85445383333333, "name": "e32307e0c944e707dcf8d3b4026919ea", "bike_id": "e32307e0c944e707dcf8d3b4026919ea", "lon": -76.98603933333334, "fusion_lat": 0.0, "rental_uris": {"android": "https://dc.lft.to/lastmile_qr_scan", "ios": "https://dc.lft.to/lastmile_qr_scan"}, "type": "electric_bike"}, {"is_reserved": 0, "is_disabled": 0, "fusion_lon": 0.0, "lat": 38.845914, "name": "1b5f772143f490a3a7db2bb9916b0eb4", "bike_id": "1b5f772143f490a3a7db2bb9916b0eb4", "lon": -76.96975066666667, "fusion_lat": 0.0, "rental_uris": {"android": "https://dc.lft.to/lastmile_qr_scan", "ios": "https://dc.lft.to/lastmile_qr_scan"}, "type": "electric_bike"}, {"is_reserved": 0, "is_disabled": 0, "fusion_lon": 0.0, "lat": 38.91624366666667, "name": "461591048c246aef741f9ed55763943d", "bike_id": "461591048c246aef741f9ed55763943d", "lon": -76.98265833333333, "fusion_lat": 0.0, "rental_uris": {"android": "https://dc.lft.to/lastmile_qr_scan", "ios": "https://dc.lft.to/lastmile_qr_scan"}, "type": "electric_scooter"}, {"is_reserved": 0, "is_disabled": 0, "fusion_lon": 0.0, "lat": 38.917624, "name": "927e41b1fbfddff3011a5c3ec46c4afb", "bike_id": "927e41b1fbfddff3011a5c3ec46c4afb", "lon": -77.01505366666666, "fusion_lat": 0.0, "rental_uris": {"android": "https://dc.lft.to/lastmile_qr_scan", "ios": "https://dc.lft.to/lastmile_qr_scan"}, "type": "electric_scooter"}, {"is_reserved": 0, "is_disabled": 0, "fusion_lon": 0.0, "lat": 38.8947345, "name": "ef8015cb790b72172bafe83494aa1b91", "bike_id": "ef8015cb790b72172bafe83494aa1b91", "lon": -77.02667683333334, "fusion_lat": 0.0, "rental_uris": {"android": "https://dc.lft.to/lastmile_qr_scan", "ios": "https://dc.lft.to/lastmile_qr_scan"}, "type": "electric_scooter"}, {"is_reserved": 0, "is_disabled": 0, "fusion_lon": 0.0, "lat": 38.9248225, "name": "ce3d893d41ff54c88728320a6b2d9aa5", "bike_id": "ce3d893d41ff54c88728320a6b2d9aa5", "lon": -77.0348245, "fusion_lat": 0.0, "rental_uris": {"android": "https://dc.lft.to/lastmile_qr_scan", "ios": "https://dc.lft.to/lastmile_qr_scan"}, "type": "electric_scooter"}, {"is_reserved": 0, "is_disabled": 0, "fusion_lon": 0.0, "lat": 38.878654166666664, "name": "d49cbc6a2b7d905046c21ba1d5a40b65", "bike_id": "d49cbc6a2b7d905046c21ba1d5a40b65", "lon": -76.99659466666667, "fusion_lat": 0.0, "rental_uris": {"android": "https://dc.lft.to/lastmile_qr_scan", "ios": "https://dc.lft.to/lastmile_qr_scan"}, "type": "electric_scooter"}, {"is_reserved": 0, "is_disabled": 0, "fusion_lon": 0.0, "lat": 38.920745333333336, "name": "c89aefe7cfa77a9be657c94f1ec5e8f4", "bike_id": "c89aefe7cfa77a9be657c94f1ec5e8f4", "lon": -77.074711, "fusion_lat": 0.0, "rental_uris": {"android": "https://dc.lft.to/lastmile_qr_scan", "ios": "https://dc.lft.to/lastmile_qr_scan"}, "type": "electric_bike"}, {"is_reserved": 0, "is_disabled": 0, "fusion_lon": 0.0, "lat": 38.93458783333333, "name": "25e31a2daa27f12fcad0552af4b1288b", "bike_id": "25e31a2daa27f12fcad0552af4b1288b", "lon": -76.964458, "fusion_lat": 0.0, "rental_uris": {"android": "https://dc.lft.to/lastmile_qr_scan", "ios": "https://dc.lft.to/lastmile_qr_scan"}, "type": "electric_scooter"}, {"is_reserved": 0, "is_disabled": 0, "fusion_lon": 0.0, "lat": 38.921327833333336, "name": "8ccb57c66e8a2aacad7f4b127ec05f6d", "bike_id": "8ccb57c66e8a2aacad7f4b127ec05f6d", "lon": -77.017972, "fusion_lat": 0.0, "rental_uris": {"android": "https://dc.lft.to/lastmile_qr_scan", "ios": "https://dc.lft.to/lastmile_qr_scan"}, "type": "electric_scooter"}, {"is_reserved": 0, "is_disabled": 0, "fusion_lon": 0.0, "lat": 38.85577166666667, "name": "9e421cffaf16045f714043e907111bad", "bike_id": "9e421cffaf16045f714043e907111bad", "lon": -77.05333566666667, "fusion_lat": 0.0, "rental_uris": {"android": "https://dc.lft.to/lastmile_qr_scan", "ios": "https://dc.lft.to/lastmile_qr_scan"}, "type": "electric_bike"}, {"is_reserved": 0, "is_disabled": 0, "fusion_lon": 0.0, "lat": 38.97262816666667, "name": "209b591f09e5c9fe17618dfa112d9e5a", "bike_id": "209b591f09e5c9fe17618dfa112d9e5a", "lon": -76.99280183333333, "fusion_lat": 0.0, "rental_uris": {"android": "https://dc.lft.to/lastmile_qr_scan", "ios": "https://dc.lft.to/lastmile_qr_scan"}, "type": "electric_bike"}, {"is_reserved": 0, "is_disabled": 0, "fusion_lon": 0.0, "lat": 38.871188333333336, "name": "b6adc84a0e1385e893512dca6f70f996", "bike_id": "b6adc84a0e1385e893512dca6f70f996", "lon": -77.0090805, "fusion_lat": 0.0, "rental_uris": {"android": "https://dc.lft.to/lastmile_qr_scan", "ios": "https://dc.lft.to/lastmile_qr_scan"}, "type": "electric_scooter"}, {"is_reserved": 0, "is_disabled": 0, "fusion_lon": 0.0, "lat": 38.930989333333336, "name": "10ceded09175a9f5e9836266613e3954", "bike_id": "10ceded09175a9f5e9836266613e3954", "lon": -77.02480966666667, "fusion_lat": 0.0, "rental_uris": {"android": "https://dc.lft.to/lastmile_qr_scan", "ios": "https://dc.lft.to/lastmile_qr_scan"}, "type": "electric_scooter"}, {"is_reserved": 0, "is_disabled": 0, "fusion_lon": 0.0, "lat": 38.923507, "name": "6d471e000514abc6f552fb0dd3437eaa", "bike_id": "6d471e000514abc6f552fb0dd3437eaa", "lon": -77.02111233333333, "fusion_lat": 0.0, "rental_uris": {"android": "https://dc.lft.to/lastmile_qr_scan", "ios": "https://dc.lft.to/lastmile_qr_scan"}, "type": "electric_scooter"}, {"is_reserved": 0, "is_disabled": 0, "fusion_lon": 0.0, "lat": 38.90945283333333, "name": "359703de971ee58897810172a73ab16a", "bike_id": "359703de971ee58897810172a73ab16a", "lon": -77.02388666666667, "fusion_lat": 0.0, "rental_uris": {"android": "https://dc.lft.to/lastmile_qr_scan", "ios": "https://dc.lft.to/lastmile_qr_scan"}, "type": "electric_scooter"}, {"is_reserved": 0, "is_disabled": 0, "fusion_lon": 0.0, "lat": 38.908036333333335, "name": "7a2327e4d860bd4e7f195744d67949ef", "bike_id": "7a2327e4d860bd4e7f195744d67949ef", "lon": -77.08393783333334, "fusion_lat": 0.0, "rental_uris": {"android": "https://dc.lft.to/lastmile_qr_scan", "ios": "https://dc.lft.to/lastmile_qr_scan"}, "type": "electric_scooter"}, {"is_reserved": 0, "is_disabled": 0, "fusion_lon": 0.0, "lat": 38.877054, "name": "f5cdc30c50aa655cf4a5d6b576d1378b", "bike_id": "f5cdc30c50aa655cf4a5d6b576d1378b", "lon": -76.993168, "fusion_lat": 0.0, "rental_uris": {"android": "https://dc.lft.to/lastmile_qr_scan", "ios": "https://dc.lft.to/lastmile_qr_scan"}, "type": "electric_scooter"}, {"is_reserved": 0, "is_disabled": 0, "fusion_lon": 0.0, "lat": 38.904189833333334, "name": "f63b0affcf3e0d91ca379f6f54079a24", "bike_id": "f63b0affcf3e0d91ca379f6f54079a24", "lon": -77.0325735, "fusion_lat": 0.0, "rental_uris": {"android": "https://dc.lft.to/lastmile_qr_scan", "ios": "https://dc.lft.to/lastmile_qr_scan"}, "type": "electric_scooter"}, {"is_reserved": 0, "is_disabled": 0, "fusion_lon": 0.0, "lat": 38.91111933333333, "name": "94642daa99abb09de8268ab095abffd9", "bike_id": "94642daa99abb09de8268ab095abffd9", "lon": -77.038329, "fusion_lat": 0.0, "rental_uris": {"android": "https://dc.lft.to/lastmile_qr_scan", "ios": "https://dc.lft.to/lastmile_qr_scan"}, "type": "electric_scooter"}, {"is_reserved": 0, "is_disabled": 0, "fusion_lon": 0.0, "lat": 38.90860516666667, "name": "bc335d3dc5dcab7950add0dfa94ffd07", "bike_id": "bc335d3dc5dcab7950add0dfa94ffd07", "lon": -77.08072666666666, "fusion_lat": 0.0, "rental_uris": {"android": "https://dc.lft.to/lastmile_qr_scan", "ios": "https://dc.lft.to/lastmile_qr_scan"}, "type": "electric_bike"}, {"is_reserved": 0, "is_disabled": 0, "fusion_lon": 0.0, "lat": 38.9754465, "name": "c69922ee284fffb7c8f9991f71195dc3", "bike_id": "c69922ee284fffb7c8f9991f71195dc3", "lon": -77.0264935, "fusion_lat": 0.0, "rental_uris": {"android": "https://dc.lft.to/lastmile_qr_scan", "ios": "https://dc.lft.to/lastmile_qr_scan"}, "type": "electric_scooter"}, {"is_reserved": 0, "is_disabled": 0, "fusion_lon": 0.0, "lat": 38.9224985, "name": "c7c02339871aa2b69399d845b5139fe4", "bike_id": "c7c02339871aa2b69399d845b5139fe4", "lon": -77.04361633333333, "fusion_lat": 0.0, "rental_uris": {"android": "https://dc.lft.to/lastmile_qr_scan", "ios": "https://dc.lft.to/lastmile_qr_scan"}, "type": "electric_scooter"}, {"is_reserved": 0, "is_disabled": 0, "fusion_lon": 0.0, "lat": 38.910014833333335, "name": "cf971e4fd2f8d5ac75ea052bbf0ef590", "bike_id": "cf971e4fd2f8d5ac75ea052bbf0ef590", "lon": -77.0465785, "fusion_lat": 0.0, "rental_uris": {"android": "https://dc.lft.to/lastmile_qr_scan", "ios": "https://dc.lft.to/lastmile_qr_scan"}, "type": "electric_scooter"}, {"is_reserved": 0, "is_disabled": 0, "fusion_lon": 0.0, "lat": 38.898329333333336, "name": "73b69beee4cf133568fdd09ec3bb4355", "bike_id": "73b69beee4cf133568fdd09ec3bb4355", "lon": -76.9876475, "fusion_lat": 0.0, "rental_uris": {"android": "https://dc.lft.to/lastmile_qr_scan", "ios": "https://dc.lft.to/lastmile_qr_scan"}, "type": "electric_scooter"}, {"is_reserved": 0, "is_disabled": 0, "fusion_lon": 0.0, "lat": 38.88821083333333, "name": "ad4d7adf99afeb713b8962bd7f9d3170", "bike_id": "ad4d7adf99afeb713b8962bd7f9d3170", "lon": -76.9769995, "fusion_lat": 0.0, "rental_uris": {"android": "https://dc.lft.to/lastmile_qr_scan", "ios": "https://dc.lft.to/lastmile_qr_scan"}, "type": "electric_scooter"}, {"is_reserved": 0, "is_disabled": 0, "fusion_lon": 0.0, "lat": 38.916836833333335, "name": "82f9a766d69b61ffbe7e6a7df0bd6a83", "bike_id": "82f9a766d69b61ffbe7e6a7df0bd6a83", "lon": -77.02948433333333, "fusion_lat": 0.0, "rental_uris": {"android": "https://dc.lft.to/lastmile_qr_scan", "ios": "https://dc.lft.to/lastmile_qr_scan"}, "type": "electric_scooter"}, {"is_reserved": 0, "is_disabled": 0, "fusion_lon": 0.0, "lat": 38.933825166666665, "name": "da9d28dfe53995d1fe6f6fd25928923c", "bike_id": "da9d28dfe53995d1fe6f6fd25928923c", "lon": -77.029634, "fusion_lat": 0.0, "rental_uris": {"android": "https://dc.lft.to/lastmile_qr_scan", "ios": "https://dc.lft.to/lastmile_qr_scan"}, "type": "electric_scooter"}, {"is_reserved": 0, "is_disabled": 0, "fusion_lon": 0.0, "lat": 38.96622133333334, "name": "da2dc486f594c15d1aaba2594ff430de", "bike_id": "da2dc486f594c15d1aaba2594ff430de", "lon": -77.03429766666666, "fusion_lat": 0.0, "rental_uris": {"android": "https://dc.lft.to/lastmile_qr_scan", "ios": "https://dc.lft.to/lastmile_qr_scan"}, "type": "electric_bike"}, {"is_reserved": 0, "is_disabled": 0, "fusion_lon": 0.0, "lat": 38.916515833333335, "name": "0a9769b2321567a8d7807df2b91baf5c", "bike_id": "0a9769b2321567a8d7807df2b91baf5c", "lon": -77.02002333333333, "fusion_lat": 0.0, "rental_uris": {"android": "https://dc.lft.to/lastmile_qr_scan", "ios": "https://dc.lft.to/lastmile_qr_scan"}, "type": "electric_scooter"}, {"is_reserved": 0, "is_disabled": 0, "fusion_lon": 0.0, "lat": 38.9004065, "name": "f5bbb6a1cc16190f18a33ceba551a0c3", "bike_id": "f5bbb6a1cc16190f18a33ceba551a0c3", "lon": -76.99147783333333, "fusion_lat": 0.0, "rental_uris": {"android": "https://dc.lft.to/lastmile_qr_scan", "ios": "https://dc.lft.to/lastmile_qr_scan"}, "type": "electric_scooter"}, {"is_reserved": 0, "is_disabled": 0, "fusion_lon": 0.0, "lat": 38.924131833333334, "name": "b611b8c1d9661593b7526b713ae8fd2b", "bike_id": "b611b8c1d9661593b7526b713ae8fd2b", "lon": -77.05062683333334, "fusion_lat": 0.0, "rental_uris": {"android": "https://dc.lft.to/lastmile_qr_scan", "ios": "https://dc.lft.to/lastmile_qr_scan"}, "type": "electric_scooter"}, {"is_reserved": 0, "is_disabled": 0, "fusion_lon": 0.0, "lat": 38.9001355, "name": "2571fda50e347ff613bc3fc8cf3e6e28", "bike_id": "2571fda50e347ff613bc3fc8cf3e6e28", "lon": -76.93026116666667, "fusion_lat": 0.0, "rental_uris": {"android": "https://dc.lft.to/lastmile_qr_scan", "ios": "https://dc.lft.to/lastmile_qr_scan"}, "type": "electric_scooter"}, {"is_reserved": 0, "is_disabled": 0, "fusion_lon": 0.0, "lat": 38.908655833333334, "name": "c03fde452e01a4f9d0ceb7db707af56d", "bike_id": "c03fde452e01a4f9d0ceb7db707af56d", "lon": -76.996776, "fusion_lat": 0.0, "rental_uris": {"android": "https://dc.lft.to/lastmile_qr_scan", "ios": "https://dc.lft.to/lastmile_qr_scan"}, "type": "electric_scooter"}, {"is_reserved": 0, "is_disabled": 0, "fusion_lon": 0.0, "lat": 38.875985166666666, "name": "4edfec0adc7a8281d985a0331d8f37a2", "bike_id": "4edfec0adc7a8281d985a0331d8f37a2", "lon": -77.00572033333333, "fusion_lat": 0.0, "rental_uris": {"android": "https://dc.lft.to/lastmile_qr_scan", "ios": "https://dc.lft.to/lastmile_qr_scan"}, "type": "electric_scooter"}, {"is_reserved": 0, "is_disabled": 0, "fusion_lon": 0.0, "lat": 38.93380033333333, "name": "53f5ddbf03960cdb921afd43675aa4b9", "bike_id": "53f5ddbf03960cdb921afd43675aa4b9", "lon": -77.03247566666667, "fusion_lat": 0.0, "rental_uris": {"android": "https://dc.lft.to/lastmile_qr_scan", "ios": "https://dc.lft.to/lastmile_qr_scan"}, "type": "electric_scooter"}, {"is_reserved": 0, "is_disabled": 0, "fusion_lon": 0.0, "lat": 38.890059, "name": "08078c9896460ea4b4b48206a7339cb3", "bike_id": "08078c9896460ea4b4b48206a7339cb3", "lon": -76.93746816666666, "fusion_lat": 0.0, "rental_uris": {"android": "https://dc.lft.to/lastmile_qr_scan", "ios": "https://dc.lft.to/lastmile_qr_scan"}, "type": "electric_scooter"}, {"is_reserved": 0, "is_disabled": 0, "fusion_lon": 0.0, "lat": 38.920713, "name": "f1abb79fab8e9f6f471a1f21403757be", "bike_id": "f1abb79fab8e9f6f471a1f21403757be", "lon": -77.02389783333334, "fusion_lat": 0.0, "rental_uris": {"android": "https://dc.lft.to/lastmile_qr_scan", "ios": "https://dc.lft.to/lastmile_qr_scan"}, "type": "electric_scooter"}, {"is_reserved": 0, "is_disabled": 0, "fusion_lon": 0.0, "lat": 38.913289166666665, "name": "4f1d7c20ed59f41bf0ad44c02eb90fc6", "bike_id": "4f1d7c20ed59f41bf0ad44c02eb90fc6", "lon": -77.0317725, "fusion_lat": 0.0, "rental_uris": {"android": "https://dc.lft.to/lastmile_qr_scan", "ios": "https://dc.lft.to/lastmile_qr_scan"}, "type": "electric_scooter"}, {"is_reserved": 0, "is_disabled": 0, "fusion_lon": 0.0, "lat": 38.922338333333336, "name": "308bbc5a8b1f45278744cca457aca9a1", "bike_id": "308bbc5a8b1f45278744cca457aca9a1", "lon": -77.034563, "fusion_lat": 0.0, "rental_uris": {"android": "https://dc.lft.to/lastmile_qr_scan", "ios": "https://dc.lft.to/lastmile_qr_scan"}, "type": "electric_scooter"}, {"is_reserved": 0, "is_disabled": 0, "fusion_lon": 0.0, "lat": 38.91371866666667, "name": "30623688979119c489b83fde263fc2f1", "bike_id": "30623688979119c489b83fde263fc2f1", "lon": -77.04544783333333, "fusion_lat": 0.0, "rental_uris": {"android": "https://dc.lft.to/lastmile_qr_scan", "ios": "https://dc.lft.to/lastmile_qr_scan"}, "type": "electric_scooter"}, {"is_reserved": 0, "is_disabled": 0, "fusion_lon": 0.0, "lat": 38.937197833333336, "name": "956cb6e863f48e8d636fc0ce04b205c5", "bike_id": "956cb6e863f48e8d636fc0ce04b205c5", "lon": -77.03292866666666, "fusion_lat": 0.0, "rental_uris": {"android": "https://dc.lft.to/lastmile_qr_scan", "ios": "https://dc.lft.to/lastmile_qr_scan"}, "type": "electric_scooter"}, {"is_reserved": 0, "is_disabled": 0, "fusion_lon": 0.0, "lat": 38.911188, "name": "30a5bab4bb6eb617754ca3d15d4126e5", "bike_id": "30a5bab4bb6eb617754ca3d15d4126e5", "lon": -77.03617216666666, "fusion_lat": 0.0, "rental_uris": {"android": "https://dc.lft.to/lastmile_qr_scan", "ios": "https://dc.lft.to/lastmile_qr_scan"}, "type": "electric_scooter"}, {"is_reserved": 0, "is_disabled": 0, "fusion_lon": 0.0, "lat": 38.9022685, "name": "d3c2c1e5c8a46949b9d1f18222a20690", "bike_id": "d3c2c1e5c8a46949b9d1f18222a20690", "lon": -77.04818666666667, "fusion_lat": 0.0, "rental_uris": {"android": "https://dc.lft.to/lastmile_qr_scan", "ios": "https://dc.lft.to/lastmile_qr_scan"}, "type": "electric_scooter"}, {"is_reserved": 0, "is_disabled": 0, "fusion_lon": 0.0, "lat": 38.9353745, "name": "62b2d8c37f458eebf3b7d4d988d58ed7", "bike_id": "62b2d8c37f458eebf3b7d4d988d58ed7", "lon": -77.07281316666666, "fusion_lat": 0.0, "rental_uris": {"android": "https://dc.lft.to/lastmile_qr_scan", "ios": "https://dc.lft.to/lastmile_qr_scan"}, "type": "electric_scooter"}, {"is_reserved": 0, "is_disabled": 0, "fusion_lon": 0.0, "lat": 38.90928866666667, "name": "7debf4fb972731f0154372e93591e36b", "bike_id": "7debf4fb972731f0154372e93591e36b", "lon": -77.07277266666667, "fusion_lat": 0.0, "rental_uris": {"android": "https://dc.lft.to/lastmile_qr_scan", "ios": "https://dc.lft.to/lastmile_qr_scan"}, "type": "electric_scooter"}, {"is_reserved": 0, "is_disabled": 0, "fusion_lon": 0.0, "lat": 38.8997735, "name": "7b32c750b33300e1db222b6105da6df5", "bike_id": "7b32c750b33300e1db222b6105da6df5", "lon": -77.04186283333334, "fusion_lat": 0.0, "rental_uris": {"android": "https://dc.lft.to/lastmile_qr_scan", "ios": "https://dc.lft.to/lastmile_qr_scan"}, "type": "electric_scooter"}, {"is_reserved": 0, "is_disabled": 0, "fusion_lon": 0.0, "lat": 38.92471283333333, "name": "5b9eb010c2c67c10a593b09ee652e6b1", "bike_id": "5b9eb010c2c67c10a593b09ee652e6b1", "lon": -77.03934483333333, "fusion_lat": 0.0, "rental_uris": {"android": "https://dc.lft.to/lastmile_qr_scan", "ios": "https://dc.lft.to/lastmile_qr_scan"}, "type": "electric_scooter"}, {"is_reserved": 0, "is_disabled": 0, "fusion_lon": 0.0, "lat": 38.94145366666667, "name": "537804a229c83288b4587d317550700a", "bike_id": "537804a229c83288b4587d317550700a", "lon": -77.0232835, "fusion_lat": 0.0, "rental_uris": {"android": "https://dc.lft.to/lastmile_qr_scan", "ios": "https://dc.lft.to/lastmile_qr_scan"}, "type": "electric_scooter"}, {"is_reserved": 0, "is_disabled": 0, "fusion_lon": 0.0, "lat": 38.912887833333336, "name": "d198db74f0879b9f945211a1c30b7c05", "bike_id": "d198db74f0879b9f945211a1c30b7c05", "lon": -77.023011, "fusion_lat": 0.0, "rental_uris": {"android": "https://dc.lft.to/lastmile_qr_scan", "ios": "https://dc.lft.to/lastmile_qr_scan"}, "type": "electric_scooter"}, {"is_reserved": 0, "is_disabled": 0, "fusion_lon": 0.0, "lat": 39.029267833333336, "name": "ae1fe701e090069168d39a96de1308dc", "bike_id": "ae1fe701e090069168d39a96de1308dc", "lon": -77.01356533333333, "fusion_lat": 0.0, "rental_uris": {"android": "https://dc.lft.to/lastmile_qr_scan", "ios": "https://dc.lft.to/lastmile_qr_scan"}, "type": "electric_bike"}, {"is_reserved": 0, "is_disabled": 0, "fusion_lon": 0.0, "lat": 38.896777, "name": "a1991a6fd23314edf83ae0c6b781915f", "bike_id": "a1991a6fd23314edf83ae0c6b781915f", "lon": -77.04342966666667, "fusion_lat": 0.0, "rental_uris": {"android": "https://dc.lft.to/lastmile_qr_scan", "ios": "https://dc.lft.to/lastmile_qr_scan"}, "type": "electric_scooter"}, {"is_reserved": 0, "is_disabled": 0, "fusion_lon": 0.0, "lat": 38.907949333333335, "name": "06c510cd08c8808df6109ca70d694b4d", "bike_id": "06c510cd08c8808df6109ca70d694b4d", "lon": -77.03188666666667, "fusion_lat": 0.0, "rental_uris": {"android": "https://dc.lft.to/lastmile_qr_scan", "ios": "https://dc.lft.to/lastmile_qr_scan"}, "type": "electric_scooter"}, {"is_reserved": 0, "is_disabled": 0, "fusion_lon": 0.0, "lat": 38.878016833333334, "name": "3dc4d1b96b9edbad88acf2a468bb866c", "bike_id": "3dc4d1b96b9edbad88acf2a468bb866c", "lon": -76.98821616666666, "fusion_lat": 0.0, "rental_uris": {"android": "https://dc.lft.to/lastmile_qr_scan", "ios": "https://dc.lft.to/lastmile_qr_scan"}, "type": "electric_scooter"}, {"is_reserved": 0, "is_disabled": 0, "fusion_lon": 0.0, "lat": 38.858066, "name": "ea6ee5fa14a157963ff37781d02b5252", "bike_id": "ea6ee5fa14a157963ff37781d02b5252", "lon": -76.98751966666667, "fusion_lat": 0.0, "rental_uris": {"android": "https://dc.lft.to/lastmile_qr_scan", "ios": "https://dc.lft.to/lastmile_qr_scan"}, "type": "electric_bike"}, {"is_reserved": 0, "is_disabled": 0, "fusion_lon": 0.0, "lat": 39.0015685, "name": "1e5001bc1541c2b429f2cc585964423e", "bike_id": "1e5001bc1541c2b429f2cc585964423e", "lon": -76.90238716666667, "fusion_lat": 0.0, "rental_uris": {"android": "https://dc.lft.to/lastmile_qr_scan", "ios": "https://dc.lft.to/lastmile_qr_scan"}, "type": "electric_bike"}, {"is_reserved": 0, "is_disabled": 0, "fusion_lon": 0.0, "lat": 38.934059, "name": "54bd750cf4bfbca0e3bb4ba0083ab0cf", "bike_id": "54bd750cf4bfbca0e3bb4ba0083ab0cf", "lon": -77.04549883333334, "fusion_lat": 0.0, "rental_uris": {"android": "https://dc.lft.to/lastmile_qr_scan", "ios": "https://dc.lft.to/lastmile_qr_scan"}, "type": "electric_scooter"}, {"is_reserved": 0, "is_disabled": 0, "fusion_lon": 0.0, "lat": 38.92793916666667, "name": "4fa4b8dfcf25a85ac6a4b16126cb7dd8", "bike_id": "4fa4b8dfcf25a85ac6a4b16126cb7dd8", "lon": -77.03138733333333, "fusion_lat": 0.0, "rental_uris": {"android": "https://dc.lft.to/lastmile_qr_scan", "ios": "https://dc.lft.to/lastmile_qr_scan"}, "type": "electric_scooter"}, {"is_reserved": 0, "is_disabled": 0, "fusion_lon": 0.0, "lat": 38.8770045, "name": "8e6d1e4a330287a89f9b828a16850872", "bike_id": "8e6d1e4a330287a89f9b828a16850872", "lon": -77.01758283333334, "fusion_lat": 0.0, "rental_uris": {"android": "https://dc.lft.to/lastmile_qr_scan", "ios": "https://dc.lft.to/lastmile_qr_scan"}, "type": "electric_scooter"}, {"is_reserved": 0, "is_disabled": 0, "fusion_lon": 0.0, "lat": 38.92230266666667, "name": "495b42bd08af2822f3dd939ddc4d7db7", "bike_id": "495b42bd08af2822f3dd939ddc4d7db7", "lon": -77.03655916666666, "fusion_lat": 0.0, "rental_uris": {"android": "https://dc.lft.to/lastmile_qr_scan", "ios": "https://dc.lft.to/lastmile_qr_scan"}, "type": "electric_scooter"}, {"is_reserved": 0, "is_disabled": 0, "fusion_lon": 0.0, "lat": 38.91680366666667, "name": "8d2029dd39aca0ee50bc55458e3e3af8", "bike_id": "8d2029dd39aca0ee50bc55458e3e3af8", "lon": -77.0172855, "fusion_lat": 0.0, "rental_uris": {"android": "https://dc.lft.to/lastmile_qr_scan", "ios": "https://dc.lft.to/lastmile_qr_scan"}, "type": "electric_scooter"}, {"is_reserved": 0, "is_disabled": 0, "fusion_lon": 0.0, "lat": 39.04238933333333, "name": "f6cc85fc5c015802798a0a7c3fcf0dff", "bike_id": "f6cc85fc5c015802798a0a7c3fcf0dff", "lon": -76.997364, "fusion_lat": 0.0, "rental_uris": {"android": "https://dc.lft.to/lastmile_qr_scan", "ios": "https://dc.lft.to/lastmile_qr_scan"}, "type": "electric_bike"}, {"is_reserved": 0, "is_disabled": 0, "fusion_lon": 0.0, "lat": 38.906500333333334, "name": "7933bae9747b936948c539a3c15b41db", "bike_id": "7933bae9747b936948c539a3c15b41db", "lon": -77.01691866666667, "fusion_lat": 0.0, "rental_uris": {"android": "https://dc.lft.to/lastmile_qr_scan", "ios": "https://dc.lft.to/lastmile_qr_scan"}, "type": "electric_scooter"}, {"is_reserved": 0, "is_disabled": 0, "fusion_lon": 0.0, "lat": 38.92390283333334, "name": "fa97663d10c05d066d7e5da4dfd05299", "bike_id": "fa97663d10c05d066d7e5da4dfd05299", "lon": -77.00064816666666, "fusion_lat": 0.0, "rental_uris": {"android": "https://dc.lft.to/lastmile_qr_scan", "ios": "https://dc.lft.to/lastmile_qr_scan"}, "type": "electric_scooter"}, {"is_reserved": 0, "is_disabled": 0, "fusion_lon": 0.0, "lat": 38.921100333333335, "name": "40f4e600be40ead98c56e1990534be50", "bike_id": "40f4e600be40ead98c56e1990534be50", "lon": -77.02065966666666, "fusion_lat": 0.0, "rental_uris": {"android": "https://dc.lft.to/lastmile_qr_scan", "ios": "https://dc.lft.to/lastmile_qr_scan"}, "type": "electric_scooter"}, {"is_reserved": 0, "is_disabled": 0, "fusion_lon": 0.0, "lat": 38.90265016666667, "name": "c88245b448f8c57076583f8c91c98576", "bike_id": "c88245b448f8c57076583f8c91c98576", "lon": -77.0643955, "fusion_lat": 0.0, "rental_uris": {"android": "https://dc.lft.to/lastmile_qr_scan", "ios": "https://dc.lft.to/lastmile_qr_scan"}, "type": "electric_scooter"}, {"is_reserved": 0, "is_disabled": 0, "fusion_lon": 0.0, "lat": 38.888722333333334, "name": "1357b3fc997b171bdf74aaf15a9bbe27", "bike_id": "1357b3fc997b171bdf74aaf15a9bbe27", "lon": -76.983831, "fusion_lat": 0.0, "rental_uris": {"android": "https://dc.lft.to/lastmile_qr_scan", "ios": "https://dc.lft.to/lastmile_qr_scan"}, "type": "electric_bike"}, {"is_reserved": 0, "is_disabled": 0, "fusion_lon": 0.0, "lat": 38.905044833333335, "name": "5905c7011fe9ca4a6cd1ca58cd50da1a", "bike_id": "5905c7011fe9ca4a6cd1ca58cd50da1a", "lon": -77.05473283333333, "fusion_lat": 0.0, "rental_uris": {"android": "https://dc.lft.to/lastmile_qr_scan", "ios": "https://dc.lft.to/lastmile_qr_scan"}, "type": "electric_scooter"}, {"is_reserved": 0, "is_disabled": 0, "fusion_lon": 0.0, "lat": 38.92059016666666, "name": "dcec95cdf36ae0567a4b936f36e3971d", "bike_id": "dcec95cdf36ae0567a4b936f36e3971d", "lon": -76.98426416666666, "fusion_lat": 0.0, "rental_uris": {"android": "https://dc.lft.to/lastmile_qr_scan", "ios": "https://dc.lft.to/lastmile_qr_scan"}, "type": "electric_scooter"}, {"is_reserved": 0, "is_disabled": 0, "fusion_lon": 0.0, "lat": 38.92397116666667, "name": "4b41f5f7c9e3bd89b106fd91bc3bcb55", "bike_id": "4b41f5f7c9e3bd89b106fd91bc3bcb55", "lon": -77.02036416666667, "fusion_lat": 0.0, "rental_uris": {"android": "https://dc.lft.to/lastmile_qr_scan", "ios": "https://dc.lft.to/lastmile_qr_scan"}, "type": "electric_scooter"}, {"is_reserved": 0, "is_disabled": 0, "fusion_lon": 0.0, "lat": 38.935278333333336, "name": "2596f5d22ca7be7f4d75c8a51b84a0a5", "bike_id": "2596f5d22ca7be7f4d75c8a51b84a0a5", "lon": -77.02358983333333, "fusion_lat": 0.0, "rental_uris": {"android": "https://dc.lft.to/lastmile_qr_scan", "ios": "https://dc.lft.to/lastmile_qr_scan"}, "type": "electric_scooter"}, {"is_reserved": 0, "is_disabled": 0, "fusion_lon": 0.0, "lat": 38.85870716666667, "name": "43630da20b3879b2957a0627679da763", "bike_id": "43630da20b3879b2957a0627679da763", "lon": -76.98927, "fusion_lat": 0.0, "rental_uris": {"android": "https://dc.lft.to/lastmile_qr_scan", "ios": "https://dc.lft.to/lastmile_qr_scan"}, "type": "electric_scooter"}, {"is_reserved": 0, "is_disabled": 0, "fusion_lon": 0.0, "lat": 38.919436833333336, "name": "55c37ab2567aa96051eedc60185c2697", "bike_id": "55c37ab2567aa96051eedc60185c2697", "lon": -77.01795, "fusion_lat": 0.0, "rental_uris": {"android": "https://dc.lft.to/lastmile_qr_scan", "ios": "https://dc.lft.to/lastmile_qr_scan"}, "type": "electric_scooter"}, {"is_reserved": 0, "is_disabled": 0, "fusion_lon": 0.0, "lat": 38.929637, "name": "bd1c0d8d70c0fcf5d5e2ef2d0c7bb5b5", "bike_id": "bd1c0d8d70c0fcf5d5e2ef2d0c7bb5b5", "lon": -77.04110283333333, "fusion_lat": 0.0, "rental_uris": {"android": "https://dc.lft.to/lastmile_qr_scan", "ios": "https://dc.lft.to/lastmile_qr_scan"}, "type": "electric_scooter"}, {"is_reserved": 0, "is_disabled": 0, "fusion_lon": 0.0, "lat": 38.8887365, "name": "8b035c4f6b90b4383a4a113c87d3b8d2", "bike_id": "8b035c4f6b90b4383a4a113c87d3b8d2", "lon": -76.9902945, "fusion_lat": 0.0, "rental_uris": {"android": "https://dc.lft.to/lastmile_qr_scan", "ios": "https://dc.lft.to/lastmile_qr_scan"}, "type": "electric_scooter"}, {"is_reserved": 0, "is_disabled": 0, "fusion_lon": 0.0, "lat": 38.91343916666667, "name": "4599f4426362bd25a8efc01e148a6f3e", "bike_id": "4599f4426362bd25a8efc01e148a6f3e", "lon": -77.020459, "fusion_lat": 0.0, "rental_uris": {"android": "https://dc.lft.to/lastmile_qr_scan", "ios": "https://dc.lft.to/lastmile_qr_scan"}, "type": "electric_scooter"}, {"is_reserved": 0, "is_disabled": 0, "fusion_lon": 0.0, "lat": 38.913189333333335, "name": "e1070c71a7074153cd59a92111e336c8", "bike_id": "e1070c71a7074153cd59a92111e336c8", "lon": -77.04547783333334, "fusion_lat": 0.0, "rental_uris": {"android": "https://dc.lft.to/lastmile_qr_scan", "ios": "https://dc.lft.to/lastmile_qr_scan"}, "type": "electric_scooter"}, {"is_reserved": 0, "is_disabled": 0, "fusion_lon": 0.0, "lat": 38.9733855, "name": "4f82a9918e81d85ae7cc8e8dfd6080c3", "bike_id": "4f82a9918e81d85ae7cc8e8dfd6080c3", "lon": -76.9958225, "fusion_lat": 0.0, "rental_uris": {"android": "https://dc.lft.to/lastmile_qr_scan", "ios": "https://dc.lft.to/lastmile_qr_scan"}, "type": "electric_bike"}, {"is_reserved": 0, "is_disabled": 0, "fusion_lon": 0.0, "lat": 38.915532166666665, "name": "44fa5ee044084c4bedabd1e646307df2", "bike_id": "44fa5ee044084c4bedabd1e646307df2", "lon": -77.05092383333333, "fusion_lat": 0.0, "rental_uris": {"android": "https://dc.lft.to/lastmile_qr_scan", "ios": "https://dc.lft.to/lastmile_qr_scan"}, "type": "electric_scooter"}, {"is_reserved": 0, "is_disabled": 0, "fusion_lon": 0.0, "lat": 38.94160216666667, "name": "4398adb7d7dad1a4deb9b3033c29cdc0", "bike_id": "4398adb7d7dad1a4deb9b3033c29cdc0", "lon": -77.00201216666666, "fusion_lat": 0.0, "rental_uris": {"android": "https://dc.lft.to/lastmile_qr_scan", "ios": "https://dc.lft.to/lastmile_qr_scan"}, "type": "electric_bike"}, {"is_reserved": 0, "is_disabled": 0, "fusion_lon": 0.0, "lat": 38.88971166666666, "name": "66e6da0fe9c30a23e133aea8734d2c5f", "bike_id": "66e6da0fe9c30a23e133aea8734d2c5f", "lon": -76.98038866666667, "fusion_lat": 0.0, "rental_uris": {"android": "https://dc.lft.to/lastmile_qr_scan", "ios": "https://dc.lft.to/lastmile_qr_scan"}, "type": "electric_scooter"}, {"is_reserved": 0, "is_disabled": 0, "fusion_lon": 0.0, "lat": 38.897568166666666, "name": "82feb175802ebe4e6fe31f7413735744", "bike_id": "82feb175802ebe4e6fe31f7413735744", "lon": -77.02983266666666, "fusion_lat": 0.0, "rental_uris": {"android": "https://dc.lft.to/lastmile_qr_scan", "ios": "https://dc.lft.to/lastmile_qr_scan"}, "type": "electric_scooter"}, {"is_reserved": 0, "is_disabled": 0, "fusion_lon": 0.0, "lat": 38.9103135, "name": "b531e5f8c00121b1bc9c5ba7f6724b67", "bike_id": "b531e5f8c00121b1bc9c5ba7f6724b67", "lon": -77.032369, "fusion_lat": 0.0, "rental_uris": {"android": "https://dc.lft.to/lastmile_qr_scan", "ios": "https://dc.lft.to/lastmile_qr_scan"}, "type": "electric_scooter"}, {"is_reserved": 0, "is_disabled": 0, "fusion_lon": 0.0, "lat": 38.84673566666667, "name": "234f3cb3745ad681456c1f7950c694c9", "bike_id": "234f3cb3745ad681456c1f7950c694c9", "lon": -77.13916733333333, "fusion_lat": 0.0, "rental_uris": {"android": "https://dc.lft.to/lastmile_qr_scan", "ios": "https://dc.lft.to/lastmile_qr_scan"}, "type": "electric_bike"}, {"is_reserved": 0, "is_disabled": 0, "fusion_lon": 0.0, "lat": 38.923799, "name": "ddfd48f1e1bd7b30e50734335e6d3f18", "bike_id": "ddfd48f1e1bd7b30e50734335e6d3f18", "lon": -77.03056066666667, "fusion_lat": 0.0, "rental_uris": {"android": "https://dc.lft.to/lastmile_qr_scan", "ios": "https://dc.lft.to/lastmile_qr_scan"}, "type": "electric_scooter"}, {"is_reserved": 0, "is_disabled": 0, "fusion_lon": 0.0, "lat": 38.895199, "name": "7ba06f397c1b20195d6bc325dbd7fa1a", "bike_id": "7ba06f397c1b20195d6bc325dbd7fa1a", "lon": -77.04479083333334, "fusion_lat": 0.0, "rental_uris": {"android": "https://dc.lft.to/lastmile_qr_scan", "ios": "https://dc.lft.to/lastmile_qr_scan"}, "type": "electric_scooter"}, {"is_reserved": 0, "is_disabled": 0, "fusion_lon": 0.0, "lat": 38.91321383333333, "name": "19b1df6b7b79bc559f906b429d9f6241", "bike_id": "19b1df6b7b79bc559f906b429d9f6241", "lon": -77.04543383333333, "fusion_lat": 0.0, "rental_uris": {"android": "https://dc.lft.to/lastmile_qr_scan", "ios": "https://dc.lft.to/lastmile_qr_scan"}, "type": "electric_scooter"}, {"is_reserved": 0, "is_disabled": 0, "fusion_lon": 0.0, "lat": 38.926079333333334, "name": "5bb2ed78aba4539c63447ca04cdc92d9", "bike_id": "5bb2ed78aba4539c63447ca04cdc92d9", "lon": -77.03953383333334, "fusion_lat": 0.0, "rental_uris": {"android": "https://dc.lft.to/lastmile_qr_scan", "ios": "https://dc.lft.to/lastmile_qr_scan"}, "type": "electric_scooter"}, {"is_reserved": 0, "is_disabled": 0, "fusion_lon": 0.0, "lat": 38.90564216666667, "name": "1880ed0cf0a3639cdcad23b482370971", "bike_id": "1880ed0cf0a3639cdcad23b482370971", "lon": -77.057073, "fusion_lat": 0.0, "rental_uris": {"android": "https://dc.lft.to/lastmile_qr_scan", "ios": "https://dc.lft.to/lastmile_qr_scan"}, "type": "electric_scooter"}, {"is_reserved": 0, "is_disabled": 0, "fusion_lon": 0.0, "lat": 38.88870433333334, "name": "03a121beeb8cbb7c42f159048d5f4f93", "bike_id": "03a121beeb8cbb7c42f159048d5f4f93", "lon": -76.9866955, "fusion_lat": 0.0, "rental_uris": {"android": "https://dc.lft.to/lastmile_qr_scan", "ios": "https://dc.lft.to/lastmile_qr_scan"}, "type": "electric_scooter"}, {"is_reserved": 0, "is_disabled": 0, "fusion_lon": 0.0, "lat": 38.93304333333333, "name": "6ac5a1601ab1cb2a7b2bdbbafd549060", "bike_id": "6ac5a1601ab1cb2a7b2bdbbafd549060", "lon": -77.03087583333334, "fusion_lat": 0.0, "rental_uris": {"android": "https://dc.lft.to/lastmile_qr_scan", "ios": "https://dc.lft.to/lastmile_qr_scan"}, "type": "electric_scooter"}, {"is_reserved": 0, "is_disabled": 0, "fusion_lon": 0.0, "lat": 38.902691, "name": "1237032320ce8ddadcdf30feb5274daa", "bike_id": "1237032320ce8ddadcdf30feb5274daa", "lon": -77.060013, "fusion_lat": 0.0, "rental_uris": {"android": "https://dc.lft.to/lastmile_qr_scan", "ios": "https://dc.lft.to/lastmile_qr_scan"}, "type": "electric_scooter"}, {"is_reserved": 0, "is_disabled": 0, "fusion_lon": 0.0, "lat": 38.92470216666667, "name": "006606d7f5eba705531844b5a700f07d", "bike_id": "006606d7f5eba705531844b5a700f07d", "lon": -77.02711783333334, "fusion_lat": 0.0, "rental_uris": {"android": "https://dc.lft.to/lastmile_qr_scan", "ios": "https://dc.lft.to/lastmile_qr_scan"}, "type": "electric_scooter"}, {"is_reserved": 0, "is_disabled": 0, "fusion_lon": 0.0, "lat": 38.907436833333335, "name": "f840ace95bdebee1e763569462eb0a66", "bike_id": "f840ace95bdebee1e763569462eb0a66", "lon": -77.03214533333333, "fusion_lat": 0.0, "rental_uris": {"android": "https://dc.lft.to/lastmile_qr_scan", "ios": "https://dc.lft.to/lastmile_qr_scan"}, "type": "electric_scooter"}, {"is_reserved": 0, "is_disabled": 0, "fusion_lon": 0.0, "lat": 38.9166095, "name": "9c7b95a32e23cf4a5e50d7e6266ceed3", "bike_id": "9c7b95a32e23cf4a5e50d7e6266ceed3", "lon": -77.0384845, "fusion_lat": 0.0, "rental_uris": {"android": "https://dc.lft.to/lastmile_qr_scan", "ios": "https://dc.lft.to/lastmile_qr_scan"}, "type": "electric_scooter"}, {"is_reserved": 0, "is_disabled": 0, "fusion_lon": 0.0, "lat": 38.90258766666667, "name": "d8ddff2fc4181b6c8b347d5e056dd7c4", "bike_id": "d8ddff2fc4181b6c8b347d5e056dd7c4", "lon": -77.0176085, "fusion_lat": 0.0, "rental_uris": {"android": "https://dc.lft.to/lastmile_qr_scan", "ios": "https://dc.lft.to/lastmile_qr_scan"}, "type": "electric_scooter"}, {"is_reserved": 0, "is_disabled": 0, "fusion_lon": 0.0, "lat": 38.935968833333334, "name": "da729457730b896ee7fdfdcab59b7c74", "bike_id": "da729457730b896ee7fdfdcab59b7c74", "lon": -77.05848966666667, "fusion_lat": 0.0, "rental_uris": {"android": "https://dc.lft.to/lastmile_qr_scan", "ios": "https://dc.lft.to/lastmile_qr_scan"}, "type": "electric_scooter"}, {"is_reserved": 0, "is_disabled": 0, "fusion_lon": 0.0, "lat": 38.8985155, "name": "5301004e7c132139e961a983292ad10a", "bike_id": "5301004e7c132139e961a983292ad10a", "lon": -76.93190716666666, "fusion_lat": 0.0, "rental_uris": {"android": "https://dc.lft.to/lastmile_qr_scan", "ios": "https://dc.lft.to/lastmile_qr_scan"}, "type": "electric_bike"}, {"is_reserved": 0, "is_disabled": 0, "fusion_lon": 0.0, "lat": 38.95354366666667, "name": "78171fc26273caa00c15bdeb1eeb630b", "bike_id": "78171fc26273caa00c15bdeb1eeb630b", "lon": -76.98093683333333, "fusion_lat": 0.0, "rental_uris": {"android": "https://dc.lft.to/lastmile_qr_scan", "ios": "https://dc.lft.to/lastmile_qr_scan"}, "type": "electric_bike"}, {"is_reserved": 0, "is_disabled": 0, "fusion_lon": 0.0, "lat": 38.8878795, "name": "27751c65cffc9a859a92195200fbd6a1", "bike_id": "27751c65cffc9a859a92195200fbd6a1", "lon": -77.01591866666666, "fusion_lat": 0.0, "rental_uris": {"android": "https://dc.lft.to/lastmile_qr_scan", "ios": "https://dc.lft.to/lastmile_qr_scan"}, "type": "electric_scooter"}, {"is_reserved": 0, "is_disabled": 0, "fusion_lon": 0.0, "lat": 38.92303583333333, "name": "07d5e4c60bbde5060a35502c856521d8", "bike_id": "07d5e4c60bbde5060a35502c856521d8", "lon": -77.031026, "fusion_lat": 0.0, "rental_uris": {"android": "https://dc.lft.to/lastmile_qr_scan", "ios": "https://dc.lft.to/lastmile_qr_scan"}, "type": "electric_scooter"}, {"is_reserved": 0, "is_disabled": 0, "fusion_lon": 0.0, "lat": 38.88132933333333, "name": "31044d9ab188b59f0d60f762c52362e5", "bike_id": "31044d9ab188b59f0d60f762c52362e5", "lon": -77.0226865, "fusion_lat": 0.0, "rental_uris": {"android": "https://dc.lft.to/lastmile_qr_scan", "ios": "https://dc.lft.to/lastmile_qr_scan"}, "type": "electric_scooter"}, {"is_reserved": 0, "is_disabled": 0, "fusion_lon": 0.0, "lat": 38.916218666666666, "name": "b0a3922ff456e9def8aa4fd1e52461e4", "bike_id": "b0a3922ff456e9def8aa4fd1e52461e4", "lon": -77.05067116666666, "fusion_lat": 0.0, "rental_uris": {"android": "https://dc.lft.to/lastmile_qr_scan", "ios": "https://dc.lft.to/lastmile_qr_scan"}, "type": "electric_scooter"}, {"is_reserved": 0, "is_disabled": 0, "fusion_lon": 0.0, "lat": 38.9199795, "name": "da4be1636d792a9ea7e208d3c8597ac2", "bike_id": "da4be1636d792a9ea7e208d3c8597ac2", "lon": -77.02372416666667, "fusion_lat": 0.0, "rental_uris": {"android": "https://dc.lft.to/lastmile_qr_scan", "ios": "https://dc.lft.to/lastmile_qr_scan"}, "type": "electric_scooter"}, {"is_reserved": 0, "is_disabled": 0, "fusion_lon": 0.0, "lat": 38.935248, "name": "5e28918b56a6c197f02bc729a83e1be6", "bike_id": "5e28918b56a6c197f02bc729a83e1be6", "lon": -77.03487333333334, "fusion_lat": 0.0, "rental_uris": {"android": "https://dc.lft.to/lastmile_qr_scan", "ios": "https://dc.lft.to/lastmile_qr_scan"}, "type": "electric_scooter"}, {"is_reserved": 0, "is_disabled": 0, "fusion_lon": 0.0, "lat": 38.89690916666667, "name": "4164a8a3be034b81036a920668134c68", "bike_id": "4164a8a3be034b81036a920668134c68", "lon": -77.00588016666667, "fusion_lat": 0.0, "rental_uris": {"android": "https://dc.lft.to/lastmile_qr_scan", "ios": "https://dc.lft.to/lastmile_qr_scan"}, "type": "electric_scooter"}, {"is_reserved": 0, "is_disabled": 0, "fusion_lon": 0.0, "lat": 38.87689483333333, "name": "5f7ecc4e2d3875bdb63ac227caa0765b", "bike_id": "5f7ecc4e2d3875bdb63ac227caa0765b", "lon": -77.0033605, "fusion_lat": 0.0, "rental_uris": {"android": "https://dc.lft.to/lastmile_qr_scan", "ios": "https://dc.lft.to/lastmile_qr_scan"}, "type": "electric_scooter"}, {"is_reserved": 0, "is_disabled": 0, "fusion_lon": 0.0, "lat": 38.927798333333335, "name": "6f151ecb4b505bc4e4e15de1009f8635", "bike_id": "6f151ecb4b505bc4e4e15de1009f8635", "lon": -77.03703316666666, "fusion_lat": 0.0, "rental_uris": {"android": "https://dc.lft.to/lastmile_qr_scan", "ios": "https://dc.lft.to/lastmile_qr_scan"}, "type": "electric_scooter"}, {"is_reserved": 0, "is_disabled": 0, "fusion_lon": 0.0, "lat": 38.914180333333334, "name": "f9dded20ed8873febfcae090b3abb752", "bike_id": "f9dded20ed8873febfcae090b3abb752", "lon": -77.04882, "fusion_lat": 0.0, "rental_uris": {"android": "https://dc.lft.to/lastmile_qr_scan", "ios": "https://dc.lft.to/lastmile_qr_scan"}, "type": "electric_scooter"}, {"is_reserved": 0, "is_disabled": 0, "fusion_lon": 0.0, "lat": 38.94300766666667, "name": "ffc5f218106706a60063bf27a738c190", "bike_id": "ffc5f218106706a60063bf27a738c190", "lon": -77.02646216666666, "fusion_lat": 0.0, "rental_uris": {"android": "https://dc.lft.to/lastmile_qr_scan", "ios": "https://dc.lft.to/lastmile_qr_scan"}, "type": "electric_scooter"}, {"is_reserved": 0, "is_disabled": 0, "fusion_lon": 0.0, "lat": 38.931210666666665, "name": "646b1d71e8e4a2ed9245badb8304af5b", "bike_id": "646b1d71e8e4a2ed9245badb8304af5b", "lon": -77.02071516666666, "fusion_lat": 0.0, "rental_uris": {"android": "https://dc.lft.to/lastmile_qr_scan", "ios": "https://dc.lft.to/lastmile_qr_scan"}, "type": "electric_scooter"}, {"is_reserved": 0, "is_disabled": 0, "fusion_lon": 0.0, "lat": 38.92006683333334, "name": "4bc5c064345491f9b2d3f4acd6f6a4a0", "bike_id": "4bc5c064345491f9b2d3f4acd6f6a4a0", "lon": -76.9850555, "fusion_lat": 0.0, "rental_uris": {"android": "https://dc.lft.to/lastmile_qr_scan", "ios": "https://dc.lft.to/lastmile_qr_scan"}, "type": "electric_scooter"}, {"is_reserved": 0, "is_disabled": 0, "fusion_lon": 0.0, "lat": 38.915763166666665, "name": "771452104a8f2877da80f31e59e2944d", "bike_id": "771452104a8f2877da80f31e59e2944d", "lon": -77.02012716666667, "fusion_lat": 0.0, "rental_uris": {"android": "https://dc.lft.to/lastmile_qr_scan", "ios": "https://dc.lft.to/lastmile_qr_scan"}, "type": "electric_scooter"}, {"is_reserved": 0, "is_disabled": 0, "fusion_lon": 0.0, "lat": 38.92410316666667, "name": "035ce431570c14e1976af58452fa84e4", "bike_id": "035ce431570c14e1976af58452fa84e4", "lon": -77.02126583333333, "fusion_lat": 0.0, "rental_uris": {"android": "https://dc.lft.to/lastmile_qr_scan", "ios": "https://dc.lft.to/lastmile_qr_scan"}, "type": "electric_scooter"}, {"is_reserved": 0, "is_disabled": 0, "fusion_lon": 0.0, "lat": 38.9039175, "name": "562b363b0775bb815f3a0fd0cb324c86", "bike_id": "562b363b0775bb815f3a0fd0cb324c86", "lon": -77.0373405, "fusion_lat": 0.0, "rental_uris": {"android": "https://dc.lft.to/lastmile_qr_scan", "ios": "https://dc.lft.to/lastmile_qr_scan"}, "type": "electric_scooter"}, {"is_reserved": 0, "is_disabled": 0, "fusion_lon": 0.0, "lat": 38.89206033333333, "name": "d3dfd93e9acda378765f86de8090265a", "bike_id": "d3dfd93e9acda378765f86de8090265a", "lon": -77.0237795, "fusion_lat": 0.0, "rental_uris": {"android": "https://dc.lft.to/lastmile_qr_scan", "ios": "https://dc.lft.to/lastmile_qr_scan"}, "type": "electric_scooter"}, {"is_reserved": 0, "is_disabled": 0, "fusion_lon": 0.0, "lat": 38.92482483333333, "name": "d0004f767705f073f265e52beb91470b", "bike_id": "d0004f767705f073f265e52beb91470b", "lon": -77.02205366666666, "fusion_lat": 0.0, "rental_uris": {"android": "https://dc.lft.to/lastmile_qr_scan", "ios": "https://dc.lft.to/lastmile_qr_scan"}, "type": "electric_scooter"}, {"is_reserved": 0, "is_disabled": 0, "fusion_lon": 0.0, "lat": 38.895076333333336, "name": "890d2c8f3f667409b7f3a7dd7312d0cb", "bike_id": "890d2c8f3f667409b7f3a7dd7312d0cb", "lon": -76.93470933333333, "fusion_lat": 0.0, "rental_uris": {"android": "https://dc.lft.to/lastmile_qr_scan", "ios": "https://dc.lft.to/lastmile_qr_scan"}, "type": "electric_scooter"}, {"is_reserved": 0, "is_disabled": 0, "fusion_lon": 0.0, "lat": 38.90407883333334, "name": "27c1bf44257876d56460a36216a9b42c", "bike_id": "27c1bf44257876d56460a36216a9b42c", "lon": -76.9732775, "fusion_lat": 0.0, "rental_uris": {"android": "https://dc.lft.to/lastmile_qr_scan", "ios": "https://dc.lft.to/lastmile_qr_scan"}, "type": "electric_scooter"}, {"is_reserved": 0, "is_disabled": 0, "fusion_lon": 0.0, "lat": 38.905145, "name": "39440fd2bf93f9c150b5de0b0740e52a", "bike_id": "39440fd2bf93f9c150b5de0b0740e52a", "lon": -77.0295145, "fusion_lat": 0.0, "rental_uris": {"android": "https://dc.lft.to/lastmile_qr_scan", "ios": "https://dc.lft.to/lastmile_qr_scan"}, "type": "electric_scooter"}, {"is_reserved": 0, "is_disabled": 0, "fusion_lon": 0.0, "lat": 38.92231316666667, "name": "dd32651e4fc0a175ac6718246a415153", "bike_id": "dd32651e4fc0a175ac6718246a415153", "lon": -77.02844333333333, "fusion_lat": 0.0, "rental_uris": {"android": "https://dc.lft.to/lastmile_qr_scan", "ios": "https://dc.lft.to/lastmile_qr_scan"}, "type": "electric_scooter"}, {"is_reserved": 0, "is_disabled": 0, "fusion_lon": 0.0, "lat": 38.922282, "name": "49fd4321b057fcd06252a92338ee2339", "bike_id": "49fd4321b057fcd06252a92338ee2339", "lon": -77.03646933333333, "fusion_lat": 0.0, "rental_uris": {"android": "https://dc.lft.to/lastmile_qr_scan", "ios": "https://dc.lft.to/lastmile_qr_scan"}, "type": "electric_scooter"}, {"is_reserved": 0, "is_disabled": 0, "fusion_lon": 0.0, "lat": 38.914811, "name": "0fb105d8c3043454ef93d856e0a0a621", "bike_id": "0fb105d8c3043454ef93d856e0a0a621", "lon": -77.00211883333333, "fusion_lat": 0.0, "rental_uris": {"android": "https://dc.lft.to/lastmile_qr_scan", "ios": "https://dc.lft.to/lastmile_qr_scan"}, "type": "electric_scooter"}, {"is_reserved": 0, "is_disabled": 0, "fusion_lon": 0.0, "lat": 38.896045, "name": "080f6446fbd6a64c283c999f5c053126", "bike_id": "080f6446fbd6a64c283c999f5c053126", "lon": -77.01911816666667, "fusion_lat": 0.0, "rental_uris": {"android": "https://dc.lft.to/lastmile_qr_scan", "ios": "https://dc.lft.to/lastmile_qr_scan"}, "type": "electric_scooter"}, {"is_reserved": 0, "is_disabled": 0, "fusion_lon": 0.0, "lat": 38.9209605, "name": "e336403ba65ec3d6a65949c4fc8716fe", "bike_id": "e336403ba65ec3d6a65949c4fc8716fe", "lon": -77.02537616666666, "fusion_lat": 0.0, "rental_uris": {"android": "https://dc.lft.to/lastmile_qr_scan", "ios": "https://dc.lft.to/lastmile_qr_scan"}, "type": "electric_scooter"}, {"is_reserved": 0, "is_disabled": 0, "fusion_lon": 0.0, "lat": 38.896901666666665, "name": "e55d3c1ab92c293365704a5d7f23a120", "bike_id": "e55d3c1ab92c293365704a5d7f23a120", "lon": -76.92787516666667, "fusion_lat": 0.0, "rental_uris": {"android": "https://dc.lft.to/lastmile_qr_scan", "ios": "https://dc.lft.to/lastmile_qr_scan"}, "type": "electric_scooter"}, {"is_reserved": 0, "is_disabled": 0, "fusion_lon": 0.0, "lat": 38.96212716666667, "name": "2bfd26267d4d459b509af526409c69d8", "bike_id": "2bfd26267d4d459b509af526409c69d8", "lon": -77.0277905, "fusion_lat": 0.0, "rental_uris": {"android": "https://dc.lft.to/lastmile_qr_scan", "ios": "https://dc.lft.to/lastmile_qr_scan"}, "type": "electric_scooter"}, {"is_reserved": 0, "is_disabled": 0, "fusion_lon": 0.0, "lat": 38.898397333333335, "name": "ed847de6f4f51e0c67dd8c96afa3ebc1", "bike_id": "ed847de6f4f51e0c67dd8c96afa3ebc1", "lon": -77.022758, "fusion_lat": 0.0, "rental_uris": {"android": "https://dc.lft.to/lastmile_qr_scan", "ios": "https://dc.lft.to/lastmile_qr_scan"}, "type": "electric_scooter"}, {"is_reserved": 0, "is_disabled": 0, "fusion_lon": 0.0, "lat": 38.9268795, "name": "493b5f33d76092c56962b36872ba84ed", "bike_id": "493b5f33d76092c56962b36872ba84ed", "lon": -77.0258305, "fusion_lat": 0.0, "rental_uris": {"android": "https://dc.lft.to/lastmile_qr_scan", "ios": "https://dc.lft.to/lastmile_qr_scan"}, "type": "electric_scooter"}, {"is_reserved": 0, "is_disabled": 0, "fusion_lon": 0.0, "lat": 38.90544233333333, "name": "4f1dd655619c4feb63e40e6311472a4b", "bike_id": "4f1dd655619c4feb63e40e6311472a4b", "lon": -77.0069765, "fusion_lat": 0.0, "rental_uris": {"android": "https://dc.lft.to/lastmile_qr_scan", "ios": "https://dc.lft.to/lastmile_qr_scan"}, "type": "electric_scooter"}, {"is_reserved": 0, "is_disabled": 0, "fusion_lon": 0.0, "lat": 38.934153333333335, "name": "1149e1ad14a8012c40f31ce72f553a53", "bike_id": "1149e1ad14a8012c40f31ce72f553a53", "lon": -77.01990566666667, "fusion_lat": 0.0, "rental_uris": {"android": "https://dc.lft.to/lastmile_qr_scan", "ios": "https://dc.lft.to/lastmile_qr_scan"}, "type": "electric_scooter"}, {"is_reserved": 0, "is_disabled": 0, "fusion_lon": 0.0, "lat": 38.915467666666665, "name": "2c2cd89838cb7d9b9bbea25052ea23ca", "bike_id": "2c2cd89838cb7d9b9bbea25052ea23ca", "lon": -77.0445, "fusion_lat": 0.0, "rental_uris": {"android": "https://dc.lft.to/lastmile_qr_scan", "ios": "https://dc.lft.to/lastmile_qr_scan"}, "type": "electric_scooter"}, {"is_reserved": 0, "is_disabled": 0, "fusion_lon": 0.0, "lat": 38.90218383333333, "name": "c2049e8596a1439c5580b84587216511", "bike_id": "c2049e8596a1439c5580b84587216511", "lon": -77.05122916666667, "fusion_lat": 0.0, "rental_uris": {"android": "https://dc.lft.to/lastmile_qr_scan", "ios": "https://dc.lft.to/lastmile_qr_scan"}, "type": "electric_scooter"}, {"is_reserved": 0, "is_disabled": 0, "fusion_lon": 0.0, "lat": 38.896351, "name": "afac96b41d81eec72fb17743fd082c3f", "bike_id": "afac96b41d81eec72fb17743fd082c3f", "lon": -77.04011033333333, "fusion_lat": 0.0, "rental_uris": {"android": "https://dc.lft.to/lastmile_qr_scan", "ios": "https://dc.lft.to/lastmile_qr_scan"}, "type": "electric_scooter"}, {"is_reserved": 0, "is_disabled": 0, "fusion_lon": 0.0, "lat": 38.90985, "name": "04e56932c2b62ccf4062d34a30faf418", "bike_id": "04e56932c2b62ccf4062d34a30faf418", "lon": -77.02165433333333, "fusion_lat": 0.0, "rental_uris": {"android": "https://dc.lft.to/lastmile_qr_scan", "ios": "https://dc.lft.to/lastmile_qr_scan"}, "type": "electric_scooter"}, {"is_reserved": 0, "is_disabled": 0, "fusion_lon": 0.0, "lat": 38.88691033333333, "name": "8c66555a7f7380182ad8c66152940ecb", "bike_id": "8c66555a7f7380182ad8c66152940ecb", "lon": -76.97640533333333, "fusion_lat": 0.0, "rental_uris": {"android": "https://dc.lft.to/lastmile_qr_scan", "ios": "https://dc.lft.to/lastmile_qr_scan"}, "type": "electric_scooter"}, {"is_reserved": 0, "is_disabled": 0, "fusion_lon": 0.0, "lat": 38.91265666666666, "name": "3ab9a4c8df18d34390453e8c4968c377", "bike_id": "3ab9a4c8df18d34390453e8c4968c377", "lon": -76.97204983333333, "fusion_lat": 0.0, "rental_uris": {"android": "https://dc.lft.to/lastmile_qr_scan", "ios": "https://dc.lft.to/lastmile_qr_scan"}, "type": "electric_scooter"}, {"is_reserved": 0, "is_disabled": 0, "fusion_lon": 0.0, "lat": 38.89172816666667, "name": "c8c769b230ff475a59b7f86d3a997d86", "bike_id": "c8c769b230ff475a59b7f86d3a997d86", "lon": -77.01560366666666, "fusion_lat": 0.0, "rental_uris": {"android": "https://dc.lft.to/lastmile_qr_scan", "ios": "https://dc.lft.to/lastmile_qr_scan"}, "type": "electric_scooter"}, {"is_reserved": 0, "is_disabled": 0, "fusion_lon": 0.0, "lat": 38.924895, "name": "49c347ca4cf01c46b0becf6a01c1099b", "bike_id": "49c347ca4cf01c46b0becf6a01c1099b", "lon": -77.021336, "fusion_lat": 0.0, "rental_uris": {"android": "https://dc.lft.to/lastmile_qr_scan", "ios": "https://dc.lft.to/lastmile_qr_scan"}, "type": "electric_scooter"}, {"is_reserved": 0, "is_disabled": 0, "fusion_lon": 0.0, "lat": 38.90019483333333, "name": "3be204572c3d78c9a4d37d0c80d47d43", "bike_id": "3be204572c3d78c9a4d37d0c80d47d43", "lon": -77.0021155, "fusion_lat": 0.0, "rental_uris": {"android": "https://dc.lft.to/lastmile_qr_scan", "ios": "https://dc.lft.to/lastmile_qr_scan"}, "type": "electric_scooter"}, {"is_reserved": 0, "is_disabled": 0, "fusion_lon": 0.0, "lat": 38.909542333333334, "name": "b61423358afcb1a1d749c0b25d86a761", "bike_id": "b61423358afcb1a1d749c0b25d86a761", "lon": -77.08800466666666, "fusion_lat": 0.0, "rental_uris": {"android": "https://dc.lft.to/lastmile_qr_scan", "ios": "https://dc.lft.to/lastmile_qr_scan"}, "type": "electric_bike"}, {"is_reserved": 0, "is_disabled": 0, "fusion_lon": 0.0, "lat": 38.930046, "name": "7d33d4b4cdb65d2d68ea223f9b095cef", "bike_id": "7d33d4b4cdb65d2d68ea223f9b095cef", "lon": -77.037716, "fusion_lat": 0.0, "rental_uris": {"android": "https://dc.lft.to/lastmile_qr_scan", "ios": "https://dc.lft.to/lastmile_qr_scan"}, "type": "electric_scooter"}, {"is_reserved": 0, "is_disabled": 0, "fusion_lon": 0.0, "lat": 38.92155983333333, "name": "2c21a5536aec933608a4cc809cdb00d4", "bike_id": "2c21a5536aec933608a4cc809cdb00d4", "lon": -77.03868366666667, "fusion_lat": 0.0, "rental_uris": {"android": "https://dc.lft.to/lastmile_qr_scan", "ios": "https://dc.lft.to/lastmile_qr_scan"}, "type": "electric_scooter"}, {"is_reserved": 0, "is_disabled": 0, "fusion_lon": 0.0, "lat": 38.9248315, "name": "eefa589fcf4a9fb490345d7e19a29628", "bike_id": "eefa589fcf4a9fb490345d7e19a29628", "lon": -77.03936266666666, "fusion_lat": 0.0, "rental_uris": {"android": "https://dc.lft.to/lastmile_qr_scan", "ios": "https://dc.lft.to/lastmile_qr_scan"}, "type": "electric_scooter"}, {"is_reserved": 0, "is_disabled": 0, "fusion_lon": 0.0, "lat": 38.9001405, "name": "5d0f07accdc12a745e7181fbba302db2", "bike_id": "5d0f07accdc12a745e7181fbba302db2", "lon": -77.0123595, "fusion_lat": 0.0, "rental_uris": {"android": "https://dc.lft.to/lastmile_qr_scan", "ios": "https://dc.lft.to/lastmile_qr_scan"}, "type": "electric_scooter"}, {"is_reserved": 0, "is_disabled": 0, "fusion_lon": 0.0, "lat": 38.924709, "name": "6d9ab1c8de7c964467ea4511729604c1", "bike_id": "6d9ab1c8de7c964467ea4511729604c1", "lon": -77.0288765, "fusion_lat": 0.0, "rental_uris": {"android": "https://dc.lft.to/lastmile_qr_scan", "ios": "https://dc.lft.to/lastmile_qr_scan"}, "type": "electric_scooter"}, {"is_reserved": 0, "is_disabled": 0, "fusion_lon": 0.0, "lat": 38.9068765, "name": "cf4d75f182015ecf15d971fa1c84851b", "bike_id": "cf4d75f182015ecf15d971fa1c84851b", "lon": -77.03673333333333, "fusion_lat": 0.0, "rental_uris": {"android": "https://dc.lft.to/lastmile_qr_scan", "ios": "https://dc.lft.to/lastmile_qr_scan"}, "type": "electric_scooter"}, {"is_reserved": 0, "is_disabled": 0, "fusion_lon": 0.0, "lat": 38.901828, "name": "94d9c3131b491b73d62a89f7e45f74f6", "bike_id": "94d9c3131b491b73d62a89f7e45f74f6", "lon": -76.93000733333334, "fusion_lat": 0.0, "rental_uris": {"android": "https://dc.lft.to/lastmile_qr_scan", "ios": "https://dc.lft.to/lastmile_qr_scan"}, "type": "electric_scooter"}, {"is_reserved": 0, "is_disabled": 0, "fusion_lon": 0.0, "lat": 38.90784583333333, "name": "e14c05320157b1f8ee9f70b55969e1a1", "bike_id": "e14c05320157b1f8ee9f70b55969e1a1", "lon": -77.07240333333333, "fusion_lat": 0.0, "rental_uris": {"android": "https://dc.lft.to/lastmile_qr_scan", "ios": "https://dc.lft.to/lastmile_qr_scan"}, "type": "electric_scooter"}, {"is_reserved": 0, "is_disabled": 0, "fusion_lon": 0.0, "lat": 38.89826516666667, "name": "58f11afffce95733c1c1e76ba05d5aff", "bike_id": "58f11afffce95733c1c1e76ba05d5aff", "lon": -77.02933483333334, "fusion_lat": 0.0, "rental_uris": {"android": "https://dc.lft.to/lastmile_qr_scan", "ios": "https://dc.lft.to/lastmile_qr_scan"}, "type": "electric_scooter"}, {"is_reserved": 0, "is_disabled": 0, "fusion_lon": 0.0, "lat": 38.905550833333336, "name": "87071646f3198bcd6aa2e420a32aa1cc", "bike_id": "87071646f3198bcd6aa2e420a32aa1cc", "lon": -77.00609066666667, "fusion_lat": 0.0, "rental_uris": {"android": "https://dc.lft.to/lastmile_qr_scan", "ios": "https://dc.lft.to/lastmile_qr_scan"}, "type": "electric_scooter"}, {"is_reserved": 0, "is_disabled": 0, "fusion_lon": 0.0, "lat": 38.9170745, "name": "bc4297cbc17be01936b634f63cfb4e75", "bike_id": "bc4297cbc17be01936b634f63cfb4e75", "lon": -77.032159, "fusion_lat": 0.0, "rental_uris": {"android": "https://dc.lft.to/lastmile_qr_scan", "ios": "https://dc.lft.to/lastmile_qr_scan"}, "type": "electric_scooter"}, {"is_reserved": 0, "is_disabled": 0, "fusion_lon": 0.0, "lat": 38.9247625, "name": "325404bc314f5b604a3205a15a20c33a", "bike_id": "325404bc314f5b604a3205a15a20c33a", "lon": -77.038222, "fusion_lat": 0.0, "rental_uris": {"android": "https://dc.lft.to/lastmile_qr_scan", "ios": "https://dc.lft.to/lastmile_qr_scan"}, "type": "electric_scooter"}, {"is_reserved": 0, "is_disabled": 0, "fusion_lon": 0.0, "lat": 38.919880166666665, "name": "b273576241c580fe2ac53fe9f0062ab9", "bike_id": "b273576241c580fe2ac53fe9f0062ab9", "lon": -77.02171033333333, "fusion_lat": 0.0, "rental_uris": {"android": "https://dc.lft.to/lastmile_qr_scan", "ios": "https://dc.lft.to/lastmile_qr_scan"}, "type": "electric_scooter"}, {"is_reserved": 0, "is_disabled": 0, "fusion_lon": 0.0, "lat": 38.9220635, "name": "efe6465f6880b7e6dc6b8a99f72d4f92", "bike_id": "efe6465f6880b7e6dc6b8a99f72d4f92", "lon": -77.043207, "fusion_lat": 0.0, "rental_uris": {"android": "https://dc.lft.to/lastmile_qr_scan", "ios": "https://dc.lft.to/lastmile_qr_scan"}, "type": "electric_scooter"}, {"is_reserved": 0, "is_disabled": 0, "fusion_lon": 0.0, "lat": 38.91985016666667, "name": "3ddf16864677a43da8708119ba0e2bf9", "bike_id": "3ddf16864677a43da8708119ba0e2bf9", "lon": -77.021747, "fusion_lat": 0.0, "rental_uris": {"android": "https://dc.lft.to/lastmile_qr_scan", "ios": "https://dc.lft.to/lastmile_qr_scan"}, "type": "electric_scooter"}, {"is_reserved": 0, "is_disabled": 0, "fusion_lon": 0.0, "lat": 38.81921033333333, "name": "b48693dc997db225728be99cd6fd4746", "bike_id": "b48693dc997db225728be99cd6fd4746", "lon": -77.1266505, "fusion_lat": 0.0, "rental_uris": {"android": "https://dc.lft.to/lastmile_qr_scan", "ios": "https://dc.lft.to/lastmile_qr_scan"}, "type": "electric_bike"}, {"is_reserved": 0, "is_disabled": 0, "fusion_lon": 0.0, "lat": 38.922060333333334, "name": "9d9bdc09dc4f2d60c1e90e146eb2c013", "bike_id": "9d9bdc09dc4f2d60c1e90e146eb2c013", "lon": -77.042402, "fusion_lat": 0.0, "rental_uris": {"android": "https://dc.lft.to/lastmile_qr_scan", "ios": "https://dc.lft.to/lastmile_qr_scan"}, "type": "electric_scooter"}, {"is_reserved": 0, "is_disabled": 0, "fusion_lon": 0.0, "lat": 38.95739416666667, "name": "bc3b552941134e5fbca9494c739d3467", "bike_id": "bc3b552941134e5fbca9494c739d3467", "lon": -76.98082066666667, "fusion_lat": 0.0, "rental_uris": {"android": "https://dc.lft.to/lastmile_qr_scan", "ios": "https://dc.lft.to/lastmile_qr_scan"}, "type": "electric_bike"}, {"is_reserved": 0, "is_disabled": 0, "fusion_lon": 0.0, "lat": 38.91271866666666, "name": "c50cba8a6f2a8210fe2651853e6e81ae", "bike_id": "c50cba8a6f2a8210fe2651853e6e81ae", "lon": -77.03670916666667, "fusion_lat": 0.0, "rental_uris": {"android": "https://dc.lft.to/lastmile_qr_scan", "ios": "https://dc.lft.to/lastmile_qr_scan"}, "type": "electric_scooter"}, {"is_reserved": 0, "is_disabled": 0, "fusion_lon": 0.0, "lat": 38.857086, "name": "1eead7c7bce84b238abcb87861a84043", "bike_id": "1eead7c7bce84b238abcb87861a84043", "lon": -76.982094, "fusion_lat": 0.0, "rental_uris": {"android": "https://dc.lft.to/lastmile_qr_scan", "ios": "https://dc.lft.to/lastmile_qr_scan"}, "type": "electric_scooter"}, {"is_reserved": 0, "is_disabled": 0, "fusion_lon": 0.0, "lat": 38.92056016666667, "name": "ef7ff52a42ce0a33c7b4841b52ae42a1", "bike_id": "ef7ff52a42ce0a33c7b4841b52ae42a1", "lon": -77.03283733333333, "fusion_lat": 0.0, "rental_uris": {"android": "https://dc.lft.to/lastmile_qr_scan", "ios": "https://dc.lft.to/lastmile_qr_scan"}, "type": "electric_scooter"}, {"is_reserved": 0, "is_disabled": 0, "fusion_lon": 0.0, "lat": 38.88790016666667, "name": "c5df8457b2a73fcd75b790a5c9416be4", "bike_id": "c5df8457b2a73fcd75b790a5c9416be4", "lon": -76.95332216666667, "fusion_lat": 0.0, "rental_uris": {"android": "https://dc.lft.to/lastmile_qr_scan", "ios": "https://dc.lft.to/lastmile_qr_scan"}, "type": "electric_scooter"}, {"is_reserved": 0, "is_disabled": 0, "fusion_lon": 0.0, "lat": 38.900174166666666, "name": "4610fd01a5b4a214e58da3a8ae516bfa", "bike_id": "4610fd01a5b4a214e58da3a8ae516bfa", "lon": -76.99093366666666, "fusion_lat": 0.0, "rental_uris": {"android": "https://dc.lft.to/lastmile_qr_scan", "ios": "https://dc.lft.to/lastmile_qr_scan"}, "type": "electric_scooter"}, {"is_reserved": 0, "is_disabled": 0, "fusion_lon": 0.0, "lat": 38.9311475, "name": "2609d75aae43cefe44dc241f6b08e705", "bike_id": "2609d75aae43cefe44dc241f6b08e705", "lon": -77.02096266666666, "fusion_lat": 0.0, "rental_uris": {"android": "https://dc.lft.to/lastmile_qr_scan", "ios": "https://dc.lft.to/lastmile_qr_scan"}, "type": "electric_scooter"}, {"is_reserved": 0, "is_disabled": 0, "fusion_lon": 0.0, "lat": 38.89978683333333, "name": "fd98baef0a65079fb8d2451e9cdfa95b", "bike_id": "fd98baef0a65079fb8d2451e9cdfa95b", "lon": -77.041863, "fusion_lat": 0.0, "rental_uris": {"android": "https://dc.lft.to/lastmile_qr_scan", "ios": "https://dc.lft.to/lastmile_qr_scan"}, "type": "electric_scooter"}, {"is_reserved": 0, "is_disabled": 0, "fusion_lon": 0.0, "lat": 38.897368666666665, "name": "e40559d33cd27efd37c850027a26fb49", "bike_id": "e40559d33cd27efd37c850027a26fb49", "lon": -77.02490216666666, "fusion_lat": 0.0, "rental_uris": {"android": "https://dc.lft.to/lastmile_qr_scan", "ios": "https://dc.lft.to/lastmile_qr_scan"}, "type": "electric_scooter"}, {"is_reserved": 0, "is_disabled": 0, "fusion_lon": 0.0, "lat": 38.93581733333333, "name": "afed0a5574c18c56101a11c877bb187a", "bike_id": "afed0a5574c18c56101a11c877bb187a", "lon": -77.05873066666666, "fusion_lat": 0.0, "rental_uris": {"android": "https://dc.lft.to/lastmile_qr_scan", "ios": "https://dc.lft.to/lastmile_qr_scan"}, "type": "electric_scooter"}, {"is_reserved": 0, "is_disabled": 0, "fusion_lon": 0.0, "lat": 38.92509016666666, "name": "d8e3a2c08258c267430404c6d34a143f", "bike_id": "d8e3a2c08258c267430404c6d34a143f", "lon": -77.025708, "fusion_lat": 0.0, "rental_uris": {"android": "https://dc.lft.to/lastmile_qr_scan", "ios": "https://dc.lft.to/lastmile_qr_scan"}, "type": "electric_scooter"}, {"is_reserved": 0, "is_disabled": 0, "fusion_lon": 0.0, "lat": 38.87935083333333, "name": "bbee896982d3f29022b3a5667e2193b5", "bike_id": "bbee896982d3f29022b3a5667e2193b5", "lon": -76.99364416666667, "fusion_lat": 0.0, "rental_uris": {"android": "https://dc.lft.to/lastmile_qr_scan", "ios": "https://dc.lft.to/lastmile_qr_scan"}, "type": "electric_scooter"}, {"is_reserved": 0, "is_disabled": 0, "fusion_lon": 0.0, "lat": 38.901387166666666, "name": "d91bbc90bda02b43d13c26d583b5fbe1", "bike_id": "d91bbc90bda02b43d13c26d583b5fbe1", "lon": -76.989621, "fusion_lat": 0.0, "rental_uris": {"android": "https://dc.lft.to/lastmile_qr_scan", "ios": "https://dc.lft.to/lastmile_qr_scan"}, "type": "electric_scooter"}, {"is_reserved": 0, "is_disabled": 0, "fusion_lon": 0.0, "lat": 38.920345833333336, "name": "672d09b929c9d3b264550c934fb59c83", "bike_id": "672d09b929c9d3b264550c934fb59c83", "lon": -77.01217216666667, "fusion_lat": 0.0, "rental_uris": {"android": "https://dc.lft.to/lastmile_qr_scan", "ios": "https://dc.lft.to/lastmile_qr_scan"}, "type": "electric_scooter"}, {"is_reserved": 0, "is_disabled": 0, "fusion_lon": 0.0, "lat": 38.932946, "name": "f1329ad8dc6edb3b595fc08aca36fb70", "bike_id": "f1329ad8dc6edb3b595fc08aca36fb70", "lon": -77.0229385, "fusion_lat": 0.0, "rental_uris": {"android": "https://dc.lft.to/lastmile_qr_scan", "ios": "https://dc.lft.to/lastmile_qr_scan"}, "type": "electric_scooter"}, {"is_reserved": 0, "is_disabled": 0, "fusion_lon": 0.0, "lat": 38.92492816666667, "name": "df6fc7c704a07af624ed07ab37222d52", "bike_id": "df6fc7c704a07af624ed07ab37222d52", "lon": -77.05100716666666, "fusion_lat": 0.0, "rental_uris": {"android": "https://dc.lft.to/lastmile_qr_scan", "ios": "https://dc.lft.to/lastmile_qr_scan"}, "type": "electric_scooter"}, {"is_reserved": 0, "is_disabled": 0, "fusion_lon": 0.0, "lat": 38.908507, "name": "0d952f335503d73d7926ecc322ad0a65", "bike_id": "0d952f335503d73d7926ecc322ad0a65", "lon": -77.01011033333333, "fusion_lat": 0.0, "rental_uris": {"android": "https://dc.lft.to/lastmile_qr_scan", "ios": "https://dc.lft.to/lastmile_qr_scan"}, "type": "electric_scooter"}, {"is_reserved": 0, "is_disabled": 0, "fusion_lon": 0.0, "lat": 38.862593833333335, "name": "03680a5bede999a8c382dfff2484789f", "bike_id": "03680a5bede999a8c382dfff2484789f", "lon": -76.98354116666667, "fusion_lat": 0.0, "rental_uris": {"android": "https://dc.lft.to/lastmile_qr_scan", "ios": "https://dc.lft.to/lastmile_qr_scan"}, "type": "electric_bike"}, {"is_reserved": 0, "is_disabled": 0, "fusion_lon": 0.0, "lat": 38.93185116666667, "name": "731e5d1d6cb9174dfb40fdb9641e087d", "bike_id": "731e5d1d6cb9174dfb40fdb9641e087d", "lon": -77.02833633333333, "fusion_lat": 0.0, "rental_uris": {"android": "https://dc.lft.to/lastmile_qr_scan", "ios": "https://dc.lft.to/lastmile_qr_scan"}, "type": "electric_scooter"}, {"is_reserved": 0, "is_disabled": 0, "fusion_lon": 0.0, "lat": 38.9237165, "name": "79e583e6ed09c1490aa884f9ce86d278", "bike_id": "79e583e6ed09c1490aa884f9ce86d278", "lon": -77.02705066666667, "fusion_lat": 0.0, "rental_uris": {"android": "https://dc.lft.to/lastmile_qr_scan", "ios": "https://dc.lft.to/lastmile_qr_scan"}, "type": "electric_scooter"}, {"is_reserved": 0, "is_disabled": 0, "fusion_lon": 0.0, "lat": 38.89498283333333, "name": "4f6ffa37a6472716be4d5ae5e4d2bd95", "bike_id": "4f6ffa37a6472716be4d5ae5e4d2bd95", "lon": -77.02277633333334, "fusion_lat": 0.0, "rental_uris": {"android": "https://dc.lft.to/lastmile_qr_scan", "ios": "https://dc.lft.to/lastmile_qr_scan"}, "type": "electric_scooter"}, {"is_reserved": 0, "is_disabled": 0, "fusion_lon": 0.0, "lat": 38.9056035, "name": "ebed1c5cbb3d6dea190f3179e2c3afe0", "bike_id": "ebed1c5cbb3d6dea190f3179e2c3afe0", "lon": -77.005963, "fusion_lat": 0.0, "rental_uris": {"android": "https://dc.lft.to/lastmile_qr_scan", "ios": "https://dc.lft.to/lastmile_qr_scan"}, "type": "electric_scooter"}, {"is_reserved": 0, "is_disabled": 0, "fusion_lon": 0.0, "lat": 38.92331316666667, "name": "74b40b5ba0a9fc05ef04ad152e8f1fe6", "bike_id": "74b40b5ba0a9fc05ef04ad152e8f1fe6", "lon": -77.05678083333333, "fusion_lat": 0.0, "rental_uris": {"android": "https://dc.lft.to/lastmile_qr_scan", "ios": "https://dc.lft.to/lastmile_qr_scan"}, "type": "electric_scooter"}, {"is_reserved": 0, "is_disabled": 0, "fusion_lon": 0.0, "lat": 38.89743883333333, "name": "c9ba52542c79fbaaf557978ce00ad86a", "bike_id": "c9ba52542c79fbaaf557978ce00ad86a", "lon": -77.0007565, "fusion_lat": 0.0, "rental_uris": {"android": "https://dc.lft.to/lastmile_qr_scan", "ios": "https://dc.lft.to/lastmile_qr_scan"}, "type": "electric_scooter"}, {"is_reserved": 0, "is_disabled": 0, "fusion_lon": 0.0, "lat": 38.9163845, "name": "154eaebcb33db436d2e9d555193e4a4b", "bike_id": "154eaebcb33db436d2e9d555193e4a4b", "lon": -77.04877883333333, "fusion_lat": 0.0, "rental_uris": {"android": "https://dc.lft.to/lastmile_qr_scan", "ios": "https://dc.lft.to/lastmile_qr_scan"}, "type": "electric_scooter"}, {"is_reserved": 0, "is_disabled": 0, "fusion_lon": 0.0, "lat": 38.89128083333333, "name": "9d3ac4ec6192043e345bbb19b78af556", "bike_id": "9d3ac4ec6192043e345bbb19b78af556", "lon": -76.94059066666667, "fusion_lat": 0.0, "rental_uris": {"android": "https://dc.lft.to/lastmile_qr_scan", "ios": "https://dc.lft.to/lastmile_qr_scan"}, "type": "electric_bike"}, {"is_reserved": 0, "is_disabled": 0, "fusion_lon": 0.0, "lat": 38.9386305, "name": "1edc44575b85fdd254e9475d5ddf5eec", "bike_id": "1edc44575b85fdd254e9475d5ddf5eec", "lon": -76.994284, "fusion_lat": 0.0, "rental_uris": {"android": "https://dc.lft.to/lastmile_qr_scan", "ios": "https://dc.lft.to/lastmile_qr_scan"}, "type": "electric_scooter"}, {"is_reserved": 0, "is_disabled": 0, "fusion_lon": 0.0, "lat": 38.90976883333333, "name": "4db7432fadd0dcfa7923fabf72fed484", "bike_id": "4db7432fadd0dcfa7923fabf72fed484", "lon": -77.04739466666666, "fusion_lat": 0.0, "rental_uris": {"android": "https://dc.lft.to/lastmile_qr_scan", "ios": "https://dc.lft.to/lastmile_qr_scan"}, "type": "electric_scooter"}, {"is_reserved": 0, "is_disabled": 0, "fusion_lon": 0.0, "lat": 38.913655, "name": "7524f8bcfbd748ad56c4b3098bb33c2a", "bike_id": "7524f8bcfbd748ad56c4b3098bb33c2a", "lon": -77.03359966666666, "fusion_lat": 0.0, "rental_uris": {"android": "https://dc.lft.to/lastmile_qr_scan", "ios": "https://dc.lft.to/lastmile_qr_scan"}, "type": "electric_scooter"}, {"is_reserved": 0, "is_disabled": 0, "fusion_lon": 0.0, "lat": 38.89958383333333, "name": "b93e1cfba4afc9bd0abcf94d60cced7b", "bike_id": "b93e1cfba4afc9bd0abcf94d60cced7b", "lon": -77.04502583333333, "fusion_lat": 0.0, "rental_uris": {"android": "https://dc.lft.to/lastmile_qr_scan", "ios": "https://dc.lft.to/lastmile_qr_scan"}, "type": "electric_scooter"}, {"is_reserved": 0, "is_disabled": 0, "fusion_lon": 0.0, "lat": 38.921220166666664, "name": "18ce99ae016f25dea6c49e1d7e6761a6", "bike_id": "18ce99ae016f25dea6c49e1d7e6761a6", "lon": -77.03657283333334, "fusion_lat": 0.0, "rental_uris": {"android": "https://dc.lft.to/lastmile_qr_scan", "ios": "https://dc.lft.to/lastmile_qr_scan"}, "type": "electric_scooter"}, {"is_reserved": 0, "is_disabled": 0, "fusion_lon": 0.0, "lat": 38.900740166666665, "name": "6db031e6bb6a16169bd622a612980408", "bike_id": "6db031e6bb6a16169bd622a612980408", "lon": -77.04666866666666, "fusion_lat": 0.0, "rental_uris": {"android": "https://dc.lft.to/lastmile_qr_scan", "ios": "https://dc.lft.to/lastmile_qr_scan"}, "type": "electric_scooter"}, {"is_reserved": 0, "is_disabled": 0, "fusion_lon": 0.0, "lat": 38.9321935, "name": "b3f60f78d78e5ad24f624e76effca92e", "bike_id": "b3f60f78d78e5ad24f624e76effca92e", "lon": -77.03751433333333, "fusion_lat": 0.0, "rental_uris": {"android": "https://dc.lft.to/lastmile_qr_scan", "ios": "https://dc.lft.to/lastmile_qr_scan"}, "type": "electric_scooter"}, {"is_reserved": 0, "is_disabled": 0, "fusion_lon": 0.0, "lat": 38.902621833333335, "name": "bab770c56706e4176cd21b8440e8532c", "bike_id": "bab770c56706e4176cd21b8440e8532c", "lon": -77.01729883333333, "fusion_lat": 0.0, "rental_uris": {"android": "https://dc.lft.to/lastmile_qr_scan", "ios": "https://dc.lft.to/lastmile_qr_scan"}, "type": "electric_scooter"}, {"is_reserved": 0, "is_disabled": 0, "fusion_lon": 0.0, "lat": 38.9268775, "name": "56557c612220117c75054a6ce5807888", "bike_id": "56557c612220117c75054a6ce5807888", "lon": -77.02960583333333, "fusion_lat": 0.0, "rental_uris": {"android": "https://dc.lft.to/lastmile_qr_scan", "ios": "https://dc.lft.to/lastmile_qr_scan"}, "type": "electric_scooter"}, {"is_reserved": 0, "is_disabled": 0, "fusion_lon": 0.0, "lat": 38.9207085, "name": "06e4860c02fb3b82c11451997bb61058", "bike_id": "06e4860c02fb3b82c11451997bb61058", "lon": -77.023923, "fusion_lat": 0.0, "rental_uris": {"android": "https://dc.lft.to/lastmile_qr_scan", "ios": "https://dc.lft.to/lastmile_qr_scan"}, "type": "electric_scooter"}, {"is_reserved": 0, "is_disabled": 0, "fusion_lon": 0.0, "lat": 38.91645483333333, "name": "0b5f359bfbed6a7e518df200127846f5", "bike_id": "0b5f359bfbed6a7e518df200127846f5", "lon": -77.02031833333334, "fusion_lat": 0.0, "rental_uris": {"android": "https://dc.lft.to/lastmile_qr_scan", "ios": "https://dc.lft.to/lastmile_qr_scan"}, "type": "electric_scooter"}, {"is_reserved": 0, "is_disabled": 0, "fusion_lon": 0.0, "lat": 38.90068616666667, "name": "e6a2087f67e41718c68845f83360dca5", "bike_id": "e6a2087f67e41718c68845f83360dca5", "lon": -77.048841, "fusion_lat": 0.0, "rental_uris": {"android": "https://dc.lft.to/lastmile_qr_scan", "ios": "https://dc.lft.to/lastmile_qr_scan"}, "type": "electric_scooter"}, {"is_reserved": 0, "is_disabled": 0, "fusion_lon": 0.0, "lat": 38.91652466666667, "name": "880d8946b2a6f4e7b94097913eb36c44", "bike_id": "880d8946b2a6f4e7b94097913eb36c44", "lon": -77.03181633333334, "fusion_lat": 0.0, "rental_uris": {"android": "https://dc.lft.to/lastmile_qr_scan", "ios": "https://dc.lft.to/lastmile_qr_scan"}, "type": "electric_scooter"}, {"is_reserved": 0, "is_disabled": 0, "fusion_lon": 0.0, "lat": 38.8972155, "name": "5ff4f0546bcc6f86ace87fb0ab8b1267", "bike_id": "5ff4f0546bcc6f86ace87fb0ab8b1267", "lon": -77.00207733333333, "fusion_lat": 0.0, "rental_uris": {"android": "https://dc.lft.to/lastmile_qr_scan", "ios": "https://dc.lft.to/lastmile_qr_scan"}, "type": "electric_scooter"}, {"is_reserved": 0, "is_disabled": 0, "fusion_lon": 0.0, "lat": 38.923639, "name": "3d1fc18ab814a4eab65243c0c3025cff", "bike_id": "3d1fc18ab814a4eab65243c0c3025cff", "lon": -77.050293, "fusion_lat": 0.0, "rental_uris": {"android": "https://dc.lft.to/lastmile_qr_scan", "ios": "https://dc.lft.to/lastmile_qr_scan"}, "type": "electric_scooter"}, {"is_reserved": 0, "is_disabled": 0, "fusion_lon": 0.0, "lat": 38.95083, "name": "3d6b4d750669374ed16b7bc4e1e7bfd2", "bike_id": "3d6b4d750669374ed16b7bc4e1e7bfd2", "lon": -76.99794766666666, "fusion_lat": 0.0, "rental_uris": {"android": "https://dc.lft.to/lastmile_qr_scan", "ios": "https://dc.lft.to/lastmile_qr_scan"}, "type": "electric_scooter"}, {"is_reserved": 0, "is_disabled": 0, "fusion_lon": 0.0, "lat": 38.884336833333336, "name": "6dec2bcf05bb79cadf7bd9a76dff8fdc", "bike_id": "6dec2bcf05bb79cadf7bd9a76dff8fdc", "lon": -76.9573895, "fusion_lat": 0.0, "rental_uris": {"android": "https://dc.lft.to/lastmile_qr_scan", "ios": "https://dc.lft.to/lastmile_qr_scan"}, "type": "electric_scooter"}, {"is_reserved": 0, "is_disabled": 0, "fusion_lon": 0.0, "lat": 38.892248, "name": "a61c28958a56afd267977f5d4177863a", "bike_id": "a61c28958a56afd267977f5d4177863a", "lon": -77.0437365, "fusion_lat": 0.0, "rental_uris": {"android": "https://dc.lft.to/lastmile_qr_scan", "ios": "https://dc.lft.to/lastmile_qr_scan"}, "type": "electric_scooter"}, {"is_reserved": 0, "is_disabled": 0, "fusion_lon": 0.0, "lat": 38.89964966666667, "name": "9f8870cf2acc10a633b05d1b4bff2925", "bike_id": "9f8870cf2acc10a633b05d1b4bff2925", "lon": -77.04717683333334, "fusion_lat": 0.0, "rental_uris": {"android": "https://dc.lft.to/lastmile_qr_scan", "ios": "https://dc.lft.to/lastmile_qr_scan"}, "type": "electric_scooter"}, {"is_reserved": 0, "is_disabled": 0, "fusion_lon": 0.0, "lat": 38.9238295, "name": "c7b010e55c7bcb67e163449ef83b0e39", "bike_id": "c7b010e55c7bcb67e163449ef83b0e39", "lon": -77.0264785, "fusion_lat": 0.0, "rental_uris": {"android": "https://dc.lft.to/lastmile_qr_scan", "ios": "https://dc.lft.to/lastmile_qr_scan"}, "type": "electric_scooter"}, {"is_reserved": 0, "is_disabled": 0, "fusion_lon": 0.0, "lat": 38.80735, "name": "b21e5be81081bd780183bcef08f48a8d", "bike_id": "b21e5be81081bd780183bcef08f48a8d", "lon": -76.99255183333334, "fusion_lat": 0.0, "rental_uris": {"android": "https://dc.lft.to/lastmile_qr_scan", "ios": "https://dc.lft.to/lastmile_qr_scan"}, "type": "electric_bike"}, {"is_reserved": 0, "is_disabled": 0, "fusion_lon": 0.0, "lat": 38.91802466666667, "name": "74511f033a54a5b4c43cf80f77a0c333", "bike_id": "74511f033a54a5b4c43cf80f77a0c333", "lon": -77.02484, "fusion_lat": 0.0, "rental_uris": {"android": "https://dc.lft.to/lastmile_qr_scan", "ios": "https://dc.lft.to/lastmile_qr_scan"}, "type": "electric_scooter"}, {"is_reserved": 0, "is_disabled": 0, "fusion_lon": 0.0, "lat": 38.93485416666667, "name": "6ae22484de9670d23b7c36d0a0fad12c", "bike_id": "6ae22484de9670d23b7c36d0a0fad12c", "lon": -77.0445975, "fusion_lat": 0.0, "rental_uris": {"android": "https://dc.lft.to/lastmile_qr_scan", "ios": "https://dc.lft.to/lastmile_qr_scan"}, "type": "electric_scooter"}, {"is_reserved": 0, "is_disabled": 0, "fusion_lon": 0.0, "lat": 38.907586333333334, "name": "28ff87c0ae5b45eccee30258a948c26b", "bike_id": "28ff87c0ae5b45eccee30258a948c26b", "lon": -77.04522716666666, "fusion_lat": 0.0, "rental_uris": {"android": "https://dc.lft.to/lastmile_qr_scan", "ios": "https://dc.lft.to/lastmile_qr_scan"}, "type": "electric_scooter"}, {"is_reserved": 0, "is_disabled": 0, "fusion_lon": 0.0, "lat": 38.922002166666665, "name": "e2b822ef85fc368bea95b0a59ebdc18e", "bike_id": "e2b822ef85fc368bea95b0a59ebdc18e", "lon": -76.98366066666667, "fusion_lat": 0.0, "rental_uris": {"android": "https://dc.lft.to/lastmile_qr_scan", "ios": "https://dc.lft.to/lastmile_qr_scan"}, "type": "electric_scooter"}, {"is_reserved": 0, "is_disabled": 0, "fusion_lon": 0.0, "lat": 38.87458633333333, "name": "34872c1c7640fb39d20e9548384451c9", "bike_id": "34872c1c7640fb39d20e9548384451c9", "lon": -77.00324233333333, "fusion_lat": 0.0, "rental_uris": {"android": "https://dc.lft.to/lastmile_qr_scan", "ios": "https://dc.lft.to/lastmile_qr_scan"}, "type": "electric_scooter"}, {"is_reserved": 0, "is_disabled": 0, "fusion_lon": 0.0, "lat": 38.9309485, "name": "4201176771b752fcada1b96a8d331082", "bike_id": "4201176771b752fcada1b96a8d331082", "lon": -77.02478233333333, "fusion_lat": 0.0, "rental_uris": {"android": "https://dc.lft.to/lastmile_qr_scan", "ios": "https://dc.lft.to/lastmile_qr_scan"}, "type": "electric_scooter"}, {"is_reserved": 0, "is_disabled": 0, "fusion_lon": 0.0, "lat": 38.87548233333333, "name": "bd02e121b197503f37b15d160d779e34", "bike_id": "bd02e121b197503f37b15d160d779e34", "lon": -77.00569583333333, "fusion_lat": 0.0, "rental_uris": {"android": "https://dc.lft.to/lastmile_qr_scan", "ios": "https://dc.lft.to/lastmile_qr_scan"}, "type": "electric_scooter"}, {"is_reserved": 0, "is_disabled": 0, "fusion_lon": 0.0, "lat": 38.920721666666665, "name": "63c848ab6f827942165ba7c8c3ee8173", "bike_id": "63c848ab6f827942165ba7c8c3ee8173", "lon": -77.02389333333333, "fusion_lat": 0.0, "rental_uris": {"android": "https://dc.lft.to/lastmile_qr_scan", "ios": "https://dc.lft.to/lastmile_qr_scan"}, "type": "electric_scooter"}, {"is_reserved": 0, "is_disabled": 0, "fusion_lon": 0.0, "lat": 38.87576333333333, "name": "f423e48d7e3a815d2f45105f5399f815", "bike_id": "f423e48d7e3a815d2f45105f5399f815", "lon": -77.0057975, "fusion_lat": 0.0, "rental_uris": {"android": "https://dc.lft.to/lastmile_qr_scan", "ios": "https://dc.lft.to/lastmile_qr_scan"}, "type": "electric_scooter"}, {"is_reserved": 0, "is_disabled": 0, "fusion_lon": 0.0, "lat": 38.92329766666667, "name": "04c6b50fd62e65fb3248586ec6638bd0", "bike_id": "04c6b50fd62e65fb3248586ec6638bd0", "lon": -77.05676783333334, "fusion_lat": 0.0, "rental_uris": {"android": "https://dc.lft.to/lastmile_qr_scan", "ios": "https://dc.lft.to/lastmile_qr_scan"}, "type": "electric_scooter"}, {"is_reserved": 0, "is_disabled": 0, "fusion_lon": 0.0, "lat": 38.852421666666665, "name": "32387d2e262f91f0734eb953e62b870c", "bike_id": "32387d2e262f91f0734eb953e62b870c", "lon": -77.114256, "fusion_lat": 0.0, "rental_uris": {"android": "https://dc.lft.to/lastmile_qr_scan", "ios": "https://dc.lft.to/lastmile_qr_scan"}, "type": "electric_bike"}, {"is_reserved": 0, "is_disabled": 0, "fusion_lon": 0.0, "lat": 38.89605666666667, "name": "18a13d741800cf106a60cd5562157c33", "bike_id": "18a13d741800cf106a60cd5562157c33", "lon": -77.0464735, "fusion_lat": 0.0, "rental_uris": {"android": "https://dc.lft.to/lastmile_qr_scan", "ios": "https://dc.lft.to/lastmile_qr_scan"}, "type": "electric_scooter"}, {"is_reserved": 0, "is_disabled": 0, "fusion_lon": 0.0, "lat": 38.909326166666666, "name": "1b9fbc84fc60d8c28f2cff6713fb4de2", "bike_id": "1b9fbc84fc60d8c28f2cff6713fb4de2", "lon": -76.98465383333334, "fusion_lat": 0.0, "rental_uris": {"android": "https://dc.lft.to/lastmile_qr_scan", "ios": "https://dc.lft.to/lastmile_qr_scan"}, "type": "electric_scooter"}, {"is_reserved": 0, "is_disabled": 0, "fusion_lon": 0.0, "lat": 38.9067315, "name": "fcac2ba639dedfd0ad8197c58fd45175", "bike_id": "fcac2ba639dedfd0ad8197c58fd45175", "lon": -77.027128, "fusion_lat": 0.0, "rental_uris": {"android": "https://dc.lft.to/lastmile_qr_scan", "ios": "https://dc.lft.to/lastmile_qr_scan"}, "type": "electric_scooter"}, {"is_reserved": 0, "is_disabled": 0, "fusion_lon": 0.0, "lat": 38.988369, "name": "1516400aca55233025e1a25bf362bfed", "bike_id": "1516400aca55233025e1a25bf362bfed", "lon": -77.02647566666667, "fusion_lat": 0.0, "rental_uris": {"android": "https://dc.lft.to/lastmile_qr_scan", "ios": "https://dc.lft.to/lastmile_qr_scan"}, "type": "electric_bike"}, {"is_reserved": 0, "is_disabled": 0, "fusion_lon": 0.0, "lat": 38.9215805, "name": "ef683306d2bf8049419196cf81631927", "bike_id": "ef683306d2bf8049419196cf81631927", "lon": -77.033213, "fusion_lat": 0.0, "rental_uris": {"android": "https://dc.lft.to/lastmile_qr_scan", "ios": "https://dc.lft.to/lastmile_qr_scan"}, "type": "electric_scooter"}, {"is_reserved": 0, "is_disabled": 0, "fusion_lon": 0.0, "lat": 38.917191, "name": "892ec3a96cc8c785c6d6fc657d77be12", "bike_id": "892ec3a96cc8c785c6d6fc657d77be12", "lon": -77.026967, "fusion_lat": 0.0, "rental_uris": {"android": "https://dc.lft.to/lastmile_qr_scan", "ios": "https://dc.lft.to/lastmile_qr_scan"}, "type": "electric_scooter"}, {"is_reserved": 0, "is_disabled": 0, "fusion_lon": 0.0, "lat": 38.8862335, "name": "c8c7ab20c374c933e5b2d05fb8c28acb", "bike_id": "c8c7ab20c374c933e5b2d05fb8c28acb", "lon": -77.03171483333334, "fusion_lat": 0.0, "rental_uris": {"android": "https://dc.lft.to/lastmile_qr_scan", "ios": "https://dc.lft.to/lastmile_qr_scan"}, "type": "electric_scooter"}, {"is_reserved": 0, "is_disabled": 0, "fusion_lon": 0.0, "lat": 38.897505, "name": "7eeb27dd1aa36e131dce78ed84b3243e", "bike_id": "7eeb27dd1aa36e131dce78ed84b3243e", "lon": -77.018997, "fusion_lat": 0.0, "rental_uris": {"android": "https://dc.lft.to/lastmile_qr_scan", "ios": "https://dc.lft.to/lastmile_qr_scan"}, "type": "electric_scooter"}, {"is_reserved": 0, "is_disabled": 0, "fusion_lon": 0.0, "lat": 38.78308616666666, "name": "64189aa67999eea0aef7ad5ddf61d3a2", "bike_id": "64189aa67999eea0aef7ad5ddf61d3a2", "lon": -77.11410666666667, "fusion_lat": 0.0, "rental_uris": {"android": "https://dc.lft.to/lastmile_qr_scan", "ios": "https://dc.lft.to/lastmile_qr_scan"}, "type": "electric_bike"}, {"is_reserved": 0, "is_disabled": 0, "fusion_lon": 0.0, "lat": 38.91416483333333, "name": "70d46c544b7e596f1984cca839e36801", "bike_id": "70d46c544b7e596f1984cca839e36801", "lon": -77.03170616666667, "fusion_lat": 0.0, "rental_uris": {"android": "https://dc.lft.to/lastmile_qr_scan", "ios": "https://dc.lft.to/lastmile_qr_scan"}, "type": "electric_scooter"}, {"is_reserved": 0, "is_disabled": 0, "fusion_lon": 0.0, "lat": 38.8976175, "name": "6ef76c33e398174a69623e13b102b978", "bike_id": "6ef76c33e398174a69623e13b102b978", "lon": -77.0266495, "fusion_lat": 0.0, "rental_uris": {"android": "https://dc.lft.to/lastmile_qr_scan", "ios": "https://dc.lft.to/lastmile_qr_scan"}, "type": "electric_scooter"}, {"is_reserved": 0, "is_disabled": 0, "fusion_lon": 0.0, "lat": 38.922821166666665, "name": "85e3c100533f7ca85ae6994af013347d", "bike_id": "85e3c100533f7ca85ae6994af013347d", "lon": -77.02978016666667, "fusion_lat": 0.0, "rental_uris": {"android": "https://dc.lft.to/lastmile_qr_scan", "ios": "https://dc.lft.to/lastmile_qr_scan"}, "type": "electric_scooter"}, {"is_reserved": 0, "is_disabled": 0, "fusion_lon": 0.0, "lat": 38.944871166666665, "name": "4782de40bb1ffc7b96b1e10b450982f1", "bike_id": "4782de40bb1ffc7b96b1e10b450982f1", "lon": -77.06404283333333, "fusion_lat": 0.0, "rental_uris": {"android": "https://dc.lft.to/lastmile_qr_scan", "ios": "https://dc.lft.to/lastmile_qr_scan"}, "type": "electric_scooter"}, {"is_reserved": 0, "is_disabled": 0, "fusion_lon": 0.0, "lat": 38.893312, "name": "dc4af2416b532631b58291120d3ec48c", "bike_id": "dc4af2416b532631b58291120d3ec48c", "lon": -76.93923483333333, "fusion_lat": 0.0, "rental_uris": {"android": "https://dc.lft.to/lastmile_qr_scan", "ios": "https://dc.lft.to/lastmile_qr_scan"}, "type": "electric_scooter"}, {"is_reserved": 0, "is_disabled": 0, "fusion_lon": 0.0, "lat": 38.90180516666667, "name": "df3de28d26aef2bbe3b2be393d15ca0f", "bike_id": "df3de28d26aef2bbe3b2be393d15ca0f", "lon": -77.0012185, "fusion_lat": 0.0, "rental_uris": {"android": "https://dc.lft.to/lastmile_qr_scan", "ios": "https://dc.lft.to/lastmile_qr_scan"}, "type": "electric_scooter"}, {"is_reserved": 0, "is_disabled": 0, "fusion_lon": 0.0, "lat": 38.910252, "name": "59feb62fcf19278e7b17dfe227ad5309", "bike_id": "59feb62fcf19278e7b17dfe227ad5309", "lon": -77.02936916666667, "fusion_lat": 0.0, "rental_uris": {"android": "https://dc.lft.to/lastmile_qr_scan", "ios": "https://dc.lft.to/lastmile_qr_scan"}, "type": "electric_scooter"}, {"is_reserved": 0, "is_disabled": 0, "fusion_lon": 0.0, "lat": 38.9217765, "name": "85ff2201399db5346210754fd87cc286", "bike_id": "85ff2201399db5346210754fd87cc286", "lon": -77.0401695, "fusion_lat": 0.0, "rental_uris": {"android": "https://dc.lft.to/lastmile_qr_scan", "ios": "https://dc.lft.to/lastmile_qr_scan"}, "type": "electric_scooter"}, {"is_reserved": 0, "is_disabled": 0, "fusion_lon": 0.0, "lat": 38.92062383333333, "name": "933bf32911c908de3fc0119793f0241d", "bike_id": "933bf32911c908de3fc0119793f0241d", "lon": -77.041955, "fusion_lat": 0.0, "rental_uris": {"android": "https://dc.lft.to/lastmile_qr_scan", "ios": "https://dc.lft.to/lastmile_qr_scan"}, "type": "electric_scooter"}, {"is_reserved": 0, "is_disabled": 0, "fusion_lon": 0.0, "lat": 38.92554483333333, "name": "08afe4b981313a57151eed437d185933", "bike_id": "08afe4b981313a57151eed437d185933", "lon": -77.037989, "fusion_lat": 0.0, "rental_uris": {"android": "https://dc.lft.to/lastmile_qr_scan", "ios": "https://dc.lft.to/lastmile_qr_scan"}, "type": "electric_scooter"}, {"is_reserved": 0, "is_disabled": 0, "fusion_lon": 0.0, "lat": 38.91808416666667, "name": "4ed275d30a80819587e70456df9c9479", "bike_id": "4ed275d30a80819587e70456df9c9479", "lon": -77.0343725, "fusion_lat": 0.0, "rental_uris": {"android": "https://dc.lft.to/lastmile_qr_scan", "ios": "https://dc.lft.to/lastmile_qr_scan"}, "type": "electric_scooter"}, {"is_reserved": 0, "is_disabled": 0, "fusion_lon": 0.0, "lat": 38.909922333333334, "name": "58ebed9662e00e918ae6acb0e67802d9", "bike_id": "58ebed9662e00e918ae6acb0e67802d9", "lon": -77.03184716666667, "fusion_lat": 0.0, "rental_uris": {"android": "https://dc.lft.to/lastmile_qr_scan", "ios": "https://dc.lft.to/lastmile_qr_scan"}, "type": "electric_scooter"}, {"is_reserved": 0, "is_disabled": 0, "fusion_lon": 0.0, "lat": 38.912746, "name": "53fd6323ca60390e7fdb952d5f2783dd", "bike_id": "53fd6323ca60390e7fdb952d5f2783dd", "lon": -77.03177166666667, "fusion_lat": 0.0, "rental_uris": {"android": "https://dc.lft.to/lastmile_qr_scan", "ios": "https://dc.lft.to/lastmile_qr_scan"}, "type": "electric_scooter"}, {"is_reserved": 0, "is_disabled": 0, "fusion_lon": 0.0, "lat": 38.9245545, "name": "ca4ece29d27a2743cd640cd671635290", "bike_id": "ca4ece29d27a2743cd640cd671635290", "lon": -77.04016566666667, "fusion_lat": 0.0, "rental_uris": {"android": "https://dc.lft.to/lastmile_qr_scan", "ios": "https://dc.lft.to/lastmile_qr_scan"}, "type": "electric_scooter"}, {"is_reserved": 0, "is_disabled": 0, "fusion_lon": 0.0, "lat": 38.926929666666666, "name": "d16a2132785e0c5f34538a54cc294be7", "bike_id": "d16a2132785e0c5f34538a54cc294be7", "lon": -77.007691, "fusion_lat": 0.0, "rental_uris": {"android": "https://dc.lft.to/lastmile_qr_scan", "ios": "https://dc.lft.to/lastmile_qr_scan"}, "type": "electric_scooter"}, {"is_reserved": 0, "is_disabled": 0, "fusion_lon": 0.0, "lat": 38.9275785, "name": "7c6f2fea7e73ae3e0c5f63e814d642ed", "bike_id": "7c6f2fea7e73ae3e0c5f63e814d642ed", "lon": -77.0320285, "fusion_lat": 0.0, "rental_uris": {"android": "https://dc.lft.to/lastmile_qr_scan", "ios": "https://dc.lft.to/lastmile_qr_scan"}, "type": "electric_scooter"}, {"is_reserved": 0, "is_disabled": 0, "fusion_lon": 0.0, "lat": 38.9133185, "name": "6db78d76de39e80d6216c823127b1628", "bike_id": "6db78d76de39e80d6216c823127b1628", "lon": -77.03209483333333, "fusion_lat": 0.0, "rental_uris": {"android": "https://dc.lft.to/lastmile_qr_scan", "ios": "https://dc.lft.to/lastmile_qr_scan"}, "type": "electric_scooter"}, {"is_reserved": 0, "is_disabled": 0, "fusion_lon": 0.0, "lat": 38.903708333333334, "name": "11ad346ff11cc4f8e4bfce08aac4f0d4", "bike_id": "11ad346ff11cc4f8e4bfce08aac4f0d4", "lon": -77.00733416666667, "fusion_lat": 0.0, "rental_uris": {"android": "https://dc.lft.to/lastmile_qr_scan", "ios": "https://dc.lft.to/lastmile_qr_scan"}, "type": "electric_scooter"}, {"is_reserved": 0, "is_disabled": 0, "fusion_lon": 0.0, "lat": 38.92912666666667, "name": "02006ef06b0e2569bf9bbc9bfdd8784a", "bike_id": "02006ef06b0e2569bf9bbc9bfdd8784a", "lon": -77.03194616666667, "fusion_lat": 0.0, "rental_uris": {"android": "https://dc.lft.to/lastmile_qr_scan", "ios": "https://dc.lft.to/lastmile_qr_scan"}, "type": "electric_scooter"}, {"is_reserved": 0, "is_disabled": 0, "fusion_lon": 0.0, "lat": 38.9105525, "name": "6d8108d8246e48a9d939d8b20affa075", "bike_id": "6d8108d8246e48a9d939d8b20affa075", "lon": -77.02232016666666, "fusion_lat": 0.0, "rental_uris": {"android": "https://dc.lft.to/lastmile_qr_scan", "ios": "https://dc.lft.to/lastmile_qr_scan"}, "type": "electric_scooter"}, {"is_reserved": 0, "is_disabled": 0, "fusion_lon": 0.0, "lat": 38.91784833333333, "name": "a8bafd4e2f7f2a6b1e7db3e5cf9a073d", "bike_id": "a8bafd4e2f7f2a6b1e7db3e5cf9a073d", "lon": -77.04256816666667, "fusion_lat": 0.0, "rental_uris": {"android": "https://dc.lft.to/lastmile_qr_scan", "ios": "https://dc.lft.to/lastmile_qr_scan"}, "type": "electric_scooter"}, {"is_reserved": 0, "is_disabled": 0, "fusion_lon": 0.0, "lat": 38.88366116666667, "name": "fb82bb847eafcc93265f3bf5cb07a6f3", "bike_id": "fb82bb847eafcc93265f3bf5cb07a6f3", "lon": -77.0197005, "fusion_lat": 0.0, "rental_uris": {"android": "https://dc.lft.to/lastmile_qr_scan", "ios": "https://dc.lft.to/lastmile_qr_scan"}, "type": "electric_scooter"}, {"is_reserved": 0, "is_disabled": 0, "fusion_lon": 0.0, "lat": 38.88048833333333, "name": "d8397f2abc8d18ee1b0c8403c09f0597", "bike_id": "d8397f2abc8d18ee1b0c8403c09f0597", "lon": -77.01181683333333, "fusion_lat": 0.0, "rental_uris": {"android": "https://dc.lft.to/lastmile_qr_scan", "ios": "https://dc.lft.to/lastmile_qr_scan"}, "type": "electric_scooter"}, {"is_reserved": 0, "is_disabled": 0, "fusion_lon": 0.0, "lat": 38.90608483333333, "name": "60595884d36a11442b73a4e3dba1451d", "bike_id": "60595884d36a11442b73a4e3dba1451d", "lon": -77.12892433333333, "fusion_lat": 0.0, "rental_uris": {"android": "https://dc.lft.to/lastmile_qr_scan", "ios": "https://dc.lft.to/lastmile_qr_scan"}, "type": "electric_bike"}, {"is_reserved": 0, "is_disabled": 0, "fusion_lon": 0.0, "lat": 38.91743483333333, "name": "0d691427aee19ad532546309a994927a", "bike_id": "0d691427aee19ad532546309a994927a", "lon": -77.01708933333333, "fusion_lat": 0.0, "rental_uris": {"android": "https://dc.lft.to/lastmile_qr_scan", "ios": "https://dc.lft.to/lastmile_qr_scan"}, "type": "electric_scooter"}, {"is_reserved": 0, "is_disabled": 0, "fusion_lon": 0.0, "lat": 38.905116166666666, "name": "3ff01f2334881fe50ab3158d4697f6e7", "bike_id": "3ff01f2334881fe50ab3158d4697f6e7", "lon": -77.02742583333334, "fusion_lat": 0.0, "rental_uris": {"android": "https://dc.lft.to/lastmile_qr_scan", "ios": "https://dc.lft.to/lastmile_qr_scan"}, "type": "electric_scooter"}, {"is_reserved": 0, "is_disabled": 0, "fusion_lon": 0.0, "lat": 38.91871166666667, "name": "91f114161e2bae5170477e39ed411a8e", "bike_id": "91f114161e2bae5170477e39ed411a8e", "lon": -77.04250816666666, "fusion_lat": 0.0, "rental_uris": {"android": "https://dc.lft.to/lastmile_qr_scan", "ios": "https://dc.lft.to/lastmile_qr_scan"}, "type": "electric_scooter"}, {"is_reserved": 0, "is_disabled": 0, "fusion_lon": 0.0, "lat": 38.90263983333333, "name": "75ff9b891c698057703a90671e4b2e10", "bike_id": "75ff9b891c698057703a90671e4b2e10", "lon": -77.00335333333334, "fusion_lat": 0.0, "rental_uris": {"android": "https://dc.lft.to/lastmile_qr_scan", "ios": "https://dc.lft.to/lastmile_qr_scan"}, "type": "electric_scooter"}, {"is_reserved": 0, "is_disabled": 0, "fusion_lon": 0.0, "lat": 38.89991783333333, "name": "949fe851b75b09648e62b21483cefde2", "bike_id": "949fe851b75b09648e62b21483cefde2", "lon": -77.03322983333334, "fusion_lat": 0.0, "rental_uris": {"android": "https://dc.lft.to/lastmile_qr_scan", "ios": "https://dc.lft.to/lastmile_qr_scan"}, "type": "electric_bike"}, {"is_reserved": 0, "is_disabled": 0, "fusion_lon": 0.0, "lat": 38.922490333333336, "name": "52b626575fd6283caeb13cb84682af63", "bike_id": "52b626575fd6283caeb13cb84682af63", "lon": -77.030661, "fusion_lat": 0.0, "rental_uris": {"android": "https://dc.lft.to/lastmile_qr_scan", "ios": "https://dc.lft.to/lastmile_qr_scan"}, "type": "electric_scooter"}, {"is_reserved": 0, "is_disabled": 0, "fusion_lon": 0.0, "lat": 38.896042333333334, "name": "88ffbb5faafde994b63a4e41e21ddeec", "bike_id": "88ffbb5faafde994b63a4e41e21ddeec", "lon": -77.0451455, "fusion_lat": 0.0, "rental_uris": {"android": "https://dc.lft.to/lastmile_qr_scan", "ios": "https://dc.lft.to/lastmile_qr_scan"}, "type": "electric_scooter"}, {"is_reserved": 0, "is_disabled": 0, "fusion_lon": 0.0, "lat": 38.90026666666667, "name": "01c4dcebcf2538e38e0e3242a12359c8", "bike_id": "01c4dcebcf2538e38e0e3242a12359c8", "lon": -77.00198683333333, "fusion_lat": 0.0, "rental_uris": {"android": "https://dc.lft.to/lastmile_qr_scan", "ios": "https://dc.lft.to/lastmile_qr_scan"}, "type": "electric_scooter"}, {"is_reserved": 0, "is_disabled": 0, "fusion_lon": 0.0, "lat": 38.90387366666667, "name": "8ff772b359a1c5821174c70d336ed5ad", "bike_id": "8ff772b359a1c5821174c70d336ed5ad", "lon": -77.01861183333334, "fusion_lat": 0.0, "rental_uris": {"android": "https://dc.lft.to/lastmile_qr_scan", "ios": "https://dc.lft.to/lastmile_qr_scan"}, "type": "electric_scooter"}, {"is_reserved": 0, "is_disabled": 0, "fusion_lon": 0.0, "lat": 38.94506333333333, "name": "b0a59727e551e8ea60ae8d0b6963cc9a", "bike_id": "b0a59727e551e8ea60ae8d0b6963cc9a", "lon": -77.00669933333333, "fusion_lat": 0.0, "rental_uris": {"android": "https://dc.lft.to/lastmile_qr_scan", "ios": "https://dc.lft.to/lastmile_qr_scan"}, "type": "electric_bike"}, {"is_reserved": 0, "is_disabled": 0, "fusion_lon": 0.0, "lat": 38.91563333333333, "name": "0c3738426a79b2b1c7e3a3ffb57f2ef1", "bike_id": "0c3738426a79b2b1c7e3a3ffb57f2ef1", "lon": -77.04877516666667, "fusion_lat": 0.0, "rental_uris": {"android": "https://dc.lft.to/lastmile_qr_scan", "ios": "https://dc.lft.to/lastmile_qr_scan"}, "type": "electric_scooter"}, {"is_reserved": 0, "is_disabled": 0, "fusion_lon": 0.0, "lat": 38.89619916666667, "name": "40c4af53fc3b98dd60e395504c078654", "bike_id": "40c4af53fc3b98dd60e395504c078654", "lon": -77.04042466666667, "fusion_lat": 0.0, "rental_uris": {"android": "https://dc.lft.to/lastmile_qr_scan", "ios": "https://dc.lft.to/lastmile_qr_scan"}, "type": "electric_scooter"}, {"is_reserved": 0, "is_disabled": 0, "fusion_lon": 0.0, "lat": 38.92420166666667, "name": "c56a4e0e24074d6426e34a36578d7689", "bike_id": "c56a4e0e24074d6426e34a36578d7689", "lon": -77.04453866666667, "fusion_lat": 0.0, "rental_uris": {"android": "https://dc.lft.to/lastmile_qr_scan", "ios": "https://dc.lft.to/lastmile_qr_scan"}, "type": "electric_scooter"},