{"data": {"bikes": [{"lon": -77.001887, "bike_id": "b5d2253b59488d09d8ea46564e8948de", "lat": 38.8947365, "fusion_lon": 0.0, "fusion_lat": 0.0, "type": "electric_scooter", "name": "b5d2253b59488d09d8ea46564e8948de", "is_disabled": 0, "rental_uris": {"ios": "https://dc.lft.to/lastmile_qr_scan", "android": "https://dc.lft.to/lastmile_qr_scan"}, "is_reserved": 0}, {"lon": -76.9978715, "bike_id": "c4335d116d20a58e33031ced5bee650a", "lat": 38.89090816666667, "fusion_lon": 0.0, "fusion_lat": 0.0, "type": "electric_scooter", "name": "c4335d116d20a58e33031ced5bee650a", "is_disabled": 0, "rental_uris": {"ios": "https://dc.lft.to/lastmile_qr_scan", "android": "https://dc.lft.to/lastmile_qr_scan"}, "is_reserved": 0}, {"lon": -77.0218395, "bike_id": "ae0cf5ca51b4def173465613c48c2c22", "lat": 38.9150135, "fusion_lon": 0.0, "fusion_lat": 0.0, "type": "electric_scooter", "name": "ae0cf5ca51b4def173465613c48c2c22", "is_disabled": 0, "rental_uris": {"ios": "https://dc.lft.to/lastmile_qr_scan", "android": "https://dc.lft.to/lastmile_qr_scan"}, "is_reserved": 0}, {"lon": -76.98244883333334, "bike_id": "b937d5f1b53ee5f823419ef6ccd6c60d", "lat": 38.86457133333333, "fusion_lon": 0.0, "fusion_lat": 0.0, "type": "electric_scooter", "name": "b937d5f1b53ee5f823419ef6ccd6c60d", "is_disabled": 0, "rental_uris": {"ios": "https://dc.lft.to/lastmile_qr_scan", "android": "https://dc.lft.to/lastmile_qr_scan"}, "is_reserved": 0}, {"lon": -76.99868433333333, "bike_id": "f33aeeceec6dff67caa07a0868e2b361", "lat": 38.9002815, "fusion_lon": 0.0, "fusion_lat": 0.0, "type": "electric_scooter", "name": "f33aeeceec6dff67caa07a0868e2b361", "is_disabled": 0, "rental_uris": {"ios": "https://dc.lft.to/lastmile_qr_scan", "android": "https://dc.lft.to/lastmile_qr_scan"}, "is_reserved": 0}, {"lon": -77.03153183333333, "bike_id": "c205d687349f6e7c7dbaadb2ca4a0753", "lat": 38.91708666666667, "fusion_lon": 0.0, "fusion_lat": 0.0, "type": "electric_scooter", "name": "c205d687349f6e7c7dbaadb2ca4a0753", "is_disabled": 0, "rental_uris": {"ios": "https://dc.lft.to/lastmile_qr_scan", "android": "https://dc.lft.to/lastmile_qr_scan"}, "is_reserved": 0}, {"lon": -77.032611, "bike_id": "ce9e5daf1ce091cc194d222e854e5a76", "lat": 38.93535583333333, "fusion_lon": 0.0, "fusion_lat": 0.0, "type": "electric_scooter", "name": "ce9e5daf1ce091cc194d222e854e5a76", "is_disabled": 0, "rental_uris": {"ios": "https://dc.lft.to/lastmile_qr_scan", "android": "https://dc.lft.to/lastmile_qr_scan"}, "is_reserved": 0}, {"lon": -77.01502916666666, "bike_id": "50cb6a5b4f4884f9cf2ce54a5df4d028", "lat": 38.9453525, "fusion_lon": 0.0, "fusion_lat": 0.0, "type": "electric_scooter", "name": "50cb6a5b4f4884f9cf2ce54a5df4d028", "is_disabled": 0, "rental_uris": {"ios": "https://dc.lft.to/lastmile_qr_scan", "android": "https://dc.lft.to/lastmile_qr_scan"}, "is_reserved": 0}, {"lon": -77.00245283333334, "bike_id": "fb41ea8030e1ef80035c6f7e91fc15cc", "lat": 38.8851035, "fusion_lon": 0.0, "fusion_lat": 0.0, "type": "electric_scooter", "name": "fb41ea8030e1ef80035c6f7e91fc15cc", "is_disabled": 0, "rental_uris": {"ios": "https://dc.lft.to/lastmile_qr_scan", "android": "https://dc.lft.to/lastmile_qr_scan"}, "is_reserved": 0}, {"lon": -77.00614233333333, "bike_id": "a4bb917f8a0c7cb6585a039a5d014ff5", "lat": 38.90011, "fusion_lon": 0.0, "fusion_lat": 0.0, "type": "electric_scooter", "name": "a4bb917f8a0c7cb6585a039a5d014ff5", "is_disabled": 0, "rental_uris": {"ios": "https://dc.lft.to/lastmile_qr_scan", "android": "https://dc.lft.to/lastmile_qr_scan"}, "is_reserved": 0}, {"lon": -77.04005, "bike_id": "7fe75196fa8b5e32ad6b055ae2409bbd", "lat": 38.93426783333334, "fusion_lon": 0.0, "fusion_lat": 0.0, "type": "electric_scooter", "name": "7fe75196fa8b5e32ad6b055ae2409bbd", "is_disabled": 0, "rental_uris": {"ios": "https://dc.lft.to/lastmile_qr_scan", "android": "https://dc.lft.to/lastmile_qr_scan"}, "is_reserved": 0}, {"lon": -77.00294966666667, "bike_id": "dfaa3f303db68e8ab0938ba6d197dc60", "lat": 38.90127533333333, "fusion_lon": 0.0, "fusion_lat": 0.0, "type": "electric_scooter", "name": "dfaa3f303db68e8ab0938ba6d197dc60", "is_disabled": 0, "rental_uris": {"ios": "https://dc.lft.to/lastmile_qr_scan", "android": "https://dc.lft.to/lastmile_qr_scan"}, "is_reserved": 0}, {"lon": -77.04694016666667, "bike_id": "e43cdccd16887859d26640aa4fef3038", "lat": 38.9189745, "fusion_lon": 0.0, "fusion_lat": 0.0, "type": "electric_scooter", "name": "e43cdccd16887859d26640aa4fef3038", "is_disabled": 0, "rental_uris": {"ios": "https://dc.lft.to/lastmile_qr_scan", "android": "https://dc.lft.to/lastmile_qr_scan"}, "is_reserved": 0}, {"lon": -76.98107116666667, "bike_id": "8532ac769591143838401dcea31c78c8", "lat": 38.8773005, "fusion_lon": 0.0, "fusion_lat": 0.0, "type": "electric_bike", "name": "8532ac769591143838401dcea31c78c8", "is_disabled": 0, "rental_uris": {"ios": "https://dc.lft.to/lastmile_qr_scan", "android": "https://dc.lft.to/lastmile_qr_scan"}, "is_reserved": 0}, {"lon": -76.94944616666666, "bike_id": "86600046aa9235f8397e82068a487e8b", "lat": 38.903795833333334, "fusion_lon": 0.0, "fusion_lat": 0.0, "type": "electric_scooter", "name": "86600046aa9235f8397e82068a487e8b", "is_disabled": 0, "rental_uris": {"ios": "https://dc.lft.to/lastmile_qr_scan", "android": "https://dc.lft.to/lastmile_qr_scan"}, "is_reserved": 0}, {"lon": -77.05863016666666, "bike_id": "9488160b72c89f7e471958e20f439d28", "lat": 38.93608566666666, "fusion_lon": 0.0, "fusion_lat": 0.0, "type": "electric_scooter", "name": "9488160b72c89f7e471958e20f439d28", "is_disabled": 0, "rental_uris": {"ios": "https://dc.lft.to/lastmile_qr_scan", "android": "https://dc.lft.to/lastmile_qr_scan"}, "is_reserved": 0}, {"lon": -77.0278595, "bike_id": "1bb5f8a9b466b6608932f602092a1648", "lat": 38.90264416666667, "fusion_lon": 0.0, "fusion_lat": 0.0, "type": "electric_scooter", "name": "1bb5f8a9b466b6608932f602092a1648", "is_disabled": 0, "rental_uris": {"ios": "https://dc.lft.to/lastmile_qr_scan", "android": "https://dc.lft.to/lastmile_qr_scan"}, "is_reserved": 0}, {"lon": -77.03263533333333, "bike_id": "4a419f8d4638f9fefe3fe620a44554c4", "lat": 38.90049166666667, "fusion_lon": 0.0, "fusion_lat": 0.0, "type": "electric_scooter", "name": "4a419f8d4638f9fefe3fe620a44554c4", "is_disabled": 0, "rental_uris": {"ios": "https://dc.lft.to/lastmile_qr_scan", "android": "https://dc.lft.to/lastmile_qr_scan"}, "is_reserved": 0}, {"lon": -77.02856983333334, "bike_id": "952e6215bd8e31fa14e37453c9a08750", "lat": 38.88746483333333, "fusion_lon": 0.0, "fusion_lat": 0.0, "type": "electric_scooter", "name": "952e6215bd8e31fa14e37453c9a08750", "is_disabled": 0, "rental_uris": {"ios": "https://dc.lft.to/lastmile_qr_scan", "android": "https://dc.lft.to/lastmile_qr_scan"}, "is_reserved": 0}, {"lon": -76.97632466666667, "bike_id": "5912fa9a95fb20d5202da6bf5cdf4599", "lat": 38.9057285, "fusion_lon": 0.0, "fusion_lat": 0.0, "type": "electric_scooter", "name": "5912fa9a95fb20d5202da6bf5cdf4599", "is_disabled": 0, "rental_uris": {"ios": "https://dc.lft.to/lastmile_qr_scan", "android": "https://dc.lft.to/lastmile_qr_scan"}, "is_reserved": 0}, {"lon": -77.03366466666667, "bike_id": "4eb47745fbc57dfcec1d7796ed739277", "lat": 38.89854916666667, "fusion_lon": 0.0, "fusion_lat": 0.0, "type": "electric_scooter", "name": "4eb47745fbc57dfcec1d7796ed739277", "is_disabled": 0, "rental_uris": {"ios": "https://dc.lft.to/lastmile_qr_scan", "android": "https://dc.lft.to/lastmile_qr_scan"}, "is_reserved": 0}, {"lon": -77.03621866666667, "bike_id": "4240a820aafb27000e7c7e59cad969c8", "lat": 38.93158716666667, "fusion_lon": 0.0, "fusion_lat": 0.0, "type": "electric_scooter", "name": "4240a820aafb27000e7c7e59cad969c8", "is_disabled": 0, "rental_uris": {"ios": "https://dc.lft.to/lastmile_qr_scan", "android": "https://dc.lft.to/lastmile_qr_scan"}, "is_reserved": 0}, {"lon": -77.02401233333333, "bike_id": "b009bf538496b2cfe6ffa9ac521353ae", "lat": 38.915226833333335, "fusion_lon": 0.0, "fusion_lat": 0.0, "type": "electric_scooter", "name": "b009bf538496b2cfe6ffa9ac521353ae", "is_disabled": 0, "rental_uris": {"ios": "https://dc.lft.to/lastmile_qr_scan", "android": "https://dc.lft.to/lastmile_qr_scan"}, "is_reserved": 0}, {"lon": -77.07451833333333, "bike_id": "aad185148f2753b46c932cacac2f962d", "lat": 38.94508833333333, "fusion_lon": 0.0, "fusion_lat": 0.0, "type": "electric_scooter", "name": "aad185148f2753b46c932cacac2f962d", "is_disabled": 0, "rental_uris": {"ios": "https://dc.lft.to/lastmile_qr_scan", "android": "https://dc.lft.to/lastmile_qr_scan"}, "is_reserved": 0}, {"lon": -77.021607, "bike_id": "e50ca618636351044e127bb9bc951fbf", "lat": 38.91553533333333, "fusion_lon": 0.0, "fusion_lat": 0.0, "type": "electric_scooter", "name": "e50ca618636351044e127bb9bc951fbf", "is_disabled": 0, "rental_uris": {"ios": "https://dc.lft.to/lastmile_qr_scan", "android": "https://dc.lft.to/lastmile_qr_scan"}, "is_reserved": 0}, {"lon": -77.03276383333333, "bike_id": "ac54c450016a4a5f61252a8cc91c0b90", "lat": 38.9199835, "fusion_lon": 0.0, "fusion_lat": 0.0, "type": "electric_scooter", "name": "ac54c450016a4a5f61252a8cc91c0b90", "is_disabled": 0, "rental_uris": {"ios": "https://dc.lft.to/lastmile_qr_scan", "android": "https://dc.lft.to/lastmile_qr_scan"}, "is_reserved": 0}, {"lon": -77.03658866666666, "bike_id": "fe4ca3ee80241c2a7f6daf0b552f0dfb", "lat": 38.908259666666666, "fusion_lon": 0.0, "fusion_lat": 0.0, "type": "electric_scooter", "name": "fe4ca3ee80241c2a7f6daf0b552f0dfb", "is_disabled": 0, "rental_uris": {"ios": "https://dc.lft.to/lastmile_qr_scan", "android": "https://dc.lft.to/lastmile_qr_scan"}, "is_reserved": 0}, {"lon": -76.99381783333334, "bike_id": "a12c047514db0c2606adc747e7f6dc2e", "lat": 38.90055366666667, "fusion_lon": 0.0, "fusion_lat": 0.0, "type": "electric_scooter", "name": "a12c047514db0c2606adc747e7f6dc2e", "is_disabled": 0, "rental_uris": {"ios": "https://dc.lft.to/lastmile_qr_scan", "android": "https://dc.lft.to/lastmile_qr_scan"}, "is_reserved": 0}, {"lon": -77.1252765, "bike_id": "59a83760d74bdc5a8e7a5a05bb9b0d92", "lat": 39.0563525, "fusion_lon": 0.0, "fusion_lat": 0.0, "type": "electric_bike", "name": "59a83760d74bdc5a8e7a5a05bb9b0d92", "is_disabled": 0, "rental_uris": {"ios": "https://dc.lft.to/lastmile_qr_scan", "android": "https://dc.lft.to/lastmile_qr_scan"}, "is_reserved": 0}, {"lon": -77.03159383333333, "bike_id": "b75187e430c097658c4c86e57d4e1d76", "lat": 38.9141625, "fusion_lon": 0.0, "fusion_lat": 0.0, "type": "electric_scooter", "name": "b75187e430c097658c4c86e57d4e1d76", "is_disabled": 0, "rental_uris": {"ios": "https://dc.lft.to/lastmile_qr_scan", "android": "https://dc.lft.to/lastmile_qr_scan"}, "is_reserved": 0}, {"lon": -77.03214433333333, "bike_id": "8f0421afc6944b0d732376b19fdb12f7", "lat": 38.922759, "fusion_lon": 0.0, "fusion_lat": 0.0, "type": "electric_scooter", "name": "8f0421afc6944b0d732376b19fdb12f7", "is_disabled": 0, "rental_uris": {"ios": "https://dc.lft.to/lastmile_qr_scan", "android": "https://dc.lft.to/lastmile_qr_scan"}, "is_reserved": 0}, {"lon": -77.031825, "bike_id": "68117417b2a176b7d8eaf1af011c5ae6", "lat": 38.9112565, "fusion_lon": 0.0, "fusion_lat": 0.0, "type": "electric_scooter", "name": "68117417b2a176b7d8eaf1af011c5ae6", "is_disabled": 0, "rental_uris": {"ios": "https://dc.lft.to/lastmile_qr_scan", "android": "https://dc.lft.to/lastmile_qr_scan"}, "is_reserved": 0}, {"lon": -77.05282733333334, "bike_id": "3430d8768c88f6233f82f6b626012677", "lat": 38.9102, "fusion_lon": 0.0, "fusion_lat": 0.0, "type": "electric_scooter", "name": "3430d8768c88f6233f82f6b626012677", "is_disabled": 0, "rental_uris": {"ios": "https://dc.lft.to/lastmile_qr_scan", "android": "https://dc.lft.to/lastmile_qr_scan"}, "is_reserved": 0}, {"lon": -77.022725, "bike_id": "d0fbe6e15d12bf5fe80665b04dc7044d", "lat": 38.93773216666666, "fusion_lon": 0.0, "fusion_lat": 0.0, "type": "electric_scooter", "name": "d0fbe6e15d12bf5fe80665b04dc7044d", "is_disabled": 0, "rental_uris": {"ios": "https://dc.lft.to/lastmile_qr_scan", "android": "https://dc.lft.to/lastmile_qr_scan"}, "is_reserved": 0}, {"lon": -76.9275515, "bike_id": "802e728d3ff61caf243f2882678cb3b0", "lat": 38.880575, "fusion_lon": 0.0, "fusion_lat": 0.0, "type": "electric_scooter", "name": "802e728d3ff61caf243f2882678cb3b0", "is_disabled": 0, "rental_uris": {"ios": "https://dc.lft.to/lastmile_qr_scan", "android": "https://dc.lft.to/lastmile_qr_scan"}, "is_reserved": 0}, {"lon": -77.027942, "bike_id": "8b80a8b5263886954f91520e0c58b1db", "lat": 38.956858, "fusion_lon": 0.0, "fusion_lat": 0.0, "type": "electric_scooter", "name": "8b80a8b5263886954f91520e0c58b1db", "is_disabled": 0, "rental_uris": {"ios": "https://dc.lft.to/lastmile_qr_scan", "android": "https://dc.lft.to/lastmile_qr_scan"}, "is_reserved": 0}, {"lon": -77.0523485, "bike_id": "75ab65ad58177ff84e1229c73bc0af5d", "lat": 38.92467666666667, "fusion_lon": 0.0, "fusion_lat": 0.0, "type": "electric_scooter", "name": "75ab65ad58177ff84e1229c73bc0af5d", "is_disabled": 0, "rental_uris": {"ios": "https://dc.lft.to/lastmile_qr_scan", "android": "https://dc.lft.to/lastmile_qr_scan"}, "is_reserved": 0}, {"lon": -77.03263416666667, "bike_id": "4768dcc20b6d5011db985ceb7c13bf3d", "lat": 38.925505666666666, "fusion_lon": 0.0, "fusion_lat": 0.0, "type": "electric_scooter", "name": "4768dcc20b6d5011db985ceb7c13bf3d", "is_disabled": 0, "rental_uris": {"ios": "https://dc.lft.to/lastmile_qr_scan", "android": "https://dc.lft.to/lastmile_qr_scan"}, "is_reserved": 0}, {"lon": -77.02406533333334, "bike_id": "d4bfe06325e8b73ad34caec15b179e2d", "lat": 38.934084166666665, "fusion_lon": 0.0, "fusion_lat": 0.0, "type": "electric_scooter", "name": "d4bfe06325e8b73ad34caec15b179e2d", "is_disabled": 0, "rental_uris": {"ios": "https://dc.lft.to/lastmile_qr_scan", "android": "https://dc.lft.to/lastmile_qr_scan"}, "is_reserved": 0}, {"lon": -77.02593316666666, "bike_id": "677517fab0b01424ac0c09942354ce33", "lat": 38.9185165, "fusion_lon": 0.0, "fusion_lat": 0.0, "type": "electric_scooter", "name": "677517fab0b01424ac0c09942354ce33", "is_disabled": 0, "rental_uris": {"ios": "https://dc.lft.to/lastmile_qr_scan", "android": "https://dc.lft.to/lastmile_qr_scan"}, "is_reserved": 0}, {"lon": -77.04253566666667, "bike_id": "d6ccd5e7688342bd9bad43561016900f", "lat": 38.92631183333334, "fusion_lon": 0.0, "fusion_lat": 0.0, "type": "electric_scooter", "name": "d6ccd5e7688342bd9bad43561016900f", "is_disabled": 0, "rental_uris": {"ios": "https://dc.lft.to/lastmile_qr_scan", "android": "https://dc.lft.to/lastmile_qr_scan"}, "is_reserved": 0}, {"lon": -77.04399183333334, "bike_id": "50f37b31aea532ffede90317b1973e1b", "lat": 38.93327166666667, "fusion_lon": 0.0, "fusion_lat": 0.0, "type": "electric_scooter", "name": "50f37b31aea532ffede90317b1973e1b", "is_disabled": 0, "rental_uris": {"ios": "https://dc.lft.to/lastmile_qr_scan", "android": "https://dc.lft.to/lastmile_qr_scan"}, "is_reserved": 0}, {"lon": -77.0482305, "bike_id": "0badca03b3a94c063ef10fb051ab1cb9", "lat": 38.904649666666664, "fusion_lon": 0.0, "fusion_lat": 0.0, "type": "electric_scooter", "name": "0badca03b3a94c063ef10fb051ab1cb9", "is_disabled": 0, "rental_uris": {"ios": "https://dc.lft.to/lastmile_qr_scan", "android": "https://dc.lft.to/lastmile_qr_scan"}, "is_reserved": 0}, {"lon": -77.023139, "bike_id": "8fb91df64671d40ccdc6be055b86778b", "lat": 38.90957616666667, "fusion_lon": 0.0, "fusion_lat": 0.0, "type": "electric_scooter", "name": "8fb91df64671d40ccdc6be055b86778b", "is_disabled": 0, "rental_uris": {"ios": "https://dc.lft.to/lastmile_qr_scan", "android": "https://dc.lft.to/lastmile_qr_scan"}, "is_reserved": 0}, {"lon": -77.0326055, "bike_id": "d5b0561dd3a1257e347d591daf5cda2e", "lat": 38.92930633333334, "fusion_lon": 0.0, "fusion_lat": 0.0, "type": "electric_scooter", "name": "d5b0561dd3a1257e347d591daf5cda2e", "is_disabled": 0, "rental_uris": {"ios": "https://dc.lft.to/lastmile_qr_scan", "android": "https://dc.lft.to/lastmile_qr_scan"}, "is_reserved": 0}, {"lon": -77.00780583333334, "bike_id": "ffe33e2ba4829288670580cc181ce843", "lat": 38.906575833333335, "fusion_lon": 0.0, "fusion_lat": 0.0, "type": "electric_scooter", "name": "ffe33e2ba4829288670580cc181ce843", "is_disabled": 0, "rental_uris": {"ios": "https://dc.lft.to/lastmile_qr_scan", "android": "https://dc.lft.to/lastmile_qr_scan"}, "is_reserved": 0}, {"lon": -77.03051016666667, "bike_id": "32270d07be32feef55f2297643cf7d02", "lat": 38.88410533333333, "fusion_lon": 0.0, "fusion_lat": 0.0, "type": "electric_scooter", "name": "32270d07be32feef55f2297643cf7d02", "is_disabled": 0, "rental_uris": {"ios": "https://dc.lft.to/lastmile_qr_scan", "android": "https://dc.lft.to/lastmile_qr_scan"}, "is_reserved": 0}, {"lon": -77.0126875, "bike_id": "6f48c2113a083bb41d49654ac4a68f8a", "lat": 38.915457333333336, "fusion_lon": 0.0, "fusion_lat": 0.0, "type": "electric_bike", "name": "6f48c2113a083bb41d49654ac4a68f8a", "is_disabled": 0, "rental_uris": {"ios": "https://dc.lft.to/lastmile_qr_scan", "android": "https://dc.lft.to/lastmile_qr_scan"}, "is_reserved": 0}, {"lon": -77.022904, "bike_id": "03a63fdc8e2d4a5f449e9ea59e817f37", "lat": 38.909737666666665, "fusion_lon": 0.0, "fusion_lat": 0.0, "type": "electric_scooter", "name": "03a63fdc8e2d4a5f449e9ea59e817f37", "is_disabled": 0, "rental_uris": {"ios": "https://dc.lft.to/lastmile_qr_scan", "android": "https://dc.lft.to/lastmile_qr_scan"}, "is_reserved": 0}, {"lon": -77.03546016666667, "bike_id": "29130587f388ccf5a56b26608ee8b007", "lat": 38.925963, "fusion_lon": 0.0, "fusion_lat": 0.0, "type": "electric_scooter", "name": "29130587f388ccf5a56b26608ee8b007", "is_disabled": 0, "rental_uris": {"ios": "https://dc.lft.to/lastmile_qr_scan", "android": "https://dc.lft.to/lastmile_qr_scan"}, "is_reserved": 0}, {"lon": -77.0275115, "bike_id": "dd5439e44dd1e84ce8ee34fb99dee9be", "lat": 38.941820166666666, "fusion_lon": 0.0, "fusion_lat": 0.0, "type": "electric_scooter", "name": "dd5439e44dd1e84ce8ee34fb99dee9be", "is_disabled": 0, "rental_uris": {"ios": "https://dc.lft.to/lastmile_qr_scan", "android": "https://dc.lft.to/lastmile_qr_scan"}, "is_reserved": 0}, {"lon": -77.03470533333333, "bike_id": "205eaa4a8048da42f4e34d4177c3e84d", "lat": 38.92156633333333, "fusion_lon": 0.0, "fusion_lat": 0.0, "type": "electric_scooter", "name": "205eaa4a8048da42f4e34d4177c3e84d", "is_disabled": 0, "rental_uris": {"ios": "https://dc.lft.to/lastmile_qr_scan", "android": "https://dc.lft.to/lastmile_qr_scan"}, "is_reserved": 0}, {"lon": -76.9968815, "bike_id": "6b57d8e9e2298f481670dfc4af975990", "lat": 38.9083605, "fusion_lon": 0.0, "fusion_lat": 0.0, "type": "electric_scooter", "name": "6b57d8e9e2298f481670dfc4af975990", "is_disabled": 0, "rental_uris": {"ios": "https://dc.lft.to/lastmile_qr_scan", "android": "https://dc.lft.to/lastmile_qr_scan"}, "is_reserved": 0}, {"lon": -76.97304733333333, "bike_id": "3e71be8b89f8096e0b2e16cb2eb488ce", "lat": 38.88748016666667, "fusion_lon": 0.0, "fusion_lat": 0.0, "type": "electric_scooter", "name": "3e71be8b89f8096e0b2e16cb2eb488ce", "is_disabled": 0, "rental_uris": {"ios": "https://dc.lft.to/lastmile_qr_scan", "android": "https://dc.lft.to/lastmile_qr_scan"}, "is_reserved": 0}, {"lon": -77.0384855, "bike_id": "80f92a92bd7f0e9064759b087666ff47", "lat": 38.90287266666667, "fusion_lon": 0.0, "fusion_lat": 0.0, "type": "electric_scooter", "name": "80f92a92bd7f0e9064759b087666ff47", "is_disabled": 0, "rental_uris": {"ios": "https://dc.lft.to/lastmile_qr_scan", "android": "https://dc.lft.to/lastmile_qr_scan"}, "is_reserved": 0}, {"lon": -77.03852716666667, "bike_id": "d74137b7481ccd26ab34adc8f564cef4", "lat": 38.916230666666664, "fusion_lon": 0.0, "fusion_lat": 0.0, "type": "electric_scooter", "name": "d74137b7481ccd26ab34adc8f564cef4", "is_disabled": 0, "rental_uris": {"ios": "https://dc.lft.to/lastmile_qr_scan", "android": "https://dc.lft.to/lastmile_qr_scan"}, "is_reserved": 0}, {"lon": -77.03840433333333, "bike_id": "e07f22119aae93305427c224c468aba5", "lat": 38.91003833333333, "fusion_lon": 0.0, "fusion_lat": 0.0, "type": "electric_scooter", "name": "e07f22119aae93305427c224c468aba5", "is_disabled": 0, "rental_uris": {"ios": "https://dc.lft.to/lastmile_qr_scan", "android": "https://dc.lft.to/lastmile_qr_scan"}, "is_reserved": 0}, {"lon": -77.02566633333333, "bike_id": "9b22e91d31f983fba1a876b6990d7091", "lat": 38.897594166666664, "fusion_lon": 0.0, "fusion_lat": 0.0, "type": "electric_scooter", "name": "9b22e91d31f983fba1a876b6990d7091", "is_disabled": 0, "rental_uris": {"ios": "https://dc.lft.to/lastmile_qr_scan", "android": "https://dc.lft.to/lastmile_qr_scan"}, "is_reserved": 0}, {"lon": -76.99464916666666, "bike_id": "f3e224ce56294b8bed65272ee49c84b3", "lat": 38.9406595, "fusion_lon": 0.0, "fusion_lat": 0.0, "type": "electric_scooter", "name": "f3e224ce56294b8bed65272ee49c84b3", "is_disabled": 0, "rental_uris": {"ios": "https://dc.lft.to/lastmile_qr_scan", "android": "https://dc.lft.to/lastmile_qr_scan"}, "is_reserved": 0}, {"lon": -77.0243335, "bike_id": "5c8dda02bc76b5a7c0f9fdd454c35d11", "lat": 38.8836485, "fusion_lon": 0.0, "fusion_lat": 0.0, "type": "electric_scooter", "name": "5c8dda02bc76b5a7c0f9fdd454c35d11", "is_disabled": 0, "rental_uris": {"ios": "https://dc.lft.to/lastmile_qr_scan", "android": "https://dc.lft.to/lastmile_qr_scan"}, "is_reserved": 0}, {"lon": -77.038402, "bike_id": "ea3abf4fe1a40a7fb4438f819625e2f2", "lat": 38.916888, "fusion_lon": 0.0, "fusion_lat": 0.0, "type": "electric_scooter", "name": "ea3abf4fe1a40a7fb4438f819625e2f2", "is_disabled": 0, "rental_uris": {"ios": "https://dc.lft.to/lastmile_qr_scan", "android": "https://dc.lft.to/lastmile_qr_scan"}, "is_reserved": 0}, {"lon": -76.98800183333333, "bike_id": "d41a15685e1e51e834b226cca1cec850", "lat": 38.867315166666664, "fusion_lon": 0.0, "fusion_lat": 0.0, "type": "electric_scooter", "name": "d41a15685e1e51e834b226cca1cec850", "is_disabled": 0, "rental_uris": {"ios": "https://dc.lft.to/lastmile_qr_scan", "android": "https://dc.lft.to/lastmile_qr_scan"}, "is_reserved": 0}, {"lon": -76.97673916666666, "bike_id": "65f92cdd25bb12eaaf32453a1c680f3b", "lat": 38.9524635, "fusion_lon": 0.0, "fusion_lat": 0.0, "type": "electric_bike", "name": "65f92cdd25bb12eaaf32453a1c680f3b", "is_disabled": 0, "rental_uris": {"ios": "https://dc.lft.to/lastmile_qr_scan", "android": "https://dc.lft.to/lastmile_qr_scan"}, "is_reserved": 0}, {"lon": -77.00613216666666, "bike_id": "bcf3a44d4bd808c24e1802bd2ad69ffb", "lat": 38.900081166666666, "fusion_lon": 0.0, "fusion_lat": 0.0, "type": "electric_scooter", "name": "bcf3a44d4bd808c24e1802bd2ad69ffb", "is_disabled": 0, "rental_uris": {"ios": "https://dc.lft.to/lastmile_qr_scan", "android": "https://dc.lft.to/lastmile_qr_scan"}, "is_reserved": 0}, {"lon": -77.07933633333333, "bike_id": "1bab4f0df756c1af26e4a2fea2b800dd", "lat": 38.931036, "fusion_lon": 0.0, "fusion_lat": 0.0, "type": "electric_scooter", "name": "1bab4f0df756c1af26e4a2fea2b800dd", "is_disabled": 0, "rental_uris": {"ios": "https://dc.lft.to/lastmile_qr_scan", "android": "https://dc.lft.to/lastmile_qr_scan"}, "is_reserved": 0}, {"lon": -77.02447516666666, "bike_id": "2c3aff9875b84de4fc138a036e78acdc", "lat": 38.92509783333333, "fusion_lon": 0.0, "fusion_lat": 0.0, "type": "electric_scooter", "name": "2c3aff9875b84de4fc138a036e78acdc", "is_disabled": 0, "rental_uris": {"ios": "https://dc.lft.to/lastmile_qr_scan", "android": "https://dc.lft.to/lastmile_qr_scan"}, "is_reserved": 0}, {"lon": -77.03598733333334, "bike_id": "7c7f868549474511590d16ab6646fae6", "lat": 38.93935183333333, "fusion_lon": 0.0, "fusion_lat": 0.0, "type": "electric_scooter", "name": "7c7f868549474511590d16ab6646fae6", "is_disabled": 0, "rental_uris": {"ios": "https://dc.lft.to/lastmile_qr_scan", "android": "https://dc.lft.to/lastmile_qr_scan"}, "is_reserved": 0}, {"lon": -77.00673, "bike_id": "3b51c29322b6d8c750ee5e1590c296a4", "lat": 38.90009216666667, "fusion_lon": 0.0, "fusion_lat": 0.0, "type": "electric_scooter", "name": "3b51c29322b6d8c750ee5e1590c296a4", "is_disabled": 0, "rental_uris": {"ios": "https://dc.lft.to/lastmile_qr_scan", "android": "https://dc.lft.to/lastmile_qr_scan"}, "is_reserved": 0}, {"lon": -77.032599, "bike_id": "d33bd74ee2ef9ddf86985cbabf3e9be6", "lat": 38.905927, "fusion_lon": 0.0, "fusion_lat": 0.0, "type": "electric_scooter", "name": "d33bd74ee2ef9ddf86985cbabf3e9be6", "is_disabled": 0, "rental_uris": {"ios": "https://dc.lft.to/lastmile_qr_scan", "android": "https://dc.lft.to/lastmile_qr_scan"}, "is_reserved": 0}, {"lon": -77.017848, "bike_id": "f796d4416e13694fb32e970743fdf21d", "lat": 38.904179, "fusion_lon": 0.0, "fusion_lat": 0.0, "type": "electric_scooter", "name": "f796d4416e13694fb32e970743fdf21d", "is_disabled": 0, "rental_uris": {"ios": "https://dc.lft.to/lastmile_qr_scan", "android": "https://dc.lft.to/lastmile_qr_scan"}, "is_reserved": 0}, {"lon": -77.03018666666667, "bike_id": "f47f1165e0de89971d13221fc0e18843", "lat": 38.89608966666667, "fusion_lon": 0.0, "fusion_lat": 0.0, "type": "electric_scooter", "name": "f47f1165e0de89971d13221fc0e18843", "is_disabled": 0, "rental_uris": {"ios": "https://dc.lft.to/lastmile_qr_scan", "android": "https://dc.lft.to/lastmile_qr_scan"}, "is_reserved": 0}, {"lon": -76.98157516666667, "bike_id": "da850b74af497ddc3f657046e89a68be", "lat": 38.9032655, "fusion_lon": 0.0, "fusion_lat": 0.0, "type": "electric_scooter", "name": "da850b74af497ddc3f657046e89a68be", "is_disabled": 0, "rental_uris": {"ios": "https://dc.lft.to/lastmile_qr_scan", "android": "https://dc.lft.to/lastmile_qr_scan"}, "is_reserved": 0}, {"lon": -77.03641333333333, "bike_id": "3a0124104298375b995c3be90eb031c5", "lat": 38.91737233333333, "fusion_lon": 0.0, "fusion_lat": 0.0, "type": "electric_scooter", "name": "3a0124104298375b995c3be90eb031c5", "is_disabled": 0, "rental_uris": {"ios": "https://dc.lft.to/lastmile_qr_scan", "android": "https://dc.lft.to/lastmile_qr_scan"}, "is_reserved": 0}, {"lon": -77.0308115, "bike_id": "dccd11822cbbd3a714adfbb66d306721", "lat": 38.88038683333333, "fusion_lon": 0.0, "fusion_lat": 0.0, "type": "electric_scooter", "name": "dccd11822cbbd3a714adfbb66d306721", "is_disabled": 0, "rental_uris": {"ios": "https://dc.lft.to/lastmile_qr_scan", "android": "https://dc.lft.to/lastmile_qr_scan"}, "is_reserved": 0}, {"lon": -77.02087866666666, "bike_id": "a5545adcff6d62f7d67c872010e19157", "lat": 38.899755666666664, "fusion_lon": 0.0, "fusion_lat": 0.0, "type": "electric_scooter", "name": "a5545adcff6d62f7d67c872010e19157", "is_disabled": 0, "rental_uris": {"ios": "https://dc.lft.to/lastmile_qr_scan", "android": "https://dc.lft.to/lastmile_qr_scan"}, "is_reserved": 0}, {"lon": -77.0444735, "bike_id": "49aac5d2d7f4924bf5f7683c57fac0da", "lat": 38.918775333333336, "fusion_lon": 0.0, "fusion_lat": 0.0, "type": "electric_scooter", "name": "49aac5d2d7f4924bf5f7683c57fac0da", "is_disabled": 0, "rental_uris": {"ios": "https://dc.lft.to/lastmile_qr_scan", "android": "https://dc.lft.to/lastmile_qr_scan"}, "is_reserved": 0}, {"lon": -77.03990083333333, "bike_id": "195f1fc2ac6de0f8e95e039bd450adb0", "lat": 38.9245475, "fusion_lon": 0.0, "fusion_lat": 0.0, "type": "electric_scooter", "name": "195f1fc2ac6de0f8e95e039bd450adb0", "is_disabled": 0, "rental_uris": {"ios": "https://dc.lft.to/lastmile_qr_scan", "android": "https://dc.lft.to/lastmile_qr_scan"}, "is_reserved": 0}, {"lon": -77.02215666666666, "bike_id": "d6fc3de69a8608a00aa2d6315f326f26", "lat": 38.940988833333336, "fusion_lon": 0.0, "fusion_lat": 0.0, "type": "electric_scooter", "name": "d6fc3de69a8608a00aa2d6315f326f26", "is_disabled": 0, "rental_uris": {"ios": "https://dc.lft.to/lastmile_qr_scan", "android": "https://dc.lft.to/lastmile_qr_scan"}, "is_reserved": 0}, {"lon": -77.02183733333334, "bike_id": "c9d6fb90bd9a7258c93ce84854233ddf", "lat": 38.9113315, "fusion_lon": 0.0, "fusion_lat": 0.0, "type": "electric_scooter", "name": "c9d6fb90bd9a7258c93ce84854233ddf", "is_disabled": 0, "rental_uris": {"ios": "https://dc.lft.to/lastmile_qr_scan", "android": "https://dc.lft.to/lastmile_qr_scan"}, "is_reserved": 0}, {"lon": -77.03592216666667, "bike_id": "ffa13d2bdbe044c4bcb83e40c96db671", "lat": 38.93672333333333, "fusion_lon": 0.0, "fusion_lat": 0.0, "type": "electric_scooter", "name": "ffa13d2bdbe044c4bcb83e40c96db671", "is_disabled": 0, "rental_uris": {"ios": "https://dc.lft.to/lastmile_qr_scan", "android": "https://dc.lft.to/lastmile_qr_scan"}, "is_reserved": 0}, {"lon": -77.03470766666666, "bike_id": "fc27fcb5a06a7b11ddd43578653109ec", "lat": 38.9264375, "fusion_lon": 0.0, "fusion_lat": 0.0, "type": "electric_scooter", "name": "fc27fcb5a06a7b11ddd43578653109ec", "is_disabled": 0, "rental_uris": {"ios": "https://dc.lft.to/lastmile_qr_scan", "android": "https://dc.lft.to/lastmile_qr_scan"}, "is_reserved": 0}, {"lon": -76.98883116666667, "bike_id": "6d259ac6fdb365a7e004ce45402bccae", "lat": 38.86658216666667, "fusion_lon": 0.0, "fusion_lat": 0.0, "type": "electric_scooter", "name": "6d259ac6fdb365a7e004ce45402bccae", "is_disabled": 0, "rental_uris": {"ios": "https://dc.lft.to/lastmile_qr_scan", "android": "https://dc.lft.to/lastmile_qr_scan"}, "is_reserved": 0}, {"lon": -77.02356216666666, "bike_id": "ee3145314f80526271b09c369a3675a4", "lat": 38.89634083333333, "fusion_lon": 0.0, "fusion_lat": 0.0, "type": "electric_scooter", "name": "ee3145314f80526271b09c369a3675a4", "is_disabled": 0, "rental_uris": {"ios": "https://dc.lft.to/lastmile_qr_scan", "android": "https://dc.lft.to/lastmile_qr_scan"}, "is_reserved": 0}, {"lon": -77.024157, "bike_id": "eb442f06b64bb7bc78e283ee477c902e", "lat": 38.936723666666666, "fusion_lon": 0.0, "fusion_lat": 0.0, "type": "electric_scooter", "name": "eb442f06b64bb7bc78e283ee477c902e", "is_disabled": 0, "rental_uris": {"ios": "https://dc.lft.to/lastmile_qr_scan", "android": "https://dc.lft.to/lastmile_qr_scan"}, "is_reserved": 0}, {"lon": -77.03677533333334, "bike_id": "985388a92dd6e9fa17f96af6d18a2bd4", "lat": 38.90877166666667, "fusion_lon": 0.0, "fusion_lat": 0.0, "type": "electric_scooter", "name": "985388a92dd6e9fa17f96af6d18a2bd4", "is_disabled": 0, "rental_uris": {"ios": "https://dc.lft.to/lastmile_qr_scan", "android": "https://dc.lft.to/lastmile_qr_scan"}, "is_reserved": 0}, {"lon": -77.02322983333333, "bike_id": "053157f8f873b363361f01127da0e6dd", "lat": 38.92085616666667, "fusion_lon": 0.0, "fusion_lat": 0.0, "type": "electric_scooter", "name": "053157f8f873b363361f01127da0e6dd", "is_disabled": 0, "rental_uris": {"ios": "https://dc.lft.to/lastmile_qr_scan", "android": "https://dc.lft.to/lastmile_qr_scan"}, "is_reserved": 0}, {"lon": -77.02188533333333, "bike_id": "9f8a5bd57bbbce260a151614eb79153d", "lat": 38.911316166666666, "fusion_lon": 0.0, "fusion_lat": 0.0, "type": "electric_scooter", "name": "9f8a5bd57bbbce260a151614eb79153d", "is_disabled": 0, "rental_uris": {"ios": "https://dc.lft.to/lastmile_qr_scan", "android": "https://dc.lft.to/lastmile_qr_scan"}, "is_reserved": 0}, {"lon": -77.05185033333333, "bike_id": "c6423e2047860ab621cfebcfd7fb25c8", "lat": 38.924297833333334, "fusion_lon": 0.0, "fusion_lat": 0.0, "type": "electric_scooter", "name": "c6423e2047860ab621cfebcfd7fb25c8", "is_disabled": 0, "rental_uris": {"ios": "https://dc.lft.to/lastmile_qr_scan", "android": "https://dc.lft.to/lastmile_qr_scan"}, "is_reserved": 0}, {"lon": -76.96525966666667, "bike_id": "7a038f01aca016f1750ba3fcbd2271a3", "lat": 38.8762935, "fusion_lon": 0.0, "fusion_lat": 0.0, "type": "electric_scooter", "name": "7a038f01aca016f1750ba3fcbd2271a3", "is_disabled": 0, "rental_uris": {"ios": "https://dc.lft.to/lastmile_qr_scan", "android": "https://dc.lft.to/lastmile_qr_scan"}, "is_reserved": 0}, {"lon": -77.05266966666667, "bike_id": "82f642803cfff4ab81b8f25c5e443f83", "lat": 38.899746666666665, "fusion_lon": 0.0, "fusion_lat": 0.0, "type": "electric_scooter", "name": "82f642803cfff4ab81b8f25c5e443f83", "is_disabled": 0, "rental_uris": {"ios": "https://dc.lft.to/lastmile_qr_scan", "android": "https://dc.lft.to/lastmile_qr_scan"}, "is_reserved": 0}, {"lon": -77.026143, "bike_id": "893b3c00116d31cd48304c779a5719a8", "lat": 38.92986466666667, "fusion_lon": 0.0, "fusion_lat": 0.0, "type": "electric_scooter", "name": "893b3c00116d31cd48304c779a5719a8", "is_disabled": 0, "rental_uris": {"ios": "https://dc.lft.to/lastmile_qr_scan", "android": "https://dc.lft.to/lastmile_qr_scan"}, "is_reserved": 0}, {"lon": -76.99680616666667, "bike_id": "482e40437847cec86f979dd02905b33d", "lat": 38.886845, "fusion_lon": 0.0, "fusion_lat": 0.0, "type": "electric_scooter", "name": "482e40437847cec86f979dd02905b33d", "is_disabled": 0, "rental_uris": {"ios": "https://dc.lft.to/lastmile_qr_scan", "android": "https://dc.lft.to/lastmile_qr_scan"}, "is_reserved": 0}, {"lon": -77.0277925, "bike_id": "7282cfede0c209811827dad9140ee7b7", "lat": 38.96140166666667, "fusion_lon": 0.0, "fusion_lat": 0.0, "type": "electric_scooter", "name": "7282cfede0c209811827dad9140ee7b7", "is_disabled": 0, "rental_uris": {"ios": "https://dc.lft.to/lastmile_qr_scan", "android": "https://dc.lft.to/lastmile_qr_scan"}, "is_reserved": 0}, {"lon": -77.024817, "bike_id": "2e025133d7dd05cfc2c74bc6bdb73665", "lat": 38.919953166666666, "fusion_lon": 0.0, "fusion_lat": 0.0, "type": "electric_scooter", "name": "2e025133d7dd05cfc2c74bc6bdb73665", "is_disabled": 0, "rental_uris": {"ios": "https://dc.lft.to/lastmile_qr_scan", "android": "https://dc.lft.to/lastmile_qr_scan"}, "is_reserved": 0}, {"lon": -77.06105266666667, "bike_id": "d4e5d492583cb1f7ae64e7429031efca", "lat": 38.94370083333333, "fusion_lon": 0.0, "fusion_lat": 0.0, "type": "electric_scooter", "name": "d4e5d492583cb1f7ae64e7429031efca", "is_disabled": 0, "rental_uris": {"ios": "https://dc.lft.to/lastmile_qr_scan", "android": "https://dc.lft.to/lastmile_qr_scan"}, "is_reserved": 0}, {"lon": -77.02564266666667, "bike_id": "48f306a716974dfc6d93de062f2b0fd7", "lat": 38.941789, "fusion_lon": 0.0, "fusion_lat": 0.0, "type": "electric_scooter", "name": "48f306a716974dfc6d93de062f2b0fd7", "is_disabled": 0, "rental_uris": {"ios": "https://dc.lft.to/lastmile_qr_scan", "android": "https://dc.lft.to/lastmile_qr_scan"}, "is_reserved": 0}, {"lon": -77.05792666666666, "bike_id": "f677d4dff08ec140a5b6d16ef846d26c", "lat": 38.93476583333333, "fusion_lon": 0.0, "fusion_lat": 0.0, "type": "electric_scooter", "name": "f677d4dff08ec140a5b6d16ef846d26c", "is_disabled": 0, "rental_uris": {"ios": "https://dc.lft.to/lastmile_qr_scan", "android": "https://dc.lft.to/lastmile_qr_scan"}, "is_reserved": 0}, {"lon": -77.025806, "bike_id": "1bc42a864dfb41db202f1e599c137f4d", "lat": 38.93931533333333, "fusion_lon": 0.0, "fusion_lat": 0.0, "type": "electric_scooter", "name": "1bc42a864dfb41db202f1e599c137f4d", "is_disabled": 0, "rental_uris": {"ios": "https://dc.lft.to/lastmile_qr_scan", "android": "https://dc.lft.to/lastmile_qr_scan"}, "is_reserved": 0}, {"lon": -77.01789483333333, "bike_id": "dfcc08a649b6cf2a6bb290b1a3003fb9", "lat": 38.90376333333333, "fusion_lon": 0.0, "fusion_lat": 0.0, "type": "electric_scooter", "name": "dfcc08a649b6cf2a6bb290b1a3003fb9", "is_disabled": 0, "rental_uris": {"ios": "https://dc.lft.to/lastmile_qr_scan", "android": "https://dc.lft.to/lastmile_qr_scan"}, "is_reserved": 0}, {"lon": -77.02471366666667, "bike_id": "c0aa029992bd9f1df147f5888415831c", "lat": 38.91698733333333, "fusion_lon": 0.0, "fusion_lat": 0.0, "type": "electric_scooter", "name": "c0aa029992bd9f1df147f5888415831c", "is_disabled": 0, "rental_uris": {"ios": "https://dc.lft.to/lastmile_qr_scan", "android": "https://dc.lft.to/lastmile_qr_scan"}, "is_reserved": 0}, {"lon": -76.985704, "bike_id": "f757f7b0eeb3a4f95c955741d75b08e3", "lat": 38.896178666666664, "fusion_lon": 0.0, "fusion_lat": 0.0, "type": "electric_scooter", "name": "f757f7b0eeb3a4f95c955741d75b08e3", "is_disabled": 0, "rental_uris": {"ios": "https://dc.lft.to/lastmile_qr_scan", "android": "https://dc.lft.to/lastmile_qr_scan"}, "is_reserved": 0}, {"lon": -77.03185066666667, "bike_id": "5a86e5d43ac28e2d7274d6df49259c56", "lat": 38.936114333333336, "fusion_lon": 0.0, "fusion_lat": 0.0, "type": "electric_scooter", "name": "5a86e5d43ac28e2d7274d6df49259c56", "is_disabled": 0, "rental_uris": {"ios": "https://dc.lft.to/lastmile_qr_scan", "android": "https://dc.lft.to/lastmile_qr_scan"}, "is_reserved": 0}, {"lon": -77.04235216666666, "bike_id": "0e53ba4a6eb8b86b823a2e7961f2a27e", "lat": 38.916380833333335, "fusion_lon": 0.0, "fusion_lat": 0.0, "type": "electric_scooter", "name": "0e53ba4a6eb8b86b823a2e7961f2a27e", "is_disabled": 0, "rental_uris": {"ios": "https://dc.lft.to/lastmile_qr_scan", "android": "https://dc.lft.to/lastmile_qr_scan"}, "is_reserved": 0}, {"lon": -76.98837433333334, "bike_id": "af53d923e92bd5e6df1eaa2cd9596241", "lat": 38.9007255, "fusion_lon": 0.0, "fusion_lat": 0.0, "type": "electric_scooter", "name": "af53d923e92bd5e6df1eaa2cd9596241", "is_disabled": 0, "rental_uris": {"ios": "https://dc.lft.to/lastmile_qr_scan", "android": "https://dc.lft.to/lastmile_qr_scan"}, "is_reserved": 0}, {"lon": -77.0423035, "bike_id": "3c4c216f10dedd54830c04d074b09341", "lat": 38.9218465, "fusion_lon": 0.0, "fusion_lat": 0.0, "type": "electric_scooter", "name": "3c4c216f10dedd54830c04d074b09341", "is_disabled": 0, "rental_uris": {"ios": "https://dc.lft.to/lastmile_qr_scan", "android": "https://dc.lft.to/lastmile_qr_scan"}, "is_reserved": 0}, {"lon": -76.98375933333334, "bike_id": "53611e69b44a7ecf6a5d4f29ce57fa9e", "lat": 38.89145283333333, "fusion_lon": 0.0, "fusion_lat": 0.0, "type": "electric_scooter", "name": "53611e69b44a7ecf6a5d4f29ce57fa9e", "is_disabled": 0, "rental_uris": {"ios": "https://dc.lft.to/lastmile_qr_scan", "android": "https://dc.lft.to/lastmile_qr_scan"}, "is_reserved": 0}, {"lon": -77.00674633333334, "bike_id": "685c7dd70715be586fdfc08cede6e052", "lat": 38.90011, "fusion_lon": 0.0, "fusion_lat": 0.0, "type": "electric_scooter", "name": "685c7dd70715be586fdfc08cede6e052", "is_disabled": 0, "rental_uris": {"ios": "https://dc.lft.to/lastmile_qr_scan", "android": "https://dc.lft.to/lastmile_qr_scan"}, "is_reserved": 0}, {"lon": -76.937557, "bike_id": "e273900e7e71d0cf4048e6039211514c", "lat": 38.89045083333333, "fusion_lon": 0.0, "fusion_lat": 0.0, "type": "electric_scooter", "name": "e273900e7e71d0cf4048e6039211514c", "is_disabled": 0, "rental_uris": {"ios": "https://dc.lft.to/lastmile_qr_scan", "android": "https://dc.lft.to/lastmile_qr_scan"}, "is_reserved": 0}, {"lon": -77.05235766666667, "bike_id": "b12bc745655eb966d6d762e367e96955", "lat": 38.924584333333335, "fusion_lon": 0.0, "fusion_lat": 0.0, "type": "electric_scooter", "name": "b12bc745655eb966d6d762e367e96955", "is_disabled": 0, "rental_uris": {"ios": "https://dc.lft.to/lastmile_qr_scan", "android": "https://dc.lft.to/lastmile_qr_scan"}, "is_reserved": 0}, {"lon": -76.99546883333333, "bike_id": "1bd39a2cdc3be7163387b5983ae89676", "lat": 38.86257766666667, "fusion_lon": 0.0, "fusion_lat": 0.0, "type": "electric_scooter", "name": "1bd39a2cdc3be7163387b5983ae89676", "is_disabled": 0, "rental_uris": {"ios": "https://dc.lft.to/lastmile_qr_scan", "android": "https://dc.lft.to/lastmile_qr_scan"}, "is_reserved": 0}, {"lon": -77.0162665, "bike_id": "dcbd97b29b081d89d9a64453bc4b8ec3", "lat": 38.928962, "fusion_lon": 0.0, "fusion_lat": 0.0, "type": "electric_scooter", "name": "dcbd97b29b081d89d9a64453bc4b8ec3", "is_disabled": 0, "rental_uris": {"ios": "https://dc.lft.to/lastmile_qr_scan", "android": "https://dc.lft.to/lastmile_qr_scan"}, "is_reserved": 0}, {"lon": -77.03674633333334, "bike_id": "8167e38b8a6f5502537b7f7fded5fdae", "lat": 38.90958466666667, "fusion_lon": 0.0, "fusion_lat": 0.0, "type": "electric_scooter", "name": "8167e38b8a6f5502537b7f7fded5fdae", "is_disabled": 0, "rental_uris": {"ios": "https://dc.lft.to/lastmile_qr_scan", "android": "https://dc.lft.to/lastmile_qr_scan"}, "is_reserved": 0}, {"lon": -77.04909866666667, "bike_id": "ab0f86e1db37436669a54803bd13a06b", "lat": 38.90347166666667, "fusion_lon": 0.0, "fusion_lat": 0.0, "type": "electric_scooter", "name": "ab0f86e1db37436669a54803bd13a06b", "is_disabled": 0, "rental_uris": {"ios": "https://dc.lft.to/lastmile_qr_scan", "android": "https://dc.lft.to/lastmile_qr_scan"}, "is_reserved": 0}, {"lon": -77.03664583333334, "bike_id": "7bb6b0d625933d64152cdcf3426dc9c1", "lat": 38.921253, "fusion_lon": 0.0, "fusion_lat": 0.0, "type": "electric_scooter", "name": "7bb6b0d625933d64152cdcf3426dc9c1", "is_disabled": 0, "rental_uris": {"ios": "https://dc.lft.to/lastmile_qr_scan", "android": "https://dc.lft.to/lastmile_qr_scan"}, "is_reserved": 0}, {"lon": -77.032562, "bike_id": "a40383e73be05d8e2510be1dd9a97a40", "lat": 38.931349, "fusion_lon": 0.0, "fusion_lat": 0.0, "type": "electric_scooter", "name": "a40383e73be05d8e2510be1dd9a97a40", "is_disabled": 0, "rental_uris": {"ios": "https://dc.lft.to/lastmile_qr_scan", "android": "https://dc.lft.to/lastmile_qr_scan"}, "is_reserved": 0}, {"lon": -77.05800683333334, "bike_id": "f1f1f28988865180876f109a35298107", "lat": 38.9345325, "fusion_lon": 0.0, "fusion_lat": 0.0, "type": "electric_scooter", "name": "f1f1f28988865180876f109a35298107", "is_disabled": 0, "rental_uris": {"ios": "https://dc.lft.to/lastmile_qr_scan", "android": "https://dc.lft.to/lastmile_qr_scan"}, "is_reserved": 0}, {"lon": -77.044963, "bike_id": "552cab429d13eb967da5413b9ac44f4b", "lat": 38.913921333333334, "fusion_lon": 0.0, "fusion_lat": 0.0, "type": "electric_scooter", "name": "552cab429d13eb967da5413b9ac44f4b", "is_disabled": 0, "rental_uris": {"ios": "https://dc.lft.to/lastmile_qr_scan", "android": "https://dc.lft.to/lastmile_qr_scan"}, "is_reserved": 0}, {"lon": -76.93736066666666, "bike_id": "6d68c24701bb5df411d7472228f698df", "lat": 38.890137833333334, "fusion_lon": 0.0, "fusion_lat": 0.0, "type": "electric_scooter", "name": "6d68c24701bb5df411d7472228f698df", "is_disabled": 0, "rental_uris": {"ios": "https://dc.lft.to/lastmile_qr_scan", "android": "https://dc.lft.to/lastmile_qr_scan"}, "is_reserved": 0}, {"lon": -77.036803, "bike_id": "3d149326c6ff4fd0bee25ab8c536dc82", "lat": 38.90877416666667, "fusion_lon": 0.0, "fusion_lat": 0.0, "type": "electric_scooter", "name": "3d149326c6ff4fd0bee25ab8c536dc82", "is_disabled": 0, "rental_uris": {"ios": "https://dc.lft.to/lastmile_qr_scan", "android": "https://dc.lft.to/lastmile_qr_scan"}, "is_reserved": 0}, {"lon": -77.122219, "bike_id": "db230409330ba4c6a3415d053c0bd062", "lat": 38.85302933333333, "fusion_lon": 0.0, "fusion_lat": 0.0, "type": "electric_bike", "name": "db230409330ba4c6a3415d053c0bd062", "is_disabled": 0, "rental_uris": {"ios": "https://dc.lft.to/lastmile_qr_scan", "android": "https://dc.lft.to/lastmile_qr_scan"}, "is_reserved": 0}, {"lon": -77.01453966666666, "bike_id": "9d91808db0fb5ef80b5d19a7f749010a", "lat": 38.905257666666664, "fusion_lon": 0.0, "fusion_lat": 0.0, "type": "electric_scooter", "name": "9d91808db0fb5ef80b5d19a7f749010a", "is_disabled": 0, "rental_uris": {"ios": "https://dc.lft.to/lastmile_qr_scan", "android": "https://dc.lft.to/lastmile_qr_scan"}, "is_reserved": 0}, {"lon": -77.01941866666667, "bike_id": "608ac065ff9813dc5b5251bd3f23471e", "lat": 38.9318895, "fusion_lon": 0.0, "fusion_lat": 0.0, "type": "electric_scooter", "name": "608ac065ff9813dc5b5251bd3f23471e", "is_disabled": 0, "rental_uris": {"ios": "https://dc.lft.to/lastmile_qr_scan", "android": "https://dc.lft.to/lastmile_qr_scan"}, "is_reserved": 0}, {"lon": -76.977524, "bike_id": "984648ab62c7427efc03d9ce3836a77d", "lat": 38.86502266666667, "fusion_lon": 0.0, "fusion_lat": 0.0, "type": "electric_scooter", "name": "984648ab62c7427efc03d9ce3836a77d", "is_disabled": 0, "rental_uris": {"ios": "https://dc.lft.to/lastmile_qr_scan", "android": "https://dc.lft.to/lastmile_qr_scan"}, "is_reserved": 0}, {"lon": -77.040715, "bike_id": "6d2e7987db89384cb43547c563cf9db0", "lat": 38.914889333333335, "fusion_lon": 0.0, "fusion_lat": 0.0, "type": "electric_scooter", "name": "6d2e7987db89384cb43547c563cf9db0", "is_disabled": 0, "rental_uris": {"ios": "https://dc.lft.to/lastmile_qr_scan", "android": "https://dc.lft.to/lastmile_qr_scan"}, "is_reserved": 0}, {"lon": -77.04160566666667, "bike_id": "76d833d5321b5eaeb2f4ff56ec6bbbac", "lat": 38.90453016666667, "fusion_lon": 0.0, "fusion_lat": 0.0, "type": "electric_scooter", "name": "76d833d5321b5eaeb2f4ff56ec6bbbac", "is_disabled": 0, "rental_uris": {"ios": "https://dc.lft.to/lastmile_qr_scan", "android": "https://dc.lft.to/lastmile_qr_scan"}, "is_reserved": 0}, {"lon": -77.01125133333333, "bike_id": "b6367b7f0eeba431c6a8c030ac7613bd", "lat": 38.89491016666667, "fusion_lon": 0.0, "fusion_lat": 0.0, "type": "electric_scooter", "name": "b6367b7f0eeba431c6a8c030ac7613bd", "is_disabled": 0, "rental_uris": {"ios": "https://dc.lft.to/lastmile_qr_scan", "android": "https://dc.lft.to/lastmile_qr_scan"}, "is_reserved": 0}, {"lon": -76.98845516666667, "bike_id": "c600b66cfe9f05873fb7ec472e087742", "lat": 38.901311166666666, "fusion_lon": 0.0, "fusion_lat": 0.0, "type": "electric_scooter", "name": "c600b66cfe9f05873fb7ec472e087742", "is_disabled": 0, "rental_uris": {"ios": "https://dc.lft.to/lastmile_qr_scan", "android": "https://dc.lft.to/lastmile_qr_scan"}, "is_reserved": 0}, {"lon": -77.01154166666667, "bike_id": "503af564af573f89502153a344c1bb33", "lat": 38.895857166666666, "fusion_lon": 0.0, "fusion_lat": 0.0, "type": "electric_scooter", "name": "503af564af573f89502153a344c1bb33", "is_disabled": 0, "rental_uris": {"ios": "https://dc.lft.to/lastmile_qr_scan", "android": "https://dc.lft.to/lastmile_qr_scan"}, "is_reserved": 0}, {"lon": -77.0180105, "bike_id": "194144ffc2c45e49c4f5ba33c090bd18", "lat": 38.9199715, "fusion_lon": 0.0, "fusion_lat": 0.0, "type": "electric_scooter", "name": "194144ffc2c45e49c4f5ba33c090bd18", "is_disabled": 0, "rental_uris": {"ios": "https://dc.lft.to/lastmile_qr_scan", "android": "https://dc.lft.to/lastmile_qr_scan"}, "is_reserved": 0}, {"lon": -77.031274, "bike_id": "132e7618b9a42a21b541483cb68ca593", "lat": 38.945031, "fusion_lon": 0.0, "fusion_lat": 0.0, "type": "electric_scooter", "name": "132e7618b9a42a21b541483cb68ca593", "is_disabled": 0, "rental_uris": {"ios": "https://dc.lft.to/lastmile_qr_scan", "android": "https://dc.lft.to/lastmile_qr_scan"}, "is_reserved": 0}, {"lon": -77.032536, "bike_id": "c38c7d0bb5a18342dae59d4c090ce40f", "lat": 38.90557866666666, "fusion_lon": 0.0, "fusion_lat": 0.0, "type": "electric_scooter", "name": "c38c7d0bb5a18342dae59d4c090ce40f", "is_disabled": 0, "rental_uris": {"ios": "https://dc.lft.to/lastmile_qr_scan", "android": "https://dc.lft.to/lastmile_qr_scan"}, "is_reserved": 0}, {"lon": -77.00527316666667, "bike_id": "35fd2abbf89b87660d4c9cf4961db019", "lat": 38.87942366666667, "fusion_lon": 0.0, "fusion_lat": 0.0, "type": "electric_scooter", "name": "35fd2abbf89b87660d4c9cf4961db019", "is_disabled": 0, "rental_uris": {"ios": "https://dc.lft.to/lastmile_qr_scan", "android": "https://dc.lft.to/lastmile_qr_scan"}, "is_reserved": 0}, {"lon": -77.00479783333333, "bike_id": "3d455e1951856e9d1e1d8a686c4e2adb", "lat": 38.895837666666665, "fusion_lon": 0.0, "fusion_lat": 0.0, "type": "electric_scooter", "name": "3d455e1951856e9d1e1d8a686c4e2adb", "is_disabled": 0, "rental_uris": {"ios": "https://dc.lft.to/lastmile_qr_scan", "android": "https://dc.lft.to/lastmile_qr_scan"}, "is_reserved": 0}, {"lon": -77.03188266666666, "bike_id": "18d618add6f8d5f5db7938e211e7029a", "lat": 38.91278166666667, "fusion_lon": 0.0, "fusion_lat": 0.0, "type": "electric_scooter", "name": "18d618add6f8d5f5db7938e211e7029a", "is_disabled": 0, "rental_uris": {"ios": "https://dc.lft.to/lastmile_qr_scan", "android": "https://dc.lft.to/lastmile_qr_scan"}, "is_reserved": 0}, {"lon": -77.04036966666666, "bike_id": "bdb50e21fb987288cbf27f15a334d2c7", "lat": 38.91858383333334, "fusion_lon": 0.0, "fusion_lat": 0.0, "type": "electric_scooter", "name": "bdb50e21fb987288cbf27f15a334d2c7", "is_disabled": 0, "rental_uris": {"ios": "https://dc.lft.to/lastmile_qr_scan", "android": "https://dc.lft.to/lastmile_qr_scan"}, "is_reserved": 0}, {"lon": -77.03169666666666, "bike_id": "364c069b9502b47b2d14220822b5e61c", "lat": 38.920974666666666, "fusion_lon": 0.0, "fusion_lat": 0.0, "type": "electric_bike", "name": "364c069b9502b47b2d14220822b5e61c", "is_disabled": 0, "rental_uris": {"ios": "https://dc.lft.to/lastmile_qr_scan", "android": "https://dc.lft.to/lastmile_qr_scan"}, "is_reserved": 0}, {"lon": -77.00751433333333, "bike_id": "add0743fb9e9cd0ef7d2fdb50757bd87", "lat": 38.898340166666664, "fusion_lon": 0.0, "fusion_lat": 0.0, "type": "electric_scooter", "name": "add0743fb9e9cd0ef7d2fdb50757bd87", "is_disabled": 0, "rental_uris": {"ios": "https://dc.lft.to/lastmile_qr_scan", "android": "https://dc.lft.to/lastmile_qr_scan"}, "is_reserved": 0}, {"lon": -76.98772333333334, "bike_id": "ec1cc59103280a5b351852a7f1cd8b1f", "lat": 38.8660625, "fusion_lon": 0.0, "fusion_lat": 0.0, "type": "electric_bike", "name": "ec1cc59103280a5b351852a7f1cd8b1f", "is_disabled": 0, "rental_uris": {"ios": "https://dc.lft.to/lastmile_qr_scan", "android": "https://dc.lft.to/lastmile_qr_scan"}, "is_reserved": 0}, {"lon": -77.1856205, "bike_id": "13264d36df2f4b7f96cb8fd23f94ee14", "lat": 39.099794833333334, "fusion_lon": 0.0, "fusion_lat": 0.0, "type": "electric_bike", "name": "13264d36df2f4b7f96cb8fd23f94ee14", "is_disabled": 0, "rental_uris": {"ios": "https://dc.lft.to/lastmile_qr_scan", "android": "https://dc.lft.to/lastmile_qr_scan"}, "is_reserved": 0}, {"lon": -77.03179783333333, "bike_id": "751ce91c7b70ef9ef622a131b06151d6", "lat": 38.936063833333336, "fusion_lon": 0.0, "fusion_lat": 0.0, "type": "electric_scooter", "name": "751ce91c7b70ef9ef622a131b06151d6", "is_disabled": 0, "rental_uris": {"ios": "https://dc.lft.to/lastmile_qr_scan", "android": "https://dc.lft.to/lastmile_qr_scan"}, "is_reserved": 0}, {"lon": -76.9908995, "bike_id": "f7a0e66de19b3127e5c688a5f429fc37", "lat": 38.862394333333334, "fusion_lon": 0.0, "fusion_lat": 0.0, "type": "electric_bike", "name": "f7a0e66de19b3127e5c688a5f429fc37", "is_disabled": 0, "rental_uris": {"ios": "https://dc.lft.to/lastmile_qr_scan", "android": "https://dc.lft.to/lastmile_qr_scan"}, "is_reserved": 0}, {"lon": -76.99531916666666, "bike_id": "dde35260182358975ee371f2b12edb4f", "lat": 38.88371166666667, "fusion_lon": 0.0, "fusion_lat": 0.0, "type": "electric_scooter", "name": "dde35260182358975ee371f2b12edb4f", "is_disabled": 0, "rental_uris": {"ios": "https://dc.lft.to/lastmile_qr_scan", "android": "https://dc.lft.to/lastmile_qr_scan"}, "is_reserved": 0}, {"lon": -77.08070116666667, "bike_id": "36132b3cc6909f1223139f66e3f0cb54", "lat": 39.05282316666667, "fusion_lon": 0.0, "fusion_lat": 0.0, "type": "electric_bike", "name": "36132b3cc6909f1223139f66e3f0cb54", "is_disabled": 0, "rental_uris": {"ios": "https://dc.lft.to/lastmile_qr_scan", "android": "https://dc.lft.to/lastmile_qr_scan"}, "is_reserved": 0}, {"lon": -77.006803, "bike_id": "a69eb5f3f164eb4c01bfe82472a6fabf", "lat": 38.90015116666667, "fusion_lon": 0.0, "fusion_lat": 0.0, "type": "electric_scooter", "name": "a69eb5f3f164eb4c01bfe82472a6fabf", "is_disabled": 0, "rental_uris": {"ios": "https://dc.lft.to/lastmile_qr_scan", "android": "https://dc.lft.to/lastmile_qr_scan"}, "is_reserved": 0}, {"lon": -77.02632116666666, "bike_id": "3fec4e2060b91a6ebca4eed5a6594da9", "lat": 38.917021166666665, "fusion_lon": 0.0, "fusion_lat": 0.0, "type": "electric_scooter", "name": "3fec4e2060b91a6ebca4eed5a6594da9", "is_disabled": 0, "rental_uris": {"ios": "https://dc.lft.to/lastmile_qr_scan", "android": "https://dc.lft.to/lastmile_qr_scan"}, "is_reserved": 0}, {"lon": -77.0206885, "bike_id": "4fd51383ec2b873e3b8eef2f4c8d4f32", "lat": 38.897288333333336, "fusion_lon": 0.0, "fusion_lat": 0.0, "type": "electric_scooter", "name": "4fd51383ec2b873e3b8eef2f4c8d4f32", "is_disabled": 0, "rental_uris": {"ios": "https://dc.lft.to/lastmile_qr_scan", "android": "https://dc.lft.to/lastmile_qr_scan"}, "is_reserved": 0}, {"lon": -77.06515466666667, "bike_id": "c90ccb9e57425a65b79698a7119e0e9a", "lat": 38.90398833333333, "fusion_lon": 0.0, "fusion_lat": 0.0, "type": "electric_scooter", "name": "c90ccb9e57425a65b79698a7119e0e9a", "is_disabled": 0, "rental_uris": {"ios": "https://dc.lft.to/lastmile_qr_scan", "android": "https://dc.lft.to/lastmile_qr_scan"}, "is_reserved": 0}, {"lon": -77.036507, "bike_id": "76df127885876a74ab4e41d41c01d565", "lat": 38.936293, "fusion_lon": 0.0, "fusion_lat": 0.0, "type": "electric_scooter", "name": "76df127885876a74ab4e41d41c01d565", "is_disabled": 0, "rental_uris": {"ios": "https://dc.lft.to/lastmile_qr_scan", "android": "https://dc.lft.to/lastmile_qr_scan"}, "is_reserved": 0}, {"lon": -77.022005, "bike_id": "df69e1d55244b2737f7543159c3ab3cb", "lat": 38.911344166666666, "fusion_lon": 0.0, "fusion_lat": 0.0, "type": "electric_scooter", "name": "df69e1d55244b2737f7543159c3ab3cb", "is_disabled": 0, "rental_uris": {"ios": "https://dc.lft.to/lastmile_qr_scan", "android": "https://dc.lft.to/lastmile_qr_scan"}, "is_reserved": 0}, {"lon": -77.02511133333333, "bike_id": "9791dfab7a79b2d4b140b43ea1233ac5", "lat": 38.934139333333334, "fusion_lon": 0.0, "fusion_lat": 0.0, "type": "electric_bike", "name": "9791dfab7a79b2d4b140b43ea1233ac5", "is_disabled": 0, "rental_uris": {"ios": "https://dc.lft.to/lastmile_qr_scan", "android": "https://dc.lft.to/lastmile_qr_scan"}, "is_reserved": 0}, {"lon": -76.97481233333333, "bike_id": "3bae7f4b0167aba6f62aaa2cbda31fe7", "lat": 38.903523166666666, "fusion_lon": 0.0, "fusion_lat": 0.0, "type": "electric_scooter", "name": "3bae7f4b0167aba6f62aaa2cbda31fe7", "is_disabled": 0, "rental_uris": {"ios": "https://dc.lft.to/lastmile_qr_scan", "android": "https://dc.lft.to/lastmile_qr_scan"}, "is_reserved": 0}, {"lon": -77.03635733333333, "bike_id": "ddb2e4cc495367030cb5e28ca40c0350", "lat": 38.904338, "fusion_lon": 0.0, "fusion_lat": 0.0, "type": "electric_scooter", "name": "ddb2e4cc495367030cb5e28ca40c0350", "is_disabled": 0, "rental_uris": {"ios": "https://dc.lft.to/lastmile_qr_scan", "android": "https://dc.lft.to/lastmile_qr_scan"}, "is_reserved": 0}, {"lon": -76.990186, "bike_id": "705c4ac42d4640cc828668244b230dfc", "lat": 38.86644116666667, "fusion_lon": 0.0, "fusion_lat": 0.0, "type": "electric_scooter", "name": "705c4ac42d4640cc828668244b230dfc", "is_disabled": 0, "rental_uris": {"ios": "https://dc.lft.to/lastmile_qr_scan", "android": "https://dc.lft.to/lastmile_qr_scan"}, "is_reserved": 0}, {"lon": -77.035983, "bike_id": "923bc1fc82ff51479c98eda171a8a634", "lat": 38.926715, "fusion_lon": 0.0, "fusion_lat": 0.0, "type": "electric_scooter", "name": "923bc1fc82ff51479c98eda171a8a634", "is_disabled": 0, "rental_uris": {"ios": "https://dc.lft.to/lastmile_qr_scan", "android": "https://dc.lft.to/lastmile_qr_scan"}, "is_reserved": 0}, {"lon": -77.0318575, "bike_id": "849a8921b876e3a6488430a0fd59a5b9", "lat": 38.915963, "fusion_lon": 0.0, "fusion_lat": 0.0, "type": "electric_scooter", "name": "849a8921b876e3a6488430a0fd59a5b9", "is_disabled": 0, "rental_uris": {"ios": "https://dc.lft.to/lastmile_qr_scan", "android": "https://dc.lft.to/lastmile_qr_scan"}, "is_reserved": 0}, {"lon": -77.03713166666667, "bike_id": "490d6518cd40b365a5b2e99b59f58d35", "lat": 38.91484283333333, "fusion_lon": 0.0, "fusion_lat": 0.0, "type": "electric_scooter", "name": "490d6518cd40b365a5b2e99b59f58d35", "is_disabled": 0, "rental_uris": {"ios": "https://dc.lft.to/lastmile_qr_scan", "android": "https://dc.lft.to/lastmile_qr_scan"}, "is_reserved": 0}, {"lon": -77.11605283333333, "bike_id": "b9dac375a047acdbf9df4f2618f8f53d", "lat": 38.854841, "fusion_lon": 0.0, "fusion_lat": 0.0, "type": "electric_bike", "name": "b9dac375a047acdbf9df4f2618f8f53d", "is_disabled": 0, "rental_uris": {"ios": "https://dc.lft.to/lastmile_qr_scan", "android": "https://dc.lft.to/lastmile_qr_scan"}, "is_reserved": 0}, {"lon": -77.00404866666666, "bike_id": "a4853ba52f1dca8a7048fca2272c7777", "lat": 38.8770385, "fusion_lon": 0.0, "fusion_lat": 0.0, "type": "electric_scooter", "name": "a4853ba52f1dca8a7048fca2272c7777", "is_disabled": 0, "rental_uris": {"ios": "https://dc.lft.to/lastmile_qr_scan", "android": "https://dc.lft.to/lastmile_qr_scan"}, "is_reserved": 0}, {"lon": -77.02717983333334, "bike_id": "0b7566f210e5eb4e815aa8ce50aa1ac0", "lat": 38.9066545, "fusion_lon": 0.0, "fusion_lat": 0.0, "type": "electric_scooter", "name": "0b7566f210e5eb4e815aa8ce50aa1ac0", "is_disabled": 0, "rental_uris": {"ios": "https://dc.lft.to/lastmile_qr_scan", "android": "https://dc.lft.to/lastmile_qr_scan"}, "is_reserved": 0}, {"lon": -77.0010345, "bike_id": "12d98c9ff86d39f076f7a0fddbbb337a", "lat": 38.91707133333333, "fusion_lon": 0.0, "fusion_lat": 0.0, "type": "electric_scooter", "name": "12d98c9ff86d39f076f7a0fddbbb337a", "is_disabled": 0, "rental_uris": {"ios": "https://dc.lft.to/lastmile_qr_scan", "android": "https://dc.lft.to/lastmile_qr_scan"}, "is_reserved": 0}, {"lon": -76.99624333333334, "bike_id": "803a05a8ef032f7af84addbbcf2ed46a", "lat": 38.90940033333333, "fusion_lon": 0.0, "fusion_lat": 0.0, "type": "electric_scooter", "name": "803a05a8ef032f7af84addbbcf2ed46a", "is_disabled": 0, "rental_uris": {"ios": "https://dc.lft.to/lastmile_qr_scan", "android": "https://dc.lft.to/lastmile_qr_scan"}, "is_reserved": 0}, {"lon": -76.93737183333333, "bike_id": "78b1a50c18d56f4ff18a0297076fa2b5", "lat": 38.890419333333334, "fusion_lon": 0.0, "fusion_lat": 0.0, "type": "electric_scooter", "name": "78b1a50c18d56f4ff18a0297076fa2b5", "is_disabled": 0, "rental_uris": {"ios": "https://dc.lft.to/lastmile_qr_scan", "android": "https://dc.lft.to/lastmile_qr_scan"}, "is_reserved": 0}, {"lon": -77.02532016666666, "bike_id": "f2cb70a8dd1957472dd02eea0bd2a33f", "lat": 38.92095333333333, "fusion_lon": 0.0, "fusion_lat": 0.0, "type": "electric_scooter", "name": "f2cb70a8dd1957472dd02eea0bd2a33f", "is_disabled": 0, "rental_uris": {"ios": "https://dc.lft.to/lastmile_qr_scan", "android": "https://dc.lft.to/lastmile_qr_scan"}, "is_reserved": 0}, {"lon": -76.9801525, "bike_id": "eff03e956f558abcc0e5c974a10fbeec", "lat": 38.8531735, "fusion_lon": 0.0, "fusion_lat": 0.0, "type": "electric_bike", "name": "eff03e956f558abcc0e5c974a10fbeec", "is_disabled": 0, "rental_uris": {"ios": "https://dc.lft.to/lastmile_qr_scan", "android": "https://dc.lft.to/lastmile_qr_scan"}, "is_reserved": 0}, {"lon": -77.02963483333333, "bike_id": "467cf2f98eac236823b9a49df7382f89", "lat": 38.916771, "fusion_lon": 0.0, "fusion_lat": 0.0, "type": "electric_scooter", "name": "467cf2f98eac236823b9a49df7382f89", "is_disabled": 0, "rental_uris": {"ios": "https://dc.lft.to/lastmile_qr_scan", "android": "https://dc.lft.to/lastmile_qr_scan"}, "is_reserved": 0}, {"lon": -76.99518083333334, "bike_id": "617d21ffa2f6f6423f6c11da6b2e3c89", "lat": 38.862593833333335, "fusion_lon": 0.0, "fusion_lat": 0.0, "type": "electric_scooter", "name": "617d21ffa2f6f6423f6c11da6b2e3c89", "is_disabled": 0, "rental_uris": {"ios": "https://dc.lft.to/lastmile_qr_scan", "android": "https://dc.lft.to/lastmile_qr_scan"}, "is_reserved": 0}, {"lon": -77.01928533333333, "bike_id": "0e269c9708fbd49d69be72adf30a49aa", "lat": 38.8924475, "fusion_lon": 0.0, "fusion_lat": 0.0, "type": "electric_scooter", "name": "0e269c9708fbd49d69be72adf30a49aa", "is_disabled": 0, "rental_uris": {"ios": "https://dc.lft.to/lastmile_qr_scan", "android": "https://dc.lft.to/lastmile_qr_scan"}, "is_reserved": 0}, {"lon": -77.02355633333333, "bike_id": "c1784e480449224cd016a4f0934f1725", "lat": 38.89633416666667, "fusion_lon": 0.0, "fusion_lat": 0.0, "type": "electric_scooter", "name": "c1784e480449224cd016a4f0934f1725", "is_disabled": 0, "rental_uris": {"ios": "https://dc.lft.to/lastmile_qr_scan", "android": "https://dc.lft.to/lastmile_qr_scan"}, "is_reserved": 0}, {"lon": -77.01729033333334, "bike_id": "56cff81fb886777e1d95c8899e7fce37", "lat": 38.916831333333334, "fusion_lon": 0.0, "fusion_lat": 0.0, "type": "electric_scooter", "name": "56cff81fb886777e1d95c8899e7fce37", "is_disabled": 0, "rental_uris": {"ios": "https://dc.lft.to/lastmile_qr_scan", "android": "https://dc.lft.to/lastmile_qr_scan"}, "is_reserved": 0}, {"lon": -77.0261695, "bike_id": "bd057331d5c2166f2834f5e6372bde9a", "lat": 38.91414733333333, "fusion_lon": 0.0, "fusion_lat": 0.0, "type": "electric_scooter", "name": "bd057331d5c2166f2834f5e6372bde9a", "is_disabled": 0, "rental_uris": {"ios": "https://dc.lft.to/lastmile_qr_scan", "android": "https://dc.lft.to/lastmile_qr_scan"}, "is_reserved": 0}, {"lon": -76.98989966666667, "bike_id": "b345e04958a1cec4731fd57192d946ed", "lat": 38.93364583333333, "fusion_lon": 0.0, "fusion_lat": 0.0, "type": "electric_scooter", "name": "b345e04958a1cec4731fd57192d946ed", "is_disabled": 0, "rental_uris": {"ios": "https://dc.lft.to/lastmile_qr_scan", "android": "https://dc.lft.to/lastmile_qr_scan"}, "is_reserved": 0}, {"lon": -77.02156916666667, "bike_id": "b9e4a4f292f06fd8b1e0c43c2512adc8", "lat": 38.950751, "fusion_lon": 0.0, "fusion_lat": 0.0, "type": "electric_scooter", "name": "b9e4a4f292f06fd8b1e0c43c2512adc8", "is_disabled": 0, "rental_uris": {"ios": "https://dc.lft.to/lastmile_qr_scan", "android": "https://dc.lft.to/lastmile_qr_scan"}, "is_reserved": 0}, {"lon": -77.024209, "bike_id": "86c76a0481bb3057e008c439bd161e3d", "lat": 38.9205345, "fusion_lon": 0.0, "fusion_lat": 0.0, "type": "electric_scooter", "name": "86c76a0481bb3057e008c439bd161e3d", "is_disabled": 0, "rental_uris": {"ios": "https://dc.lft.to/lastmile_qr_scan", "android": "https://dc.lft.to/lastmile_qr_scan"}, "is_reserved": 0}, {"lon": -77.03473516666666, "bike_id": "c7ff2c4555cc29b28b5b0be1a2d07527", "lat": 38.9215675, "fusion_lon": 0.0, "fusion_lat": 0.0, "type": "electric_scooter", "name": "c7ff2c4555cc29b28b5b0be1a2d07527", "is_disabled": 0, "rental_uris": {"ios": "https://dc.lft.to/lastmile_qr_scan", "android": "https://dc.lft.to/lastmile_qr_scan"}, "is_reserved": 0}, {"lon": -77.0627925, "bike_id": "4c9aeba15bf424b767c9c6b09d589fa2", "lat": 38.9059425, "fusion_lon": 0.0, "fusion_lat": 0.0, "type": "electric_bike", "name": "4c9aeba15bf424b767c9c6b09d589fa2", "is_disabled": 0, "rental_uris": {"ios": "https://dc.lft.to/lastmile_qr_scan", "android": "https://dc.lft.to/lastmile_qr_scan"}, "is_reserved": 0}, {"lon": -77.00735, "bike_id": "486d9dec21650ffb4053bb4a4cc8293d", "lat": 38.89916266666667, "fusion_lon": 0.0, "fusion_lat": 0.0, "type": "electric_scooter", "name": "486d9dec21650ffb4053bb4a4cc8293d", "is_disabled": 0, "rental_uris": {"ios": "https://dc.lft.to/lastmile_qr_scan", "android": "https://dc.lft.to/lastmile_qr_scan"}, "is_reserved": 0}, {"lon": -77.02010766666666, "bike_id": "95566c08290d9c673120480c7d20a50a", "lat": 38.924114833333334, "fusion_lon": 0.0, "fusion_lat": 0.0, "type": "electric_scooter", "name": "95566c08290d9c673120480c7d20a50a", "is_disabled": 0, "rental_uris": {"ios": "https://dc.lft.to/lastmile_qr_scan", "android": "https://dc.lft.to/lastmile_qr_scan"}, "is_reserved": 0}, {"lon": -77.05877883333334, "bike_id": "a8582110070954a7de77c5a4f638ec7f", "lat": 38.86283133333333, "fusion_lon": 0.0, "fusion_lat": 0.0, "type": "electric_bike", "name": "a8582110070954a7de77c5a4f638ec7f", "is_disabled": 0, "rental_uris": {"ios": "https://dc.lft.to/lastmile_qr_scan", "android": "https://dc.lft.to/lastmile_qr_scan"}, "is_reserved": 0}, {"lon": -77.06740066666667, "bike_id": "dd91abe297d9d44e87645161590c2e09", "lat": 38.90372216666667, "fusion_lon": 0.0, "fusion_lat": 0.0, "type": "electric_bike", "name": "dd91abe297d9d44e87645161590c2e09", "is_disabled": 0, "rental_uris": {"ios": "https://dc.lft.to/lastmile_qr_scan", "android": "https://dc.lft.to/lastmile_qr_scan"}, "is_reserved": 0}, {"lon": -76.98736233333334, "bike_id": "f7710b927b5e2c7b3cfd697deeebf2f6", "lat": 38.8658225, "fusion_lon": 0.0, "fusion_lat": 0.0, "type": "electric_bike", "name": "f7710b927b5e2c7b3cfd697deeebf2f6", "is_disabled": 0, "rental_uris": {"ios": "https://dc.lft.to/lastmile_qr_scan", "android": "https://dc.lft.to/lastmile_qr_scan"}, "is_reserved": 0}, {"lon": -77.03164533333333, "bike_id": "5521c4def8c77faa89f52c37310bc195", "lat": 38.9141355, "fusion_lon": 0.0, "fusion_lat": 0.0, "type": "electric_scooter", "name": "5521c4def8c77faa89f52c37310bc195", "is_disabled": 0, "rental_uris": {"ios": "https://dc.lft.to/lastmile_qr_scan", "android": "https://dc.lft.to/lastmile_qr_scan"}, "is_reserved": 0}, {"lon": -77.02186433333334, "bike_id": "a68e5a37a284df97f57146282a627a9f", "lat": 38.911328, "fusion_lon": 0.0, "fusion_lat": 0.0, "type": "electric_scooter", "name": "a68e5a37a284df97f57146282a627a9f", "is_disabled": 0, "rental_uris": {"ios": "https://dc.lft.to/lastmile_qr_scan", "android": "https://dc.lft.to/lastmile_qr_scan"}, "is_reserved": 0}, {"lon": -76.9868845, "bike_id": "16d62e658f316ecf3c30ef4a7d7698db", "lat": 38.91294583333333, "fusion_lon": 0.0, "fusion_lat": 0.0, "type": "electric_bike", "name": "16d62e658f316ecf3c30ef4a7d7698db", "is_disabled": 0, "rental_uris": {"ios": "https://dc.lft.to/lastmile_qr_scan", "android": "https://dc.lft.to/lastmile_qr_scan"}, "is_reserved": 0}, {"lon": -77.0641695, "bike_id": "23d4e536d8e79c871d070f80d784e86b", "lat": 38.993323, "fusion_lon": 0.0, "fusion_lat": 0.0, "type": "electric_scooter", "name": "23d4e536d8e79c871d070f80d784e86b", "is_disabled": 0, "rental_uris": {"ios": "https://dc.lft.to/lastmile_qr_scan", "android": "https://dc.lft.to/lastmile_qr_scan"}, "is_reserved": 0}, {"lon": -76.96529883333334, "bike_id": "eb75e0b6bead1144371590b940ff1296", "lat": 38.87629616666667, "fusion_lon": 0.0, "fusion_lat": 0.0, "type": "electric_scooter", "name": "eb75e0b6bead1144371590b940ff1296", "is_disabled": 0, "rental_uris": {"ios": "https://dc.lft.to/lastmile_qr_scan", "android": "https://dc.lft.to/lastmile_qr_scan"}, "is_reserved": 0}, {"lon": -77.04116416666666, "bike_id": "e1a0fa2e7c8ca5cad5a9be6f4de09f3a", "lat": 38.93481533333333, "fusion_lon": 0.0, "fusion_lat": 0.0, "type": "electric_scooter", "name": "e1a0fa2e7c8ca5cad5a9be6f4de09f3a", "is_disabled": 0, "rental_uris": {"ios": "https://dc.lft.to/lastmile_qr_scan", "android": "https://dc.lft.to/lastmile_qr_scan"}, "is_reserved": 0}, {"lon": -77.03955083333334, "bike_id": "584976b73f2a60acb69203852c1ca5a6", "lat": 38.915585, "fusion_lon": 0.0, "fusion_lat": 0.0, "type": "electric_scooter", "name": "584976b73f2a60acb69203852c1ca5a6", "is_disabled": 0, "rental_uris": {"ios": "https://dc.lft.to/lastmile_qr_scan", "android": "https://dc.lft.to/lastmile_qr_scan"}, "is_reserved": 0}, {"lon": -76.97869616666667, "bike_id": "30e6dc15cd53858d45b2b2ea526fa001", "lat": 38.883032, "fusion_lon": 0.0, "fusion_lat": 0.0, "type": "electric_scooter", "name": "30e6dc15cd53858d45b2b2ea526fa001", "is_disabled": 0, "rental_uris": {"ios": "https://dc.lft.to/lastmile_qr_scan", "android": "https://dc.lft.to/lastmile_qr_scan"}, "is_reserved": 0}, {"lon": -77.0239185, "bike_id": "2c05e0a6d9b4525b0f96f6a9142ed7cd", "lat": 38.931135833333336, "fusion_lon": 0.0, "fusion_lat": 0.0, "type": "electric_scooter", "name": "2c05e0a6d9b4525b0f96f6a9142ed7cd", "is_disabled": 0, "rental_uris": {"ios": "https://dc.lft.to/lastmile_qr_scan", "android": "https://dc.lft.to/lastmile_qr_scan"}, "is_reserved": 0}, {"lon": -77.00892933333333, "bike_id": "ccc044955b36cf757aa66843b78d286c", "lat": 38.897647, "fusion_lon": 0.0, "fusion_lat": 0.0, "type": "electric_scooter", "name": "ccc044955b36cf757aa66843b78d286c", "is_disabled": 0, "rental_uris": {"ios": "https://dc.lft.to/lastmile_qr_scan", "android": "https://dc.lft.to/lastmile_qr_scan"}, "is_reserved": 0}, {"lon": -77.03907016666666, "bike_id": "b19014dff044696f46f2406f632691cd", "lat": 38.9140655, "fusion_lon": 0.0, "fusion_lat": 0.0, "type": "electric_scooter", "name": "b19014dff044696f46f2406f632691cd", "is_disabled": 0, "rental_uris": {"ios": "https://dc.lft.to/lastmile_qr_scan", "android": "https://dc.lft.to/lastmile_qr_scan"}, "is_reserved": 0}, {"lon": -76.98108133333334, "bike_id": "5c4d31f71b0016c6aca88f4fb81f3a6a", "lat": 38.904073, "fusion_lon": 0.0, "fusion_lat": 0.0, "type": "electric_scooter", "name": "5c4d31f71b0016c6aca88f4fb81f3a6a", "is_disabled": 0, "rental_uris": {"ios": "https://dc.lft.to/lastmile_qr_scan", "android": "https://dc.lft.to/lastmile_qr_scan"}, "is_reserved": 0}, {"lon": -77.03630616666666, "bike_id": "e50ba40fe81692a53f009aea3ce8a1ba", "lat": 38.94496383333333, "fusion_lon": 0.0, "fusion_lat": 0.0, "type": "electric_scooter", "name": "e50ba40fe81692a53f009aea3ce8a1ba", "is_disabled": 0, "rental_uris": {"ios": "https://dc.lft.to/lastmile_qr_scan", "android": "https://dc.lft.to/lastmile_qr_scan"}, "is_reserved": 0}, {"lon": -77.03271133333334, "bike_id": "900a10fa48542993967fbdc16e4d3871", "lat": 38.919960333333336, "fusion_lon": 0.0, "fusion_lat": 0.0, "type": "electric_scooter", "name": "900a10fa48542993967fbdc16e4d3871", "is_disabled": 0, "rental_uris": {"ios": "https://dc.lft.to/lastmile_qr_scan", "android": "https://dc.lft.to/lastmile_qr_scan"}, "is_reserved": 0}, {"lon": -76.986334, "bike_id": "60a50b2ccbb06865b7290c2e2b4e3967", "lat": 38.901623, "fusion_lon": 0.0, "fusion_lat": 0.0, "type": "electric_scooter", "name": "60a50b2ccbb06865b7290c2e2b4e3967", "is_disabled": 0, "rental_uris": {"ios": "https://dc.lft.to/lastmile_qr_scan", "android": "https://dc.lft.to/lastmile_qr_scan"}, "is_reserved": 0}, {"lon": -77.02983833333333, "bike_id": "322bfef7cf7f5a88f562a8e8d7a17f1e", "lat": 38.93932366666667, "fusion_lon": 0.0, "fusion_lat": 0.0, "type": "electric_scooter", "name": "322bfef7cf7f5a88f562a8e8d7a17f1e", "is_disabled": 0, "rental_uris": {"ios": "https://dc.lft.to/lastmile_qr_scan", "android": "https://dc.lft.to/lastmile_qr_scan"}, "is_reserved": 0}, {"lon": -77.02249433333333, "bike_id": "511da02c469b698cb245506edd24494e", "lat": 38.92273466666666, "fusion_lon": 0.0, "fusion_lat": 0.0, "type": "electric_scooter", "name": "511da02c469b698cb245506edd24494e", "is_disabled": 0, "rental_uris": {"ios": "https://dc.lft.to/lastmile_qr_scan", "android": "https://dc.lft.to/lastmile_qr_scan"}, "is_reserved": 0}, {"lon": -77.05252983333334, "bike_id": "576ba57aa771abd2ed9027d426da2e98", "lat": 38.92376933333333, "fusion_lon": 0.0, "fusion_lat": 0.0, "type": "electric_scooter", "name": "576ba57aa771abd2ed9027d426da2e98", "is_disabled": 0, "rental_uris": {"ios": "https://dc.lft.to/lastmile_qr_scan", "android": "https://dc.lft.to/lastmile_qr_scan"}, "is_reserved": 0}, {"lon": -77.03946883333333, "bike_id": "858398da60889f404445106b55b7283c", "lat": 38.9006075, "fusion_lon": 0.0, "fusion_lat": 0.0, "type": "electric_scooter", "name": "858398da60889f404445106b55b7283c", "is_disabled": 0, "rental_uris": {"ios": "https://dc.lft.to/lastmile_qr_scan", "android": "https://dc.lft.to/lastmile_qr_scan"}, "is_reserved": 0}, {"lon": -77.024124, "bike_id": "2ddef7f30844cf70b4002ef296b918c7", "lat": 38.90862766666667, "fusion_lon": 0.0, "fusion_lat": 0.0, "type": "electric_bike", "name": "2ddef7f30844cf70b4002ef296b918c7", "is_disabled": 0, "rental_uris": {"ios": "https://dc.lft.to/lastmile_qr_scan", "android": "https://dc.lft.to/lastmile_qr_scan"}, "is_reserved": 0}, {"lon": -77.0389725, "bike_id": "e96f2423a7c05ae71042be3e02ceedaf", "lat": 38.925122, "fusion_lon": 0.0, "fusion_lat": 0.0, "type": "electric_scooter", "name": "e96f2423a7c05ae71042be3e02ceedaf", "is_disabled": 0, "rental_uris": {"ios": "https://dc.lft.to/lastmile_qr_scan", "android": "https://dc.lft.to/lastmile_qr_scan"}, "is_reserved": 0}, {"lon": -77.0468175, "bike_id": "d16dbbf48afa9f27b3e9f1724611d33b", "lat": 38.908598833333336, "fusion_lon": 0.0, "fusion_lat": 0.0, "type": "electric_scooter", "name": "d16dbbf48afa9f27b3e9f1724611d33b", "is_disabled": 0, "rental_uris": {"ios": "https://dc.lft.to/lastmile_qr_scan", "android": "https://dc.lft.to/lastmile_qr_scan"}, "is_reserved": 0}, {"lon": -76.9488205, "bike_id": "a5af3c4da1d29adfe579e6d27401c0de", "lat": 38.89547233333333, "fusion_lon": 0.0, "fusion_lat": 0.0, "type": "electric_scooter", "name": "a5af3c4da1d29adfe579e6d27401c0de", "is_disabled": 0, "rental_uris": {"ios": "https://dc.lft.to/lastmile_qr_scan", "android": "https://dc.lft.to/lastmile_qr_scan"}, "is_reserved": 0}, {"lon": -77.02558516666667, "bike_id": "005f471085a8f2ad47d8a58447bba299", "lat": 38.9168195, "fusion_lon": 0.0, "fusion_lat": 0.0, "type": "electric_scooter", "name": "005f471085a8f2ad47d8a58447bba299", "is_disabled": 0, "rental_uris": {"ios": "https://dc.lft.to/lastmile_qr_scan", "android": "https://dc.lft.to/lastmile_qr_scan"}, "is_reserved": 0}, {"lon": -77.07010233333334, "bike_id": "07da015eea73fd625e47c49a649d3945", "lat": 38.958533333333335, "fusion_lon": 0.0, "fusion_lat": 0.0, "type": "electric_scooter", "name": "07da015eea73fd625e47c49a649d3945", "is_disabled": 0, "rental_uris": {"ios": "https://dc.lft.to/lastmile_qr_scan", "android": "https://dc.lft.to/lastmile_qr_scan"}, "is_reserved": 0}, {"lon": -77.0327505, "bike_id": "e067d5f334b32fd5d6dba65ad80d4a08", "lat": 38.90147783333333, "fusion_lon": 0.0, "fusion_lat": 0.0, "type": "electric_scooter", "name": "e067d5f334b32fd5d6dba65ad80d4a08", "is_disabled": 0, "rental_uris": {"ios": "https://dc.lft.to/lastmile_qr_scan", "android": "https://dc.lft.to/lastmile_qr_scan"}, "is_reserved": 0}, {"lon": -77.00578166666666, "bike_id": "e05f70ad08edf649a07e995da4274c41", "lat": 38.83592766666666, "fusion_lon": 0.0, "fusion_lat": 0.0, "type": "electric_scooter", "name": "e05f70ad08edf649a07e995da4274c41", "is_disabled": 0, "rental_uris": {"ios": "https://dc.lft.to/lastmile_qr_scan", "android": "https://dc.lft.to/lastmile_qr_scan"}, "is_reserved": 0}, {"lon": -76.99379183333333, "bike_id": "d341a019b5020719b3d24cff9803a59f", "lat": 38.97186883333333, "fusion_lon": 0.0, "fusion_lat": 0.0, "type": "electric_bike", "name": "d341a019b5020719b3d24cff9803a59f", "is_disabled": 0, "rental_uris": {"ios": "https://dc.lft.to/lastmile_qr_scan", "android": "https://dc.lft.to/lastmile_qr_scan"}, "is_reserved": 0}, {"lon": -77.02177833333333, "bike_id": "6cfbe1969d1aab66f2f3bf5443791697", "lat": 38.90958466666667, "fusion_lon": 0.0, "fusion_lat": 0.0, "type": "electric_scooter", "name": "6cfbe1969d1aab66f2f3bf5443791697", "is_disabled": 0, "rental_uris": {"ios": "https://dc.lft.to/lastmile_qr_scan", "android": "https://dc.lft.to/lastmile_qr_scan"}, "is_reserved": 0}, {"lon": -77.024939, "bike_id": "ec1baf8c8a1477fa3bae0443d3a86b13", "lat": 38.94186166666667, "fusion_lon": 0.0, "fusion_lat": 0.0, "type": "electric_scooter", "name": "ec1baf8c8a1477fa3bae0443d3a86b13", "is_disabled": 0, "rental_uris": {"ios": "https://dc.lft.to/lastmile_qr_scan", "android": "https://dc.lft.to/lastmile_qr_scan"}, "is_reserved": 0}, {"lon": -76.983498, "bike_id": "526634896b79772bac0ef957067a7739", "lat": 38.902995, "fusion_lon": 0.0, "fusion_lat": 0.0, "type": "electric_scooter", "name": "526634896b79772bac0ef957067a7739", "is_disabled": 0, "rental_uris": {"ios": "https://dc.lft.to/lastmile_qr_scan", "android": "https://dc.lft.to/lastmile_qr_scan"}, "is_reserved": 0}, {"lon": -77.08069466666667, "bike_id": "76d636bd49578533a20fe8aea26a3ed3", "lat": 38.9631645, "fusion_lon": 0.0, "fusion_lat": 0.0, "type": "electric_bike", "name": "76d636bd49578533a20fe8aea26a3ed3", "is_disabled": 0, "rental_uris": {"ios": "https://dc.lft.to/lastmile_qr_scan", "android": "https://dc.lft.to/lastmile_qr_scan"}, "is_reserved": 0}, {"lon": -76.9823445, "bike_id": "ecd7e3404a1fe5126f2e5addec3fe623", "lat": 38.864737833333336, "fusion_lon": 0.0, "fusion_lat": 0.0, "type": "electric_scooter", "name": "ecd7e3404a1fe5126f2e5addec3fe623", "is_disabled": 0, "rental_uris": {"ios": "https://dc.lft.to/lastmile_qr_scan", "android": "https://dc.lft.to/lastmile_qr_scan"}, "is_reserved": 0}, {"lon": -76.97207833333333, "bike_id": "3bbc4b8142c5c178cd3af3a92326547d", "lat": 38.89292283333333, "fusion_lon": 0.0, "fusion_lat": 0.0, "type": "electric_bike", "name": "3bbc4b8142c5c178cd3af3a92326547d", "is_disabled": 0, "rental_uris": {"ios": "https://dc.lft.to/lastmile_qr_scan", "android": "https://dc.lft.to/lastmile_qr_scan"}, "is_reserved": 0}, {"lon": -77.02472433333334, "bike_id": "e7e5a86acb0a84539f085d9ca7f75493", "lat": 38.903243833333335, "fusion_lon": 0.0, "fusion_lat": 0.0, "type": "electric_scooter", "name": "e7e5a86acb0a84539f085d9ca7f75493", "is_disabled": 0, "rental_uris": {"ios": "https://dc.lft.to/lastmile_qr_scan", "android": "https://dc.lft.to/lastmile_qr_scan"}, "is_reserved": 0}, {"lon": -77.01768083333333, "bike_id": "c64ac508536270e9732ba0a1c2e42a97", "lat": 38.900382666666665, "fusion_lon": 0.0, "fusion_lat": 0.0, "type": "electric_scooter", "name": "c64ac508536270e9732ba0a1c2e42a97", "is_disabled": 0, "rental_uris": {"ios": "https://dc.lft.to/lastmile_qr_scan", "android": "https://dc.lft.to/lastmile_qr_scan"}, "is_reserved": 0}, {"lon": -77.061261, "bike_id": "cdbc6663333e3edc3c75e9501a5eeb99", "lat": 38.90537116666667, "fusion_lon": 0.0, "fusion_lat": 0.0, "type": "electric_scooter", "name": "cdbc6663333e3edc3c75e9501a5eeb99", "is_disabled": 0, "rental_uris": {"ios": "https://dc.lft.to/lastmile_qr_scan", "android": "https://dc.lft.to/lastmile_qr_scan"}, "is_reserved": 0}, {"lon": -77.00974566666666, "bike_id": "18736eaf363ead41aa08b6356730d9b8", "lat": 38.87075216666667, "fusion_lon": 0.0, "fusion_lat": 0.0, "type": "electric_scooter", "name": "18736eaf363ead41aa08b6356730d9b8", "is_disabled": 0, "rental_uris": {"ios": "https://dc.lft.to/lastmile_qr_scan", "android": "https://dc.lft.to/lastmile_qr_scan"}, "is_reserved": 0}, {"lon": -76.977306, "bike_id": "1cf8a4d83a54ed75ec247e928adadad3", "lat": 38.872448, "fusion_lon": 0.0, "fusion_lat": 0.0, "type": "electric_scooter", "name": "1cf8a4d83a54ed75ec247e928adadad3", "is_disabled": 0, "rental_uris": {"ios": "https://dc.lft.to/lastmile_qr_scan", "android": "https://dc.lft.to/lastmile_qr_scan"}, "is_reserved": 0}, {"lon": -77.05574333333334, "bike_id": "217ca7c1e33b387262a4bf3599fa52d5", "lat": 38.89733416666667, "fusion_lon": 0.0, "fusion_lat": 0.0, "type": "electric_scooter", "name": "217ca7c1e33b387262a4bf3599fa52d5", "is_disabled": 0, "rental_uris": {"ios": "https://dc.lft.to/lastmile_qr_scan", "android": "https://dc.lft.to/lastmile_qr_scan"}, "is_reserved": 0}, {"lon": -77.01993583333334, "bike_id": "5c57019802b84d7f01b1ff9f7267d55b", "lat": 38.90263933333333, "fusion_lon": 0.0, "fusion_lat": 0.0, "type": "electric_scooter", "name": "5c57019802b84d7f01b1ff9f7267d55b", "is_disabled": 0, "rental_uris": {"ios": "https://dc.lft.to/lastmile_qr_scan", "android": "https://dc.lft.to/lastmile_qr_scan"}, "is_reserved": 0}, {"lon": -77.03430566666667, "bike_id": "1163909331df43b0c4bb1f163dc64af1", "lat": 38.9652855, "fusion_lon": 0.0, "fusion_lat": 0.0, "type": "electric_bike", "name": "1163909331df43b0c4bb1f163dc64af1", "is_disabled": 0, "rental_uris": {"ios": "https://dc.lft.to/lastmile_qr_scan", "android": "https://dc.lft.to/lastmile_qr_scan"}, "is_reserved": 0}, {"lon": -76.92105766666667, "bike_id": "0b65400ab097ad3bc3e9274c38d3e19e", "lat": 38.8910665, "fusion_lon": 0.0, "fusion_lat": 0.0, "type": "electric_scooter", "name": "0b65400ab097ad3bc3e9274c38d3e19e", "is_disabled": 0, "rental_uris": {"ios": "https://dc.lft.to/lastmile_qr_scan", "android": "https://dc.lft.to/lastmile_qr_scan"}, "is_reserved": 0}, {"lon": -77.13923816666667, "bike_id": "607dfa3ca5ad7dc6a238893178df8886", "lat": 38.872964833333334, "fusion_lon": 0.0, "fusion_lat": 0.0, "type": "electric_bike", "name": "607dfa3ca5ad7dc6a238893178df8886", "is_disabled": 0, "rental_uris": {"ios": "https://dc.lft.to/lastmile_qr_scan", "android": "https://dc.lft.to/lastmile_qr_scan"}, "is_reserved": 0}, {"lon": -77.04904516666667, "bike_id": "b7390f39a42502f2f9f96905a3777173", "lat": 38.91601766666667, "fusion_lon": 0.0, "fusion_lat": 0.0, "type": "electric_scooter", "name": "b7390f39a42502f2f9f96905a3777173", "is_disabled": 0, "rental_uris": {"ios": "https://dc.lft.to/lastmile_qr_scan", "android": "https://dc.lft.to/lastmile_qr_scan"}, "is_reserved": 0}, {"lon": -76.98840933333334, "bike_id": "bb0eee188b7ffc1bb12e5544f88ae997", "lat": 38.8966765, "fusion_lon": 0.0, "fusion_lat": 0.0, "type": "electric_scooter", "name": "bb0eee188b7ffc1bb12e5544f88ae997", "is_disabled": 0, "rental_uris": {"ios": "https://dc.lft.to/lastmile_qr_scan", "android": "https://dc.lft.to/lastmile_qr_scan"}, "is_reserved": 0}, {"lon": -76.99255783333334, "bike_id": "434b10f901afd472293537dd7a2b8a90", "lat": 38.903016, "fusion_lon": 0.0, "fusion_lat": 0.0, "type": "electric_scooter", "name": "434b10f901afd472293537dd7a2b8a90", "is_disabled": 0, "rental_uris": {"ios": "https://dc.lft.to/lastmile_qr_scan", "android": "https://dc.lft.to/lastmile_qr_scan"}, "is_reserved": 0}, {"lon": -77.032213, "bike_id": "d97e737df00b0bbba18e4a5cfa2fd9d2", "lat": 38.9167635, "fusion_lon": 0.0, "fusion_lat": 0.0, "type": "electric_scooter", "name": "d97e737df00b0bbba18e4a5cfa2fd9d2", "is_disabled": 0, "rental_uris": {"ios": "https://dc.lft.to/lastmile_qr_scan", "android": "https://dc.lft.to/lastmile_qr_scan"}, "is_reserved": 0}, {"lon": -77.0249975, "bike_id": "6e4fdfe9d0d91b213257e21bc315ff8a", "lat": 38.93756283333333, "fusion_lon": 0.0, "fusion_lat": 0.0, "type": "electric_scooter", "name": "6e4fdfe9d0d91b213257e21bc315ff8a", "is_disabled": 0, "rental_uris": {"ios": "https://dc.lft.to/lastmile_qr_scan", "android": "https://dc.lft.to/lastmile_qr_scan"}, "is_reserved": 0}, {"lon": -76.9319125, "bike_id": "0f752120f2ebe3fc249c3ff8565b024c", "lat": 38.8987635, "fusion_lon": 0.0, "fusion_lat": 0.0, "type": "electric_scooter", "name": "0f752120f2ebe3fc249c3ff8565b024c", "is_disabled": 0, "rental_uris": {"ios": "https://dc.lft.to/lastmile_qr_scan", "android": "https://dc.lft.to/lastmile_qr_scan"}, "is_reserved": 0}, {"lon": -77.003166, "bike_id": "4724d2b3bd7689e712a624f2fb4454e0", "lat": 38.91900016666666, "fusion_lon": 0.0, "fusion_lat": 0.0, "type": "electric_scooter", "name": "4724d2b3bd7689e712a624f2fb4454e0", "is_disabled": 0, "rental_uris": {"ios": "https://dc.lft.to/lastmile_qr_scan", "android": "https://dc.lft.to/lastmile_qr_scan"}, "is_reserved": 0}, {"lon": -76.94598033333334, "bike_id": "4a94e249b04dc39b62bd9d219c880ee3", "lat": 38.90150233333333, "fusion_lon": 0.0, "fusion_lat": 0.0, "type": "electric_scooter", "name": "4a94e249b04dc39b62bd9d219c880ee3", "is_disabled": 0, "rental_uris": {"ios": "https://dc.lft.to/lastmile_qr_scan", "android": "https://dc.lft.to/lastmile_qr_scan"}, "is_reserved": 0}, {"lon": -76.980596, "bike_id": "86a9e1ff9cbed9cfbe435ac057af4604", "lat": 38.884950833333335, "fusion_lon": 0.0, "fusion_lat": 0.0, "type": "electric_scooter", "name": "86a9e1ff9cbed9cfbe435ac057af4604", "is_disabled": 0, "rental_uris": {"ios": "https://dc.lft.to/lastmile_qr_scan", "android": "https://dc.lft.to/lastmile_qr_scan"}, "is_reserved": 0}, {"lon": -77.08808766666667, "bike_id": "8266b538fc302dad8b2eefb3d3f6ee07", "lat": 38.9117805, "fusion_lon": 0.0, "fusion_lat": 0.0, "type": "electric_scooter", "name": "8266b538fc302dad8b2eefb3d3f6ee07", "is_disabled": 0, "rental_uris": {"ios": "https://dc.lft.to/lastmile_qr_scan", "android": "https://dc.lft.to/lastmile_qr_scan"}, "is_reserved": 0}, {"lon": -76.97397316666667, "bike_id": "815909e1cf453455188f1f9ec325b506", "lat": 38.902974, "fusion_lon": 0.0, "fusion_lat": 0.0, "type": "electric_scooter", "name": "815909e1cf453455188f1f9ec325b506", "is_disabled": 0, "rental_uris": {"ios": "https://dc.lft.to/lastmile_qr_scan", "android": "https://dc.lft.to/lastmile_qr_scan"}, "is_reserved": 0}, {"lon": -77.03182133333334, "bike_id": "9097c5063dd530be6f6440d66897e9b0", "lat": 38.9156975, "fusion_lon": 0.0, "fusion_lat": 0.0, "type": "electric_scooter", "name": "9097c5063dd530be6f6440d66897e9b0", "is_disabled": 0, "rental_uris": {"ios": "https://dc.lft.to/lastmile_qr_scan", "android": "https://dc.lft.to/lastmile_qr_scan"}, "is_reserved": 0}, {"lon": -77.08489116666667, "bike_id": "0afb353f8f19eebbe6f9442b93aa9271", "lat": 38.8485085, "fusion_lon": 0.0, "fusion_lat": 0.0, "type": "electric_bike", "name": "0afb353f8f19eebbe6f9442b93aa9271", "is_disabled": 0, "rental_uris": {"ios": "https://dc.lft.to/lastmile_qr_scan", "android": "https://dc.lft.to/lastmile_qr_scan"}, "is_reserved": 0}, {"lon": -77.03997866666667, "bike_id": "50c46f2987d2be1ac8fb165a9988631c", "lat": 38.934369333333336, "fusion_lon": 0.0, "fusion_lat": 0.0, "type": "electric_scooter", "name": "50c46f2987d2be1ac8fb165a9988631c", "is_disabled": 0, "rental_uris": {"ios": "https://dc.lft.to/lastmile_qr_scan", "android": "https://dc.lft.to/lastmile_qr_scan"}, "is_reserved": 0}, {"lon": -76.9891785, "bike_id": "24e27fd4c1d7ed4f606771bc9fb0ba56", "lat": 38.864915333333336, "fusion_lon": 0.0, "fusion_lat": 0.0, "type": "electric_scooter", "name": "24e27fd4c1d7ed4f606771bc9fb0ba56", "is_disabled": 0, "rental_uris": {"ios": "https://dc.lft.to/lastmile_qr_scan", "android": "https://dc.lft.to/lastmile_qr_scan"}, "is_reserved": 0}, {"lon": -77.02575566666667, "bike_id": "bb31abab954dbad318cb7b9ed2a53d1b", "lat": 38.89566133333334, "fusion_lon": 0.0, "fusion_lat": 0.0, "type": "electric_scooter", "name": "bb31abab954dbad318cb7b9ed2a53d1b", "is_disabled": 0, "rental_uris": {"ios": "https://dc.lft.to/lastmile_qr_scan", "android": "https://dc.lft.to/lastmile_qr_scan"}, "is_reserved": 0}, {"lon": -77.047124, "bike_id": "5792e4c924c298ca7a9305d745d39895", "lat": 38.903191666666665, "fusion_lon": 0.0, "fusion_lat": 0.0, "type": "electric_scooter", "name": "5792e4c924c298ca7a9305d745d39895", "is_disabled": 0, "rental_uris": {"ios": "https://dc.lft.to/lastmile_qr_scan", "android": "https://dc.lft.to/lastmile_qr_scan"}, "is_reserved": 0}, {"lon": -77.07414816666666, "bike_id": "400615447b394deca5eceffbdd5201fd", "lat": 38.928885666666666, "fusion_lon": 0.0, "fusion_lat": 0.0, "type": "electric_scooter", "name": "400615447b394deca5eceffbdd5201fd", "is_disabled": 0, "rental_uris": {"ios": "https://dc.lft.to/lastmile_qr_scan", "android": "https://dc.lft.to/lastmile_qr_scan"}, "is_reserved": 0}, {"lon": -77.03038966666666, "bike_id": "ef3699e59e1e3128a8c28534c0fd798b", "lat": 38.9371715, "fusion_lon": 0.0, "fusion_lat": 0.0, "type": "electric_scooter", "name": "ef3699e59e1e3128a8c28534c0fd798b", "is_disabled": 0, "rental_uris": {"ios": "https://dc.lft.to/lastmile_qr_scan", "android": "https://dc.lft.to/lastmile_qr_scan"}, "is_reserved": 0}, {"lon": -77.0342595, "bike_id": "092f10d89212aacdb1a867bfe924d528", "lat": 38.919304833333335, "fusion_lon": 0.0, "fusion_lat": 0.0, "type": "electric_scooter", "name": "092f10d89212aacdb1a867bfe924d528", "is_disabled": 0, "rental_uris": {"ios": "https://dc.lft.to/lastmile_qr_scan", "android": "https://dc.lft.to/lastmile_qr_scan"}, "is_reserved": 0}, {"lon": -76.98691883333333, "bike_id": "491aadaf2cbc74657b83e04204cfcd64", "lat": 38.862536166666665, "fusion_lon": 0.0, "fusion_lat": 0.0, "type": "electric_scooter", "name": "491aadaf2cbc74657b83e04204cfcd64", "is_disabled": 0, "rental_uris": {"ios": "https://dc.lft.to/lastmile_qr_scan", "android": "https://dc.lft.to/lastmile_qr_scan"}, "is_reserved": 0}, {"lon": -76.93734766666667, "bike_id": "8e5267f9aeb03914c4434fd7f557a203", "lat": 38.8901235, "fusion_lon": 0.0, "fusion_lat": 0.0, "type": "electric_scooter", "name": "8e5267f9aeb03914c4434fd7f557a203", "is_disabled": 0, "rental_uris": {"ios": "https://dc.lft.to/lastmile_qr_scan", "android": "https://dc.lft.to/lastmile_qr_scan"}, "is_reserved": 0}, {"lon": -77.02263833333333, "bike_id": "099b56c4a036e4165ab8e3a2b7344183", "lat": 38.937621, "fusion_lon": 0.0, "fusion_lat": 0.0, "type": "electric_scooter", "name": "099b56c4a036e4165ab8e3a2b7344183", "is_disabled": 0, "rental_uris": {"ios": "https://dc.lft.to/lastmile_qr_scan", "android": "https://dc.lft.to/lastmile_qr_scan"}, "is_reserved": 0}, {"lon": -77.02038316666666, "bike_id": "3c486e893ea4b80d94b3520fe21dfab8", "lat": 38.90862816666667, "fusion_lon": 0.0, "fusion_lat": 0.0, "type": "electric_scooter", "name": "3c486e893ea4b80d94b3520fe21dfab8", "is_disabled": 0, "rental_uris": {"ios": "https://dc.lft.to/lastmile_qr_scan", "android": "https://dc.lft.to/lastmile_qr_scan"}, "is_reserved": 0}, {"lon": -76.995606, "bike_id": "af803a823cb17a0cab601bdeb2a98e15", "lat": 38.9002865, "fusion_lon": 0.0, "fusion_lat": 0.0, "type": "electric_scooter", "name": "af803a823cb17a0cab601bdeb2a98e15", "is_disabled": 0, "rental_uris": {"ios": "https://dc.lft.to/lastmile_qr_scan", "android": "https://dc.lft.to/lastmile_qr_scan"}, "is_reserved": 0}, {"lon": -77.01476033333333, "bike_id": "5ee7823b4841ace26b2fffbe01b45dd7", "lat": 38.9406495, "fusion_lon": 0.0, "fusion_lat": 0.0, "type": "electric_bike", "name": "5ee7823b4841ace26b2fffbe01b45dd7", "is_disabled": 0, "rental_uris": {"ios": "https://dc.lft.to/lastmile_qr_scan", "android": "https://dc.lft.to/lastmile_qr_scan"}, "is_reserved": 0}, {"lon": -77.022233, "bike_id": "b23d826d32a9217255adb8ad2f09aa1b", "lat": 38.91118266666667, "fusion_lon": 0.0, "fusion_lat": 0.0, "type": "electric_scooter", "name": "b23d826d32a9217255adb8ad2f09aa1b", "is_disabled": 0, "rental_uris": {"ios": "https://dc.lft.to/lastmile_qr_scan", "android": "https://dc.lft.to/lastmile_qr_scan"}, "is_reserved": 0}, {"lon": -76.97605433333334, "bike_id": "97ab729a3a165f13bc2d409599e79289", "lat": 38.90564033333333, "fusion_lon": 0.0, "fusion_lat": 0.0, "type": "electric_scooter", "name": "97ab729a3a165f13bc2d409599e79289", "is_disabled": 0, "rental_uris": {"ios": "https://dc.lft.to/lastmile_qr_scan", "android": "https://dc.lft.to/lastmile_qr_scan"}, "is_reserved": 0}, {"lon": -76.97332316666666, "bike_id": "f75f940de3df5c965b34220bf98e589d", "lat": 38.917758166666665, "fusion_lon": 0.0, "fusion_lat": 0.0, "type": "electric_scooter", "name": "f75f940de3df5c965b34220bf98e589d", "is_disabled": 0, "rental_uris": {"ios": "https://dc.lft.to/lastmile_qr_scan", "android": "https://dc.lft.to/lastmile_qr_scan"}, "is_reserved": 0}, {"lon": -77.00530716666667, "bike_id": "9d2001070996ca6fd899c46671933681", "lat": 38.92977283333333, "fusion_lon": 0.0, "fusion_lat": 0.0, "type": "electric_scooter", "name": "9d2001070996ca6fd899c46671933681", "is_disabled": 0, "rental_uris": {"ios": "https://dc.lft.to/lastmile_qr_scan", "android": "https://dc.lft.to/lastmile_qr_scan"}, "is_reserved": 0}, {"lon": -77.00547033333334, "bike_id": "0e1e84bd72c61c00e5f4fddf8f41f4ea", "lat": 38.87457966666667, "fusion_lon": 0.0, "fusion_lat": 0.0, "type": "electric_scooter", "name": "0e1e84bd72c61c00e5f4fddf8f41f4ea", "is_disabled": 0, "rental_uris": {"ios": "https://dc.lft.to/lastmile_qr_scan", "android": "https://dc.lft.to/lastmile_qr_scan"}, "is_reserved": 0}, {"lon": -77.03182966666667, "bike_id": "8d4f92f8a918c23590ccbcacdfcccb0c", "lat": 38.88410666666667, "fusion_lon": 0.0, "fusion_lat": 0.0, "type": "electric_scooter", "name": "8d4f92f8a918c23590ccbcacdfcccb0c", "is_disabled": 0, "rental_uris": {"ios": "https://dc.lft.to/lastmile_qr_scan", "android": "https://dc.lft.to/lastmile_qr_scan"}, "is_reserved": 0}, {"lon": -77.025732, "bike_id": "3e7216beb1bf985c7373460ff783e220", "lat": 38.88744883333333, "fusion_lon": 0.0, "fusion_lat": 0.0, "type": "electric_scooter", "name": "3e7216beb1bf985c7373460ff783e220", "is_disabled": 0, "rental_uris": {"ios": "https://dc.lft.to/lastmile_qr_scan", "android": "https://dc.lft.to/lastmile_qr_scan"}, "is_reserved": 0}, {"lon": -77.00210283333334, "bike_id": "c73f2e4de157fb208432c7769df0e5ee", "lat": 38.895433833333335, "fusion_lon": 0.0, "fusion_lat": 0.0, "type": "electric_scooter", "name": "c73f2e4de157fb208432c7769df0e5ee", "is_disabled": 0, "rental_uris": {"ios": "https://dc.lft.to/lastmile_qr_scan", "android": "https://dc.lft.to/lastmile_qr_scan"}, "is_reserved": 0}, {"lon": -77.054091, "bike_id": "de45196cdd3a678678788b30068be63b", "lat": 38.950423, "fusion_lon": 0.0, "fusion_lat": 0.0, "type": "electric_scooter", "name": "de45196cdd3a678678788b30068be63b", "is_disabled": 0, "rental_uris": {"ios": "https://dc.lft.to/lastmile_qr_scan", "android": "https://dc.lft.to/lastmile_qr_scan"}, "is_reserved": 0}, {"lon": -77.01279216666667, "bike_id": "c0d9140422cbc39136da113216999a1b", "lat": 38.95168, "fusion_lon": 0.0, "fusion_lat": 0.0, "type": "electric_bike", "name": "c0d9140422cbc39136da113216999a1b", "is_disabled": 0, "rental_uris": {"ios": "https://dc.lft.to/lastmile_qr_scan", "android": "https://dc.lft.to/lastmile_qr_scan"}, "is_reserved": 0}, {"lon": -77.0311175, "bike_id": "ff83a8cb66805f6e2bb675e9f0508a9f", "lat": 38.90448166666667, "fusion_lon": 0.0, "fusion_lat": 0.0, "type": "electric_scooter", "name": "ff83a8cb66805f6e2bb675e9f0508a9f", "is_disabled": 0, "rental_uris": {"ios": "https://dc.lft.to/lastmile_qr_scan", "android": "https://dc.lft.to/lastmile_qr_scan"}, "is_reserved": 0}, {"lon": -77.02809133333334, "bike_id": "e7173bcb28f69f48e14277284a26b4f9", "lat": 38.917137, "fusion_lon": 0.0, "fusion_lat": 0.0, "type": "electric_scooter", "name": "e7173bcb28f69f48e14277284a26b4f9", "is_disabled": 0, "rental_uris": {"ios": "https://dc.lft.to/lastmile_qr_scan", "android": "https://dc.lft.to/lastmile_qr_scan"}, "is_reserved": 0}, {"lon": -77.0320155, "bike_id": "8f7baaabb440a7e09f88bf6373e3c7cc", "lat": 38.91242333333334, "fusion_lon": 0.0, "fusion_lat": 0.0, "type": "electric_scooter", "name": "8f7baaabb440a7e09f88bf6373e3c7cc", "is_disabled": 0, "rental_uris": {"ios": "https://dc.lft.to/lastmile_qr_scan", "android": "https://dc.lft.to/lastmile_qr_scan"}, "is_reserved": 0}, {"lon": -77.02457266666667, "bike_id": "e67ec357ad4129bbc6b6aea8437c1946", "lat": 38.92068016666666, "fusion_lon": 0.0, "fusion_lat": 0.0, "type": "electric_scooter", "name": "e67ec357ad4129bbc6b6aea8437c1946", "is_disabled": 0, "rental_uris": {"ios": "https://dc.lft.to/lastmile_qr_scan", "android": "https://dc.lft.to/lastmile_qr_scan"}, "is_reserved": 0}, {"lon": -77.02678516666667, "bike_id": "c5d6ac448fb3d4309481d43e9881e8f9", "lat": 38.90269966666666, "fusion_lon": 0.0, "fusion_lat": 0.0, "type": "electric_scooter", "name": "c5d6ac448fb3d4309481d43e9881e8f9", "is_disabled": 0, "rental_uris": {"ios": "https://dc.lft.to/lastmile_qr_scan", "android": "https://dc.lft.to/lastmile_qr_scan"}, "is_reserved": 0}, {"lon": -77.13908483333333, "bike_id": "4da166b3e4bd160cca0e14cc0b464d38", "lat": 38.8967435, "fusion_lon": 0.0, "fusion_lat": 0.0, "type": "electric_bike", "name": "4da166b3e4bd160cca0e14cc0b464d38", "is_disabled": 0, "rental_uris": {"ios": "https://dc.lft.to/lastmile_qr_scan", "android": "https://dc.lft.to/lastmile_qr_scan"}, "is_reserved": 0}, {"lon": -77.01478683333333, "bike_id": "53313f65beea229992886441c5234b05", "lat": 38.9587065, "fusion_lon": 0.0, "fusion_lat": 0.0, "type": "electric_scooter", "name": "53313f65beea229992886441c5234b05", "is_disabled": 0, "rental_uris": {"ios": "https://dc.lft.to/lastmile_qr_scan", "android": "https://dc.lft.to/lastmile_qr_scan"}, "is_reserved": 0}, {"lon": -77.03206916666667, "bike_id": "016b3baf06fcd47979dec229c025e9e8", "lat": 38.921678666666665, "fusion_lon": 0.0, "fusion_lat": 0.0, "type": "electric_scooter", "name": "016b3baf06fcd47979dec229c025e9e8", "is_disabled": 0, "rental_uris": {"ios": "https://dc.lft.to/lastmile_qr_scan", "android": "https://dc.lft.to/lastmile_qr_scan"}, "is_reserved": 0}, {"lon": -77.0552195, "bike_id": "cc598b0a9180331a7b199a68b43a3d8b", "lat": 38.897271833333335, "fusion_lon": 0.0, "fusion_lat": 0.0, "type": "electric_scooter", "name": "cc598b0a9180331a7b199a68b43a3d8b", "is_disabled": 0, "rental_uris": {"ios": "https://dc.lft.to/lastmile_qr_scan", "android": "https://dc.lft.to/lastmile_qr_scan"}, "is_reserved": 0}, {"lon": -76.98531666666666, "bike_id": "ec086d060aabe3313e9794414387b272", "lat": 38.866860333333335, "fusion_lon": 0.0, "fusion_lat": 0.0, "type": "electric_scooter", "name": "ec086d060aabe3313e9794414387b272", "is_disabled": 0, "rental_uris": {"ios": "https://dc.lft.to/lastmile_qr_scan", "android": "https://dc.lft.to/lastmile_qr_scan"}, "is_reserved": 0}, {"lon": -77.11575466666666, "bike_id": "88c2021bc517885950a50f2a5aadc48c", "lat": 38.99346033333333, "fusion_lon": 0.0, "fusion_lat": 0.0, "type": "electric_bike", "name": "88c2021bc517885950a50f2a5aadc48c", "is_disabled": 0, "rental_uris": {"ios": "https://dc.lft.to/lastmile_qr_scan", "android": "https://dc.lft.to/lastmile_qr_scan"}, "is_reserved": 0}, {"lon": -77.0349975, "bike_id": "dc61fdb1d1ba84765cbf8876e7768a45", "lat": 38.93459933333333, "fusion_lon": 0.0, "fusion_lat": 0.0, "type": "electric_scooter", "name": "dc61fdb1d1ba84765cbf8876e7768a45", "is_disabled": 0, "rental_uris": {"ios": "https://dc.lft.to/lastmile_qr_scan", "android": "https://dc.lft.to/lastmile_qr_scan"}, "is_reserved": 0}, {"lon": -77.00837883333334, "bike_id": "6042fcc7b65a820db2e2e52aec517428", "lat": 38.913494166666666, "fusion_lon": 0.0, "fusion_lat": 0.0, "type": "electric_scooter", "name": "6042fcc7b65a820db2e2e52aec517428", "is_disabled": 0, "rental_uris": {"ios": "https://dc.lft.to/lastmile_qr_scan", "android": "https://dc.lft.to/lastmile_qr_scan"}, "is_reserved": 0}, {"lon": -76.99544516666667, "bike_id": "3956e7ab5abdfd550eed5a19851c82bd", "lat": 38.86258616666667, "fusion_lon": 0.0, "fusion_lat": 0.0, "type": "electric_scooter", "name": "3956e7ab5abdfd550eed5a19851c82bd", "is_disabled": 0, "rental_uris": {"ios": "https://dc.lft.to/lastmile_qr_scan", "android": "https://dc.lft.to/lastmile_qr_scan"}, "is_reserved": 0}, {"lon": -77.02997316666666, "bike_id": "5fa1ed6792cbec743e2c327bd3597218", "lat": 38.9003105, "fusion_lon": 0.0, "fusion_lat": 0.0, "type": "electric_scooter", "name": "5fa1ed6792cbec743e2c327bd3597218", "is_disabled": 0, "rental_uris": {"ios": "https://dc.lft.to/lastmile_qr_scan", "android": "https://dc.lft.to/lastmile_qr_scan"}, "is_reserved": 0}, {"lon": -77.032142, "bike_id": "ce365c8dbe4a339e3b0c22b3012af3e3", "lat": 38.897881166666664, "fusion_lon": 0.0, "fusion_lat": 0.0, "type": "electric_scooter", "name": "ce365c8dbe4a339e3b0c22b3012af3e3", "is_disabled": 0, "rental_uris": {"ios": "https://dc.lft.to/lastmile_qr_scan", "android": "https://dc.lft.to/lastmile_qr_scan"}, "is_reserved": 0}, {"lon": -77.02274416666667, "bike_id": "f5ea2322d6be36c448263c3fb09429c3", "lat": 38.878845, "fusion_lon": 0.0, "fusion_lat": 0.0, "type": "electric_scooter", "name": "f5ea2322d6be36c448263c3fb09429c3", "is_disabled": 0, "rental_uris": {"ios": "https://dc.lft.to/lastmile_qr_scan", "android": "https://dc.lft.to/lastmile_qr_scan"}, "is_reserved": 0}, {"lon": -77.09869266666666, "bike_id": "4bd837e5590bf7a1bb3f5bc34964ac7a", "lat": 38.949692, "fusion_lon": 0.0, "fusion_lat": 0.0, "type": "electric_scooter", "name": "4bd837e5590bf7a1bb3f5bc34964ac7a", "is_disabled": 0, "rental_uris": {"ios": "https://dc.lft.to/lastmile_qr_scan", "android": "https://dc.lft.to/lastmile_qr_scan"}, "is_reserved": 0}, {"lon": -77.0131715, "bike_id": "e9b18248ab649fdad6612fa6051646e2", "lat": 38.8715395, "fusion_lon": 0.0, "fusion_lat": 0.0, "type": "electric_scooter", "name": "e9b18248ab649fdad6612fa6051646e2", "is_disabled": 0, "rental_uris": {"ios": "https://dc.lft.to/lastmile_qr_scan", "android": "https://dc.lft.to/lastmile_qr_scan"}, "is_reserved": 0}, {"lon": -77.03176633333334, "bike_id": "80bc8e67f1948345fdabdb8709cdfc3b", "lat": 38.92057666666667, "fusion_lon": 0.0, "fusion_lat": 0.0, "type": "electric_scooter", "name": "80bc8e67f1948345fdabdb8709cdfc3b", "is_disabled": 0, "rental_uris": {"ios": "https://dc.lft.to/lastmile_qr_scan", "android": "https://dc.lft.to/lastmile_qr_scan"}, "is_reserved": 0}, {"lon": -76.99454666666666, "bike_id": "38478ce2c4068e488566c3e55a5993e1", "lat": 38.96622133333334, "fusion_lon": 0.0, "fusion_lat": 0.0, "type": "electric_bike", "name": "38478ce2c4068e488566c3e55a5993e1", "is_disabled": 0, "rental_uris": {"ios": "https://dc.lft.to/lastmile_qr_scan", "android": "https://dc.lft.to/lastmile_qr_scan"}, "is_reserved": 0}, {"lon": -76.99004983333333, "bike_id": "4c5b091e433ff47b226a73eb06c70631", "lat": 38.865075, "fusion_lon": 0.0, "fusion_lat": 0.0, "type": "electric_scooter", "name": "4c5b091e433ff47b226a73eb06c70631", "is_disabled": 0, "rental_uris": {"ios": "https://dc.lft.to/lastmile_qr_scan", "android": "https://dc.lft.to/lastmile_qr_scan"}, "is_reserved": 0},