{"data": {"bikes": [{"bike_id": "b14dc8c545fd3251034a09941a2b59da", "lat": 39.0148385, "is_reserved": 0, "fusion_lat": 0.0, "rental_uris": {"android": "https://dc.lft.to/lastmile_qr_scan", "ios": "https://dc.lft.to/lastmile_qr_scan"}, "fusion_lon": 0.0, "name": "b14dc8c545fd3251034a09941a2b59da", "lon": -77.054966, "is_disabled": 0, "type": "electric_bike"}, {"bike_id": "0fea3bcd54f96174ef492ba16040e809", "lat": 38.9147955, "is_reserved": 0, "fusion_lat": 0.0, "rental_uris": {"android": "https://dc.lft.to/lastmile_qr_scan", "ios": "https://dc.lft.to/lastmile_qr_scan"}, "fusion_lon": 0.0, "name": "0fea3bcd54f96174ef492ba16040e809", "lon": -77.04554216666666, "is_disabled": 0, "type": "electric_scooter"}, {"bike_id": "6759d8d4300fbecf9ec58eb3b2da66da", "lat": 38.892290333333335, "is_reserved": 0, "fusion_lat": 0.0, "rental_uris": {"android": "https://dc.lft.to/lastmile_qr_scan", "ios": "https://dc.lft.to/lastmile_qr_scan"}, "fusion_lon": 0.0, "name": "6759d8d4300fbecf9ec58eb3b2da66da", "lon": -77.0137615, "is_disabled": 0, "type": "electric_scooter"}, {"bike_id": "f9ad1e511add78cdbfef1d4b3d328ea3", "lat": 38.89546, "is_reserved": 0, "fusion_lat": 0.0, "rental_uris": {"android": "https://dc.lft.to/lastmile_qr_scan", "ios": "https://dc.lft.to/lastmile_qr_scan"}, "fusion_lon": 0.0, "name": "f9ad1e511add78cdbfef1d4b3d328ea3", "lon": -77.00384266666667, "is_disabled": 0, "type": "electric_scooter"}, {"bike_id": "6af07322d20b57a0547e1062f7267cd4", "lat": 38.9112155, "is_reserved": 0, "fusion_lat": 0.0, "rental_uris": {"android": "https://dc.lft.to/lastmile_qr_scan", "ios": "https://dc.lft.to/lastmile_qr_scan"}, "fusion_lon": 0.0, "name": "6af07322d20b57a0547e1062f7267cd4", "lon": -77.04463266666667, "is_disabled": 0, "type": "electric_scooter"}, {"bike_id": "d80a24817f86e5e3d3f889ac1a8be4f8", "lat": 38.88746, "is_reserved": 0, "fusion_lat": 0.0, "rental_uris": {"android": "https://dc.lft.to/lastmile_qr_scan", "ios": "https://dc.lft.to/lastmile_qr_scan"}, "fusion_lon": 0.0, "name": "d80a24817f86e5e3d3f889ac1a8be4f8", "lon": -77.02566933333334, "is_disabled": 0, "type": "electric_scooter"}, {"bike_id": "c6a0c676f7fca1bdae9f0974208fefd6", "lat": 38.9578035, "is_reserved": 0, "fusion_lat": 0.0, "rental_uris": {"android": "https://dc.lft.to/lastmile_qr_scan", "ios": "https://dc.lft.to/lastmile_qr_scan"}, "fusion_lon": 0.0, "name": "c6a0c676f7fca1bdae9f0974208fefd6", "lon": -77.02464116666667, "is_disabled": 0, "type": "electric_scooter"}, {"bike_id": "73493379685dff234a2d7d7a59233df2", "lat": 38.91675, "is_reserved": 0, "fusion_lat": 0.0, "rental_uris": {"android": "https://dc.lft.to/lastmile_qr_scan", "ios": "https://dc.lft.to/lastmile_qr_scan"}, "fusion_lon": 0.0, "name": "73493379685dff234a2d7d7a59233df2", "lon": -77.02318233333334, "is_disabled": 0, "type": "electric_scooter"}, {"bike_id": "8c816df416340b4247325f287923908f", "lat": 38.898733166666666, "is_reserved": 0, "fusion_lat": 0.0, "rental_uris": {"android": "https://dc.lft.to/lastmile_qr_scan", "ios": "https://dc.lft.to/lastmile_qr_scan"}, "fusion_lon": 0.0, "name": "8c816df416340b4247325f287923908f", "lon": -76.9463495, "is_disabled": 0, "type": "electric_scooter"}, {"bike_id": "532f57e2d9b1a25deb6b776f432b55bf", "lat": 38.9086925, "is_reserved": 0, "fusion_lat": 0.0, "rental_uris": {"android": "https://dc.lft.to/lastmile_qr_scan", "ios": "https://dc.lft.to/lastmile_qr_scan"}, "fusion_lon": 0.0, "name": "532f57e2d9b1a25deb6b776f432b55bf", "lon": -77.0764415, "is_disabled": 0, "type": "electric_bike"}, {"bike_id": "37f37d67acf2a76fd10d9195ad761d06", "lat": 38.928997333333335, "is_reserved": 0, "fusion_lat": 0.0, "rental_uris": {"android": "https://dc.lft.to/lastmile_qr_scan", "ios": "https://dc.lft.to/lastmile_qr_scan"}, "fusion_lon": 0.0, "name": "37f37d67acf2a76fd10d9195ad761d06", "lon": -77.01657516666667, "is_disabled": 0, "type": "electric_scooter"}, {"bike_id": "c2ced01b6fb8b365055d5454ef9c839d", "lat": 38.89613266666667, "is_reserved": 0, "fusion_lat": 0.0, "rental_uris": {"android": "https://dc.lft.to/lastmile_qr_scan", "ios": "https://dc.lft.to/lastmile_qr_scan"}, "fusion_lon": 0.0, "name": "c2ced01b6fb8b365055d5454ef9c839d", "lon": -77.02208966666667, "is_disabled": 0, "type": "electric_scooter"}, {"bike_id": "5607646308dbc86279acea22a4cf2987", "lat": 38.91711516666667, "is_reserved": 0, "fusion_lat": 0.0, "rental_uris": {"android": "https://dc.lft.to/lastmile_qr_scan", "ios": "https://dc.lft.to/lastmile_qr_scan"}, "fusion_lon": 0.0, "name": "5607646308dbc86279acea22a4cf2987", "lon": -77.034756, "is_disabled": 0, "type": "electric_scooter"}, {"bike_id": "a7ae48a659aae387535b295620d1f654", "lat": 38.90098916666667, "is_reserved": 0, "fusion_lat": 0.0, "rental_uris": {"android": "https://dc.lft.to/lastmile_qr_scan", "ios": "https://dc.lft.to/lastmile_qr_scan"}, "fusion_lon": 0.0, "name": "a7ae48a659aae387535b295620d1f654", "lon": -77.016404, "is_disabled": 0, "type": "electric_scooter"}, {"bike_id": "2334f96c84a1ba1289be33533eadce7a", "lat": 38.908218166666664, "is_reserved": 0, "fusion_lat": 0.0, "rental_uris": {"android": "https://dc.lft.to/lastmile_qr_scan", "ios": "https://dc.lft.to/lastmile_qr_scan"}, "fusion_lon": 0.0, "name": "2334f96c84a1ba1289be33533eadce7a", "lon": -77.04352133333333, "is_disabled": 0, "type": "electric_scooter"}, {"bike_id": "2ae00441c2dbe613459c027dcb6ba476", "lat": 38.9389245, "is_reserved": 0, "fusion_lat": 0.0, "rental_uris": {"android": "https://dc.lft.to/lastmile_qr_scan", "ios": "https://dc.lft.to/lastmile_qr_scan"}, "fusion_lon": 0.0, "name": "2ae00441c2dbe613459c027dcb6ba476", "lon": -77.033423, "is_disabled": 0, "type": "electric_scooter"}, {"bike_id": "c680373c94381f1c2cd2d43371e857fe", "lat": 38.92514116666667, "is_reserved": 0, "fusion_lat": 0.0, "rental_uris": {"android": "https://dc.lft.to/lastmile_qr_scan", "ios": "https://dc.lft.to/lastmile_qr_scan"}, "fusion_lon": 0.0, "name": "c680373c94381f1c2cd2d43371e857fe", "lon": -77.023572, "is_disabled": 0, "type": "electric_scooter"}, {"bike_id": "3994fefee9b38ef1f3889961c6cf1624", "lat": 38.9163025, "is_reserved": 0, "fusion_lat": 0.0, "rental_uris": {"android": "https://dc.lft.to/lastmile_qr_scan", "ios": "https://dc.lft.to/lastmile_qr_scan"}, "fusion_lon": 0.0, "name": "3994fefee9b38ef1f3889961c6cf1624", "lon": -77.0304085, "is_disabled": 0, "type": "electric_scooter"}, {"bike_id": "d0c1c7385d1d6b85de89b3734883f5a1", "lat": 38.937047666666665, "is_reserved": 0, "fusion_lat": 0.0, "rental_uris": {"android": "https://dc.lft.to/lastmile_qr_scan", "ios": "https://dc.lft.to/lastmile_qr_scan"}, "fusion_lon": 0.0, "name": "d0c1c7385d1d6b85de89b3734883f5a1", "lon": -77.02400316666666, "is_disabled": 0, "type": "electric_scooter"}, {"bike_id": "cb265be418785c57681269649c8a655a", "lat": 38.90207983333333, "is_reserved": 0, "fusion_lat": 0.0, "rental_uris": {"android": "https://dc.lft.to/lastmile_qr_scan", "ios": "https://dc.lft.to/lastmile_qr_scan"}, "fusion_lon": 0.0, "name": "cb265be418785c57681269649c8a655a", "lon": -77.023222, "is_disabled": 0, "type": "electric_scooter"}, {"bike_id": "4b83e3b56c6c8a9ab647d4814e65104b", "lat": 38.87383533333333, "is_reserved": 0, "fusion_lat": 0.0, "rental_uris": {"android": "https://dc.lft.to/lastmile_qr_scan", "ios": "https://dc.lft.to/lastmile_qr_scan"}, "fusion_lon": 0.0, "name": "4b83e3b56c6c8a9ab647d4814e65104b", "lon": -77.00066116666666, "is_disabled": 0, "type": "electric_scooter"}, {"bike_id": "60fc013e91103c10b5d2f84e4b9f718e", "lat": 38.9220675, "is_reserved": 0, "fusion_lat": 0.0, "rental_uris": {"android": "https://dc.lft.to/lastmile_qr_scan", "ios": "https://dc.lft.to/lastmile_qr_scan"}, "fusion_lon": 0.0, "name": "60fc013e91103c10b5d2f84e4b9f718e", "lon": -77.03398433333334, "is_disabled": 0, "type": "electric_scooter"}, {"bike_id": "59e925ff29999a5f0d6bbfca599f0884", "lat": 38.8923855, "is_reserved": 0, "fusion_lat": 0.0, "rental_uris": {"android": "https://dc.lft.to/lastmile_qr_scan", "ios": "https://dc.lft.to/lastmile_qr_scan"}, "fusion_lon": 0.0, "name": "59e925ff29999a5f0d6bbfca599f0884", "lon": -77.04162933333333, "is_disabled": 0, "type": "electric_scooter"}, {"bike_id": "915f5d49851cb6edc2e2f2d00505255d", "lat": 38.920699166666665, "is_reserved": 0, "fusion_lat": 0.0, "rental_uris": {"android": "https://dc.lft.to/lastmile_qr_scan", "ios": "https://dc.lft.to/lastmile_qr_scan"}, "fusion_lon": 0.0, "name": "915f5d49851cb6edc2e2f2d00505255d", "lon": -77.01480533333333, "is_disabled": 0, "type": "electric_scooter"}, {"bike_id": "fead20941dbd4b31e7e4b1288ca82bed", "lat": 38.845316333333336, "is_reserved": 0, "fusion_lat": 0.0, "rental_uris": {"android": "https://dc.lft.to/lastmile_qr_scan", "ios": "https://dc.lft.to/lastmile_qr_scan"}, "fusion_lon": 0.0, "name": "fead20941dbd4b31e7e4b1288ca82bed", "lon": -76.97397583333333, "is_disabled": 0, "type": "electric_bike"}, {"bike_id": "070f70399f4c5f6415925568768d5855", "lat": 38.900236166666666, "is_reserved": 0, "fusion_lat": 0.0, "rental_uris": {"android": "https://dc.lft.to/lastmile_qr_scan", "ios": "https://dc.lft.to/lastmile_qr_scan"}, "fusion_lon": 0.0, "name": "070f70399f4c5f6415925568768d5855", "lon": -76.998503, "is_disabled": 0, "type": "electric_scooter"}, {"bike_id": "9675c8a31e7148fa0be2ad987092224b", "lat": 38.89339433333333, "is_reserved": 0, "fusion_lat": 0.0, "rental_uris": {"android": "https://dc.lft.to/lastmile_qr_scan", "ios": "https://dc.lft.to/lastmile_qr_scan"}, "fusion_lon": 0.0, "name": "9675c8a31e7148fa0be2ad987092224b", "lon": -77.03166533333334, "is_disabled": 0, "type": "electric_scooter"}, {"bike_id": "d6d7455ff300ad641d90f0a24d062341", "lat": 38.89752083333333, "is_reserved": 0, "fusion_lat": 0.0, "rental_uris": {"android": "https://dc.lft.to/lastmile_qr_scan", "ios": "https://dc.lft.to/lastmile_qr_scan"}, "fusion_lon": 0.0, "name": "d6d7455ff300ad641d90f0a24d062341", "lon": -77.03032783333333, "is_disabled": 0, "type": "electric_scooter"}, {"bike_id": "ae042f4252c71ce9d142019895fd8d43", "lat": 38.91686466666667, "is_reserved": 0, "fusion_lat": 0.0, "rental_uris": {"android": "https://dc.lft.to/lastmile_qr_scan", "ios": "https://dc.lft.to/lastmile_qr_scan"}, "fusion_lon": 0.0, "name": "ae042f4252c71ce9d142019895fd8d43", "lon": -77.0376465, "is_disabled": 0, "type": "electric_scooter"}, {"bike_id": "bfc79ef7e4c8e2222e5c6ccb46442dd5", "lat": 38.91537, "is_reserved": 0, "fusion_lat": 0.0, "rental_uris": {"android": "https://dc.lft.to/lastmile_qr_scan", "ios": "https://dc.lft.to/lastmile_qr_scan"}, "fusion_lon": 0.0, "name": "bfc79ef7e4c8e2222e5c6ccb46442dd5", "lon": -76.98362083333333, "is_disabled": 0, "type": "electric_scooter"}, {"bike_id": "898c274d94a35bb0ee57bec28c7217ef", "lat": 38.892278166666664, "is_reserved": 0, "fusion_lat": 0.0, "rental_uris": {"android": "https://dc.lft.to/lastmile_qr_scan", "ios": "https://dc.lft.to/lastmile_qr_scan"}, "fusion_lon": 0.0, "name": "898c274d94a35bb0ee57bec28c7217ef", "lon": -77.04008133333333, "is_disabled": 0, "type": "electric_scooter"}, {"bike_id": "40779c74b833612de0fe6de13cbc8b38", "lat": 38.90346383333333, "is_reserved": 0, "fusion_lat": 0.0, "rental_uris": {"android": "https://dc.lft.to/lastmile_qr_scan", "ios": "https://dc.lft.to/lastmile_qr_scan"}, "fusion_lon": 0.0, "name": "40779c74b833612de0fe6de13cbc8b38", "lon": -77.0385495, "is_disabled": 0, "type": "electric_scooter"}, {"bike_id": "749e49ee200b91788616aa02d8ffee9f", "lat": 38.920174333333335, "is_reserved": 0, "fusion_lat": 0.0, "rental_uris": {"android": "https://dc.lft.to/lastmile_qr_scan", "ios": "https://dc.lft.to/lastmile_qr_scan"}, "fusion_lon": 0.0, "name": "749e49ee200b91788616aa02d8ffee9f", "lon": -77.03131033333334, "is_disabled": 0, "type": "electric_scooter"}, {"bike_id": "3536e299e8a4afbdb5b9023ec2859efe", "lat": 38.947958166666666, "is_reserved": 0, "fusion_lat": 0.0, "rental_uris": {"android": "https://dc.lft.to/lastmile_qr_scan", "ios": "https://dc.lft.to/lastmile_qr_scan"}, "fusion_lon": 0.0, "name": "3536e299e8a4afbdb5b9023ec2859efe", "lon": -77.02137216666667, "is_disabled": 0, "type": "electric_scooter"}, {"bike_id": "c7acf36fa92ca85bf0bdece2378b195b", "lat": 38.926165166666664, "is_reserved": 0, "fusion_lat": 0.0, "rental_uris": {"android": "https://dc.lft.to/lastmile_qr_scan", "ios": "https://dc.lft.to/lastmile_qr_scan"}, "fusion_lon": 0.0, "name": "c7acf36fa92ca85bf0bdece2378b195b", "lon": -77.02164583333334, "is_disabled": 0, "type": "electric_scooter"}, {"bike_id": "b20f77a5541b78b4d1724db48d7b9ca4", "lat": 38.920444, "is_reserved": 0, "fusion_lat": 0.0, "rental_uris": {"android": "https://dc.lft.to/lastmile_qr_scan", "ios": "https://dc.lft.to/lastmile_qr_scan"}, "fusion_lon": 0.0, "name": "b20f77a5541b78b4d1724db48d7b9ca4", "lon": -77.07138616666667, "is_disabled": 0, "type": "electric_scooter"}, {"bike_id": "d7f29a1b18a1e2d2013d1699b3b0c6ef", "lat": 38.9017375, "is_reserved": 0, "fusion_lat": 0.0, "rental_uris": {"android": "https://dc.lft.to/lastmile_qr_scan", "ios": "https://dc.lft.to/lastmile_qr_scan"}, "fusion_lon": 0.0, "name": "d7f29a1b18a1e2d2013d1699b3b0c6ef", "lon": -77.02931833333334, "is_disabled": 0, "type": "electric_scooter"}, {"bike_id": "4b855a2f3b0eb80f09e71432faad524f", "lat": 38.91681166666667, "is_reserved": 0, "fusion_lat": 0.0, "rental_uris": {"android": "https://dc.lft.to/lastmile_qr_scan", "ios": "https://dc.lft.to/lastmile_qr_scan"}, "fusion_lon": 0.0, "name": "4b855a2f3b0eb80f09e71432faad524f", "lon": -77.02307783333333, "is_disabled": 0, "type": "electric_scooter"}, {"bike_id": "fccb0b9403cef38bdd274c9097ad1fae", "lat": 38.895117666666664, "is_reserved": 0, "fusion_lat": 0.0, "rental_uris": {"android": "https://dc.lft.to/lastmile_qr_scan", "ios": "https://dc.lft.to/lastmile_qr_scan"}, "fusion_lon": 0.0, "name": "fccb0b9403cef38bdd274c9097ad1fae", "lon": -77.043567, "is_disabled": 0, "type": "electric_scooter"}, {"bike_id": "f9546f077d23bb08ed325722577ab28a", "lat": 38.90798133333333, "is_reserved": 0, "fusion_lat": 0.0, "rental_uris": {"android": "https://dc.lft.to/lastmile_qr_scan", "ios": "https://dc.lft.to/lastmile_qr_scan"}, "fusion_lon": 0.0, "name": "f9546f077d23bb08ed325722577ab28a", "lon": -77.0269175, "is_disabled": 0, "type": "electric_scooter"}, {"bike_id": "bf3ae347b4b69e9a2b0df3b8eef65dd3", "lat": 38.9563565, "is_reserved": 0, "fusion_lat": 0.0, "rental_uris": {"android": "https://dc.lft.to/lastmile_qr_scan", "ios": "https://dc.lft.to/lastmile_qr_scan"}, "fusion_lon": 0.0, "name": "bf3ae347b4b69e9a2b0df3b8eef65dd3", "lon": -77.03631433333334, "is_disabled": 0, "type": "electric_scooter"}, {"bike_id": "89090020ece383f9e0f301db26283837", "lat": 38.90142816666667, "is_reserved": 0, "fusion_lat": 0.0, "rental_uris": {"android": "https://dc.lft.to/lastmile_qr_scan", "ios": "https://dc.lft.to/lastmile_qr_scan"}, "fusion_lon": 0.0, "name": "89090020ece383f9e0f301db26283837", "lon": -77.04050916666667, "is_disabled": 0, "type": "electric_scooter"}, {"bike_id": "b24ca7f30adf8bf1e54c0a14aff066b4", "lat": 38.903561333333336, "is_reserved": 0, "fusion_lat": 0.0, "rental_uris": {"android": "https://dc.lft.to/lastmile_qr_scan", "ios": "https://dc.lft.to/lastmile_qr_scan"}, "fusion_lon": 0.0, "name": "b24ca7f30adf8bf1e54c0a14aff066b4", "lon": -76.99221883333334, "is_disabled": 0, "type": "electric_scooter"}, {"bike_id": "9b453e6df2e07346e846cd8ea492831c", "lat": 39.051079666666666, "is_reserved": 0, "fusion_lat": 0.0, "rental_uris": {"android": "https://dc.lft.to/lastmile_qr_scan", "ios": "https://dc.lft.to/lastmile_qr_scan"}, "fusion_lon": 0.0, "name": "9b453e6df2e07346e846cd8ea492831c", "lon": -77.11759416666666, "is_disabled": 0, "type": "electric_bike"}, {"bike_id": "0c7b5f0c309a132b4c77057574a6d8fe", "lat": 38.887135, "is_reserved": 0, "fusion_lat": 0.0, "rental_uris": {"android": "https://dc.lft.to/lastmile_qr_scan", "ios": "https://dc.lft.to/lastmile_qr_scan"}, "fusion_lon": 0.0, "name": "0c7b5f0c309a132b4c77057574a6d8fe", "lon": -77.0221265, "is_disabled": 0, "type": "electric_scooter"}, {"bike_id": "9f2d73ee1e49dcdad91a8d2d660b9ef3", "lat": 38.91557066666667, "is_reserved": 0, "fusion_lat": 0.0, "rental_uris": {"android": "https://dc.lft.to/lastmile_qr_scan", "ios": "https://dc.lft.to/lastmile_qr_scan"}, "fusion_lon": 0.0, "name": "9f2d73ee1e49dcdad91a8d2d660b9ef3", "lon": -77.03046866666666, "is_disabled": 0, "type": "electric_scooter"}, {"bike_id": "5f4cdf1b0d9b4eaec25d92cdd37a6cc9", "lat": 38.885434833333335, "is_reserved": 0, "fusion_lat": 0.0, "rental_uris": {"android": "https://dc.lft.to/lastmile_qr_scan", "ios": "https://dc.lft.to/lastmile_qr_scan"}, "fusion_lon": 0.0, "name": "5f4cdf1b0d9b4eaec25d92cdd37a6cc9", "lon": -77.005762, "is_disabled": 0, "type": "electric_scooter"}, {"bike_id": "8085159087c592295e193b660697b173", "lat": 38.93713416666667, "is_reserved": 0, "fusion_lat": 0.0, "rental_uris": {"android": "https://dc.lft.to/lastmile_qr_scan", "ios": "https://dc.lft.to/lastmile_qr_scan"}, "fusion_lon": 0.0, "name": "8085159087c592295e193b660697b173", "lon": -77.0363315, "is_disabled": 0, "type": "electric_scooter"}, {"bike_id": "9444691daf6bf30d3c3c203a69e347d0", "lat": 38.923375666666665, "is_reserved": 0, "fusion_lat": 0.0, "rental_uris": {"android": "https://dc.lft.to/lastmile_qr_scan", "ios": "https://dc.lft.to/lastmile_qr_scan"}, "fusion_lon": 0.0, "name": "9444691daf6bf30d3c3c203a69e347d0", "lon": -77.053292, "is_disabled": 0, "type": "electric_scooter"}, {"bike_id": "de3dffd8839044b41b38cea7b424dce0", "lat": 38.905652, "is_reserved": 0, "fusion_lat": 0.0, "rental_uris": {"android": "https://dc.lft.to/lastmile_qr_scan", "ios": "https://dc.lft.to/lastmile_qr_scan"}, "fusion_lon": 0.0, "name": "de3dffd8839044b41b38cea7b424dce0", "lon": -77.00583783333333, "is_disabled": 0, "type": "electric_scooter"}, {"bike_id": "cf450a8cbed74b90794f2e81831cd6b5", "lat": 38.89043483333333, "is_reserved": 0, "fusion_lat": 0.0, "rental_uris": {"android": "https://dc.lft.to/lastmile_qr_scan", "ios": "https://dc.lft.to/lastmile_qr_scan"}, "fusion_lon": 0.0, "name": "cf450a8cbed74b90794f2e81831cd6b5", "lon": -76.93753166666667, "is_disabled": 0, "type": "electric_scooter"}, {"bike_id": "1ee2b6e44179901192085958ca67fe6b", "lat": 38.92977116666667, "is_reserved": 0, "fusion_lat": 0.0, "rental_uris": {"android": "https://dc.lft.to/lastmile_qr_scan", "ios": "https://dc.lft.to/lastmile_qr_scan"}, "fusion_lon": 0.0, "name": "1ee2b6e44179901192085958ca67fe6b", "lon": -77.01307683333333, "is_disabled": 0, "type": "electric_scooter"}, {"bike_id": "9dea27ba4ea7fdf4ae50a0816e30fc49", "lat": 38.892279, "is_reserved": 0, "fusion_lat": 0.0, "rental_uris": {"android": "https://dc.lft.to/lastmile_qr_scan", "ios": "https://dc.lft.to/lastmile_qr_scan"}, "fusion_lon": 0.0, "name": "9dea27ba4ea7fdf4ae50a0816e30fc49", "lon": -77.0321715, "is_disabled": 0, "type": "electric_scooter"}, {"bike_id": "ae0b7b58bc190de8cf54e781147cfb6e", "lat": 38.90676833333333, "is_reserved": 0, "fusion_lat": 0.0, "rental_uris": {"android": "https://dc.lft.to/lastmile_qr_scan", "ios": "https://dc.lft.to/lastmile_qr_scan"}, "fusion_lon": 0.0, "name": "ae0b7b58bc190de8cf54e781147cfb6e", "lon": -77.03807416666666, "is_disabled": 0, "type": "electric_scooter"}, {"bike_id": "32c0c8b39501d9c0fb006248e23d680b", "lat": 38.90047233333333, "is_reserved": 0, "fusion_lat": 0.0, "rental_uris": {"android": "https://dc.lft.to/lastmile_qr_scan", "ios": "https://dc.lft.to/lastmile_qr_scan"}, "fusion_lon": 0.0, "name": "32c0c8b39501d9c0fb006248e23d680b", "lon": -77.0007055, "is_disabled": 0, "type": "electric_scooter"}, {"bike_id": "63c6daeb704b340012261c4e2a3387ef", "lat": 38.897408666666664, "is_reserved": 0, "fusion_lat": 0.0, "rental_uris": {"android": "https://dc.lft.to/lastmile_qr_scan", "ios": "https://dc.lft.to/lastmile_qr_scan"}, "fusion_lon": 0.0, "name": "63c6daeb704b340012261c4e2a3387ef", "lon": -76.9472785, "is_disabled": 0, "type": "electric_scooter"}, {"bike_id": "0521d423d8705d1b666789644c13ac4a", "lat": 38.90562583333333, "is_reserved": 0, "fusion_lat": 0.0, "rental_uris": {"android": "https://dc.lft.to/lastmile_qr_scan", "ios": "https://dc.lft.to/lastmile_qr_scan"}, "fusion_lon": 0.0, "name": "0521d423d8705d1b666789644c13ac4a", "lon": -77.0217525, "is_disabled": 0, "type": "electric_scooter"}, {"bike_id": "79f57b6fe63cfecef8e171c62675d3d7", "lat": 38.916056833333336, "is_reserved": 0, "fusion_lat": 0.0, "rental_uris": {"android": "https://dc.lft.to/lastmile_qr_scan", "ios": "https://dc.lft.to/lastmile_qr_scan"}, "fusion_lon": 0.0, "name": "79f57b6fe63cfecef8e171c62675d3d7", "lon": -77.04593933333334, "is_disabled": 0, "type": "electric_scooter"}, {"bike_id": "5c9a373ab0bf0bae2e48b83e2b4113c6", "lat": 38.915667166666665, "is_reserved": 0, "fusion_lat": 0.0, "rental_uris": {"android": "https://dc.lft.to/lastmile_qr_scan", "ios": "https://dc.lft.to/lastmile_qr_scan"}, "fusion_lon": 0.0, "name": "5c9a373ab0bf0bae2e48b83e2b4113c6", "lon": -77.0339455, "is_disabled": 0, "type": "electric_scooter"}, {"bike_id": "c8db64a2244baa048fc5ec54794dae22", "lat": 38.89970866666667, "is_reserved": 0, "fusion_lat": 0.0, "rental_uris": {"android": "https://dc.lft.to/lastmile_qr_scan", "ios": "https://dc.lft.to/lastmile_qr_scan"}, "fusion_lon": 0.0, "name": "c8db64a2244baa048fc5ec54794dae22", "lon": -77.03214316666667, "is_disabled": 0, "type": "electric_scooter"}, {"bike_id": "69a93fa66b50a289e4879c5678f30d59", "lat": 38.90267766666667, "is_reserved": 0, "fusion_lat": 0.0, "rental_uris": {"android": "https://dc.lft.to/lastmile_qr_scan", "ios": "https://dc.lft.to/lastmile_qr_scan"}, "fusion_lon": 0.0, "name": "69a93fa66b50a289e4879c5678f30d59", "lon": -76.981214, "is_disabled": 0, "type": "electric_scooter"}, {"bike_id": "3ab29a984005d0bcde765d09217dfa07", "lat": 38.9182625, "is_reserved": 0, "fusion_lat": 0.0, "rental_uris": {"android": "https://dc.lft.to/lastmile_qr_scan", "ios": "https://dc.lft.to/lastmile_qr_scan"}, "fusion_lon": 0.0, "name": "3ab29a984005d0bcde765d09217dfa07", "lon": -77.04944, "is_disabled": 0, "type": "electric_scooter"}, {"bike_id": "196d1db32e9e7d45e392f38deb53ce7b", "lat": 38.89849483333333, "is_reserved": 0, "fusion_lat": 0.0, "rental_uris": {"android": "https://dc.lft.to/lastmile_qr_scan", "ios": "https://dc.lft.to/lastmile_qr_scan"}, "fusion_lon": 0.0, "name": "196d1db32e9e7d45e392f38deb53ce7b", "lon": -77.02193333333334, "is_disabled": 0, "type": "electric_scooter"}, {"bike_id": "c721ae79454661b1a1a2ca1eb45410e8", "lat": 38.887091833333336, "is_reserved": 0, "fusion_lat": 0.0, "rental_uris": {"android": "https://dc.lft.to/lastmile_qr_scan", "ios": "https://dc.lft.to/lastmile_qr_scan"}, "fusion_lon": 0.0, "name": "c721ae79454661b1a1a2ca1eb45410e8", "lon": -77.017721, "is_disabled": 0, "type": "electric_scooter"}, {"bike_id": "a8bbe77df30347677257ac3428aaaa77", "lat": 38.915538166666664, "is_reserved": 0, "fusion_lat": 0.0, "rental_uris": {"android": "https://dc.lft.to/lastmile_qr_scan", "ios": "https://dc.lft.to/lastmile_qr_scan"}, "fusion_lon": 0.0, "name": "a8bbe77df30347677257ac3428aaaa77", "lon": -77.03215633333333, "is_disabled": 0, "type": "electric_scooter"}, {"bike_id": "db6dc69cde643dcf713fba2c012a00c2", "lat": 38.874732, "is_reserved": 0, "fusion_lat": 0.0, "rental_uris": {"android": "https://dc.lft.to/lastmile_qr_scan", "ios": "https://dc.lft.to/lastmile_qr_scan"}, "fusion_lon": 0.0, "name": "db6dc69cde643dcf713fba2c012a00c2", "lon": -77.00559066666666, "is_disabled": 0, "type": "electric_scooter"}, {"bike_id": "cbc8068c3850029d29450ab9e2b10e4d", "lat": 38.91831766666667, "is_reserved": 0, "fusion_lat": 0.0, "rental_uris": {"android": "https://dc.lft.to/lastmile_qr_scan", "ios": "https://dc.lft.to/lastmile_qr_scan"}, "fusion_lon": 0.0, "name": "cbc8068c3850029d29450ab9e2b10e4d", "lon": -77.04155066666667, "is_disabled": 0, "type": "electric_scooter"}, {"bike_id": "0e0e0ac41b394bcbd1af8e6d9e8b9b81", "lat": 38.90989366666667, "is_reserved": 0, "fusion_lat": 0.0, "rental_uris": {"android": "https://dc.lft.to/lastmile_qr_scan", "ios": "https://dc.lft.to/lastmile_qr_scan"}, "fusion_lon": 0.0, "name": "0e0e0ac41b394bcbd1af8e6d9e8b9b81", "lon": -77.0220095, "is_disabled": 0, "type": "electric_scooter"}, {"bike_id": "07b02f200f6977a61b87576dea8710db", "lat": 38.902901666666665, "is_reserved": 0, "fusion_lat": 0.0, "rental_uris": {"android": "https://dc.lft.to/lastmile_qr_scan", "ios": "https://dc.lft.to/lastmile_qr_scan"}, "fusion_lon": 0.0, "name": "07b02f200f6977a61b87576dea8710db", "lon": -77.03355233333333, "is_disabled": 0, "type": "electric_scooter"}, {"bike_id": "733e083d2f31313bf7208c05e60440d6", "lat": 38.936089333333335, "is_reserved": 0, "fusion_lat": 0.0, "rental_uris": {"android": "https://dc.lft.to/lastmile_qr_scan", "ios": "https://dc.lft.to/lastmile_qr_scan"}, "fusion_lon": 0.0, "name": "733e083d2f31313bf7208c05e60440d6", "lon": -77.05895083333333, "is_disabled": 0, "type": "electric_scooter"}, {"bike_id": "3e7f62386d13bd22163c4c1abc2674e4", "lat": 38.9169565, "is_reserved": 0, "fusion_lat": 0.0, "rental_uris": {"android": "https://dc.lft.to/lastmile_qr_scan", "ios": "https://dc.lft.to/lastmile_qr_scan"}, "fusion_lon": 0.0, "name": "3e7f62386d13bd22163c4c1abc2674e4", "lon": -77.029, "is_disabled": 0, "type": "electric_scooter"}, {"bike_id": "effb9bde457a0588b25b2b52942e4915", "lat": 38.90449916666667, "is_reserved": 0, "fusion_lat": 0.0, "rental_uris": {"android": "https://dc.lft.to/lastmile_qr_scan", "ios": "https://dc.lft.to/lastmile_qr_scan"}, "fusion_lon": 0.0, "name": "effb9bde457a0588b25b2b52942e4915", "lon": -77.02796983333333, "is_disabled": 0, "type": "electric_scooter"}, {"bike_id": "395a5b88b15e5383e1622ccc901fcc5a", "lat": 38.8974305, "is_reserved": 0, "fusion_lat": 0.0, "rental_uris": {"android": "https://dc.lft.to/lastmile_qr_scan", "ios": "https://dc.lft.to/lastmile_qr_scan"}, "fusion_lon": 0.0, "name": "395a5b88b15e5383e1622ccc901fcc5a", "lon": -76.92045966666667, "is_disabled": 0, "type": "electric_bike"}, {"bike_id": "fd5c26e4b8f73b442ad6bdd4946b1417", "lat": 38.9395255, "is_reserved": 0, "fusion_lat": 0.0, "rental_uris": {"android": "https://dc.lft.to/lastmile_qr_scan", "ios": "https://dc.lft.to/lastmile_qr_scan"}, "fusion_lon": 0.0, "name": "fd5c26e4b8f73b442ad6bdd4946b1417", "lon": -77.0723775, "is_disabled": 0, "type": "electric_scooter"}, {"bike_id": "53f1f3331795de914b9245e5d4f685bb", "lat": 38.88748833333333, "is_reserved": 0, "fusion_lat": 0.0, "rental_uris": {"android": "https://dc.lft.to/lastmile_qr_scan", "ios": "https://dc.lft.to/lastmile_qr_scan"}, "fusion_lon": 0.0, "name": "53f1f3331795de914b9245e5d4f685bb", "lon": -77.01727966666667, "is_disabled": 0, "type": "electric_scooter"}, {"bike_id": "6747b7f0797aa55e270686da356a2726", "lat": 38.925006833333335, "is_reserved": 0, "fusion_lat": 0.0, "rental_uris": {"android": "https://dc.lft.to/lastmile_qr_scan", "ios": "https://dc.lft.to/lastmile_qr_scan"}, "fusion_lon": 0.0, "name": "6747b7f0797aa55e270686da356a2726", "lon": -77.03793266666666, "is_disabled": 0, "type": "electric_scooter"}, {"bike_id": "5309c1598494b5b25e237c4a35938ed1", "lat": 38.89237166666667, "is_reserved": 0, "fusion_lat": 0.0, "rental_uris": {"android": "https://dc.lft.to/lastmile_qr_scan", "ios": "https://dc.lft.to/lastmile_qr_scan"}, "fusion_lon": 0.0, "name": "5309c1598494b5b25e237c4a35938ed1", "lon": -77.0416255, "is_disabled": 0, "type": "electric_scooter"}, {"bike_id": "dcdc885bcbe2a9f6a2f5ff1b6ce06889", "lat": 38.91598316666666, "is_reserved": 0, "fusion_lat": 0.0, "rental_uris": {"android": "https://dc.lft.to/lastmile_qr_scan", "ios": "https://dc.lft.to/lastmile_qr_scan"}, "fusion_lon": 0.0, "name": "dcdc885bcbe2a9f6a2f5ff1b6ce06889", "lon": -77.00195333333333, "is_disabled": 0, "type": "electric_scooter"}, {"bike_id": "2342aacb4db6b87cf17449ebc452a70c", "lat": 38.9361095, "is_reserved": 0, "fusion_lat": 0.0, "rental_uris": {"android": "https://dc.lft.to/lastmile_qr_scan", "ios": "https://dc.lft.to/lastmile_qr_scan"}, "fusion_lon": 0.0, "name": "2342aacb4db6b87cf17449ebc452a70c", "lon": -77.0589735, "is_disabled": 0, "type": "electric_scooter"}, {"bike_id": "3ebbe6c2cfc03ca49548c0d42e2c167c", "lat": 38.922364, "is_reserved": 0, "fusion_lat": 0.0, "rental_uris": {"android": "https://dc.lft.to/lastmile_qr_scan", "ios": "https://dc.lft.to/lastmile_qr_scan"}, "fusion_lon": 0.0, "name": "3ebbe6c2cfc03ca49548c0d42e2c167c", "lon": -77.02327633333333, "is_disabled": 0, "type": "electric_scooter"}, {"bike_id": "7fae5f3781aaf08e92b69b713ad3a5ec", "lat": 38.89227116666667, "is_reserved": 0, "fusion_lat": 0.0, "rental_uris": {"android": "https://dc.lft.to/lastmile_qr_scan", "ios": "https://dc.lft.to/lastmile_qr_scan"}, "fusion_lon": 0.0, "name": "7fae5f3781aaf08e92b69b713ad3a5ec", "lon": -77.048667, "is_disabled": 0, "type": "electric_scooter"}, {"bike_id": "46cf07af225db1875aea34536bab6459", "lat": 38.94114366666667, "is_reserved": 0, "fusion_lat": 0.0, "rental_uris": {"android": "https://dc.lft.to/lastmile_qr_scan", "ios": "https://dc.lft.to/lastmile_qr_scan"}, "fusion_lon": 0.0, "name": "46cf07af225db1875aea34536bab6459", "lon": -77.02534933333334, "is_disabled": 0, "type": "electric_scooter"}, {"bike_id": "bb251865192a6dfecfc5260bb6d7dda5", "lat": 38.9112335, "is_reserved": 0, "fusion_lat": 0.0, "rental_uris": {"android": "https://dc.lft.to/lastmile_qr_scan", "ios": "https://dc.lft.to/lastmile_qr_scan"}, "fusion_lon": 0.0, "name": "bb251865192a6dfecfc5260bb6d7dda5", "lon": -77.03147033333333, "is_disabled": 0, "type": "electric_scooter"}, {"bike_id": "ea0afe68b304f4efdfa12f88cfe33639", "lat": 38.902622666666666, "is_reserved": 0, "fusion_lat": 0.0, "rental_uris": {"android": "https://dc.lft.to/lastmile_qr_scan", "ios": "https://dc.lft.to/lastmile_qr_scan"}, "fusion_lon": 0.0, "name": "ea0afe68b304f4efdfa12f88cfe33639", "lon": -77.048004, "is_disabled": 0, "type": "electric_scooter"}, {"bike_id": "a9e9286d46fd43515fe161ef53010184", "lat": 38.923240666666665, "is_reserved": 0, "fusion_lat": 0.0, "rental_uris": {"android": "https://dc.lft.to/lastmile_qr_scan", "ios": "https://dc.lft.to/lastmile_qr_scan"}, "fusion_lon": 0.0, "name": "a9e9286d46fd43515fe161ef53010184", "lon": -77.0296635, "is_disabled": 0, "type": "electric_scooter"}, {"bike_id": "630d5ac8ffa5830d4b4ec70aaf34ff31", "lat": 38.92150433333333, "is_reserved": 0, "fusion_lat": 0.0, "rental_uris": {"android": "https://dc.lft.to/lastmile_qr_scan", "ios": "https://dc.lft.to/lastmile_qr_scan"}, "fusion_lon": 0.0, "name": "630d5ac8ffa5830d4b4ec70aaf34ff31", "lon": -77.034418, "is_disabled": 0, "type": "electric_scooter"}, {"bike_id": "6c850a2a24a450d9f7030da5ff37a695", "lat": 38.90975916666667, "is_reserved": 0, "fusion_lat": 0.0, "rental_uris": {"android": "https://dc.lft.to/lastmile_qr_scan", "ios": "https://dc.lft.to/lastmile_qr_scan"}, "fusion_lon": 0.0, "name": "6c850a2a24a450d9f7030da5ff37a695", "lon": -77.01715766666666, "is_disabled": 0, "type": "electric_scooter"}, {"bike_id": "e2f868ea44c91349983d3dbe9f5c2e29", "lat": 38.91555783333333, "is_reserved": 0, "fusion_lat": 0.0, "rental_uris": {"android": "https://dc.lft.to/lastmile_qr_scan", "ios": "https://dc.lft.to/lastmile_qr_scan"}, "fusion_lon": 0.0, "name": "e2f868ea44c91349983d3dbe9f5c2e29", "lon": -77.03325416666667, "is_disabled": 0, "type": "electric_scooter"}, {"bike_id": "5418fcb8757ab583cb1e5260eedc3aa4", "lat": 38.9656, "is_reserved": 0, "fusion_lat": 0.0, "rental_uris": {"android": "https://dc.lft.to/lastmile_qr_scan", "ios": "https://dc.lft.to/lastmile_qr_scan"}, "fusion_lon": 0.0, "name": "5418fcb8757ab583cb1e5260eedc3aa4", "lon": -77.00202166666666, "is_disabled": 0, "type": "electric_scooter"}, {"bike_id": "76fd7d4b0059ebd4484dca350158e1f2", "lat": 38.9059485, "is_reserved": 0, "fusion_lat": 0.0, "rental_uris": {"android": "https://dc.lft.to/lastmile_qr_scan", "ios": "https://dc.lft.to/lastmile_qr_scan"}, "fusion_lon": 0.0, "name": "76fd7d4b0059ebd4484dca350158e1f2", "lon": -77.04691083333333, "is_disabled": 0, "type": "electric_scooter"}, {"bike_id": "d9a25150fe538de986b089ec8c6babfa", "lat": 38.923048666666666, "is_reserved": 0, "fusion_lat": 0.0, "rental_uris": {"android": "https://dc.lft.to/lastmile_qr_scan", "ios": "https://dc.lft.to/lastmile_qr_scan"}, "fusion_lon": 0.0, "name": "d9a25150fe538de986b089ec8c6babfa", "lon": -77.04178966666667, "is_disabled": 0, "type": "electric_scooter"}, {"bike_id": "67a9097690c1ad4fbb0508b505cb8c49", "lat": 38.89221966666667, "is_reserved": 0, "fusion_lat": 0.0, "rental_uris": {"android": "https://dc.lft.to/lastmile_qr_scan", "ios": "https://dc.lft.to/lastmile_qr_scan"}, "fusion_lon": 0.0, "name": "67a9097690c1ad4fbb0508b505cb8c49", "lon": -77.04368016666666, "is_disabled": 0, "type": "electric_scooter"}, {"bike_id": "40f08112361d6a26d6b045c137296ec0", "lat": 38.88300183333333, "is_reserved": 0, "fusion_lat": 0.0, "rental_uris": {"android": "https://dc.lft.to/lastmile_qr_scan", "ios": "https://dc.lft.to/lastmile_qr_scan"}, "fusion_lon": 0.0, "name": "40f08112361d6a26d6b045c137296ec0", "lon": -76.94205366666667, "is_disabled": 0, "type": "electric_scooter"}, {"bike_id": "802dfdff4f1634a183b2925d020bcc79", "lat": 38.932490333333334, "is_reserved": 0, "fusion_lat": 0.0, "rental_uris": {"android": "https://dc.lft.to/lastmile_qr_scan", "ios": "https://dc.lft.to/lastmile_qr_scan"}, "fusion_lon": 0.0, "name": "802dfdff4f1634a183b2925d020bcc79", "lon": -77.03281483333333, "is_disabled": 0, "type": "electric_scooter"}, {"bike_id": "f58dc880e493ba663ae9eba3fd105340", "lat": 38.81993283333333, "is_reserved": 0, "fusion_lat": 0.0, "rental_uris": {"android": "https://dc.lft.to/lastmile_qr_scan", "ios": "https://dc.lft.to/lastmile_qr_scan"}, "fusion_lon": 0.0, "name": "f58dc880e493ba663ae9eba3fd105340", "lon": -76.998095, "is_disabled": 0, "type": "electric_bike"}, {"bike_id": "11b2a8501c253a4c7abd43f21d3102ce", "lat": 38.90590683333333, "is_reserved": 0, "fusion_lat": 0.0, "rental_uris": {"android": "https://dc.lft.to/lastmile_qr_scan", "ios": "https://dc.lft.to/lastmile_qr_scan"}, "fusion_lon": 0.0, "name": "11b2a8501c253a4c7abd43f21d3102ce", "lon": -77.06986983333333, "is_disabled": 0, "type": "electric_bike"}, {"bike_id": "9e28e45e91721ef323833b190d27fac5", "lat": 38.9003075, "is_reserved": 0, "fusion_lat": 0.0, "rental_uris": {"android": "https://dc.lft.to/lastmile_qr_scan", "ios": "https://dc.lft.to/lastmile_qr_scan"}, "fusion_lon": 0.0, "name": "9e28e45e91721ef323833b190d27fac5", "lon": -76.986587, "is_disabled": 0, "type": "electric_scooter"}, {"bike_id": "dd5a1d4943b9b603ea353d3f312cdcc7", "lat": 38.85715533333333, "is_reserved": 0, "fusion_lat": 0.0, "rental_uris": {"android": "https://dc.lft.to/lastmile_qr_scan", "ios": "https://dc.lft.to/lastmile_qr_scan"}, "fusion_lon": 0.0, "name": "dd5a1d4943b9b603ea353d3f312cdcc7", "lon": -76.9898205, "is_disabled": 0, "type": "electric_scooter"}, {"bike_id": "65e4a3a9d1084334d5c16c12ffa97c62", "lat": 38.871224833333336, "is_reserved": 0, "fusion_lat": 0.0, "rental_uris": {"android": "https://dc.lft.to/lastmile_qr_scan", "ios": "https://dc.lft.to/lastmile_qr_scan"}, "fusion_lon": 0.0, "name": "65e4a3a9d1084334d5c16c12ffa97c62", "lon": -76.982372, "is_disabled": 0, "type": "electric_scooter"}, {"bike_id": "96678e83295627882d7c4d0700803a78", "lat": 38.905616, "is_reserved": 0, "fusion_lat": 0.0, "rental_uris": {"android": "https://dc.lft.to/lastmile_qr_scan", "ios": "https://dc.lft.to/lastmile_qr_scan"}, "fusion_lon": 0.0, "name": "96678e83295627882d7c4d0700803a78", "lon": -77.02209283333333, "is_disabled": 0, "type": "electric_scooter"}, {"bike_id": "c96127abc4c2965c3deb5b45f0736aef", "lat": 38.90392466666667, "is_reserved": 0, "fusion_lat": 0.0, "rental_uris": {"android": "https://dc.lft.to/lastmile_qr_scan", "ios": "https://dc.lft.to/lastmile_qr_scan"}, "fusion_lon": 0.0, "name": "c96127abc4c2965c3deb5b45f0736aef", "lon": -77.01781983333333, "is_disabled": 0, "type": "electric_scooter"}, {"bike_id": "3116c8c1790a36a4023a44ac222dde24", "lat": 38.90748816666667, "is_reserved": 0, "fusion_lat": 0.0, "rental_uris": {"android": "https://dc.lft.to/lastmile_qr_scan", "ios": "https://dc.lft.to/lastmile_qr_scan"}, "fusion_lon": 0.0, "name": "3116c8c1790a36a4023a44ac222dde24", "lon": -77.0418725, "is_disabled": 0, "type": "electric_scooter"}, {"bike_id": "cc80a090d607d659ebd08e72fb705978", "lat": 38.926934, "is_reserved": 0, "fusion_lat": 0.0, "rental_uris": {"android": "https://dc.lft.to/lastmile_qr_scan", "ios": "https://dc.lft.to/lastmile_qr_scan"}, "fusion_lon": 0.0, "name": "cc80a090d607d659ebd08e72fb705978", "lon": -77.01482583333333, "is_disabled": 0, "type": "electric_scooter"}, {"bike_id": "b8c618e75aee88b516ca36dd885c85e0", "lat": 38.919859, "is_reserved": 0, "fusion_lat": 0.0, "rental_uris": {"android": "https://dc.lft.to/lastmile_qr_scan", "ios": "https://dc.lft.to/lastmile_qr_scan"}, "fusion_lon": 0.0, "name": "b8c618e75aee88b516ca36dd885c85e0", "lon": -77.04081616666667, "is_disabled": 0, "type": "electric_scooter"}, {"bike_id": "efd0d6738fe303b29e205b8109a4f297", "lat": 38.91111016666667, "is_reserved": 0, "fusion_lat": 0.0, "rental_uris": {"android": "https://dc.lft.to/lastmile_qr_scan", "ios": "https://dc.lft.to/lastmile_qr_scan"}, "fusion_lon": 0.0, "name": "efd0d6738fe303b29e205b8109a4f297", "lon": -77.0446945, "is_disabled": 0, "type": "electric_scooter"}, {"bike_id": "89116444159832128c5efde80c799cdc", "lat": 38.89487, "is_reserved": 0, "fusion_lat": 0.0, "rental_uris": {"android": "https://dc.lft.to/lastmile_qr_scan", "ios": "https://dc.lft.to/lastmile_qr_scan"}, "fusion_lon": 0.0, "name": "89116444159832128c5efde80c799cdc", "lon": -76.949506, "is_disabled": 0, "type": "electric_scooter"}, {"bike_id": "780268bd9692d2a65c727b16058db44b", "lat": 38.89531433333333, "is_reserved": 0, "fusion_lat": 0.0, "rental_uris": {"android": "https://dc.lft.to/lastmile_qr_scan", "ios": "https://dc.lft.to/lastmile_qr_scan"}, "fusion_lon": 0.0, "name": "780268bd9692d2a65c727b16058db44b", "lon": -77.00345783333333, "is_disabled": 0, "type": "electric_scooter"}, {"bike_id": "224d35e11b47a86764ff8cee6f8ff56e", "lat": 38.902726333333334, "is_reserved": 0, "fusion_lat": 0.0, "rental_uris": {"android": "https://dc.lft.to/lastmile_qr_scan", "ios": "https://dc.lft.to/lastmile_qr_scan"}, "fusion_lon": 0.0, "name": "224d35e11b47a86764ff8cee6f8ff56e", "lon": -77.04543583333333, "is_disabled": 0, "type": "electric_scooter"}, {"bike_id": "8f157c18c23ab11153fbfc78882f3c35", "lat": 38.91247833333333, "is_reserved": 0, "fusion_lat": 0.0, "rental_uris": {"android": "https://dc.lft.to/lastmile_qr_scan", "ios": "https://dc.lft.to/lastmile_qr_scan"}, "fusion_lon": 0.0, "name": "8f157c18c23ab11153fbfc78882f3c35", "lon": -77.03209566666666, "is_disabled": 0, "type": "electric_scooter"}, {"bike_id": "13320f012bb059b09ec9fa666e3e31af", "lat": 38.896115, "is_reserved": 0, "fusion_lat": 0.0, "rental_uris": {"android": "https://dc.lft.to/lastmile_qr_scan", "ios": "https://dc.lft.to/lastmile_qr_scan"}, "fusion_lon": 0.0, "name": "13320f012bb059b09ec9fa666e3e31af", "lon": -77.05040133333334, "is_disabled": 0, "type": "electric_scooter"}, {"bike_id": "9697ad7327965ea020d93000c2702dd5", "lat": 38.901962833333336, "is_reserved": 0, "fusion_lat": 0.0, "rental_uris": {"android": "https://dc.lft.to/lastmile_qr_scan", "ios": "https://dc.lft.to/lastmile_qr_scan"}, "fusion_lon": 0.0, "name": "9697ad7327965ea020d93000c2702dd5", "lon": -77.05046183333333, "is_disabled": 0, "type": "electric_scooter"}, {"bike_id": "49d1815558b0abf4a49fa27834f2bcab", "lat": 39.057898, "is_reserved": 0, "fusion_lat": 0.0, "rental_uris": {"android": "https://dc.lft.to/lastmile_qr_scan", "ios": "https://dc.lft.to/lastmile_qr_scan"}, "fusion_lon": 0.0, "name": "49d1815558b0abf4a49fa27834f2bcab", "lon": -77.15023466666666, "is_disabled": 0, "type": "electric_bike"}, {"bike_id": "a30638e99f03e30d604e75644aed7ea4", "lat": 38.903828, "is_reserved": 0, "fusion_lat": 0.0, "rental_uris": {"android": "https://dc.lft.to/lastmile_qr_scan", "ios": "https://dc.lft.to/lastmile_qr_scan"}, "fusion_lon": 0.0, "name": "a30638e99f03e30d604e75644aed7ea4", "lon": -77.038608, "is_disabled": 0, "type": "electric_scooter"}, {"bike_id": "a855d1d544e8d113c6cf380ac045c91a", "lat": 38.90761333333333, "is_reserved": 0, "fusion_lat": 0.0, "rental_uris": {"android": "https://dc.lft.to/lastmile_qr_scan", "ios": "https://dc.lft.to/lastmile_qr_scan"}, "fusion_lon": 0.0, "name": "a855d1d544e8d113c6cf380ac045c91a", "lon": -77.0320165, "is_disabled": 0, "type": "electric_scooter"}, {"bike_id": "d17136d52d938e200140d0861cc3fbe3", "lat": 38.915458, "is_reserved": 0, "fusion_lat": 0.0, "rental_uris": {"android": "https://dc.lft.to/lastmile_qr_scan", "ios": "https://dc.lft.to/lastmile_qr_scan"}, "fusion_lon": 0.0, "name": "d17136d52d938e200140d0861cc3fbe3", "lon": -77.04458033333333, "is_disabled": 0, "type": "electric_scooter"}, {"bike_id": "ba99bd4b429018cb34a042271dc292e7", "lat": 38.87864966666667, "is_reserved": 0, "fusion_lat": 0.0, "rental_uris": {"android": "https://dc.lft.to/lastmile_qr_scan", "ios": "https://dc.lft.to/lastmile_qr_scan"}, "fusion_lon": 0.0, "name": "ba99bd4b429018cb34a042271dc292e7", "lon": -77.01765166666667, "is_disabled": 0, "type": "electric_scooter"}, {"bike_id": "7999d4fd12c518f8dfbe8a77967ee733", "lat": 38.87505183333333, "is_reserved": 0, "fusion_lat": 0.0, "rental_uris": {"android": "https://dc.lft.to/lastmile_qr_scan", "ios": "https://dc.lft.to/lastmile_qr_scan"}, "fusion_lon": 0.0, "name": "7999d4fd12c518f8dfbe8a77967ee733", "lon": -77.0123255, "is_disabled": 0, "type": "electric_scooter"}, {"bike_id": "44e77ccb507c4e168af6be8ecd780e0b", "lat": 38.809133833333334, "is_reserved": 0, "fusion_lat": 0.0, "rental_uris": {"android": "https://dc.lft.to/lastmile_qr_scan", "ios": "https://dc.lft.to/lastmile_qr_scan"}, "fusion_lon": 0.0, "name": "44e77ccb507c4e168af6be8ecd780e0b", "lon": -77.0866, "is_disabled": 0, "type": "electric_bike"}, {"bike_id": "3794f3d5766e0321c5707ba2cdbaa224", "lat": 38.9025185, "is_reserved": 0, "fusion_lat": 0.0, "rental_uris": {"android": "https://dc.lft.to/lastmile_qr_scan", "ios": "https://dc.lft.to/lastmile_qr_scan"}, "fusion_lon": 0.0, "name": "3794f3d5766e0321c5707ba2cdbaa224", "lon": -77.03943583333333, "is_disabled": 0, "type": "electric_scooter"}, {"bike_id": "b47766d64f78c0d3c6a4180adf5cd824", "lat": 38.86511516666667, "is_reserved": 0, "fusion_lat": 0.0, "rental_uris": {"android": "https://dc.lft.to/lastmile_qr_scan", "ios": "https://dc.lft.to/lastmile_qr_scan"}, "fusion_lon": 0.0, "name": "b47766d64f78c0d3c6a4180adf5cd824", "lon": -76.99011883333333, "is_disabled": 0, "type": "electric_scooter"}, {"bike_id": "7e7bffbb509be0d6faa6e461b80aecbf", "lat": 38.921481166666666, "is_reserved": 0, "fusion_lat": 0.0, "rental_uris": {"android": "https://dc.lft.to/lastmile_qr_scan", "ios": "https://dc.lft.to/lastmile_qr_scan"}, "fusion_lon": 0.0, "name": "7e7bffbb509be0d6faa6e461b80aecbf", "lon": -77.02097, "is_disabled": 0, "type": "electric_scooter"}, {"bike_id": "39c80dd9597da0c7d6d2543cd3def2dd", "lat": 38.917743, "is_reserved": 0, "fusion_lat": 0.0, "rental_uris": {"android": "https://dc.lft.to/lastmile_qr_scan", "ios": "https://dc.lft.to/lastmile_qr_scan"}, "fusion_lon": 0.0, "name": "39c80dd9597da0c7d6d2543cd3def2dd", "lon": -77.02951116666667, "is_disabled": 0, "type": "electric_scooter"}, {"bike_id": "f724f43e16cbda7f8f71be401c0d84ff", "lat": 38.892412, "is_reserved": 0, "fusion_lat": 0.0, "rental_uris": {"android": "https://dc.lft.to/lastmile_qr_scan", "ios": "https://dc.lft.to/lastmile_qr_scan"}, "fusion_lon": 0.0, "name": "f724f43e16cbda7f8f71be401c0d84ff", "lon": -76.95336716666667, "is_disabled": 0, "type": "electric_scooter"}, {"bike_id": "47577ff4ec28c75aaded2718586c9b6a", "lat": 38.89233266666667, "is_reserved": 0, "fusion_lat": 0.0, "rental_uris": {"android": "https://dc.lft.to/lastmile_qr_scan", "ios": "https://dc.lft.to/lastmile_qr_scan"}, "fusion_lon": 0.0, "name": "47577ff4ec28c75aaded2718586c9b6a", "lon": -77.04676366666666, "is_disabled": 0, "type": "electric_scooter"}, {"bike_id": "6ec8d4ed1cb8b31c8a85eb8b38a7857a", "lat": 38.9267475, "is_reserved": 0, "fusion_lat": 0.0, "rental_uris": {"android": "https://dc.lft.to/lastmile_qr_scan", "ios": "https://dc.lft.to/lastmile_qr_scan"}, "fusion_lon": 0.0, "name": "6ec8d4ed1cb8b31c8a85eb8b38a7857a", "lon": -77.07320283333334, "is_disabled": 0, "type": "electric_scooter"}, {"bike_id": "73145c5a1497a53db2f6f01851e75bc7", "lat": 38.900958333333335, "is_reserved": 0, "fusion_lat": 0.0, "rental_uris": {"android": "https://dc.lft.to/lastmile_qr_scan", "ios": "https://dc.lft.to/lastmile_qr_scan"}, "fusion_lon": 0.0, "name": "73145c5a1497a53db2f6f01851e75bc7", "lon": -76.983389, "is_disabled": 0, "type": "electric_scooter"}, {"bike_id": "d1d66da1d07c21eeca7226546a8df6da", "lat": 38.916463, "is_reserved": 0, "fusion_lat": 0.0, "rental_uris": {"android": "https://dc.lft.to/lastmile_qr_scan", "ios": "https://dc.lft.to/lastmile_qr_scan"}, "fusion_lon": 0.0, "name": "d1d66da1d07c21eeca7226546a8df6da", "lon": -77.03198316666666, "is_disabled": 0, "type": "electric_scooter"}, {"bike_id": "d86f849dd132e4597c549970e502f0cc", "lat": 38.899956833333334, "is_reserved": 0, "fusion_lat": 0.0, "rental_uris": {"android": "https://dc.lft.to/lastmile_qr_scan", "ios": "https://dc.lft.to/lastmile_qr_scan"}, "fusion_lon": 0.0, "name": "d86f849dd132e4597c549970e502f0cc", "lon": -77.02712516666666, "is_disabled": 0, "type": "electric_scooter"}, {"bike_id": "3cb1c6acc1c54240420b2c014bd0f1b5", "lat": 38.8846985, "is_reserved": 0, "fusion_lat": 0.0, "rental_uris": {"android": "https://dc.lft.to/lastmile_qr_scan", "ios": "https://dc.lft.to/lastmile_qr_scan"}, "fusion_lon": 0.0, "name": "3cb1c6acc1c54240420b2c014bd0f1b5", "lon": -77.0004745, "is_disabled": 0, "type": "electric_scooter"}, {"bike_id": "cc04129dab25eae1822a223d39c8e0c2", "lat": 38.900486, "is_reserved": 0, "fusion_lat": 0.0, "rental_uris": {"android": "https://dc.lft.to/lastmile_qr_scan", "ios": "https://dc.lft.to/lastmile_qr_scan"}, "fusion_lon": 0.0, "name": "cc04129dab25eae1822a223d39c8e0c2", "lon": -77.04369483333333, "is_disabled": 0, "type": "electric_bike"}, {"bike_id": "ae13f831db02e8de7dd2ee571661d69e", "lat": 38.91810366666667, "is_reserved": 0, "fusion_lat": 0.0, "rental_uris": {"android": "https://dc.lft.to/lastmile_qr_scan", "ios": "https://dc.lft.to/lastmile_qr_scan"}, "fusion_lon": 0.0, "name": "ae13f831db02e8de7dd2ee571661d69e", "lon": -77.030757, "is_disabled": 0, "type": "electric_scooter"}, {"bike_id": "cd4728fd13e7c345694e302aa44946d4", "lat": 38.90292983333333, "is_reserved": 0, "fusion_lat": 0.0, "rental_uris": {"android": "https://dc.lft.to/lastmile_qr_scan", "ios": "https://dc.lft.to/lastmile_qr_scan"}, "fusion_lon": 0.0, "name": "cd4728fd13e7c345694e302aa44946d4", "lon": -77.046952, "is_disabled": 0, "type": "electric_scooter"}, {"bike_id": "065b5409372d008dc51628221e2259f1", "lat": 38.89224266666667, "is_reserved": 0, "fusion_lat": 0.0, "rental_uris": {"android": "https://dc.lft.to/lastmile_qr_scan", "ios": "https://dc.lft.to/lastmile_qr_scan"}, "fusion_lon": 0.0, "name": "065b5409372d008dc51628221e2259f1", "lon": -77.0321505, "is_disabled": 0, "type": "electric_scooter"}, {"bike_id": "19190141f4ba70318942c99db1ac7d52", "lat": 38.914060166666665, "is_reserved": 0, "fusion_lat": 0.0, "rental_uris": {"android": "https://dc.lft.to/lastmile_qr_scan", "ios": "https://dc.lft.to/lastmile_qr_scan"}, "fusion_lon": 0.0, "name": "19190141f4ba70318942c99db1ac7d52", "lon": -77.01646866666667, "is_disabled": 0, "type": "electric_scooter"}, {"bike_id": "f7394957c233ec0127663a2741dc0878", "lat": 38.896603666666664, "is_reserved": 0, "fusion_lat": 0.0, "rental_uris": {"android": "https://dc.lft.to/lastmile_qr_scan", "ios": "https://dc.lft.to/lastmile_qr_scan"}, "fusion_lon": 0.0, "name": "f7394957c233ec0127663a2741dc0878", "lon": -77.02725983333333, "is_disabled": 0, "type": "electric_scooter"}, {"bike_id": "9e3b23e99a7956980bade3abd55bbb7c", "lat": 38.94004316666667, "is_reserved": 0, "fusion_lat": 0.0, "rental_uris": {"android": "https://dc.lft.to/lastmile_qr_scan", "ios": "https://dc.lft.to/lastmile_qr_scan"}, "fusion_lon": 0.0, "name": "9e3b23e99a7956980bade3abd55bbb7c", "lon": -77.03802616666667, "is_disabled": 0, "type": "electric_scooter"}, {"bike_id": "550054383d6557cd8c6376ccc58cbf49", "lat": 38.896522, "is_reserved": 0, "fusion_lat": 0.0, "rental_uris": {"android": "https://dc.lft.to/lastmile_qr_scan", "ios": "https://dc.lft.to/lastmile_qr_scan"}, "fusion_lon": 0.0, "name": "550054383d6557cd8c6376ccc58cbf49", "lon": -77.0502255, "is_disabled": 0, "type": "electric_scooter"}, {"bike_id": "424edb9dc0fa81ff04f9007eb6fd95e4", "lat": 38.922309, "is_reserved": 0, "fusion_lat": 0.0, "rental_uris": {"android": "https://dc.lft.to/lastmile_qr_scan", "ios": "https://dc.lft.to/lastmile_qr_scan"}, "fusion_lon": 0.0, "name": "424edb9dc0fa81ff04f9007eb6fd95e4", "lon": -77.04376766666667, "is_disabled": 0, "type": "electric_scooter"}, {"bike_id": "06e98d5d4fbc03de850b5e058c51de95", "lat": 38.898677666666664, "is_reserved": 0, "fusion_lat": 0.0, "rental_uris": {"android": "https://dc.lft.to/lastmile_qr_scan", "ios": "https://dc.lft.to/lastmile_qr_scan"}, "fusion_lon": 0.0, "name": "06e98d5d4fbc03de850b5e058c51de95", "lon": -77.01248166666667, "is_disabled": 0, "type": "electric_scooter"}, {"bike_id": "79f456b468a638d153b94aef627c1ee8", "lat": 38.895104833333335, "is_reserved": 0, "fusion_lat": 0.0, "rental_uris": {"android": "https://dc.lft.to/lastmile_qr_scan", "ios": "https://dc.lft.to/lastmile_qr_scan"}, "fusion_lon": 0.0, "name": "79f456b468a638d153b94aef627c1ee8", "lon": -77.00339133333334, "is_disabled": 0, "type": "electric_scooter"}, {"bike_id": "115b28528fad11670f4b2ce7499c3ff1", "lat": 38.930015166666664, "is_reserved": 0, "fusion_lat": 0.0, "rental_uris": {"android": "https://dc.lft.to/lastmile_qr_scan", "ios": "https://dc.lft.to/lastmile_qr_scan"}, "fusion_lon": 0.0, "name": "115b28528fad11670f4b2ce7499c3ff1", "lon": -77.0130475, "is_disabled": 0, "type": "electric_scooter"}, {"bike_id": "a741d686309a6b4731a6b371c016089d", "lat": 38.896433, "is_reserved": 0, "fusion_lat": 0.0, "rental_uris": {"android": "https://dc.lft.to/lastmile_qr_scan", "ios": "https://dc.lft.to/lastmile_qr_scan"}, "fusion_lon": 0.0, "name": "a741d686309a6b4731a6b371c016089d", "lon": -77.02805583333334, "is_disabled": 0, "type": "electric_scooter"}, {"bike_id": "406c51dbc6a5221428ee29206ff36809", "lat": 38.92315166666667, "is_reserved": 0, "fusion_lat": 0.0, "rental_uris": {"android": "https://dc.lft.to/lastmile_qr_scan", "ios": "https://dc.lft.to/lastmile_qr_scan"}, "fusion_lon": 0.0, "name": "406c51dbc6a5221428ee29206ff36809", "lon": -77.02978483333334, "is_disabled": 0, "type": "electric_scooter"}, {"bike_id": "646d58ea8da925e3af321e8d9bd9d06e", "lat": 38.90228583333333, "is_reserved": 0, "fusion_lat": 0.0, "rental_uris": {"android": "https://dc.lft.to/lastmile_qr_scan", "ios": "https://dc.lft.to/lastmile_qr_scan"}, "fusion_lon": 0.0, "name": "646d58ea8da925e3af321e8d9bd9d06e", "lon": -77.01994683333334, "is_disabled": 0, "type": "electric_scooter"}, {"bike_id": "07b694997c234e5475f4c53a59bfa92f", "lat": 38.9028815, "is_reserved": 0, "fusion_lat": 0.0, "rental_uris": {"android": "https://dc.lft.to/lastmile_qr_scan", "ios": "https://dc.lft.to/lastmile_qr_scan"}, "fusion_lon": 0.0, "name": "07b694997c234e5475f4c53a59bfa92f", "lon": -77.04586766666667, "is_disabled": 0, "type": "electric_scooter"}, {"bike_id": "8282e87260414d7ab5f9196c6275ba54", "lat": 38.9059535, "is_reserved": 0, "fusion_lat": 0.0, "rental_uris": {"android": "https://dc.lft.to/lastmile_qr_scan", "ios": "https://dc.lft.to/lastmile_qr_scan"}, "fusion_lon": 0.0, "name": "8282e87260414d7ab5f9196c6275ba54", "lon": -77.04356, "is_disabled": 0, "type": "electric_scooter"}, {"bike_id": "3611a46c7e6f134202fb0a170bb3c3c0", "lat": 38.937769833333334, "is_reserved": 0, "fusion_lat": 0.0, "rental_uris": {"android": "https://dc.lft.to/lastmile_qr_scan", "ios": "https://dc.lft.to/lastmile_qr_scan"}, "fusion_lon": 0.0, "name": "3611a46c7e6f134202fb0a170bb3c3c0", "lon": -77.0360895, "is_disabled": 0, "type": "electric_scooter"}, {"bike_id": "ad094e35e01a8f545e11a48118f66e95", "lat": 38.9008445, "is_reserved": 0, "fusion_lat": 0.0, "rental_uris": {"android": "https://dc.lft.to/lastmile_qr_scan", "ios": "https://dc.lft.to/lastmile_qr_scan"}, "fusion_lon": 0.0, "name": "ad094e35e01a8f545e11a48118f66e95", "lon": -77.01224, "is_disabled": 0, "type": "electric_scooter"}, {"bike_id": "89300052bccff20701263ad1141b0db0", "lat": 38.88518533333333, "is_reserved": 0, "fusion_lat": 0.0, "rental_uris": {"android": "https://dc.lft.to/lastmile_qr_scan", "ios": "https://dc.lft.to/lastmile_qr_scan"}, "fusion_lon": 0.0, "name": "89300052bccff20701263ad1141b0db0", "lon": -77.01721516666667, "is_disabled": 0, "type": "electric_scooter"}, {"bike_id": "0a2dac0fe2f2941cb70f306c9050af4b", "lat": 38.92475916666667, "is_reserved": 0, "fusion_lat": 0.0, "rental_uris": {"android": "https://dc.lft.to/lastmile_qr_scan", "ios": "https://dc.lft.to/lastmile_qr_scan"}, "fusion_lon": 0.0, "name": "0a2dac0fe2f2941cb70f306c9050af4b", "lon": -77.03782733333334, "is_disabled": 0, "type": "electric_scooter"}, {"bike_id": "380380875c0d3225a365c28ade8a1d0d", "lat": 38.90062, "is_reserved": 0, "fusion_lat": 0.0, "rental_uris": {"android": "https://dc.lft.to/lastmile_qr_scan", "ios": "https://dc.lft.to/lastmile_qr_scan"}, "fusion_lon": 0.0, "name": "380380875c0d3225a365c28ade8a1d0d", "lon": -77.05080216666667, "is_disabled": 0, "type": "electric_scooter"}, {"bike_id": "446036da44ac5f03f211ae535c710d37", "lat": 38.875404, "is_reserved": 0, "fusion_lat": 0.0, "rental_uris": {"android": "https://dc.lft.to/lastmile_qr_scan", "ios": "https://dc.lft.to/lastmile_qr_scan"}, "fusion_lon": 0.0, "name": "446036da44ac5f03f211ae535c710d37", "lon": -77.006181, "is_disabled": 0, "type": "electric_scooter"}, {"bike_id": "cad4a29a19c7218c549efe296f81a458", "lat": 38.9064235, "is_reserved": 0, "fusion_lat": 0.0, "rental_uris": {"android": "https://dc.lft.to/lastmile_qr_scan", "ios": "https://dc.lft.to/lastmile_qr_scan"}, "fusion_lon": 0.0, "name": "cad4a29a19c7218c549efe296f81a458", "lon": -77.01789066666667, "is_disabled": 0, "type": "electric_scooter"}, {"bike_id": "a1290837289c2746538ea1e41170d6d0", "lat": 38.91818883333333, "is_reserved": 0, "fusion_lat": 0.0, "rental_uris": {"android": "https://dc.lft.to/lastmile_qr_scan", "ios": "https://dc.lft.to/lastmile_qr_scan"}, "fusion_lon": 0.0, "name": "a1290837289c2746538ea1e41170d6d0", "lon": -77.0025865, "is_disabled": 0, "type": "electric_scooter"}, {"bike_id": "1515f39d37cda2e76263b8089caef9a8", "lat": 38.89206266666667, "is_reserved": 0, "fusion_lat": 0.0, "rental_uris": {"android": "https://dc.lft.to/lastmile_qr_scan", "ios": "https://dc.lft.to/lastmile_qr_scan"}, "fusion_lon": 0.0, "name": "1515f39d37cda2e76263b8089caef9a8", "lon": -77.00294933333333, "is_disabled": 0, "type": "electric_scooter"}, {"bike_id": "fd545e4ff2846849273260e1357a8105", "lat": 38.9163835, "is_reserved": 0, "fusion_lat": 0.0, "rental_uris": {"android": "https://dc.lft.to/lastmile_qr_scan", "ios": "https://dc.lft.to/lastmile_qr_scan"}, "fusion_lon": 0.0, "name": "fd545e4ff2846849273260e1357a8105", "lon": -77.00045483333334, "is_disabled": 0, "type": "electric_scooter"}, {"bike_id": "4aa7a24dd2df5529606cef3c2206c7c1", "lat": 38.928632, "is_reserved": 0, "fusion_lat": 0.0, "rental_uris": {"android": "https://dc.lft.to/lastmile_qr_scan", "ios": "https://dc.lft.to/lastmile_qr_scan"}, "fusion_lon": 0.0, "name": "4aa7a24dd2df5529606cef3c2206c7c1", "lon": -77.03606683333334, "is_disabled": 0, "type": "electric_scooter"}, {"bike_id": "bea7357b925e1c8a274caad569ab8a71", "lat": 38.910338333333335, "is_reserved": 0, "fusion_lat": 0.0, "rental_uris": {"android": "https://dc.lft.to/lastmile_qr_scan", "ios": "https://dc.lft.to/lastmile_qr_scan"}, "fusion_lon": 0.0, "name": "bea7357b925e1c8a274caad569ab8a71", "lon": -76.98553833333334, "is_disabled": 0, "type": "electric_scooter"}, {"bike_id": "ad1bed1cd7b1e21f5bbfa2be67d47edc", "lat": 38.948312333333334, "is_reserved": 0, "fusion_lat": 0.0, "rental_uris": {"android": "https://dc.lft.to/lastmile_qr_scan", "ios": "https://dc.lft.to/lastmile_qr_scan"}, "fusion_lon": 0.0, "name": "ad1bed1cd7b1e21f5bbfa2be67d47edc", "lon": -77.08003583333333, "is_disabled": 0, "type": "electric_scooter"}, {"bike_id": "3a4b99eaa2a3b363539c35f3eb8f8bb4", "lat": 38.916107333333336, "is_reserved": 0, "fusion_lat": 0.0, "rental_uris": {"android": "https://dc.lft.to/lastmile_qr_scan", "ios": "https://dc.lft.to/lastmile_qr_scan"}, "fusion_lon": 0.0, "name": "3a4b99eaa2a3b363539c35f3eb8f8bb4", "lon": -77.0230045, "is_disabled": 0, "type": "electric_scooter"}, {"bike_id": "1d614bc95de4b49958741501fdb38c63", "lat": 38.859761166666665, "is_reserved": 0, "fusion_lat": 0.0, "rental_uris": {"android": "https://dc.lft.to/lastmile_qr_scan", "ios": "https://dc.lft.to/lastmile_qr_scan"}, "fusion_lon": 0.0, "name": "1d614bc95de4b49958741501fdb38c63", "lon": -76.991592, "is_disabled": 0, "type": "electric_scooter"}, {"bike_id": "e197b7b961e0fec4b9859a7a2ad14253", "lat": 38.885442166666664, "is_reserved": 0, "fusion_lat": 0.0, "rental_uris": {"android": "https://dc.lft.to/lastmile_qr_scan", "ios": "https://dc.lft.to/lastmile_qr_scan"}, "fusion_lon": 0.0, "name": "e197b7b961e0fec4b9859a7a2ad14253", "lon": -76.99621783333333, "is_disabled": 0, "type": "electric_scooter"}, {"bike_id": "18b46c5b6b6ed2c6522ebda4bb9ae3e6", "lat": 38.941843166666665, "is_reserved": 0, "fusion_lat": 0.0, "rental_uris": {"android": "https://dc.lft.to/lastmile_qr_scan", "ios": "https://dc.lft.to/lastmile_qr_scan"}, "fusion_lon": 0.0, "name": "18b46c5b6b6ed2c6522ebda4bb9ae3e6", "lon": -77.02486166666667, "is_disabled": 0, "type": "electric_scooter"}, {"bike_id": "c3587f1f521e6709bee5191dc86f4eec", "lat": 38.9288555, "is_reserved": 0, "fusion_lat": 0.0, "rental_uris": {"android": "https://dc.lft.to/lastmile_qr_scan", "ios": "https://dc.lft.to/lastmile_qr_scan"}, "fusion_lon": 0.0, "name": "c3587f1f521e6709bee5191dc86f4eec", "lon": -77.03327083333333, "is_disabled": 0, "type": "electric_scooter"}, {"bike_id": "635eaff80048481b0e4f8d3f6dde9cba", "lat": 38.956572, "is_reserved": 0, "fusion_lat": 0.0, "rental_uris": {"android": "https://dc.lft.to/lastmile_qr_scan", "ios": "https://dc.lft.to/lastmile_qr_scan"}, "fusion_lon": 0.0, "name": "635eaff80048481b0e4f8d3f6dde9cba", "lon": -77.01963383333333, "is_disabled": 0, "type": "electric_scooter"}, {"bike_id": "580d21600661162fe89edfc9bb6f362f", "lat": 38.93267133333333, "is_reserved": 0, "fusion_lat": 0.0, "rental_uris": {"android": "https://dc.lft.to/lastmile_qr_scan", "ios": "https://dc.lft.to/lastmile_qr_scan"}, "fusion_lon": 0.0, "name": "580d21600661162fe89edfc9bb6f362f", "lon": -77.0349815, "is_disabled": 0, "type": "electric_scooter"}, {"bike_id": "3fc9826f53339b58fc1762a9613ba5ea", "lat": 38.89244933333333, "is_reserved": 0, "fusion_lat": 0.0, "rental_uris": {"android": "https://dc.lft.to/lastmile_qr_scan", "ios": "https://dc.lft.to/lastmile_qr_scan"}, "fusion_lon": 0.0, "name": "3fc9826f53339b58fc1762a9613ba5ea", "lon": -76.94096066666667, "is_disabled": 0, "type": "electric_scooter"}, {"bike_id": "18933a309aecee207c49c617a624389a", "lat": 38.903937166666665, "is_reserved": 0, "fusion_lat": 0.0, "rental_uris": {"android": "https://dc.lft.to/lastmile_qr_scan", "ios": "https://dc.lft.to/lastmile_qr_scan"}, "fusion_lon": 0.0, "name": "18933a309aecee207c49c617a624389a", "lon": -77.029526, "is_disabled": 0, "type": "electric_scooter"}, {"bike_id": "524ab08c846ed0127f6460a690b4a7ef", "lat": 38.92028716666667, "is_reserved": 0, "fusion_lat": 0.0, "rental_uris": {"android": "https://dc.lft.to/lastmile_qr_scan", "ios": "https://dc.lft.to/lastmile_qr_scan"}, "fusion_lon": 0.0, "name": "524ab08c846ed0127f6460a690b4a7ef", "lon": -77.04204033333333, "is_disabled": 0, "type": "electric_scooter"}, {"bike_id": "2323061d78a7fc67e0eeeef4e91b7e44", "lat": 38.897951, "is_reserved": 0, "fusion_lat": 0.0, "rental_uris": {"android": "https://dc.lft.to/lastmile_qr_scan", "ios": "https://dc.lft.to/lastmile_qr_scan"}, "fusion_lon": 0.0, "name": "2323061d78a7fc67e0eeeef4e91b7e44", "lon": -77.024779, "is_disabled": 0, "type": "electric_scooter"}, {"bike_id": "f4f70a6111ff61c66f9ccc533aa8504e", "lat": 38.93516016666667, "is_reserved": 0, "fusion_lat": 0.0, "rental_uris": {"android": "https://dc.lft.to/lastmile_qr_scan", "ios": "https://dc.lft.to/lastmile_qr_scan"}, "fusion_lon": 0.0, "name": "f4f70a6111ff61c66f9ccc533aa8504e", "lon": -77.03289416666667, "is_disabled": 0, "type": "electric_scooter"}, {"bike_id": "87191438f3c75a20ee6291d017344347", "lat": 38.92881933333334, "is_reserved": 0, "fusion_lat": 0.0, "rental_uris": {"android": "https://dc.lft.to/lastmile_qr_scan", "ios": "https://dc.lft.to/lastmile_qr_scan"}, "fusion_lon": 0.0, "name": "87191438f3c75a20ee6291d017344347", "lon": -77.02701116666667, "is_disabled": 0, "type": "electric_scooter"}, {"bike_id": "cb0795b360b0048890a065037c1e5091", "lat": 38.897083, "is_reserved": 0, "fusion_lat": 0.0, "rental_uris": {"android": "https://dc.lft.to/lastmile_qr_scan", "ios": "https://dc.lft.to/lastmile_qr_scan"}, "fusion_lon": 0.0, "name": "cb0795b360b0048890a065037c1e5091", "lon": -77.04876733333333, "is_disabled": 0, "type": "electric_scooter"}, {"bike_id": "ecc5af480c1d81a36ce4f3e5e1f54869", "lat": 38.90504133333334, "is_reserved": 0, "fusion_lat": 0.0, "rental_uris": {"android": "https://dc.lft.to/lastmile_qr_scan", "ios": "https://dc.lft.to/lastmile_qr_scan"}, "fusion_lon": 0.0, "name": "ecc5af480c1d81a36ce4f3e5e1f54869", "lon": -77.060294, "is_disabled": 0, "type": "electric_scooter"}, {"bike_id": "58b70432579822bc3755094c3d9d788d", "lat": 38.90586883333334, "is_reserved": 0, "fusion_lat": 0.0, "rental_uris": {"android": "https://dc.lft.to/lastmile_qr_scan", "ios": "https://dc.lft.to/lastmile_qr_scan"}, "fusion_lon": 0.0, "name": "58b70432579822bc3755094c3d9d788d", "lon": -77.04029466666667, "is_disabled": 0, "type": "electric_scooter"}, {"bike_id": "2884773f82d0213d6ea6932433a6d057", "lat": 38.900293, "is_reserved": 0, "fusion_lat": 0.0, "rental_uris": {"android": "https://dc.lft.to/lastmile_qr_scan", "ios": "https://dc.lft.to/lastmile_qr_scan"}, "fusion_lon": 0.0, "name": "2884773f82d0213d6ea6932433a6d057", "lon": -76.99583516666667, "is_disabled": 0, "type": "electric_scooter"}, {"bike_id": "1e9d972d66fb6e5d01446a894ff1d0b6", "lat": 38.94900716666667, "is_reserved": 0, "fusion_lat": 0.0, "rental_uris": {"android": "https://dc.lft.to/lastmile_qr_scan", "ios": "https://dc.lft.to/lastmile_qr_scan"}, "fusion_lon": 0.0, "name": "1e9d972d66fb6e5d01446a894ff1d0b6", "lon": -77.02077533333333, "is_disabled": 0, "type": "electric_scooter"}, {"bike_id": "dc62fc13db82efb5892c498949fe18ec", "lat": 38.9129315, "is_reserved": 0, "fusion_lat": 0.0, "rental_uris": {"android": "https://dc.lft.to/lastmile_qr_scan", "ios": "https://dc.lft.to/lastmile_qr_scan"}, "fusion_lon": 0.0, "name": "dc62fc13db82efb5892c498949fe18ec", "lon": -77.02968816666667, "is_disabled": 0, "type": "electric_scooter"}, {"bike_id": "b66d633363d89aa90f472d89cf5686a7", "lat": 38.89370066666667, "is_reserved": 0, "fusion_lat": 0.0, "rental_uris": {"android": "https://dc.lft.to/lastmile_qr_scan", "ios": "https://dc.lft.to/lastmile_qr_scan"}, "fusion_lon": 0.0, "name": "b66d633363d89aa90f472d89cf5686a7", "lon": -76.94703483333333, "is_disabled": 0, "type": "electric_scooter"}, {"bike_id": "adb85f32f0a7ce5bd0769880c9bb7f14", "lat": 38.91609016666666, "is_reserved": 0, "fusion_lat": 0.0, "rental_uris": {"android": "https://dc.lft.to/lastmile_qr_scan", "ios": "https://dc.lft.to/lastmile_qr_scan"}, "fusion_lon": 0.0, "name": "adb85f32f0a7ce5bd0769880c9bb7f14", "lon": -77.03113716666667, "is_disabled": 0, "type": "electric_scooter"}, {"bike_id": "876ab72c8894bfa65cbdca06c33ff83a", "lat": 38.89222383333333, "is_reserved": 0, "fusion_lat": 0.0, "rental_uris": {"android": "https://dc.lft.to/lastmile_qr_scan", "ios": "https://dc.lft.to/lastmile_qr_scan"}, "fusion_lon": 0.0, "name": "876ab72c8894bfa65cbdca06c33ff83a", "lon": -77.0222785, "is_disabled": 0, "type": "electric_scooter"}, {"bike_id": "4c42e31350c94a2995d50b25d0dce10a", "lat": 38.905617, "is_reserved": 0, "fusion_lat": 0.0, "rental_uris": {"android": "https://dc.lft.to/lastmile_qr_scan", "ios": "https://dc.lft.to/lastmile_qr_scan"}, "fusion_lon": 0.0, "name": "4c42e31350c94a2995d50b25d0dce10a", "lon": -77.02815533333333, "is_disabled": 0, "type": "electric_scooter"}, {"bike_id": "6f362dcc445865ed5346701317278acf", "lat": 38.880987833333336, "is_reserved": 0, "fusion_lat": 0.0, "rental_uris": {"android": "https://dc.lft.to/lastmile_qr_scan", "ios": "https://dc.lft.to/lastmile_qr_scan"}, "fusion_lon": 0.0, "name": "6f362dcc445865ed5346701317278acf", "lon": -76.9950855, "is_disabled": 0, "type": "electric_scooter"}, {"bike_id": "4f8a9bcdee61e58ef708aa8368058476", "lat": 38.91701033333333, "is_reserved": 0, "fusion_lat": 0.0, "rental_uris": {"android": "https://dc.lft.to/lastmile_qr_scan", "ios": "https://dc.lft.to/lastmile_qr_scan"}, "fusion_lon": 0.0, "name": "4f8a9bcdee61e58ef708aa8368058476", "lon": -77.043305, "is_disabled": 0, "type": "electric_scooter"}, {"bike_id": "9e1fa0d36dc2e3696ac6bca4f28a65d2", "lat": 38.9140235, "is_reserved": 0, "fusion_lat": 0.0, "rental_uris": {"android": "https://dc.lft.to/lastmile_qr_scan", "ios": "https://dc.lft.to/lastmile_qr_scan"}, "fusion_lon": 0.0, "name": "9e1fa0d36dc2e3696ac6bca4f28a65d2", "lon": -77.017961, "is_disabled": 0, "type": "electric_scooter"}, {"bike_id": "616dac0f38937d6e7dcc3a68c999b06a", "lat": 38.9619825, "is_reserved": 0, "fusion_lat": 0.0, "rental_uris": {"android": "https://dc.lft.to/lastmile_qr_scan", "ios": "https://dc.lft.to/lastmile_qr_scan"}, "fusion_lon": 0.0, "name": "616dac0f38937d6e7dcc3a68c999b06a", "lon": -77.0101935, "is_disabled": 0, "type": "electric_scooter"}, {"bike_id": "5b56ddf5d4bc33aa0e8f14ff276f7624", "lat": 38.90774483333333, "is_reserved": 0, "fusion_lat": 0.0, "rental_uris": {"android": "https://dc.lft.to/lastmile_qr_scan", "ios": "https://dc.lft.to/lastmile_qr_scan"}, "fusion_lon": 0.0, "name": "5b56ddf5d4bc33aa0e8f14ff276f7624", "lon": -77.034626, "is_disabled": 0, "type": "electric_scooter"}, {"bike_id": "4ee36063628f78c2450c26717c5b2b1b", "lat": 38.8758165, "is_reserved": 0, "fusion_lat": 0.0, "rental_uris": {"android": "https://dc.lft.to/lastmile_qr_scan", "ios": "https://dc.lft.to/lastmile_qr_scan"}, "fusion_lon": 0.0, "name": "4ee36063628f78c2450c26717c5b2b1b", "lon": -77.23414683333333, "is_disabled": 0, "type": "electric_bike"}, {"bike_id": "06af9061318861dc8fcd18846496c88e", "lat": 38.92458933333333, "is_reserved": 0, "fusion_lat": 0.0, "rental_uris": {"android": "https://dc.lft.to/lastmile_qr_scan", "ios": "https://dc.lft.to/lastmile_qr_scan"}, "fusion_lon": 0.0, "name": "06af9061318861dc8fcd18846496c88e", "lon": -77.0396605, "is_disabled": 0, "type": "electric_scooter"}, {"bike_id": "792add4b52e273011578a8a19ef5c252", "lat": 38.90548316666667, "is_reserved": 0, "fusion_lat": 0.0, "rental_uris": {"android": "https://dc.lft.to/lastmile_qr_scan", "ios": "https://dc.lft.to/lastmile_qr_scan"}, "fusion_lon": 0.0, "name": "792add4b52e273011578a8a19ef5c252", "lon": -77.04445266666667, "is_disabled": 0, "type": "electric_scooter"}, {"bike_id": "52e3d950be4d5a5a21acbd8958e17754", "lat": 38.88520483333333, "is_reserved": 0, "fusion_lat": 0.0, "rental_uris": {"android": "https://dc.lft.to/lastmile_qr_scan", "ios": "https://dc.lft.to/lastmile_qr_scan"}, "fusion_lon": 0.0, "name": "52e3d950be4d5a5a21acbd8958e17754", "lon": -76.99090983333333, "is_disabled": 0, "type": "electric_scooter"}, {"bike_id": "55a65930b296c15006056b8d999ec461", "lat": 38.91683166666667, "is_reserved": 0, "fusion_lat": 0.0, "rental_uris": {"android": "https://dc.lft.to/lastmile_qr_scan", "ios": "https://dc.lft.to/lastmile_qr_scan"}, "fusion_lon": 0.0, "name": "55a65930b296c15006056b8d999ec461", "lon": -77.02977216666666, "is_disabled": 0, "type": "electric_scooter"}, {"bike_id": "e8a9ef2ee21e6029b42fe96072ee824b", "lat": 38.899105666666664, "is_reserved": 0, "fusion_lat": 0.0, "rental_uris": {"android": "https://dc.lft.to/lastmile_qr_scan", "ios": "https://dc.lft.to/lastmile_qr_scan"}, "fusion_lon": 0.0, "name": "e8a9ef2ee21e6029b42fe96072ee824b", "lon": -77.03294283333334, "is_disabled": 0, "type": "electric_scooter"}, {"bike_id": "0039dceb10106bd9d639461b8a4a8cbc", "lat": 38.90263683333333, "is_reserved": 0, "fusion_lat": 0.0, "rental_uris": {"android": "https://dc.lft.to/lastmile_qr_scan", "ios": "https://dc.lft.to/lastmile_qr_scan"}, "fusion_lon": 0.0, "name": "0039dceb10106bd9d639461b8a4a8cbc", "lon": -77.03942866666667, "is_disabled": 0, "type": "electric_scooter"}, {"bike_id": "3ef3595a934d27dc460e1401e7337a44", "lat": 38.920536166666665, "is_reserved": 0, "fusion_lat": 0.0, "rental_uris": {"android": "https://dc.lft.to/lastmile_qr_scan", "ios": "https://dc.lft.to/lastmile_qr_scan"}, "fusion_lon": 0.0, "name": "3ef3595a934d27dc460e1401e7337a44", "lon": -77.01776916666667, "is_disabled": 0, "type": "electric_scooter"}, {"bike_id": "ed51a0a3a3869d3459c4ae2acd539eff", "lat": 38.9087445, "is_reserved": 0, "fusion_lat": 0.0, "rental_uris": {"android": "https://dc.lft.to/lastmile_qr_scan", "ios": "https://dc.lft.to/lastmile_qr_scan"}, "fusion_lon": 0.0, "name": "ed51a0a3a3869d3459c4ae2acd539eff", "lon": -76.99784133333333, "is_disabled": 0, "type": "electric_scooter"}, {"bike_id": "6e1468c26a4dfb28fbb016f889054ace", "lat": 38.928854666666666, "is_reserved": 0, "fusion_lat": 0.0, "rental_uris": {"android": "https://dc.lft.to/lastmile_qr_scan", "ios": "https://dc.lft.to/lastmile_qr_scan"}, "fusion_lon": 0.0, "name": "6e1468c26a4dfb28fbb016f889054ace", "lon": -77.0372665, "is_disabled": 0, "type": "electric_scooter"}, {"bike_id": "ef483fec2e25d10e4c6ed31c2c4f2c21", "lat": 38.89986, "is_reserved": 0, "fusion_lat": 0.0, "rental_uris": {"android": "https://dc.lft.to/lastmile_qr_scan", "ios": "https://dc.lft.to/lastmile_qr_scan"}, "fusion_lon": 0.0, "name": "ef483fec2e25d10e4c6ed31c2c4f2c21", "lon": -76.9961115, "is_disabled": 0, "type": "electric_scooter"}, {"bike_id": "8bd62bb023d837da14f330e12fddf203", "lat": 38.96551783333334, "is_reserved": 0, "fusion_lat": 0.0, "rental_uris": {"android": "https://dc.lft.to/lastmile_qr_scan", "ios": "https://dc.lft.to/lastmile_qr_scan"}, "fusion_lon": 0.0, "name": "8bd62bb023d837da14f330e12fddf203", "lon": -77.0362845, "is_disabled": 0, "type": "electric_scooter"}, {"bike_id": "d09344ff9a0a02c3f43d7e4c009b578c", "lat": 38.9334125, "is_reserved": 0, "fusion_lat": 0.0, "rental_uris": {"android": "https://dc.lft.to/lastmile_qr_scan", "ios": "https://dc.lft.to/lastmile_qr_scan"}, "fusion_lon": 0.0, "name": "d09344ff9a0a02c3f43d7e4c009b578c", "lon": -77.03988866666667, "is_disabled": 0, "type": "electric_scooter"}, {"bike_id": "ef6670c0b405901b518511303347f846", "lat": 38.91738016666667, "is_reserved": 0, "fusion_lat": 0.0, "rental_uris": {"android": "https://dc.lft.to/lastmile_qr_scan", "ios": "https://dc.lft.to/lastmile_qr_scan"}, "fusion_lon": 0.0, "name": "ef6670c0b405901b518511303347f846", "lon": -77.041532, "is_disabled": 0, "type": "electric_scooter"}, {"bike_id": "292828c4f85fd2d9eff2f4f59f0e9d6b", "lat": 38.915447, "is_reserved": 0, "fusion_lat": 0.0, "rental_uris": {"android": "https://dc.lft.to/lastmile_qr_scan", "ios": "https://dc.lft.to/lastmile_qr_scan"}, "fusion_lon": 0.0, "name": "292828c4f85fd2d9eff2f4f59f0e9d6b", "lon": -77.04454816666667, "is_disabled": 0, "type": "electric_scooter"}, {"bike_id": "1a1c01403e334bdbfe6738d0edf00807", "lat": 38.919034, "is_reserved": 0, "fusion_lat": 0.0, "rental_uris": {"android": "https://dc.lft.to/lastmile_qr_scan", "ios": "https://dc.lft.to/lastmile_qr_scan"}, "fusion_lon": 0.0, "name": "1a1c01403e334bdbfe6738d0edf00807", "lon": -77.016843, "is_disabled": 0, "type": "electric_scooter"}, {"bike_id": "176dda3f8976d4391931d63c46d52dd3", "lat": 38.90734066666667, "is_reserved": 0, "fusion_lat": 0.0, "rental_uris": {"android": "https://dc.lft.to/lastmile_qr_scan", "ios": "https://dc.lft.to/lastmile_qr_scan"}, "fusion_lon": 0.0, "name": "176dda3f8976d4391931d63c46d52dd3", "lon": -77.03174116666666, "is_disabled": 0, "type": "electric_scooter"}, {"bike_id": "b3a3a914fe7b8f6d5fdf598f886d8306", "lat": 38.8975335, "is_reserved": 0, "fusion_lat": 0.0, "rental_uris": {"android": "https://dc.lft.to/lastmile_qr_scan", "ios": "https://dc.lft.to/lastmile_qr_scan"}, "fusion_lon": 0.0, "name": "b3a3a914fe7b8f6d5fdf598f886d8306", "lon": -77.02458283333333, "is_disabled": 0, "type": "electric_scooter"}, {"bike_id": "074d0d02c3062a0e76242df9b04020e2", "lat": 38.87375633333333, "is_reserved": 0, "fusion_lat": 0.0, "rental_uris": {"android": "https://dc.lft.to/lastmile_qr_scan", "ios": "https://dc.lft.to/lastmile_qr_scan"}, "fusion_lon": 0.0, "name": "074d0d02c3062a0e76242df9b04020e2", "lon": -77.00107666666666, "is_disabled": 0, "type": "electric_scooter"}, {"bike_id": "2be135acc67cb1aaf616f902a4870e51", "lat": 38.89291516666667, "is_reserved": 0, "fusion_lat": 0.0, "rental_uris": {"android": "https://dc.lft.to/lastmile_qr_scan", "ios": "https://dc.lft.to/lastmile_qr_scan"}, "fusion_lon": 0.0, "name": "2be135acc67cb1aaf616f902a4870e51", "lon": -77.04484483333333, "is_disabled": 0, "type": "electric_scooter"}, {"bike_id": "580a9236ec1551bb91746f1af2fbbc12", "lat": 38.90142933333333, "is_reserved": 0, "fusion_lat": 0.0, "rental_uris": {"android": "https://dc.lft.to/lastmile_qr_scan", "ios": "https://dc.lft.to/lastmile_qr_scan"}, "fusion_lon": 0.0, "name": "580a9236ec1551bb91746f1af2fbbc12", "lon": -77.04467766666667, "is_disabled": 0, "type": "electric_scooter"}, {"bike_id": "d244ec419bc972d4e6fa49daf6b22255", "lat": 38.9200945, "is_reserved": 0, "fusion_lat": 0.0, "rental_uris": {"android": "https://dc.lft.to/lastmile_qr_scan", "ios": "https://dc.lft.to/lastmile_qr_scan"}, "fusion_lon": 0.0, "name": "d244ec419bc972d4e6fa49daf6b22255", "lon": -77.03209516666666, "is_disabled": 0, "type": "electric_scooter"}, {"bike_id": "90c326adddc6c69b32a26655cfaaaf3a", "lat": 38.942923, "is_reserved": 0, "fusion_lat": 0.0, "rental_uris": {"android": "https://dc.lft.to/lastmile_qr_scan", "ios": "https://dc.lft.to/lastmile_qr_scan"}, "fusion_lon": 0.0, "name": "90c326adddc6c69b32a26655cfaaaf3a", "lon": -77.0217695, "is_disabled": 0, "type": "electric_scooter"}, {"bike_id": "b970221f18bcd5cfd347040d94aceace", "lat": 38.9396205, "is_reserved": 0, "fusion_lat": 0.0, "rental_uris": {"android": "https://dc.lft.to/lastmile_qr_scan", "ios": "https://dc.lft.to/lastmile_qr_scan"}, "fusion_lon": 0.0, "name": "b970221f18bcd5cfd347040d94aceace", "lon": -77.02755866666666, "is_disabled": 0, "type": "electric_scooter"}, {"bike_id": "4c701b856edb8e4a0bb93b1095b0b5a8", "lat": 38.917098, "is_reserved": 0, "fusion_lat": 0.0, "rental_uris": {"android": "https://dc.lft.to/lastmile_qr_scan", "ios": "https://dc.lft.to/lastmile_qr_scan"}, "fusion_lon": 0.0, "name": "4c701b856edb8e4a0bb93b1095b0b5a8", "lon": -77.02872333333333, "is_disabled": 0, "type": "electric_scooter"}, {"bike_id": "c9465b11219fde4f7c6ff5c7a9bc8738", "lat": 38.91407066666667, "is_reserved": 0, "fusion_lat": 0.0, "rental_uris": {"android": "https://dc.lft.to/lastmile_qr_scan", "ios": "https://dc.lft.to/lastmile_qr_scan"}, "fusion_lon": 0.0, "name": "c9465b11219fde4f7c6ff5c7a9bc8738", "lon": -77.02378483333334, "is_disabled": 0, "type": "electric_scooter"}, {"bike_id": "a4398515c6b55ab3663695be339d7107", "lat": 38.867034333333336, "is_reserved": 0, "fusion_lat": 0.0, "rental_uris": {"android": "https://dc.lft.to/lastmile_qr_scan", "ios": "https://dc.lft.to/lastmile_qr_scan"}, "fusion_lon": 0.0, "name": "a4398515c6b55ab3663695be339d7107", "lon": -76.98713933333333, "is_disabled": 0, "type": "electric_scooter"}, {"bike_id": "a62b3367929f6541a996fe42d8091fc0", "lat": 38.9205385, "is_reserved": 0, "fusion_lat": 0.0, "rental_uris": {"android": "https://dc.lft.to/lastmile_qr_scan", "ios": "https://dc.lft.to/lastmile_qr_scan"}, "fusion_lon": 0.0, "name": "a62b3367929f6541a996fe42d8091fc0", "lon": -77.04195366666667, "is_disabled": 0, "type": "electric_scooter"}, {"bike_id": "a970d9c92a09fefd2a3b478b812b952a", "lat": 38.9038085, "is_reserved": 0, "fusion_lat": 0.0, "rental_uris": {"android": "https://dc.lft.to/lastmile_qr_scan", "ios": "https://dc.lft.to/lastmile_qr_scan"}, "fusion_lon": 0.0, "name": "a970d9c92a09fefd2a3b478b812b952a", "lon": -77.04179316666666, "is_disabled": 0, "type": "electric_scooter"}, {"bike_id": "f474afda3cef0c6ee9d478417f69583f", "lat": 38.8922485, "is_reserved": 0, "fusion_lat": 0.0, "rental_uris": {"android": "https://dc.lft.to/lastmile_qr_scan", "ios": "https://dc.lft.to/lastmile_qr_scan"}, "fusion_lon": 0.0, "name": "f474afda3cef0c6ee9d478417f69583f", "lon": -77.048623, "is_disabled": 0, "type": "electric_scooter"}, {"bike_id": "113dda9a237d45f9656d91bac2266a7f", "lat": 38.904410666666664, "is_reserved": 0, "fusion_lat": 0.0, "rental_uris": {"android": "https://dc.lft.to/lastmile_qr_scan", "ios": "https://dc.lft.to/lastmile_qr_scan"}, "fusion_lon": 0.0, "name": "113dda9a237d45f9656d91bac2266a7f", "lon": -77.04846516666667, "is_disabled": 0, "type": "electric_scooter"}, {"bike_id": "0c0a98fc686b569ff7bc692690b63e8d", "lat": 38.93459383333333, "is_reserved": 0, "fusion_lat": 0.0, "rental_uris": {"android": "https://dc.lft.to/lastmile_qr_scan", "ios": "https://dc.lft.to/lastmile_qr_scan"}, "fusion_lon": 0.0, "name": "0c0a98fc686b569ff7bc692690b63e8d", "lon": -76.96441533333333, "is_disabled": 0, "type": "electric_scooter"}, {"bike_id": "380f45903fffdb75488fd3f808f00636", "lat": 38.914971666666666, "is_reserved": 0, "fusion_lat": 0.0, "rental_uris": {"android": "https://dc.lft.to/lastmile_qr_scan", "ios": "https://dc.lft.to/lastmile_qr_scan"}, "fusion_lon": 0.0, "name": "380f45903fffdb75488fd3f808f00636", "lon": -77.04541, "is_disabled": 0, "type": "electric_scooter"}, {"bike_id": "12a5e5b30d4d73711a5c86c41dec5cb7", "lat": 38.93095783333333, "is_reserved": 0, "fusion_lat": 0.0, "rental_uris": {"android": "https://dc.lft.to/lastmile_qr_scan", "ios": "https://dc.lft.to/lastmile_qr_scan"}, "fusion_lon": 0.0, "name": "12a5e5b30d4d73711a5c86c41dec5cb7", "lon": -77.037415, "is_disabled": 0, "type": "electric_scooter"}, {"bike_id": "1abc34d7fe0a56a14635191512f01f12", "lat": 38.89621316666667, "is_reserved": 0, "fusion_lat": 0.0, "rental_uris": {"android": "https://dc.lft.to/lastmile_qr_scan", "ios": "https://dc.lft.to/lastmile_qr_scan"}, "fusion_lon": 0.0, "name": "1abc34d7fe0a56a14635191512f01f12", "lon": -77.0113365, "is_disabled": 0, "type": "electric_scooter"}, {"bike_id": "2273d84599a7d3540aee95af4f333c06", "lat": 39.02433933333333, "is_reserved": 0, "fusion_lat": 0.0, "rental_uris": {"android": "https://dc.lft.to/lastmile_qr_scan", "ios": "https://dc.lft.to/lastmile_qr_scan"}, "fusion_lon": 0.0, "name": "2273d84599a7d3540aee95af4f333c06", "lon": -77.13101316666666, "is_disabled": 0, "type": "electric_bike"}, {"bike_id": "f72b1464d750e00c764817ef297d77b8", "lat": 38.898512833333335, "is_reserved": 0, "fusion_lat": 0.0, "rental_uris": {"android": "https://dc.lft.to/lastmile_qr_scan", "ios": "https://dc.lft.to/lastmile_qr_scan"}, "fusion_lon": 0.0, "name": "f72b1464d750e00c764817ef297d77b8", "lon": -77.0530275, "is_disabled": 0, "type": "electric_bike"}, {"bike_id": "fbf2440150f2ab51db35f13ba97bf549", "lat": 38.91839616666667, "is_reserved": 0, "fusion_lat": 0.0, "rental_uris": {"android": "https://dc.lft.to/lastmile_qr_scan", "ios": "https://dc.lft.to/lastmile_qr_scan"}, "fusion_lon": 0.0, "name": "fbf2440150f2ab51db35f13ba97bf549", "lon": -77.03509183333334, "is_disabled": 0, "type": "electric_scooter"}, {"bike_id": "ae06c56b474493adcd6ebd48f11efaff", "lat": 38.87177233333333, "is_reserved": 0, "fusion_lat": 0.0, "rental_uris": {"android": "https://dc.lft.to/lastmile_qr_scan", "ios": "https://dc.lft.to/lastmile_qr_scan"}, "fusion_lon": 0.0, "name": "ae06c56b474493adcd6ebd48f11efaff", "lon": -77.00622633333333, "is_disabled": 0, "type": "electric_scooter"}, {"bike_id": "91546444fd08640db14a33c8cca4cc95", "lat": 38.88419, "is_reserved": 0, "fusion_lat": 0.0, "rental_uris": {"android": "https://dc.lft.to/lastmile_qr_scan", "ios": "https://dc.lft.to/lastmile_qr_scan"}, "fusion_lon": 0.0, "name": "91546444fd08640db14a33c8cca4cc95", "lon": -77.0178685, "is_disabled": 0, "type": "electric_scooter"}, {"bike_id": "37efcd6e35ed30b1cf8d58a961236451", "lat": 38.899849, "is_reserved": 0, "fusion_lat": 0.0, "rental_uris": {"android": "https://dc.lft.to/lastmile_qr_scan", "ios": "https://dc.lft.to/lastmile_qr_scan"}, "fusion_lon": 0.0, "name": "37efcd6e35ed30b1cf8d58a961236451", "lon": -76.99612616666667, "is_disabled": 0, "type": "electric_scooter"}, {"bike_id": "a26bae4519712857b8daadb294439bac", "lat": 38.90030266666667, "is_reserved": 0, "fusion_lat": 0.0, "rental_uris": {"android": "https://dc.lft.to/lastmile_qr_scan", "ios": "https://dc.lft.to/lastmile_qr_scan"}, "fusion_lon": 0.0, "name": "a26bae4519712857b8daadb294439bac", "lon": -77.04371916666666, "is_disabled": 0, "type": "electric_scooter"}, {"bike_id": "8f8444262b015fbeec135586016c8097", "lat": 38.873073833333336, "is_reserved": 0, "fusion_lat": 0.0, "rental_uris": {"android": "https://dc.lft.to/lastmile_qr_scan", "ios": "https://dc.lft.to/lastmile_qr_scan"}, "fusion_lon": 0.0, "name": "8f8444262b015fbeec135586016c8097", "lon": -77.13924166666666, "is_disabled": 0, "type": "electric_bike"}, {"bike_id": "5282b084b224ff4caea5bba5c072fa20", "lat": 38.911426666666664, "is_reserved": 0, "fusion_lat": 0.0, "rental_uris": {"android": "https://dc.lft.to/lastmile_qr_scan", "ios": "https://dc.lft.to/lastmile_qr_scan"}, "fusion_lon": 0.0, "name": "5282b084b224ff4caea5bba5c072fa20", "lon": -76.99013983333333, "is_disabled": 0, "type": "electric_scooter"}, {"bike_id": "a193db241195b6ceb0030fff4c99c772", "lat": 38.92848516666667, "is_reserved": 0, "fusion_lat": 0.0, "rental_uris": {"android": "https://dc.lft.to/lastmile_qr_scan", "ios": "https://dc.lft.to/lastmile_qr_scan"}, "fusion_lon": 0.0, "name": "a193db241195b6ceb0030fff4c99c772", "lon": -77.03285983333333, "is_disabled": 0, "type": "electric_scooter"}, {"bike_id": "ff1989eec96567b24fb2593c2c07268e", "lat": 38.931611, "is_reserved": 0, "fusion_lat": 0.0, "rental_uris": {"android": "https://dc.lft.to/lastmile_qr_scan", "ios": "https://dc.lft.to/lastmile_qr_scan"}, "fusion_lon": 0.0, "name": "ff1989eec96567b24fb2593c2c07268e", "lon": -77.0011465, "is_disabled": 0, "type": "electric_bike"}, {"bike_id": "6051ff8b60a3d9d76b5f5ce1d2f87be2", "lat": 38.892238166666665, "is_reserved": 0, "fusion_lat": 0.0, "rental_uris": {"android": "https://dc.lft.to/lastmile_qr_scan", "ios": "https://dc.lft.to/lastmile_qr_scan"}, "fusion_lon": 0.0, "name": "6051ff8b60a3d9d76b5f5ce1d2f87be2", "lon": -77.02451733333334, "is_disabled": 0, "type": "electric_scooter"}, {"bike_id": "b0091152ed5e4c6c98bb6c68bf98bca9", "lat": 38.916765833333336, "is_reserved": 0, "fusion_lat": 0.0, "rental_uris": {"android": "https://dc.lft.to/lastmile_qr_scan", "ios": "https://dc.lft.to/lastmile_qr_scan"}, "fusion_lon": 0.0, "name": "b0091152ed5e4c6c98bb6c68bf98bca9", "lon": -77.03691633333334, "is_disabled": 0, "type": "electric_scooter"}, {"bike_id": "0b71e431424b7e00e8694002d871856f", "lat": 38.896187166666664, "is_reserved": 0, "fusion_lat": 0.0, "rental_uris": {"android": "https://dc.lft.to/lastmile_qr_scan", "ios": "https://dc.lft.to/lastmile_qr_scan"}, "fusion_lon": 0.0, "name": "0b71e431424b7e00e8694002d871856f", "lon": -77.02198616666666, "is_disabled": 0, "type": "electric_scooter"}, {"bike_id": "a520b523b8114437c5d4ddf0b777ac3d", "lat": 38.89835716666666, "is_reserved": 0, "fusion_lat": 0.0, "rental_uris": {"android": "https://dc.lft.to/lastmile_qr_scan", "ios": "https://dc.lft.to/lastmile_qr_scan"}, "fusion_lon": 0.0, "name": "a520b523b8114437c5d4ddf0b777ac3d", "lon": -77.0482975, "is_disabled": 0, "type": "electric_scooter"}, {"bike_id": "e2e6335178fc6b683c6a48d5966d9033", "lat": 38.909805666666664, "is_reserved": 0, "fusion_lat": 0.0, "rental_uris": {"android": "https://dc.lft.to/lastmile_qr_scan", "ios": "https://dc.lft.to/lastmile_qr_scan"}, "fusion_lon": 0.0, "name": "e2e6335178fc6b683c6a48d5966d9033", "lon": -77.03185683333334, "is_disabled": 0, "type": "electric_scooter"}, {"bike_id": "5ee6db71461ae8219472ac53cf1e5324", "lat": 38.92880016666667, "is_reserved": 0, "fusion_lat": 0.0, "rental_uris": {"android": "https://dc.lft.to/lastmile_qr_scan", "ios": "https://dc.lft.to/lastmile_qr_scan"}, "fusion_lon": 0.0, "name": "5ee6db71461ae8219472ac53cf1e5324", "lon": -77.0266825, "is_disabled": 0, "type": "electric_scooter"}, {"bike_id": "6ca17fffbec7a6fabbc2bbb99efb1344", "lat": 38.915372, "is_reserved": 0, "fusion_lat": 0.0, "rental_uris": {"android": "https://dc.lft.to/lastmile_qr_scan", "ios": "https://dc.lft.to/lastmile_qr_scan"}, "fusion_lon": 0.0, "name": "6ca17fffbec7a6fabbc2bbb99efb1344", "lon": -77.018382, "is_disabled": 0, "type": "electric_scooter"}, {"bike_id": "503441d85aa026f4db94f6d5d5374e6b", "lat": 38.912747, "is_reserved": 0, "fusion_lat": 0.0, "rental_uris": {"android": "https://dc.lft.to/lastmile_qr_scan", "ios": "https://dc.lft.to/lastmile_qr_scan"}, "fusion_lon": 0.0, "name": "503441d85aa026f4db94f6d5d5374e6b", "lon": -77.02954433333333, "is_disabled": 0, "type": "electric_scooter"}, {"bike_id": "892db56f0033760837c8682018fce039", "lat": 38.87177033333333, "is_reserved": 0, "fusion_lat": 0.0, "rental_uris": {"android": "https://dc.lft.to/lastmile_qr_scan", "ios": "https://dc.lft.to/lastmile_qr_scan"}, "fusion_lon": 0.0, "name": "892db56f0033760837c8682018fce039", "lon": -77.006257, "is_disabled": 0, "type": "electric_scooter"}, {"bike_id": "7157cb3d1f60cc09636fd7ce2a06c2d0", "lat": 38.915764833333334, "is_reserved": 0, "fusion_lat": 0.0, "rental_uris": {"android": "https://dc.lft.to/lastmile_qr_scan", "ios": "https://dc.lft.to/lastmile_qr_scan"}, "fusion_lon": 0.0, "name": "7157cb3d1f60cc09636fd7ce2a06c2d0", "lon": -77.01957983333334, "is_disabled": 0, "type": "electric_scooter"}, {"bike_id": "3912290e5c3594a16f7508238566a84f", "lat": 38.91418566666667, "is_reserved": 0, "fusion_lat": 0.0, "rental_uris": {"android": "https://dc.lft.to/lastmile_qr_scan", "ios": "https://dc.lft.to/lastmile_qr_scan"}, "fusion_lon": 0.0, "name": "3912290e5c3594a16f7508238566a84f", "lon": -77.04503266666667, "is_disabled": 0, "type": "electric_scooter"}, {"bike_id": "6f6c372455611edce24490c2185ce00f", "lat": 39.03696, "is_reserved": 0, "fusion_lat": 0.0, "rental_uris": {"android": "https://dc.lft.to/lastmile_qr_scan", "ios": "https://dc.lft.to/lastmile_qr_scan"}, "fusion_lon": 0.0, "name": "6f6c372455611edce24490c2185ce00f", "lon": -77.02853533333334, "is_disabled": 0, "type": "electric_bike"}, {"bike_id": "2231ceaec5d593d71cd2853453ebbf96", "lat": 38.90044283333334, "is_reserved": 0, "fusion_lat": 0.0, "rental_uris": {"android": "https://dc.lft.to/lastmile_qr_scan", "ios": "https://dc.lft.to/lastmile_qr_scan"}, "fusion_lon": 0.0, "name": "2231ceaec5d593d71cd2853453ebbf96", "lon": -77.00189666666667, "is_disabled": 0, "type": "electric_scooter"}, {"bike_id": "8e4a1512e9861ee64e28d826040419d4", "lat": 38.93919666666667, "is_reserved": 0, "fusion_lat": 0.0, "rental_uris": {"android": "https://dc.lft.to/lastmile_qr_scan", "ios": "https://dc.lft.to/lastmile_qr_scan"}, "fusion_lon": 0.0, "name": "8e4a1512e9861ee64e28d826040419d4", "lon": -77.06055933333333, "is_disabled": 0, "type": "electric_scooter"}, {"bike_id": "8a28fa475fe83f38c15416d16e4e4680", "lat": 38.91592816666667, "is_reserved": 0, "fusion_lat": 0.0, "rental_uris": {"android": "https://dc.lft.to/lastmile_qr_scan", "ios": "https://dc.lft.to/lastmile_qr_scan"}, "fusion_lon": 0.0, "name": "8a28fa475fe83f38c15416d16e4e4680", "lon": -77.0230225, "is_disabled": 0, "type": "electric_scooter"}, {"bike_id": "33e8fe2bb9a0783a5936c43d159d74f2", "lat": 38.95093966666666, "is_reserved": 0, "fusion_lat": 0.0, "rental_uris": {"android": "https://dc.lft.to/lastmile_qr_scan", "ios": "https://dc.lft.to/lastmile_qr_scan"}, "fusion_lon": 0.0, "name": "33e8fe2bb9a0783a5936c43d159d74f2", "lon": -77.08087, "is_disabled": 0, "type": "electric_bike"}, {"bike_id": "9685b11ddedb4ce4477991e6507ea768", "lat": 38.92251066666667, "is_reserved": 0, "fusion_lat": 0.0, "rental_uris": {"android": "https://dc.lft.to/lastmile_qr_scan", "ios": "https://dc.lft.to/lastmile_qr_scan"}, "fusion_lon": 0.0, "name": "9685b11ddedb4ce4477991e6507ea768", "lon": -77.04273783333333, "is_disabled": 0, "type": "electric_scooter"}, {"bike_id": "c3e1462cb1759b79bca389ec4d106735", "lat": 38.89722283333333, "is_reserved": 0, "fusion_lat": 0.0, "rental_uris": {"android": "https://dc.lft.to/lastmile_qr_scan", "ios": "https://dc.lft.to/lastmile_qr_scan"}, "fusion_lon": 0.0, "name": "c3e1462cb1759b79bca389ec4d106735", "lon": -76.98359316666667, "is_disabled": 0, "type": "electric_scooter"}, {"bike_id": "7bb667a5fa0cc22e19ba5dcb76de26ce", "lat": 38.9149155, "is_reserved": 0, "fusion_lat": 0.0, "rental_uris": {"android": "https://dc.lft.to/lastmile_qr_scan", "ios": "https://dc.lft.to/lastmile_qr_scan"}, "fusion_lon": 0.0, "name": "7bb667a5fa0cc22e19ba5dcb76de26ce", "lon": -77.025747, "is_disabled": 0, "type": "electric_scooter"}, {"bike_id": "ba175f94c4b95283b277c193b2d19e53", "lat": 38.87560933333334, "is_reserved": 0, "fusion_lat": 0.0, "rental_uris": {"android": "https://dc.lft.to/lastmile_qr_scan", "ios": "https://dc.lft.to/lastmile_qr_scan"}, "fusion_lon": 0.0, "name": "ba175f94c4b95283b277c193b2d19e53", "lon": -76.95869533333334, "is_disabled": 0, "type": "electric_scooter"}, {"bike_id": "93c535f5bf3e361eb8755334b0c6d921", "lat": 38.898268333333334, "is_reserved": 0, "fusion_lat": 0.0, "rental_uris": {"android": "https://dc.lft.to/lastmile_qr_scan", "ios": "https://dc.lft.to/lastmile_qr_scan"}, "fusion_lon": 0.0, "name": "93c535f5bf3e361eb8755334b0c6d921", "lon": -77.0174785, "is_disabled": 0, "type": "electric_scooter"}, {"bike_id": "7d33216c49d3f13e5b8c7b1dec5ab893", "lat": 38.93249183333333, "is_reserved": 0, "fusion_lat": 0.0, "rental_uris": {"android": "https://dc.lft.to/lastmile_qr_scan", "ios": "https://dc.lft.to/lastmile_qr_scan"}, "fusion_lon": 0.0, "name": "7d33216c49d3f13e5b8c7b1dec5ab893", "lon": -77.0327685, "is_disabled": 0, "type": "electric_scooter"}, {"bike_id": "92398c840e68a8da88f5175bf832b76f", "lat": 38.89636733333333, "is_reserved": 0, "fusion_lat": 0.0, "rental_uris": {"android": "https://dc.lft.to/lastmile_qr_scan", "ios": "https://dc.lft.to/lastmile_qr_scan"}, "fusion_lon": 0.0, "name": "92398c840e68a8da88f5175bf832b76f", "lon": -77.0709435, "is_disabled": 0, "type": "electric_scooter"}, {"bike_id": "06ab256c255ca032d8b7db481b4b7fcc", "lat": 38.92872933333334, "is_reserved": 0, "fusion_lat": 0.0, "rental_uris": {"android": "https://dc.lft.to/lastmile_qr_scan", "ios": "https://dc.lft.to/lastmile_qr_scan"}, "fusion_lon": 0.0, "name": "06ab256c255ca032d8b7db481b4b7fcc", "lon": -77.03924533333333, "is_disabled": 0, "type": "electric_scooter"}, {"bike_id": "a476e8bfa28bcc47770ec06704bbef62", "lat": 38.89737216666666, "is_reserved": 0, "fusion_lat": 0.0, "rental_uris": {"android": "https://dc.lft.to/lastmile_qr_scan", "ios": "https://dc.lft.to/lastmile_qr_scan"}, "fusion_lon": 0.0, "name": "a476e8bfa28bcc47770ec06704bbef62", "lon": -77.026952, "is_disabled": 0, "type": "electric_scooter"}, {"bike_id": "205901721fdef76d2d10feef011f5618", "lat": 38.9087835, "is_reserved": 0, "fusion_lat": 0.0, "rental_uris": {"android": "https://dc.lft.to/lastmile_qr_scan", "ios": "https://dc.lft.to/lastmile_qr_scan"}, "fusion_lon": 0.0, "name": "205901721fdef76d2d10feef011f5618", "lon": -77.03183716666666, "is_disabled": 0, "type": "electric_scooter"}, {"bike_id": "a82c71e34ff1d5bac0464fbb4b16169d", "lat": 38.916154, "is_reserved": 0, "fusion_lat": 0.0, "rental_uris": {"android": "https://dc.lft.to/lastmile_qr_scan", "ios": "https://dc.lft.to/lastmile_qr_scan"}, "fusion_lon": 0.0, "name": "a82c71e34ff1d5bac0464fbb4b16169d", "lon": -77.0028745, "is_disabled": 0, "type": "electric_bike"}, {"bike_id": "58e24fb70c2abc72d1b32bc5c252bd0e", "lat": 38.9081305, "is_reserved": 0, "fusion_lat": 0.0, "rental_uris": {"android": "https://dc.lft.to/lastmile_qr_scan", "ios": "https://dc.lft.to/lastmile_qr_scan"}, "fusion_lon": 0.0, "name": "58e24fb70c2abc72d1b32bc5c252bd0e", "lon": -77.04348066666667, "is_disabled": 0, "type": "electric_scooter"}, {"bike_id": "072ea122de4e41ab492b6a4092f3435a", "lat": 38.899649, "is_reserved": 0, "fusion_lat": 0.0, "rental_uris": {"android": "https://dc.lft.to/lastmile_qr_scan", "ios": "https://dc.lft.to/lastmile_qr_scan"}, "fusion_lon": 0.0, "name": "072ea122de4e41ab492b6a4092f3435a", "lon": -77.0198075, "is_disabled": 0, "type": "electric_scooter"}, {"bike_id": "fbc19fb66a8b1ac9d18332c8c737a8c0", "lat": 38.923299, "is_reserved": 0, "fusion_lat": 0.0, "rental_uris": {"android": "https://dc.lft.to/lastmile_qr_scan", "ios": "https://dc.lft.to/lastmile_qr_scan"}, "fusion_lon": 0.0, "name": "fbc19fb66a8b1ac9d18332c8c737a8c0", "lon": -77.05559016666666, "is_disabled": 0, "type": "electric_scooter"}, {"bike_id": "076a124abb56006068063fe87e71e1fa", "lat": 38.898849, "is_reserved": 0, "fusion_lat": 0.0, "rental_uris": {"android": "https://dc.lft.to/lastmile_qr_scan", "ios": "https://dc.lft.to/lastmile_qr_scan"}, "fusion_lon": 0.0, "name": "076a124abb56006068063fe87e71e1fa", "lon": -76.93178683333333, "is_disabled": 0, "type": "electric_scooter"}, {"bike_id": "141b7f027d51a070835af5556dea0638", "lat": 38.914872333333335, "is_reserved": 0, "fusion_lat": 0.0, "rental_uris": {"android": "https://dc.lft.to/lastmile_qr_scan", "ios": "https://dc.lft.to/lastmile_qr_scan"}, "fusion_lon": 0.0, "name": "141b7f027d51a070835af5556dea0638", "lon": -77.03572966666667, "is_disabled": 0, "type": "electric_scooter"}, {"bike_id": "891ba93ef06e6f69803320034ae95726", "lat": 38.92262766666666, "is_reserved": 0, "fusion_lat": 0.0, "rental_uris": {"android": "https://dc.lft.to/lastmile_qr_scan", "ios": "https://dc.lft.to/lastmile_qr_scan"}, "fusion_lon": 0.0, "name": "891ba93ef06e6f69803320034ae95726", "lon": -77.01954266666667, "is_disabled": 0, "type": "electric_scooter"}, {"bike_id": "ffc3cee8a23462a233be409ac232c938", "lat": 38.887805, "is_reserved": 0, "fusion_lat": 0.0, "rental_uris": {"android": "https://dc.lft.to/lastmile_qr_scan", "ios": "https://dc.lft.to/lastmile_qr_scan"}, "fusion_lon": 0.0, "name": "ffc3cee8a23462a233be409ac232c938", "lon": -76.95524916666666, "is_disabled": 0, "type": "electric_scooter"}, {"bike_id": "fc1a0aa5f3f3e90b61b1dd9eb84ce42c", "lat": 38.866304, "is_reserved": 0, "fusion_lat": 0.0, "rental_uris": {"android": "https://dc.lft.to/lastmile_qr_scan", "ios": "https://dc.lft.to/lastmile_qr_scan"}, "fusion_lon": 0.0, "name": "fc1a0aa5f3f3e90b61b1dd9eb84ce42c", "lon": -76.98710216666667, "is_disabled": 0, "type": "electric_scooter"}, {"bike_id": "b335f9d176e00970c5c958c907bffd6b", "lat": 38.931794, "is_reserved": 0, "fusion_lat": 0.0, "rental_uris": {"android": "https://dc.lft.to/lastmile_qr_scan", "ios": "https://dc.lft.to/lastmile_qr_scan"}, "fusion_lon": 0.0, "name": "b335f9d176e00970c5c958c907bffd6b", "lon": -77.03155533333333, "is_disabled": 0, "type": "electric_scooter"}, {"bike_id": "b4013780c5633d36cd036bd4f66de274", "lat": 38.86822516666667, "is_reserved": 0, "fusion_lat": 0.0, "rental_uris": {"android": "https://dc.lft.to/lastmile_qr_scan", "ios": "https://dc.lft.to/lastmile_qr_scan"}, "fusion_lon": 0.0, "name": "b4013780c5633d36cd036bd4f66de274", "lon": -76.98026966666667, "is_disabled": 0, "type": "electric_scooter"}, {"bike_id": "7124e673ad3118084ab915c534fd3616", "lat": 38.901466, "is_reserved": 0, "fusion_lat": 0.0, "rental_uris": {"android": "https://dc.lft.to/lastmile_qr_scan", "ios": "https://dc.lft.to/lastmile_qr_scan"}, "fusion_lon": 0.0, "name": "7124e673ad3118084ab915c534fd3616", "lon": -77.02310183333333, "is_disabled": 0, "type": "electric_scooter"}, {"bike_id": "a34059bd94ce8992f9dbb26eabbf59b5", "lat": 38.90528416666667, "is_reserved": 0, "fusion_lat": 0.0, "rental_uris": {"android": "https://dc.lft.to/lastmile_qr_scan", "ios": "https://dc.lft.to/lastmile_qr_scan"}, "fusion_lon": 0.0, "name": "a34059bd94ce8992f9dbb26eabbf59b5", "lon": -77.01707733333333, "is_disabled": 0, "type": "electric_scooter"}, {"bike_id": "af9355e2424c2fb5e09688e2409e21c2", "lat": 38.87421716666667, "is_reserved": 0, "fusion_lat": 0.0, "rental_uris": {"android": "https://dc.lft.to/lastmile_qr_scan", "ios": "https://dc.lft.to/lastmile_qr_scan"}, "fusion_lon": 0.0, "name": "af9355e2424c2fb5e09688e2409e21c2", "lon": -76.96910783333334, "is_disabled": 0, "type": "electric_scooter"}, {"bike_id": "243e2f9427b37f43112d4726d041864a", "lat": 38.866872, "is_reserved": 0, "fusion_lat": 0.0, "rental_uris": {"android": "https://dc.lft.to/lastmile_qr_scan", "ios": "https://dc.lft.to/lastmile_qr_scan"}, "fusion_lon": 0.0, "name": "243e2f9427b37f43112d4726d041864a", "lon": -76.9857585, "is_disabled": 0, "type": "electric_scooter"}, {"bike_id": "2ae4963a96c6cdc7c101a911b88b5048", "lat": 38.9274965, "is_reserved": 0, "fusion_lat": 0.0, "rental_uris": {"android": "https://dc.lft.to/lastmile_qr_scan", "ios": "https://dc.lft.to/lastmile_qr_scan"}, "fusion_lon": 0.0, "name": "2ae4963a96c6cdc7c101a911b88b5048", "lon": -77.025364, "is_disabled": 0, "type": "electric_scooter"}, {"bike_id": "af2a4c58da17bf0d12a10a7d631fe994", "lat": 38.9224365, "is_reserved": 0, "fusion_lat": 0.0, "rental_uris": {"android": "https://dc.lft.to/lastmile_qr_scan", "ios": "https://dc.lft.to/lastmile_qr_scan"}, "fusion_lon": 0.0, "name": "af2a4c58da17bf0d12a10a7d631fe994", "lon": -77.021448, "is_disabled": 0, "type": "electric_scooter"}, {"bike_id": "f313b26c8219428ec82c4a020605e9ce", "lat": 38.880955166666666, "is_reserved": 0, "fusion_lat": 0.0, "rental_uris": {"android": "https://dc.lft.to/lastmile_qr_scan", "ios": "https://dc.lft.to/lastmile_qr_scan"}, "fusion_lon": 0.0, "name": "f313b26c8219428ec82c4a020605e9ce", "lon": -77.02410883333333, "is_disabled": 0, "type": "electric_scooter"}, {"bike_id": "5d7869dd53f531cb42b396ef5cb5d70c", "lat": 38.88849616666667, "is_reserved": 0, "fusion_lat": 0.0, "rental_uris": {"android": "https://dc.lft.to/lastmile_qr_scan", "ios": "https://dc.lft.to/lastmile_qr_scan"}, "fusion_lon": 0.0, "name": "5d7869dd53f531cb42b396ef5cb5d70c", "lon": -76.92678333333333, "is_disabled": 0, "type": "electric_scooter"}, {"bike_id": "dc18bad0b109bd0bcccc80a802c536b0", "lat": 38.887478333333334, "is_reserved": 0, "fusion_lat": 0.0, "rental_uris": {"android": "https://dc.lft.to/lastmile_qr_scan", "ios": "https://dc.lft.to/lastmile_qr_scan"}, "fusion_lon": 0.0, "name": "dc18bad0b109bd0bcccc80a802c536b0", "lon": -77.02568966666666, "is_disabled": 0, "type": "electric_scooter"}, {"bike_id": "d4e0f649295fe13f6efd11d8889f4d81", "lat": 38.91932366666666, "is_reserved": 0, "fusion_lat": 0.0, "rental_uris": {"android": "https://dc.lft.to/lastmile_qr_scan", "ios": "https://dc.lft.to/lastmile_qr_scan"}, "fusion_lon": 0.0, "name": "d4e0f649295fe13f6efd11d8889f4d81", "lon": -77.0317735, "is_disabled": 0, "type": "electric_scooter"}, {"bike_id": "6fcae07e3777fa6628db3a64b9f1ab70", "lat": 38.878697, "is_reserved": 0, "fusion_lat": 0.0, "rental_uris": {"android": "https://dc.lft.to/lastmile_qr_scan", "ios": "https://dc.lft.to/lastmile_qr_scan"}, "fusion_lon": 0.0, "name": "6fcae07e3777fa6628db3a64b9f1ab70", "lon": -76.969825, "is_disabled": 0, "type": "electric_scooter"}, {"bike_id": "b28c50e32576fef9f3559545395ef4fa", "lat": 38.9142575, "is_reserved": 0, "fusion_lat": 0.0, "rental_uris": {"android": "https://dc.lft.to/lastmile_qr_scan", "ios": "https://dc.lft.to/lastmile_qr_scan"}, "fusion_lon": 0.0, "name": "b28c50e32576fef9f3559545395ef4fa", "lon": -77.01985116666667, "is_disabled": 0, "type": "electric_scooter"}, {"bike_id": "dfab35fdefc6344cf833784c9b8eca35", "lat": 38.8962265, "is_reserved": 0, "fusion_lat": 0.0, "rental_uris": {"android": "https://dc.lft.to/lastmile_qr_scan", "ios": "https://dc.lft.to/lastmile_qr_scan"},