{"data": {"bikes": [{"is_disabled": 0, "fusion_lon": 0.0, "fusion_lat": 0.0, "lat": 38.838110666666665, "type": "electric_scooter", "lon": -77.004321, "bike_id": "b20736000cfcac63f213658bfc40adff", "rental_uris": {"android": "https://dc.lft.to/lastmile_qr_scan", "ios": "https://dc.lft.to/lastmile_qr_scan"}, "name": "b20736000cfcac63f213658bfc40adff", "is_reserved": 0}, {"is_disabled": 0, "fusion_lon": 0.0, "fusion_lat": 0.0, "lat": 38.84291316666667, "type": "electric_scooter", "lon": -76.999493, "bike_id": "706ab352486720854901ef5c689be73f", "rental_uris": {"android": "https://dc.lft.to/lastmile_qr_scan", "ios": "https://dc.lft.to/lastmile_qr_scan"}, "name": "706ab352486720854901ef5c689be73f", "is_reserved": 0}, {"is_disabled": 0, "fusion_lon": 0.0, "fusion_lat": 0.0, "lat": 38.921699333333336, "type": "electric_scooter", "lon": -77.0338015, "bike_id": "0a59c0053b42959e8b4f3c437052cb2f", "rental_uris": {"android": "https://dc.lft.to/lastmile_qr_scan", "ios": "https://dc.lft.to/lastmile_qr_scan"}, "name": "0a59c0053b42959e8b4f3c437052cb2f", "is_reserved": 0}, {"is_disabled": 0, "fusion_lon": 0.0, "fusion_lat": 0.0, "lat": 38.9025395, "type": "electric_scooter", "lon": -77.053393, "bike_id": "f7b1a11cd0b6af8394befee493cb51b8", "rental_uris": {"android": "https://dc.lft.to/lastmile_qr_scan", "ios": "https://dc.lft.to/lastmile_qr_scan"}, "name": "f7b1a11cd0b6af8394befee493cb51b8", "is_reserved": 0}, {"is_disabled": 0, "fusion_lon": 0.0, "fusion_lat": 0.0, "lat": 38.89731583333333, "type": "electric_scooter", "lon": -77.028539, "bike_id": "1ed6df61fefcd0b32e7804226809ee04", "rental_uris": {"android": "https://dc.lft.to/lastmile_qr_scan", "ios": "https://dc.lft.to/lastmile_qr_scan"}, "name": "1ed6df61fefcd0b32e7804226809ee04", "is_reserved": 0}, {"is_disabled": 0, "fusion_lon": 0.0, "fusion_lat": 0.0, "lat": 38.894634333333336, "type": "electric_scooter", "lon": -76.99488766666667, "bike_id": "f5aa94eec647ecee484c13d83acc8bc5", "rental_uris": {"android": "https://dc.lft.to/lastmile_qr_scan", "ios": "https://dc.lft.to/lastmile_qr_scan"}, "name": "f5aa94eec647ecee484c13d83acc8bc5", "is_reserved": 0}, {"is_disabled": 0, "fusion_lon": 0.0, "fusion_lat": 0.0, "lat": 38.903022666666665, "type": "electric_scooter", "lon": -77.0222085, "bike_id": "bb3371a7637129e13fd5dc192f3222d2", "rental_uris": {"android": "https://dc.lft.to/lastmile_qr_scan", "ios": "https://dc.lft.to/lastmile_qr_scan"}, "name": "bb3371a7637129e13fd5dc192f3222d2", "is_reserved": 0}, {"is_disabled": 0, "fusion_lon": 0.0, "fusion_lat": 0.0, "lat": 39.099447166666664, "type": "electric_bike", "lon": -77.18790633333333, "bike_id": "3588ed2c784d64df1c680269da07d247", "rental_uris": {"android": "https://dc.lft.to/lastmile_qr_scan", "ios": "https://dc.lft.to/lastmile_qr_scan"}, "name": "3588ed2c784d64df1c680269da07d247", "is_reserved": 0}, {"is_disabled": 0, "fusion_lon": 0.0, "fusion_lat": 0.0, "lat": 38.90725916666667, "type": "electric_scooter", "lon": -77.02979916666666, "bike_id": "0ae4ded1ae20c12c929d22d84f372873", "rental_uris": {"android": "https://dc.lft.to/lastmile_qr_scan", "ios": "https://dc.lft.to/lastmile_qr_scan"}, "name": "0ae4ded1ae20c12c929d22d84f372873", "is_reserved": 0}, {"is_disabled": 0, "fusion_lon": 0.0, "fusion_lat": 0.0, "lat": 38.93499766666667, "type": "electric_bike", "lon": -76.9495225, "bike_id": "74b51955650ecded388111afe15d3701", "rental_uris": {"android": "https://dc.lft.to/lastmile_qr_scan", "ios": "https://dc.lft.to/lastmile_qr_scan"}, "name": "74b51955650ecded388111afe15d3701", "is_reserved": 0}, {"is_disabled": 0, "fusion_lon": 0.0, "fusion_lat": 0.0, "lat": 38.886288, "type": "electric_scooter", "lon": -76.99848083333333, "bike_id": "8506feb28065f67bc9221b418807e6b1", "rental_uris": {"android": "https://dc.lft.to/lastmile_qr_scan", "ios": "https://dc.lft.to/lastmile_qr_scan"}, "name": "8506feb28065f67bc9221b418807e6b1", "is_reserved": 0}, {"is_disabled": 0, "fusion_lon": 0.0, "fusion_lat": 0.0, "lat": 38.93704, "type": "electric_scooter", "lon": -77.06098033333333, "bike_id": "91fa00a575d3a6686ce709cf1dcc64cc", "rental_uris": {"android": "https://dc.lft.to/lastmile_qr_scan", "ios": "https://dc.lft.to/lastmile_qr_scan"}, "name": "91fa00a575d3a6686ce709cf1dcc64cc", "is_reserved": 0}, {"is_disabled": 0, "fusion_lon": 0.0, "fusion_lat": 0.0, "lat": 38.981351833333335, "type": "electric_bike", "lon": -77.00762616666667, "bike_id": "742bbc1a68c63417ef0cf0efe4a29223", "rental_uris": {"android": "https://dc.lft.to/lastmile_qr_scan", "ios": "https://dc.lft.to/lastmile_qr_scan"}, "name": "742bbc1a68c63417ef0cf0efe4a29223", "is_reserved": 0}, {"is_disabled": 0, "fusion_lon": 0.0, "fusion_lat": 0.0, "lat": 38.90586183333333, "type": "electric_scooter", "lon": -77.0513635, "bike_id": "be90fee29b11de108cb1beaee73751bd", "rental_uris": {"android": "https://dc.lft.to/lastmile_qr_scan", "ios": "https://dc.lft.to/lastmile_qr_scan"}, "name": "be90fee29b11de108cb1beaee73751bd", "is_reserved": 0}, {"is_disabled": 0, "fusion_lon": 0.0, "fusion_lat": 0.0, "lat": 38.9062185, "type": "electric_scooter", "lon": -77.024099, "bike_id": "f234f6d37d6a8110f806bde821223506", "rental_uris": {"android": "https://dc.lft.to/lastmile_qr_scan", "ios": "https://dc.lft.to/lastmile_qr_scan"}, "name": "f234f6d37d6a8110f806bde821223506", "is_reserved": 0}, {"is_disabled": 0, "fusion_lon": 0.0, "fusion_lat": 0.0, "lat": 38.86355283333333, "type": "electric_scooter", "lon": -76.99062816666667, "bike_id": "a0be2fbb04c67ba36eedf2647942d831", "rental_uris": {"android": "https://dc.lft.to/lastmile_qr_scan", "ios": "https://dc.lft.to/lastmile_qr_scan"}, "name": "a0be2fbb04c67ba36eedf2647942d831", "is_reserved": 0}, {"is_disabled": 0, "fusion_lon": 0.0, "fusion_lat": 0.0, "lat": 38.8488885, "type": "electric_scooter", "lon": -77.0052165, "bike_id": "b90effa54cb89fcac66c5883c5ff2bab", "rental_uris": {"android": "https://dc.lft.to/lastmile_qr_scan", "ios": "https://dc.lft.to/lastmile_qr_scan"}, "name": "b90effa54cb89fcac66c5883c5ff2bab", "is_reserved": 0}, {"is_disabled": 0, "fusion_lon": 0.0, "fusion_lat": 0.0, "lat": 38.87774983333333, "type": "electric_scooter", "lon": -77.01429783333333, "bike_id": "fe14aa7ea3b26e1154ba30408635deed", "rental_uris": {"android": "https://dc.lft.to/lastmile_qr_scan", "ios": "https://dc.lft.to/lastmile_qr_scan"}, "name": "fe14aa7ea3b26e1154ba30408635deed", "is_reserved": 0}, {"is_disabled": 0, "fusion_lon": 0.0, "fusion_lat": 0.0, "lat": 38.90060316666667, "type": "electric_scooter", "lon": -77.00756816666667, "bike_id": "981afcd112ddbe1e15c4cc004fb6989b", "rental_uris": {"android": "https://dc.lft.to/lastmile_qr_scan", "ios": "https://dc.lft.to/lastmile_qr_scan"}, "name": "981afcd112ddbe1e15c4cc004fb6989b", "is_reserved": 0}, {"is_disabled": 0, "fusion_lon": 0.0, "fusion_lat": 0.0, "lat": 38.923983, "type": "electric_scooter", "lon": -77.04095116666667, "bike_id": "deffe29b5920cfa036946f54575b3310", "rental_uris": {"android": "https://dc.lft.to/lastmile_qr_scan", "ios": "https://dc.lft.to/lastmile_qr_scan"}, "name": "deffe29b5920cfa036946f54575b3310", "is_reserved": 0}, {"is_disabled": 0, "fusion_lon": 0.0, "fusion_lat": 0.0, "lat": 38.902080166666664, "type": "electric_scooter", "lon": -77.02428983333333, "bike_id": "e2e41d7d6235f80f99033697432960a6", "rental_uris": {"android": "https://dc.lft.to/lastmile_qr_scan", "ios": "https://dc.lft.to/lastmile_qr_scan"}, "name": "e2e41d7d6235f80f99033697432960a6", "is_reserved": 0}, {"is_disabled": 0, "fusion_lon": 0.0, "fusion_lat": 0.0, "lat": 38.912302833333335, "type": "electric_scooter", "lon": -77.04523916666666, "bike_id": "c0c486a4187e24f8e7f0893753ed7885", "rental_uris": {"android": "https://dc.lft.to/lastmile_qr_scan", "ios": "https://dc.lft.to/lastmile_qr_scan"}, "name": "c0c486a4187e24f8e7f0893753ed7885", "is_reserved": 0}, {"is_disabled": 0, "fusion_lon": 0.0, "fusion_lat": 0.0, "lat": 38.86892116666667, "type": "electric_scooter", "lon": -76.98317633333333, "bike_id": "5a5931d72d044c32923528c9f9a10918", "rental_uris": {"android": "https://dc.lft.to/lastmile_qr_scan", "ios": "https://dc.lft.to/lastmile_qr_scan"}, "name": "5a5931d72d044c32923528c9f9a10918", "is_reserved": 0}, {"is_disabled": 0, "fusion_lon": 0.0, "fusion_lat": 0.0, "lat": 38.859881333333334, "type": "electric_bike", "lon": -76.97052766666667, "bike_id": "91751c9937186c36a74e557890fff644", "rental_uris": {"android": "https://dc.lft.to/lastmile_qr_scan", "ios": "https://dc.lft.to/lastmile_qr_scan"}, "name": "91751c9937186c36a74e557890fff644", "is_reserved": 0}, {"is_disabled": 0, "fusion_lon": 0.0, "fusion_lat": 0.0, "lat": 38.91465683333333, "type": "electric_scooter", "lon": -77.02798433333334, "bike_id": "bd2b3b8ac0e811b34f409b5c09107c7b", "rental_uris": {"android": "https://dc.lft.to/lastmile_qr_scan", "ios": "https://dc.lft.to/lastmile_qr_scan"}, "name": "bd2b3b8ac0e811b34f409b5c09107c7b", "is_reserved": 0}, {"is_disabled": 0, "fusion_lon": 0.0, "fusion_lat": 0.0, "lat": 38.994554666666666, "type": "electric_bike", "lon": -76.90815116666667, "bike_id": "26f590c1b9d8d8492647bee2f5b8b6d3", "rental_uris": {"android": "https://dc.lft.to/lastmile_qr_scan", "ios": "https://dc.lft.to/lastmile_qr_scan"}, "name": "26f590c1b9d8d8492647bee2f5b8b6d3", "is_reserved": 0}, {"is_disabled": 0, "fusion_lon": 0.0, "fusion_lat": 0.0, "lat": 38.88009816666667, "type": "electric_bike", "lon": -76.91592383333334, "bike_id": "73725197f4b749aa0aca43f27c597334", "rental_uris": {"android": "https://dc.lft.to/lastmile_qr_scan", "ios": "https://dc.lft.to/lastmile_qr_scan"}, "name": "73725197f4b749aa0aca43f27c597334", "is_reserved": 0}, {"is_disabled": 0, "fusion_lon": 0.0, "fusion_lat": 0.0, "lat": 38.88590516666667, "type": "electric_scooter", "lon": -77.005829, "bike_id": "ba1ac307ffcd4dcf7489aaa8fe0ef2bd", "rental_uris": {"android": "https://dc.lft.to/lastmile_qr_scan", "ios": "https://dc.lft.to/lastmile_qr_scan"}, "name": "ba1ac307ffcd4dcf7489aaa8fe0ef2bd", "is_reserved": 0}, {"is_disabled": 0, "fusion_lon": 0.0, "fusion_lat": 0.0, "lat": 38.906169166666665, "type": "electric_scooter", "lon": -77.028046, "bike_id": "5b6777c730ed09211f180efd6392f0eb", "rental_uris": {"android": "https://dc.lft.to/lastmile_qr_scan", "ios": "https://dc.lft.to/lastmile_qr_scan"}, "name": "5b6777c730ed09211f180efd6392f0eb", "is_reserved": 0}, {"is_disabled": 0, "fusion_lon": 0.0, "fusion_lat": 0.0, "lat": 38.907180333333336, "type": "electric_scooter", "lon": -77.03066233333334, "bike_id": "6b7086b3d475ece9127ed51622ea0bcd", "rental_uris": {"android": "https://dc.lft.to/lastmile_qr_scan", "ios": "https://dc.lft.to/lastmile_qr_scan"}, "name": "6b7086b3d475ece9127ed51622ea0bcd", "is_reserved": 0}, {"is_disabled": 0, "fusion_lon": 0.0, "fusion_lat": 0.0, "lat": 38.90366316666667, "type": "electric_scooter", "lon": -77.00339833333334, "bike_id": "c9c9383671032a726839f7d79eac530c", "rental_uris": {"android": "https://dc.lft.to/lastmile_qr_scan", "ios": "https://dc.lft.to/lastmile_qr_scan"}, "name": "c9c9383671032a726839f7d79eac530c", "is_reserved": 0}, {"is_disabled": 0, "fusion_lon": 0.0, "fusion_lat": 0.0, "lat": 38.901552833333334, "type": "electric_scooter", "lon": -77.04167766666667, "bike_id": "44db338378a6d5c4d53e47fe8b1b8be6", "rental_uris": {"android": "https://dc.lft.to/lastmile_qr_scan", "ios": "https://dc.lft.to/lastmile_qr_scan"}, "name": "44db338378a6d5c4d53e47fe8b1b8be6", "is_reserved": 0}, {"is_disabled": 0, "fusion_lon": 0.0, "fusion_lat": 0.0, "lat": 38.89648533333333, "type": "electric_scooter", "lon": -77.04361116666666, "bike_id": "e142a39efefee729c2417692a1b3e766", "rental_uris": {"android": "https://dc.lft.to/lastmile_qr_scan", "ios": "https://dc.lft.to/lastmile_qr_scan"}, "name": "e142a39efefee729c2417692a1b3e766", "is_reserved": 0}, {"is_disabled": 0, "fusion_lon": 0.0, "fusion_lat": 0.0, "lat": 38.901527333333334, "type": "electric_scooter", "lon": -77.0414755, "bike_id": "77f8aaffe6d96a1bffc460d7d2a8397e", "rental_uris": {"android": "https://dc.lft.to/lastmile_qr_scan", "ios": "https://dc.lft.to/lastmile_qr_scan"}, "name": "77f8aaffe6d96a1bffc460d7d2a8397e", "is_reserved": 0}, {"is_disabled": 0, "fusion_lon": 0.0, "fusion_lat": 0.0, "lat": 38.90579616666667, "type": "electric_scooter", "lon": -77.03359666666667, "bike_id": "9337f3765e5f9b48a2495b3cb99ce382", "rental_uris": {"android": "https://dc.lft.to/lastmile_qr_scan", "ios": "https://dc.lft.to/lastmile_qr_scan"}, "name": "9337f3765e5f9b48a2495b3cb99ce382", "is_reserved": 0}, {"is_disabled": 0, "fusion_lon": 0.0, "fusion_lat": 0.0, "lat": 38.89841716666667, "type": "electric_scooter", "lon": -77.03354916666666, "bike_id": "ca0011997c89f6f683908ece66e2c8ec", "rental_uris": {"android": "https://dc.lft.to/lastmile_qr_scan", "ios": "https://dc.lft.to/lastmile_qr_scan"}, "name": "ca0011997c89f6f683908ece66e2c8ec", "is_reserved": 0}, {"is_disabled": 0, "fusion_lon": 0.0, "fusion_lat": 0.0, "lat": 38.888667, "type": "electric_scooter", "lon": -76.977385, "bike_id": "31c68fc6856111bb5f66ad872e90cad8", "rental_uris": {"android": "https://dc.lft.to/lastmile_qr_scan", "ios": "https://dc.lft.to/lastmile_qr_scan"}, "name": "31c68fc6856111bb5f66ad872e90cad8", "is_reserved": 0}, {"is_disabled": 0, "fusion_lon": 0.0, "fusion_lat": 0.0, "lat": 38.89764266666667, "type": "electric_scooter", "lon": -77.0219485, "bike_id": "984e227227cdd0ea9fc51f744937a880", "rental_uris": {"android": "https://dc.lft.to/lastmile_qr_scan", "ios": "https://dc.lft.to/lastmile_qr_scan"}, "name": "984e227227cdd0ea9fc51f744937a880", "is_reserved": 0}, {"is_disabled": 0, "fusion_lon": 0.0, "fusion_lat": 0.0, "lat": 38.82728566666667, "type": "electric_bike", "lon": -77.00865766666666, "bike_id": "961514ddaf51481482c1329172e720db", "rental_uris": {"android": "https://dc.lft.to/lastmile_qr_scan", "ios": "https://dc.lft.to/lastmile_qr_scan"}, "name": "961514ddaf51481482c1329172e720db", "is_reserved": 0}, {"is_disabled": 0, "fusion_lon": 0.0, "fusion_lat": 0.0, "lat": 38.900113, "type": "electric_scooter", "lon": -77.01191116666666, "bike_id": "19b68775d6f39a53456bde3883834b75", "rental_uris": {"android": "https://dc.lft.to/lastmile_qr_scan", "ios": "https://dc.lft.to/lastmile_qr_scan"}, "name": "19b68775d6f39a53456bde3883834b75", "is_reserved": 0}, {"is_disabled": 0, "fusion_lon": 0.0, "fusion_lat": 0.0, "lat": 38.8063935, "type": "electric_bike", "lon": -77.0397, "bike_id": "f0995eeda37b3d2585c9f5bbdd1cf5e2", "rental_uris": {"android": "https://dc.lft.to/lastmile_qr_scan", "ios": "https://dc.lft.to/lastmile_qr_scan"}, "name": "f0995eeda37b3d2585c9f5bbdd1cf5e2", "is_reserved": 0}, {"is_disabled": 0, "fusion_lon": 0.0, "fusion_lat": 0.0, "lat": 38.919705666666665, "type": "electric_scooter", "lon": -77.04176333333334, "bike_id": "a37d998e873dab896c855cee3fd7f93e", "rental_uris": {"android": "https://dc.lft.to/lastmile_qr_scan", "ios": "https://dc.lft.to/lastmile_qr_scan"}, "name": "a37d998e873dab896c855cee3fd7f93e", "is_reserved": 0}, {"is_disabled": 0, "fusion_lon": 0.0, "fusion_lat": 0.0, "lat": 38.88754983333333, "type": "electric_scooter", "lon": -77.03379366666667, "bike_id": "5263ac49a33b38a858438c9567bc048d", "rental_uris": {"android": "https://dc.lft.to/lastmile_qr_scan", "ios": "https://dc.lft.to/lastmile_qr_scan"}, "name": "5263ac49a33b38a858438c9567bc048d", "is_reserved": 0}, {"is_disabled": 0, "fusion_lon": 0.0, "fusion_lat": 0.0, "lat": 38.92969383333333, "type": "electric_scooter", "lon": -77.0053115, "bike_id": "0806bba0aa5c5b135ff8dcaf68072afe", "rental_uris": {"android": "https://dc.lft.to/lastmile_qr_scan", "ios": "https://dc.lft.to/lastmile_qr_scan"}, "name": "0806bba0aa5c5b135ff8dcaf68072afe", "is_reserved": 0}, {"is_disabled": 0, "fusion_lon": 0.0, "fusion_lat": 0.0, "lat": 38.907612666666665, "type": "electric_scooter", "lon": -77.03581916666667, "bike_id": "77a9228b3a9b718e054bc927bb67382a", "rental_uris": {"android": "https://dc.lft.to/lastmile_qr_scan", "ios": "https://dc.lft.to/lastmile_qr_scan"}, "name": "77a9228b3a9b718e054bc927bb67382a", "is_reserved": 0}, {"is_disabled": 0, "fusion_lon": 0.0, "fusion_lat": 0.0, "lat": 38.941536, "type": "electric_bike", "lon": -77.001951, "bike_id": "ce46010ae34f4e0727c4decbc4640088", "rental_uris": {"android": "https://dc.lft.to/lastmile_qr_scan", "ios": "https://dc.lft.to/lastmile_qr_scan"}, "name": "ce46010ae34f4e0727c4decbc4640088", "is_reserved": 0}, {"is_disabled": 0, "fusion_lon": 0.0, "fusion_lat": 0.0, "lat": 39.0581345, "type": "electric_bike", "lon": -77.12623216666667, "bike_id": "83b138003084399c3d6b4bd86025237a", "rental_uris": {"android": "https://dc.lft.to/lastmile_qr_scan", "ios": "https://dc.lft.to/lastmile_qr_scan"}, "name": "83b138003084399c3d6b4bd86025237a", "is_reserved": 0}, {"is_disabled": 0, "fusion_lon": 0.0, "fusion_lat": 0.0, "lat": 38.876769333333336, "type": "electric_bike", "lon": -77.0144495, "bike_id": "49fa0c6e1cb70ce98c65fc0d50d6801c", "rental_uris": {"android": "https://dc.lft.to/lastmile_qr_scan", "ios": "https://dc.lft.to/lastmile_qr_scan"}, "name": "49fa0c6e1cb70ce98c65fc0d50d6801c", "is_reserved": 0}, {"is_disabled": 0, "fusion_lon": 0.0, "fusion_lat": 0.0, "lat": 38.882947, "type": "electric_bike", "lon": -77.10436616666667, "bike_id": "ac8e7ef91ff4666b17ccf0c75e159d7f", "rental_uris": {"android": "https://dc.lft.to/lastmile_qr_scan", "ios": "https://dc.lft.to/lastmile_qr_scan"}, "name": "ac8e7ef91ff4666b17ccf0c75e159d7f", "is_reserved": 0}, {"is_disabled": 0, "fusion_lon": 0.0, "fusion_lat": 0.0, "lat": 38.922980833333334, "type": "electric_scooter", "lon": -77.0402005, "bike_id": "d1cadbff8e88f0793943f227a7a1748c", "rental_uris": {"android": "https://dc.lft.to/lastmile_qr_scan", "ios": "https://dc.lft.to/lastmile_qr_scan"}, "name": "d1cadbff8e88f0793943f227a7a1748c", "is_reserved": 0}, {"is_disabled": 0, "fusion_lon": 0.0, "fusion_lat": 0.0, "lat": 38.91863933333333, "type": "electric_scooter", "lon": -77.03516333333333, "bike_id": "2fb528813d3d4ab39a4ef4fe506744c6", "rental_uris": {"android": "https://dc.lft.to/lastmile_qr_scan", "ios": "https://dc.lft.to/lastmile_qr_scan"}, "name": "2fb528813d3d4ab39a4ef4fe506744c6", "is_reserved": 0}, {"is_disabled": 0, "fusion_lon": 0.0, "fusion_lat": 0.0, "lat": 38.90717133333333, "type": "electric_scooter", "lon": -77.02391883333334, "bike_id": "5c3aec5fc897574383198fd1c13bf28a", "rental_uris": {"android": "https://dc.lft.to/lastmile_qr_scan", "ios": "https://dc.lft.to/lastmile_qr_scan"}, "name": "5c3aec5fc897574383198fd1c13bf28a", "is_reserved": 0}, {"is_disabled": 0, "fusion_lon": 0.0, "fusion_lat": 0.0, "lat": 38.903539, "type": "electric_scooter", "lon": -77.00740233333333, "bike_id": "c96b8522fb9ff2607fd55096469139d0", "rental_uris": {"android": "https://dc.lft.to/lastmile_qr_scan", "ios": "https://dc.lft.to/lastmile_qr_scan"}, "name": "c96b8522fb9ff2607fd55096469139d0", "is_reserved": 0}, {"is_disabled": 0, "fusion_lon": 0.0, "fusion_lat": 0.0, "lat": 38.90970766666667, "type": "electric_scooter", "lon": -77.0374205, "bike_id": "8e2fd9437712e9e70c7e59e0a0db8204", "rental_uris": {"android": "https://dc.lft.to/lastmile_qr_scan", "ios": "https://dc.lft.to/lastmile_qr_scan"}, "name": "8e2fd9437712e9e70c7e59e0a0db8204", "is_reserved": 0}, {"is_disabled": 0, "fusion_lon": 0.0, "fusion_lat": 0.0, "lat": 38.90026616666667, "type": "electric_scooter", "lon": -77.01192183333333, "bike_id": "5f89e0f891479400b30da3820bc87d0b", "rental_uris": {"android": "https://dc.lft.to/lastmile_qr_scan", "ios": "https://dc.lft.to/lastmile_qr_scan"}, "name": "5f89e0f891479400b30da3820bc87d0b", "is_reserved": 0}, {"is_disabled": 0, "fusion_lon": 0.0, "fusion_lat": 0.0, "lat": 38.95254833333333, "type": "electric_bike", "lon": -77.06977383333333, "bike_id": "616adfdeea384c3de3692fbec76f1528", "rental_uris": {"android": "https://dc.lft.to/lastmile_qr_scan", "ios": "https://dc.lft.to/lastmile_qr_scan"}, "name": "616adfdeea384c3de3692fbec76f1528", "is_reserved": 0}, {"is_disabled": 0, "fusion_lon": 0.0, "fusion_lat": 0.0, "lat": 38.9279375, "type": "electric_scooter", "lon": -77.02297133333333, "bike_id": "48c16ce9afc7c9126faba8f2e040f88d", "rental_uris": {"android": "https://dc.lft.to/lastmile_qr_scan", "ios": "https://dc.lft.to/lastmile_qr_scan"}, "name": "48c16ce9afc7c9126faba8f2e040f88d", "is_reserved": 0}, {"is_disabled": 0, "fusion_lon": 0.0, "fusion_lat": 0.0, "lat": 38.89657583333333, "type": "electric_scooter", "lon": -77.02739883333334, "bike_id": "2a55632140141ddc71a71950a50a2ad5", "rental_uris": {"android": "https://dc.lft.to/lastmile_qr_scan", "ios": "https://dc.lft.to/lastmile_qr_scan"}, "name": "2a55632140141ddc71a71950a50a2ad5", "is_reserved": 0}, {"is_disabled": 0, "fusion_lon": 0.0, "fusion_lat": 0.0, "lat": 38.90127783333333, "type": "electric_scooter", "lon": -77.01775583333334, "bike_id": "c7c9fe0fe9d3522c4684763374ff1bb6", "rental_uris": {"android": "https://dc.lft.to/lastmile_qr_scan", "ios": "https://dc.lft.to/lastmile_qr_scan"}, "name": "c7c9fe0fe9d3522c4684763374ff1bb6", "is_reserved": 0}, {"is_disabled": 0, "fusion_lon": 0.0, "fusion_lat": 0.0, "lat": 38.900281666666665, "type": "electric_scooter", "lon": -77.00211366666667, "bike_id": "d504e0ea10fcaec534bf0309b8e74b76", "rental_uris": {"android": "https://dc.lft.to/lastmile_qr_scan", "ios": "https://dc.lft.to/lastmile_qr_scan"}, "name": "d504e0ea10fcaec534bf0309b8e74b76", "is_reserved": 0}, {"is_disabled": 0, "fusion_lon": 0.0, "fusion_lat": 0.0, "lat": 38.90371716666667, "type": "electric_scooter", "lon": -77.034834, "bike_id": "175d29858b79227c5eeab29196473c0d", "rental_uris": {"android": "https://dc.lft.to/lastmile_qr_scan", "ios": "https://dc.lft.to/lastmile_qr_scan"}, "name": "175d29858b79227c5eeab29196473c0d", "is_reserved": 0}, {"is_disabled": 0, "fusion_lon": 0.0, "fusion_lat": 0.0, "lat": 38.85070066666667, "type": "electric_bike", "lon": -76.97327516666667, "bike_id": "45158869a404fb621c7037fbfbf14b31", "rental_uris": {"android": "https://dc.lft.to/lastmile_qr_scan", "ios": "https://dc.lft.to/lastmile_qr_scan"}, "name": "45158869a404fb621c7037fbfbf14b31", "is_reserved": 0}, {"is_disabled": 0, "fusion_lon": 0.0, "fusion_lat": 0.0, "lat": 38.859749666666666, "type": "electric_scooter", "lon": -76.98406883333334, "bike_id": "842584fdca4bf56347094e17937a19fc", "rental_uris": {"android": "https://dc.lft.to/lastmile_qr_scan", "ios": "https://dc.lft.to/lastmile_qr_scan"}, "name": "842584fdca4bf56347094e17937a19fc", "is_reserved": 0}, {"is_disabled": 0, "fusion_lon": 0.0, "fusion_lat": 0.0, "lat": 38.91386633333333, "type": "electric_scooter", "lon": -77.03853, "bike_id": "0e6096aca28e95c35ee346334b6b6810", "rental_uris": {"android": "https://dc.lft.to/lastmile_qr_scan", "ios": "https://dc.lft.to/lastmile_qr_scan"}, "name": "0e6096aca28e95c35ee346334b6b6810", "is_reserved": 0}, {"is_disabled": 0, "fusion_lon": 0.0, "fusion_lat": 0.0, "lat": 38.956356166666666, "type": "electric_scooter", "lon": -77.029763, "bike_id": "42d456d6b61e7b96f88104820bfd47e7", "rental_uris": {"android": "https://dc.lft.to/lastmile_qr_scan", "ios": "https://dc.lft.to/lastmile_qr_scan"}, "name": "42d456d6b61e7b96f88104820bfd47e7", "is_reserved": 0}, {"is_disabled": 0, "fusion_lon": 0.0, "fusion_lat": 0.0, "lat": 38.90177933333333, "type": "electric_scooter", "lon": -76.92825766666667, "bike_id": "6e9ac6fa756e30f06b234aa219d80807", "rental_uris": {"android": "https://dc.lft.to/lastmile_qr_scan", "ios": "https://dc.lft.to/lastmile_qr_scan"}, "name": "6e9ac6fa756e30f06b234aa219d80807", "is_reserved": 0}, {"is_disabled": 0, "fusion_lon": 0.0, "fusion_lat": 0.0, "lat": 38.91480083333333, "type": "electric_scooter", "lon": -77.032185, "bike_id": "886cf992ac68bd9767b578fc7e37083c", "rental_uris": {"android": "https://dc.lft.to/lastmile_qr_scan", "ios": "https://dc.lft.to/lastmile_qr_scan"}, "name": "886cf992ac68bd9767b578fc7e37083c", "is_reserved": 0}, {"is_disabled": 0, "fusion_lon": 0.0, "fusion_lat": 0.0, "lat": 38.910902, "type": "electric_scooter", "lon": -77.03857216666667, "bike_id": "70a535a78562e05a38012cd01566b13d", "rental_uris": {"android": "https://dc.lft.to/lastmile_qr_scan", "ios": "https://dc.lft.to/lastmile_qr_scan"}, "name": "70a535a78562e05a38012cd01566b13d", "is_reserved": 0}, {"is_disabled": 0, "fusion_lon": 0.0, "fusion_lat": 0.0, "lat": 38.90940366666667, "type": "electric_scooter", "lon": -77.03199383333333, "bike_id": "b814f27c095064d4f90594db985a671f", "rental_uris": {"android": "https://dc.lft.to/lastmile_qr_scan", "ios": "https://dc.lft.to/lastmile_qr_scan"}, "name": "b814f27c095064d4f90594db985a671f", "is_reserved": 0}, {"is_disabled": 0, "fusion_lon": 0.0, "fusion_lat": 0.0, "lat": 38.90699566666667, "type": "electric_scooter", "lon": -77.02384066666667, "bike_id": "bd1c937889824ba1e40cd83f48a8b2de", "rental_uris": {"android": "https://dc.lft.to/lastmile_qr_scan", "ios": "https://dc.lft.to/lastmile_qr_scan"}, "name": "bd1c937889824ba1e40cd83f48a8b2de", "is_reserved": 0}, {"is_disabled": 0, "fusion_lon": 0.0, "fusion_lat": 0.0, "lat": 38.915656, "type": "electric_scooter", "lon": -77.03276083333333, "bike_id": "0b2b81d7553ab109f5370e9447118cf7", "rental_uris": {"android": "https://dc.lft.to/lastmile_qr_scan", "ios": "https://dc.lft.to/lastmile_qr_scan"}, "name": "0b2b81d7553ab109f5370e9447118cf7", "is_reserved": 0}, {"is_disabled": 0, "fusion_lon": 0.0, "fusion_lat": 0.0, "lat": 38.94788583333333, "type": "electric_scooter", "lon": -77.09272016666667, "bike_id": "81a759b39723b6ac6e34e8fa5dd8744e", "rental_uris": {"android": "https://dc.lft.to/lastmile_qr_scan", "ios": "https://dc.lft.to/lastmile_qr_scan"}, "name": "81a759b39723b6ac6e34e8fa5dd8744e", "is_reserved": 0}, {"is_disabled": 0, "fusion_lon": 0.0, "fusion_lat": 0.0, "lat": 38.865758166666666, "type": "electric_scooter", "lon": -76.99043883333333, "bike_id": "cecc22d2ee035da685a4c68525610be3", "rental_uris": {"android": "https://dc.lft.to/lastmile_qr_scan", "ios": "https://dc.lft.to/lastmile_qr_scan"}, "name": "cecc22d2ee035da685a4c68525610be3", "is_reserved": 0}, {"is_disabled": 0, "fusion_lon": 0.0, "fusion_lat": 0.0, "lat": 38.88716466666666, "type": "electric_scooter", "lon": -77.028273, "bike_id": "8da3151f480b14e02c81519fd28e605f", "rental_uris": {"android": "https://dc.lft.to/lastmile_qr_scan", "ios": "https://dc.lft.to/lastmile_qr_scan"}, "name": "8da3151f480b14e02c81519fd28e605f", "is_reserved": 0}, {"is_disabled": 0, "fusion_lon": 0.0, "fusion_lat": 0.0, "lat": 38.92068916666667, "type": "electric_scooter", "lon": -77.01809766666666, "bike_id": "39281a7538c92941b6241a7869906f74", "rental_uris": {"android": "https://dc.lft.to/lastmile_qr_scan", "ios": "https://dc.lft.to/lastmile_qr_scan"}, "name": "39281a7538c92941b6241a7869906f74", "is_reserved": 0}, {"is_disabled": 0, "fusion_lon": 0.0, "fusion_lat": 0.0, "lat": 38.93107216666667, "type": "electric_scooter", "lon": -77.03484316666666, "bike_id": "0a1a846a47ac84bdee12e2a1dd83531a", "rental_uris": {"android": "https://dc.lft.to/lastmile_qr_scan", "ios": "https://dc.lft.to/lastmile_qr_scan"}, "name": "0a1a846a47ac84bdee12e2a1dd83531a", "is_reserved": 0}, {"is_disabled": 0, "fusion_lon": 0.0, "fusion_lat": 0.0, "lat": 38.902398, "type": "electric_scooter", "lon": -77.02009583333333, "bike_id": "6afe3407d9b5e9f99627f2e0c92e9438", "rental_uris": {"android": "https://dc.lft.to/lastmile_qr_scan", "ios": "https://dc.lft.to/lastmile_qr_scan"}, "name": "6afe3407d9b5e9f99627f2e0c92e9438", "is_reserved": 0}, {"is_disabled": 0, "fusion_lon": 0.0, "fusion_lat": 0.0, "lat": 38.896179333333336, "type": "electric_scooter", "lon": -76.9963975, "bike_id": "46e5713b9aabc44dc2ef8a4f2f1f5810", "rental_uris": {"android": "https://dc.lft.to/lastmile_qr_scan", "ios": "https://dc.lft.to/lastmile_qr_scan"}, "name": "46e5713b9aabc44dc2ef8a4f2f1f5810", "is_reserved": 0}, {"is_disabled": 0, "fusion_lon": 0.0, "fusion_lat": 0.0, "lat": 38.91631366666667, "type": "electric_scooter", "lon": -77.02287516666667, "bike_id": "99f7ba843a5853458df7c0a0cc518ef6", "rental_uris": {"android": "https://dc.lft.to/lastmile_qr_scan", "ios": "https://dc.lft.to/lastmile_qr_scan"}, "name": "99f7ba843a5853458df7c0a0cc518ef6", "is_reserved": 0}, {"is_disabled": 0, "fusion_lon": 0.0, "fusion_lat": 0.0, "lat": 38.90601, "type": "electric_scooter", "lon": -77.01614816666667, "bike_id": "dd51287bc1b60aed955ad60508defc46", "rental_uris": {"android": "https://dc.lft.to/lastmile_qr_scan", "ios": "https://dc.lft.to/lastmile_qr_scan"}, "name": "dd51287bc1b60aed955ad60508defc46", "is_reserved": 0}, {"is_disabled": 0, "fusion_lon": 0.0, "fusion_lat": 0.0, "lat": 38.9134105, "type": "electric_scooter", "lon": -77.0318065, "bike_id": "8a87a61987f61c3207d0c17b95816380", "rental_uris": {"android": "https://dc.lft.to/lastmile_qr_scan", "ios": "https://dc.lft.to/lastmile_qr_scan"}, "name": "8a87a61987f61c3207d0c17b95816380", "is_reserved": 0}, {"is_disabled": 0, "fusion_lon": 0.0, "fusion_lat": 0.0, "lat": 39.0229665, "type": "electric_bike", "lon": -77.021009, "bike_id": "012465c7f4d54635e0a8577846083c32", "rental_uris": {"android": "https://dc.lft.to/lastmile_qr_scan", "ios": "https://dc.lft.to/lastmile_qr_scan"}, "name": "012465c7f4d54635e0a8577846083c32", "is_reserved": 0}, {"is_disabled": 0, "fusion_lon": 0.0, "fusion_lat": 0.0, "lat": 38.960553166666664, "type": "electric_scooter", "lon": -77.08563333333333, "bike_id": "df801e51b78b486872f8f389a83fe0c5", "rental_uris": {"android": "https://dc.lft.to/lastmile_qr_scan", "ios": "https://dc.lft.to/lastmile_qr_scan"}, "name": "df801e51b78b486872f8f389a83fe0c5", "is_reserved": 0}, {"is_disabled": 0, "fusion_lon": 0.0, "fusion_lat": 0.0, "lat": 38.905196333333336, "type": "electric_scooter", "lon": -77.06628, "bike_id": "36337c91b95997bebf5a3af4adabad6d", "rental_uris": {"android": "https://dc.lft.to/lastmile_qr_scan", "ios": "https://dc.lft.to/lastmile_qr_scan"}, "name": "36337c91b95997bebf5a3af4adabad6d", "is_reserved": 0}, {"is_disabled": 0, "fusion_lon": 0.0, "fusion_lat": 0.0, "lat": 38.931518, "type": "electric_scooter", "lon": -77.04132516666667, "bike_id": "a0688c7203e5ef2f3a033eaf00692141", "rental_uris": {"android": "https://dc.lft.to/lastmile_qr_scan", "ios": "https://dc.lft.to/lastmile_qr_scan"}, "name": "a0688c7203e5ef2f3a033eaf00692141", "is_reserved": 0}, {"is_disabled": 0, "fusion_lon": 0.0, "fusion_lat": 0.0, "lat": 38.895554, "type": "electric_scooter", "lon": -76.948768, "bike_id": "aa25382a2eb84b217390c9ce3de2ad5e", "rental_uris": {"android": "https://dc.lft.to/lastmile_qr_scan", "ios": "https://dc.lft.to/lastmile_qr_scan"}, "name": "aa25382a2eb84b217390c9ce3de2ad5e", "is_reserved": 0}, {"is_disabled": 0, "fusion_lon": 0.0, "fusion_lat": 0.0, "lat": 38.865244, "type": "electric_scooter", "lon": -76.98966483333334, "bike_id": "bbdc75cd98366ff07e095b2f49ef3c33", "rental_uris": {"android": "https://dc.lft.to/lastmile_qr_scan", "ios": "https://dc.lft.to/lastmile_qr_scan"}, "name": "bbdc75cd98366ff07e095b2f49ef3c33", "is_reserved": 0}, {"is_disabled": 0, "fusion_lon": 0.0, "fusion_lat": 0.0, "lat": 38.90867033333333, "type": "electric_scooter", "lon": -77.03013716666666, "bike_id": "d089d4fb901b44b19709d4200aebeac7", "rental_uris": {"android": "https://dc.lft.to/lastmile_qr_scan", "ios": "https://dc.lft.to/lastmile_qr_scan"}, "name": "d089d4fb901b44b19709d4200aebeac7", "is_reserved": 0}, {"is_disabled": 0, "fusion_lon": 0.0, "fusion_lat": 0.0, "lat": 38.898445333333335, "type": "electric_scooter", "lon": -76.94494416666667, "bike_id": "e32c4b3b77158f2fac84d21a65553e2d", "rental_uris": {"android": "https://dc.lft.to/lastmile_qr_scan", "ios": "https://dc.lft.to/lastmile_qr_scan"}, "name": "e32c4b3b77158f2fac84d21a65553e2d", "is_reserved": 0}, {"is_disabled": 0, "fusion_lon": 0.0, "fusion_lat": 0.0, "lat": 38.893286, "type": "electric_scooter", "lon": -77.02125366666667, "bike_id": "132a37fa8201b9bef69be3712a341401", "rental_uris": {"android": "https://dc.lft.to/lastmile_qr_scan", "ios": "https://dc.lft.to/lastmile_qr_scan"}, "name": "132a37fa8201b9bef69be3712a341401", "is_reserved": 0}, {"is_disabled": 0, "fusion_lon": 0.0, "fusion_lat": 0.0, "lat": 38.914172, "type": "electric_scooter", "lon": -77.03227333333334, "bike_id": "7181adc42b018267809efea3fe6e9668", "rental_uris": {"android": "https://dc.lft.to/lastmile_qr_scan", "ios": "https://dc.lft.to/lastmile_qr_scan"}, "name": "7181adc42b018267809efea3fe6e9668", "is_reserved": 0}, {"is_disabled": 0, "fusion_lon": 0.0, "fusion_lat": 0.0, "lat": 38.92593, "type": "electric_bike", "lon": -76.88904533333333, "bike_id": "a9f6418fb23c0b3e1da2ec049ec30151", "rental_uris": {"android": "https://dc.lft.to/lastmile_qr_scan", "ios": "https://dc.lft.to/lastmile_qr_scan"}, "name": "a9f6418fb23c0b3e1da2ec049ec30151", "is_reserved": 0}, {"is_disabled": 0, "fusion_lon": 0.0, "fusion_lat": 0.0, "lat": 38.976770333333334, "type": "electric_bike", "lon": -76.97165683333333, "bike_id": "89b4ff1ce16c928c46904c52b1b7df02", "rental_uris": {"android": "https://dc.lft.to/lastmile_qr_scan", "ios": "https://dc.lft.to/lastmile_qr_scan"}, "name": "89b4ff1ce16c928c46904c52b1b7df02", "is_reserved": 0}, {"is_disabled": 0, "fusion_lon": 0.0, "fusion_lat": 0.0, "lat": 38.9133835, "type": "electric_scooter", "lon": -77.03180366666666, "bike_id": "0d9c40ab62935da3a3a107dfba479535", "rental_uris": {"android": "https://dc.lft.to/lastmile_qr_scan", "ios": "https://dc.lft.to/lastmile_qr_scan"}, "name": "0d9c40ab62935da3a3a107dfba479535", "is_reserved": 0}, {"is_disabled": 0, "fusion_lon": 0.0, "fusion_lat": 0.0, "lat": 38.896116166666665, "type": "electric_scooter", "lon": -77.04757233333333, "bike_id": "24cbd957360ab0fe809976a057f9cf8d", "rental_uris": {"android": "https://dc.lft.to/lastmile_qr_scan", "ios": "https://dc.lft.to/lastmile_qr_scan"}, "name": "24cbd957360ab0fe809976a057f9cf8d", "is_reserved": 0}, {"is_disabled": 0, "fusion_lon": 0.0, "fusion_lat": 0.0, "lat": 38.95415033333333, "type": "electric_scooter", "lon": -77.028474, "bike_id": "188338fdcf1821f81eb44f12280efdaf", "rental_uris": {"android": "https://dc.lft.to/lastmile_qr_scan", "ios": "https://dc.lft.to/lastmile_qr_scan"}, "name": "188338fdcf1821f81eb44f12280efdaf", "is_reserved": 0}, {"is_disabled": 0, "fusion_lon": 0.0, "fusion_lat": 0.0, "lat": 38.892344666666666, "type": "electric_bike", "lon": -76.95222583333333, "bike_id": "74760cd630d5688b513a96635067b042", "rental_uris": {"android": "https://dc.lft.to/lastmile_qr_scan", "ios": "https://dc.lft.to/lastmile_qr_scan"}, "name": "74760cd630d5688b513a96635067b042", "is_reserved": 0}, {"is_disabled": 0, "fusion_lon": 0.0, "fusion_lat": 0.0, "lat": 38.896680333333336, "type": "electric_scooter", "lon": -76.9472, "bike_id": "518d6a7d9396ed9a0ff621749ba55ba7", "rental_uris": {"android": "https://dc.lft.to/lastmile_qr_scan", "ios": "https://dc.lft.to/lastmile_qr_scan"}, "name": "518d6a7d9396ed9a0ff621749ba55ba7", "is_reserved": 0}, {"is_disabled": 0, "fusion_lon": 0.0, "fusion_lat": 0.0, "lat": 38.913420333333335, "type": "electric_scooter", "lon": -77.02529766666666, "bike_id": "fe201a8de33416ede82b003eda373f8c", "rental_uris": {"android": "https://dc.lft.to/lastmile_qr_scan", "ios": "https://dc.lft.to/lastmile_qr_scan"}, "name": "fe201a8de33416ede82b003eda373f8c", "is_reserved": 0}, {"is_disabled": 0, "fusion_lon": 0.0, "fusion_lat": 0.0, "lat": 38.902019, "type": "electric_scooter", "lon": -77.02091566666667, "bike_id": "04d4134c94e6e4b54b70d1c8770e3dcc", "rental_uris": {"android": "https://dc.lft.to/lastmile_qr_scan", "ios": "https://dc.lft.to/lastmile_qr_scan"}, "name": "04d4134c94e6e4b54b70d1c8770e3dcc", "is_reserved": 0}, {"is_disabled": 0, "fusion_lon": 0.0, "fusion_lat": 0.0, "lat": 38.907812666666665, "type": "electric_scooter", "lon": -77.01108666666667, "bike_id": "33f68169071b3fc67cdbe9c4a2c24a66", "rental_uris": {"android": "https://dc.lft.to/lastmile_qr_scan", "ios": "https://dc.lft.to/lastmile_qr_scan"}, "name": "33f68169071b3fc67cdbe9c4a2c24a66", "is_reserved": 0}, {"is_disabled": 0, "fusion_lon": 0.0, "fusion_lat": 0.0, "lat": 38.90852116666667, "type": "electric_scooter", "lon": -77.02722916666667, "bike_id": "8aba49f00400160545154e9a56d39819", "rental_uris": {"android": "https://dc.lft.to/lastmile_qr_scan", "ios": "https://dc.lft.to/lastmile_qr_scan"}, "name": "8aba49f00400160545154e9a56d39819", "is_reserved": 0}, {"is_disabled": 0, "fusion_lon": 0.0, "fusion_lat": 0.0, "lat": 38.915419166666666, "type": "electric_scooter", "lon": -77.01973816666667, "bike_id": "b49755dacc6e870aaa8815c776a84990", "rental_uris": {"android": "https://dc.lft.to/lastmile_qr_scan", "ios": "https://dc.lft.to/lastmile_qr_scan"}, "name": "b49755dacc6e870aaa8815c776a84990", "is_reserved": 0}, {"is_disabled": 0, "fusion_lon": 0.0, "fusion_lat": 0.0, "lat": 38.923572666666665, "type": "electric_scooter", "lon": -77.0504055, "bike_id": "6323f758fd9a28013a73a07bd31ba65a", "rental_uris": {"android": "https://dc.lft.to/lastmile_qr_scan", "ios": "https://dc.lft.to/lastmile_qr_scan"}, "name": "6323f758fd9a28013a73a07bd31ba65a", "is_reserved": 0}, {"is_disabled": 0, "fusion_lon": 0.0, "fusion_lat": 0.0, "lat": 38.89260983333333, "type": "electric_scooter", "lon": -77.031861, "bike_id": "63a6c767d46385ca08cc1d690e47a44d", "rental_uris": {"android": "https://dc.lft.to/lastmile_qr_scan", "ios": "https://dc.lft.to/lastmile_qr_scan"}, "name": "63a6c767d46385ca08cc1d690e47a44d", "is_reserved": 0}, {"is_disabled": 0, "fusion_lon": 0.0, "fusion_lat": 0.0, "lat": 38.929954, "type": "electric_scooter", "lon": -77.02181033333333, "bike_id": "6dd1a77f5e90758683bd04a54ee5e8fc", "rental_uris": {"android": "https://dc.lft.to/lastmile_qr_scan", "ios": "https://dc.lft.to/lastmile_qr_scan"}, "name": "6dd1a77f5e90758683bd04a54ee5e8fc", "is_reserved": 0}, {"is_disabled": 0, "fusion_lon": 0.0, "fusion_lat": 0.0, "lat": 38.84841466666666, "type": "electric_bike", "lon": -77.08049633333333, "bike_id": "2a3be6f3d698ee5691801c8b8902eec9", "rental_uris": {"android": "https://dc.lft.to/lastmile_qr_scan", "ios": "https://dc.lft.to/lastmile_qr_scan"}, "name": "2a3be6f3d698ee5691801c8b8902eec9", "is_reserved": 0}, {"is_disabled": 0, "fusion_lon": 0.0, "fusion_lat": 0.0, "lat": 38.917321666666666, "type": "electric_scooter", "lon": -77.04171166666667, "bike_id": "8b26f49db8ae16f9a9f0afd87adb8f02", "rental_uris": {"android": "https://dc.lft.to/lastmile_qr_scan", "ios": "https://dc.lft.to/lastmile_qr_scan"}, "name": "8b26f49db8ae16f9a9f0afd87adb8f02", "is_reserved": 0}, {"is_disabled": 0, "fusion_lon": 0.0, "fusion_lat": 0.0, "lat": 38.8757405, "type": "electric_scooter", "lon": -77.01994283333333, "bike_id": "ce2f3d611e23cc14356b11986248730c", "rental_uris": {"android": "https://dc.lft.to/lastmile_qr_scan", "ios": "https://dc.lft.to/lastmile_qr_scan"}, "name": "ce2f3d611e23cc14356b11986248730c", "is_reserved": 0}, {"is_disabled": 0, "fusion_lon": 0.0, "fusion_lat": 0.0, "lat": 38.9006705, "type": "electric_scooter", "lon": -77.03476116666667, "bike_id": "e8ba25d7da7558b2d3818334d98c31db", "rental_uris": {"android": "https://dc.lft.to/lastmile_qr_scan", "ios": "https://dc.lft.to/lastmile_qr_scan"}, "name": "e8ba25d7da7558b2d3818334d98c31db", "is_reserved": 0}, {"is_disabled": 0, "fusion_lon": 0.0, "fusion_lat": 0.0, "lat": 38.90595016666666, "type": "electric_scooter", "lon": -77.06372516666667, "bike_id": "6186ced11e751c2a8461f219a11fe3e2", "rental_uris": {"android": "https://dc.lft.to/lastmile_qr_scan", "ios": "https://dc.lft.to/lastmile_qr_scan"}, "name": "6186ced11e751c2a8461f219a11fe3e2", "is_reserved": 0}, {"is_disabled": 0, "fusion_lon": 0.0, "fusion_lat": 0.0, "lat": 38.933966, "type": "electric_scooter", "lon": -77.02732266666666, "bike_id": "1b1baf0a422ea2f13d9e20649b763b0c", "rental_uris": {"android": "https://dc.lft.to/lastmile_qr_scan", "ios": "https://dc.lft.to/lastmile_qr_scan"}, "name": "1b1baf0a422ea2f13d9e20649b763b0c", "is_reserved": 0}, {"is_disabled": 0, "fusion_lon": 0.0, "fusion_lat": 0.0, "lat": 38.89520233333333, "type": "electric_scooter", "lon": -77.028052, "bike_id": "6f926e597ec56c439cc6be97ccb527ac", "rental_uris": {"android": "https://dc.lft.to/lastmile_qr_scan", "ios": "https://dc.lft.to/lastmile_qr_scan"}, "name": "6f926e597ec56c439cc6be97ccb527ac", "is_reserved": 0}, {"is_disabled": 0, "fusion_lon": 0.0, "fusion_lat": 0.0, "lat": 38.931892500000004, "type": "electric_bike", "lon": -77.22938983333333, "bike_id": "9a605f6a45aaf5857a2f030ce4ed45d0", "rental_uris": {"android": "https://dc.lft.to/lastmile_qr_scan", "ios": "https://dc.lft.to/lastmile_qr_scan"}, "name": "9a605f6a45aaf5857a2f030ce4ed45d0", "is_reserved": 0}, {"is_disabled": 0, "fusion_lon": 0.0, "fusion_lat": 0.0, "lat": 38.92053966666667, "type": "electric_scooter", "lon": -76.99872216666667, "bike_id": "c8fb4254f2deb6f768d2516b318bd600", "rental_uris": {"android": "https://dc.lft.to/lastmile_qr_scan", "ios": "https://dc.lft.to/lastmile_qr_scan"}, "name": "c8fb4254f2deb6f768d2516b318bd600", "is_reserved": 0}, {"is_disabled": 0, "fusion_lon": 0.0, "fusion_lat": 0.0, "lat": 38.8995375, "type": "electric_scooter", "lon": -77.0513565, "bike_id": "28c74b863f33ae6a4d06e13a4e73787d", "rental_uris": {"android": "https://dc.lft.to/lastmile_qr_scan", "ios": "https://dc.lft.to/lastmile_qr_scan"}, "name": "28c74b863f33ae6a4d06e13a4e73787d", "is_reserved": 0}, {"is_disabled": 0, "fusion_lon": 0.0, "fusion_lat": 0.0, "lat": 38.908691166666664, "type": "electric_scooter", "lon": -77.04325883333334, "bike_id": "f1bae2a1b4ea4916d8608cb283a28c8a", "rental_uris": {"android": "https://dc.lft.to/lastmile_qr_scan", "ios": "https://dc.lft.to/lastmile_qr_scan"}, "name": "f1bae2a1b4ea4916d8608cb283a28c8a", "is_reserved": 0}, {"is_disabled": 0, "fusion_lon": 0.0, "fusion_lat": 0.0, "lat": 38.917594, "type": "electric_scooter", "lon": -77.03589, "bike_id": "795d8fbc2a090906a9d2002e1940a34c", "rental_uris": {"android": "https://dc.lft.to/lastmile_qr_scan", "ios": "https://dc.lft.to/lastmile_qr_scan"}, "name": "795d8fbc2a090906a9d2002e1940a34c", "is_reserved": 0}, {"is_disabled": 0, "fusion_lon": 0.0, "fusion_lat": 0.0, "lat": 38.99256033333333, "type": "electric_bike", "lon": -77.04994933333333, "bike_id": "1b66f6ccd3982937574c4d93f66a5227", "rental_uris": {"android": "https://dc.lft.to/lastmile_qr_scan", "ios": "https://dc.lft.to/lastmile_qr_scan"}, "name": "1b66f6ccd3982937574c4d93f66a5227", "is_reserved": 0}, {"is_disabled": 0, "fusion_lon": 0.0, "fusion_lat": 0.0, "lat": 38.950759166666664, "type": "electric_scooter", "lon": -77.02872883333333, "bike_id": "7d882d832995a370002a11d1a0769fd0", "rental_uris": {"android": "https://dc.lft.to/lastmile_qr_scan", "ios": "https://dc.lft.to/lastmile_qr_scan"}, "name": "7d882d832995a370002a11d1a0769fd0", "is_reserved": 0}, {"is_disabled": 0, "fusion_lon": 0.0, "fusion_lat": 0.0, "lat": 38.90535533333333, "type": "electric_scooter", "lon": -77.04757033333334, "bike_id": "eee9913165c874bee4f128d42b9409e5", "rental_uris": {"android": "https://dc.lft.to/lastmile_qr_scan", "ios": "https://dc.lft.to/lastmile_qr_scan"}, "name": "eee9913165c874bee4f128d42b9409e5", "is_reserved": 0}, {"is_disabled": 0, "fusion_lon": 0.0, "fusion_lat": 0.0, "lat": 38.905650333333334, "type": "electric_scooter", "lon": -77.0334095, "bike_id": "eb4566e84f5f9d51d487eea89d540c9d", "rental_uris": {"android": "https://dc.lft.to/lastmile_qr_scan", "ios": "https://dc.lft.to/lastmile_qr_scan"}, "name": "eb4566e84f5f9d51d487eea89d540c9d", "is_reserved": 0}, {"is_disabled": 0, "fusion_lon": 0.0, "fusion_lat": 0.0, "lat": 38.91332333333333, "type": "electric_scooter", "lon": -77.032471, "bike_id": "070809e56bd36e7b398281281cf93717", "rental_uris": {"android": "https://dc.lft.to/lastmile_qr_scan", "ios": "https://dc.lft.to/lastmile_qr_scan"}, "name": "070809e56bd36e7b398281281cf93717", "is_reserved": 0}, {"is_disabled": 0, "fusion_lon": 0.0, "fusion_lat": 0.0, "lat": 38.934958333333334, "type": "electric_scooter", "lon": -77.02409133333333, "bike_id": "adfbb11ebd9bcd59f15a902081eb371b", "rental_uris": {"android": "https://dc.lft.to/lastmile_qr_scan", "ios": "https://dc.lft.to/lastmile_qr_scan"}, "name": "adfbb11ebd9bcd59f15a902081eb371b", "is_reserved": 0}, {"is_disabled": 0, "fusion_lon": 0.0, "fusion_lat": 0.0, "lat": 38.90378666666667, "type": "electric_scooter", "lon": -77.05023533333333, "bike_id": "65a51db51d96627798ddb0aa1971f354", "rental_uris": {"android": "https://dc.lft.to/lastmile_qr_scan", "ios": "https://dc.lft.to/lastmile_qr_scan"}, "name": "65a51db51d96627798ddb0aa1971f354", "is_reserved": 0}, {"is_disabled": 0, "fusion_lon": 0.0, "fusion_lat": 0.0, "lat": 38.891866, "type": "electric_scooter", "lon": -76.98836066666667, "bike_id": "c8d05be0619e9bc5ecb551ec8619604a", "rental_uris": {"android": "https://dc.lft.to/lastmile_qr_scan", "ios": "https://dc.lft.to/lastmile_qr_scan"}, "name": "c8d05be0619e9bc5ecb551ec8619604a", "is_reserved": 0}, {"is_disabled": 0, "fusion_lon": 0.0, "fusion_lat": 0.0, "lat": 38.901951333333336, "type": "electric_scooter", "lon": -77.0237335, "bike_id": "d884a9fdf2808cf11a14a8365d9528af", "rental_uris": {"android": "https://dc.lft.to/lastmile_qr_scan", "ios": "https://dc.lft.to/lastmile_qr_scan"}, "name": "d884a9fdf2808cf11a14a8365d9528af", "is_reserved": 0}, {"is_disabled": 0, "fusion_lon": 0.0, "fusion_lat": 0.0, "lat": 38.898261166666664, "type": "electric_scooter", "lon": -77.02626983333333, "bike_id": "91861300cc4fc74f915b9bdf255a28aa", "rental_uris": {"android": "https://dc.lft.to/lastmile_qr_scan", "ios": "https://dc.lft.to/lastmile_qr_scan"}, "name": "91861300cc4fc74f915b9bdf255a28aa", "is_reserved": 0}, {"is_disabled": 0, "fusion_lon": 0.0, "fusion_lat": 0.0, "lat": 38.89645566666667, "type": "electric_scooter", "lon": -77.026098, "bike_id": "6979b882769a234633e051068dce36f8", "rental_uris": {"android": "https://dc.lft.to/lastmile_qr_scan", "ios": "https://dc.lft.to/lastmile_qr_scan"}, "name": "6979b882769a234633e051068dce36f8", "is_reserved": 0}, {"is_disabled": 0, "fusion_lon": 0.0, "fusion_lat": 0.0, "lat": 38.8964355, "type": "electric_scooter", "lon": -77.02732633333333, "bike_id": "bc9879ed92b7f50d431cf86bf931027b", "rental_uris": {"android": "https://dc.lft.to/lastmile_qr_scan", "ios": "https://dc.lft.to/lastmile_qr_scan"}, "name": "bc9879ed92b7f50d431cf86bf931027b", "is_reserved": 0}, {"is_disabled": 0, "fusion_lon": 0.0, "fusion_lat": 0.0, "lat": 38.93634566666667, "type": "electric_scooter", "lon": -77.02691666666666, "bike_id": "5dc622f4093b9b7af253a5910c2fbb8b", "rental_uris": {"android": "https://dc.lft.to/lastmile_qr_scan", "ios": "https://dc.lft.to/lastmile_qr_scan"}, "name": "5dc622f4093b9b7af253a5910c2fbb8b", "is_reserved": 0}, {"is_disabled": 0, "fusion_lon": 0.0, "fusion_lat": 0.0, "lat": 38.8975005, "type": "electric_scooter", "lon": -77.05144116666666, "bike_id": "8e2ded7331eb6af3e4aaf477fb9ac33b", "rental_uris": {"android": "https://dc.lft.to/lastmile_qr_scan", "ios": "https://dc.lft.to/lastmile_qr_scan"}, "name": "8e2ded7331eb6af3e4aaf477fb9ac33b", "is_reserved": 0}, {"is_disabled": 0, "fusion_lon": 0.0, "fusion_lat": 0.0, "lat": 38.9307965, "type": "electric_scooter", "lon": -77.036266, "bike_id": "788fb194a9a96f0bc10dd826dbd9b3aa", "rental_uris": {"android": "https://dc.lft.to/lastmile_qr_scan", "ios": "https://dc.lft.to/lastmile_qr_scan"}, "name": "788fb194a9a96f0bc10dd826dbd9b3aa", "is_reserved": 0}, {"is_disabled": 0, "fusion_lon": 0.0, "fusion_lat": 0.0, "lat": 38.885315166666665, "type": "electric_bike", "lon": -76.99829166666666, "bike_id": "2ee8261087c1f731988513327a79867b", "rental_uris": {"android": "https://dc.lft.to/lastmile_qr_scan", "ios": "https://dc.lft.to/lastmile_qr_scan"}, "name": "2ee8261087c1f731988513327a79867b", "is_reserved": 0}, {"is_disabled": 0, "fusion_lon": 0.0, "fusion_lat": 0.0, "lat": 38.91779866666667, "type": "electric_scooter", "lon": -77.04298866666667, "bike_id": "e3a88eed7276ae8dcff1998be15b6f22", "rental_uris": {"android": "https://dc.lft.to/lastmile_qr_scan", "ios": "https://dc.lft.to/lastmile_qr_scan"}, "name": "e3a88eed7276ae8dcff1998be15b6f22", "is_reserved": 0}, {"is_disabled": 0, "fusion_lon": 0.0, "fusion_lat": 0.0, "lat": 38.908530166666665, "type": "electric_scooter", "lon": -77.060795, "bike_id": "8533c4952aa7a5089c68e810e44f9e2d", "rental_uris": {"android": "https://dc.lft.to/lastmile_qr_scan", "ios": "https://dc.lft.to/lastmile_qr_scan"}, "name": "8533c4952aa7a5089c68e810e44f9e2d", "is_reserved": 0}, {"is_disabled": 0, "fusion_lon": 0.0, "fusion_lat": 0.0, "lat": 38.8735615, "type": "electric_scooter", "lon": -77.01740433333333, "bike_id": "e52c49164f86c32b35381e55a2d084bc", "rental_uris": {"android": "https://dc.lft.to/lastmile_qr_scan", "ios": "https://dc.lft.to/lastmile_qr_scan"}, "name": "e52c49164f86c32b35381e55a2d084bc", "is_reserved": 0}, {"is_disabled": 0, "fusion_lon": 0.0, "fusion_lat": 0.0, "lat": 38.90299733333333, "type": "electric_scooter", "lon": -77.03870783333333, "bike_id": "b94a75122222b9d68aae89b0fedb78f9", "rental_uris": {"android": "https://dc.lft.to/lastmile_qr_scan", "ios": "https://dc.lft.to/lastmile_qr_scan"}, "name": "b94a75122222b9d68aae89b0fedb78f9", "is_reserved": 0}, {"is_disabled": 0, "fusion_lon": 0.0, "fusion_lat": 0.0, "lat": 38.91565416666667, "type": "electric_scooter", "lon": -77.03239133333334, "bike_id": "0025f14f559f0866ae7a259118aba1d8", "rental_uris": {"android": "https://dc.lft.to/lastmile_qr_scan", "ios": "https://dc.lft.to/lastmile_qr_scan"}, "name": "0025f14f559f0866ae7a259118aba1d8", "is_reserved": 0}, {"is_disabled": 0, "fusion_lon": 0.0, "fusion_lat": 0.0, "lat": 38.82872833333333, "type": "electric_bike", "lon": -77.11222683333334, "bike_id": "8d47fc495f36ecc4271870658ab3de3d", "rental_uris": {"android": "https://dc.lft.to/lastmile_qr_scan", "ios": "https://dc.lft.to/lastmile_qr_scan"}, "name": "8d47fc495f36ecc4271870658ab3de3d", "is_reserved": 0}, {"is_disabled": 0, "fusion_lon": 0.0, "fusion_lat": 0.0, "lat": 38.91335616666667, "type": "electric_scooter", "lon": -77.043318, "bike_id": "3a37973fa0fa4a5c8f08eb3678675d96", "rental_uris": {"android": "https://dc.lft.to/lastmile_qr_scan", "ios": "https://dc.lft.to/lastmile_qr_scan"}, "name": "3a37973fa0fa4a5c8f08eb3678675d96", "is_reserved": 0}, {"is_disabled": 0, "fusion_lon": 0.0, "fusion_lat": 0.0, "lat": 38.9181445, "type": "electric_scooter", "lon": -77.04167666666666, "bike_id": "1649af1effff573af19e6be1749b9417", "rental_uris": {"android": "https://dc.lft.to/lastmile_qr_scan", "ios": "https://dc.lft.to/lastmile_qr_scan"}, "name": "1649af1effff573af19e6be1749b9417", "is_reserved": 0}, {"is_disabled": 0, "fusion_lon": 0.0, "fusion_lat": 0.0, "lat": 38.924844666666665, "type": "electric_scooter", "lon": -77.02710433333333, "bike_id": "b53a9a7db22c85c509b495ebdc60e384", "rental_uris": {"android": "https://dc.lft.to/lastmile_qr_scan", "ios": "https://dc.lft.to/lastmile_qr_scan"}, "name": "b53a9a7db22c85c509b495ebdc60e384", "is_reserved": 0}, {"is_disabled": 0, "fusion_lon": 0.0, "fusion_lat": 0.0, "lat": 38.91614916666666, "type": "electric_scooter", "lon": -77.04363483333333, "bike_id": "eb77fc453709bd169783d2626a770f42", "rental_uris": {"android": "https://dc.lft.to/lastmile_qr_scan", "ios": "https://dc.lft.to/lastmile_qr_scan"}, "name": "eb77fc453709bd169783d2626a770f42", "is_reserved": 0}, {"is_disabled": 0, "fusion_lon": 0.0, "fusion_lat": 0.0, "lat": 38.9170035, "type": "electric_scooter", "lon": -77.0283845, "bike_id": "9867ba26b73b0d96e5669d94fadabeed", "rental_uris": {"android": "https://dc.lft.to/lastmile_qr_scan", "ios": "https://dc.lft.to/lastmile_qr_scan"}, "name": "9867ba26b73b0d96e5669d94fadabeed", "is_reserved": 0}, {"is_disabled": 0, "fusion_lon": 0.0, "fusion_lat": 0.0, "lat": 39.00016383333333, "type": "electric_bike", "lon": -76.872833, "bike_id": "af843579c207f715865bfaf91d09a148", "rental_uris": {"android": "https://dc.lft.to/lastmile_qr_scan", "ios": "https://dc.lft.to/lastmile_qr_scan"}, "name": "af843579c207f715865bfaf91d09a148", "is_reserved": 0}, {"is_disabled": 0, "fusion_lon": 0.0, "fusion_lat": 0.0, "lat": 38.876710333333335, "type": "electric_scooter", "lon": -76.93195983333334, "bike_id": "b619a90dfe9e683fd549c81758d1d098", "rental_uris": {"android": "https://dc.lft.to/lastmile_qr_scan", "ios": "https://dc.lft.to/lastmile_qr_scan"}, "name": "b619a90dfe9e683fd549c81758d1d098", "is_reserved": 0}, {"is_disabled": 0, "fusion_lon": 0.0, "fusion_lat": 0.0, "lat": 38.950034, "type": "electric_bike", "lon": -77.353092, "bike_id": "e037e5c2e72fb7138cd99ae0c2c49e58", "rental_uris": {"android": "https://dc.lft.to/lastmile_qr_scan", "ios": "https://dc.lft.to/lastmile_qr_scan"}, "name": "e037e5c2e72fb7138cd99ae0c2c49e58", "is_reserved": 0}, {"is_disabled": 0, "fusion_lon": 0.0, "fusion_lat": 0.0, "lat": 38.894819166666665, "type": "electric_scooter", "lon": -77.02206533333333, "bike_id": "cbe38a6edf9fcf62a916107e540d757a", "rental_uris": {"android": "https://dc.lft.to/lastmile_qr_scan", "ios": "https://dc.lft.to/lastmile_qr_scan"}, "name": "cbe38a6edf9fcf62a916107e540d757a", "is_reserved": 0}, {"is_disabled": 0, "fusion_lon": 0.0, "fusion_lat": 0.0, "lat": 38.91816383333333, "type": "electric_scooter", "lon": -77.04170366666666, "bike_id": "c78f9cd4cc9e20829058a8088450a5fc", "rental_uris": {"android": "https://dc.lft.to/lastmile_qr_scan", "ios": "https://dc.lft.to/lastmile_qr_scan"}, "name": "c78f9cd4cc9e20829058a8088450a5fc", "is_reserved": 0}, {"is_disabled": 0, "fusion_lon": 0.0, "fusion_lat": 0.0, "lat": 38.91264316666667, "type": "electric_scooter", "lon": -77.0336565, "bike_id": "d56ec85139d39dd847ab4e4090efff4b", "rental_uris": {"android": "https://dc.lft.to/lastmile_qr_scan", "ios": "https://dc.lft.to/lastmile_qr_scan"}, "name": "d56ec85139d39dd847ab4e4090efff4b", "is_reserved": 0}, {"is_disabled": 0, "fusion_lon": 0.0, "fusion_lat": 0.0, "lat": 38.878269333333336, "type": "electric_scooter", "lon": -76.96311766666666, "bike_id": "a82c1c77432f8ab60593d2f61a87c76a", "rental_uris": {"android": "https://dc.lft.to/lastmile_qr_scan", "ios": "https://dc.lft.to/lastmile_qr_scan"}, "name": "a82c1c77432f8ab60593d2f61a87c76a", "is_reserved": 0}, {"is_disabled": 0, "fusion_lon": 0.0, "fusion_lat": 0.0, "lat": 38.934043833333334, "type": "electric_scooter", "lon": -77.03264683333333, "bike_id": "2da47a73ae0a2102f48effda1196b794", "rental_uris": {"android": "https://dc.lft.to/lastmile_qr_scan", "ios": "https://dc.lft.to/lastmile_qr_scan"}, "name": "2da47a73ae0a2102f48effda1196b794", "is_reserved": 0}, {"is_disabled": 0, "fusion_lon": 0.0, "fusion_lat": 0.0, "lat": 38.91037266666667, "type": "electric_scooter", "lon": -77.040098, "bike_id": "0c5c951424fe62e49ba4548d21cd6766", "rental_uris": {"android": "https://dc.lft.to/lastmile_qr_scan", "ios": "https://dc.lft.to/lastmile_qr_scan"}, "name": "0c5c951424fe62e49ba4548d21cd6766", "is_reserved": 0}, {"is_disabled": 0, "fusion_lon": 0.0, "fusion_lat": 0.0, "lat": 38.92346666666667, "type": "electric_scooter", "lon": -77.03394116666666, "bike_id": "5ac8a68ff93a5ad32ebe7d5db1a70253", "rental_uris": {"android": "https://dc.lft.to/lastmile_qr_scan", "ios": "https://dc.lft.to/lastmile_qr_scan"}, "name": "5ac8a68ff93a5ad32ebe7d5db1a70253", "is_reserved": 0}, {"is_disabled": 0, "fusion_lon": 0.0, "fusion_lat": 0.0, "lat": 38.858046333333334, "type": "electric_scooter", "lon": -76.9865475, "bike_id": "532e5a6581cf979d17585d6027163f36", "rental_uris": {"android": "https://dc.lft.to/lastmile_qr_scan", "ios": "https://dc.lft.to/lastmile_qr_scan"}, "name": "532e5a6581cf979d17585d6027163f36", "is_reserved": 0}, {"is_disabled": 0, "fusion_lon": 0.0, "fusion_lat": 0.0, "lat": 38.912662833333336, "type": "electric_scooter", "lon": -77.0366075, "bike_id": "3b9dcf89c50872213e98fdd7d7d383b5", "rental_uris": {"android": "https://dc.lft.to/lastmile_qr_scan", "ios": "https://dc.lft.to/lastmile_qr_scan"}, "name": "3b9dcf89c50872213e98fdd7d7d383b5", "is_reserved": 0}, {"is_disabled": 0, "fusion_lon": 0.0, "fusion_lat": 0.0, "lat": 38.865247333333336, "type": "electric_scooter", "lon": -76.98967716666667, "bike_id": "631d65e8baf90cb933f725755978c07e", "rental_uris": {"android": "https://dc.lft.to/lastmile_qr_scan", "ios": "https://dc.lft.to/lastmile_qr_scan"}, "name": "631d65e8baf90cb933f725755978c07e", "is_reserved": 0}, {"is_disabled": 0, "fusion_lon": 0.0, "fusion_lat": 0.0, "lat": 38.92191033333334, "type": "electric_scooter", "lon": -76.9970135, "bike_id": "7786d49097456856307d70eecbc3bd5e", "rental_uris": {"android": "https://dc.lft.to/lastmile_qr_scan", "ios": "https://dc.lft.to/lastmile_qr_scan"}, "name": "7786d49097456856307d70eecbc3bd5e", "is_reserved": 0}, {"is_disabled": 0, "fusion_lon": 0.0, "fusion_lat": 0.0, "lat": 38.908683833333335, "type": "electric_scooter", "lon": -77.0354065, "bike_id": "1e5bdfcef713aa3e524970efc9bbc9e2", "rental_uris": {"android": "https://dc.lft.to/lastmile_qr_scan", "ios": "https://dc.lft.to/lastmile_qr_scan"}, "name": "1e5bdfcef713aa3e524970efc9bbc9e2", "is_reserved": 0}, {"is_disabled": 0, "fusion_lon": 0.0, "fusion_lat": 0.0, "lat": 38.911795166666664, "type": "electric_scooter", "lon": -77.03501866666667, "bike_id": "1d34083997b45ec3cc44dbbf82cf766a", "rental_uris": {"android": "https://dc.lft.to/lastmile_qr_scan", "ios": "https://dc.lft.to/lastmile_qr_scan"}, "name": "1d34083997b45ec3cc44dbbf82cf766a", "is_reserved": 0}, {"is_disabled": 0, "fusion_lon": 0.0, "fusion_lat": 0.0, "lat": 38.92976783333334, "type": "electric_scooter", "lon": -77.0207655, "bike_id": "40fec054e451cd710d697e1ad81aa62b", "rental_uris": {"android": "https://dc.lft.to/lastmile_qr_scan", "ios": "https://dc.lft.to/lastmile_qr_scan"}, "name": "40fec054e451cd710d697e1ad81aa62b", "is_reserved": 0}, {"is_disabled": 0, "fusion_lon": 0.0, "fusion_lat": 0.0, "lat": 38.90402233333333, "type": "electric_scooter", "lon": -77.0059095, "bike_id": "5e5398c93dab5b87f28e7c90d666bbdb", "rental_uris": {"android": "https://dc.lft.to/lastmile_qr_scan", "ios": "https://dc.lft.to/lastmile_qr_scan"}, "name": "5e5398c93dab5b87f28e7c90d666bbdb", "is_reserved": 0}, {"is_disabled": 0, "fusion_lon": 0.0, "fusion_lat": 0.0, "lat": 38.9088575, "type": "electric_scooter", "lon": -77.04579233333334, "bike_id": "b412f09cc32b8832a3fa827de786f17e", "rental_uris": {"android": "https://dc.lft.to/lastmile_qr_scan", "ios": "https://dc.lft.to/lastmile_qr_scan"}, "name": "b412f09cc32b8832a3fa827de786f17e", "is_reserved": 0}, {"is_disabled": 0, "fusion_lon": 0.0, "fusion_lat": 0.0, "lat": 38.96417, "type": "electric_scooter", "lon": -77.07529283333334, "bike_id": "45c1be48e34ee012ea6a832a24aa1f83", "rental_uris": {"android": "https://dc.lft.to/lastmile_qr_scan", "ios": "https://dc.lft.to/lastmile_qr_scan"}, "name": "45c1be48e34ee012ea6a832a24aa1f83", "is_reserved": 0}, {"is_disabled": 0, "fusion_lon": 0.0, "fusion_lat": 0.0, "lat": 38.942014, "type": "electric_scooter", "lon": -77.0259045, "bike_id": "b6e364f7d284909cb4aa6c8aad53d5a1", "rental_uris": {"android": "https://dc.lft.to/lastmile_qr_scan", "ios": "https://dc.lft.to/lastmile_qr_scan"}, "name": "b6e364f7d284909cb4aa6c8aad53d5a1", "is_reserved": 0}, {"is_disabled": 0, "fusion_lon": 0.0, "fusion_lat": 0.0, "lat": 38.90683383333333, "type": "electric_scooter", "lon": -76.98003166666666, "bike_id": "c152212808013710eac83955f4496763", "rental_uris": {"android": "https://dc.lft.to/lastmile_qr_scan", "ios": "https://dc.lft.to/lastmile_qr_scan"}, "name": "c152212808013710eac83955f4496763", "is_reserved": 0}, {"is_disabled": 0, "fusion_lon": 0.0, "fusion_lat": 0.0, "lat": 38.921578833333335, "type": "electric_scooter", "lon": -77.03401283333334, "bike_id": "6006a646d9ec347447d8ea8109027d8c", "rental_uris": {"android": "https://dc.lft.to/lastmile_qr_scan", "ios": "https://dc.lft.to/lastmile_qr_scan"}, "name": "6006a646d9ec347447d8ea8109027d8c", "is_reserved": 0}, {"is_disabled": 0, "fusion_lon": 0.0, "fusion_lat": 0.0, "lat": 38.918171, "type": "electric_scooter", "lon": -77.04175733333334, "bike_id": "6464e69e0f41935a30ca979bc183ca33", "rental_uris": {"android": "https://dc.lft.to/lastmile_qr_scan", "ios": "https://dc.lft.to/lastmile_qr_scan"}, "name": "6464e69e0f41935a30ca979bc183ca33", "is_reserved": 0}, {"is_disabled": 0, "fusion_lon": 0.0, "fusion_lat": 0.0, "lat": 38.90283866666667, "type": "electric_scooter", "lon": -77.05343516666667, "bike_id": "3af71ce8b7df5585d4c0c9d07a18da4c", "rental_uris": {"android": "https://dc.lft.to/lastmile_qr_scan", "ios": "https://dc.lft.to/lastmile_qr_scan"}, "name": "3af71ce8b7df5585d4c0c9d07a18da4c", "is_reserved": 0}, {"is_disabled": 0, "fusion_lon": 0.0, "fusion_lat": 0.0, "lat": 38.897527833333335, "type": "electric_scooter", "lon": -77.021752, "bike_id": "cbb3fb1550529f6baa70b2fe3a17eee7", "rental_uris": {"android": "https://dc.lft.to/lastmile_qr_scan", "ios": "https://dc.lft.to/lastmile_qr_scan"}, "name": "cbb3fb1550529f6baa70b2fe3a17eee7", "is_reserved": 0}, {"is_disabled": 0, "fusion_lon": 0.0, "fusion_lat": 0.0, "lat": 38.896753, "type": "electric_scooter", "lon": -77.0118765, "bike_id": "8974a3287963d5c77cc84a797b385c72", "rental_uris": {"android": "https://dc.lft.to/lastmile_qr_scan", "ios": "https://dc.lft.to/lastmile_qr_scan"}, "name": "8974a3287963d5c77cc84a797b385c72", "is_reserved": 0}, {"is_disabled": 0, "fusion_lon": 0.0, "fusion_lat": 0.0, "lat": 38.924691, "type": "electric_scooter", "lon": -77.03533933333334, "bike_id": "d05b90e91ca91f772a038335af993c08", "rental_uris": {"android": "https://dc.lft.to/lastmile_qr_scan", "ios": "https://dc.lft.to/lastmile_qr_scan"}, "name": "d05b90e91ca91f772a038335af993c08", "is_reserved": 0}, {"is_disabled": 0, "fusion_lon": 0.0, "fusion_lat": 0.0, "lat": 38.88489216666667, "type": "electric_scooter", "lon": -76.92969533333333, "bike_id": "6c9f7296602cd6422713f95f45d6ca66", "rental_uris": {"android": "https://dc.lft.to/lastmile_qr_scan", "ios": "https://dc.lft.to/lastmile_qr_scan"}, "name": "6c9f7296602cd6422713f95f45d6ca66", "is_reserved": 0}, {"is_disabled": 0, "fusion_lon": 0.0, "fusion_lat": 0.0, "lat": 38.907747666666666, "type": "electric_scooter", "lon": -77.0322165, "bike_id": "2a282e737585e663267e10e030571f03", "rental_uris": {"android": "https://dc.lft.to/lastmile_qr_scan", "ios": "https://dc.lft.to/lastmile_qr_scan"}, "name": "2a282e737585e663267e10e030571f03", "is_reserved": 0}, {"is_disabled": 0, "fusion_lon": 0.0, "fusion_lat": 0.0, "lat": 38.956459833333334, "type": "electric_scooter", "lon": -77.0149645, "bike_id": "9ef714f0f059ba7c675ef85ba3122463", "rental_uris": {"android": "https://dc.lft.to/lastmile_qr_scan", "ios": "https://dc.lft.to/lastmile_qr_scan"}, "name": "9ef714f0f059ba7c675ef85ba3122463", "is_reserved": 0}, {"is_disabled": 0, "fusion_lon": 0.0, "fusion_lat": 0.0, "lat": 38.957440166666665, "type": "electric_scooter", "lon": -77.0242945, "bike_id": "7f214c421bd785d361527a82ee0c04bb", "rental_uris": {"android": "https://dc.lft.to/lastmile_qr_scan", "ios": "https://dc.lft.to/lastmile_qr_scan"}, "name": "7f214c421bd785d361527a82ee0c04bb", "is_reserved": 0}, {"is_disabled": 0, "fusion_lon": 0.0, "fusion_lat": 0.0, "lat": 38.91077266666667, "type": "electric_scooter", "lon": -77.06789433333333, "bike_id": "738b0f11c76af17d9cfd0852329cd3f1", "rental_uris": {"android": "https://dc.lft.to/lastmile_qr_scan", "ios": "https://dc.lft.to/lastmile_qr_scan"}, "name": "738b0f11c76af17d9cfd0852329cd3f1", "is_reserved": 0}, {"is_disabled": 0, "fusion_lon": 0.0, "fusion_lat": 0.0, "lat": 38.92905566666667, "type": "electric_scooter", "lon": -77.03175916666666, "bike_id": "62e5f6d4c0d2bc67f1a0bbd21011dece", "rental_uris": {"android": "https://dc.lft.to/lastmile_qr_scan", "ios": "https://dc.lft.to/lastmile_qr_scan"}, "name": "62e5f6d4c0d2bc67f1a0bbd21011dece", "is_reserved": 0}, {"is_disabled": 0, "fusion_lon": 0.0, "fusion_lat": 0.0, "lat": 38.92570933333333, "type": "electric_scooter", "lon": -77.02284516666667, "bike_id": "fedade11bfa015b75d7de96784cb40ed", "rental_uris": {"android": "https://dc.lft.to/lastmile_qr_scan", "ios": "https://dc.lft.to/lastmile_qr_scan"}, "name": "fedade11bfa015b75d7de96784cb40ed", "is_reserved": 0}, {"is_disabled": 0, "fusion_lon": 0.0, "fusion_lat": 0.0, "lat": 38.9253105, "type": "electric_scooter", "lon": -77.07325016666667, "bike_id": "a6f3d9a36e566b2f33768862424293c1", "rental_uris": {"android": "https://dc.lft.to/lastmile_qr_scan", "ios": "https://dc.lft.to/lastmile_qr_scan"}, "name": "a6f3d9a36e566b2f33768862424293c1", "is_reserved": 0}, {"is_disabled": 0, "fusion_lon": 0.0, "fusion_lat": 0.0, "lat": 38.896557333333334, "type": "electric_scooter", "lon": -77.04338916666667, "bike_id": "9b8ea525b7891108d0f8a80b3f1b266c", "rental_uris": {"android": "https://dc.lft.to/lastmile_qr_scan", "ios": "https://dc.lft.to/lastmile_qr_scan"}, "name": "9b8ea525b7891108d0f8a80b3f1b266c", "is_reserved": 0}, {"is_disabled": 0, "fusion_lon": 0.0, "fusion_lat": 0.0, "lat": 38.897725333333334, "type": "electric_scooter", "lon": -77.02464766666667, "bike_id": "3ad07d9e2bb2d37f52211123a1ae8638", "rental_uris": {"android": "https://dc.lft.to/lastmile_qr_scan", "ios": "https://dc.lft.to/lastmile_qr_scan"}, "name": "3ad07d9e2bb2d37f52211123a1ae8638", "is_reserved": 0}, {"is_disabled": 0, "fusion_lon": 0.0, "fusion_lat": 0.0, "lat": 38.9181575, "type": "electric_scooter", "lon": -77.03807383333333, "bike_id": "6bdd4dd8f4d7b2d0ae1862f796fd95cc", "rental_uris": {"android": "https://dc.lft.to/lastmile_qr_scan", "ios": "https://dc.lft.to/lastmile_qr_scan"}, "name": "6bdd4dd8f4d7b2d0ae1862f796fd95cc", "is_reserved": 0}, {"is_disabled": 0, "fusion_lon": 0.0, "fusion_lat": 0.0, "lat": 38.94178733333333, "type": "electric_scooter", "lon": -77.03654283333333, "bike_id": "467b53a08f92fe51497566c15bfedbc3", "rental_uris": {"android": "https://dc.lft.to/lastmile_qr_scan", "ios": "https://dc.lft.to/lastmile_qr_scan"}, "name": "467b53a08f92fe51497566c15bfedbc3", "is_reserved": 0}, {"is_disabled": 0, "fusion_lon": 0.0, "fusion_lat": 0.0, "lat": 38.89665816666667, "type": "electric_scooter", "lon": -77.0118965, "bike_id": "65bc2207fdb8507caba1493701db9cb4", "rental_uris": {"android": "https://dc.lft.to/lastmile_qr_scan", "ios": "https://dc.lft.to/lastmile_qr_scan"}, "name": "65bc2207fdb8507caba1493701db9cb4", "is_reserved": 0}, {"is_disabled": 0, "fusion_lon": 0.0, "fusion_lat": 0.0, "lat": 38.90358466666667, "type": "electric_scooter", "lon": -77.02213266666666, "bike_id": "0720e365da73b47f0c1be2fcba41c35d", "rental_uris": {"android": "https://dc.lft.to/lastmile_qr_scan", "ios": "https://dc.lft.to/lastmile_qr_scan"}, "name": "0720e365da73b47f0c1be2fcba41c35d", "is_reserved": 0}, {"is_disabled": 0, "fusion_lon": 0.0, "fusion_lat": 0.0, "lat": 38.884123833333334, "type": "electric_scooter", "lon": -77.033004, "bike_id": "f25b665eca3c532b04763cf99b54e236", "rental_uris": {"android": "https://dc.lft.to/lastmile_qr_scan", "ios": "https://dc.lft.to/lastmile_qr_scan"}, "name": "f25b665eca3c532b04763cf99b54e236", "is_reserved": 0}, {"is_disabled": 0, "fusion_lon": 0.0, "fusion_lat": 0.0, "lat": 38.917832, "type": "electric_scooter", "lon": -77.04357083333333, "bike_id": "b2bdff5be47680068fb91364bbed4ac5", "rental_uris": {"android": "https://dc.lft.to/lastmile_qr_scan", "ios": "https://dc.lft.to/lastmile_qr_scan"}, "name": "b2bdff5be47680068fb91364bbed4ac5", "is_reserved": 0}, {"is_disabled": 0, "fusion_lon": 0.0, "fusion_lat": 0.0, "lat": 38.9234805, "type": "electric_bike", "lon": -76.99251116666667, "bike_id": "7edcb1ba63f056d808614c78c21d7947", "rental_uris": {"android": "https://dc.lft.to/lastmile_qr_scan", "ios": "https://dc.lft.to/lastmile_qr_scan"}, "name": "7edcb1ba63f056d808614c78c21d7947", "is_reserved": 0}, {"is_disabled": 0, "fusion_lon": 0.0, "fusion_lat": 0.0, "lat": 38.89828266666667, "type": "electric_scooter", "lon": -77.0262365, "bike_id": "2dff1b22193d5d796296ac135e1f785a", "rental_uris": {"android": "https://dc.lft.to/lastmile_qr_scan", "ios": "https://dc.lft.to/lastmile_qr_scan"}, "name": "2dff1b22193d5d796296ac135e1f785a", "is_reserved": 0}, {"is_disabled": 0, "fusion_lon": 0.0, "fusion_lat": 0.0, "lat": 38.88133933333334, "type": "electric_scooter", "lon": -77.02080566666666, "bike_id": "7b9dc3c55eb9df84ed3e21f80185596f", "rental_uris": {"android": "https://dc.lft.to/lastmile_qr_scan", "ios": "https://dc.lft.to/lastmile_qr_scan"}, "name": "7b9dc3c55eb9df84ed3e21f80185596f", "is_reserved": 0}, {"is_disabled": 0, "fusion_lon": 0.0, "fusion_lat": 0.0, "lat": 38.90943333333333, "type": "electric_scooter", "lon": -77.04668383333333, "bike_id": "e7246fca13aaec2bd5d06224952bdd92", "rental_uris": {"android": "https://dc.lft.to/lastmile_qr_scan", "ios": "https://dc.lft.to/lastmile_qr_scan"}, "name": "e7246fca13aaec2bd5d06224952bdd92", "is_reserved": 0}, {"is_disabled": 0, "fusion_lon": 0.0, "fusion_lat": 0.0, "lat": 38.99075333333333, "type": "electric_bike", "lon": -77.023806, "bike_id": "66598163c39d1c423852a0369b221cc5", "rental_uris": {"android": "https://dc.lft.to/lastmile_qr_scan", "ios": "https://dc.lft.to/lastmile_qr_scan"}, "name": "66598163c39d1c423852a0369b221cc5", "is_reserved": 0}, {"is_disabled": 0, "fusion_lon": 0.0, "fusion_lat": 0.0, "lat": 38.92107633333333, "type": "electric_scooter", "lon": -77.01769166666666, "bike_id": "617dacd68cb29a33048743f8b27976c6", "rental_uris": {"android": "https://dc.lft.to/lastmile_qr_scan", "ios": "https://dc.lft.to/lastmile_qr_scan"}, "name": "617dacd68cb29a33048743f8b27976c6", "is_reserved": 0}, {"is_disabled": 0, "fusion_lon": 0.0, "fusion_lat": 0.0, "lat": 38.895239833333335, "type": "electric_scooter", "lon": -77.04851783333334, "bike_id": "f47a8e46d4cbc1e8ea10390837837d2c", "rental_uris": {"android": "https://dc.lft.to/lastmile_qr_scan", "ios": "https://dc.lft.to/lastmile_qr_scan"}, "name": "f47a8e46d4cbc1e8ea10390837837d2c", "is_reserved": 0}, {"is_disabled": 0, "fusion_lon": 0.0, "fusion_lat": 0.0, "lat": 38.93958833333333, "type": "electric_bike", "lon": -77.360922, "bike_id": "94418f29cb3ddd5ce1cd2067a462203f", "rental_uris": {"android": "https://dc.lft.to/lastmile_qr_scan", "ios": "https://dc.lft.to/lastmile_qr_scan"}, "name": "94418f29cb3ddd5ce1cd2067a462203f", "is_reserved": 0}, {"is_disabled": 0, "fusion_lon": 0.0, "fusion_lat": 0.0, "lat": 38.9058135, "type": "electric_scooter", "lon": -77.05583716666666, "bike_id": "bee76cd3810a531536ac72650ef7b5e8", "rental_uris": {"android": "https://dc.lft.to/lastmile_qr_scan", "ios": "https://dc.lft.to/lastmile_qr_scan"}, "name": "bee76cd3810a531536ac72650ef7b5e8", "is_reserved": 0}, {"is_disabled": 0, "fusion_lon": 0.0, "fusion_lat": 0.0, "lat": 38.929699, "type": "electric_scooter", "lon": -77.02800333333333, "bike_id": "dceca7d8d26f0944af91b5d3c1120602", "rental_uris": {"android": "https://dc.lft.to/lastmile_qr_scan", "ios": "https://dc.lft.to/lastmile_qr_scan"}, "name": "dceca7d8d26f0944af91b5d3c1120602", "is_reserved": 0}, {"is_disabled": 0, "fusion_lon": 0.0, "fusion_lat": 0.0, "lat": 38.905331333333336, "type": "electric_scooter", "lon": -77.050043, "bike_id": "4719ff7d45e2683a09dc7181a7b65930", "rental_uris": {"android": "https://dc.lft.to/lastmile_qr_scan", "ios": "https://dc.lft.to/lastmile_qr_scan"}, "name": "4719ff7d45e2683a09dc7181a7b65930", "is_reserved": 0}, {"is_disabled": 0, "fusion_lon": 0.0, "fusion_lat": 0.0, "lat": 38.924646833333334, "type": "electric_scooter", "lon": -77.07863033333334, "bike_id": "3515e95ba2ff700cc02a8cd4ec93a8cb", "rental_uris": {"android": "https://dc.lft.to/lastmile_qr_scan", "ios": "https://dc.lft.to/lastmile_qr_scan"}, "name": "3515e95ba2ff700cc02a8cd4ec93a8cb", "is_reserved": 0}, {"is_disabled": 0, "fusion_lon": 0.0, "fusion_lat": 0.0, "lat": 38.9407175, "type": "electric_scooter", "lon": -77.02902483333334, "bike_id": "c1da33f6aa356a396b887230cf036bac", "rental_uris": {"android": "https://dc.lft.to/lastmile_qr_scan", "ios": "https://dc.lft.to/lastmile_qr_scan"}, "name": "c1da33f6aa356a396b887230cf036bac", "is_reserved": 0}, {"is_disabled": 0, "fusion_lon": 0.0, "fusion_lat": 0.0, "lat": 38.925729833333335, "type": "electric_scooter", "lon": -77.0805765, "bike_id": "0bf0dea40ee1420a68f500d369db5f9b", "rental_uris": {"android": "https://dc.lft.to/lastmile_qr_scan", "ios": "https://dc.lft.to/lastmile_qr_scan"}, "name": "0bf0dea40ee1420a68f500d369db5f9b", "is_reserved": 0}, {"is_disabled": 0, "fusion_lon": 0.0, "fusion_lat": 0.0, "lat": 38.89950316666667, "type": "electric_scooter", "lon": -77.03923433333334, "bike_id": "59d5bff83cf14123705b17a2e6d41863", "rental_uris": {"android": "https://dc.lft.to/lastmile_qr_scan", "ios": "https://dc.lft.to/lastmile_qr_scan"}, "name": "59d5bff83cf14123705b17a2e6d41863", "is_reserved": 0}, {"is_disabled": 0, "fusion_lon": 0.0, "fusion_lat": 0.0, "lat": 38.8775975, "type": "electric_bike", "lon": -76.9799145, "bike_id": "c2d53ca7fcb1c8d29423f734786299b1", "rental_uris": {"android": "https://dc.lft.to/lastmile_qr_scan", "ios": "https://dc.lft.to/lastmile_qr_scan"}, "name": "c2d53ca7fcb1c8d29423f734786299b1", "is_reserved": 0}, {"is_disabled": 0, "fusion_lon": 0.0, "fusion_lat": 0.0, "lat": 38.914622666666666, "type": "electric_scooter", "lon": -76.984501, "bike_id": "1640cc8cf989259aff492db358ff61ab", "rental_uris": {"android": "https://dc.lft.to/lastmile_qr_scan", "ios": "https://dc.lft.to/lastmile_qr_scan"}, "name": "1640cc8cf989259aff492db358ff61ab", "is_reserved": 0}, {"is_disabled": 0, "fusion_lon": 0.0, "fusion_lat": 0.0, "lat": 38.93358033333333, "type": "electric_scooter", "lon": -77.07377416666667, "bike_id": "49a74bda2aff68c30f79b8baac39d4b3", "rental_uris": {"android": "https://dc.lft.to/lastmile_qr_scan", "ios": "https://dc.lft.to/lastmile_qr_scan"}, "name": "49a74bda2aff68c30f79b8baac39d4b3", "is_reserved": 0}, {"is_disabled": 0, "fusion_lon": 0.0, "fusion_lat": 0.0, "lat": 38.875158, "type": "electric_scooter", "lon": -77.01381166666667, "bike_id": "9915d738ea6703015974aaaa21f2614d", "rental_uris": {"android": "https://dc.lft.to/lastmile_qr_scan", "ios": "https://dc.lft.to/lastmile_qr_scan"}, "name": "9915d738ea6703015974aaaa21f2614d", "is_reserved": 0}, {"is_disabled": 0, "fusion_lon": 0.0, "fusion_lat": 0.0, "lat": 38.90357216666666, "type": "electric_scooter", "lon": -77.01106416666667, "bike_id": "c732a12535fcbc0916a427ef1aaaeea4", "rental_uris": {"android": "https://dc.lft.to/lastmile_qr_scan", "ios": "https://dc.lft.to/lastmile_qr_scan"}, "name": "c732a12535fcbc0916a427ef1aaaeea4", "is_reserved": 0}, {"is_disabled": 0, "fusion_lon": 0.0, "fusion_lat": 0.0, "lat": 38.996679, "type": "electric_bike", "lon": -76.99143166666667, "bike_id": "295a28f7f27d517b130da0cace51ceb4", "rental_uris": {"android": "https://dc.lft.to/lastmile_qr_scan", "ios": "https://dc.lft.to/lastmile_qr_scan"}, "name": "295a28f7f27d517b130da0cace51ceb4", "is_reserved": 0}, {"is_disabled": 0, "fusion_lon": 0.0, "fusion_lat": 0.0, "lat": 38.8967195, "type": "electric_scooter", "lon": -77.04358766666667, "bike_id": "52cdceac7703f23cfe80bf3787ec335b", "rental_uris": {"android": "https://dc.lft.to/lastmile_qr_scan", "ios": "https://dc.lft.to/lastmile_qr_scan"}, "name": "52cdceac7703f23cfe80bf3787ec335b", "is_reserved": 0}, {"is_disabled": 0, "fusion_lon": 0.0, "fusion_lat": 0.0, "lat": 38.875667666666665, "type": "electric_scooter", "lon": -77.02088866666666, "bike_id": "05ba6c4f4aefbc4287d17b07022632ba", "rental_uris": {"android": "https://dc.lft.to/lastmile_qr_scan", "ios": "https://dc.lft.to/lastmile_qr_scan"}, "name": "05ba6c4f4aefbc4287d17b07022632ba", "is_reserved": 0}, {"is_disabled": 0, "fusion_lon": 0.0, "fusion_lat": 0.0, "lat": 38.94449766666666, "type": "electric_scooter", "lon": -77.060234, "bike_id": "1176e2fa8619839f151f3019381c0af1", "rental_uris": {"android": "https://dc.lft.to/lastmile_qr_scan", "ios": "https://dc.lft.to/lastmile_qr_scan"}, "name": "1176e2fa8619839f151f3019381c0af1", "is_reserved": 0}, {"is_disabled": 0, "fusion_lon": 0.0, "fusion_lat": 0.0, "lat": 38.9262205, "type": "electric_scooter", "lon": -77.04196333333333, "bike_id": "a5a90c187d05845af9348d81b9cec59b", "rental_uris": {"android": "https://dc.lft.to/lastmile_qr_scan", "ios": "https://dc.lft.to/lastmile_qr_scan"}, "name": "a5a90c187d05845af9348d81b9cec59b", "is_reserved": 0}, {"is_disabled": 0, "fusion_lon": 0.0, "fusion_lat": 0.0, "lat": 38.927204, "type": "electric_scooter", "lon": -77.01603183333333, "bike_id": "146758eac13e7dfc7fc7f0e69937ac4f", "rental_uris": {"android": "https://dc.lft.to/lastmile_qr_scan", "ios": "https://dc.lft.to/lastmile_qr_scan"}, "name": "146758eac13e7dfc7fc7f0e69937ac4f", "is_reserved": 0}, {"is_disabled": 0, "fusion_lon": 0.0, "fusion_lat": 0.0, "lat": 38.92660733333334, "type": "electric_scooter", "lon": -77.02281783333333, "bike_id": "2f6b08461cc8d8039e244f25f8d67ecd", "rental_uris": {"android": "https://dc.lft.to/lastmile_qr_scan", "ios": "https://dc.lft.to/lastmile_qr_scan"}, "name": "2f6b08461cc8d8039e244f25f8d67ecd", "is_reserved": 0}, {"is_disabled": 0, "fusion_lon": 0.0, "fusion_lat": 0.0, "lat": 38.9096975, "type": "electric_scooter", "lon": -77.0386635, "bike_id": "73de1bf7877f7510ab8907f76c00a577", "rental_uris": {"android": "https://dc.lft.to/lastmile_qr_scan", "ios": "https://dc.lft.to/lastmile_qr_scan"}, "name": "73de1bf7877f7510ab8907f76c00a577", "is_reserved": 0}, {"is_disabled": 0, "fusion_lon": 0.0, "fusion_lat": 0.0, "lat": 38.919043333333335, "type": "electric_scooter", "lon": -77.04599633333333, "bike_id": "95a9c07c6fee920ae6821ca01c352472", "rental_uris": {"android": "https://dc.lft.to/lastmile_qr_scan", "ios": "https://dc.lft.to/lastmile_qr_scan"}, "name": "95a9c07c6fee920ae6821ca01c352472", "is_reserved": 0}, {"is_disabled": 0, "fusion_lon": 0.0, "fusion_lat": 0.0, "lat": 38.89246833333333, "type": "electric_scooter", "lon": -77.0200315, "bike_id": "5fc0b3358bf2a31e03d281626cdf218a", "rental_uris": {"android": "https://dc.lft.to/lastmile_qr_scan", "ios": "https://dc.lft.to/lastmile_qr_scan"}, "name": "5fc0b3358bf2a31e03d281626cdf218a", "is_reserved": 0}, {"is_disabled": 0, "fusion_lon": 0.0, "fusion_lat": 0.0, "lat": 38.923167, "type": "electric_scooter", "lon": -77.04521183333334, "bike_id": "990077c377ee01e2cfb40094c1d512bf", "rental_uris": {"android": "https://dc.lft.to/lastmile_qr_scan", "ios": "https://dc.lft.to/lastmile_qr_scan"}, "name": "990077c377ee01e2cfb40094c1d512bf", "is_reserved": 0}, {"is_disabled": 0, "fusion_lon": 0.0, "fusion_lat": 0.0, "lat": 38.985981333333335, "type": "electric_bike", "lon": -77.03756283333334, "bike_id": "d66eeec7247fa1423790fc0b8967a0f6", "rental_uris": {"android": "https://dc.lft.to/lastmile_qr_scan", "ios": "https://dc.lft.to/lastmile_qr_scan"}, "name": "d66eeec7247fa1423790fc0b8967a0f6", "is_reserved": 0}, {"is_disabled": 0, "fusion_lon": 0.0, "fusion_lat": 0.0, "lat": 38.8591425, "type": "electric_scooter", "lon": -76.98778566666667, "bike_id": "34d4d267ece4194ba806732edfbb8241", "rental_uris": {"android": "https://dc.lft.to/lastmile_qr_scan", "ios": "https://dc.lft.to/lastmile_qr_scan"}, "name": "34d4d267ece4194ba806732edfbb8241", "is_reserved": 0}, {"is_disabled": 0, "fusion_lon": 0.0, "fusion_lat": 0.0, "lat": 38.931172, "type": "electric_scooter", "lon": -77.0236155, "bike_id": "a7439ffb8f24390b351854a4721f0223", "rental_uris": {"android": "https://dc.lft.to/lastmile_qr_scan", "ios": "https://dc.lft.to/lastmile_qr_scan"}, "name": "a7439ffb8f24390b351854a4721f0223", "is_reserved": 0}, {"is_disabled": 0, "fusion_lon": 0.0, "fusion_lat": 0.0, "lat": 38.9182665, "type": "electric_scooter", "lon": -77.036564, "bike_id": "a93e78508f7a52179e0ccdc75d52f5be", "rental_uris": {"android": "https://dc.lft.to/lastmile_qr_scan", "ios": "https://dc.lft.to/lastmile_qr_scan"}, "name": "a93e78508f7a52179e0ccdc75d52f5be", "is_reserved": 0}, {"is_disabled": 0, "fusion_lon": 0.0, "fusion_lat": 0.0, "lat": 38.9236215, "type": "electric_scooter", "lon": -77.05031316666667, "bike_id": "a69cea9ad4318b378cd7e773c0f9422e", "rental_uris": {"android": "https://dc.lft.to/lastmile_qr_scan", "ios": "https://dc.lft.to/lastmile_qr_scan"}, "name": "a69cea9ad4318b378cd7e773c0f9422e", "is_reserved": 0}, {"is_disabled": 0, "fusion_lon": 0.0, "fusion_lat": 0.0, "lat": 38.923675833333334, "type": "electric_scooter", "lon": -77.02813766666667, "bike_id": "8a4eb81f115bf458b946b03024ccc9e0", "rental_uris": {"android": "https://dc.lft.to/lastmile_qr_scan", "ios": "https://dc.lft.to/lastmile_qr_scan"}, "name": "8a4eb81f115bf458b946b03024ccc9e0", "is_reserved": 0}, {"is_disabled": 0, "fusion_lon": 0.0, "fusion_lat": 0.0, "lat": 38.928441, "type": "electric_scooter", "lon": -77.01416566666667, "bike_id": "fe3a71f1725727d0de1ef71ff1116007", "rental_uris": {"android": "https://dc.lft.to/lastmile_qr_scan", "ios": "https://dc.lft.to/lastmile_qr_scan"}, "name": "fe3a71f1725727d0de1ef71ff1116007", "is_reserved": 0}, {"is_disabled": 0, "fusion_lon": 0.0, "fusion_lat": 0.0, "lat": 38.9119025, "type": "electric_scooter", "lon": -77.038357, "bike_id": "dc68a9ea960718d285fa561dda924832", "rental_uris": {"android": "https://dc.lft.to/lastmile_qr_scan", "ios": "https://dc.lft.to/lastmile_qr_scan"}, "name": "dc68a9ea960718d285fa561dda924832", "is_reserved": 0}, {"is_disabled": 0, "fusion_lon": 0.0, "fusion_lat": 0.0, "lat": 38.934930666666666, "type": "electric_scooter", "lon": -77.02599166666667, "bike_id": "24e02a9d556b27d15a8ac61c07c21f20", "rental_uris": {"android": "https://dc.lft.to/lastmile_qr_scan", "ios": "https://dc.lft.to/lastmile_qr_scan"}, "name": "24e02a9d556b27d15a8ac61c07c21f20", "is_reserved": 0}, {"is_disabled": 0, "fusion_lon": 0.0, "fusion_lat": 0.0, "lat": 38.9014495, "type": "electric_scooter", "lon": -77.02930016666667, "bike_id": "10a483597907edc540a80ebb5b29dc27", "rental_uris": {"android": "https://dc.lft.to/lastmile_qr_scan", "ios": "https://dc.lft.to/lastmile_qr_scan"}, "name": "10a483597907edc540a80ebb5b29dc27", "is_reserved": 0}, {"is_disabled": 0, "fusion_lon": 0.0, "fusion_lat": 0.0, "lat": 38.928513833333334, "type": "electric_scooter", "lon": -77.0140185, "bike_id": "e8c7ea270f90644aa30ea58ccc7ffc8f", "rental_uris": {"android": "https://dc.lft.to/lastmile_qr_scan", "ios": "https://dc.lft.to/lastmile_qr_scan"}, "name": "e8c7ea270f90644aa30ea58ccc7ffc8f", "is_reserved": 0}, {"is_disabled": 0, "fusion_lon": 0.0, "fusion_lat": 0.0, "lat": 38.9273155, "type": "electric_scooter", "lon": -77.0224945, "bike_id": "e3298f4e80d47db7cd58ca5c42a0bc0c", "rental_uris": {"android": "https://dc.lft.to/lastmile_qr_scan", "ios": "https://dc.lft.to/lastmile_qr_scan"}, "name": "e3298f4e80d47db7cd58ca5c42a0bc0c", "is_reserved": 0}, {"is_disabled": 0, "fusion_lon": 0.0, "fusion_lat": 0.0, "lat": 38.900447166666666, "type": "electric_scooter", "lon": -76.92269666666667, "bike_id": "535b2cd7876773feb88b8c33ee2518f7", "rental_uris": {"android": "https://dc.lft.to/lastmile_qr_scan", "ios": "https://dc.lft.to/lastmile_qr_scan"}, "name": "535b2cd7876773feb88b8c33ee2518f7", "is_reserved": 0}, {"is_disabled": 0, "fusion_lon": 0.0, "fusion_lat": 0.0, "lat": 38.86126683333333, "type": "electric_scooter", "lon": -76.9855645, "bike_id": "40c79a8b5f1ffebe423112cd917c4b6b", "rental_uris": {"android": "https://dc.lft.to/lastmile_qr_scan", "ios": "https://dc.lft.to/lastmile_qr_scan"}, "name": "40c79a8b5f1ffebe423112cd917c4b6b", "is_reserved": 0}, {"is_disabled": 0, "fusion_lon": 0.0, "fusion_lat": 0.0, "lat": 38.93678233333333, "type": "electric_scooter", "lon": -77.02464966666666, "bike_id": "88bae2aff1160db353f8ba05c1630211", "rental_uris": {"android": "https://dc.lft.to/lastmile_qr_scan", "ios": "https://dc.lft.to/lastmile_qr_scan"}, "name": "88bae2aff1160db353f8ba05c1630211", "is_reserved": 0}, {"is_disabled": 0, "fusion_lon": 0.0, "fusion_lat": 0.0, "lat": 38.893724, "type": "electric_scooter", "lon": -76.95000233333333, "bike_id": "3bb2004e3f1675f9583396e19c96289e", "rental_uris": {"android": "https://dc.lft.to/lastmile_qr_scan", "ios": "https://dc.lft.to/lastmile_qr_scan"}, "name": "3bb2004e3f1675f9583396e19c96289e", "is_reserved": 0}, {"is_disabled": 0, "fusion_lon": 0.0, "fusion_lat": 0.0, "lat": 38.88755716666667, "type": "electric_bike", "lon": -76.90083816666667, "bike_id": "cb43f7b2c3448ec266f22164766f7925", "rental_uris": {"android": "https://dc.lft.to/lastmile_qr_scan", "ios": "https://dc.lft.to/lastmile_qr_scan"}, "name": "cb43f7b2c3448ec266f22164766f7925", "is_reserved": 0}, {"is_disabled": 0, "fusion_lon": 0.0, "fusion_lat": 0.0, "lat": 38.896714333333335, "type": "electric_scooter", "lon": -76.99786183333333, "bike_id": "05aa26147f2e8587721e5300d978a3e4", "rental_uris": {"android": "https://dc.lft.to/lastmile_qr_scan", "ios": "https://dc.lft.to/lastmile_qr_scan"}, "name": "05aa26147f2e8587721e5300d978a3e4", "is_reserved": 0}, {"is_disabled": 0, "fusion_lon": 0.0, "fusion_lat": 0.0, "lat": 38.911868, "type": "electric_scooter", "lon": -77.03499166666667, "bike_id": "d647d4dcbbd5310e7a46c4f7bc8108a5", "rental_uris": {"android": "https://dc.lft.to/lastmile_qr_scan", "ios": "https://dc.lft.to/lastmile_qr_scan"}, "name": "d647d4dcbbd5310e7a46c4f7bc8108a5", "is_reserved": 0}, {"is_disabled": 0, "fusion_lon": 0.0, "fusion_lat": 0.0, "lat": 38.927063, "type": "electric_scooter", "lon": -77.02327483333333, "bike_id": "520fbfe24932adc94b061f91abe1cbc2", "rental_uris": {"android": "https://dc.lft.to/lastmile_qr_scan", "ios": "https://dc.lft.to/lastmile_qr_scan"}, "name": "520fbfe24932adc94b061f91abe1cbc2", "is_reserved": 0}, {"is_disabled": 0, "fusion_lon": 0.0, "fusion_lat": 0.0, "lat": 38.89995366666667, "type": "electric_scooter", "lon": -76.92229333333333, "bike_id": "b19c18f62981055174249b1975e7bb8f", "rental_uris": {"android": "https://dc.lft.to/lastmile_qr_scan", "ios": "https://dc.lft.to/lastmile_qr_scan"}, "name": "b19c18f62981055174249b1975e7bb8f", "is_reserved": 0}, {"is_disabled": 0, "fusion_lon": 0.0, "fusion_lat": 0.0, "lat": 38.908682166666665, "type": "electric_scooter", "lon": -77.03546316666667, "bike_id": "112ab4f7cf1e999c79410d86215e1be2", "rental_uris": {"android": "https://dc.lft.to/lastmile_qr_scan", "ios": "https://dc.lft.to/lastmile_qr_scan"}, "name": "112ab4f7cf1e999c79410d86215e1be2", "is_reserved": 0}, {"is_disabled": 0, "fusion_lon": 0.0, "fusion_lat": 0.0, "lat": 38.8821475, "type": "electric_bike", "lon": -77.10761933333333, "bike_id": "f9ff5b372871d9a663cc30e14bb6cf1c", "rental_uris": {"android": "https://dc.lft.to/lastmile_qr_scan", "ios": "https://dc.lft.to/lastmile_qr_scan"}, "name": "f9ff5b372871d9a663cc30e14bb6cf1c", "is_reserved": 0}, {"is_disabled": 0, "fusion_lon": 0.0, "fusion_lat": 0.0, "lat": 38.9215245, "type": "electric_scooter", "lon": -77.035181, "bike_id": "8d6f176299136579faf8fd7c399fbc7d", "rental_uris": {"android": "https://dc.lft.to/lastmile_qr_scan", "ios": "https://dc.lft.to/lastmile_qr_scan"}, "name": "8d6f176299136579faf8fd7c399fbc7d", "is_reserved": 0}, {"is_disabled": 0, "fusion_lon": 0.0, "fusion_lat": 0.0, "lat": 38.841098833333334, "type": "electric_bike", "lon": -77.08940766666667, "bike_id": "5a811094d94d08ea7cc956b08b752ac2", "rental_uris": {"android": "https://dc.lft.to/lastmile_qr_scan", "ios": "https://dc.lft.to/lastmile_qr_scan"}, "name": "5a811094d94d08ea7cc956b08b752ac2", "is_reserved": 0}, {"is_disabled": 0, "fusion_lon": 0.0, "fusion_lat": 0.0, "lat": 38.92362816666667, "type": "electric_scooter", "lon": -77.05027916666667, "bike_id": "bda5b2378ebec4d4bab961a5d5d54b44", "rental_uris": {"android": "https://dc.lft.to/lastmile_qr_scan", "ios": "https://dc.lft.to/lastmile_qr_scan"}, "name": "bda5b2378ebec4d4bab961a5d5d54b44", "is_reserved": 0}, {"is_disabled": 0, "fusion_lon": 0.0, "fusion_lat": 0.0, "lat": 38.92500233333333, "type": "electric_scooter", "lon": -76.99579, "bike_id": "77637e278ffd15a48753828bb893b081", "rental_uris": {"android": "https://dc.lft.to/lastmile_qr_scan", "ios": "https://dc.lft.to/lastmile_qr_scan"}, "name": "77637e278ffd15a48753828bb893b081", "is_reserved": 0}, {"is_disabled": 0, "fusion_lon": 0.0, "fusion_lat": 0.0, "lat": 38.911727166666665, "type": "electric_scooter", "lon": -77.03183066666666, "bike_id": "74c4abef62650a3da7bc65f849aaf191", "rental_uris": {"android": "https://dc.lft.to/lastmile_qr_scan", "ios": "https://dc.lft.to/lastmile_qr_scan"}, "name": "74c4abef62650a3da7bc65f849aaf191", "is_reserved": 0}, {"is_disabled": 0, "fusion_lon": 0.0, "fusion_lat": 0.0, "lat": 38.910478, "type": "electric_scooter", "lon": -77.04052433333334, "bike_id": "e87614d771de58f26414f1639d96d8c5", "rental_uris": {"android": "https://dc.lft.to/lastmile_qr_scan", "ios": "https://dc.lft.to/lastmile_qr_scan"}, "name": "e87614d771de58f26414f1639d96d8c5", "is_reserved": 0}, {"is_disabled": 0, "fusion_lon": 0.0, "fusion_lat": 0.0, "lat": 38.89373033333333, "type": "electric_scooter", "lon": -76.9499515, "bike_id": "9db51a8c10882ce6d76f7bfdf2925516", "rental_uris": {"android": "https://dc.lft.to/lastmile_qr_scan", "ios": "https://dc.lft.to/lastmile_qr_scan"}, "name": "9db51a8c10882ce6d76f7bfdf2925516", "is_reserved": 0}, {"is_disabled": 0, "fusion_lon": 0.0, "fusion_lat": 0.0, "lat": 38.90506633333333, "type": "electric_scooter", "lon": -76.98854333333334, "bike_id": "aff284b0ddf9afd43e9da4510784718e", "rental_uris": {"android": "https://dc.lft.to/lastmile_qr_scan", "ios": "https://dc.lft.to/lastmile_qr_scan"}, "name": "aff284b0ddf9afd43e9da4510784718e", "is_reserved": 0}, {"is_disabled": 0, "fusion_lon": 0.0, "fusion_lat": 0.0, "lat": 38.926188833333335, "type": "electric_scooter", "lon": -77.057036, "bike_id": "06c21bd227dcaef7f58228431e917f9c", "rental_uris": {"android": "https://dc.lft.to/lastmile_qr_scan", "ios": "https://dc.lft.to/lastmile_qr_scan"}, "name": "06c21bd227dcaef7f58228431e917f9c", "is_reserved": 0}, {"is_disabled": 0, "fusion_lon": 0.0, "fusion_lat": 0.0, "lat": 38.936035333333336, "type": "electric_scooter", "lon": -77.05857816666666, "bike_id": "ea037bdcd5f41d7415aa962a311732fb", "rental_uris": {"android": "https://dc.lft.to/lastmile_qr_scan", "ios": "https://dc.lft.to/lastmile_qr_scan"}, "name": "ea037bdcd5f41d7415aa962a311732fb", "is_reserved": 0}, {"is_disabled": 0, "fusion_lon": 0.0, "fusion_lat": 0.0, "lat": 38.896303833333334, "type": "electric_scooter", "lon": -77.021234, "bike_id": "edd6b0b72b7153e74e8e8b1fa6862226", "rental_uris": {"android": "https://dc.lft.to/lastmile_qr_scan", "ios": "https://dc.lft.to/lastmile_qr_scan"}, "name": "edd6b0b72b7153e74e8e8b1fa6862226", "is_reserved": 0}, {"is_disabled": 0, "fusion_lon": 0.0, "fusion_lat": 0.0, "lat": 38.9053695, "type": "electric_scooter", "lon": -76.98781766666667, "bike_id": "a293b939177b5bebc9e4896a03e32c2c", "rental_uris": {"android": "https://dc.lft.to/lastmile_qr_scan", "ios": "https://dc.lft.to/lastmile_qr_scan"}, "name": "a293b939177b5bebc9e4896a03e32c2c", "is_reserved": 0}, {"is_disabled": 0, "fusion_lon": 0.0, "fusion_lat": 0.0, "lat": 38.88840033333334, "type": "electric_scooter", "lon": -77.04906333333334, "bike_id": "6142df4487e77b904a43927c83cadb51", "rental_uris": {"android": "https://dc.lft.to/lastmile_qr_scan", "ios": "https://dc.lft.to/lastmile_qr_scan"}, "name": "6142df4487e77b904a43927c83cadb51", "is_reserved": 0}, {"is_disabled": 0, "fusion_lon": 0.0, "fusion_lat": 0.0, "lat": 38.98663766666667, "type": "electric_scooter", "lon": -77.0264395, "bike_id": "d3cb88a98e591508193e7b8a142b76b6", "rental_uris": {"android": "https://dc.lft.to/lastmile_qr_scan", "ios": "https://dc.lft.to/lastmile_qr_scan"}, "name": "d3cb88a98e591508193e7b8a142b76b6", "is_reserved": 0}, {"is_disabled": 0, "fusion_lon": 0.0, "fusion_lat": 0.0, "lat": 38.91463616666667, "type": "electric_scooter", "lon": -77.04391816666667, "bike_id": "340b016bcc7a821ef2fa9f172462dd94", "rental_uris": {"android": "https://dc.lft.to/lastmile_qr_scan", "ios": "https://dc.lft.to/lastmile_qr_scan"}, "name": "340b016bcc7a821ef2fa9f172462dd94", "is_reserved": 0}, {"is_disabled": 0, "fusion_lon": 0.0, "fusion_lat": 0.0, "lat": 38.918523, "type": "electric_scooter", "lon": -77.0295105, "bike_id": "19fb91d119779d1bc4e3c0d097bafcb6", "rental_uris": {"android": "https://dc.lft.to/lastmile_qr_scan", "ios": "https://dc.lft.to/lastmile_qr_scan"}, "name": "19fb91d119779d1bc4e3c0d097bafcb6", "is_reserved": 0}, {"is_disabled": 0, "fusion_lon": 0.0, "fusion_lat": 0.0, "lat": 38.93275033333333, "type": "electric_scooter", "lon": -76.99688083333334, "bike_id": "9a780e9c5519704b17795f71e0412c5c", "rental_uris": {"android": "https://dc.lft.to/lastmile_qr_scan", "ios": "https://dc.lft.to/lastmile_qr_scan"}, "name": "9a780e9c5519704b17795f71e0412c5c", "is_reserved": 0}, {"is_disabled": 0, "fusion_lon": 0.0, "fusion_lat": 0.0, "lat": 38.83608783333333, "type": "electric_bike", "lon": -77.003792, "bike_id": "651c381718a5b0a8ba6638dab9c672f2", "rental_uris": {"android": "https://dc.lft.to/lastmile_qr_scan", "ios": "https://dc.lft.to/lastmile_qr_scan"}, "name": "651c381718a5b0a8ba6638dab9c672f2", "is_reserved": 0}, {"is_disabled": 0, "fusion_lon": 0.0, "fusion_lat": 0.0, "lat": 38.899731833333334, "type": "electric_scooter", "lon": -77.02682816666666, "bike_id": "285b2c74d6a8430384f0453a76dffd35", "rental_uris": {"android": "https://dc.lft.to/lastmile_qr_scan", "ios": "https://dc.lft.to/lastmile_qr_scan"}, "name": "285b2c74d6a8430384f0453a76dffd35", "is_reserved": 0}, {"is_disabled": 0, "fusion_lon": 0.0, "fusion_lat": 0.0, "lat": 38.96915383333334, "type": "electric_bike", "lon": -77.02614333333334, "bike_id": "32f6f449391bc89617e15ed4209f0c54", "rental_uris": {"android": "https://dc.lft.to/lastmile_qr_scan", "ios": "https://dc.lft.to/lastmile_qr_scan"}, "name": "32f6f449391bc89617e15ed4209f0c54", "is_reserved": 0}, {"is_disabled": 0, "fusion_lon": 0.0, "fusion_lat": 0.0, "lat": 38.887541, "type": "electric_scooter", "lon": -76.99612133333333, "bike_id": "09f65767970f036649ba38d4d8222f3c", "rental_uris": {"android": "https://dc.lft.to/lastmile_qr_scan", "ios": "https://dc.lft.to/lastmile_qr_scan"}, "name": "09f65767970f036649ba38d4d8222f3c", "is_reserved": 0}, {"is_disabled": 0, "fusion_lon": 0.0, "fusion_lat": 0.0, "lat": 38.89907316666667, "type": "electric_scooter", "lon": -76.93388166666666, "bike_id": "8b32ce4403dc69382ceb8f86d4dacfee", "rental_uris": {"android": "https://dc.lft.to/lastmile_qr_scan", "ios": "https://dc.lft.to/lastmile_qr_scan"}, "name": "8b32ce4403dc69382ceb8f86d4dacfee", "is_reserved": 0}, {"is_disabled": 0, "fusion_lon": 0.0, "fusion_lat": 0.0, "lat": 38.87682783333333, "type": "electric_scooter", "lon": -77.01785933333333, "bike_id": "b09fa88a149d4ba078fdf27d171a9819", "rental_uris": {"android": "https://dc.lft.to/lastmile_qr_scan", "ios": "https://dc.lft.to/lastmile_qr_scan"}, "name": "b09fa88a149d4ba078fdf27d171a9819", "is_reserved": 0}, {"is_disabled": 0, "fusion_lon": 0.0, "fusion_lat": 0.0, "lat": 38.9054225, "type": "electric_scooter", "lon": -77.05697483333333, "bike_id": "10a66a17fe804fb222ec9062fb212622", "rental_uris": {"android": "https://dc.lft.to/lastmile_qr_scan", "ios": "https://dc.lft.to/lastmile_qr_scan"}, "name": "10a66a17fe804fb222ec9062fb212622", "is_reserved": 0}, {"is_disabled": 0, "fusion_lon": 0.0, "fusion_lat": 0.0, "lat": 38.892055166666665, "type": "electric_scooter", "lon": -76.98800666666666, "bike_id": "d21fefe5ae31bcc296020f834b10be0b", "rental_uris": {"android": "https://dc.lft.to/lastmile_qr_scan", "ios": "https://dc.lft.to/lastmile_qr_scan"}, "name": "d21fefe5ae31bcc296020f834b10be0b", "is_reserved": 0}, {"is_disabled": 0, "fusion_lon": 0.0, "fusion_lat": 0.0, "lat": 38.88731633333333, "type": "electric_scooter", "lon": -77.01529266666667, "bike_id": "33f45db75e25ef7b8e66361308afb2a7", "rental_uris": {"android": "https://dc.lft.to/lastmile_qr_scan", "ios": "https://dc.lft.to/lastmile_qr_scan"}, "name": "33f45db75e25ef7b8e66361308afb2a7", "is_reserved": 0}, {"is_disabled": 0, "fusion_lon": 0.0, "fusion_lat": 0.0, "lat": 38.91800583333333, "type": "electric_scooter", "lon": -77.02950366666667, "bike_id": "b84af3d8cc1e93a97c68d7eafcf2f956", "rental_uris": {"android": "https://dc.lft.to/lastmile_qr_scan", "ios": "https://dc.lft.to/lastmile_qr_scan"}, "name": "b84af3d8cc1e93a97c68d7eafcf2f956", "is_reserved": 0}, {"is_disabled": 0, "fusion_lon": 0.0, "fusion_lat": 0.0, "lat": 38.92419916666667, "type": "electric_scooter", "lon": -77.0562005, "bike_id": "5d980c0461e40bcfb718473f7dac7de0", "rental_uris": {"android": "https://dc.lft.to/lastmile_qr_scan", "ios": "https://dc.lft.to/lastmile_qr_scan"}, "name": "5d980c0461e40bcfb718473f7dac7de0", "is_reserved": 0}, {"is_disabled": 0, "fusion_lon": 0.0, "fusion_lat": 0.0, "lat": 38.91599133333333, "type": "electric_scooter", "lon": -77.02296916666667, "bike_id": "e99f06a24a8c9c61cea1796ca995f90f", "rental_uris": {"android": "https://dc.lft.to/lastmile_qr_scan", "ios": "https://dc.lft.to/lastmile_qr_scan"}, "name": "e99f06a24a8c9c61cea1796ca995f90f", "is_reserved": 0}, {"is_disabled": 0, "fusion_lon": 0.0, "fusion_lat": 0.0, "lat": 38.905061, "type": "electric_scooter", "lon": -77.06517183333334, "bike_id": "ae3c8cc933da8111394147257a94686a", "rental_uris": {"android": "https://dc.lft.to/lastmile_qr_scan", "ios": "https://dc.lft.to/lastmile_qr_scan"}, "name": "ae3c8cc933da8111394147257a94686a", "is_reserved": 0}, {"is_disabled": 0, "fusion_lon": 0.0, "fusion_lat": 0.0, "lat": 38.82781133333334, "type": "electric_bike", "lon": -77.11077916666666, "bike_id": "c6e5d10ebc93fa594ce17f1da8de54e2", "rental_uris": {"android": "https://dc.lft.to/lastmile_qr_scan", "ios": "https://dc.lft.to/lastmile_qr_scan"}, "name": "c6e5d10ebc93fa594ce17f1da8de54e2", "is_reserved": 0}, {"is_disabled": 0, "fusion_lon": 0.0, "fusion_lat": 0.0, "lat": 38.912657333333335, "type": "electric_scooter", "lon": -77.025627, "bike_id": "16521b2a87b624912ddd9a8ec1a3b683", "rental_uris": {"android": "https://dc.lft.to/lastmile_qr_scan", "ios": "https://dc.lft.to/lastmile_qr_scan"}, "name": "16521b2a87b624912ddd9a8ec1a3b683", "is_reserved": 0}, {"is_disabled": 0, "fusion_lon": 0.0, "fusion_lat": 0.0, "lat": 38.899662666666664, "type": "electric_scooter", "lon": -76.93990483333333, "bike_id": "94115df2bebcd340522b81a35b854f14", "rental_uris": {"android": "https://dc.lft.to/lastmile_qr_scan", "ios": "https://dc.lft.to/lastmile_qr_scan"}, "name": "94115df2bebcd340522b81a35b854f14", "is_reserved": 0}, {"is_disabled": 0, "fusion_lon": 0.0, "fusion_lat": 0.0, "lat": 38.9047575, "type": "electric_bike", "lon": -76.95051416666666, "bike_id": "ad461461609c6130f294f562015845b6", "rental_uris": {"android": "https://dc.lft.to/lastmile_qr_scan", "ios": "https://dc.lft.to/lastmile_qr_scan"}, "name": "ad461461609c6130f294f562015845b6", "is_reserved": 0}, {"is_disabled": 0, "fusion_lon": 0.0, "fusion_lat": 0.0, "lat": 38.962642, "type": "electric_scooter", "lon": -77.02897316666666, "bike_id": "d84e36360f76356f0436bd69f51c06ed", "rental_uris": {"android": "https://dc.lft.to/lastmile_qr_scan", "ios": "https://dc.lft.to/lastmile_qr_scan"}, "name": "d84e36360f76356f0436bd69f51c06ed", "is_reserved": 0}, {"is_disabled": 0, "fusion_lon": 0.0, "fusion_lat": 0.0, "lat": 38.9157445, "type": "electric_bike", "lon": -77.06929816666667, "bike_id": "b8346139dbd43907755ba7126515aeb1", "rental_uris": {"android": "https://dc.lft.to/lastmile_qr_scan", "ios": "https://dc.lft.to/lastmile_qr_scan"}, "name": "b8346139dbd43907755ba7126515aeb1", "is_reserved": 0}, {"is_disabled": 0, "fusion_lon": 0.0, "fusion_lat": 0.0, "lat": 38.907878, "type": "electric_scooter", "lon": -77.0304625, "bike_id": "259ff32eee484d3f4a63bd200993cd91", "rental_uris": {"android": "https://dc.lft.to/lastmile_qr_scan", "ios": "https://dc.lft.to/lastmile_qr_scan"}, "name": "259ff32eee484d3f4a63bd200993cd91", "is_reserved": 0}, {"is_disabled": 0, "fusion_lon": 0.0, "fusion_lat": 0.0, "lat": 38.909746166666665, "type": "electric_scooter", "lon": -77.03174083333333, "bike_id": "e58f998394a7097ca9b46a5a6a7c93f7", "rental_uris": {"android": "https://dc.lft.to/lastmile_qr_scan", "ios": "https://dc.lft.to/lastmile_qr_scan"}, "name": "e58f998394a7097ca9b46a5a6a7c93f7", "is_reserved": 0}, {"is_disabled": 0, "fusion_lon": 0.0, "fusion_lat": 0.0, "lat": 38.922528, "type": "electric_scooter", "lon": -77.0421565, "bike_id": "0a61e547bb775233f364d8ca919e06c7", "rental_uris": {"android": "https://dc.lft.to/lastmile_qr_scan", "ios": "https://dc.lft.to/lastmile_qr_scan"}, "name": "0a61e547bb775233f364d8ca919e06c7", "is_reserved": 0},