{"data": {"bikes": [{"lon": -77.01748866666667, "is_disabled": 0, "lat": 38.90335233333333, "fusion_lat": 0.0, "is_reserved": 0, "rental_uris": {"ios": "https://dc.lft.to/lastmile_qr_scan", "android": "https://dc.lft.to/lastmile_qr_scan"}, "fusion_lon": 0.0, "type": "electric_scooter", "bike_id": "3b1a5e66e7df7ad0e1723901c8acc6ee", "name": "3b1a5e66e7df7ad0e1723901c8acc6ee"}, {"lon": -76.98174383333334, "is_disabled": 0, "lat": 38.916675, "fusion_lat": 0.0, "is_reserved": 0, "rental_uris": {"ios": "https://dc.lft.to/lastmile_qr_scan", "android": "https://dc.lft.to/lastmile_qr_scan"}, "fusion_lon": 0.0, "type": "electric_scooter", "bike_id": "e2d578bab8f3d1c87a202bf1f16212f1", "name": "e2d578bab8f3d1c87a202bf1f16212f1"}, {"lon": -76.97173766666667, "is_disabled": 0, "lat": 38.87814933333333, "fusion_lat": 0.0, "is_reserved": 0, "rental_uris": {"ios": "https://dc.lft.to/lastmile_qr_scan", "android": "https://dc.lft.to/lastmile_qr_scan"}, "fusion_lon": 0.0, "type": "electric_scooter", "bike_id": "018da5b3dd52fe4eb83e0d32f3c5234b", "name": "018da5b3dd52fe4eb83e0d32f3c5234b"}, {"lon": -77.0328125, "is_disabled": 0, "lat": 38.92841833333333, "fusion_lat": 0.0, "is_reserved": 0, "rental_uris": {"ios": "https://dc.lft.to/lastmile_qr_scan", "android": "https://dc.lft.to/lastmile_qr_scan"}, "fusion_lon": 0.0, "type": "electric_scooter", "bike_id": "b036b07246874fb5a2d8211388e55eb1", "name": "b036b07246874fb5a2d8211388e55eb1"}, {"lon": -77.03662733333333, "is_disabled": 0, "lat": 38.91722933333333, "fusion_lat": 0.0, "is_reserved": 0, "rental_uris": {"ios": "https://dc.lft.to/lastmile_qr_scan", "android": "https://dc.lft.to/lastmile_qr_scan"}, "fusion_lon": 0.0, "type": "electric_scooter", "bike_id": "a39ed2476e4cefc752fec5734e747a14", "name": "a39ed2476e4cefc752fec5734e747a14"}, {"lon": -76.99379333333333, "is_disabled": 0, "lat": 38.9910095, "fusion_lat": 0.0, "is_reserved": 0, "rental_uris": {"ios": "https://dc.lft.to/lastmile_qr_scan", "android": "https://dc.lft.to/lastmile_qr_scan"}, "fusion_lon": 0.0, "type": "electric_bike", "bike_id": "5f82df419ab6bbc8b7c8a6778165f53c", "name": "5f82df419ab6bbc8b7c8a6778165f53c"}, {"lon": -77.029814, "is_disabled": 0, "lat": 38.907289666666664, "fusion_lat": 0.0, "is_reserved": 0, "rental_uris": {"ios": "https://dc.lft.to/lastmile_qr_scan", "android": "https://dc.lft.to/lastmile_qr_scan"}, "fusion_lon": 0.0, "type": "electric_scooter", "bike_id": "23747cc5ca9204270dc159da81454415", "name": "23747cc5ca9204270dc159da81454415"}, {"lon": -77.033227, "is_disabled": 0, "lat": 38.89821466666667, "fusion_lat": 0.0, "is_reserved": 0, "rental_uris": {"ios": "https://dc.lft.to/lastmile_qr_scan", "android": "https://dc.lft.to/lastmile_qr_scan"}, "fusion_lon": 0.0, "type": "electric_scooter", "bike_id": "dacafa6accfdd9825e6f84b1ee0441d8", "name": "dacafa6accfdd9825e6f84b1ee0441d8"}, {"lon": -77.02508133333333, "is_disabled": 0, "lat": 38.91915733333333, "fusion_lat": 0.0, "is_reserved": 0, "rental_uris": {"ios": "https://dc.lft.to/lastmile_qr_scan", "android": "https://dc.lft.to/lastmile_qr_scan"}, "fusion_lon": 0.0, "type": "electric_scooter", "bike_id": "a963597834138a6a4ffde95213ca8638", "name": "a963597834138a6a4ffde95213ca8638"}, {"lon": -77.037899, "is_disabled": 0, "lat": 38.9262745, "fusion_lat": 0.0, "is_reserved": 0, "rental_uris": {"ios": "https://dc.lft.to/lastmile_qr_scan", "android": "https://dc.lft.to/lastmile_qr_scan"}, "fusion_lon": 0.0, "type": "electric_scooter", "bike_id": "421868a4c7ed0197d6efa4e88d5c28db", "name": "421868a4c7ed0197d6efa4e88d5c28db"}, {"lon": -77.00727966666666, "is_disabled": 0, "lat": 38.8849635, "fusion_lat": 0.0, "is_reserved": 0, "rental_uris": {"ios": "https://dc.lft.to/lastmile_qr_scan", "android": "https://dc.lft.to/lastmile_qr_scan"}, "fusion_lon": 0.0, "type": "electric_scooter", "bike_id": "b7fcb6a06bf7ec572c20851dc2301b52", "name": "b7fcb6a06bf7ec572c20851dc2301b52"}, {"lon": -77.044991, "is_disabled": 0, "lat": 38.892398166666666, "fusion_lat": 0.0, "is_reserved": 0, "rental_uris": {"ios": "https://dc.lft.to/lastmile_qr_scan", "android": "https://dc.lft.to/lastmile_qr_scan"}, "fusion_lon": 0.0, "type": "electric_scooter", "bike_id": "0d8977a2a7108f743487777482c8b7b8", "name": "0d8977a2a7108f743487777482c8b7b8"}, {"lon": -77.00628233333333, "is_disabled": 0, "lat": 38.871742, "fusion_lat": 0.0, "is_reserved": 0, "rental_uris": {"ios": "https://dc.lft.to/lastmile_qr_scan", "android": "https://dc.lft.to/lastmile_qr_scan"}, "fusion_lon": 0.0, "type": "electric_scooter", "bike_id": "be4ac367dcb3628b1b3890ed65f1ed5c", "name": "be4ac367dcb3628b1b3890ed65f1ed5c"}, {"lon": -77.05093583333333, "is_disabled": 0, "lat": 38.923447, "fusion_lat": 0.0, "is_reserved": 0, "rental_uris": {"ios": "https://dc.lft.to/lastmile_qr_scan", "android": "https://dc.lft.to/lastmile_qr_scan"}, "fusion_lon": 0.0, "type": "electric_scooter", "bike_id": "65fd778be22b8620da5642ac5df2a17c", "name": "65fd778be22b8620da5642ac5df2a17c"}, {"lon": -77.03753833333333, "is_disabled": 0, "lat": 38.923138333333334, "fusion_lat": 0.0, "is_reserved": 0, "rental_uris": {"ios": "https://dc.lft.to/lastmile_qr_scan", "android": "https://dc.lft.to/lastmile_qr_scan"}, "fusion_lon": 0.0, "type": "electric_scooter", "bike_id": "eddf286bb9ef1007e4b8c562841a8619", "name": "eddf286bb9ef1007e4b8c562841a8619"}, {"lon": -77.02408633333333, "is_disabled": 0, "lat": 38.913984166666665, "fusion_lat": 0.0, "is_reserved": 0, "rental_uris": {"ios": "https://dc.lft.to/lastmile_qr_scan", "android": "https://dc.lft.to/lastmile_qr_scan"}, "fusion_lon": 0.0, "type": "electric_scooter", "bike_id": "3910d0a993eb11502b5e8c8aa83e2c5f", "name": "3910d0a993eb11502b5e8c8aa83e2c5f"}, {"lon": -77.0276615, "is_disabled": 0, "lat": 38.91695266666667, "fusion_lat": 0.0, "is_reserved": 0, "rental_uris": {"ios": "https://dc.lft.to/lastmile_qr_scan", "android": "https://dc.lft.to/lastmile_qr_scan"}, "fusion_lon": 0.0, "type": "electric_scooter", "bike_id": "e237ac883c7b41bdce1fdeff2e1f0cf4", "name": "e237ac883c7b41bdce1fdeff2e1f0cf4"}, {"lon": -76.9518665, "is_disabled": 0, "lat": 38.89130383333333, "fusion_lat": 0.0, "is_reserved": 0, "rental_uris": {"ios": "https://dc.lft.to/lastmile_qr_scan", "android": "https://dc.lft.to/lastmile_qr_scan"}, "fusion_lon": 0.0, "type": "electric_scooter", "bike_id": "c6bfd54fbd883c204a3bc3d61a16ebe4", "name": "c6bfd54fbd883c204a3bc3d61a16ebe4"}, {"lon": -77.009131, "is_disabled": 0, "lat": 38.89642966666667, "fusion_lat": 0.0, "is_reserved": 0, "rental_uris": {"ios": "https://dc.lft.to/lastmile_qr_scan", "android": "https://dc.lft.to/lastmile_qr_scan"}, "fusion_lon": 0.0, "type": "electric_scooter", "bike_id": "85edf097b217a585538547b374775da7", "name": "85edf097b217a585538547b374775da7"}, {"lon": -77.04291333333333, "is_disabled": 0, "lat": 38.906433, "fusion_lat": 0.0, "is_reserved": 0, "rental_uris": {"ios": "https://dc.lft.to/lastmile_qr_scan", "android": "https://dc.lft.to/lastmile_qr_scan"}, "fusion_lon": 0.0, "type": "electric_scooter", "bike_id": "dee52e54ff7f9543d41edd0c23af5d96", "name": "dee52e54ff7f9543d41edd0c23af5d96"}, {"lon": -77.02393666666667, "is_disabled": 0, "lat": 38.91145516666667, "fusion_lat": 0.0, "is_reserved": 0, "rental_uris": {"ios": "https://dc.lft.to/lastmile_qr_scan", "android": "https://dc.lft.to/lastmile_qr_scan"}, "fusion_lon": 0.0, "type": "electric_scooter", "bike_id": "a6520a6a88000dfe76d66f2dfb5852cb", "name": "a6520a6a88000dfe76d66f2dfb5852cb"}, {"lon": -77.033808, "is_disabled": 0, "lat": 38.92144483333333, "fusion_lat": 0.0, "is_reserved": 0, "rental_uris": {"ios": "https://dc.lft.to/lastmile_qr_scan", "android": "https://dc.lft.to/lastmile_qr_scan"}, "fusion_lon": 0.0, "type": "electric_scooter", "bike_id": "82d8a0ab941ca9e66dd47b98458915bd", "name": "82d8a0ab941ca9e66dd47b98458915bd"}, {"lon": -77.02512616666667, "is_disabled": 0, "lat": 38.9209265, "fusion_lat": 0.0, "is_reserved": 0, "rental_uris": {"ios": "https://dc.lft.to/lastmile_qr_scan", "android": "https://dc.lft.to/lastmile_qr_scan"}, "fusion_lon": 0.0, "type": "electric_scooter", "bike_id": "c92eaf189deb868f475bc0f87b987c90", "name": "c92eaf189deb868f475bc0f87b987c90"}, {"lon": -77.01889083333333, "is_disabled": 0, "lat": 38.93988683333333, "fusion_lat": 0.0, "is_reserved": 0, "rental_uris": {"ios": "https://dc.lft.to/lastmile_qr_scan", "android": "https://dc.lft.to/lastmile_qr_scan"}, "fusion_lon": 0.0, "type": "electric_scooter", "bike_id": "2118600add8604e357d84d2b49c31fe3", "name": "2118600add8604e357d84d2b49c31fe3"}, {"lon": -77.044565, "is_disabled": 0, "lat": 38.89729116666667, "fusion_lat": 0.0, "is_reserved": 0, "rental_uris": {"ios": "https://dc.lft.to/lastmile_qr_scan", "android": "https://dc.lft.to/lastmile_qr_scan"}, "fusion_lon": 0.0, "type": "electric_scooter", "bike_id": "33a3f0e309331eed3a4671bc9b36ee39", "name": "33a3f0e309331eed3a4671bc9b36ee39"}, {"lon": -77.041427, "is_disabled": 0, "lat": 38.91681483333333, "fusion_lat": 0.0, "is_reserved": 0, "rental_uris": {"ios": "https://dc.lft.to/lastmile_qr_scan", "android": "https://dc.lft.to/lastmile_qr_scan"}, "fusion_lon": 0.0, "type": "electric_scooter", "bike_id": "eb43cea8aeb41c71fde238589e0681a1", "name": "eb43cea8aeb41c71fde238589e0681a1"}, {"lon": -76.9823555, "is_disabled": 0, "lat": 38.90892183333333, "fusion_lat": 0.0, "is_reserved": 0, "rental_uris": {"ios": "https://dc.lft.to/lastmile_qr_scan", "android": "https://dc.lft.to/lastmile_qr_scan"}, "fusion_lon": 0.0, "type": "electric_scooter", "bike_id": "369f413236801fd0f1bd346cde8f9e8d", "name": "369f413236801fd0f1bd346cde8f9e8d"}, {"lon": -77.02387566666667, "is_disabled": 0, "lat": 38.898652166666665, "fusion_lat": 0.0, "is_reserved": 0, "rental_uris": {"ios": "https://dc.lft.to/lastmile_qr_scan", "android": "https://dc.lft.to/lastmile_qr_scan"}, "fusion_lon": 0.0, "type": "electric_scooter", "bike_id": "55c79fe89c9e1772e9726eca80c68f83", "name": "55c79fe89c9e1772e9726eca80c68f83"}, {"lon": -77.00054016666667, "is_disabled": 0, "lat": 38.900180666666664, "fusion_lat": 0.0, "is_reserved": 0, "rental_uris": {"ios": "https://dc.lft.to/lastmile_qr_scan", "android": "https://dc.lft.to/lastmile_qr_scan"}, "fusion_lon": 0.0, "type": "electric_scooter", "bike_id": "0d1d949614b9bbaede93031601b73ac3", "name": "0d1d949614b9bbaede93031601b73ac3"}, {"lon": -77.07265216666667, "is_disabled": 0, "lat": 38.934793166666665, "fusion_lat": 0.0, "is_reserved": 0, "rental_uris": {"ios": "https://dc.lft.to/lastmile_qr_scan", "android": "https://dc.lft.to/lastmile_qr_scan"}, "fusion_lon": 0.0, "type": "electric_scooter", "bike_id": "b8456f69e6767131a379a32dd67de102", "name": "b8456f69e6767131a379a32dd67de102"}, {"lon": -77.04021916666666, "is_disabled": 0, "lat": 38.92247583333334, "fusion_lat": 0.0, "is_reserved": 0, "rental_uris": {"ios": "https://dc.lft.to/lastmile_qr_scan", "android": "https://dc.lft.to/lastmile_qr_scan"}, "fusion_lon": 0.0, "type": "electric_scooter", "bike_id": "8e21aa092e6f7fb0121e95227cd87c4c", "name": "8e21aa092e6f7fb0121e95227cd87c4c"}, {"lon": -77.04900933333333, "is_disabled": 0, "lat": 38.900537666666665, "fusion_lat": 0.0, "is_reserved": 0, "rental_uris": {"ios": "https://dc.lft.to/lastmile_qr_scan", "android": "https://dc.lft.to/lastmile_qr_scan"}, "fusion_lon": 0.0, "type": "electric_scooter", "bike_id": "8ae7151b1f9c3a67cc6760e780694b49", "name": "8ae7151b1f9c3a67cc6760e780694b49"}, {"lon": -77.0249875, "is_disabled": 0, "lat": 38.9409035, "fusion_lat": 0.0, "is_reserved": 0, "rental_uris": {"ios": "https://dc.lft.to/lastmile_qr_scan", "android": "https://dc.lft.to/lastmile_qr_scan"}, "fusion_lon": 0.0, "type": "electric_scooter", "bike_id": "8d0c98ef3033bc4d87806da0379fe0b2", "name": "8d0c98ef3033bc4d87806da0379fe0b2"}, {"lon": -77.00892533333334, "is_disabled": 0, "lat": 38.924810666666666, "fusion_lat": 0.0, "is_reserved": 0, "rental_uris": {"ios": "https://dc.lft.to/lastmile_qr_scan", "android": "https://dc.lft.to/lastmile_qr_scan"}, "fusion_lon": 0.0, "type": "electric_scooter", "bike_id": "b6f4334b48d51b44265c7487ae58d9b2", "name": "b6f4334b48d51b44265c7487ae58d9b2"}, {"lon": -77.02922766666667, "is_disabled": 0, "lat": 38.899973833333334, "fusion_lat": 0.0, "is_reserved": 0, "rental_uris": {"ios": "https://dc.lft.to/lastmile_qr_scan", "android": "https://dc.lft.to/lastmile_qr_scan"}, "fusion_lon": 0.0, "type": "electric_scooter", "bike_id": "96801c9382b0d603c936dbba2cbf96e6", "name": "96801c9382b0d603c936dbba2cbf96e6"}, {"lon": -77.00800916666667, "is_disabled": 0, "lat": 38.949146, "fusion_lat": 0.0, "is_reserved": 0, "rental_uris": {"ios": "https://dc.lft.to/lastmile_qr_scan", "android": "https://dc.lft.to/lastmile_qr_scan"}, "fusion_lon": 0.0, "type": "electric_bike", "bike_id": "c0ea45009154fe16b751b6b9301afed5", "name": "c0ea45009154fe16b751b6b9301afed5"}, {"lon": -77.00946316666666, "is_disabled": 0, "lat": 38.9181295, "fusion_lat": 0.0, "is_reserved": 0, "rental_uris": {"ios": "https://dc.lft.to/lastmile_qr_scan", "android": "https://dc.lft.to/lastmile_qr_scan"}, "fusion_lon": 0.0, "type": "electric_scooter", "bike_id": "21ba58b343eac0d8037d183d2685a657", "name": "21ba58b343eac0d8037d183d2685a657"}, {"lon": -77.02397933333333, "is_disabled": 0, "lat": 38.95689, "fusion_lat": 0.0, "is_reserved": 0, "rental_uris": {"ios": "https://dc.lft.to/lastmile_qr_scan", "android": "https://dc.lft.to/lastmile_qr_scan"}, "fusion_lon": 0.0, "type": "electric_scooter", "bike_id": "3c750173d3e7f6f5480904a183439b97", "name": "3c750173d3e7f6f5480904a183439b97"}, {"lon": -77.09616233333334, "is_disabled": 0, "lat": 38.878842166666665, "fusion_lat": 0.0, "is_reserved": 0, "rental_uris": {"ios": "https://dc.lft.to/lastmile_qr_scan", "android": "https://dc.lft.to/lastmile_qr_scan"}, "fusion_lon": 0.0, "type": "electric_bike", "bike_id": "e3ca239d494e8758ba6fc160226ccc67", "name": "e3ca239d494e8758ba6fc160226ccc67"}, {"lon": -77.0107135, "is_disabled": 0, "lat": 38.8747685, "fusion_lat": 0.0, "is_reserved": 0, "rental_uris": {"ios": "https://dc.lft.to/lastmile_qr_scan", "android": "https://dc.lft.to/lastmile_qr_scan"}, "fusion_lon": 0.0, "type": "electric_scooter", "bike_id": "cb0468cbc79851cbb2e0517079d7d213", "name": "cb0468cbc79851cbb2e0517079d7d213"}, {"lon": -77.030222, "is_disabled": 0, "lat": 38.931079, "fusion_lat": 0.0, "is_reserved": 0, "rental_uris": {"ios": "https://dc.lft.to/lastmile_qr_scan", "android": "https://dc.lft.to/lastmile_qr_scan"}, "fusion_lon": 0.0, "type": "electric_scooter", "bike_id": "661719b09668e4bd7f369b6c869c231b", "name": "661719b09668e4bd7f369b6c869c231b"}, {"lon": -77.0409975, "is_disabled": 0, "lat": 38.910465333333335, "fusion_lat": 0.0, "is_reserved": 0, "rental_uris": {"ios": "https://dc.lft.to/lastmile_qr_scan", "android": "https://dc.lft.to/lastmile_qr_scan"}, "fusion_lon": 0.0, "type": "electric_scooter", "bike_id": "0d172db861e324381d483a1250f5b904", "name": "0d172db861e324381d483a1250f5b904"}, {"lon": -77.06868983333334, "is_disabled": 0, "lat": 38.936374666666666, "fusion_lat": 0.0, "is_reserved": 0, "rental_uris": {"ios": "https://dc.lft.to/lastmile_qr_scan", "android": "https://dc.lft.to/lastmile_qr_scan"}, "fusion_lon": 0.0, "type": "electric_scooter", "bike_id": "f4af4b10e645ea8a0b61dee861b4f17c", "name": "f4af4b10e645ea8a0b61dee861b4f17c"}, {"lon": -77.04146783333333, "is_disabled": 0, "lat": 38.907014833333335, "fusion_lat": 0.0, "is_reserved": 0, "rental_uris": {"ios": "https://dc.lft.to/lastmile_qr_scan", "android": "https://dc.lft.to/lastmile_qr_scan"}, "fusion_lon": 0.0, "type": "electric_scooter", "bike_id": "8e1714c7e433a8cbb5d67a4e09f6a966", "name": "8e1714c7e433a8cbb5d67a4e09f6a966"}, {"lon": -77.02413016666667, "is_disabled": 0, "lat": 38.919121, "fusion_lat": 0.0, "is_reserved": 0, "rental_uris": {"ios": "https://dc.lft.to/lastmile_qr_scan", "android": "https://dc.lft.to/lastmile_qr_scan"}, "fusion_lon": 0.0, "type": "electric_scooter", "bike_id": "1a4ac2b6ede8115e45b2bc829eae8d68", "name": "1a4ac2b6ede8115e45b2bc829eae8d68"}, {"lon": -77.028421, "is_disabled": 0, "lat": 38.94262966666667, "fusion_lat": 0.0, "is_reserved": 0, "rental_uris": {"ios": "https://dc.lft.to/lastmile_qr_scan", "android": "https://dc.lft.to/lastmile_qr_scan"}, "fusion_lon": 0.0, "type": "electric_scooter", "bike_id": "08bbc463981bc887159d9960c2d0b9e9", "name": "08bbc463981bc887159d9960c2d0b9e9"}, {"lon": -77.01209033333333, "is_disabled": 0, "lat": 38.91979833333333, "fusion_lat": 0.0, "is_reserved": 0, "rental_uris": {"ios": "https://dc.lft.to/lastmile_qr_scan", "android": "https://dc.lft.to/lastmile_qr_scan"}, "fusion_lon": 0.0, "type": "electric_scooter", "bike_id": "f7f86f694b2a40d24e0faf038034e998", "name": "f7f86f694b2a40d24e0faf038034e998"}, {"lon": -77.06844933333333, "is_disabled": 0, "lat": 38.9173475, "fusion_lat": 0.0, "is_reserved": 0, "rental_uris": {"ios": "https://dc.lft.to/lastmile_qr_scan", "android": "https://dc.lft.to/lastmile_qr_scan"}, "fusion_lon": 0.0, "type": "electric_scooter", "bike_id": "719e44e6ddee3ac59f9fa89d09f2ac34", "name": "719e44e6ddee3ac59f9fa89d09f2ac34"}, {"lon": -77.0414235, "is_disabled": 0, "lat": 38.907097, "fusion_lat": 0.0, "is_reserved": 0, "rental_uris": {"ios": "https://dc.lft.to/lastmile_qr_scan", "android": "https://dc.lft.to/lastmile_qr_scan"}, "fusion_lon": 0.0, "type": "electric_scooter", "bike_id": "2b9b8f692d278e221b0a0fc37af6514e", "name": "2b9b8f692d278e221b0a0fc37af6514e"}, {"lon": -77.04419533333333, "is_disabled": 0, "lat": 38.908893, "fusion_lat": 0.0, "is_reserved": 0, "rental_uris": {"ios": "https://dc.lft.to/lastmile_qr_scan", "android": "https://dc.lft.to/lastmile_qr_scan"}, "fusion_lon": 0.0, "type": "electric_scooter", "bike_id": "e9fd95381d9019981953f7faa73b7f5e", "name": "e9fd95381d9019981953f7faa73b7f5e"}, {"lon": -77.02180216666666, "is_disabled": 0, "lat": 38.910322666666666, "fusion_lat": 0.0, "is_reserved": 0, "rental_uris": {"ios": "https://dc.lft.to/lastmile_qr_scan", "android": "https://dc.lft.to/lastmile_qr_scan"}, "fusion_lon": 0.0, "type": "electric_scooter", "bike_id": "3b07e40b30ba76b95eaae299ce31b996", "name": "3b07e40b30ba76b95eaae299ce31b996"}, {"lon": -77.044504, "is_disabled": 0, "lat": 38.915504166666665, "fusion_lat": 0.0, "is_reserved": 0, "rental_uris": {"ios": "https://dc.lft.to/lastmile_qr_scan", "android": "https://dc.lft.to/lastmile_qr_scan"}, "fusion_lon": 0.0, "type": "electric_scooter", "bike_id": "8061ae666d0534c68d5294897b75ce9f", "name": "8061ae666d0534c68d5294897b75ce9f"}, {"lon": -76.99011766666666, "is_disabled": 0, "lat": 38.86507316666667, "fusion_lat": 0.0, "is_reserved": 0, "rental_uris": {"ios": "https://dc.lft.to/lastmile_qr_scan", "android": "https://dc.lft.to/lastmile_qr_scan"}, "fusion_lon": 0.0, "type": "electric_scooter", "bike_id": "33d57acab368322fed2c844da5c0cb9f", "name": "33d57acab368322fed2c844da5c0cb9f"}, {"lon": -77.01766583333334, "is_disabled": 0, "lat": 38.883967, "fusion_lat": 0.0, "is_reserved": 0, "rental_uris": {"ios": "https://dc.lft.to/lastmile_qr_scan", "android": "https://dc.lft.to/lastmile_qr_scan"}, "fusion_lon": 0.0, "type": "electric_scooter", "bike_id": "b0ecc8a70967b25e0175365a7822516f", "name": "b0ecc8a70967b25e0175365a7822516f"}, {"lon": -77.0238675, "is_disabled": 0, "lat": 38.91981666666667, "fusion_lat": 0.0, "is_reserved": 0, "rental_uris": {"ios": "https://dc.lft.to/lastmile_qr_scan", "android": "https://dc.lft.to/lastmile_qr_scan"}, "fusion_lon": 0.0, "type": "electric_scooter", "bike_id": "4c4b23566fe06a376b31d853ae929842", "name": "4c4b23566fe06a376b31d853ae929842"}, {"lon": -77.02839916666667, "is_disabled": 0, "lat": 38.94263733333333, "fusion_lat": 0.0, "is_reserved": 0, "rental_uris": {"ios": "https://dc.lft.to/lastmile_qr_scan", "android": "https://dc.lft.to/lastmile_qr_scan"}, "fusion_lon": 0.0, "type": "electric_bike", "bike_id": "2de2f8d846d7d0db74b0f1e9e0fe5c74", "name": "2de2f8d846d7d0db74b0f1e9e0fe5c74"}, {"lon": -77.02783016666666, "is_disabled": 0, "lat": 38.92766916666667, "fusion_lat": 0.0, "is_reserved": 0, "rental_uris": {"ios": "https://dc.lft.to/lastmile_qr_scan", "android": "https://dc.lft.to/lastmile_qr_scan"}, "fusion_lon": 0.0, "type": "electric_scooter", "bike_id": "1a4f1cf1e0b1f329233542b6f14c87ad", "name": "1a4f1cf1e0b1f329233542b6f14c87ad"}, {"lon": -77.0503135, "is_disabled": 0, "lat": 38.9236595, "fusion_lat": 0.0, "is_reserved": 0, "rental_uris": {"ios": "https://dc.lft.to/lastmile_qr_scan", "android": "https://dc.lft.to/lastmile_qr_scan"}, "fusion_lon": 0.0, "type": "electric_scooter", "bike_id": "f4cfdca2f625593ebf6af6af0a615e1c", "name": "f4cfdca2f625593ebf6af6af0a615e1c"}, {"lon": -77.02716733333334, "is_disabled": 0, "lat": 38.927648166666664, "fusion_lat": 0.0, "is_reserved": 0, "rental_uris": {"ios": "https://dc.lft.to/lastmile_qr_scan", "android": "https://dc.lft.to/lastmile_qr_scan"}, "fusion_lon": 0.0, "type": "electric_scooter", "bike_id": "837eec0b167558d98c20b64b808e1e5c", "name": "837eec0b167558d98c20b64b808e1e5c"}, {"lon": -77.0217695, "is_disabled": 0, "lat": 38.9019385, "fusion_lat": 0.0, "is_reserved": 0, "rental_uris": {"ios": "https://dc.lft.to/lastmile_qr_scan", "android": "https://dc.lft.to/lastmile_qr_scan"}, "fusion_lon": 0.0, "type": "electric_scooter", "bike_id": "cdbf7bcd6d5aa29de89e0a7cf136a5e1", "name": "cdbf7bcd6d5aa29de89e0a7cf136a5e1"}, {"lon": -76.98143633333333, "is_disabled": 0, "lat": 38.90564633333334, "fusion_lat": 0.0, "is_reserved": 0, "rental_uris": {"ios": "https://dc.lft.to/lastmile_qr_scan", "android": "https://dc.lft.to/lastmile_qr_scan"}, "fusion_lon": 0.0, "type": "electric_scooter", "bike_id": "b5000dd582d539f71028270839ef94cc", "name": "b5000dd582d539f71028270839ef94cc"}, {"lon": -77.04208666666666, "is_disabled": 0, "lat": 38.92308216666667, "fusion_lat": 0.0, "is_reserved": 0, "rental_uris": {"ios": "https://dc.lft.to/lastmile_qr_scan", "android": "https://dc.lft.to/lastmile_qr_scan"}, "fusion_lon": 0.0, "type": "electric_scooter", "bike_id": "30bd6252119950a86ae2e9a274b52715", "name": "30bd6252119950a86ae2e9a274b52715"}, {"lon": -77.04070016666667, "is_disabled": 0, "lat": 38.9050805, "fusion_lat": 0.0, "is_reserved": 0, "rental_uris": {"ios": "https://dc.lft.to/lastmile_qr_scan", "android": "https://dc.lft.to/lastmile_qr_scan"}, "fusion_lon": 0.0, "type": "electric_scooter", "bike_id": "6ca8041e395d7ae16fe9540a7aeb7514", "name": "6ca8041e395d7ae16fe9540a7aeb7514"}, {"lon": -77.031813, "is_disabled": 0, "lat": 38.89248683333334, "fusion_lat": 0.0, "is_reserved": 0, "rental_uris": {"ios": "https://dc.lft.to/lastmile_qr_scan", "android": "https://dc.lft.to/lastmile_qr_scan"}, "fusion_lon": 0.0, "type": "electric_scooter", "bike_id": "0f4c73ed8f7f0bb5b72afc66f937db36", "name": "0f4c73ed8f7f0bb5b72afc66f937db36"}, {"lon": -76.98859483333334, "is_disabled": 0, "lat": 38.844364666666664, "fusion_lat": 0.0, "is_reserved": 0, "rental_uris": {"ios": "https://dc.lft.to/lastmile_qr_scan", "android": "https://dc.lft.to/lastmile_qr_scan"}, "fusion_lon": 0.0, "type": "electric_scooter", "bike_id": "7a331199d392add6ce905cf560782410", "name": "7a331199d392add6ce905cf560782410"}, {"lon": -77.026586, "is_disabled": 0, "lat": 38.916971333333336, "fusion_lat": 0.0, "is_reserved": 0, "rental_uris": {"ios": "https://dc.lft.to/lastmile_qr_scan", "android": "https://dc.lft.to/lastmile_qr_scan"}, "fusion_lon": 0.0, "type": "electric_scooter", "bike_id": "2af5b5d73da48dd796faf0114c1a382a", "name": "2af5b5d73da48dd796faf0114c1a382a"}, {"lon": -77.04191633333333, "is_disabled": 0, "lat": 38.926126833333335, "fusion_lat": 0.0, "is_reserved": 0, "rental_uris": {"ios": "https://dc.lft.to/lastmile_qr_scan", "android": "https://dc.lft.to/lastmile_qr_scan"}, "fusion_lon": 0.0, "type": "electric_scooter", "bike_id": "e8ea5353f0c9c9b992fabdd0606d2267", "name": "e8ea5353f0c9c9b992fabdd0606d2267"}, {"lon": -76.93977833333334, "is_disabled": 0, "lat": 38.89319833333333, "fusion_lat": 0.0, "is_reserved": 0, "rental_uris": {"ios": "https://dc.lft.to/lastmile_qr_scan", "android": "https://dc.lft.to/lastmile_qr_scan"}, "fusion_lon": 0.0, "type": "electric_scooter", "bike_id": "37d57b765c211b8c325debbd59126db6", "name": "37d57b765c211b8c325debbd59126db6"}, {"lon": -77.043696, "is_disabled": 0, "lat": 38.8922375, "fusion_lat": 0.0, "is_reserved": 0, "rental_uris": {"ios": "https://dc.lft.to/lastmile_qr_scan", "android": "https://dc.lft.to/lastmile_qr_scan"}, "fusion_lon": 0.0, "type": "electric_scooter", "bike_id": "9574f9fb5838637ef9844706cf5b39cf", "name": "9574f9fb5838637ef9844706cf5b39cf"}, {"lon": -77.02441366666666, "is_disabled": 0, "lat": 38.91836933333333, "fusion_lat": 0.0, "is_reserved": 0, "rental_uris": {"ios": "https://dc.lft.to/lastmile_qr_scan", "android": "https://dc.lft.to/lastmile_qr_scan"}, "fusion_lon": 0.0, "type": "electric_scooter", "bike_id": "35ec1710ff205044018050a59a71da58", "name": "35ec1710ff205044018050a59a71da58"}, {"lon": -77.039821, "is_disabled": 0, "lat": 38.903421333333334, "fusion_lat": 0.0, "is_reserved": 0, "rental_uris": {"ios": "https://dc.lft.to/lastmile_qr_scan", "android": "https://dc.lft.to/lastmile_qr_scan"}, "fusion_lon": 0.0, "type": "electric_scooter", "bike_id": "cd3642fce09101840275eacd20865592", "name": "cd3642fce09101840275eacd20865592"}, {"lon": -76.99492866666667, "is_disabled": 0, "lat": 38.86245916666667, "fusion_lat": 0.0, "is_reserved": 0, "rental_uris": {"ios": "https://dc.lft.to/lastmile_qr_scan", "android": "https://dc.lft.to/lastmile_qr_scan"}, "fusion_lon": 0.0, "type": "electric_scooter", "bike_id": "d192ee19e97fcc46539b62161168b217", "name": "d192ee19e97fcc46539b62161168b217"}, {"lon": -77.01672233333333, "is_disabled": 0, "lat": 38.881027333333336, "fusion_lat": 0.0, "is_reserved": 0, "rental_uris": {"ios": "https://dc.lft.to/lastmile_qr_scan", "android": "https://dc.lft.to/lastmile_qr_scan"}, "fusion_lon": 0.0, "type": "electric_scooter", "bike_id": "f53b1cbeb8b8292568cedcb26db9f955", "name": "f53b1cbeb8b8292568cedcb26db9f955"}, {"lon": -77.0450395, "is_disabled": 0, "lat": 38.908483833333335, "fusion_lat": 0.0, "is_reserved": 0, "rental_uris": {"ios": "https://dc.lft.to/lastmile_qr_scan", "android": "https://dc.lft.to/lastmile_qr_scan"}, "fusion_lon": 0.0, "type": "electric_scooter", "bike_id": "98e83d1535361687c3d391193e368757", "name": "98e83d1535361687c3d391193e368757"}, {"lon": -77.03042383333333, "is_disabled": 0, "lat": 38.916217333333336, "fusion_lat": 0.0, "is_reserved": 0, "rental_uris": {"ios": "https://dc.lft.to/lastmile_qr_scan", "android": "https://dc.lft.to/lastmile_qr_scan"}, "fusion_lon": 0.0, "type": "electric_scooter", "bike_id": "f44dbdda6fe7ba29c155384a276d7b01", "name": "f44dbdda6fe7ba29c155384a276d7b01"}, {"lon": -77.05435166666666, "is_disabled": 0, "lat": 38.928538, "fusion_lat": 0.0, "is_reserved": 0, "rental_uris": {"ios": "https://dc.lft.to/lastmile_qr_scan", "android": "https://dc.lft.to/lastmile_qr_scan"}, "fusion_lon": 0.0, "type": "electric_scooter", "bike_id": "2cbca2044e1e1200a01ce7f50173a183", "name": "2cbca2044e1e1200a01ce7f50173a183"}, {"lon": -77.0318155, "is_disabled": 0, "lat": 38.917468, "fusion_lat": 0.0, "is_reserved": 0, "rental_uris": {"ios": "https://dc.lft.to/lastmile_qr_scan", "android": "https://dc.lft.to/lastmile_qr_scan"}, "fusion_lon": 0.0, "type": "electric_scooter", "bike_id": "d919002131509680185a43bbf15a4e8b", "name": "d919002131509680185a43bbf15a4e8b"}, {"lon": -77.03399966666667, "is_disabled": 0, "lat": 38.92197016666667, "fusion_lat": 0.0, "is_reserved": 0, "rental_uris": {"ios": "https://dc.lft.to/lastmile_qr_scan", "android": "https://dc.lft.to/lastmile_qr_scan"}, "fusion_lon": 0.0, "type": "electric_scooter", "bike_id": "12b3204d53897db2314f9a5dc07bae2a", "name": "12b3204d53897db2314f9a5dc07bae2a"}, {"lon": -77.046611, "is_disabled": 0, "lat": 38.90548233333333, "fusion_lat": 0.0, "is_reserved": 0, "rental_uris": {"ios": "https://dc.lft.to/lastmile_qr_scan", "android": "https://dc.lft.to/lastmile_qr_scan"}, "fusion_lon": 0.0, "type": "electric_scooter", "bike_id": "5f2e820774d96b5ca3173fd787403407", "name": "5f2e820774d96b5ca3173fd787403407"}, {"lon": -77.046792, "is_disabled": 0, "lat": 38.90301983333333, "fusion_lat": 0.0, "is_reserved": 0, "rental_uris": {"ios": "https://dc.lft.to/lastmile_qr_scan", "android": "https://dc.lft.to/lastmile_qr_scan"}, "fusion_lon": 0.0, "type": "electric_scooter", "bike_id": "415af97fe2d62d7c68e12ae1d40fa4c3", "name": "415af97fe2d62d7c68e12ae1d40fa4c3"}, {"lon": -77.02715766666667, "is_disabled": 0, "lat": 38.92765416666667, "fusion_lat": 0.0, "is_reserved": 0, "rental_uris": {"ios": "https://dc.lft.to/lastmile_qr_scan", "android": "https://dc.lft.to/lastmile_qr_scan"}, "fusion_lon": 0.0, "type": "electric_scooter", "bike_id": "50a361ad07847ffd34c9a3a9aca099cd", "name": "50a361ad07847ffd34c9a3a9aca099cd"}, {"lon": -77.01633866666667, "is_disabled": 0, "lat": 38.906405, "fusion_lat": 0.0, "is_reserved": 0, "rental_uris": {"ios": "https://dc.lft.to/lastmile_qr_scan", "android": "https://dc.lft.to/lastmile_qr_scan"}, "fusion_lon": 0.0, "type": "electric_scooter", "bike_id": "84df88554bc886d324ee6f3ecc7961c2", "name": "84df88554bc886d324ee6f3ecc7961c2"}, {"lon": -77.022016, "is_disabled": 0, "lat": 38.91265833333333, "fusion_lat": 0.0, "is_reserved": 0, "rental_uris": {"ios": "https://dc.lft.to/lastmile_qr_scan", "android": "https://dc.lft.to/lastmile_qr_scan"}, "fusion_lon": 0.0, "type": "electric_scooter", "bike_id": "cf5da32c1cee25a9e9eb6174be147e77", "name": "cf5da32c1cee25a9e9eb6174be147e77"}, {"lon": -77.02262366666666, "is_disabled": 0, "lat": 38.92732383333333, "fusion_lat": 0.0, "is_reserved": 0, "rental_uris": {"ios": "https://dc.lft.to/lastmile_qr_scan", "android": "https://dc.lft.to/lastmile_qr_scan"}, "fusion_lon": 0.0, "type": "electric_scooter", "bike_id": "2d3e88e799ead168a1172ca942b8873b", "name": "2d3e88e799ead168a1172ca942b8873b"}, {"lon": -77.00063983333334, "is_disabled": 0, "lat": 38.87359983333333, "fusion_lat": 0.0, "is_reserved": 0, "rental_uris": {"ios": "https://dc.lft.to/lastmile_qr_scan", "android": "https://dc.lft.to/lastmile_qr_scan"}, "fusion_lon": 0.0, "type": "electric_scooter", "bike_id": "24ef779c7d19726aea38ce5052532d0c", "name": "24ef779c7d19726aea38ce5052532d0c"}, {"lon": -77.04662916666666, "is_disabled": 0, "lat": 38.898827833333335, "fusion_lat": 0.0, "is_reserved": 0, "rental_uris": {"ios": "https://dc.lft.to/lastmile_qr_scan", "android": "https://dc.lft.to/lastmile_qr_scan"}, "fusion_lon": 0.0, "type": "electric_scooter", "bike_id": "3c41e5b7ea6bd5d4231614b2246e5ccd", "name": "3c41e5b7ea6bd5d4231614b2246e5ccd"}, {"lon": -77.02848983333334, "is_disabled": 0, "lat": 38.926774333333334, "fusion_lat": 0.0, "is_reserved": 0, "rental_uris": {"ios": "https://dc.lft.to/lastmile_qr_scan", "android": "https://dc.lft.to/lastmile_qr_scan"}, "fusion_lon": 0.0, "type": "electric_scooter", "bike_id": "5b12cd7251478fe37a989017ea1c1851", "name": "5b12cd7251478fe37a989017ea1c1851"}, {"lon": -77.036256, "is_disabled": 0, "lat": 38.91482416666667, "fusion_lat": 0.0, "is_reserved": 0, "rental_uris": {"ios": "https://dc.lft.to/lastmile_qr_scan", "android": "https://dc.lft.to/lastmile_qr_scan"}, "fusion_lon": 0.0, "type": "electric_scooter", "bike_id": "b0fab76d905998212af43d8e12786f1f", "name": "b0fab76d905998212af43d8e12786f1f"}, {"lon": -77.036597, "is_disabled": 0, "lat": 38.941957, "fusion_lat": 0.0, "is_reserved": 0, "rental_uris": {"ios": "https://dc.lft.to/lastmile_qr_scan", "android": "https://dc.lft.to/lastmile_qr_scan"}, "fusion_lon": 0.0, "type": "electric_scooter", "bike_id": "72a3551c662a8d0922231d4cfb92f68f", "name": "72a3551c662a8d0922231d4cfb92f68f"}, {"lon": -77.000637, "is_disabled": 0, "lat": 38.838902, "fusion_lat": 0.0, "is_reserved": 0, "rental_uris": {"ios": "https://dc.lft.to/lastmile_qr_scan", "android": "https://dc.lft.to/lastmile_qr_scan"}, "fusion_lon": 0.0, "type": "electric_scooter", "bike_id": "bcbca22eda2ad555818a62178aba6d11", "name": "bcbca22eda2ad555818a62178aba6d11"}, {"lon": -77.0333715, "is_disabled": 0, "lat": 38.898266166666666, "fusion_lat": 0.0, "is_reserved": 0, "rental_uris": {"ios": "https://dc.lft.to/lastmile_qr_scan", "android": "https://dc.lft.to/lastmile_qr_scan"}, "fusion_lon": 0.0, "type": "electric_scooter", "bike_id": "990b2bce476f38d0ae17e68cd951bd4d", "name": "990b2bce476f38d0ae17e68cd951bd4d"}, {"lon": -77.0326155, "is_disabled": 0, "lat": 38.93581316666667, "fusion_lat": 0.0, "is_reserved": 0, "rental_uris": {"ios": "https://dc.lft.to/lastmile_qr_scan", "android": "https://dc.lft.to/lastmile_qr_scan"}, "fusion_lon": 0.0, "type": "electric_scooter", "bike_id": "6b5ce71ca3474013d856d5b3b0ac69e3", "name": "6b5ce71ca3474013d856d5b3b0ac69e3"}, {"lon": -76.95541133333333, "is_disabled": 0, "lat": 38.9480045, "fusion_lat": 0.0, "is_reserved": 0, "rental_uris": {"ios": "https://dc.lft.to/lastmile_qr_scan", "android": "https://dc.lft.to/lastmile_qr_scan"}, "fusion_lon": 0.0, "type": "electric_bike", "bike_id": "e981824fd03e207b3d8577fd62063162", "name": "e981824fd03e207b3d8577fd62063162"}, {"lon": -77.00196266666667, "is_disabled": 0, "lat": 38.90256816666667, "fusion_lat": 0.0, "is_reserved": 0, "rental_uris": {"ios": "https://dc.lft.to/lastmile_qr_scan", "android": "https://dc.lft.to/lastmile_qr_scan"}, "fusion_lon": 0.0, "type": "electric_scooter", "bike_id": "2a3ef6e3b1779e372c45eec0b5db1bf0", "name": "2a3ef6e3b1779e372c45eec0b5db1bf0"}, {"lon": -77.01245583333333, "is_disabled": 0, "lat": 38.915707166666664, "fusion_lat": 0.0, "is_reserved": 0, "rental_uris": {"ios": "https://dc.lft.to/lastmile_qr_scan", "android": "https://dc.lft.to/lastmile_qr_scan"}, "fusion_lon": 0.0, "type": "electric_scooter", "bike_id": "377a397294aca69ef28f4b4a0eac46ec", "name": "377a397294aca69ef28f4b4a0eac46ec"}, {"lon": -77.06948366666667, "is_disabled": 0, "lat": 38.995304833333336, "fusion_lat": 0.0, "is_reserved": 0, "rental_uris": {"ios": "https://dc.lft.to/lastmile_qr_scan", "android": "https://dc.lft.to/lastmile_qr_scan"}, "fusion_lon": 0.0, "type": "electric_bike", "bike_id": "b236113f821ad0f08fef43aeed4479a9", "name": "b236113f821ad0f08fef43aeed4479a9"}, {"lon": -76.9945095, "is_disabled": 0, "lat": 38.90017483333333, "fusion_lat": 0.0, "is_reserved": 0, "rental_uris": {"ios": "https://dc.lft.to/lastmile_qr_scan", "android": "https://dc.lft.to/lastmile_qr_scan"}, "fusion_lon": 0.0, "type": "electric_scooter", "bike_id": "c2ee6a33cba563a97a2dc9553502ac30", "name": "c2ee6a33cba563a97a2dc9553502ac30"}, {"lon": -77.02477983333333, "is_disabled": 0, "lat": 38.938749666666666, "fusion_lat": 0.0, "is_reserved": 0, "rental_uris": {"ios": "https://dc.lft.to/lastmile_qr_scan", "android": "https://dc.lft.to/lastmile_qr_scan"}, "fusion_lon": 0.0, "type": "electric_scooter", "bike_id": "ce268b6fd5d6db759b6ebb32d638da0c", "name": "ce268b6fd5d6db759b6ebb32d638da0c"}, {"lon": -76.98713216666667, "is_disabled": 0, "lat": 38.86343883333333, "fusion_lat": 0.0, "is_reserved": 0, "rental_uris": {"ios": "https://dc.lft.to/lastmile_qr_scan", "android": "https://dc.lft.to/lastmile_qr_scan"}, "fusion_lon": 0.0, "type": "electric_scooter", "bike_id": "e63d83fd4508d46aea750327be7869d4", "name": "e63d83fd4508d46aea750327be7869d4"}, {"lon": -77.028446, "is_disabled": 0, "lat": 38.93584883333333, "fusion_lat": 0.0, "is_reserved": 0, "rental_uris": {"ios": "https://dc.lft.to/lastmile_qr_scan", "android": "https://dc.lft.to/lastmile_qr_scan"}, "fusion_lon": 0.0, "type": "electric_scooter", "bike_id": "1a28143e64aa7aedefff4c191940b9e3", "name": "1a28143e64aa7aedefff4c191940b9e3"}, {"lon": -77.03331333333334, "is_disabled": 0, "lat": 38.92145983333333, "fusion_lat": 0.0, "is_reserved": 0, "rental_uris": {"ios": "https://dc.lft.to/lastmile_qr_scan", "android": "https://dc.lft.to/lastmile_qr_scan"}, "fusion_lon": 0.0, "type": "electric_scooter", "bike_id": "5253ac0eae49434bd8966cddc4121297", "name": "5253ac0eae49434bd8966cddc4121297"}, {"lon": -76.99481816666666, "is_disabled": 0, "lat": 38.86217633333333, "fusion_lat": 0.0, "is_reserved": 0, "rental_uris": {"ios": "https://dc.lft.to/lastmile_qr_scan", "android": "https://dc.lft.to/lastmile_qr_scan"}, "fusion_lon": 0.0, "type": "electric_scooter", "bike_id": "ca722c70be959c91dc75a74a00d01352", "name": "ca722c70be959c91dc75a74a00d01352"}, {"lon": -77.02164116666667, "is_disabled": 0, "lat": 38.92610783333333, "fusion_lat": 0.0, "is_reserved": 0, "rental_uris": {"ios": "https://dc.lft.to/lastmile_qr_scan", "android": "https://dc.lft.to/lastmile_qr_scan"}, "fusion_lon": 0.0, "type": "electric_scooter", "bike_id": "8d18d48b23d658b5dc263f1626cab7cd", "name": "8d18d48b23d658b5dc263f1626cab7cd"}, {"lon": -77.021976, "is_disabled": 0, "lat": 38.909862333333336, "fusion_lat": 0.0, "is_reserved": 0, "rental_uris": {"ios": "https://dc.lft.to/lastmile_qr_scan", "android": "https://dc.lft.to/lastmile_qr_scan"}, "fusion_lon": 0.0, "type": "electric_scooter", "bike_id": "3400e6275f7ae3571135bc5926883f07", "name": "3400e6275f7ae3571135bc5926883f07"}, {"lon": -77.0604745, "is_disabled": 0, "lat": 38.93912183333333, "fusion_lat": 0.0, "is_reserved": 0, "rental_uris": {"ios": "https://dc.lft.to/lastmile_qr_scan", "android": "https://dc.lft.to/lastmile_qr_scan"}, "fusion_lon": 0.0, "type": "electric_scooter", "bike_id": "40a8263de9f65d2625bb7048cfb27487", "name": "40a8263de9f65d2625bb7048cfb27487"}, {"lon": -77.04033766666667, "is_disabled": 0, "lat": 38.90360583333333, "fusion_lat": 0.0, "is_reserved": 0, "rental_uris": {"ios": "https://dc.lft.to/lastmile_qr_scan", "android": "https://dc.lft.to/lastmile_qr_scan"}, "fusion_lon": 0.0, "type": "electric_scooter", "bike_id": "b19b178e9c69c051c5f6cffddc31e795", "name": "b19b178e9c69c051c5f6cffddc31e795"}, {"lon": -77.00323533333334, "is_disabled": 0, "lat": 38.8773325, "fusion_lat": 0.0, "is_reserved": 0, "rental_uris": {"ios": "https://dc.lft.to/lastmile_qr_scan", "android": "https://dc.lft.to/lastmile_qr_scan"}, "fusion_lon": 0.0, "type": "electric_scooter", "bike_id": "238396e6ae655d2e1e65a1479232b8d4", "name": "238396e6ae655d2e1e65a1479232b8d4"}, {"lon": -77.04817433333334, "is_disabled": 0, "lat": 38.909571, "fusion_lat": 0.0, "is_reserved": 0, "rental_uris": {"ios": "https://dc.lft.to/lastmile_qr_scan", "android": "https://dc.lft.to/lastmile_qr_scan"}, "fusion_lon": 0.0, "type": "electric_scooter", "bike_id": "f28214204d19ae2232d3f4d1cf7ae3fa", "name": "f28214204d19ae2232d3f4d1cf7ae3fa"}, {"lon": -76.9900405, "is_disabled": 0, "lat": 38.8650735, "fusion_lat": 0.0, "is_reserved": 0, "rental_uris": {"ios": "https://dc.lft.to/lastmile_qr_scan", "android": "https://dc.lft.to/lastmile_qr_scan"}, "fusion_lon": 0.0, "type": "electric_scooter", "bike_id": "ce3f1e23f187bf4f65bab1fe4e4ef99e", "name": "ce3f1e23f187bf4f65bab1fe4e4ef99e"}, {"lon": -77.02083466666667, "is_disabled": 0, "lat": 38.921499833333336, "fusion_lat": 0.0, "is_reserved": 0, "rental_uris": {"ios": "https://dc.lft.to/lastmile_qr_scan", "android": "https://dc.lft.to/lastmile_qr_scan"}, "fusion_lon": 0.0, "type": "electric_scooter", "bike_id": "ea23aef1032ab53a593897f7c133251f", "name": "ea23aef1032ab53a593897f7c133251f"}, {"lon": -77.02982816666666, "is_disabled": 0, "lat": 38.92185833333333, "fusion_lat": 0.0, "is_reserved": 0, "rental_uris": {"ios": "https://dc.lft.to/lastmile_qr_scan", "android": "https://dc.lft.to/lastmile_qr_scan"}, "fusion_lon": 0.0, "type": "electric_scooter", "bike_id": "7a89e3d77617f949f1ed20facfd91550", "name": "7a89e3d77617f949f1ed20facfd91550"}, {"lon": -77.05256433333334, "is_disabled": 0, "lat": 38.927754666666665, "fusion_lat": 0.0, "is_reserved": 0, "rental_uris": {"ios": "https://dc.lft.to/lastmile_qr_scan", "android": "https://dc.lft.to/lastmile_qr_scan"}, "fusion_lon": 0.0, "type": "electric_scooter", "bike_id": "c7358493cdc46b7dff05181fd119eb6c", "name": "c7358493cdc46b7dff05181fd119eb6c"}, {"lon": -77.00347033333334, "is_disabled": 0, "lat": 38.884396833333334, "fusion_lat": 0.0, "is_reserved": 0, "rental_uris": {"ios": "https://dc.lft.to/lastmile_qr_scan", "android": "https://dc.lft.to/lastmile_qr_scan"}, "fusion_lon": 0.0, "type": "electric_scooter", "bike_id": "0eed8a9b987eaa2ea842655c74ab9a4d", "name": "0eed8a9b987eaa2ea842655c74ab9a4d"}, {"lon": -77.016642, "is_disabled": 0, "lat": 38.9071755, "fusion_lat": 0.0, "is_reserved": 0, "rental_uris": {"ios": "https://dc.lft.to/lastmile_qr_scan", "android": "https://dc.lft.to/lastmile_qr_scan"}, "fusion_lon": 0.0, "type": "electric_scooter", "bike_id": "a0c0df971ccc31301d8f5b374be2fcaa", "name": "a0c0df971ccc31301d8f5b374be2fcaa"}, {"lon": -77.0325085, "is_disabled": 0, "lat": 38.928793166666665, "fusion_lat": 0.0, "is_reserved": 0, "rental_uris": {"ios": "https://dc.lft.to/lastmile_qr_scan", "android": "https://dc.lft.to/lastmile_qr_scan"}, "fusion_lon": 0.0, "type": "electric_scooter", "bike_id": "e0115a2ec16ccaae32d7ca91fa297083", "name": "e0115a2ec16ccaae32d7ca91fa297083"}, {"lon": -77.016789, "is_disabled": 0, "lat": 38.91261266666667, "fusion_lat": 0.0, "is_reserved": 0, "rental_uris": {"ios": "https://dc.lft.to/lastmile_qr_scan", "android": "https://dc.lft.to/lastmile_qr_scan"}, "fusion_lon": 0.0, "type": "electric_scooter", "bike_id": "11e0c55dcf36f96351d786c649509e18", "name": "11e0c55dcf36f96351d786c649509e18"}, {"lon": -76.99263283333333, "is_disabled": 0, "lat": 38.862472333333336, "fusion_lat": 0.0, "is_reserved": 0, "rental_uris": {"ios": "https://dc.lft.to/lastmile_qr_scan", "android": "https://dc.lft.to/lastmile_qr_scan"}, "fusion_lon": 0.0, "type": "electric_scooter", "bike_id": "01aa8300918c58fb6961d433e912b3bd", "name": "01aa8300918c58fb6961d433e912b3bd"}, {"lon": -77.02577083333334, "is_disabled": 0, "lat": 38.91813616666666, "fusion_lat": 0.0, "is_reserved": 0, "rental_uris": {"ios": "https://dc.lft.to/lastmile_qr_scan", "android": "https://dc.lft.to/lastmile_qr_scan"}, "fusion_lon": 0.0, "type": "electric_scooter", "bike_id": "8abbc519b26411045d5260e0da885dec", "name": "8abbc519b26411045d5260e0da885dec"}, {"lon": -77.0295505, "is_disabled": 0, "lat": 38.91684583333333, "fusion_lat": 0.0, "is_reserved": 0, "rental_uris": {"ios": "https://dc.lft.to/lastmile_qr_scan", "android": "https://dc.lft.to/lastmile_qr_scan"}, "fusion_lon": 0.0, "type": "electric_scooter", "bike_id": "382e8689fa341709cf977eae56c0dca0", "name": "382e8689fa341709cf977eae56c0dca0"}, {"lon": -77.03864066666667, "is_disabled": 0, "lat": 38.91697383333333, "fusion_lat": 0.0, "is_reserved": 0, "rental_uris": {"ios": "https://dc.lft.to/lastmile_qr_scan", "android": "https://dc.lft.to/lastmile_qr_scan"}, "fusion_lon": 0.0, "type": "electric_scooter", "bike_id": "9767e043049630f66ecb253dbb9fca71", "name": "9767e043049630f66ecb253dbb9fca71"}, {"lon": -77.01741583333333, "is_disabled": 0, "lat": 38.90217366666667, "fusion_lat": 0.0, "is_reserved": 0, "rental_uris": {"ios": "https://dc.lft.to/lastmile_qr_scan", "android": "https://dc.lft.to/lastmile_qr_scan"}, "fusion_lon": 0.0, "type": "electric_scooter", "bike_id": "8efde18379a2c34b58d61ffc71fa7c26", "name": "8efde18379a2c34b58d61ffc71fa7c26"}, {"lon": -77.04902333333334, "is_disabled": 0, "lat": 38.900478, "fusion_lat": 0.0, "is_reserved": 0, "rental_uris": {"ios": "https://dc.lft.to/lastmile_qr_scan", "android": "https://dc.lft.to/lastmile_qr_scan"}, "fusion_lon": 0.0, "type": "electric_scooter", "bike_id": "a3e3331e2c070ad7c762d4a5ce42f04c", "name": "a3e3331e2c070ad7c762d4a5ce42f04c"}, {"lon": -77.04014516666666, "is_disabled": 0, "lat": 38.903507, "fusion_lat": 0.0, "is_reserved": 0, "rental_uris": {"ios": "https://dc.lft.to/lastmile_qr_scan", "android": "https://dc.lft.to/lastmile_qr_scan"}, "fusion_lon": 0.0, "type": "electric_scooter", "bike_id": "fd22808ea3249390d2f4e6b7f4b8e71e", "name": "fd22808ea3249390d2f4e6b7f4b8e71e"}, {"lon": -77.01757283333333, "is_disabled": 0, "lat": 38.917152333333334, "fusion_lat": 0.0, "is_reserved": 0, "rental_uris": {"ios": "https://dc.lft.to/lastmile_qr_scan", "android": "https://dc.lft.to/lastmile_qr_scan"}, "fusion_lon": 0.0, "type": "electric_scooter", "bike_id": "7a0e49c27ae32ad37f209233183288c0", "name": "7a0e49c27ae32ad37f209233183288c0"}, {"lon": -77.00401266666667, "is_disabled": 0, "lat": 38.921307, "fusion_lat": 0.0, "is_reserved": 0, "rental_uris": {"ios": "https://dc.lft.to/lastmile_qr_scan", "android": "https://dc.lft.to/lastmile_qr_scan"}, "fusion_lon": 0.0, "type": "electric_scooter", "bike_id": "943628bfb4a0b53e44e9f28650473500", "name": "943628bfb4a0b53e44e9f28650473500"}, {"lon": -76.9814375, "is_disabled": 0, "lat": 38.897469666666666, "fusion_lat": 0.0, "is_reserved": 0, "rental_uris": {"ios": "https://dc.lft.to/lastmile_qr_scan", "android": "https://dc.lft.to/lastmile_qr_scan"}, "fusion_lon": 0.0, "type": "electric_scooter", "bike_id": "77dbb994e244c80b78c8b35b1d80d90b", "name": "77dbb994e244c80b78c8b35b1d80d90b"}, {"lon": -77.08862033333334, "is_disabled": 0, "lat": 38.9164015, "fusion_lat": 0.0, "is_reserved": 0, "rental_uris": {"ios": "https://dc.lft.to/lastmile_qr_scan", "android": "https://dc.lft.to/lastmile_qr_scan"}, "fusion_lon": 0.0, "type": "electric_scooter", "bike_id": "db86aa339613ef2fc319454c3a53b1a0", "name": "db86aa339613ef2fc319454c3a53b1a0"}, {"lon": -77.04457733333334, "is_disabled": 0, "lat": 38.915437, "fusion_lat": 0.0, "is_reserved": 0, "rental_uris": {"ios": "https://dc.lft.to/lastmile_qr_scan", "android": "https://dc.lft.to/lastmile_qr_scan"}, "fusion_lon": 0.0, "type": "electric_scooter", "bike_id": "5182eb953708b9186473d4c7fd5ffbeb", "name": "5182eb953708b9186473d4c7fd5ffbeb"}, {"lon": -76.95953433333334, "is_disabled": 0, "lat": 38.86189366666667, "fusion_lat": 0.0, "is_reserved": 0, "rental_uris": {"ios": "https://dc.lft.to/lastmile_qr_scan", "android": "https://dc.lft.to/lastmile_qr_scan"}, "fusion_lon": 0.0, "type": "electric_scooter", "bike_id": "f0d9469278f63bbc7d06a422c38f6229", "name": "f0d9469278f63bbc7d06a422c38f6229"}, {"lon": -77.02208183333333, "is_disabled": 0, "lat": 38.89616766666666, "fusion_lat": 0.0, "is_reserved": 0, "rental_uris": {"ios": "https://dc.lft.to/lastmile_qr_scan", "android": "https://dc.lft.to/lastmile_qr_scan"}, "fusion_lon": 0.0, "type": "electric_scooter", "bike_id": "47e993636c8cd591ce7759866ded01a3", "name": "47e993636c8cd591ce7759866ded01a3"}, {"lon": -77.03291466666667, "is_disabled": 0, "lat": 38.928335833333335, "fusion_lat": 0.0, "is_reserved": 0, "rental_uris": {"ios": "https://dc.lft.to/lastmile_qr_scan", "android": "https://dc.lft.to/lastmile_qr_scan"}, "fusion_lon": 0.0, "type": "electric_scooter", "bike_id": "6dbd95dc4f82721603f4e197c9e4e73b", "name": "6dbd95dc4f82721603f4e197c9e4e73b"}, {"lon": -77.0216365, "is_disabled": 0, "lat": 38.924601, "fusion_lat": 0.0, "is_reserved": 0, "rental_uris": {"ios": "https://dc.lft.to/lastmile_qr_scan", "android": "https://dc.lft.to/lastmile_qr_scan"}, "fusion_lon": 0.0, "type": "electric_scooter", "bike_id": "42b75166322641b18307dd04acc1c6fb", "name": "42b75166322641b18307dd04acc1c6fb"}, {"lon": -77.0339395, "is_disabled": 0, "lat": 38.923444, "fusion_lat": 0.0, "is_reserved": 0, "rental_uris": {"ios": "https://dc.lft.to/lastmile_qr_scan", "android": "https://dc.lft.to/lastmile_qr_scan"}, "fusion_lon": 0.0, "type": "electric_scooter", "bike_id": "94f6b1ff42c5bd5a3789e98c952aa63c", "name": "94f6b1ff42c5bd5a3789e98c952aa63c"}, {"lon": -77.01905033333334, "is_disabled": 0, "lat": 38.9172445, "fusion_lat": 0.0, "is_reserved": 0, "rental_uris": {"ios": "https://dc.lft.to/lastmile_qr_scan", "android": "https://dc.lft.to/lastmile_qr_scan"}, "fusion_lon": 0.0, "type": "electric_scooter", "bike_id": "9b1a2ecc765f0fb20929b9c6d2d4dbe7", "name": "9b1a2ecc765f0fb20929b9c6d2d4dbe7"}, {"lon": -77.01676966666666, "is_disabled": 0, "lat": 38.900091333333336, "fusion_lat": 0.0, "is_reserved": 0, "rental_uris": {"ios": "https://dc.lft.to/lastmile_qr_scan", "android": "https://dc.lft.to/lastmile_qr_scan"}, "fusion_lon": 0.0, "type": "electric_scooter", "bike_id": "c528064082c1a18ef9c103220793dfda", "name": "c528064082c1a18ef9c103220793dfda"}, {"lon": -77.03579166666667, "is_disabled": 0, "lat": 38.903665833333335, "fusion_lat": 0.0, "is_reserved": 0, "rental_uris": {"ios": "https://dc.lft.to/lastmile_qr_scan", "android": "https://dc.lft.to/lastmile_qr_scan"}, "fusion_lon": 0.0, "type": "electric_scooter", "bike_id": "7921034e0b494ec5499f77cd1cecc3e9", "name": "7921034e0b494ec5499f77cd1cecc3e9"}, {"lon": -77.02825983333334, "is_disabled": 0, "lat": 38.8999595, "fusion_lat": 0.0, "is_reserved": 0, "rental_uris": {"ios": "https://dc.lft.to/lastmile_qr_scan", "android": "https://dc.lft.to/lastmile_qr_scan"}, "fusion_lon": 0.0, "type": "electric_scooter", "bike_id": "ab4851ee7857efa5eb092c49c3e174ae", "name": "ab4851ee7857efa5eb092c49c3e174ae"}, {"lon": -77.0415815, "is_disabled": 0, "lat": 38.916045833333335, "fusion_lat": 0.0, "is_reserved": 0, "rental_uris": {"ios": "https://dc.lft.to/lastmile_qr_scan", "android": "https://dc.lft.to/lastmile_qr_scan"}, "fusion_lon": 0.0, "type": "electric_scooter", "bike_id": "dac2cde0414dc0d3f86323fc21ddb871", "name": "dac2cde0414dc0d3f86323fc21ddb871"}, {"lon": -77.02156016666666, "is_disabled": 0, "lat": 38.926021166666665, "fusion_lat": 0.0, "is_reserved": 0, "rental_uris": {"ios": "https://dc.lft.to/lastmile_qr_scan", "android": "https://dc.lft.to/lastmile_qr_scan"}, "fusion_lon": 0.0, "type": "electric_scooter", "bike_id": "43e334ed5e05e6db8b3ab8330ac51475", "name": "43e334ed5e05e6db8b3ab8330ac51475"}, {"lon": -77.01215216666667, "is_disabled": 0, "lat": 38.874759166666664, "fusion_lat": 0.0, "is_reserved": 0, "rental_uris": {"ios": "https://dc.lft.to/lastmile_qr_scan", "android": "https://dc.lft.to/lastmile_qr_scan"}, "fusion_lon": 0.0, "type": "electric_scooter", "bike_id": "7bfd92491b89d5e8a4d3ba7b05641435", "name": "7bfd92491b89d5e8a4d3ba7b05641435"}, {"lon": -77.02192166666667, "is_disabled": 0, "lat": 38.91121316666667, "fusion_lat": 0.0, "is_reserved": 0, "rental_uris": {"ios": "https://dc.lft.to/lastmile_qr_scan", "android": "https://dc.lft.to/lastmile_qr_scan"}, "fusion_lon": 0.0, "type": "electric_scooter", "bike_id": "3d3236df39326328ff43f1bbebc248d8", "name": "3d3236df39326328ff43f1bbebc248d8"}, {"lon": -77.03639233333334, "is_disabled": 0, "lat": 38.924107666666664, "fusion_lat": 0.0, "is_reserved": 0, "rental_uris": {"ios": "https://dc.lft.to/lastmile_qr_scan", "android": "https://dc.lft.to/lastmile_qr_scan"}, "fusion_lon": 0.0, "type": "electric_scooter", "bike_id": "152daf3d76bb2c6378b51414d977583b", "name": "152daf3d76bb2c6378b51414d977583b"}, {"lon": -77.042727, "is_disabled": 0, "lat": 38.92545716666667, "fusion_lat": 0.0, "is_reserved": 0, "rental_uris": {"ios": "https://dc.lft.to/lastmile_qr_scan", "android": "https://dc.lft.to/lastmile_qr_scan"}, "fusion_lon": 0.0, "type": "electric_scooter", "bike_id": "5864d8e4ba934bb818e53e40c7cab6e0", "name": "5864d8e4ba934bb818e53e40c7cab6e0"}, {"lon": -77.03864683333333, "is_disabled": 0, "lat": 38.90807983333333, "fusion_lat": 0.0, "is_reserved": 0, "rental_uris": {"ios": "https://dc.lft.to/lastmile_qr_scan", "android": "https://dc.lft.to/lastmile_qr_scan"}, "fusion_lon": 0.0, "type": "electric_scooter", "bike_id": "3ef370e7d201f6dcb166bc72324afd3a", "name": "3ef370e7d201f6dcb166bc72324afd3a"}, {"lon": -77.03734083333333, "is_disabled": 0, "lat": 38.926646, "fusion_lat": 0.0, "is_reserved": 0, "rental_uris": {"ios": "https://dc.lft.to/lastmile_qr_scan", "android": "https://dc.lft.to/lastmile_qr_scan"}, "fusion_lon": 0.0, "type": "electric_scooter", "bike_id": "ea33e9e08159ee8b10dde067cfff20cb", "name": "ea33e9e08159ee8b10dde067cfff20cb"}, {"lon": -76.99699216666667, "is_disabled": 0, "lat": 38.90791883333333, "fusion_lat": 0.0, "is_reserved": 0, "rental_uris": {"ios": "https://dc.lft.to/lastmile_qr_scan", "android": "https://dc.lft.to/lastmile_qr_scan"}, "fusion_lon": 0.0, "type": "electric_scooter", "bike_id": "eb897a207afab56daccc62a0091c7620", "name": "eb897a207afab56daccc62a0091c7620"}, {"lon": -76.965247, "is_disabled": 0, "lat": 38.876214833333336, "fusion_lat": 0.0, "is_reserved": 0, "rental_uris": {"ios": "https://dc.lft.to/lastmile_qr_scan", "android": "https://dc.lft.to/lastmile_qr_scan"}, "fusion_lon": 0.0, "type": "electric_scooter", "bike_id": "76624fd54b3fa0fbe25387bc2137e2c8", "name": "76624fd54b3fa0fbe25387bc2137e2c8"}, {"lon": -77.04166483333333, "is_disabled": 0, "lat": 38.9015015, "fusion_lat": 0.0, "is_reserved": 0, "rental_uris": {"ios": "https://dc.lft.to/lastmile_qr_scan", "android": "https://dc.lft.to/lastmile_qr_scan"}, "fusion_lon": 0.0, "type": "electric_scooter", "bike_id": "20cfdde25b60d751c503fe1e4cbdde86", "name": "20cfdde25b60d751c503fe1e4cbdde86"}, {"lon": -77.00818633333333, "is_disabled": 0, "lat": 38.87667533333333, "fusion_lat": 0.0, "is_reserved": 0, "rental_uris": {"ios": "https://dc.lft.to/lastmile_qr_scan", "android": "https://dc.lft.to/lastmile_qr_scan"}, "fusion_lon": 0.0, "type": "electric_scooter", "bike_id": "2c1c14af38adc1e6580b7c18d178b321", "name": "2c1c14af38adc1e6580b7c18d178b321"}, {"lon": -77.01011983333333, "is_disabled": 0, "lat": 38.95625716666667, "fusion_lat": 0.0, "is_reserved": 0, "rental_uris": {"ios": "https://dc.lft.to/lastmile_qr_scan", "android": "https://dc.lft.to/lastmile_qr_scan"}, "fusion_lon": 0.0, "type": "electric_scooter", "bike_id": "5279eddb2fa6a876ac4a4aed1c4967b8", "name": "5279eddb2fa6a876ac4a4aed1c4967b8"}, {"lon": -77.05327116666666, "is_disabled": 0, "lat": 38.910535, "fusion_lat": 0.0, "is_reserved": 0, "rental_uris": {"ios": "https://dc.lft.to/lastmile_qr_scan", "android": "https://dc.lft.to/lastmile_qr_scan"}, "fusion_lon": 0.0, "type": "electric_scooter", "bike_id": "cae88de88e8779d702962f86a6aebf43", "name": "cae88de88e8779d702962f86a6aebf43"}, {"lon": -77.02198733333333, "is_disabled": 0, "lat": 38.9111405, "fusion_lat": 0.0, "is_reserved": 0, "rental_uris": {"ios": "https://dc.lft.to/lastmile_qr_scan", "android": "https://dc.lft.to/lastmile_qr_scan"}, "fusion_lon": 0.0, "type": "electric_scooter", "bike_id": "c56b98875dee2ea64ff83b4457d14c42", "name": "c56b98875dee2ea64ff83b4457d14c42"}, {"lon": -77.03454983333333, "is_disabled": 0, "lat": 38.92227333333334, "fusion_lat": 0.0, "is_reserved": 0, "rental_uris": {"ios": "https://dc.lft.to/lastmile_qr_scan", "android": "https://dc.lft.to/lastmile_qr_scan"}, "fusion_lon": 0.0, "type": "electric_scooter", "bike_id": "85f21f21f22f1918b087dac6eb70fdbb", "name": "85f21f21f22f1918b087dac6eb70fdbb"}, {"lon": -77.02239883333333, "is_disabled": 0, "lat": 38.9224085, "fusion_lat": 0.0, "is_reserved": 0, "rental_uris": {"ios": "https://dc.lft.to/lastmile_qr_scan", "android": "https://dc.lft.to/lastmile_qr_scan"}, "fusion_lon": 0.0, "type": "electric_scooter", "bike_id": "4376ff3d65e34ee245e23ea781713295", "name": "4376ff3d65e34ee245e23ea781713295"}, {"lon": -76.99642116666666, "is_disabled": 0, "lat": 38.90526366666667, "fusion_lat": 0.0, "is_reserved": 0, "rental_uris": {"ios": "https://dc.lft.to/lastmile_qr_scan", "android": "https://dc.lft.to/lastmile_qr_scan"}, "fusion_lon": 0.0, "type": "electric_scooter", "bike_id": "999742a264f5df46e8ba78b712e7a78d", "name": "999742a264f5df46e8ba78b712e7a78d"}, {"lon": -77.017876, "is_disabled": 0, "lat": 38.87689066666667, "fusion_lat": 0.0, "is_reserved": 0, "rental_uris": {"ios": "https://dc.lft.to/lastmile_qr_scan", "android": "https://dc.lft.to/lastmile_qr_scan"}, "fusion_lon": 0.0, "type": "electric_scooter", "bike_id": "aef82f2bb23770ab3099f8fa46e8377d", "name": "aef82f2bb23770ab3099f8fa46e8377d"}, {"lon": -77.03191766666667, "is_disabled": 0, "lat": 38.91748033333333, "fusion_lat": 0.0, "is_reserved": 0, "rental_uris": {"ios": "https://dc.lft.to/lastmile_qr_scan", "android": "https://dc.lft.to/lastmile_qr_scan"}, "fusion_lon": 0.0, "type": "electric_scooter", "bike_id": "ed63e4ec78c64313d0e06a9907756287", "name": "ed63e4ec78c64313d0e06a9907756287"}, {"lon": -77.04355433333333, "is_disabled": 0, "lat": 38.908460833333336, "fusion_lat": 0.0, "is_reserved": 0, "rental_uris": {"ios": "https://dc.lft.to/lastmile_qr_scan", "android": "https://dc.lft.to/lastmile_qr_scan"}, "fusion_lon": 0.0, "type": "electric_scooter", "bike_id": "fb4e1e4c5e6250555d4649064db7ccf1", "name": "fb4e1e4c5e6250555d4649064db7ccf1"}, {"lon": -76.99925683333333, "is_disabled": 0, "lat": 39.039881333333334, "fusion_lat": 0.0, "is_reserved": 0, "rental_uris": {"ios": "https://dc.lft.to/lastmile_qr_scan", "android": "https://dc.lft.to/lastmile_qr_scan"}, "fusion_lon": 0.0, "type": "electric_bike", "bike_id": "fcd6860812a25a4ed33383766a8d1488", "name": "fcd6860812a25a4ed33383766a8d1488"}, {"lon": -77.033011, "is_disabled": 0, "lat": 38.923504666666666, "fusion_lat": 0.0, "is_reserved": 0, "rental_uris": {"ios": "https://dc.lft.to/lastmile_qr_scan", "android": "https://dc.lft.to/lastmile_qr_scan"}, "fusion_lon": 0.0, "type": "electric_scooter", "bike_id": "159ff20a91100c6eafee5585fd8b2c5c", "name": "159ff20a91100c6eafee5585fd8b2c5c"}, {"lon": -77.0423275, "is_disabled": 0, "lat": 38.920494, "fusion_lat": 0.0, "is_reserved": 0, "rental_uris": {"ios": "https://dc.lft.to/lastmile_qr_scan", "android": "https://dc.lft.to/lastmile_qr_scan"}, "fusion_lon": 0.0, "type": "electric_scooter", "bike_id": "2409d6c883a64d0dff98e3caa5615fcf", "name": "2409d6c883a64d0dff98e3caa5615fcf"}, {"lon": -77.08529516666667, "is_disabled": 0, "lat": 38.9160685, "fusion_lat": 0.0, "is_reserved": 0, "rental_uris": {"ios": "https://dc.lft.to/lastmile_qr_scan", "android": "https://dc.lft.to/lastmile_qr_scan"}, "fusion_lon": 0.0, "type": "electric_scooter", "bike_id": "be4e01ee4bb1ff5666e4f3987f12f71d", "name": "be4e01ee4bb1ff5666e4f3987f12f71d"}, {"lon": -76.970571, "is_disabled": 0, "lat": 38.98459916666667, "fusion_lat": 0.0, "is_reserved": 0, "rental_uris": {"ios": "https://dc.lft.to/lastmile_qr_scan", "android": "https://dc.lft.to/lastmile_qr_scan"}, "fusion_lon": 0.0, "type": "electric_bike", "bike_id": "30bb019751187ddf0614c8a22b16a051", "name": "30bb019751187ddf0614c8a22b16a051"}, {"lon": -77.0381375, "is_disabled": 0, "lat": 38.90252666666667, "fusion_lat": 0.0, "is_reserved": 0, "rental_uris": {"ios": "https://dc.lft.to/lastmile_qr_scan", "android": "https://dc.lft.to/lastmile_qr_scan"}, "fusion_lon": 0.0, "type": "electric_scooter", "bike_id": "3e1de6d3e46016841d5c592bf2e13c72", "name": "3e1de6d3e46016841d5c592bf2e13c72"}, {"lon": -77.019634, "is_disabled": 0, "lat": 38.9525435, "fusion_lat": 0.0, "is_reserved": 0, "rental_uris": {"ios": "https://dc.lft.to/lastmile_qr_scan", "android": "https://dc.lft.to/lastmile_qr_scan"}, "fusion_lon": 0.0, "type": "electric_scooter", "bike_id": "097fd2be61d67057634b80e6f75fef6a", "name": "097fd2be61d67057634b80e6f75fef6a"}, {"lon": -77.0411245, "is_disabled": 0, "lat": 38.92536416666667, "fusion_lat": 0.0, "is_reserved": 0, "rental_uris": {"ios": "https://dc.lft.to/lastmile_qr_scan", "android": "https://dc.lft.to/lastmile_qr_scan"}, "fusion_lon": 0.0, "type": "electric_scooter", "bike_id": "b71984c595d32687e5d99f079114dae3", "name": "b71984c595d32687e5d99f079114dae3"}, {"lon": -77.02018316666667, "is_disabled": 0, "lat": 38.897533, "fusion_lat": 0.0, "is_reserved": 0, "rental_uris": {"ios": "https://dc.lft.to/lastmile_qr_scan", "android": "https://dc.lft.to/lastmile_qr_scan"}, "fusion_lon": 0.0, "type": "electric_scooter", "bike_id": "a85bf93b5910d4235c2be992f712351e", "name": "a85bf93b5910d4235c2be992f712351e"}, {"lon": -77.02024133333333, "is_disabled": 0, "lat": 38.924314833333334, "fusion_lat": 0.0, "is_reserved": 0, "rental_uris": {"ios": "https://dc.lft.to/lastmile_qr_scan", "android": "https://dc.lft.to/lastmile_qr_scan"}, "fusion_lon": 0.0, "type": "electric_scooter", "bike_id": "e7717acd570ede91df981c84a2a02fb1", "name": "e7717acd570ede91df981c84a2a02fb1"}, {"lon": -77.03639183333334, "is_disabled": 0, "lat": 38.91790783333333, "fusion_lat": 0.0, "is_reserved": 0, "rental_uris": {"ios": "https://dc.lft.to/lastmile_qr_scan", "android": "https://dc.lft.to/lastmile_qr_scan"}, "fusion_lon": 0.0, "type": "electric_scooter", "bike_id": "1515f0d4c5b3fca8807db5dcbb9a6c3f", "name": "1515f0d4c5b3fca8807db5dcbb9a6c3f"}, {"lon": -77.02290466666666, "is_disabled": 0, "lat": 38.91568633333333, "fusion_lat": 0.0, "is_reserved": 0, "rental_uris": {"ios": "https://dc.lft.to/lastmile_qr_scan", "android": "https://dc.lft.to/lastmile_qr_scan"}, "fusion_lon": 0.0, "type": "electric_scooter", "bike_id": "b57478ad9bac251d5e5537a1d67e6e5c", "name": "b57478ad9bac251d5e5537a1d67e6e5c"}, {"lon": -77.03399766666666, "is_disabled": 0, "lat": 38.909776, "fusion_lat": 0.0, "is_reserved": 0, "rental_uris": {"ios": "https://dc.lft.to/lastmile_qr_scan", "android": "https://dc.lft.to/lastmile_qr_scan"}, "fusion_lon": 0.0, "type": "electric_scooter", "bike_id": "f4a4b9e3c6fcc0c38471ac6adedf36ae", "name": "f4a4b9e3c6fcc0c38471ac6adedf36ae"}, {"lon": -77.04081533333333, "is_disabled": 0, "lat": 38.903883, "fusion_lat": 0.0, "is_reserved": 0, "rental_uris": {"ios": "https://dc.lft.to/lastmile_qr_scan", "android": "https://dc.lft.to/lastmile_qr_scan"}, "fusion_lon": 0.0, "type": "electric_bike", "bike_id": "6510c4043e9ccad98b3cd85b4639cfc0", "name": "6510c4043e9ccad98b3cd85b4639cfc0"}, {"lon": -77.02700833333333, "is_disabled": 0, "lat": 38.90672983333333, "fusion_lat": 0.0, "is_reserved": 0, "rental_uris": {"ios": "https://dc.lft.to/lastmile_qr_scan", "android": "https://dc.lft.to/lastmile_qr_scan"}, "fusion_lon": 0.0, "type": "electric_scooter", "bike_id": "0b011958bd97ac79c38cc6640a98b361", "name": "0b011958bd97ac79c38cc6640a98b361"}, {"lon": -77.05972666666666, "is_disabled": 0, "lat": 38.90105466666667, "fusion_lat": 0.0, "is_reserved": 0, "rental_uris": {"ios": "https://dc.lft.to/lastmile_qr_scan", "android": "https://dc.lft.to/lastmile_qr_scan"}, "fusion_lon": 0.0, "type": "electric_scooter", "bike_id": "615da1e34c309f2255e5d19f10e8de2d", "name": "615da1e34c309f2255e5d19f10e8de2d"}, {"lon": -76.97560816666666, "is_disabled": 0, "lat": 38.924581333333336, "fusion_lat": 0.0, "is_reserved": 0, "rental_uris": {"ios": "https://dc.lft.to/lastmile_qr_scan", "android": "https://dc.lft.to/lastmile_qr_scan"}, "fusion_lon": 0.0, "type": "electric_bike", "bike_id": "f5a2df52f031f31ab5b0a8069b5f46b1", "name": "f5a2df52f031f31ab5b0a8069b5f46b1"}, {"lon": -76.9844205, "is_disabled": 0, "lat": 38.905813, "fusion_lat": 0.0, "is_reserved": 0, "rental_uris": {"ios": "https://dc.lft.to/lastmile_qr_scan", "android": "https://dc.lft.to/lastmile_qr_scan"}, "fusion_lon": 0.0, "type": "electric_scooter", "bike_id": "b4124bbe5b8a90963d7202f257edf28c", "name": "b4124bbe5b8a90963d7202f257edf28c"}, {"lon": -77.02407633333333, "is_disabled": 0, "lat": 38.91402166666666, "fusion_lat": 0.0, "is_reserved": 0, "rental_uris": {"ios": "https://dc.lft.to/lastmile_qr_scan", "android": "https://dc.lft.to/lastmile_qr_scan"}, "fusion_lon": 0.0, "type": "electric_scooter", "bike_id": "d14dfe05d27baf6036c0d056d4c393ae", "name": "d14dfe05d27baf6036c0d056d4c393ae"}, {"lon": -77.12740016666666, "is_disabled": 0, "lat": 38.8956895, "fusion_lat": 0.0, "is_reserved": 0, "rental_uris": {"ios": "https://dc.lft.to/lastmile_qr_scan", "android": "https://dc.lft.to/lastmile_qr_scan"}, "fusion_lon": 0.0, "type": "electric_bike", "bike_id": "847a2b0652128bd5eab6881cb81823ef", "name": "847a2b0652128bd5eab6881cb81823ef"}, {"lon": -77.02497316666667, "is_disabled": 0, "lat": 38.9180685, "fusion_lat": 0.0, "is_reserved": 0, "rental_uris": {"ios": "https://dc.lft.to/lastmile_qr_scan", "android": "https://dc.lft.to/lastmile_qr_scan"}, "fusion_lon": 0.0, "type": "electric_scooter", "bike_id": "93d51aa3611e8ebc8568974e2844c296", "name": "93d51aa3611e8ebc8568974e2844c296"}, {"lon": -77.00380566666666, "is_disabled": 0, "lat": 38.836086333333334, "fusion_lat": 0.0, "is_reserved": 0, "rental_uris": {"ios": "https://dc.lft.to/lastmile_qr_scan", "android": "https://dc.lft.to/lastmile_qr_scan"}, "fusion_lon": 0.0, "type": "electric_bike", "bike_id": "3956f1c7eb0e1e3517f939b1a6b5a958", "name": "3956f1c7eb0e1e3517f939b1a6b5a958"}, {"lon": -77.01220216666667, "is_disabled": 0, "lat": 38.9174945, "fusion_lat": 0.0, "is_reserved": 0, "rental_uris": {"ios": "https://dc.lft.to/lastmile_qr_scan", "android": "https://dc.lft.to/lastmile_qr_scan"}, "fusion_lon": 0.0, "type": "electric_scooter", "bike_id": "d5cb9526360c74d07916f4d60b180405", "name": "d5cb9526360c74d07916f4d60b180405"}, {"lon": -77.01895933333333, "is_disabled": 0, "lat": 38.90914133333333, "fusion_lat": 0.0, "is_reserved": 0, "rental_uris": {"ios": "https://dc.lft.to/lastmile_qr_scan", "android": "https://dc.lft.to/lastmile_qr_scan"}, "fusion_lon": 0.0, "type": "electric_scooter", "bike_id": "1e2e4dde47f83ffe888bbfae318c5549", "name": "1e2e4dde47f83ffe888bbfae318c5549"}, {"lon": -77.01983833333334, "is_disabled": 0, "lat": 38.91414116666667, "fusion_lat": 0.0, "is_reserved": 0, "rental_uris": {"ios": "https://dc.lft.to/lastmile_qr_scan", "android": "https://dc.lft.to/lastmile_qr_scan"}, "fusion_lon": 0.0, "type": "electric_scooter", "bike_id": "9c494d6ea29ef16163314e8e50a0a5a8", "name": "9c494d6ea29ef16163314e8e50a0a5a8"}, {"lon": -77.03835833333333, "is_disabled": 0, "lat": 38.9122605, "fusion_lat": 0.0, "is_reserved": 0, "rental_uris": {"ios": "https://dc.lft.to/lastmile_qr_scan", "android": "https://dc.lft.to/lastmile_qr_scan"}, "fusion_lon": 0.0, "type": "electric_scooter", "bike_id": "8a892ea8a6bbbf33524bbda997f2570b", "name": "8a892ea8a6bbbf33524bbda997f2570b"}, {"lon": -77.001957, "is_disabled": 0, "lat": 38.90259983333333, "fusion_lat": 0.0, "is_reserved": 0, "rental_uris": {"ios": "https://dc.lft.to/lastmile_qr_scan", "android": "https://dc.lft.to/lastmile_qr_scan"}, "fusion_lon": 0.0, "type": "electric_scooter", "bike_id": "f71b25ddd36d99415e2a3e35b02185ba", "name": "f71b25ddd36d99415e2a3e35b02185ba"}, {"lon": -77.06343266666667, "is_disabled": 0, "lat": 38.90685283333333, "fusion_lat": 0.0, "is_reserved": 0, "rental_uris": {"ios": "https://dc.lft.to/lastmile_qr_scan", "android": "https://dc.lft.to/lastmile_qr_scan"}, "fusion_lon": 0.0, "type": "electric_scooter", "bike_id": "779ba97f92793c3d077032caf2a7d3ba", "name": "779ba97f92793c3d077032caf2a7d3ba"}, {"lon": -77.04495883333334, "is_disabled": 0, "lat": 38.911865, "fusion_lat": 0.0, "is_reserved": 0, "rental_uris": {"ios": "https://dc.lft.to/lastmile_qr_scan", "android": "https://dc.lft.to/lastmile_qr_scan"}, "fusion_lon": 0.0, "type": "electric_scooter", "bike_id": "cd41f6005251a15761a09d1f17d7545d", "name": "cd41f6005251a15761a09d1f17d7545d"}, {"lon": -77.03286616666666, "is_disabled": 0, "lat": 38.92258016666667, "fusion_lat": 0.0, "is_reserved": 0, "rental_uris": {"ios": "https://dc.lft.to/lastmile_qr_scan", "android": "https://dc.lft.to/lastmile_qr_scan"}, "fusion_lon": 0.0, "type": "electric_scooter", "bike_id": "255b619c1c8e587fea4fc4662e1268eb", "name": "255b619c1c8e587fea4fc4662e1268eb"}, {"lon": -76.95255566666667, "is_disabled": 0, "lat": 38.9069585, "fusion_lat": 0.0, "is_reserved": 0, "rental_uris": {"ios": "https://dc.lft.to/lastmile_qr_scan", "android": "https://dc.lft.to/lastmile_qr_scan"}, "fusion_lon": 0.0, "type": "electric_bike", "bike_id": "5b45b00f37b40e0edc80c698a60443c7", "name": "5b45b00f37b40e0edc80c698a60443c7"}, {"lon": -77.02587733333333, "is_disabled": 0, "lat": 38.94210666666667, "fusion_lat": 0.0, "is_reserved": 0, "rental_uris": {"ios": "https://dc.lft.to/lastmile_qr_scan", "android": "https://dc.lft.to/lastmile_qr_scan"}, "fusion_lon": 0.0, "type": "electric_scooter", "bike_id": "cec9a43e66ee33bc453c1b635a0e8c2a", "name": "cec9a43e66ee33bc453c1b635a0e8c2a"}, {"lon": -77.20138166666666, "is_disabled": 0, "lat": 38.922176666666665, "fusion_lat": 0.0, "is_reserved": 0, "rental_uris": {"ios": "https://dc.lft.to/lastmile_qr_scan", "android": "https://dc.lft.to/lastmile_qr_scan"}, "fusion_lon": 0.0, "type": "electric_bike", "bike_id": "5723da35a481f408e654db1a15b45485", "name": "5723da35a481f408e654db1a15b45485"}, {"lon": -77.0466945, "is_disabled": 0, "lat": 38.89321266666666, "fusion_lat": 0.0, "is_reserved": 0, "rental_uris": {"ios": "https://dc.lft.to/lastmile_qr_scan", "android": "https://dc.lft.to/lastmile_qr_scan"}, "fusion_lon": 0.0, "type": "electric_scooter", "bike_id": "70945cb5a761ed62df2c3366ac60807b", "name": "70945cb5a761ed62df2c3366ac60807b"}, {"lon": -77.091449, "is_disabled": 0, "lat": 38.8614555, "fusion_lat": 0.0, "is_reserved": 0, "rental_uris": {"ios": "https://dc.lft.to/lastmile_qr_scan", "android": "https://dc.lft.to/lastmile_qr_scan"}, "fusion_lon": 0.0, "type": "electric_bike", "bike_id": "4ceeff26bdfe56d700ee834a907bf4c5", "name": "4ceeff26bdfe56d700ee834a907bf4c5"}, {"lon": -77.057443, "is_disabled": 0, "lat": 38.933905833333334, "fusion_lat": 0.0, "is_reserved": 0, "rental_uris": {"ios": "https://dc.lft.to/lastmile_qr_scan", "android": "https://dc.lft.to/lastmile_qr_scan"}, "fusion_lon": 0.0, "type": "electric_scooter", "bike_id": "2bc1b285b898539859b4eacaec563a12", "name": "2bc1b285b898539859b4eacaec563a12"}, {"lon": -77.02398833333334, "is_disabled": 0, "lat": 38.91755083333334, "fusion_lat": 0.0, "is_reserved": 0, "rental_uris": {"ios": "https://dc.lft.to/lastmile_qr_scan", "android": "https://dc.lft.to/lastmile_qr_scan"}, "fusion_lon": 0.0, "type": "electric_scooter", "bike_id": "aa5ba46bd922f6c49235a4f76faab886", "name": "aa5ba46bd922f6c49235a4f76faab886"}, {"lon": -76.9710165, "is_disabled": 0, "lat": 38.87062366666667, "fusion_lat": 0.0, "is_reserved": 0, "rental_uris": {"ios": "https://dc.lft.to/lastmile_qr_scan", "android": "https://dc.lft.to/lastmile_qr_scan"}, "fusion_lon": 0.0, "type": "electric_scooter", "bike_id": "bcefbdbeebd7ac01bd760385c15a7ccf", "name": "bcefbdbeebd7ac01bd760385c15a7ccf"}, {"lon": -77.02235766666666, "is_disabled": 0, "lat": 38.91563283333333, "fusion_lat": 0.0, "is_reserved": 0, "rental_uris": {"ios": "https://dc.lft.to/lastmile_qr_scan", "android": "https://dc.lft.to/lastmile_qr_scan"}, "fusion_lon": 0.0, "type": "electric_scooter", "bike_id": "f02c155386994eae6a4039882468b462", "name": "f02c155386994eae6a4039882468b462"}, {"lon": -76.946376, "is_disabled": 0, "lat": 38.89867016666667, "fusion_lat": 0.0, "is_reserved": 0, "rental_uris": {"ios": "https://dc.lft.to/lastmile_qr_scan", "android": "https://dc.lft.to/lastmile_qr_scan"}, "fusion_lon": 0.0, "type": "electric_scooter", "bike_id": "61422912fca03ab92196a828233980d5", "name": "61422912fca03ab92196a828233980d5"}, {"lon": -77.03156616666666, "is_disabled": 0, "lat": 38.964402, "fusion_lat": 0.0, "is_reserved": 0, "rental_uris": {"ios": "https://dc.lft.to/lastmile_qr_scan", "android": "https://dc.lft.to/lastmile_qr_scan"}, "fusion_lon": 0.0, "type": "electric_bike", "bike_id": "dfef2266917f795c5f0d9f5a4cb9bd8d", "name": "dfef2266917f795c5f0d9f5a4cb9bd8d"}, {"lon": -77.02231183333333, "is_disabled": 0, "lat": 38.93473266666667, "fusion_lat": 0.0, "is_reserved": 0, "rental_uris": {"ios": "https://dc.lft.to/lastmile_qr_scan", "android": "https://dc.lft.to/lastmile_qr_scan"}, "fusion_lon": 0.0, "type": "electric_scooter", "bike_id": "09aa35792be29395ca8c3eb9c38ac641", "name": "09aa35792be29395ca8c3eb9c38ac641"}, {"lon": -76.9579135, "is_disabled": 0, "lat": 38.86877966666667, "fusion_lat": 0.0, "is_reserved": 0, "rental_uris": {"ios": "https://dc.lft.to/lastmile_qr_scan", "android": "https://dc.lft.to/lastmile_qr_scan"}, "fusion_lon": 0.0, "type": "electric_bike", "bike_id": "32588bdcdd4e9fdd77c4457947db8058", "name": "32588bdcdd4e9fdd77c4457947db8058"}, {"lon": -77.0383675, "is_disabled": 0, "lat": 38.9078175, "fusion_lat": 0.0, "is_reserved": 0, "rental_uris": {"ios": "https://dc.lft.to/lastmile_qr_scan", "android": "https://dc.lft.to/lastmile_qr_scan"}, "fusion_lon": 0.0, "type": "electric_scooter", "bike_id": "78590e07ba03590dd0267d550cb6f488", "name": "78590e07ba03590dd0267d550cb6f488"}, {"lon": -77.005999, "is_disabled": 0, "lat": 38.87571916666667, "fusion_lat": 0.0, "is_reserved": 0, "rental_uris": {"ios": "https://dc.lft.to/lastmile_qr_scan", "android": "https://dc.lft.to/lastmile_qr_scan"}, "fusion_lon": 0.0, "type": "electric_scooter", "bike_id": "2fc12c1e3265271c59d8fe081eef613e", "name": "2fc12c1e3265271c59d8fe081eef613e"}, {"lon": -77.03426, "is_disabled": 0, "lat": 38.904265333333335, "fusion_lat": 0.0, "is_reserved": 0, "rental_uris": {"ios": "https://dc.lft.to/lastmile_qr_scan", "android": "https://dc.lft.to/lastmile_qr_scan"}, "fusion_lon": 0.0, "type": "electric_scooter", "bike_id": "9aeddc9926759c7fe46affa28505c084", "name": "9aeddc9926759c7fe46affa28505c084"}, {"lon": -77.04964566666666, "is_disabled": 0, "lat": 38.89836016666667, "fusion_lat": 0.0, "is_reserved": 0, "rental_uris": {"ios": "https://dc.lft.to/lastmile_qr_scan", "android": "https://dc.lft.to/lastmile_qr_scan"}, "fusion_lon": 0.0, "type": "electric_scooter", "bike_id": "4e36d5abeedba23177ad24fd8bf211fe", "name": "4e36d5abeedba23177ad24fd8bf211fe"}, {"lon": -77.06278483333334, "is_disabled": 0, "lat": 38.905846333333336, "fusion_lat": 0.0, "is_reserved": 0, "rental_uris": {"ios": "https://dc.lft.to/lastmile_qr_scan", "android": "https://dc.lft.to/lastmile_qr_scan"}, "fusion_lon": 0.0, "type": "electric_scooter", "bike_id": "fd8f0aee814459b5063f4da3637899ff", "name": "fd8f0aee814459b5063f4da3637899ff"}, {"lon": -77.049431, "is_disabled": 0, "lat": 38.9182325, "fusion_lat": 0.0, "is_reserved": 0, "rental_uris": {"ios": "https://dc.lft.to/lastmile_qr_scan", "android": "https://dc.lft.to/lastmile_qr_scan"}, "fusion_lon": 0.0, "type": "electric_scooter", "bike_id": "7c2ad6860976562db441c2e47c939294", "name": "7c2ad6860976562db441c2e47c939294"}, {"lon": -76.96539133333333, "is_disabled": 0, "lat": 38.9184875, "fusion_lat": 0.0, "is_reserved": 0, "rental_uris": {"ios": "https://dc.lft.to/lastmile_qr_scan", "android": "https://dc.lft.to/lastmile_qr_scan"}, "fusion_lon": 0.0, "type": "electric_scooter", "bike_id": "c5abf0b23840c6a3425a22e823178f5d", "name": "c5abf0b23840c6a3425a22e823178f5d"}, {"lon": -77.04179183333333, "is_disabled": 0, "lat": 38.901659333333335, "fusion_lat": 0.0, "is_reserved": 0, "rental_uris": {"ios": "https://dc.lft.to/lastmile_qr_scan", "android": "https://dc.lft.to/lastmile_qr_scan"}, "fusion_lon": 0.0, "type": "electric_scooter", "bike_id": "baf1128273d684c880be4d256a86ced0", "name": "baf1128273d684c880be4d256a86ced0"}, {"lon": -77.02294433333333, "is_disabled": 0, "lat": 38.894927, "fusion_lat": 0.0, "is_reserved": 0, "rental_uris": {"ios": "https://dc.lft.to/lastmile_qr_scan", "android": "https://dc.lft.to/lastmile_qr_scan"}, "fusion_lon": 0.0, "type": "electric_scooter", "bike_id": "cd7a59ae78c50918196910b37e0ad201", "name": "cd7a59ae78c50918196910b37e0ad201"}, {"lon": -76.97027, "is_disabled": 0, "lat": 38.873599666666664, "fusion_lat": 0.0, "is_reserved": 0, "rental_uris": {"ios": "https://dc.lft.to/lastmile_qr_scan", "android": "https://dc.lft.to/lastmile_qr_scan"}, "fusion_lon": 0.0, "type": "electric_scooter", "bike_id": "435f1137ae0679127a757f59ee9e21c7", "name": "435f1137ae0679127a757f59ee9e21c7"}, {"lon": -77.02054283333334, "is_disabled": 0, "lat": 38.933396333333334, "fusion_lat": 0.0, "is_reserved": 0, "rental_uris": {"ios": "https://dc.lft.to/lastmile_qr_scan", "android": "https://dc.lft.to/lastmile_qr_scan"}, "fusion_lon": 0.0, "type": "electric_scooter", "bike_id": "1f4e7c13aa8c862f7ea97c3e056f7a44", "name": "1f4e7c13aa8c862f7ea97c3e056f7a44"}, {"lon": -77.08069083333334, "is_disabled": 0, "lat": 39.0525365, "fusion_lat": 0.0, "is_reserved": 0, "rental_uris": {"ios": "https://dc.lft.to/lastmile_qr_scan", "android": "https://dc.lft.to/lastmile_qr_scan"}, "fusion_lon": 0.0, "type": "electric_bike", "bike_id": "da02dac8b0b00ca43e3b0cf9db7654ab", "name": "da02dac8b0b00ca43e3b0cf9db7654ab"}, {"lon": -77.0153155, "is_disabled": 0, "lat": 38.887400166666666, "fusion_lat": 0.0, "is_reserved": 0, "rental_uris": {"ios": "https://dc.lft.to/lastmile_qr_scan", "android": "https://dc.lft.to/lastmile_qr_scan"}, "fusion_lon": 0.0, "type": "electric_scooter", "bike_id": "1456dd7bce03486339f918666555060c", "name": "1456dd7bce03486339f918666555060c"}, {"lon": -77.02408233333334, "is_disabled": 0, "lat": 38.914069, "fusion_lat": 0.0, "is_reserved": 0, "rental_uris": {"ios": "https://dc.lft.to/lastmile_qr_scan", "android": "https://dc.lft.to/lastmile_qr_scan"}, "fusion_lon": 0.0, "type": "electric_scooter", "bike_id": "0fcd00b4bdcb1f5b9c634cc860e3fda7", "name": "0fcd00b4bdcb1f5b9c634cc860e3fda7"}, {"lon": -77.01795233333333, "is_disabled": 0, "lat": 38.952772833333334, "fusion_lat": 0.0, "is_reserved": 0, "rental_uris": {"ios": "https://dc.lft.to/lastmile_qr_scan", "android": "https://dc.lft.to/lastmile_qr_scan"}, "fusion_lon": 0.0, "type": "electric_scooter", "bike_id": "3ae24eafd89d686a1b8e6d13bc62521b", "name": "3ae24eafd89d686a1b8e6d13bc62521b"}, {"lon": -77.04490466666667, "is_disabled": 0, "lat": 38.91518133333334, "fusion_lat": 0.0, "is_reserved": 0, "rental_uris": {"ios": "https://dc.lft.to/lastmile_qr_scan", "android": "https://dc.lft.to/lastmile_qr_scan"}, "fusion_lon": 0.0, "type": "electric_scooter", "bike_id": "3bda394651ae7f89c6e3b191a9dde088", "name": "3bda394651ae7f89c6e3b191a9dde088"}, {"lon": -77.017391, "is_disabled": 0, "lat": 38.90221233333333, "fusion_lat": 0.0, "is_reserved": 0, "rental_uris": {"ios": "https://dc.lft.to/lastmile_qr_scan", "android": "https://dc.lft.to/lastmile_qr_scan"}, "fusion_lon": 0.0, "type": "electric_scooter", "bike_id": "06daee6cfdab9d0f1ca13e6ac0085825", "name": "06daee6cfdab9d0f1ca13e6ac0085825"}, {"lon": -77.02490933333333, "is_disabled": 0, "lat": 38.95777733333333, "fusion_lat": 0.0, "is_reserved": 0, "rental_uris": {"ios": "https://dc.lft.to/lastmile_qr_scan", "android": "https://dc.lft.to/lastmile_qr_scan"}, "fusion_lon": 0.0, "type": "electric_scooter", "bike_id": "be12f00de62249bce284a2a4030731d0", "name": "be12f00de62249bce284a2a4030731d0"}, {"lon": -77.02758183333333, "is_disabled": 0, "lat": 38.916949833333334, "fusion_lat": 0.0, "is_reserved": 0, "rental_uris": {"ios": "https://dc.lft.to/lastmile_qr_scan", "android": "https://dc.lft.to/lastmile_qr_scan"}, "fusion_lon": 0.0, "type": "electric_scooter", "bike_id": "c719f440755f7fdcae63b4b479c51d57", "name": "c719f440755f7fdcae63b4b479c51d57"}, {"lon": -76.94638883333333, "is_disabled": 0, "lat": 38.898691666666664, "fusion_lat": 0.0, "is_reserved": 0, "rental_uris": {"ios": "https://dc.lft.to/lastmile_qr_scan", "android": "https://dc.lft.to/lastmile_qr_scan"}, "fusion_lon": 0.0, "type": "electric_scooter", "bike_id": "a1ceca05768efb71f8fcc792d7e59973", "name": "a1ceca05768efb71f8fcc792d7e59973"}, {"lon": -77.05142183333334, "is_disabled": 0, "lat": 38.905401499999996, "fusion_lat": 0.0, "is_reserved": 0, "rental_uris": {"ios": "https://dc.lft.to/lastmile_qr_scan", "android": "https://dc.lft.to/lastmile_qr_scan"}, "fusion_lon": 0.0, "type": "electric_scooter", "bike_id": "fa9746d2a645067b6d3d35820bec97c2", "name": "fa9746d2a645067b6d3d35820bec97c2"}, {"lon": -77.021548, "is_disabled": 0, "lat": 38.9156365, "fusion_lat": 0.0, "is_reserved": 0, "rental_uris": {"ios": "https://dc.lft.to/lastmile_qr_scan", "android": "https://dc.lft.to/lastmile_qr_scan"}, "fusion_lon": 0.0, "type": "electric_scooter", "bike_id": "27e390ca2bffc7bcdee53508a0ab0aa3", "name": "27e390ca2bffc7bcdee53508a0ab0aa3"}, {"lon": -77.02569666666666, "is_disabled": 0, "lat": 38.88745766666667, "fusion_lat": 0.0, "is_reserved": 0, "rental_uris": {"ios": "https://dc.lft.to/lastmile_qr_scan", "android": "https://dc.lft.to/lastmile_qr_scan"}, "fusion_lon": 0.0, "type": "electric_scooter", "bike_id": "d4b64497fa6338d8350a0388028db98b", "name": "d4b64497fa6338d8350a0388028db98b"}, {"lon": -77.05495666666667, "is_disabled": 0, "lat": 39.01482033333333, "fusion_lat": 0.0, "is_reserved": 0, "rental_uris": {"ios": "https://dc.lft.to/lastmile_qr_scan", "android": "https://dc.lft.to/lastmile_qr_scan"}, "fusion_lon": 0.0, "type": "electric_bike", "bike_id": "2a558db08f68f496322e98d4bc14a2d7", "name": "2a558db08f68f496322e98d4bc14a2d7"}, {"lon": -77.03731616666667, "is_disabled": 0, "lat": 38.926624333333336, "fusion_lat": 0.0, "is_reserved": 0, "rental_uris": {"ios": "https://dc.lft.to/lastmile_qr_scan", "android": "https://dc.lft.to/lastmile_qr_scan"}, "fusion_lon": 0.0, "type": "electric_scooter", "bike_id": "9b67d466f713b564599e546a71e21e05", "name": "9b67d466f713b564599e546a71e21e05"}, {"lon": -77.00884933333333, "is_disabled": 0, "lat": 38.875121166666666, "fusion_lat": 0.0, "is_reserved": 0, "rental_uris": {"ios": "https://dc.lft.to/lastmile_qr_scan", "android": "https://dc.lft.to/lastmile_qr_scan"}, "fusion_lon": 0.0, "type": "electric_bike", "bike_id": "c3e5154f232c66fb092d4501cd8e0d8c", "name": "c3e5154f232c66fb092d4501cd8e0d8c"}, {"lon": -77.03580883333333, "is_disabled": 0, "lat": 38.911244333333336, "fusion_lat": 0.0, "is_reserved": 0, "rental_uris": {"ios": "https://dc.lft.to/lastmile_qr_scan", "android": "https://dc.lft.to/lastmile_qr_scan"}, "fusion_lon": 0.0, "type": "electric_scooter", "bike_id": "d7668de0223f31573ead3147713a7bbb", "name": "d7668de0223f31573ead3147713a7bbb"}, {"lon": -77.04564466666666, "is_disabled": 0, "lat": 38.914849, "fusion_lat": 0.0, "is_reserved": 0, "rental_uris": {"ios": "https://dc.lft.to/lastmile_qr_scan", "android": "https://dc.lft.to/lastmile_qr_scan"}, "fusion_lon": 0.0, "type": "electric_scooter", "bike_id": "5720d213fd268cf4c9e786861b5fc4f5", "name": "5720d213fd268cf4c9e786861b5fc4f5"}, {"lon": -77.0474305, "is_disabled": 0, "lat": 38.9009765, "fusion_lat": 0.0, "is_reserved": 0, "rental_uris": {"ios": "https://dc.lft.to/lastmile_qr_scan", "android": "https://dc.lft.to/lastmile_qr_scan"}, "fusion_lon": 0.0, "type": "electric_scooter", "bike_id": "25251e969213b877f3ffb53bc9841851", "name": "25251e969213b877f3ffb53bc9841851"}, {"lon": -76.9958135, "is_disabled": 0, "lat": 38.94738483333333, "fusion_lat": 0.0, "is_reserved": 0, "rental_uris": {"ios": "https://dc.lft.to/lastmile_qr_scan", "android": "https://dc.lft.to/lastmile_qr_scan"}, "fusion_lon": 0.0, "type": "electric_bike", "bike_id": "0dcebf1eb6a623c623d867015fb7fac1", "name": "0dcebf1eb6a623c623d867015fb7fac1"}, {"lon": -77.023899, "is_disabled": 0, "lat": 38.9165635, "fusion_lat": 0.0, "is_reserved": 0, "rental_uris": {"ios": "https://dc.lft.to/lastmile_qr_scan", "android": "https://dc.lft.to/lastmile_qr_scan"}, "fusion_lon": 0.0, "type": "electric_scooter", "bike_id": "77ca875f6fb83cde1ac2aec3653d9e91", "name": "77ca875f6fb83cde1ac2aec3653d9e91"}, {"lon": -77.0294305, "is_disabled": 0, "lat": 38.8997995, "fusion_lat": 0.0, "is_reserved": 0, "rental_uris": {"ios": "https://dc.lft.to/lastmile_qr_scan", "android": "https://dc.lft.to/lastmile_qr_scan"}, "fusion_lon": 0.0, "type": "electric_scooter", "bike_id": "78bb58040ef7a811894ccda90853ca22", "name": "78bb58040ef7a811894ccda90853ca22"}, {"lon": -77.04232233333333, "is_disabled": 0, "lat": 38.921756, "fusion_lat": 0.0, "is_reserved": 0, "rental_uris": {"ios": "https://dc.lft.to/lastmile_qr_scan", "android": "https://dc.lft.to/lastmile_qr_scan"}, "fusion_lon": 0.0, "type": "electric_scooter", "bike_id": "693d21da235637e37ef26589fdbf6e76", "name": "693d21da235637e37ef26589fdbf6e76"}, {"lon": -77.0233185, "is_disabled": 0, "lat": 38.911854166666664, "fusion_lat": 0.0, "is_reserved": 0, "rental_uris": {"ios": "https://dc.lft.to/lastmile_qr_scan", "android": "https://dc.lft.to/lastmile_qr_scan"}, "fusion_lon": 0.0, "type": "electric_scooter", "bike_id": "b06910ccf8d66eefa4088c4a73dd424f", "name": "b06910ccf8d66eefa4088c4a73dd424f"}, {"lon": -77.02450483333334, "is_disabled": 0, "lat": 38.93591216666667, "fusion_lat": 0.0, "is_reserved": 0, "rental_uris": {"ios": "https://dc.lft.to/lastmile_qr_scan", "android": "https://dc.lft.to/lastmile_qr_scan"}, "fusion_lon": 0.0, "type": "electric_scooter", "bike_id": "2776b56fe51175aaed1fe721bdcd4744", "name": "2776b56fe51175aaed1fe721bdcd4744"}, {"lon": -76.98553583333333, "is_disabled": 0, "lat": 38.91031916666667, "fusion_lat": 0.0, "is_reserved": 0, "rental_uris": {"ios": "https://dc.lft.to/lastmile_qr_scan", "android": "https://dc.lft.to/lastmile_qr_scan"}, "fusion_lon": 0.0, "type": "electric_scooter", "bike_id": "4888a24e6d3db13dbd3c90216c870f36", "name": "4888a24e6d3db13dbd3c90216c870f36"}, {"lon": -76.97524966666667, "is_disabled": 0, "lat": 38.898677, "fusion_lat": 0.0, "is_reserved": 0, "rental_uris": {"ios": "https://dc.lft.to/lastmile_qr_scan", "android": "https://dc.lft.to/lastmile_qr_scan"}, "fusion_lon": 0.0, "type": "electric_scooter", "bike_id": "f586210802d70cb88643e8ee3ae93b45", "name": "f586210802d70cb88643e8ee3ae93b45"}, {"lon": -77.04395833333334, "is_disabled": 0, "lat": 38.902355, "fusion_lat": 0.0, "is_reserved": 0, "rental_uris": {"ios": "https://dc.lft.to/lastmile_qr_scan", "android": "https://dc.lft.to/lastmile_qr_scan"}, "fusion_lon": 0.0, "type": "electric_scooter", "bike_id": "fa1f28da285a6dc1744d9c4232084aab", "name": "fa1f28da285a6dc1744d9c4232084aab"}, {"lon": -77.03842333333333, "is_disabled": 0, "lat": 38.90977783333334, "fusion_lat": 0.0, "is_reserved": 0, "rental_uris": {"ios": "https://dc.lft.to/lastmile_qr_scan", "android": "https://dc.lft.to/lastmile_qr_scan"}, "fusion_lon": 0.0, "type": "electric_scooter", "bike_id": "07e8498d3259fa353467c225966416a8", "name": "07e8498d3259fa353467c225966416a8"}, {"lon": -77.02409666666667, "is_disabled": 0, "lat": 38.91417633333333, "fusion_lat": 0.0, "is_reserved": 0, "rental_uris": {"ios": "https://dc.lft.to/lastmile_qr_scan", "android": "https://dc.lft.to/lastmile_qr_scan"}, "fusion_lon": 0.0, "type": "electric_scooter", "bike_id": "368dbc939c68bf0c389568f1d795f271", "name": "368dbc939c68bf0c389568f1d795f271"}, {"lon": -77.05396483333334, "is_disabled": 0, "lat": 38.804492833333335, "fusion_lat": 0.0, "is_reserved": 0, "rental_uris": {"ios": "https://dc.lft.to/lastmile_qr_scan", "android": "https://dc.lft.to/lastmile_qr_scan"}, "fusion_lon": 0.0, "type": "electric_bike", "bike_id": "0304a0a81a1333ff02eba5428f920801", "name": "0304a0a81a1333ff02eba5428f920801"}, {"lon": -77.02821566666667, "is_disabled": 0, "lat": 38.90554433333333, "fusion_lat": 0.0, "is_reserved": 0, "rental_uris": {"ios": "https://dc.lft.to/lastmile_qr_scan", "android": "https://dc.lft.to/lastmile_qr_scan"}, "fusion_lon": 0.0, "type": "electric_scooter", "bike_id": "5286fedf9bdd77c2b87ff0348a0d9d92", "name": "5286fedf9bdd77c2b87ff0348a0d9d92"}, {"lon": -77.04222933333334, "is_disabled": 0, "lat": 38.92633766666667, "fusion_lat": 0.0, "is_reserved": 0, "rental_uris": {"ios": "https://dc.lft.to/lastmile_qr_scan", "android": "https://dc.lft.to/lastmile_qr_scan"}, "fusion_lon": 0.0, "type": "electric_scooter", "bike_id": "3e380785a0cd5581323f0611136d2a1b", "name": "3e380785a0cd5581323f0611136d2a1b"}, {"lon": -77.05226333333333, "is_disabled": 0, "lat": 38.92507333333333, "fusion_lat": 0.0, "is_reserved": 0, "rental_uris": {"ios": "https://dc.lft.to/lastmile_qr_scan", "android": "https://dc.lft.to/lastmile_qr_scan"}, "fusion_lon": 0.0, "type": "electric_scooter", "bike_id": "a6394b19c5d64d7f50ba87347e3e9bd4", "name": "a6394b19c5d64d7f50ba87347e3e9bd4"}, {"lon": -77.00048766666667, "is_disabled": 0, "lat": 38.87412833333333, "fusion_lat": 0.0, "is_reserved": 0, "rental_uris": {"ios": "https://dc.lft.to/lastmile_qr_scan", "android": "https://dc.lft.to/lastmile_qr_scan"}, "fusion_lon": 0.0, "type": "electric_scooter", "bike_id": "a14e5e8471ed594ce43736f220cb2d6d", "name": "a14e5e8471ed594ce43736f220cb2d6d"}, {"lon": -77.0383255, "is_disabled": 0, "lat": 38.9079595, "fusion_lat": 0.0, "is_reserved": 0, "rental_uris": {"ios": "https://dc.lft.to/lastmile_qr_scan", "android": "https://dc.lft.to/lastmile_qr_scan"}, "fusion_lon": 0.0, "type": "electric_scooter", "bike_id": "adeb4460006615ef68cf9e3313ed2019", "name": "adeb4460006615ef68cf9e3313ed2019"}, {"lon": -77.02379333333333, "is_disabled": 0, "lat": 38.9140895, "fusion_lat": 0.0, "is_reserved": 0, "rental_uris": {"ios": "https://dc.lft.to/lastmile_qr_scan", "android": "https://dc.lft.to/lastmile_qr_scan"}, "fusion_lon": 0.0, "type": "electric_scooter", "bike_id": "80bc70823416800d88d54f5bc65b63b0", "name": "80bc70823416800d88d54f5bc65b63b0"}, {"lon": -76.99213816666666, "is_disabled": 0, "lat": 38.940214833333336, "fusion_lat": 0.0, "is_reserved": 0, "rental_uris": {"ios": "https://dc.lft.to/lastmile_qr_scan", "android": "https://dc.lft.to/lastmile_qr_scan"}, "fusion_lon": 0.0, "type": "electric_bike", "bike_id": "dc99707ef7432c33a563d86437ee9455", "name": "dc99707ef7432c33a563d86437ee9455"}, {"lon": -77.05432883333333, "is_disabled": 0, "lat": 38.92852633333333, "fusion_lat": 0.0, "is_reserved": 0, "rental_uris": {"ios": "https://dc.lft.to/lastmile_qr_scan", "android": "https://dc.lft.to/lastmile_qr_scan"}, "fusion_lon": 0.0, "type": "electric_scooter", "bike_id": "eff30aa4983a3c8ac1a0245eb09aeeaa", "name": "eff30aa4983a3c8ac1a0245eb09aeeaa"}, {"lon": -77.0296305, "is_disabled": 0, "lat": 38.95066283333333, "fusion_lat": 0.0, "is_reserved": 0, "rental_uris": {"ios": "https://dc.lft.to/lastmile_qr_scan", "android": "https://dc.lft.to/lastmile_qr_scan"}, "fusion_lon": 0.0, "type": "electric_scooter", "bike_id": "df6c727c94e4cf3daad8a9b281609abc", "name": "df6c727c94e4cf3daad8a9b281609abc"}, {"lon": -77.08574066666667, "is_disabled": 0, "lat": 38.87420083333333, "fusion_lat": 0.0, "is_reserved": 0, "rental_uris": {"ios": "https://dc.lft.to/lastmile_qr_scan", "android": "https://dc.lft.to/lastmile_qr_scan"}, "fusion_lon": 0.0, "type": "electric_bike", "bike_id": "907712ef890b2890f25681bc85ae69c7", "name": "907712ef890b2890f25681bc85ae69c7"}, {"lon": -77.04444266666667, "is_disabled": 0, "lat": 38.8984615, "fusion_lat": 0.0, "is_reserved": 0, "rental_uris": {"ios": "https://dc.lft.to/lastmile_qr_scan", "android": "https://dc.lft.to/lastmile_qr_scan"}, "fusion_lon": 0.0, "type": "electric_scooter", "bike_id": "8b994cb53ae87cae33364f223f85db74", "name": "8b994cb53ae87cae33364f223f85db74"}, {"lon": -77.02626616666667, "is_disabled": 0, "lat": 38.89587366666667, "fusion_lat": 0.0, "is_reserved": 0, "rental_uris": {"ios": "https://dc.lft.to/lastmile_qr_scan", "android": "https://dc.lft.to/lastmile_qr_scan"}, "fusion_lon": 0.0, "type": "electric_scooter", "bike_id": "b367f4629bcdffb23dc5f6c31af1b3fb", "name": "b367f4629bcdffb23dc5f6c31af1b3fb"}, {"lon": -76.99629683333333, "is_disabled": 0, "lat": 38.88718166666666, "fusion_lat": 0.0, "is_reserved": 0, "rental_uris": {"ios": "https://dc.lft.to/lastmile_qr_scan", "android": "https://dc.lft.to/lastmile_qr_scan"}, "fusion_lon": 0.0, "type": "electric_scooter", "bike_id": "07b0d8cbf1f38144c7bb60eea7cd2fdc", "name": "07b0d8cbf1f38144c7bb60eea7cd2fdc"}, {"lon": -77.00337866666666, "is_disabled": 0, "lat": 38.8952275, "fusion_lat": 0.0, "is_reserved": 0, "rental_uris": {"ios": "https://dc.lft.to/lastmile_qr_scan", "android": "https://dc.lft.to/lastmile_qr_scan"}, "fusion_lon": 0.0, "type": "electric_scooter", "bike_id": "f44920d753a782368b1ee2ef793c1d81", "name": "f44920d753a782368b1ee2ef793c1d81"}, {"lon": -77.0366195, "is_disabled": 0, "lat": 38.9124495, "fusion_lat": 0.0, "is_reserved": 0, "rental_uris": {"ios": "https://dc.lft.to/lastmile_qr_scan", "android": "https://dc.lft.to/lastmile_qr_scan"}, "fusion_lon": 0.0, "type": "electric_scooter", "bike_id": "716736278b6e216f4665e0567ae61229", "name": "716736278b6e216f4665e0567ae61229"}, {"lon": -76.98831433333334, "is_disabled": 0, "lat": 38.89660083333333, "fusion_lat": 0.0, "is_reserved": 0, "rental_uris": {"ios": "https://dc.lft.to/lastmile_qr_scan", "android": "https://dc.lft.to/lastmile_qr_scan"}, "fusion_lon": 0.0, "type": "electric_scooter", "bike_id": "e1cee0401a4a6cb4419cfb1029558122", "name": "e1cee0401a4a6cb4419cfb1029558122"}, {"lon": -77.04458616666666, "is_disabled": 0, "lat": 38.9230415, "fusion_lat": 0.0, "is_reserved": 0, "rental_uris": {"ios": "https://dc.lft.to/lastmile_qr_scan", "android": "https://dc.lft.to/lastmile_qr_scan"}, "fusion_lon": 0.0, "type": "electric_scooter", "bike_id": "67605f41ef4984e416411df3ef403d4d", "name": "67605f41ef4984e416411df3ef403d4d"}, {"lon": -77.0386505, "is_disabled": 0, "lat": 38.93256, "fusion_lat": 0.0, "is_reserved": 0, "rental_uris": {"ios": "https://dc.lft.to/lastmile_qr_scan", "android": "https://dc.lft.to/lastmile_qr_scan"}, "fusion_lon": 0.0, "type": "electric_scooter", "bike_id": "a68a107b7962b566a808fed3f46dc331", "name": "a68a107b7962b566a808fed3f46dc331"}, {"lon": -77.0281995, "is_disabled": 0, "lat": 38.899166, "fusion_lat": 0.0, "is_reserved": 0, "rental_uris": {"ios": "https://dc.lft.to/lastmile_qr_scan", "android": "https://dc.lft.to/lastmile_qr_scan"}, "fusion_lon": 0.0, "type": "electric_scooter", "bike_id": "9a88f0601049b07ce0bc75d287f2c2e4", "name": "9a88f0601049b07ce0bc75d287f2c2e4"}, {"lon": -77.04817616666666, "is_disabled": 0, "lat": 38.909633166666666, "fusion_lat": 0.0, "is_reserved": 0, "rental_uris": {"ios": "https://dc.lft.to/lastmile_qr_scan", "android": "https://dc.lft.to/lastmile_qr_scan"}, "fusion_lon": 0.0, "type": "electric_scooter", "bike_id": "14599b41a34d4b7e7b8320cd031fd1fc", "name": "14599b41a34d4b7e7b8320cd031fd1fc"}, {"lon": -77.03736183333334, "is_disabled": 0, "lat": 38.920291666666664, "fusion_lat": 0.0, "is_reserved": 0, "rental_uris": {"ios": "https://dc.lft.to/lastmile_qr_scan", "android": "https://dc.lft.to/lastmile_qr_scan"}, "fusion_lon": 0.0, "type": "electric_scooter", "bike_id": "c3417c2e369cc53dd7a3cc3fed7d1021", "name": "c3417c2e369cc53dd7a3cc3fed7d1021"}, {"lon": -77.04340416666666, "is_disabled": 0, "lat": 38.90728, "fusion_lat": 0.0, "is_reserved": 0, "rental_uris": {"ios": "https://dc.lft.to/lastmile_qr_scan", "android": "https://dc.lft.to/lastmile_qr_scan"}, "fusion_lon": 0.0, "type": "electric_scooter", "bike_id": "9f340671e9d345d3a1c2caea0f8caf78", "name": "9f340671e9d345d3a1c2caea0f8caf78"}, {"lon": -77.0349735, "is_disabled": 0, "lat": 38.9170695, "fusion_lat": 0.0, "is_reserved": 0, "rental_uris": {"ios": "https://dc.lft.to/lastmile_qr_scan", "android": "https://dc.lft.to/lastmile_qr_scan"}, "fusion_lon": 0.0, "type": "electric_scooter", "bike_id": "006c2dc179e9bed8bcde3730643c3470", "name": "006c2dc179e9bed8bcde3730643c3470"}, {"lon": -77.03915, "is_disabled": 0, "lat": 38.916991833333334, "fusion_lat": 0.0, "is_reserved": 0, "rental_uris": {"ios": "https://dc.lft.to/lastmile_qr_scan", "android": "https://dc.lft.to/lastmile_qr_scan"}, "fusion_lon": 0.0, "type": "electric_scooter", "bike_id": "00aa01c16115653f69924979d0efc831", "name": "00aa01c16115653f69924979d0efc831"}, {"lon": -76.99990233333334, "is_disabled": 0, "lat": 38.96406916666667, "fusion_lat": 0.0, "is_reserved": 0, "rental_uris": {"ios": "https://dc.lft.to/lastmile_qr_scan", "android": "https://dc.lft.to/lastmile_qr_scan"}, "fusion_lon": 0.0, "type": "electric_bike", "bike_id": "1e8fdd29ca535cb127f3d987124c02f5", "name": "1e8fdd29ca535cb127f3d987124c02f5"}, {"lon": -77.04870683333333, "is_disabled": 0, "lat": 38.904040333333334, "fusion_lat": 0.0, "is_reserved": 0, "rental_uris": {"ios": "https://dc.lft.to/lastmile_qr_scan", "android": "https://dc.lft.to/lastmile_qr_scan"}, "fusion_lon": 0.0, "type": "electric_scooter", "bike_id": "61092f0149c5d67e76906d67b9282be6", "name": "61092f0149c5d67e76906d67b9282be6"}, {"lon": -77.04682533333333, "is_disabled": 0, "lat": 38.8954915, "fusion_lat": 0.0, "is_reserved": 0, "rental_uris": {"ios": "https://dc.lft.to/lastmile_qr_scan", "android": "https://dc.lft.to/lastmile_qr_scan"}, "fusion_lon": 0.0, "type": "electric_scooter", "bike_id": "7545b994d2d21da307a343ba6cc4eb6e", "name": "7545b994d2d21da307a343ba6cc4eb6e"}, {"lon": -77.06302983333333, "is_disabled": 0, "lat": 38.90396466666667, "fusion_lat": 0.0, "is_reserved": 0, "rental_uris": {"ios": "https://dc.lft.to/lastmile_qr_scan", "android": "https://dc.lft.to/lastmile_qr_scan"}, "fusion_lon": 0.0, "type": "electric_scooter", "bike_id": "04aad4b117b895bb9e43251b2c1645f5", "name": "04aad4b117b895bb9e43251b2c1645f5"}, {"lon": -77.0084565, "is_disabled": 0, "lat": 38.92231016666667, "fusion_lat": 0.0, "is_reserved": 0, "rental_uris": {"ios": "https://dc.lft.to/lastmile_qr_scan", "android": "https://dc.lft.to/lastmile_qr_scan"}, "fusion_lon": 0.0, "type": "electric_scooter", "bike_id": "7469d275610d3aca3f8d8f58792f53c3", "name": "7469d275610d3aca3f8d8f58792f53c3"}, {"lon": -76.97882266666667, "is_disabled": 0, "lat": 38.901928, "fusion_lat": 0.0, "is_reserved": 0, "rental_uris": {"ios": "https://dc.lft.to/lastmile_qr_scan", "android": "https://dc.lft.to/lastmile_qr_scan"}, "fusion_lon": 0.0, "type": "electric_scooter", "bike_id": "e1913b4982259fa3806b61f374cbfffb", "name": "e1913b4982259fa3806b61f374cbfffb"}, {"lon": -77.00593116666667, "is_disabled": 0, "lat": 38.876497666666666, "fusion_lat": 0.0, "is_reserved": 0, "rental_uris": {"ios": "https://dc.lft.to/lastmile_qr_scan", "android": "https://dc.lft.to/lastmile_qr_scan"}, "fusion_lon": 0.0, "type": "electric_scooter", "bike_id": "d68aa1dbe65504488923c8a98a27474a", "name": "d68aa1dbe65504488923c8a98a27474a"}, {"lon": -77.06379933333334, "is_disabled": 0, "lat": 38.9050925, "fusion_lat": 0.0, "is_reserved": 0, "rental_uris": {"ios": "https://dc.lft.to/lastmile_qr_scan", "android": "https://dc.lft.to/lastmile_qr_scan"}, "fusion_lon": 0.0, "type": "electric_scooter", "bike_id": "60eb605b46fc79896a037e37861e6e96", "name": "60eb605b46fc79896a037e37861e6e96"}, {"lon": -77.024987, "is_disabled": 0, "lat": 38.918057, "fusion_lat": 0.0, "is_reserved": 0, "rental_uris": {"ios": "https://dc.lft.to/lastmile_qr_scan", "android": "https://dc.lft.to/lastmile_qr_scan"}, "fusion_lon": 0.0, "type": "electric_scooter", "bike_id": "3fd6f123d1792e46ebc6dda6ec3ccb53", "name": "3fd6f123d1792e46ebc6dda6ec3ccb53"}, {"lon": -77.03480516666667, "is_disabled": 0, "lat": 38.88487133333334, "fusion_lat": 0.0, "is_reserved": 0, "rental_uris": {"ios": "https://dc.lft.to/lastmile_qr_scan", "android": "https://dc.lft.to/lastmile_qr_scan"}, "fusion_lon": 0.0, "type": "electric_scooter", "bike_id": "073cd4f8ab94d76c733e01df064fc488", "name": "073cd4f8ab94d76c733e01df064fc488"}, {"lon": -77.01216333333333, "is_disabled": 0, "lat": 38.898460166666666, "fusion_lat": 0.0, "is_reserved": 0, "rental_uris": {"ios": "https://dc.lft.to/lastmile_qr_scan", "android": "https://dc.lft.to/lastmile_qr_scan"}, "fusion_lon": 0.0, "type": "electric_scooter", "bike_id": "859a8617e5fc8d96e052191b3759916e", "name": "859a8617e5fc8d96e052191b3759916e"}, {"lon": -77.02249683333334, "is_disabled": 0, "lat": 38.9667805, "fusion_lat": 0.0, "is_reserved": 0, "rental_uris": {"ios": "https://dc.lft.to/lastmile_qr_scan", "android": "https://dc.lft.to/lastmile_qr_scan"}, "fusion_lon": 0.0, "type": "electric_bike", "bike_id": "12559394e5cb861ba209324c4ae84e2b", "name": "12559394e5cb861ba209324c4ae84e2b"}, {"lon": -76.9785435, "is_disabled": 0, "lat": 38.844685, "fusion_lat": 0.0, "is_reserved": 0, "rental_uris": {"ios": "https://dc.lft.to/lastmile_qr_scan", "android": "https://dc.lft.to/lastmile_qr_scan"}, "fusion_lon": 0.0, "type": "electric_bike", "bike_id": "3a27517c54ee7404c981c3fedce0e224", "name": "3a27517c54ee7404c981c3fedce0e224"}, {"lon": -77.02556366666667, "is_disabled": 0, "lat": 38.9095405, "fusion_lat": 0.0, "is_reserved": 0, "rental_uris": {"ios": "https://dc.lft.to/lastmile_qr_scan", "android": "https://dc.lft.to/lastmile_qr_scan"}, "fusion_lon": 0.0, "type": "electric_scooter", "bike_id": "a574c4b99218f987917decebdf1c153e", "name": "a574c4b99218f987917decebdf1c153e"}, {"lon": -76.9838315, "is_disabled": 0, "lat": 38.8794155, "fusion_lat": 0.0, "is_reserved": 0, "rental_uris": {"ios": "https://dc.lft.to/lastmile_qr_scan", "android": "https://dc.lft.to/lastmile_qr_scan"}, "fusion_lon": 0.0, "type": "electric_scooter", "bike_id": "72ac6f0035d4022b32f933a77aab255a", "name": "72ac6f0035d4022b32f933a77aab255a"}, {"lon": -77.05656666666667, "is_disabled": 0, "lat": 38.90604833333333, "fusion_lat": 0.0, "is_reserved": 0, "rental_uris": {"ios": "https://dc.lft.to/lastmile_qr_scan", "android": "https://dc.lft.to/lastmile_qr_scan"}, "fusion_lon": 0.0, "type": "electric_scooter", "bike_id": "7e9a3a22c30c9f14cb78e78a059a172e", "name": "7e9a3a22c30c9f14cb78e78a059a172e"},