{"data": {"bikes": [{"rental_uris": {"ios": "https://dc.lft.to/lastmile_qr_scan", "android": "https://dc.lft.to/lastmile_qr_scan"}, "lon": -77.04335983333333, "type": "electric_scooter", "fusion_lat": 0.0, "lat": 38.913954833333335, "name": "571be7847942db5fd70dad96b6ae6c76", "fusion_lon": 0.0, "bike_id": "571be7847942db5fd70dad96b6ae6c76", "is_disabled": 0, "is_reserved": 0}, {"rental_uris": {"ios": "https://dc.lft.to/lastmile_qr_scan", "android": "https://dc.lft.to/lastmile_qr_scan"}, "lon": -77.03668766666667, "type": "electric_scooter", "fusion_lat": 0.0, "lat": 38.91874416666667, "name": "9e289d5d432662abb79fdcd72527ae77", "fusion_lon": 0.0, "bike_id": "9e289d5d432662abb79fdcd72527ae77", "is_disabled": 0, "is_reserved": 0}, {"rental_uris": {"ios": "https://dc.lft.to/lastmile_qr_scan", "android": "https://dc.lft.to/lastmile_qr_scan"}, "lon": -76.93175033333333, "type": "electric_scooter", "fusion_lat": 0.0, "lat": 38.89886166666667, "name": "9e295735c0311eaa0584339f7ffdffdf", "fusion_lon": 0.0, "bike_id": "9e295735c0311eaa0584339f7ffdffdf", "is_disabled": 0, "is_reserved": 0}, {"rental_uris": {"ios": "https://dc.lft.to/lastmile_qr_scan", "android": "https://dc.lft.to/lastmile_qr_scan"}, "lon": -77.0487545, "type": "electric_scooter", "fusion_lat": 0.0, "lat": 38.90602, "name": "aa69514b898714d1cc8c38f300594c8e", "fusion_lon": 0.0, "bike_id": "aa69514b898714d1cc8c38f300594c8e", "is_disabled": 0, "is_reserved": 0}, {"rental_uris": {"ios": "https://dc.lft.to/lastmile_qr_scan", "android": "https://dc.lft.to/lastmile_qr_scan"}, "lon": -77.04415933333334, "type": "electric_scooter", "fusion_lat": 0.0, "lat": 38.913274333333334, "name": "ab087d1662e69d471f3c535cf375301f", "fusion_lon": 0.0, "bike_id": "ab087d1662e69d471f3c535cf375301f", "is_disabled": 0, "is_reserved": 0}, {"rental_uris": {"ios": "https://dc.lft.to/lastmile_qr_scan", "android": "https://dc.lft.to/lastmile_qr_scan"}, "lon": -77.01111933333334, "type": "electric_scooter", "fusion_lat": 0.0, "lat": 38.903736333333335, "name": "c6878a6eea8cf8792bf2247998637ba4", "fusion_lon": 0.0, "bike_id": "c6878a6eea8cf8792bf2247998637ba4", "is_disabled": 0, "is_reserved": 0}, {"rental_uris": {"ios": "https://dc.lft.to/lastmile_qr_scan", "android": "https://dc.lft.to/lastmile_qr_scan"}, "lon": -77.013165, "type": "electric_scooter", "fusion_lat": 0.0, "lat": 38.897451833333335, "name": "77cb0b49cee23d6cad30a93ce9c74762", "fusion_lon": 0.0, "bike_id": "77cb0b49cee23d6cad30a93ce9c74762", "is_disabled": 0, "is_reserved": 0}, {"rental_uris": {"ios": "https://dc.lft.to/lastmile_qr_scan", "android": "https://dc.lft.to/lastmile_qr_scan"}, "lon": -76.980115, "type": "electric_bike", "fusion_lat": 0.0, "lat": 38.9000665, "name": "8e1052e67d1a99e28d7a9ddb473c483a", "fusion_lon": 0.0, "bike_id": "8e1052e67d1a99e28d7a9ddb473c483a", "is_disabled": 0, "is_reserved": 0}, {"rental_uris": {"ios": "https://dc.lft.to/lastmile_qr_scan", "android": "https://dc.lft.to/lastmile_qr_scan"}, "lon": -77.04289666666666, "type": "electric_scooter", "fusion_lat": 0.0, "lat": 38.89535766666667, "name": "ee049903176d4f5aaf083ca0e0f1dae3", "fusion_lon": 0.0, "bike_id": "ee049903176d4f5aaf083ca0e0f1dae3", "is_disabled": 0, "is_reserved": 0}, {"rental_uris": {"ios": "https://dc.lft.to/lastmile_qr_scan", "android": "https://dc.lft.to/lastmile_qr_scan"}, "lon": -77.0136275, "type": "electric_scooter", "fusion_lat": 0.0, "lat": 38.886561, "name": "56bde0b039fca71e47b2b84eb0838870", "fusion_lon": 0.0, "bike_id": "56bde0b039fca71e47b2b84eb0838870", "is_disabled": 0, "is_reserved": 0}, {"rental_uris": {"ios": "https://dc.lft.to/lastmile_qr_scan", "android": "https://dc.lft.to/lastmile_qr_scan"}, "lon": -77.0237975, "type": "electric_scooter", "fusion_lat": 0.0, "lat": 38.93616933333333, "name": "3c5ea0d1c68bb84a0211b15335217835", "fusion_lon": 0.0, "bike_id": "3c5ea0d1c68bb84a0211b15335217835", "is_disabled": 0, "is_reserved": 0}, {"rental_uris": {"ios": "https://dc.lft.to/lastmile_qr_scan", "android": "https://dc.lft.to/lastmile_qr_scan"}, "lon": -76.95189233333333, "type": "electric_bike", "fusion_lat": 0.0, "lat": 38.90687366666667, "name": "5398f48e8823967bfdd13be2b1326440", "fusion_lon": 0.0, "bike_id": "5398f48e8823967bfdd13be2b1326440", "is_disabled": 0, "is_reserved": 0}, {"rental_uris": {"ios": "https://dc.lft.to/lastmile_qr_scan", "android": "https://dc.lft.to/lastmile_qr_scan"}, "lon": -77.028671, "type": "electric_scooter", "fusion_lat": 0.0, "lat": 38.9087195, "name": "b1d059c298342426254f86dad9eba073", "fusion_lon": 0.0, "bike_id": "b1d059c298342426254f86dad9eba073", "is_disabled": 0, "is_reserved": 0}, {"rental_uris": {"ios": "https://dc.lft.to/lastmile_qr_scan", "android": "https://dc.lft.to/lastmile_qr_scan"}, "lon": -77.05267383333333, "type": "electric_scooter", "fusion_lat": 0.0, "lat": 38.93442483333333, "name": "cc5964513e63f7770cf87d383973f92d", "fusion_lon": 0.0, "bike_id": "cc5964513e63f7770cf87d383973f92d", "is_disabled": 0, "is_reserved": 0}, {"rental_uris": {"ios": "https://dc.lft.to/lastmile_qr_scan", "android": "https://dc.lft.to/lastmile_qr_scan"}, "lon": -77.002101, "type": "electric_scooter", "fusion_lat": 0.0, "lat": 38.90031066666667, "name": "353c1f429be71f0dd453bdf8f238dec8", "fusion_lon": 0.0, "bike_id": "353c1f429be71f0dd453bdf8f238dec8", "is_disabled": 0, "is_reserved": 0}, {"rental_uris": {"ios": "https://dc.lft.to/lastmile_qr_scan", "android": "https://dc.lft.to/lastmile_qr_scan"}, "lon": -77.00203583333334, "type": "electric_bike", "fusion_lat": 0.0, "lat": 38.8830835, "name": "4bd3afab595bae56c80271110dab1826", "fusion_lon": 0.0, "bike_id": "4bd3afab595bae56c80271110dab1826", "is_disabled": 0, "is_reserved": 0}, {"rental_uris": {"ios": "https://dc.lft.to/lastmile_qr_scan", "android": "https://dc.lft.to/lastmile_qr_scan"}, "lon": -77.03118016666667, "type": "electric_scooter", "fusion_lat": 0.0, "lat": 38.91338433333333, "name": "0b49de1c66aabe293b6622d7accfd8da", "fusion_lon": 0.0, "bike_id": "0b49de1c66aabe293b6622d7accfd8da", "is_disabled": 0, "is_reserved": 0}, {"rental_uris": {"ios": "https://dc.lft.to/lastmile_qr_scan", "android": "https://dc.lft.to/lastmile_qr_scan"}, "lon": -77.0289605, "type": "electric_scooter", "fusion_lat": 0.0, "lat": 38.92571566666667, "name": "5f44a0ec94168740c4b36e6e93b58710", "fusion_lon": 0.0, "bike_id": "5f44a0ec94168740c4b36e6e93b58710", "is_disabled": 0, "is_reserved": 0}, {"rental_uris": {"ios": "https://dc.lft.to/lastmile_qr_scan", "android": "https://dc.lft.to/lastmile_qr_scan"}, "lon": -77.05887566666667, "type": "electric_scooter", "fusion_lat": 0.0, "lat": 38.936343666666666, "name": "6b38c0ab66f55b153fdaacafa1637a53", "fusion_lon": 0.0, "bike_id": "6b38c0ab66f55b153fdaacafa1637a53", "is_disabled": 0, "is_reserved": 0}, {"rental_uris": {"ios": "https://dc.lft.to/lastmile_qr_scan", "android": "https://dc.lft.to/lastmile_qr_scan"}, "lon": -76.97629966666666, "type": "electric_scooter", "fusion_lat": 0.0, "lat": 38.905793833333334, "name": "250226c7da2e8bc6e85dee1fa1fdbde9", "fusion_lon": 0.0, "bike_id": "250226c7da2e8bc6e85dee1fa1fdbde9", "is_disabled": 0, "is_reserved": 0}, {"rental_uris": {"ios": "https://dc.lft.to/lastmile_qr_scan", "android": "https://dc.lft.to/lastmile_qr_scan"}, "lon": -77.05204783333333, "type": "electric_scooter", "fusion_lat": 0.0, "lat": 38.924420833333336, "name": "7d4605035c58609f91ea93fb94ec81f0", "fusion_lon": 0.0, "bike_id": "7d4605035c58609f91ea93fb94ec81f0", "is_disabled": 0, "is_reserved": 0}, {"rental_uris": {"ios": "https://dc.lft.to/lastmile_qr_scan", "android": "https://dc.lft.to/lastmile_qr_scan"}, "lon": -77.0335075, "type": "electric_bike", "fusion_lat": 0.0, "lat": 38.968082333333335, "name": "45d14509a4d392ca0c381112babea26b", "fusion_lon": 0.0, "bike_id": "45d14509a4d392ca0c381112babea26b", "is_disabled": 0, "is_reserved": 0}, {"rental_uris": {"ios": "https://dc.lft.to/lastmile_qr_scan", "android": "https://dc.lft.to/lastmile_qr_scan"}, "lon": -76.994969, "type": "electric_scooter", "fusion_lat": 0.0, "lat": 38.862427833333335, "name": "7a1558d6b010b6400ef52567d67da29b", "fusion_lon": 0.0, "bike_id": "7a1558d6b010b6400ef52567d67da29b", "is_disabled": 0, "is_reserved": 0}, {"rental_uris": {"ios": "https://dc.lft.to/lastmile_qr_scan", "android": "https://dc.lft.to/lastmile_qr_scan"}, "lon": -76.9948795, "type": "electric_bike", "fusion_lat": 0.0, "lat": 38.899873666666664, "name": "ba438d11e2ec3d6206d57db9700c32b4", "fusion_lon": 0.0, "bike_id": "ba438d11e2ec3d6206d57db9700c32b4", "is_disabled": 0, "is_reserved": 0}, {"rental_uris": {"ios": "https://dc.lft.to/lastmile_qr_scan", "android": "https://dc.lft.to/lastmile_qr_scan"}, "lon": -77.04685916666666, "type": "electric_scooter", "fusion_lat": 0.0, "lat": 38.896111, "name": "1965a10d488ae54e6f3ea25bd71a35b0", "fusion_lon": 0.0, "bike_id": "1965a10d488ae54e6f3ea25bd71a35b0", "is_disabled": 0, "is_reserved": 0}, {"rental_uris": {"ios": "https://dc.lft.to/lastmile_qr_scan", "android": "https://dc.lft.to/lastmile_qr_scan"}, "lon": -77.047876, "type": "electric_scooter", "fusion_lat": 0.0, "lat": 38.9085165, "name": "3ee08cf4d24d63f3b7c3fdbde31b53d8", "fusion_lon": 0.0, "bike_id": "3ee08cf4d24d63f3b7c3fdbde31b53d8", "is_disabled": 0, "is_reserved": 0}, {"rental_uris": {"ios": "https://dc.lft.to/lastmile_qr_scan", "android": "https://dc.lft.to/lastmile_qr_scan"}, "lon": -77.02380616666666, "type": "electric_scooter", "fusion_lat": 0.0, "lat": 38.899691833333335, "name": "df4ef85a9a31d9922a9c8aa010614a96", "fusion_lon": 0.0, "bike_id": "df4ef85a9a31d9922a9c8aa010614a96", "is_disabled": 0, "is_reserved": 0}, {"rental_uris": {"ios": "https://dc.lft.to/lastmile_qr_scan", "android": "https://dc.lft.to/lastmile_qr_scan"}, "lon": -76.986788, "type": "electric_scooter", "fusion_lat": 0.0, "lat": 38.882171166666666, "name": "73cfd7cc1a9dd48b671591081c7e00e4", "fusion_lon": 0.0, "bike_id": "73cfd7cc1a9dd48b671591081c7e00e4", "is_disabled": 0, "is_reserved": 0}, {"rental_uris": {"ios": "https://dc.lft.to/lastmile_qr_scan", "android": "https://dc.lft.to/lastmile_qr_scan"}, "lon": -77.0317125, "type": "electric_scooter", "fusion_lat": 0.0, "lat": 38.9111615, "name": "db482e584a3ae51ffe0c627ba5bd4598", "fusion_lon": 0.0, "bike_id": "db482e584a3ae51ffe0c627ba5bd4598", "is_disabled": 0, "is_reserved": 0}, {"rental_uris": {"ios": "https://dc.lft.to/lastmile_qr_scan", "android": "https://dc.lft.to/lastmile_qr_scan"}, "lon": -77.03869966666667, "type": "electric_scooter", "fusion_lat": 0.0, "lat": 38.91566816666667, "name": "3567bba9766afa77de8d2983d82bc43d", "fusion_lon": 0.0, "bike_id": "3567bba9766afa77de8d2983d82bc43d", "is_disabled": 0, "is_reserved": 0}, {"rental_uris": {"ios": "https://dc.lft.to/lastmile_qr_scan", "android": "https://dc.lft.to/lastmile_qr_scan"}, "lon": -77.03194266666667, "type": "electric_scooter", "fusion_lat": 0.0, "lat": 38.90776566666667, "name": "dfd13d5e01f7849262e7db37c56de9c8", "fusion_lon": 0.0, "bike_id": "dfd13d5e01f7849262e7db37c56de9c8", "is_disabled": 0, "is_reserved": 0}, {"rental_uris": {"ios": "https://dc.lft.to/lastmile_qr_scan", "android": "https://dc.lft.to/lastmile_qr_scan"}, "lon": -77.02874666666666, "type": "electric_scooter", "fusion_lat": 0.0, "lat": 38.898607166666665, "name": "b8ad3f0e5a2f999e5d8d58d7ae99dee9", "fusion_lon": 0.0, "bike_id": "b8ad3f0e5a2f999e5d8d58d7ae99dee9", "is_disabled": 0, "is_reserved": 0}, {"rental_uris": {"ios": "https://dc.lft.to/lastmile_qr_scan", "android": "https://dc.lft.to/lastmile_qr_scan"}, "lon": -76.98202383333333, "type": "electric_scooter", "fusion_lat": 0.0, "lat": 38.9039445, "name": "ff992d1faa2c01429fd87f703a774a9c", "fusion_lon": 0.0, "bike_id": "ff992d1faa2c01429fd87f703a774a9c", "is_disabled": 0, "is_reserved": 0}, {"rental_uris": {"ios": "https://dc.lft.to/lastmile_qr_scan", "android": "https://dc.lft.to/lastmile_qr_scan"}, "lon": -77.0321135, "type": "electric_scooter", "fusion_lat": 0.0, "lat": 38.88556966666667, "name": "4655868884a5f38de733ad06e754c799", "fusion_lon": 0.0, "bike_id": "4655868884a5f38de733ad06e754c799", "is_disabled": 0, "is_reserved": 0}, {"rental_uris": {"ios": "https://dc.lft.to/lastmile_qr_scan", "android": "https://dc.lft.to/lastmile_qr_scan"}, "lon": -77.11525816666666, "type": "electric_bike", "fusion_lat": 0.0, "lat": 38.854951166666666, "name": "d631baf712fabce197944528daf4cef2", "fusion_lon": 0.0, "bike_id": "d631baf712fabce197944528daf4cef2", "is_disabled": 0, "is_reserved": 0}, {"rental_uris": {"ios": "https://dc.lft.to/lastmile_qr_scan", "android": "https://dc.lft.to/lastmile_qr_scan"}, "lon": -76.9926105, "type": "electric_scooter", "fusion_lat": 0.0, "lat": 38.9197365, "name": "ee479327ad60cb99937f451dfc02b830", "fusion_lon": 0.0, "bike_id": "ee479327ad60cb99937f451dfc02b830", "is_disabled": 0, "is_reserved": 0}, {"rental_uris": {"ios": "https://dc.lft.to/lastmile_qr_scan", "android": "https://dc.lft.to/lastmile_qr_scan"}, "lon": -77.03142766666667, "type": "electric_scooter", "fusion_lat": 0.0, "lat": 38.9113095, "name": "155a6d00cbed7bfa2b767b797f781766", "fusion_lon": 0.0, "bike_id": "155a6d00cbed7bfa2b767b797f781766", "is_disabled": 0, "is_reserved": 0}, {"rental_uris": {"ios": "https://dc.lft.to/lastmile_qr_scan", "android": "https://dc.lft.to/lastmile_qr_scan"}, "lon": -77.00730966666667, "type": "electric_scooter", "fusion_lat": 0.0, "lat": 38.87851883333333, "name": "1316265cb9fdbd08d342c3e2c7696ad4", "fusion_lon": 0.0, "bike_id": "1316265cb9fdbd08d342c3e2c7696ad4", "is_disabled": 0, "is_reserved": 0}, {"rental_uris": {"ios": "https://dc.lft.to/lastmile_qr_scan", "android": "https://dc.lft.to/lastmile_qr_scan"}, "lon": -77.04792383333333, "type": "electric_scooter", "fusion_lat": 0.0, "lat": 38.916482, "name": "c5eb688e094f66a20dcf49f6e328ee42", "fusion_lon": 0.0, "bike_id": "c5eb688e094f66a20dcf49f6e328ee42", "is_disabled": 0, "is_reserved": 0}, {"rental_uris": {"ios": "https://dc.lft.to/lastmile_qr_scan", "android": "https://dc.lft.to/lastmile_qr_scan"}, "lon": -77.04471533333333, "type": "electric_scooter", "fusion_lat": 0.0, "lat": 38.9112035, "name": "014e827da279ed3de5d581062e9db280", "fusion_lon": 0.0, "bike_id": "014e827da279ed3de5d581062e9db280", "is_disabled": 0, "is_reserved": 0}, {"rental_uris": {"ios": "https://dc.lft.to/lastmile_qr_scan", "android": "https://dc.lft.to/lastmile_qr_scan"}, "lon": -77.02382883333334, "type": "electric_scooter", "fusion_lat": 0.0, "lat": 38.93776616666667, "name": "456107c1b48bc492d7694640e3b9bb78", "fusion_lon": 0.0, "bike_id": "456107c1b48bc492d7694640e3b9bb78", "is_disabled": 0, "is_reserved": 0}, {"rental_uris": {"ios": "https://dc.lft.to/lastmile_qr_scan", "android": "https://dc.lft.to/lastmile_qr_scan"}, "lon": -77.041824, "type": "electric_scooter", "fusion_lat": 0.0, "lat": 38.920189666666666, "name": "f3a1adbbb5710ab6ab44feb4f6bd1ffc", "fusion_lon": 0.0, "bike_id": "f3a1adbbb5710ab6ab44feb4f6bd1ffc", "is_disabled": 0, "is_reserved": 0}, {"rental_uris": {"ios": "https://dc.lft.to/lastmile_qr_scan", "android": "https://dc.lft.to/lastmile_qr_scan"}, "lon": -77.01743516666667, "type": "electric_scooter", "fusion_lat": 0.0, "lat": 38.883348, "name": "5804e555df9a06182ead3dee5b712a23", "fusion_lon": 0.0, "bike_id": "5804e555df9a06182ead3dee5b712a23", "is_disabled": 0, "is_reserved": 0}, {"rental_uris": {"ios": "https://dc.lft.to/lastmile_qr_scan", "android": "https://dc.lft.to/lastmile_qr_scan"}, "lon": -77.0126145, "type": "electric_scooter", "fusion_lat": 0.0, "lat": 38.899663333333336, "name": "0cead732b4a7cbb05d6a457a283b9b46", "fusion_lon": 0.0, "bike_id": "0cead732b4a7cbb05d6a457a283b9b46", "is_disabled": 0, "is_reserved": 0}, {"rental_uris": {"ios": "https://dc.lft.to/lastmile_qr_scan", "android": "https://dc.lft.to/lastmile_qr_scan"}, "lon": -77.03964116666667, "type": "electric_scooter", "fusion_lat": 0.0, "lat": 38.92479316666667, "name": "2f3811082803ea1f56b7a6eb9f4c90c4", "fusion_lon": 0.0, "bike_id": "2f3811082803ea1f56b7a6eb9f4c90c4", "is_disabled": 0, "is_reserved": 0}, {"rental_uris": {"ios": "https://dc.lft.to/lastmile_qr_scan", "android": "https://dc.lft.to/lastmile_qr_scan"}, "lon": -76.99149166666666, "type": "electric_scooter", "fusion_lat": 0.0, "lat": 38.90042433333333, "name": "360c4e3360278ca686d0bd9f3b339511", "fusion_lon": 0.0, "bike_id": "360c4e3360278ca686d0bd9f3b339511", "is_disabled": 0, "is_reserved": 0}, {"rental_uris": {"ios": "https://dc.lft.to/lastmile_qr_scan", "android": "https://dc.lft.to/lastmile_qr_scan"}, "lon": -77.0117695, "type": "electric_scooter", "fusion_lat": 0.0, "lat": 38.900279833333336, "name": "8dbef07e3c606ed0f7a9d5750eb05a9e", "fusion_lon": 0.0, "bike_id": "8dbef07e3c606ed0f7a9d5750eb05a9e", "is_disabled": 0, "is_reserved": 0}, {"rental_uris": {"ios": "https://dc.lft.to/lastmile_qr_scan", "android": "https://dc.lft.to/lastmile_qr_scan"}, "lon": -76.98613433333334, "type": "electric_scooter", "fusion_lat": 0.0, "lat": 38.86830833333333, "name": "72b6771f2546923ec8c5dea377db4693", "fusion_lon": 0.0, "bike_id": "72b6771f2546923ec8c5dea377db4693", "is_disabled": 0, "is_reserved": 0}, {"rental_uris": {"ios": "https://dc.lft.to/lastmile_qr_scan", "android": "https://dc.lft.to/lastmile_qr_scan"}, "lon": -77.13596633333333, "type": "electric_bike", "fusion_lat": 0.0, "lat": 39.053483166666666, "name": "8dda2a7590290f33218a888c94b03bc3", "fusion_lon": 0.0, "bike_id": "8dda2a7590290f33218a888c94b03bc3", "is_disabled": 0, "is_reserved": 0}, {"rental_uris": {"ios": "https://dc.lft.to/lastmile_qr_scan", "android": "https://dc.lft.to/lastmile_qr_scan"}, "lon": -77.04203566666666, "type": "electric_scooter", "fusion_lat": 0.0, "lat": 38.900643333333335, "name": "c345943804589af7dee6ae84ea2c45dc", "fusion_lon": 0.0, "bike_id": "c345943804589af7dee6ae84ea2c45dc", "is_disabled": 0, "is_reserved": 0}, {"rental_uris": {"ios": "https://dc.lft.to/lastmile_qr_scan", "android": "https://dc.lft.to/lastmile_qr_scan"}, "lon": -77.034136, "type": "electric_scooter", "fusion_lat": 0.0, "lat": 38.90267733333334, "name": "64d9818f2270d4758a0d89a611a97268", "fusion_lon": 0.0, "bike_id": "64d9818f2270d4758a0d89a611a97268", "is_disabled": 0, "is_reserved": 0}, {"rental_uris": {"ios": "https://dc.lft.to/lastmile_qr_scan", "android": "https://dc.lft.to/lastmile_qr_scan"}, "lon": -76.98719016666666, "type": "electric_scooter", "fusion_lat": 0.0, "lat": 38.862693166666666, "name": "eacd7eaaf59bb7bf4af535f2b8d94c78", "fusion_lon": 0.0, "bike_id": "eacd7eaaf59bb7bf4af535f2b8d94c78", "is_disabled": 0, "is_reserved": 0}, {"rental_uris": {"ios": "https://dc.lft.to/lastmile_qr_scan", "android": "https://dc.lft.to/lastmile_qr_scan"}, "lon": -77.07880516666667, "type": "electric_scooter", "fusion_lat": 0.0, "lat": 38.92547416666667, "name": "b598ac84f37fa5dd4d5570f5cb704f28", "fusion_lon": 0.0, "bike_id": "b598ac84f37fa5dd4d5570f5cb704f28", "is_disabled": 0, "is_reserved": 0}, {"rental_uris": {"ios": "https://dc.lft.to/lastmile_qr_scan", "android": "https://dc.lft.to/lastmile_qr_scan"}, "lon": -77.03514783333334, "type": "electric_bike", "fusion_lat": 0.0, "lat": 38.96513483333333, "name": "8cc64c8f673b7104fc1b800f51dad263", "fusion_lon": 0.0, "bike_id": "8cc64c8f673b7104fc1b800f51dad263", "is_disabled": 0, "is_reserved": 0}, {"rental_uris": {"ios": "https://dc.lft.to/lastmile_qr_scan", "android": "https://dc.lft.to/lastmile_qr_scan"}, "lon": -77.04055583333333, "type": "electric_scooter", "fusion_lat": 0.0, "lat": 38.9028705, "name": "12d6f1620579263c16d75b74d93b44c1", "fusion_lon": 0.0, "bike_id": "12d6f1620579263c16d75b74d93b44c1", "is_disabled": 0, "is_reserved": 0}, {"rental_uris": {"ios": "https://dc.lft.to/lastmile_qr_scan", "android": "https://dc.lft.to/lastmile_qr_scan"}, "lon": -77.03868183333333, "type": "electric_scooter", "fusion_lat": 0.0, "lat": 38.9202325, "name": "4713c034b5bdbea609373714c5c64316", "fusion_lon": 0.0, "bike_id": "4713c034b5bdbea609373714c5c64316", "is_disabled": 0, "is_reserved": 0}, {"rental_uris": {"ios": "https://dc.lft.to/lastmile_qr_scan", "android": "https://dc.lft.to/lastmile_qr_scan"}, "lon": -77.0117615, "type": "electric_scooter", "fusion_lat": 0.0, "lat": 38.900281166666666, "name": "dc4ea317988a78fc54b70108adb52305", "fusion_lon": 0.0, "bike_id": "dc4ea317988a78fc54b70108adb52305", "is_disabled": 0, "is_reserved": 0}, {"rental_uris": {"ios": "https://dc.lft.to/lastmile_qr_scan", "android": "https://dc.lft.to/lastmile_qr_scan"}, "lon": -76.97880766666667, "type": "electric_scooter", "fusion_lat": 0.0, "lat": 38.88508816666667, "name": "723a35eb506b63261a0ed9cd80a42ed6", "fusion_lon": 0.0, "bike_id": "723a35eb506b63261a0ed9cd80a42ed6", "is_disabled": 0, "is_reserved": 0}, {"rental_uris": {"ios": "https://dc.lft.to/lastmile_qr_scan", "android": "https://dc.lft.to/lastmile_qr_scan"}, "lon": -77.0109745, "type": "electric_scooter", "fusion_lat": 0.0, "lat": 38.89449333333334, "name": "26d2469b128ea38d9cd13e2e67b14702", "fusion_lon": 0.0, "bike_id": "26d2469b128ea38d9cd13e2e67b14702", "is_disabled": 0, "is_reserved": 0}, {"rental_uris": {"ios": "https://dc.lft.to/lastmile_qr_scan", "android": "https://dc.lft.to/lastmile_qr_scan"}, "lon": -77.01481333333334, "type": "electric_scooter", "fusion_lat": 0.0, "lat": 38.88125566666667, "name": "d9821d30c7cb9470e312189aa937e47d", "fusion_lon": 0.0, "bike_id": "d9821d30c7cb9470e312189aa937e47d", "is_disabled": 0, "is_reserved": 0}, {"rental_uris": {"ios": "https://dc.lft.to/lastmile_qr_scan", "android": "https://dc.lft.to/lastmile_qr_scan"}, "lon": -77.03614583333334, "type": "electric_scooter", "fusion_lat": 0.0, "lat": 38.92333133333333, "name": "26634bce621775ab1a8920d09848f291", "fusion_lon": 0.0, "bike_id": "26634bce621775ab1a8920d09848f291", "is_disabled": 0, "is_reserved": 0}, {"rental_uris": {"ios": "https://dc.lft.to/lastmile_qr_scan", "android": "https://dc.lft.to/lastmile_qr_scan"}, "lon": -76.9869735, "type": "electric_scooter", "fusion_lat": 0.0, "lat": 38.907035666666665, "name": "094b98bda06a6c31c03976037cb98715", "fusion_lon": 0.0, "bike_id": "094b98bda06a6c31c03976037cb98715", "is_disabled": 0, "is_reserved": 0}, {"rental_uris": {"ios": "https://dc.lft.to/lastmile_qr_scan", "android": "https://dc.lft.to/lastmile_qr_scan"}, "lon": -77.03290166666666, "type": "electric_scooter", "fusion_lat": 0.0, "lat": 38.91007066666667, "name": "9f6824f6dd905d867201488484a768f6", "fusion_lon": 0.0, "bike_id": "9f6824f6dd905d867201488484a768f6", "is_disabled": 0, "is_reserved": 0}, {"rental_uris": {"ios": "https://dc.lft.to/lastmile_qr_scan", "android": "https://dc.lft.to/lastmile_qr_scan"}, "lon": -77.02617783333334, "type": "electric_scooter", "fusion_lat": 0.0, "lat": 38.905688, "name": "2513c876f916fab7997e00aa2e08f8db", "fusion_lon": 0.0, "bike_id": "2513c876f916fab7997e00aa2e08f8db", "is_disabled": 0, "is_reserved": 0}, {"rental_uris": {"ios": "https://dc.lft.to/lastmile_qr_scan", "android": "https://dc.lft.to/lastmile_qr_scan"}, "lon": -77.053856, "type": "electric_bike", "fusion_lat": 0.0, "lat": 38.90391616666667, "name": "488ffb9c301502f69193ad5d63d7187d", "fusion_lon": 0.0, "bike_id": "488ffb9c301502f69193ad5d63d7187d", "is_disabled": 0, "is_reserved": 0}, {"rental_uris": {"ios": "https://dc.lft.to/lastmile_qr_scan", "android": "https://dc.lft.to/lastmile_qr_scan"}, "lon": -77.02620116666667, "type": "electric_scooter", "fusion_lat": 0.0, "lat": 38.915274333333336, "name": "e0c385c43d375603e525ca67ae0246ee", "fusion_lon": 0.0, "bike_id": "e0c385c43d375603e525ca67ae0246ee", "is_disabled": 0, "is_reserved": 0}, {"rental_uris": {"ios": "https://dc.lft.to/lastmile_qr_scan", "android": "https://dc.lft.to/lastmile_qr_scan"}, "lon": -77.03836283333334, "type": "electric_scooter", "fusion_lat": 0.0, "lat": 38.908199833333335, "name": "b252fb7cd8085332f17274387a3eb88f", "fusion_lon": 0.0, "bike_id": "b252fb7cd8085332f17274387a3eb88f", "is_disabled": 0, "is_reserved": 0}, {"rental_uris": {"ios": "https://dc.lft.to/lastmile_qr_scan", "android": "https://dc.lft.to/lastmile_qr_scan"}, "lon": -77.0356535, "type": "electric_scooter", "fusion_lat": 0.0, "lat": 38.93990433333333, "name": "40c4624a88f23b011cb85da3cc5a63d4", "fusion_lon": 0.0, "bike_id": "40c4624a88f23b011cb85da3cc5a63d4", "is_disabled": 0, "is_reserved": 0}, {"rental_uris": {"ios": "https://dc.lft.to/lastmile_qr_scan", "android": "https://dc.lft.to/lastmile_qr_scan"}, "lon": -77.05477466666666, "type": "electric_scooter", "fusion_lat": 0.0, "lat": 38.91065583333334, "name": "d836dab75cc072ce981055552e108219", "fusion_lon": 0.0, "bike_id": "d836dab75cc072ce981055552e108219", "is_disabled": 0, "is_reserved": 0}, {"rental_uris": {"ios": "https://dc.lft.to/lastmile_qr_scan", "android": "https://dc.lft.to/lastmile_qr_scan"}, "lon": -76.9945995, "type": "electric_scooter", "fusion_lat": 0.0, "lat": 38.85162733333333, "name": "3b2c713292aab648b57b766493289b30", "fusion_lon": 0.0, "bike_id": "3b2c713292aab648b57b766493289b30", "is_disabled": 0, "is_reserved": 0}, {"rental_uris": {"ios": "https://dc.lft.to/lastmile_qr_scan", "android": "https://dc.lft.to/lastmile_qr_scan"}, "lon": -77.05520916666667, "type": "electric_scooter", "fusion_lat": 0.0, "lat": 38.925323666666664, "name": "25bc3186cac27116c3e96b11cd94ef98", "fusion_lon": 0.0, "bike_id": "25bc3186cac27116c3e96b11cd94ef98", "is_disabled": 0, "is_reserved": 0}, {"rental_uris": {"ios": "https://dc.lft.to/lastmile_qr_scan", "android": "https://dc.lft.to/lastmile_qr_scan"}, "lon": -77.0556625, "type": "electric_scooter", "fusion_lat": 0.0, "lat": 38.899838333333335, "name": "56f4acb50f6f5805c2eb39d5fcaefe71", "fusion_lon": 0.0, "bike_id": "56f4acb50f6f5805c2eb39d5fcaefe71", "is_disabled": 0, "is_reserved": 0}, {"rental_uris": {"ios": "https://dc.lft.to/lastmile_qr_scan", "android": "https://dc.lft.to/lastmile_qr_scan"}, "lon": -77.0386535, "type": "electric_scooter", "fusion_lat": 0.0, "lat": 38.909648, "name": "60455f492d2e75cc25fd622b039f0857", "fusion_lon": 0.0, "bike_id": "60455f492d2e75cc25fd622b039f0857", "is_disabled": 0, "is_reserved": 0}, {"rental_uris": {"ios": "https://dc.lft.to/lastmile_qr_scan", "android": "https://dc.lft.to/lastmile_qr_scan"}, "lon": -77.02137583333334, "type": "electric_scooter", "fusion_lat": 0.0, "lat": 38.89496483333333, "name": "431c1307ef5b5ddf3fb77aabbcb741b7", "fusion_lon": 0.0, "bike_id": "431c1307ef5b5ddf3fb77aabbcb741b7", "is_disabled": 0, "is_reserved": 0}, {"rental_uris": {"ios": "https://dc.lft.to/lastmile_qr_scan", "android": "https://dc.lft.to/lastmile_qr_scan"}, "lon": -77.04247816666667, "type": "electric_bike", "fusion_lat": 0.0, "lat": 38.9227865, "name": "c921f778f4cb212c10a3c1f0aeef9f10", "fusion_lon": 0.0, "bike_id": "c921f778f4cb212c10a3c1f0aeef9f10", "is_disabled": 0, "is_reserved": 0}, {"rental_uris": {"ios": "https://dc.lft.to/lastmile_qr_scan", "android": "https://dc.lft.to/lastmile_qr_scan"}, "lon": -76.93966516666667, "type": "electric_scooter", "fusion_lat": 0.0, "lat": 38.89970916666667, "name": "6aa7459e594ccfce64bfa67b7687cde8", "fusion_lon": 0.0, "bike_id": "6aa7459e594ccfce64bfa67b7687cde8", "is_disabled": 0, "is_reserved": 0}, {"rental_uris": {"ios": "https://dc.lft.to/lastmile_qr_scan", "android": "https://dc.lft.to/lastmile_qr_scan"}, "lon": -76.95756783333333, "type": "electric_scooter", "fusion_lat": 0.0, "lat": 38.884307166666666, "name": "391d79d70145bf4084e82cc57c707026", "fusion_lon": 0.0, "bike_id": "391d79d70145bf4084e82cc57c707026", "is_disabled": 0, "is_reserved": 0}, {"rental_uris": {"ios": "https://dc.lft.to/lastmile_qr_scan", "android": "https://dc.lft.to/lastmile_qr_scan"}, "lon": -77.08054433333334, "type": "electric_bike", "fusion_lat": 0.0, "lat": 38.8484435, "name": "452b158b1d8ff966aec5eb78c6f91494", "fusion_lon": 0.0, "bike_id": "452b158b1d8ff966aec5eb78c6f91494", "is_disabled": 0, "is_reserved": 0}, {"rental_uris": {"ios": "https://dc.lft.to/lastmile_qr_scan", "android": "https://dc.lft.to/lastmile_qr_scan"}, "lon": -76.98605716666667, "type": "electric_scooter", "fusion_lat": 0.0, "lat": 38.87848733333333, "name": "4ab3d8f02e709cd96f5d2756c499fdf9", "fusion_lon": 0.0, "bike_id": "4ab3d8f02e709cd96f5d2756c499fdf9", "is_disabled": 0, "is_reserved": 0}, {"rental_uris": {"ios": "https://dc.lft.to/lastmile_qr_scan", "android": "https://dc.lft.to/lastmile_qr_scan"}, "lon": -77.03190133333334, "type": "electric_scooter", "fusion_lat": 0.0, "lat": 38.919858, "name": "54aa9609059e7ddd9f7660b7bd27f673", "fusion_lon": 0.0, "bike_id": "54aa9609059e7ddd9f7660b7bd27f673", "is_disabled": 0, "is_reserved": 0}, {"rental_uris": {"ios": "https://dc.lft.to/lastmile_qr_scan", "android": "https://dc.lft.to/lastmile_qr_scan"}, "lon": -77.024317, "type": "electric_scooter", "fusion_lat": 0.0, "lat": 38.90721633333333, "name": "8bc89441cbfd6f92d0fc79b22f082d92", "fusion_lon": 0.0, "bike_id": "8bc89441cbfd6f92d0fc79b22f082d92", "is_disabled": 0, "is_reserved": 0}, {"rental_uris": {"ios": "https://dc.lft.to/lastmile_qr_scan", "android": "https://dc.lft.to/lastmile_qr_scan"}, "lon": -76.98132866666667, "type": "electric_scooter", "fusion_lat": 0.0, "lat": 38.85709266666667, "name": "6a962fea09e430179e403e532a30e4cc", "fusion_lon": 0.0, "bike_id": "6a962fea09e430179e403e532a30e4cc", "is_disabled": 0, "is_reserved": 0}, {"rental_uris": {"ios": "https://dc.lft.to/lastmile_qr_scan", "android": "https://dc.lft.to/lastmile_qr_scan"}, "lon": -77.01246116666667, "type": "electric_scooter", "fusion_lat": 0.0, "lat": 38.9171305, "name": "8a7057eb9b338975a442930ab11fffba", "fusion_lon": 0.0, "bike_id": "8a7057eb9b338975a442930ab11fffba", "is_disabled": 0, "is_reserved": 0}, {"rental_uris": {"ios": "https://dc.lft.to/lastmile_qr_scan", "android": "https://dc.lft.to/lastmile_qr_scan"}, "lon": -76.95470066666667, "type": "electric_bike", "fusion_lat": 0.0, "lat": 38.8864035, "name": "9f4155f0c7cd783b31ae6dbdddd9ae5a", "fusion_lon": 0.0, "bike_id": "9f4155f0c7cd783b31ae6dbdddd9ae5a", "is_disabled": 0, "is_reserved": 0}, {"rental_uris": {"ios": "https://dc.lft.to/lastmile_qr_scan", "android": "https://dc.lft.to/lastmile_qr_scan"}, "lon": -77.00334816666667, "type": "electric_scooter", "fusion_lat": 0.0, "lat": 38.89726, "name": "885f1a3423f957f2daf0df00104b1a2b", "fusion_lon": 0.0, "bike_id": "885f1a3423f957f2daf0df00104b1a2b", "is_disabled": 0, "is_reserved": 0}, {"rental_uris": {"ios": "https://dc.lft.to/lastmile_qr_scan", "android": "https://dc.lft.to/lastmile_qr_scan"}, "lon": -77.0598515, "type": "electric_scooter", "fusion_lat": 0.0, "lat": 38.93552716666667, "name": "4f0d3a0f9f1370a56dd0e978acd49883", "fusion_lon": 0.0, "bike_id": "4f0d3a0f9f1370a56dd0e978acd49883", "is_disabled": 0, "is_reserved": 0}, {"rental_uris": {"ios": "https://dc.lft.to/lastmile_qr_scan", "android": "https://dc.lft.to/lastmile_qr_scan"}, "lon": -77.0521155, "type": "electric_scooter", "fusion_lat": 0.0, "lat": 38.89812716666667, "name": "b0c443464919fa9e8a38b0bf287d0d72", "fusion_lon": 0.0, "bike_id": "b0c443464919fa9e8a38b0bf287d0d72", "is_disabled": 0, "is_reserved": 0}, {"rental_uris": {"ios": "https://dc.lft.to/lastmile_qr_scan", "android": "https://dc.lft.to/lastmile_qr_scan"}, "lon": -77.1180205, "type": "electric_bike", "fusion_lat": 0.0, "lat": 38.8983745, "name": "838ef77e5b09eef66c6e71d96f3d353f", "fusion_lon": 0.0, "bike_id": "838ef77e5b09eef66c6e71d96f3d353f", "is_disabled": 0, "is_reserved": 0}, {"rental_uris": {"ios": "https://dc.lft.to/lastmile_qr_scan", "android": "https://dc.lft.to/lastmile_qr_scan"}, "lon": -77.02963866666667, "type": "electric_scooter", "fusion_lat": 0.0, "lat": 38.92568516666667, "name": "dd9d59ed3057504f06b1797b92a0f77e", "fusion_lon": 0.0, "bike_id": "dd9d59ed3057504f06b1797b92a0f77e", "is_disabled": 0, "is_reserved": 0}, {"rental_uris": {"ios": "https://dc.lft.to/lastmile_qr_scan", "android": "https://dc.lft.to/lastmile_qr_scan"}, "lon": -77.03850333333334, "type": "electric_scooter", "fusion_lat": 0.0, "lat": 38.9264935, "name": "b3de7b951affe98afd0957b66aa09e01", "fusion_lon": 0.0, "bike_id": "b3de7b951affe98afd0957b66aa09e01", "is_disabled": 0, "is_reserved": 0}, {"rental_uris": {"ios": "https://dc.lft.to/lastmile_qr_scan", "android": "https://dc.lft.to/lastmile_qr_scan"}, "lon": -77.01515933333333, "type": "electric_scooter", "fusion_lat": 0.0, "lat": 38.887418333333336, "name": "7496fcd0bc2f1a873bbc01fd75306cbc", "fusion_lon": 0.0, "bike_id": "7496fcd0bc2f1a873bbc01fd75306cbc", "is_disabled": 0, "is_reserved": 0}, {"rental_uris": {"ios": "https://dc.lft.to/lastmile_qr_scan", "android": "https://dc.lft.to/lastmile_qr_scan"}, "lon": -77.04624616666666, "type": "electric_scooter", "fusion_lat": 0.0, "lat": 38.91900283333333, "name": "1693fd9bbcdccb0bbae964c2e2add282", "fusion_lon": 0.0, "bike_id": "1693fd9bbcdccb0bbae964c2e2add282", "is_disabled": 0, "is_reserved": 0}, {"rental_uris": {"ios": "https://dc.lft.to/lastmile_qr_scan", "android": "https://dc.lft.to/lastmile_qr_scan"}, "lon": -77.00943083333334, "type": "electric_scooter", "fusion_lat": 0.0, "lat": 38.8719525, "name": "592f9b4c86819c3ec427907d24cd3115", "fusion_lon": 0.0, "bike_id": "592f9b4c86819c3ec427907d24cd3115", "is_disabled": 0, "is_reserved": 0}, {"rental_uris": {"ios": "https://dc.lft.to/lastmile_qr_scan", "android": "https://dc.lft.to/lastmile_qr_scan"}, "lon": -76.97464, "type": "electric_scooter", "fusion_lat": 0.0, "lat": 38.8654195, "name": "74dd3f009f8f648df416e3f1151e0b09", "fusion_lon": 0.0, "bike_id": "74dd3f009f8f648df416e3f1151e0b09", "is_disabled": 0, "is_reserved": 0}, {"rental_uris": {"ios": "https://dc.lft.to/lastmile_qr_scan", "android": "https://dc.lft.to/lastmile_qr_scan"}, "lon": -77.03212466666666, "type": "electric_scooter", "fusion_lat": 0.0, "lat": 38.90037683333333, "name": "0c274d67733a41c7b908b2e4fa6ee422", "fusion_lon": 0.0, "bike_id": "0c274d67733a41c7b908b2e4fa6ee422", "is_disabled": 0, "is_reserved": 0}, {"rental_uris": {"ios": "https://dc.lft.to/lastmile_qr_scan", "android": "https://dc.lft.to/lastmile_qr_scan"}, "lon": -76.99060016666667, "type": "electric_scooter", "fusion_lat": 0.0, "lat": 38.86366433333333, "name": "bc029b4a7d4146552bddd31c26d91554", "fusion_lon": 0.0, "bike_id": "bc029b4a7d4146552bddd31c26d91554", "is_disabled": 0, "is_reserved": 0}, {"rental_uris": {"ios": "https://dc.lft.to/lastmile_qr_scan", "android": "https://dc.lft.to/lastmile_qr_scan"}, "lon": -77.0222885, "type": "electric_scooter", "fusion_lat": 0.0, "lat": 38.9126865, "name": "efda1c508e81c64048050bc05703c1e6", "fusion_lon": 0.0, "bike_id": "efda1c508e81c64048050bc05703c1e6", "is_disabled": 0, "is_reserved": 0}, {"rental_uris": {"ios": "https://dc.lft.to/lastmile_qr_scan", "android": "https://dc.lft.to/lastmile_qr_scan"}, "lon": -77.03395033333334, "type": "electric_scooter", "fusion_lat": 0.0, "lat": 38.92161483333334, "name": "c1a691cf0a664c94f97786b7ec03c7c7", "fusion_lon": 0.0, "bike_id": "c1a691cf0a664c94f97786b7ec03c7c7", "is_disabled": 0, "is_reserved": 0}, {"rental_uris": {"ios": "https://dc.lft.to/lastmile_qr_scan", "android": "https://dc.lft.to/lastmile_qr_scan"}, "lon": -76.9879515, "type": "electric_bike", "fusion_lat": 0.0, "lat": 38.9042105, "name": "30c07c10a530c3a1dc92fad277e40b93", "fusion_lon": 0.0, "bike_id": "30c07c10a530c3a1dc92fad277e40b93", "is_disabled": 0, "is_reserved": 0}, {"rental_uris": {"ios": "https://dc.lft.to/lastmile_qr_scan", "android": "https://dc.lft.to/lastmile_qr_scan"}, "lon": -77.05419966666666, "type": "electric_scooter", "fusion_lat": 0.0, "lat": 38.90396666666667, "name": "e493ab8734f0995e10a07b49af9879fa", "fusion_lon": 0.0, "bike_id": "e493ab8734f0995e10a07b49af9879fa", "is_disabled": 0, "is_reserved": 0}, {"rental_uris": {"ios": "https://dc.lft.to/lastmile_qr_scan", "android": "https://dc.lft.to/lastmile_qr_scan"}, "lon": -77.02590283333333, "type": "electric_scooter", "fusion_lat": 0.0, "lat": 38.9155445, "name": "b7bfea4dcfd5bca37f62eeea72b8c835", "fusion_lon": 0.0, "bike_id": "b7bfea4dcfd5bca37f62eeea72b8c835", "is_disabled": 0, "is_reserved": 0}, {"rental_uris": {"ios": "https://dc.lft.to/lastmile_qr_scan", "android": "https://dc.lft.to/lastmile_qr_scan"}, "lon": -77.04711216666666, "type": "electric_scooter", "fusion_lat": 0.0, "lat": 38.89735366666667, "name": "394292b35c43263a85b4607602c52908", "fusion_lon": 0.0, "bike_id": "394292b35c43263a85b4607602c52908", "is_disabled": 0, "is_reserved": 0}, {"rental_uris": {"ios": "https://dc.lft.to/lastmile_qr_scan", "android": "https://dc.lft.to/lastmile_qr_scan"}, "lon": -77.02510516666666, "type": "electric_bike", "fusion_lat": 0.0, "lat": 38.93417733333333, "name": "e4480b7cf893464b4ec533d31b9ce3b5", "fusion_lon": 0.0, "bike_id": "e4480b7cf893464b4ec533d31b9ce3b5", "is_disabled": 0, "is_reserved": 0}, {"rental_uris": {"ios": "https://dc.lft.to/lastmile_qr_scan", "android": "https://dc.lft.to/lastmile_qr_scan"}, "lon": -77.1309535, "type": "electric_bike", "fusion_lat": 0.0, "lat": 38.861628833333334, "name": "5a55fb46cf9243c4e21461bd1e0c485b", "fusion_lon": 0.0, "bike_id": "5a55fb46cf9243c4e21461bd1e0c485b", "is_disabled": 0, "is_reserved": 0}, {"rental_uris": {"ios": "https://dc.lft.to/lastmile_qr_scan", "android": "https://dc.lft.to/lastmile_qr_scan"}, "lon": -76.99076533333333, "type": "electric_scooter", "fusion_lat": 0.0, "lat": 38.90418966666667, "name": "12bb74855f73f56a726a4374e65fdc6d", "fusion_lon": 0.0, "bike_id": "12bb74855f73f56a726a4374e65fdc6d", "is_disabled": 0, "is_reserved": 0}, {"rental_uris": {"ios": "https://dc.lft.to/lastmile_qr_scan", "android": "https://dc.lft.to/lastmile_qr_scan"}, "lon": -77.02708666666666, "type": "electric_scooter", "fusion_lat": 0.0, "lat": 38.90664183333333, "name": "78a35fb6761d9f5003c0a929fbcc0938", "fusion_lon": 0.0, "bike_id": "78a35fb6761d9f5003c0a929fbcc0938", "is_disabled": 0, "is_reserved": 0}, {"rental_uris": {"ios": "https://dc.lft.to/lastmile_qr_scan", "android": "https://dc.lft.to/lastmile_qr_scan"}, "lon": -77.043712, "type": "electric_scooter", "fusion_lat": 0.0, "lat": 38.92067083333333, "name": "178b2dddfc18e31d778b804fd45d09af", "fusion_lon": 0.0, "bike_id": "178b2dddfc18e31d778b804fd45d09af", "is_disabled": 0, "is_reserved": 0}, {"rental_uris": {"ios": "https://dc.lft.to/lastmile_qr_scan", "android": "https://dc.lft.to/lastmile_qr_scan"}, "lon": -77.0232445, "type": "electric_scooter", "fusion_lat": 0.0, "lat": 38.8834245, "name": "1b203e115e395f2feaa288662b323b4f", "fusion_lon": 0.0, "bike_id": "1b203e115e395f2feaa288662b323b4f", "is_disabled": 0, "is_reserved": 0}, {"rental_uris": {"ios": "https://dc.lft.to/lastmile_qr_scan", "android": "https://dc.lft.to/lastmile_qr_scan"}, "lon": -77.019773, "type": "electric_bike", "fusion_lat": 0.0, "lat": 38.95658016666667, "name": "3b41a2e77a9ecddb054415712ee50949", "fusion_lon": 0.0, "bike_id": "3b41a2e77a9ecddb054415712ee50949", "is_disabled": 0, "is_reserved": 0}, {"rental_uris": {"ios": "https://dc.lft.to/lastmile_qr_scan", "android": "https://dc.lft.to/lastmile_qr_scan"}, "lon": -77.0076215, "type": "electric_scooter", "fusion_lat": 0.0, "lat": 38.910359, "name": "80bb7feec9250903423c07526d9c8b10", "fusion_lon": 0.0, "bike_id": "80bb7feec9250903423c07526d9c8b10", "is_disabled": 0, "is_reserved": 0}, {"rental_uris": {"ios": "https://dc.lft.to/lastmile_qr_scan", "android": "https://dc.lft.to/lastmile_qr_scan"}, "lon": -77.03977166666667, "type": "electric_scooter", "fusion_lat": 0.0, "lat": 38.9012885, "name": "eed6f913d05a13f38389520e79863cde", "fusion_lon": 0.0, "bike_id": "eed6f913d05a13f38389520e79863cde", "is_disabled": 0, "is_reserved": 0}, {"rental_uris": {"ios": "https://dc.lft.to/lastmile_qr_scan", "android": "https://dc.lft.to/lastmile_qr_scan"}, "lon": -76.98509383333334, "type": "electric_scooter", "fusion_lat": 0.0, "lat": 38.900878, "name": "138a9aab9f5c125597ad8afcf060c2e9", "fusion_lon": 0.0, "bike_id": "138a9aab9f5c125597ad8afcf060c2e9", "is_disabled": 0, "is_reserved": 0}, {"rental_uris": {"ios": "https://dc.lft.to/lastmile_qr_scan", "android": "https://dc.lft.to/lastmile_qr_scan"}, "lon": -77.04203666666666, "type": "electric_scooter", "fusion_lat": 0.0, "lat": 38.911069833333336, "name": "e546e7098d21e3fd0366b47d34268705", "fusion_lon": 0.0, "bike_id": "e546e7098d21e3fd0366b47d34268705", "is_disabled": 0, "is_reserved": 0}, {"rental_uris": {"ios": "https://dc.lft.to/lastmile_qr_scan", "android": "https://dc.lft.to/lastmile_qr_scan"}, "lon": -77.09168333333334, "type": "electric_bike", "fusion_lat": 0.0, "lat": 38.967597833333336, "name": "9366a08233a98afadeae434c8faf0b58", "fusion_lon": 0.0, "bike_id": "9366a08233a98afadeae434c8faf0b58", "is_disabled": 0, "is_reserved": 0}, {"rental_uris": {"ios": "https://dc.lft.to/lastmile_qr_scan", "android": "https://dc.lft.to/lastmile_qr_scan"}, "lon": -77.04696566666667, "type": "electric_scooter", "fusion_lat": 0.0, "lat": 38.89744316666667, "name": "194627282fb39e4be3376399a3d208c8", "fusion_lon": 0.0, "bike_id": "194627282fb39e4be3376399a3d208c8", "is_disabled": 0, "is_reserved": 0}, {"rental_uris": {"ios": "https://dc.lft.to/lastmile_qr_scan", "android": "https://dc.lft.to/lastmile_qr_scan"}, "lon": -76.94892, "type": "electric_scooter", "fusion_lat": 0.0, "lat": 38.895402833333335, "name": "2ad05b385dc9c58289ef0401fe29dd4a", "fusion_lon": 0.0, "bike_id": "2ad05b385dc9c58289ef0401fe29dd4a", "is_disabled": 0, "is_reserved": 0}, {"rental_uris": {"ios": "https://dc.lft.to/lastmile_qr_scan", "android": "https://dc.lft.to/lastmile_qr_scan"}, "lon": -77.00296416666667, "type": "electric_scooter", "fusion_lat": 0.0, "lat": 38.9089245, "name": "0eb55648d77b0bd6f75213901b31370b", "fusion_lon": 0.0, "bike_id": "0eb55648d77b0bd6f75213901b31370b", "is_disabled": 0, "is_reserved": 0}, {"rental_uris": {"ios": "https://dc.lft.to/lastmile_qr_scan", "android": "https://dc.lft.to/lastmile_qr_scan"}, "lon": -77.01633133333333, "type": "electric_scooter", "fusion_lat": 0.0, "lat": 38.8997245, "name": "27bcfc7615ac1b1bad7b9ec872ae3b3b", "fusion_lon": 0.0, "bike_id": "27bcfc7615ac1b1bad7b9ec872ae3b3b", "is_disabled": 0, "is_reserved": 0}, {"rental_uris": {"ios": "https://dc.lft.to/lastmile_qr_scan", "android": "https://dc.lft.to/lastmile_qr_scan"}, "lon": -77.058856, "type": "electric_scooter", "fusion_lat": 0.0, "lat": 38.936349, "name": "066b41af98f419ff14f3cc3e6e810dc5", "fusion_lon": 0.0, "bike_id": "066b41af98f419ff14f3cc3e6e810dc5", "is_disabled": 0, "is_reserved": 0}, {"rental_uris": {"ios": "https://dc.lft.to/lastmile_qr_scan", "android": "https://dc.lft.to/lastmile_qr_scan"}, "lon": -77.0235925, "type": "electric_scooter", "fusion_lat": 0.0, "lat": 38.94528366666667, "name": "669f93328268ce0e6f67848a21e6a0d8", "fusion_lon": 0.0, "bike_id": "669f93328268ce0e6f67848a21e6a0d8", "is_disabled": 0, "is_reserved": 0}, {"rental_uris": {"ios": "https://dc.lft.to/lastmile_qr_scan", "android": "https://dc.lft.to/lastmile_qr_scan"}, "lon": -76.99521783333333, "type": "electric_scooter", "fusion_lat": 0.0, "lat": 38.8626075, "name": "8d1953d841a47424decb91875b04882f", "fusion_lon": 0.0, "bike_id": "8d1953d841a47424decb91875b04882f", "is_disabled": 0, "is_reserved": 0}, {"rental_uris": {"ios": "https://dc.lft.to/lastmile_qr_scan", "android": "https://dc.lft.to/lastmile_qr_scan"}, "lon": -77.0213575, "type": "electric_scooter", "fusion_lat": 0.0, "lat": 38.896342833333335, "name": "c3093127c05f6c560df03dc99d1ded3f", "fusion_lon": 0.0, "bike_id": "c3093127c05f6c560df03dc99d1ded3f", "is_disabled": 0, "is_reserved": 0}, {"rental_uris": {"ios": "https://dc.lft.to/lastmile_qr_scan", "android": "https://dc.lft.to/lastmile_qr_scan"}, "lon": -77.03181833333333, "type": "electric_scooter", "fusion_lat": 0.0, "lat": 38.90982533333333, "name": "b9d6799be0e907e258133f75d1b2f40d", "fusion_lon": 0.0, "bike_id": "b9d6799be0e907e258133f75d1b2f40d", "is_disabled": 0, "is_reserved": 0}, {"rental_uris": {"ios": "https://dc.lft.to/lastmile_qr_scan", "android": "https://dc.lft.to/lastmile_qr_scan"}, "lon": -77.04256266666667, "type": "electric_scooter", "fusion_lat": 0.0, "lat": 38.92068916666667, "name": "4c6098bf05eea1ee9e86e87cc4205227", "fusion_lon": 0.0, "bike_id": "4c6098bf05eea1ee9e86e87cc4205227", "is_disabled": 0, "is_reserved": 0}, {"rental_uris": {"ios": "https://dc.lft.to/lastmile_qr_scan", "android": "https://dc.lft.to/lastmile_qr_scan"}, "lon": -77.01763783333334, "type": "electric_scooter", "fusion_lat": 0.0, "lat": 38.877230833333336, "name": "3d6db4468ebdd84ac1b64e1b56601723", "fusion_lon": 0.0, "bike_id": "3d6db4468ebdd84ac1b64e1b56601723", "is_disabled": 0, "is_reserved": 0}, {"rental_uris": {"ios": "https://dc.lft.to/lastmile_qr_scan", "android": "https://dc.lft.to/lastmile_qr_scan"}, "lon": -76.98551383333333, "type": "electric_scooter", "fusion_lat": 0.0, "lat": 38.8995935, "name": "c237438f5d2a080fb9a8c1b2b61a74b2", "fusion_lon": 0.0, "bike_id": "c237438f5d2a080fb9a8c1b2b61a74b2", "is_disabled": 0, "is_reserved": 0}, {"rental_uris": {"ios": "https://dc.lft.to/lastmile_qr_scan", "android": "https://dc.lft.to/lastmile_qr_scan"}, "lon": -77.041443, "type": "electric_scooter", "fusion_lat": 0.0, "lat": 38.922979833333336, "name": "a7063810a9a05d4b259984fa15ba59b9", "fusion_lon": 0.0, "bike_id": "a7063810a9a05d4b259984fa15ba59b9", "is_disabled": 0, "is_reserved": 0}, {"rental_uris": {"ios": "https://dc.lft.to/lastmile_qr_scan", "android": "https://dc.lft.to/lastmile_qr_scan"}, "lon": -77.04173716666666, "type": "electric_scooter", "fusion_lat": 0.0, "lat": 38.913997333333334, "name": "a818fdf9d14e21992ee6cd43a4e9416e", "fusion_lon": 0.0, "bike_id": "a818fdf9d14e21992ee6cd43a4e9416e", "is_disabled": 0, "is_reserved": 0}, {"rental_uris": {"ios": "https://dc.lft.to/lastmile_qr_scan", "android": "https://dc.lft.to/lastmile_qr_scan"}, "lon": -77.096702, "type": "electric_scooter", "fusion_lat": 0.0, "lat": 38.9177545, "name": "b40d7e71ca291de7e3d3f0984724b7da", "fusion_lon": 0.0, "bike_id": "b40d7e71ca291de7e3d3f0984724b7da", "is_disabled": 0, "is_reserved": 0}, {"rental_uris": {"ios": "https://dc.lft.to/lastmile_qr_scan", "android": "https://dc.lft.to/lastmile_qr_scan"}, "lon": -77.031808, "type": "electric_scooter", "fusion_lat": 0.0, "lat": 38.918115, "name": "e6335d40a393e5a279ba569cd846c7a7", "fusion_lon": 0.0, "bike_id": "e6335d40a393e5a279ba569cd846c7a7", "is_disabled": 0, "is_reserved": 0}, {"rental_uris": {"ios": "https://dc.lft.to/lastmile_qr_scan", "android": "https://dc.lft.to/lastmile_qr_scan"}, "lon": -76.988824, "type": "electric_scooter", "fusion_lat": 0.0, "lat": 38.8666365, "name": "8ccef7f61c50a25b4b57400cd735fc66", "fusion_lon": 0.0, "bike_id": "8ccef7f61c50a25b4b57400cd735fc66", "is_disabled": 0, "is_reserved": 0}, {"rental_uris": {"ios": "https://dc.lft.to/lastmile_qr_scan", "android": "https://dc.lft.to/lastmile_qr_scan"}, "lon": -77.04688466666667, "type": "electric_scooter", "fusion_lat": 0.0, "lat": 38.89613333333333, "name": "c1d1c113657e0629eb7f0fb86dbc95f6", "fusion_lon": 0.0, "bike_id": "c1d1c113657e0629eb7f0fb86dbc95f6", "is_disabled": 0, "is_reserved": 0}, {"rental_uris": {"ios": "https://dc.lft.to/lastmile_qr_scan", "android": "https://dc.lft.to/lastmile_qr_scan"}, "lon": -77.03224416666667, "type": "electric_scooter", "fusion_lat": 0.0, "lat": 38.908703, "name": "6a8c05484fcf9abfe68cfda28d5710a9", "fusion_lon": 0.0, "bike_id": "6a8c05484fcf9abfe68cfda28d5710a9", "is_disabled": 0, "is_reserved": 0}, {"rental_uris": {"ios": "https://dc.lft.to/lastmile_qr_scan", "android": "https://dc.lft.to/lastmile_qr_scan"}, "lon": -76.97704816666666, "type": "electric_scooter", "fusion_lat": 0.0, "lat": 38.90261516666666, "name": "776f738b32923779f8f7976f683d8949", "fusion_lon": 0.0, "bike_id": "776f738b32923779f8f7976f683d8949", "is_disabled": 0, "is_reserved": 0}, {"rental_uris": {"ios": "https://dc.lft.to/lastmile_qr_scan", "android": "https://dc.lft.to/lastmile_qr_scan"}, "lon": -76.98595116666667, "type": "electric_bike", "fusion_lat": 0.0, "lat": 38.90623033333333, "name": "49cc65a97fff43dc80a33a8799c58d1e", "fusion_lon": 0.0, "bike_id": "49cc65a97fff43dc80a33a8799c58d1e", "is_disabled": 0, "is_reserved": 0}, {"rental_uris": {"ios": "https://dc.lft.to/lastmile_qr_scan", "android": "https://dc.lft.to/lastmile_qr_scan"}, "lon": -77.0328085, "type": "electric_scooter", "fusion_lat": 0.0, "lat": 38.93497333333333, "name": "afdbfefcb813dc19f41d318c1ce22991", "fusion_lon": 0.0, "bike_id": "afdbfefcb813dc19f41d318c1ce22991", "is_disabled": 0, "is_reserved": 0}, {"rental_uris": {"ios": "https://dc.lft.to/lastmile_qr_scan", "android": "https://dc.lft.to/lastmile_qr_scan"}, "lon": -76.93751366666666, "type": "electric_scooter", "fusion_lat": 0.0, "lat": 38.912865, "name": "fb22c211b5285028ec7704a5673d7fad", "fusion_lon": 0.0, "bike_id": "fb22c211b5285028ec7704a5673d7fad", "is_disabled": 0, "is_reserved": 0}, {"rental_uris": {"ios": "https://dc.lft.to/lastmile_qr_scan", "android": "https://dc.lft.to/lastmile_qr_scan"}, "lon": -77.0223135, "type": "electric_scooter", "fusion_lat": 0.0, "lat": 38.89193016666667, "name": "816f913266d14aa9d3a1f80ba89b56ea", "fusion_lon": 0.0, "bike_id": "816f913266d14aa9d3a1f80ba89b56ea", "is_disabled": 0, "is_reserved": 0}, {"rental_uris": {"ios": "https://dc.lft.to/lastmile_qr_scan", "android": "https://dc.lft.to/lastmile_qr_scan"}, "lon": -77.00523516666667, "type": "electric_scooter", "fusion_lat": 0.0, "lat": 38.929022833333335, "name": "f5376d8b4ddb406f887507fc7f692b3d", "fusion_lon": 0.0, "bike_id": "f5376d8b4ddb406f887507fc7f692b3d", "is_disabled": 0, "is_reserved": 0}, {"rental_uris": {"ios": "https://dc.lft.to/lastmile_qr_scan", "android": "https://dc.lft.to/lastmile_qr_scan"}, "lon": -77.03167166666667, "type": "electric_scooter", "fusion_lat": 0.0, "lat": 38.89975883333334, "name": "4b7f63209dac75755da3c4a8025de672", "fusion_lon": 0.0, "bike_id": "4b7f63209dac75755da3c4a8025de672", "is_disabled": 0, "is_reserved": 0}, {"rental_uris": {"ios": "https://dc.lft.to/lastmile_qr_scan", "android": "https://dc.lft.to/lastmile_qr_scan"}, "lon": -77.01188416666666, "type": "electric_scooter", "fusion_lat": 0.0, "lat": 38.90032816666667, "name": "942506bbf077832411d41d89916a5315", "fusion_lon": 0.0, "bike_id": "942506bbf077832411d41d89916a5315", "is_disabled": 0, "is_reserved": 0}, {"rental_uris": {"ios": "https://dc.lft.to/lastmile_qr_scan", "android": "https://dc.lft.to/lastmile_qr_scan"}, "lon": -77.07711783333333, "type": "electric_scooter", "fusion_lat": 0.0, "lat": 38.956158, "name": "dbed32af975caf68f770e8e8cf8970db", "fusion_lon": 0.0, "bike_id": "dbed32af975caf68f770e8e8cf8970db", "is_disabled": 0, "is_reserved": 0}, {"rental_uris": {"ios": "https://dc.lft.to/lastmile_qr_scan", "android": "https://dc.lft.to/lastmile_qr_scan"}, "lon": -77.03619966666666, "type": "electric_scooter", "fusion_lat": 0.0, "lat": 38.929155, "name": "12c01f9653c45d7b9764c7437d21e7b8", "fusion_lon": 0.0, "bike_id": "12c01f9653c45d7b9764c7437d21e7b8", "is_disabled": 0, "is_reserved": 0}, {"rental_uris": {"ios": "https://dc.lft.to/lastmile_qr_scan", "android": "https://dc.lft.to/lastmile_qr_scan"}, "lon": -77.03935866666667, "type": "electric_scooter", "fusion_lat": 0.0, "lat": 38.89916316666667, "name": "9b458bf4fb5166f4beb8abc37a230e09", "fusion_lon": 0.0, "bike_id": "9b458bf4fb5166f4beb8abc37a230e09", "is_disabled": 0, "is_reserved": 0}, {"rental_uris": {"ios": "https://dc.lft.to/lastmile_qr_scan", "android": "https://dc.lft.to/lastmile_qr_scan"}, "lon": -77.02710283333333, "type": "electric_scooter", "fusion_lat": 0.0, "lat": 38.917686833333335, "name": "5557da616b02161f9700728ffa2829ff", "fusion_lon": 0.0, "bike_id": "5557da616b02161f9700728ffa2829ff", "is_disabled": 0, "is_reserved": 0}, {"rental_uris": {"ios": "https://dc.lft.to/lastmile_qr_scan", "android": "https://dc.lft.to/lastmile_qr_scan"}, "lon": -77.058583, "type": "electric_scooter", "fusion_lat": 0.0, "lat": 38.93427166666667, "name": "ff7b50b4041569a6762707c831d68b3f", "fusion_lon": 0.0, "bike_id": "ff7b50b4041569a6762707c831d68b3f", "is_disabled": 0, "is_reserved": 0}, {"rental_uris": {"ios": "https://dc.lft.to/lastmile_qr_scan", "android": "https://dc.lft.to/lastmile_qr_scan"}, "lon": -77.13106133333334, "type": "electric_bike", "fusion_lat": 0.0, "lat": 38.87631366666667, "name": "c4e5b2b29f817840340cc33d7d9f8a46", "fusion_lon": 0.0, "bike_id": "c4e5b2b29f817840340cc33d7d9f8a46", "is_disabled": 0, "is_reserved": 0}, {"rental_uris": {"ios": "https://dc.lft.to/lastmile_qr_scan", "android": "https://dc.lft.to/lastmile_qr_scan"}, "lon": -76.98706533333333, "type": "electric_scooter", "fusion_lat": 0.0, "lat": 38.86538, "name": "18e6b5770749a08139ff2f4d4f9757df", "fusion_lon": 0.0, "bike_id": "18e6b5770749a08139ff2f4d4f9757df", "is_disabled": 0, "is_reserved": 0}, {"rental_uris": {"ios": "https://dc.lft.to/lastmile_qr_scan", "android": "https://dc.lft.to/lastmile_qr_scan"}, "lon": -77.03750116666667, "type": "electric_scooter", "fusion_lat": 0.0, "lat": 38.929120833333336, "name": "9380accf1b2e86b8482fc0b49eec3b33", "fusion_lon": 0.0, "bike_id": "9380accf1b2e86b8482fc0b49eec3b33", "is_disabled": 0, "is_reserved": 0}, {"rental_uris": {"ios": "https://dc.lft.to/lastmile_qr_scan", "android": "https://dc.lft.to/lastmile_qr_scan"}, "lon": -77.05058216666667, "type": "electric_scooter", "fusion_lat": 0.0, "lat": 38.900803, "name": "072974ac9e25e34bdcba5d8e68d9e246", "fusion_lon": 0.0, "bike_id": "072974ac9e25e34bdcba5d8e68d9e246", "is_disabled": 0, "is_reserved": 0}, {"rental_uris": {"ios": "https://dc.lft.to/lastmile_qr_scan", "android": "https://dc.lft.to/lastmile_qr_scan"}, "lon": -77.0837255, "type": "electric_scooter", "fusion_lat": 0.0, "lat": 38.930375833333336, "name": "b4cdbd1ba64736526ea8090b4ef20747", "fusion_lon": 0.0, "bike_id": "b4cdbd1ba64736526ea8090b4ef20747", "is_disabled": 0, "is_reserved": 0}, {"rental_uris": {"ios": "https://dc.lft.to/lastmile_qr_scan", "android": "https://dc.lft.to/lastmile_qr_scan"}, "lon": -77.04232166666667, "type": "electric_scooter", "fusion_lat": 0.0, "lat": 38.9081705, "name": "d0287e31bb14fe688d3eb4df33f2e769", "fusion_lon": 0.0, "bike_id": "d0287e31bb14fe688d3eb4df33f2e769", "is_disabled": 0, "is_reserved": 0}, {"rental_uris": {"ios": "https://dc.lft.to/lastmile_qr_scan", "android": "https://dc.lft.to/lastmile_qr_scan"}, "lon": -76.987741, "type": "electric_scooter", "fusion_lat": 0.0, "lat": 38.9116995, "name": "49b80f74d1bb859a4fad2267c2ff0de7", "fusion_lon": 0.0, "bike_id": "49b80f74d1bb859a4fad2267c2ff0de7", "is_disabled": 0, "is_reserved": 0}, {"rental_uris": {"ios": "https://dc.lft.to/lastmile_qr_scan", "android": "https://dc.lft.to/lastmile_qr_scan"}, "lon": -77.049343, "type": "electric_scooter", "fusion_lat": 0.0, "lat": 38.896826833333336, "name": "311d1ae0c67686ddcb272338e0bfadbb", "fusion_lon": 0.0, "bike_id": "311d1ae0c67686ddcb272338e0bfadbb", "is_disabled": 0, "is_reserved": 0}, {"rental_uris": {"ios": "https://dc.lft.to/lastmile_qr_scan", "android": "https://dc.lft.to/lastmile_qr_scan"}, "lon": -77.02613, "type": "electric_scooter", "fusion_lat": 0.0, "lat": 38.916965833333336, "name": "e4f6b9fdf3172728f9575c6fe5181a05", "fusion_lon": 0.0, "bike_id": "e4f6b9fdf3172728f9575c6fe5181a05", "is_disabled": 0, "is_reserved": 0}, {"rental_uris": {"ios": "https://dc.lft.to/lastmile_qr_scan", "android": "https://dc.lft.to/lastmile_qr_scan"}, "lon": -77.02712883333334, "type": "electric_scooter", "fusion_lat": 0.0, "lat": 38.924805666666664, "name": "fe67f6d2546dfa85d2452229a2940c84", "fusion_lon": 0.0, "bike_id": "fe67f6d2546dfa85d2452229a2940c84", "is_disabled": 0, "is_reserved": 0}, {"rental_uris": {"ios": "https://dc.lft.to/lastmile_qr_scan", "android": "https://dc.lft.to/lastmile_qr_scan"}, "lon": -77.04819333333333, "type": "electric_scooter", "fusion_lat": 0.0, "lat": 38.8962515, "name": "1869b505618207bec6b6a96111f37ffc", "fusion_lon": 0.0, "bike_id": "1869b505618207bec6b6a96111f37ffc", "is_disabled": 0, "is_reserved": 0}, {"rental_uris": {"ios": "https://dc.lft.to/lastmile_qr_scan", "android": "https://dc.lft.to/lastmile_qr_scan"}, "lon": -77.03083116666667, "type": "electric_scooter", "fusion_lat": 0.0, "lat": 38.93476183333333, "name": "8ecf76205064eeac2c641fdb83f7d381", "fusion_lon": 0.0, "bike_id": "8ecf76205064eeac2c641fdb83f7d381", "is_disabled": 0, "is_reserved": 0}, {"rental_uris": {"ios": "https://dc.lft.to/lastmile_qr_scan", "android": "https://dc.lft.to/lastmile_qr_scan"}, "lon": -77.05113033333333, "type": "electric_scooter", "fusion_lat": 0.0, "lat": 38.90528183333333, "name": "0e9aa821daca7cd7e381215e3136c6e3", "fusion_lon": 0.0, "bike_id": "0e9aa821daca7cd7e381215e3136c6e3", "is_disabled": 0, "is_reserved": 0}, {"rental_uris": {"ios": "https://dc.lft.to/lastmile_qr_scan", "android": "https://dc.lft.to/lastmile_qr_scan"}, "lon": -77.00856966666667, "type": "electric_scooter", "fusion_lat": 0.0, "lat": 38.92596483333333, "name": "d8f7aa0689e3bb90034e5502ed0da894", "fusion_lon": 0.0, "bike_id": "d8f7aa0689e3bb90034e5502ed0da894", "is_disabled": 0, "is_reserved": 0}, {"rental_uris": {"ios": "https://dc.lft.to/lastmile_qr_scan", "android": "https://dc.lft.to/lastmile_qr_scan"}, "lon": -76.9788945, "type": "electric_scooter", "fusion_lat": 0.0, "lat": 38.91672116666667, "name": "d8038c9ff6bb961a42fe3e444e94bd97", "fusion_lon": 0.0, "bike_id": "d8038c9ff6bb961a42fe3e444e94bd97", "is_disabled": 0, "is_reserved": 0}, {"rental_uris": {"ios": "https://dc.lft.to/lastmile_qr_scan", "android": "https://dc.lft.to/lastmile_qr_scan"}, "lon": -76.93794616666666, "type": "electric_scooter", "fusion_lat": 0.0, "lat": 38.912903666666665, "name": "1de6ba4f67a0199c99b6277d9aca5694", "fusion_lon": 0.0, "bike_id": "1de6ba4f67a0199c99b6277d9aca5694", "is_disabled": 0, "is_reserved": 0}, {"rental_uris": {"ios": "https://dc.lft.to/lastmile_qr_scan", "android": "https://dc.lft.to/lastmile_qr_scan"}, "lon": -77.01762916666667, "type": "electric_scooter", "fusion_lat": 0.0, "lat": 38.938984166666664, "name": "d5d025d4b91d484db755d24ad92a2c6c", "fusion_lon": 0.0, "bike_id": "d5d025d4b91d484db755d24ad92a2c6c", "is_disabled": 0, "is_reserved": 0}, {"rental_uris": {"ios": "https://dc.lft.to/lastmile_qr_scan", "android": "https://dc.lft.to/lastmile_qr_scan"}, "lon": -77.12747866666666, "type": "electric_bike", "fusion_lat": 0.0, "lat": 38.88826433333333, "name": "cbf846293c407886b43c38aca18f2dd8", "fusion_lon": 0.0, "bike_id": "cbf846293c407886b43c38aca18f2dd8", "is_disabled": 0, "is_reserved": 0}, {"rental_uris": {"ios": "https://dc.lft.to/lastmile_qr_scan", "android": "https://dc.lft.to/lastmile_qr_scan"}, "lon": -77.05142816666667, "type": "electric_scooter", "fusion_lat": 0.0, "lat": 38.90252516666666, "name": "e6bb1b384f405fbfbc16d248c11ee939", "fusion_lon": 0.0, "bike_id": "e6bb1b384f405fbfbc16d248c11ee939", "is_disabled": 0, "is_reserved": 0}, {"rental_uris": {"ios": "https://dc.lft.to/lastmile_qr_scan", "android": "https://dc.lft.to/lastmile_qr_scan"}, "lon": -76.9954105, "type": "electric_scooter", "fusion_lat": 0.0, "lat": 38.92668883333333, "name": "f1e63ff7fcd759c326c9a46e9d01bae9", "fusion_lon": 0.0, "bike_id": "f1e63ff7fcd759c326c9a46e9d01bae9", "is_disabled": 0, "is_reserved": 0}, {"rental_uris": {"ios": "https://dc.lft.to/lastmile_qr_scan", "android": "https://dc.lft.to/lastmile_qr_scan"}, "lon": -76.99276083333334, "type": "electric_scooter", "fusion_lat": 0.0, "lat": 38.921321666666664, "name": "2f3f5db59c1b798ba27cdfb20b015199", "fusion_lon": 0.0, "bike_id": "2f3f5db59c1b798ba27cdfb20b015199", "is_disabled": 0, "is_reserved": 0}, {"rental_uris": {"ios": "https://dc.lft.to/lastmile_qr_scan", "android": "https://dc.lft.to/lastmile_qr_scan"}, "lon": -77.026847, "type": "electric_scooter", "fusion_lat": 0.0, "lat": 38.90719216666667, "name": "74c0c718e769f7d1029c8acbebe14ec4", "fusion_lon": 0.0, "bike_id": "74c0c718e769f7d1029c8acbebe14ec4", "is_disabled": 0, "is_reserved": 0}, {"rental_uris": {"ios": "https://dc.lft.to/lastmile_qr_scan", "android": "https://dc.lft.to/lastmile_qr_scan"}, "lon": -77.06404383333333, "type": "electric_bike", "fusion_lat": 0.0, "lat": 38.843526833333335, "name": "3af0ac73ab09326117456c42c8c04074", "fusion_lon": 0.0, "bike_id": "3af0ac73ab09326117456c42c8c04074", "is_disabled": 0, "is_reserved": 0}, {"rental_uris": {"ios": "https://dc.lft.to/lastmile_qr_scan", "android": "https://dc.lft.to/lastmile_qr_scan"}, "lon": -77.03567633333333, "type": "electric_scooter", "fusion_lat": 0.0, "lat": 38.908394666666666, "name": "8bfd9e482aa687010faa2204a1e6f597", "fusion_lon": 0.0, "bike_id": "8bfd9e482aa687010faa2204a1e6f597", "is_disabled": 0, "is_reserved": 0}, {"rental_uris": {"ios": "https://dc.lft.to/lastmile_qr_scan", "android": "https://dc.lft.to/lastmile_qr_scan"}, "lon": -77.03906916666666, "type": "electric_scooter", "fusion_lat": 0.0, "lat": 38.914206666666665, "name": "308c061ef8631e41718dc4cf5a3e9c08", "fusion_lon": 0.0, "bike_id": "308c061ef8631e41718dc4cf5a3e9c08", "is_disabled": 0, "is_reserved": 0}, {"rental_uris": {"ios": "https://dc.lft.to/lastmile_qr_scan", "android": "https://dc.lft.to/lastmile_qr_scan"}, "lon": -76.9887735, "type": "electric_scooter", "fusion_lat": 0.0, "lat": 38.83237416666667, "name": "1927c75945a3c4ec907aaf4741a302fc", "fusion_lon": 0.0, "bike_id": "1927c75945a3c4ec907aaf4741a302fc", "is_disabled": 0, "is_reserved": 0}, {"rental_uris": {"ios": "https://dc.lft.to/lastmile_qr_scan", "android": "https://dc.lft.to/lastmile_qr_scan"}, "lon": -77.05382833333333, "type": "electric_scooter", "fusion_lat": 0.0, "lat": 38.902783166666666, "name": "db0c80e212e43beb929d08a17e68b352", "fusion_lon": 0.0, "bike_id": "db0c80e212e43beb929d08a17e68b352", "is_disabled": 0, "is_reserved": 0}, {"rental_uris": {"ios": "https://dc.lft.to/lastmile_qr_scan", "android": "https://dc.lft.to/lastmile_qr_scan"}, "lon": -77.03171866666666, "type": "electric_scooter", "fusion_lat": 0.0, "lat": 38.91334916666667, "name": "99a4b96938e6d6fb30f0be9126ab0b4d", "fusion_lon": 0.0, "bike_id": "99a4b96938e6d6fb30f0be9126ab0b4d", "is_disabled": 0, "is_reserved": 0}, {"rental_uris": {"ios": "https://dc.lft.to/lastmile_qr_scan", "android": "https://dc.lft.to/lastmile_qr_scan"}, "lon": -77.0586165, "type": "electric_scooter", "fusion_lat": 0.0, "lat": 38.9360765, "name": "0779fe47f9ec989dd800150985b32598", "fusion_lon": 0.0, "bike_id": "0779fe47f9ec989dd800150985b32598", "is_disabled": 0, "is_reserved": 0}, {"rental_uris": {"ios": "https://dc.lft.to/lastmile_qr_scan", "android": "https://dc.lft.to/lastmile_qr_scan"}, "lon": -77.01370483333334, "type": "electric_scooter", "fusion_lat": 0.0, "lat": 38.863739833333334, "name": "1ebb0647f260e49701dd6b8f059708d0", "fusion_lon": 0.0, "bike_id": "1ebb0647f260e49701dd6b8f059708d0", "is_disabled": 0, "is_reserved": 0}, {"rental_uris": {"ios": "https://dc.lft.to/lastmile_qr_scan", "android": "https://dc.lft.to/lastmile_qr_scan"}, "lon": -77.01573966666666, "type": "electric_scooter", "fusion_lat": 0.0, "lat": 38.8998555, "name": "3dcb639dfa641aa507ff6e4908b294b0", "fusion_lon": 0.0, "bike_id": "3dcb639dfa641aa507ff6e4908b294b0", "is_disabled": 0, "is_reserved": 0}, {"rental_uris": {"ios": "https://dc.lft.to/lastmile_qr_scan", "android": "https://dc.lft.to/lastmile_qr_scan"}, "lon": -77.03585683333333, "type": "electric_scooter", "fusion_lat": 0.0, "lat": 38.93238733333333, "name": "8d1d3a4f7de407e90400fc5770cfd85f", "fusion_lon": 0.0, "bike_id": "8d1d3a4f7de407e90400fc5770cfd85f", "is_disabled": 0, "is_reserved": 0}, {"rental_uris": {"ios": "https://dc.lft.to/lastmile_qr_scan", "android": "https://dc.lft.to/lastmile_qr_scan"}, "lon": -76.946327, "type": "electric_scooter", "fusion_lat": 0.0, "lat": 38.89844633333333, "name": "a670643e3ea75b4b13f891c76b8b63d0", "fusion_lon": 0.0, "bike_id": "a670643e3ea75b4b13f891c76b8b63d0", "is_disabled": 0, "is_reserved": 0}, {"rental_uris": {"ios": "https://dc.lft.to/lastmile_qr_scan", "android": "https://dc.lft.to/lastmile_qr_scan"}, "lon": -77.0321775, "type": "electric_scooter", "fusion_lat": 0.0, "lat": 38.91703183333333, "name": "4f4a41f05d14a155c07c657f3c9295b5", "fusion_lon": 0.0, "bike_id": "4f4a41f05d14a155c07c657f3c9295b5", "is_disabled": 0, "is_reserved": 0}, {"rental_uris": {"ios": "https://dc.lft.to/lastmile_qr_scan", "android": "https://dc.lft.to/lastmile_qr_scan"}, "lon": -77.04825516666666, "type": "electric_scooter", "fusion_lat": 0.0, "lat": 38.908001166666665, "name": "8e087bb5af59bda5f3724127967a6883", "fusion_lon": 0.0, "bike_id": "8e087bb5af59bda5f3724127967a6883", "is_disabled": 0, "is_reserved": 0}, {"rental_uris": {"ios": "https://dc.lft.to/lastmile_qr_scan", "android": "https://dc.lft.to/lastmile_qr_scan"}, "lon": -77.02173033333334, "type": "electric_scooter", "fusion_lat": 0.0, "lat": 38.94296383333333, "name": "0346c45620a50e145ed8aa4561522284", "fusion_lon": 0.0, "bike_id": "0346c45620a50e145ed8aa4561522284", "is_disabled": 0, "is_reserved": 0}, {"rental_uris": {"ios": "https://dc.lft.to/lastmile_qr_scan", "android": "https://dc.lft.to/lastmile_qr_scan"}, "lon": -77.06334833333334, "type": "electric_bike", "fusion_lat": 0.0, "lat": 38.921133, "name": "9f348f45944869eeda1338d855f28045", "fusion_lon": 0.0, "bike_id": "9f348f45944869eeda1338d855f28045", "is_disabled": 0, "is_reserved": 0}, {"rental_uris": {"ios": "https://dc.lft.to/lastmile_qr_scan", "android": "https://dc.lft.to/lastmile_qr_scan"}, "lon": -77.0057895, "type": "electric_scooter", "fusion_lat": 0.0, "lat": 38.84494816666667, "name": "d8dd1a3452174a88edd716fbdf7117c3", "fusion_lon": 0.0, "bike_id": "d8dd1a3452174a88edd716fbdf7117c3", "is_disabled": 0, "is_reserved": 0}, {"rental_uris": {"ios": "https://dc.lft.to/lastmile_qr_scan", "android": "https://dc.lft.to/lastmile_qr_scan"}, "lon": -77.04313883333333, "type": "electric_scooter", "fusion_lat": 0.0, "lat": 38.9188015, "name": "f698f589c884d09cb283c3a56459aea3", "fusion_lon": 0.0, "bike_id": "f698f589c884d09cb283c3a56459aea3", "is_disabled": 0, "is_reserved": 0}, {"rental_uris": {"ios": "https://dc.lft.to/lastmile_qr_scan", "android": "https://dc.lft.to/lastmile_qr_scan"}, "lon": -76.97313033333333, "type": "electric_scooter", "fusion_lat": 0.0, "lat": 38.9177945, "name": "4e69fb166ada10e9e54d76a251bc23b5", "fusion_lon": 0.0, "bike_id": "4e69fb166ada10e9e54d76a251bc23b5", "is_disabled": 0, "is_reserved": 0}, {"rental_uris": {"ios": "https://dc.lft.to/lastmile_qr_scan", "android": "https://dc.lft.to/lastmile_qr_scan"}, "lon": -77.045132, "type": "electric_scooter", "fusion_lat": 0.0, "lat": 38.912918166666664, "name": "4a65999e4b22ceb0ab7f2663313d443c", "fusion_lon": 0.0, "bike_id": "4a65999e4b22ceb0ab7f2663313d443c", "is_disabled": 0, "is_reserved": 0}, {"rental_uris": {"ios": "https://dc.lft.to/lastmile_qr_scan", "android": "https://dc.lft.to/lastmile_qr_scan"}, "lon": -77.024164, "type": "electric_scooter", "fusion_lat": 0.0, "lat": 38.90237916666667, "name": "591d16432f7e84bda5a0cbe03213fcc3", "fusion_lon": 0.0, "bike_id": "591d16432f7e84bda5a0cbe03213fcc3", "is_disabled": 0, "is_reserved": 0}, {"rental_uris": {"ios": "https://dc.lft.to/lastmile_qr_scan", "android": "https://dc.lft.to/lastmile_qr_scan"}, "lon": -77.0129725, "type": "electric_bike", "fusion_lat": 0.0, "lat": 38.8813005, "name": "04168c4780269085e046acd5e4367895", "fusion_lon": 0.0, "bike_id": "04168c4780269085e046acd5e4367895", "is_disabled": 0, "is_reserved": 0}, {"rental_uris": {"ios": "https://dc.lft.to/lastmile_qr_scan", "android": "https://dc.lft.to/lastmile_qr_scan"}, "lon": -77.01015616666666, "type": "electric_scooter", "fusion_lat": 0.0, "lat": 38.90690816666667, "name": "6d42beedfa17ad4a4732474e6095d1b0", "fusion_lon": 0.0, "bike_id": "6d42beedfa17ad4a4732474e6095d1b0", "is_disabled": 0, "is_reserved": 0}, {"rental_uris": {"ios": "https://dc.lft.to/lastmile_qr_scan", "android": "https://dc.lft.to/lastmile_qr_scan"}, "lon": -77.0215805, "type": "electric_scooter", "fusion_lat": 0.0, "lat": 38.92605916666667, "name": "8150281c57666f4f223c8620fc4277c4", "fusion_lon": 0.0, "bike_id": "8150281c57666f4f223c8620fc4277c4", "is_disabled": 0, "is_reserved": 0}, {"rental_uris": {"ios": "https://dc.lft.to/lastmile_qr_scan", "android": "https://dc.lft.to/lastmile_qr_scan"}, "lon": -77.02460366666666, "type": "electric_scooter", "fusion_lat": 0.0, "lat": 38.90860433333334, "name": "783b243f86fc5cee18c9f5e27d5e937e", "fusion_lon": 0.0, "bike_id": "783b243f86fc5cee18c9f5e27d5e937e", "is_disabled": 0, "is_reserved": 0}, {"rental_uris": {"ios": "https://dc.lft.to/lastmile_qr_scan", "android": "https://dc.lft.to/lastmile_qr_scan"}, "lon": -77.034606, "type": "electric_scooter", "fusion_lat": 0.0, "lat": 38.902888, "name": "e08dd5cdb16ef1b582083257d62d3d16", "fusion_lon": 0.0, "bike_id": "e08dd5cdb16ef1b582083257d62d3d16", "is_disabled": 0, "is_reserved": 0}, {"rental_uris": {"ios": "https://dc.lft.to/lastmile_qr_scan", "android": "https://dc.lft.to/lastmile_qr_scan"}, "lon": -77.03347616666667, "type": "electric_scooter", "fusion_lat": 0.0, "lat": 38.91713516666667, "name": "0dd1e30d7eb25db9f4ce25b3dd17f6a0", "fusion_lon": 0.0, "bike_id": "0dd1e30d7eb25db9f4ce25b3dd17f6a0", "is_disabled": 0, "is_reserved": 0}, {"rental_uris": {"ios": "https://dc.lft.to/lastmile_qr_scan", "android": "https://dc.lft.to/lastmile_qr_scan"}, "lon": -77.01527083333333, "type": "electric_scooter", "fusion_lat": 0.0, "lat": 38.8873955, "name": "b07ef7ef86952d2de3efd7833d97ccaf", "fusion_lon": 0.0, "bike_id": "b07ef7ef86952d2de3efd7833d97ccaf", "is_disabled": 0, "is_reserved": 0}, {"rental_uris": {"ios": "https://dc.lft.to/lastmile_qr_scan", "android": "https://dc.lft.to/lastmile_qr_scan"}, "lon": -77.04570983333333, "type": "electric_scooter", "fusion_lat": 0.0, "lat": 38.92134433333333, "name": "b74bef39a89918ab056a0a6457c969fc", "fusion_lon": 0.0, "bike_id": "b74bef39a89918ab056a0a6457c969fc", "is_disabled": 0, "is_reserved": 0}, {"rental_uris": {"ios": "https://dc.lft.to/lastmile_qr_scan", "android": "https://dc.lft.to/lastmile_qr_scan"}, "lon": -77.0384175, "type": "electric_scooter", "fusion_lat": 0.0, "lat": 38.931148666666665, "name": "ef7fbe2c0d07c516d44178e3f10dadfe", "fusion_lon": 0.0, "bike_id": "ef7fbe2c0d07c516d44178e3f10dadfe", "is_disabled": 0, "is_reserved": 0}, {"rental_uris": {"ios": "https://dc.lft.to/lastmile_qr_scan", "android": "https://dc.lft.to/lastmile_qr_scan"}, "lon": -77.00357483333333, "type": "electric_scooter", "fusion_lat": 0.0, "lat": 38.90729733333333, "name": "235ec650d571640c0bdfc379f0cb8944", "fusion_lon": 0.0, "bike_id": "235ec650d571640c0bdfc379f0cb8944", "is_disabled": 0, "is_reserved": 0}, {"rental_uris": {"ios": "https://dc.lft.to/lastmile_qr_scan", "android": "https://dc.lft.to/lastmile_qr_scan"}, "lon": -76.98868133333333, "type": "electric_scooter", "fusion_lat": 0.0, "lat": 38.90031466666667, "name": "8f9696126290f990c458623614397ff5", "fusion_lon": 0.0, "bike_id": "8f9696126290f990c458623614397ff5", "is_disabled": 0, "is_reserved": 0}, {"rental_uris": {"ios": "https://dc.lft.to/lastmile_qr_scan", "android": "https://dc.lft.to/lastmile_qr_scan"}, "lon": -77.04842883333333, "type": "electric_scooter", "fusion_lat": 0.0, "lat": 38.9096465, "name": "b6a71ddec066744a9e0e306126548f37", "fusion_lon": 0.0, "bike_id": "b6a71ddec066744a9e0e306126548f37", "is_disabled": 0, "is_reserved": 0}, {"rental_uris": {"ios": "https://dc.lft.to/lastmile_qr_scan", "android": "https://dc.lft.to/lastmile_qr_scan"}, "lon": -77.01105183333334, "type": "electric_scooter", "fusion_lat": 0.0, "lat": 38.895135333333336, "name": "67fe0f0b34ca090b30bbf22bfe3356c6", "fusion_lon": 0.0, "bike_id": "67fe0f0b34ca090b30bbf22bfe3356c6", "is_disabled": 0, "is_reserved": 0}, {"rental_uris": {"ios": "https://dc.lft.to/lastmile_qr_scan", "android": "https://dc.lft.to/lastmile_qr_scan"}, "lon": -77.04232116666667, "type": "electric_scooter", "fusion_lat": 0.0, "lat": 38.921280333333335, "name": "1828301918f03316a3c3bc930a0a56d2", "fusion_lon": 0.0, "bike_id": "1828301918f03316a3c3bc930a0a56d2", "is_disabled": 0, "is_reserved": 0}, {"rental_uris": {"ios": "https://dc.lft.to/lastmile_qr_scan", "android": "https://dc.lft.to/lastmile_qr_scan"}, "lon": -76.98578983333333, "type": "electric_scooter", "fusion_lat": 0.0, "lat": 38.86153866666667, "name": "912b2f5105dc162b9756228b8a8ad562", "fusion_lon": 0.0, "bike_id": "912b2f5105dc162b9756228b8a8ad562", "is_disabled": 0, "is_reserved": 0}, {"rental_uris": {"ios": "https://dc.lft.to/lastmile_qr_scan", "android": "https://dc.lft.to/lastmile_qr_scan"}, "lon": -77.0489855, "type": "electric_scooter", "fusion_lat": 0.0, "lat": 38.9189085, "name": "2b9d52ef54f63062ad6ffdb4a457930a", "fusion_lon": 0.0, "bike_id": "2b9d52ef54f63062ad6ffdb4a457930a", "is_disabled": 0, "is_reserved": 0}, {"rental_uris": {"ios": "https://dc.lft.to/lastmile_qr_scan", "android": "https://dc.lft.to/lastmile_qr_scan"}, "lon": -76.9977505, "type": "electric_bike", "fusion_lat": 0.0, "lat": 38.9092605, "name": "1797857132e5160b82943838cffd4ac0", "fusion_lon": 0.0, "bike_id": "1797857132e5160b82943838cffd4ac0", "is_disabled": 0, "is_reserved": 0}, {"rental_uris": {"ios": "https://dc.lft.to/lastmile_qr_scan", "android": "https://dc.lft.to/lastmile_qr_scan"}, "lon": -77.00275966666666, "type": "electric_scooter", "fusion_lat": 0.0, "lat": 38.901292833333336, "name": "e8844112dd01a74cd259bec320a21715", "fusion_lon": 0.0, "bike_id": "e8844112dd01a74cd259bec320a21715", "is_disabled": 0, "is_reserved": 0}, {"rental_uris": {"ios": "https://dc.lft.to/lastmile_qr_scan", "android": "https://dc.lft.to/lastmile_qr_scan"}, "lon": -76.99611266666666, "type": "electric_scooter", "fusion_lat": 0.0, "lat": 38.886232666666665, "name": "6d9c8c60800acd471ae5cf3205d9b9c8", "fusion_lon": 0.0, "bike_id": "6d9c8c60800acd471ae5cf3205d9b9c8", "is_disabled": 0, "is_reserved": 0}, {"rental_uris": {"ios": "https://dc.lft.to/lastmile_qr_scan", "android": "https://dc.lft.to/lastmile_qr_scan"}, "lon": -76.98885383333334, "type": "electric_scooter", "fusion_lat": 0.0, "lat": 38.86659083333333, "name": "e681b031e3fbc173454d5ee1ac092f54", "fusion_lon": 0.0, "bike_id": "e681b031e3fbc173454d5ee1ac092f54", "is_disabled": 0, "is_reserved": 0}, {"rental_uris": {"ios": "https://dc.lft.to/lastmile_qr_scan", "android": "https://dc.lft.to/lastmile_qr_scan"}, "lon": -77.03215533333334, "type": "electric_scooter", "fusion_lat": 0.0, "lat": 38.91641533333333, "name": "e28bd2343ea8bbc8b7fcbb7a9d5415d0", "fusion_lon": 0.0, "bike_id": "e28bd2343ea8bbc8b7fcbb7a9d5415d0", "is_disabled": 0, "is_reserved": 0}, {"rental_uris": {"ios": "https://dc.lft.to/lastmile_qr_scan", "android": "https://dc.lft.to/lastmile_qr_scan"}, "lon": -77.02816083333333, "type": "electric_scooter", "fusion_lat": 0.0, "lat": 38.96141216666667, "name": "7978db72e62262c5f583d79dfcdf7b85", "fusion_lon": 0.0, "bike_id": "7978db72e62262c5f583d79dfcdf7b85", "is_disabled": 0, "is_reserved": 0}, {"rental_uris": {"ios": "https://dc.lft.to/lastmile_qr_scan", "android": "https://dc.lft.to/lastmile_qr_scan"}, "lon": -76.941502, "type": "electric_scooter", "fusion_lat": 0.0, "lat": 38.89686866666667, "name": "d27ba147ad0eecda88aa32dcf0a89697", "fusion_lon": 0.0, "bike_id": "d27ba147ad0eecda88aa32dcf0a89697", "is_disabled": 0, "is_reserved": 0}, {"rental_uris": {"ios": "https://dc.lft.to/lastmile_qr_scan", "android": "https://dc.lft.to/lastmile_qr_scan"}, "lon": -77.028934, "type": "electric_scooter", "fusion_lat": 0.0, "lat": 38.9072115, "name": "e8ff885be3dc68c901b12d1170bdc4b3", "fusion_lon": 0.0, "bike_id": "e8ff885be3dc68c901b12d1170bdc4b3", "is_disabled": 0, "is_reserved": 0}, {"rental_uris": {"ios": "https://dc.lft.to/lastmile_qr_scan", "android": "https://dc.lft.to/lastmile_qr_scan"}, "lon": -77.0037955, "type": "electric_bike", "fusion_lat": 0.0, "lat": 38.83611033333333, "name": "8449678d545590af5b7ea634920b8fa2", "fusion_lon": 0.0, "bike_id": "8449678d545590af5b7ea634920b8fa2", "is_disabled": 0, "is_reserved": 0}, {"rental_uris": {"ios": "https://dc.lft.to/lastmile_qr_scan", "android": "https://dc.lft.to/lastmile_qr_scan"}, "lon": -76.97013833333334, "type": "electric_bike", "fusion_lat": 0.0, "lat": 38.86374166666667, "name": "bb19d127c109e9203649b1b560bf6d12", "fusion_lon": 0.0, "bike_id": "bb19d127c109e9203649b1b560bf6d12", "is_disabled": 0, "is_reserved": 0}, {"rental_uris": {"ios": "https://dc.lft.to/lastmile_qr_scan", "android": "https://dc.lft.to/lastmile_qr_scan"}, "lon": -76.99060016666667, "type": "electric_scooter", "fusion_lat": 0.0, "lat": 38.863579333333334, "name": "7635f12d32853d184b5b0d90a63fd563", "fusion_lon": 0.0, "bike_id": "7635f12d32853d184b5b0d90a63fd563", "is_disabled": 0, "is_reserved": 0}, {"rental_uris": {"ios": "https://dc.lft.to/lastmile_qr_scan", "android": "https://dc.lft.to/lastmile_qr_scan"}, "lon": -77.095534, "type": "electric_bike", "fusion_lat": 0.0, "lat": 38.83730466666667, "name": "4fb848100d3e79170dd42b3ce1066df4", "fusion_lon": 0.0, "bike_id": "4fb848100d3e79170dd42b3ce1066df4", "is_disabled": 0, "is_reserved": 0}, {"rental_uris": {"ios": "https://dc.lft.to/lastmile_qr_scan", "android": "https://dc.lft.to/lastmile_qr_scan"}, "lon": -76.9316345, "type": "electric_bike", "fusion_lat": 0.0, "lat": 38.90866, "name": "6677f7c3a1516c7e96c6d5f81437c330", "fusion_lon": 0.0, "bike_id": "6677f7c3a1516c7e96c6d5f81437c330", "is_disabled": 0, "is_reserved": 0}, {"rental_uris": {"ios": "https://dc.lft.to/lastmile_qr_scan", "android": "https://dc.lft.to/lastmile_qr_scan"}, "lon": -77.03895016666667, "type": "electric_scooter", "fusion_lat": 0.0, "lat": 38.943955833333334, "name": "8f74f38bc690aa408f61331d6017664a", "fusion_lon": 0.0, "bike_id": "8f74f38bc690aa408f61331d6017664a", "is_disabled": 0, "is_reserved": 0}, {"rental_uris": {"ios": "https://dc.lft.to/lastmile_qr_scan", "android": "https://dc.lft.to/lastmile_qr_scan"}, "lon": -77.03171666666667, "type": "electric_scooter", "fusion_lat": 0.0, "lat": 38.91339883333333, "name": "532e72d7e00946852cc6a3c7c2d9f978", "fusion_lon": 0.0, "bike_id": "532e72d7e00946852cc6a3c7c2d9f978", "is_disabled": 0, "is_reserved": 0}, {"rental_uris": {"ios": "https://dc.lft.to/lastmile_qr_scan", "android": "https://dc.lft.to/lastmile_qr_scan"}, "lon": -77.04057366666666, "type": "electric_scooter", "fusion_lat": 0.0, "lat": 38.92718333333333, "name": "72bc03110873a16cf069246f2ea63558", "fusion_lon": 0.0, "bike_id": "72bc03110873a16cf069246f2ea63558", "is_disabled": 0, "is_reserved": 0}, {"rental_uris": {"ios": "https://dc.lft.to/lastmile_qr_scan", "android": "https://dc.lft.to/lastmile_qr_scan"}, "lon": -77.0987135, "type": "electric_bike", "fusion_lat": 0.0, "lat": 38.85373933333333, "name": "b62d71d6a10a6b701135dc725f928ed2", "fusion_lon": 0.0, "bike_id": "b62d71d6a10a6b701135dc725f928ed2", "is_disabled": 0, "is_reserved": 0}, {"rental_uris": {"ios": "https://dc.lft.to/lastmile_qr_scan", "android": "https://dc.lft.to/lastmile_qr_scan"}, "lon": -77.0344165, "type": "electric_scooter", "fusion_lat": 0.0, "lat": 38.91830433333333, "name": "eaf08808f559111ca9eb777284e28476", "fusion_lon": 0.0, "bike_id": "eaf08808f559111ca9eb777284e28476", "is_disabled": 0, "is_reserved": 0}, {"rental_uris": {"ios": "https://dc.lft.to/lastmile_qr_scan", "android": "https://dc.lft.to/lastmile_qr_scan"}, "lon": -77.00351566666667, "type": "electric_scooter", "fusion_lat": 0.0, "lat": 38.899125833333336, "name": "7d0fec78df53c0a33f727a139d5641fd", "fusion_lon": 0.0, "bike_id": "7d0fec78df53c0a33f727a139d5641fd", "is_disabled": 0, "is_reserved": 0}, {"rental_uris": {"ios": "https://dc.lft.to/lastmile_qr_scan", "android": "https://dc.lft.to/lastmile_qr_scan"}, "lon": -77.001893, "type": "electric_scooter", "fusion_lat": 0.0, "lat": 38.87383333333333, "name": "bb2d7b4c43507ca7a90934b8df677d57", "fusion_lon": 0.0, "bike_id": "bb2d7b4c43507ca7a90934b8df677d57", "is_disabled": 0, "is_reserved": 0}, {"rental_uris": {"ios": "https://dc.lft.to/lastmile_qr_scan", "android": "https://dc.lft.to/lastmile_qr_scan"}, "lon": -77.02478633333334, "type": "electric_scooter", "fusion_lat": 0.0, "lat": 38.9181995, "name": "43c662983d3f37094bb0503b9388d727", "fusion_lon": 0.0, "bike_id": "43c662983d3f37094bb0503b9388d727", "is_disabled": 0, "is_reserved": 0}, {"rental_uris": {"ios": "https://dc.lft.to/lastmile_qr_scan", "android": "https://dc.lft.to/lastmile_qr_scan"}, "lon": -77.04561266666667, "type": "electric_scooter", "fusion_lat": 0.0, "lat": 38.9086425, "name": "681425d847bc328e05aaa9348592ee9f", "fusion_lon": 0.0, "bike_id": "681425d847bc328e05aaa9348592ee9f", "is_disabled": 0, "is_reserved": 0}, {"rental_uris": {"ios": "https://dc.lft.to/lastmile_qr_scan", "android": "https://dc.lft.to/lastmile_qr_scan"}, "lon": -77.022315, "type": "electric_scooter", "fusion_lat": 0.0, "lat": 38.89196233333333, "name": "a1226359838d0cf367578c117de447d4", "fusion_lon": 0.0, "bike_id": "a1226359838d0cf367578c117de447d4", "is_disabled": 0, "is_reserved": 0}, {"rental_uris": {"ios": "https://dc.lft.to/lastmile_qr_scan", "android": "https://dc.lft.to/lastmile_qr_scan"}, "lon": -77.0316945, "type": "electric_scooter", "fusion_lat": 0.0, "lat": 38.9200005, "name": "592843dde56079d5080d96a5f98bd275", "fusion_lon": 0.0, "bike_id": "592843dde56079d5080d96a5f98bd275", "is_disabled": 0, "is_reserved": 0}, {"rental_uris": {"ios": "https://dc.lft.to/lastmile_qr_scan", "android": "https://dc.lft.to/lastmile_qr_scan"}, "lon": -77.03677366666666, "type": "electric_scooter", "fusion_lat": 0.0, "lat": 38.918074833333336, "name": "0e70d51421513ef954b9f61e1863a913", "fusion_lon": 0.0, "bike_id": "0e70d51421513ef954b9f61e1863a913", "is_disabled": 0, "is_reserved": 0}, {"rental_uris": {"ios": "https://dc.lft.to/lastmile_qr_scan", "android": "https://dc.lft.to/lastmile_qr_scan"}, "lon": -77.02487566666667, "type": "electric_scooter", "fusion_lat": 0.0, "lat": 38.94186166666667, "name": "ccdb0ece054f190a137be32806411f77", "fusion_lon": 0.0, "bike_id": "ccdb0ece054f190a137be32806411f77", "is_disabled": 0, "is_reserved": 0}, {"rental_uris": {"ios": "https://dc.lft.to/lastmile_qr_scan", "android": "https://dc.lft.to/lastmile_qr_scan"}, "lon": -77.02692633333334, "type": "electric_scooter", "fusion_lat": 0.0, "lat": 38.9016775, "name": "f72c594857399a4edc9dcf1cf58a1118", "fusion_lon": 0.0, "bike_id": "f72c594857399a4edc9dcf1cf58a1118", "is_disabled": 0, "is_reserved": 0}, {"rental_uris": {"ios": "https://dc.lft.to/lastmile_qr_scan", "android": "https://dc.lft.to/lastmile_qr_scan"}, "lon": -77.03385366666667, "type": "electric_scooter", "fusion_lat": 0.0, "lat": 38.93856866666667, "name": "c6cbc87669242ea2166c223e4a893a9e", "fusion_lon": 0.0, "bike_id": "c6cbc87669242ea2166c223e4a893a9e", "is_disabled": 0, "is_reserved": 0}, {"rental_uris": {"ios": "https://dc.lft.to/lastmile_qr_scan", "android": "https://dc.lft.to/lastmile_qr_scan"}, "lon": -77.06942283333333, "type": "electric_scooter", "fusion_lat": 0.0, "lat": 38.90516816666667, "name": "35372196475df0f1490131f89001b340", "fusion_lon": 0.0, "bike_id": "35372196475df0f1490131f89001b340", "is_disabled": 0, "is_reserved": 0}, {"rental_uris": {"ios": "https://dc.lft.to/lastmile_qr_scan", "android": "https://dc.lft.to/lastmile_qr_scan"}, "lon": -77.09751633333333, "type": "electric_bike", "fusion_lat": 0.0, "lat": 38.858554, "name": "be3be4dbe499de6f577380be9c9dd6cf", "fusion_lon": 0.0, "bike_id": "be3be4dbe499de6f577380be9c9dd6cf", "is_disabled": 0, "is_reserved": 0}, {"rental_uris": {"ios": "https://dc.lft.to/lastmile_qr_scan", "android": "https://dc.lft.to/lastmile_qr_scan"}, "lon": -76.96780483333333, "type": "electric_scooter", "fusion_lat": 0.0, "lat": 38.86148816666667, "name": "158a119d7aca479eaaceb5739d11cde4", "fusion_lon": 0.0, "bike_id": "158a119d7aca479eaaceb5739d11cde4", "is_disabled": 0, "is_reserved": 0}, {"rental_uris": {"ios": "https://dc.lft.to/lastmile_qr_scan", "android": "https://dc.lft.to/lastmile_qr_scan"}, "lon": -77.02209516666667, "type": "electric_scooter", "fusion_lat": 0.0, "lat": 38.909692, "name": "d39e2397482868748d4b1658d7b601c5", "fusion_lon": 0.0, "bike_id": "d39e2397482868748d4b1658d7b601c5", "is_disabled": 0, "is_reserved": 0}, {"rental_uris": {"ios": "https://dc.lft.to/lastmile_qr_scan", "android": "https://dc.lft.to/lastmile_qr_scan"}, "lon": -77.03164566666666, "type": "electric_scooter", "fusion_lat": 0.0, "lat": 38.89972133333333, "name": "56abfe77f864c8117ab0a5b5eb90e096", "fusion_lon": 0.0, "bike_id": "56abfe77f864c8117ab0a5b5eb90e096", "is_disabled": 0, "is_reserved": 0}, {"rental_uris": {"ios": "https://dc.lft.to/lastmile_qr_scan", "android": "https://dc.lft.to/lastmile_qr_scan"}, "lon": -77.05025216666667, "type": "electric_scooter", "fusion_lat": 0.0, "lat": 38.89656433333333, "name": "96cef2233e0a30b0731a366d35087684", "fusion_lon": 0.0, "bike_id": "96cef2233e0a30b0731a366d35087684", "is_disabled": 0, "is_reserved": 0}, {"rental_uris": {"ios": "https://dc.lft.to/lastmile_qr_scan", "android": "https://dc.lft.to/lastmile_qr_scan"}, "lon": -77.114285, "type": "electric_bike", "fusion_lat": 0.0, "lat": 38.85250716666667, "name": "362c5cae4d8d547e7f606215588f0b1c", "fusion_lon": 0.0, "bike_id": "362c5cae4d8d547e7f606215588f0b1c", "is_disabled": 0, "is_reserved": 0}, {"rental_uris": {"ios": "https://dc.lft.to/lastmile_qr_scan", "android": "https://dc.lft.to/lastmile_qr_scan"}, "lon": -77.03473066666666, "type": "electric_scooter", "fusion_lat": 0.0, "lat": 38.902752666666665, "name": "8e3e10ab3a8f4cbcd50a2df8369b3603", "fusion_lon": 0.0, "bike_id": "8e3e10ab3a8f4cbcd50a2df8369b3603", "is_disabled": 0, "is_reserved": 0}, {"rental_uris": {"ios": "https://dc.lft.to/lastmile_qr_scan", "android": "https://dc.lft.to/lastmile_qr_scan"}, "lon": -77.03326133333333, "type": "electric_scooter", "fusion_lat": 0.0, "lat": 38.921579666666666, "name": "6e16ec5a4e39a65f50ad85415127c9e8", "fusion_lon": 0.0, "bike_id": "6e16ec5a4e39a65f50ad85415127c9e8", "is_disabled": 0, "is_reserved": 0}, {"rental_uris": {"ios": "https://dc.lft.to/lastmile_qr_scan", "android": "https://dc.lft.to/lastmile_qr_scan"}, "lon": -77.0239555, "type": "electric_scooter", "fusion_lat": 0.0, "lat": 38.91791216666667, "name": "a96251614517b5e501c77d03d74b03da", "fusion_lon": 0.0, "bike_id": "a96251614517b5e501c77d03d74b03da", "is_disabled": 0, "is_reserved": 0}, {"rental_uris": {"ios": "https://dc.lft.to/lastmile_qr_scan", "android": "https://dc.lft.to/lastmile_qr_scan"}, "lon": -76.98414116666666, "type": "electric_scooter", "fusion_lat": 0.0, "lat": 38.91391, "name": "f6e5694a73c43b729438c98ba84752b8", "fusion_lon": 0.0, "bike_id": "f6e5694a73c43b729438c98ba84752b8", "is_disabled": 0, "is_reserved": 0}, {"rental_uris": {"ios": "https://dc.lft.to/lastmile_qr_scan", "android": "https://dc.lft.to/lastmile_qr_scan"}, "lon": -77.0363345, "type": "electric_scooter", "fusion_lat": 0.0, "lat": 38.918125, "name": "3a15ffbad4588c796a930b58235d9113", "fusion_lon": 0.0, "bike_id": "3a15ffbad4588c796a930b58235d9113", "is_disabled": 0, "is_reserved": 0}, {"rental_uris": {"ios": "https://dc.lft.to/lastmile_qr_scan", "android": "https://dc.lft.to/lastmile_qr_scan"}, "lon": -76.99385033333333, "type": "electric_scooter", "fusion_lat": 0.0, "lat": 38.88723783333333, "name": "89a8ad460af236d86fbbdd1d02e6a24b", "fusion_lon": 0.0, "bike_id": "89a8ad460af236d86fbbdd1d02e6a24b", "is_disabled": 0, "is_reserved": 0}, {"rental_uris": {"ios": "https://dc.lft.to/lastmile_qr_scan", "android": "https://dc.lft.to/lastmile_qr_scan"}, "lon": -77.002979, "type": "electric_scooter", "fusion_lat": 0.0, "lat": 38.908978833333336, "name": "62ed8cdc39dd0bf42f0058f617f9547d", "fusion_lon": 0.0, "bike_id": "62ed8cdc39dd0bf42f0058f617f9547d", "is_disabled": 0, "is_reserved": 0}, {"rental_uris": {"ios": "https://dc.lft.to/lastmile_qr_scan", "android": "https://dc.lft.to/lastmile_qr_scan"}, "lon": -77.00229783333333, "type": "electric_scooter", "fusion_lat": 0.0, "lat": 38.90569983333334, "name": "877ca04df705b6e0440039cbeac1a663", "fusion_lon": 0.0, "bike_id": "877ca04df705b6e0440039cbeac1a663", "is_disabled": 0, "is_reserved": 0}, {"rental_uris": {"ios": "https://dc.lft.to/lastmile_qr_scan", "android": "https://dc.lft.to/lastmile_qr_scan"}, "lon": -77.0358355, "type": "electric_scooter", "fusion_lat": 0.0, "lat": 38.931400833333335, "name": "3e793a00675440282da23fb01239b428", "fusion_lon": 0.0, "bike_id": "3e793a00675440282da23fb01239b428", "is_disabled": 0, "is_reserved": 0}, {"rental_uris": {"ios": "https://dc.lft.to/lastmile_qr_scan", "android": "https://dc.lft.to/lastmile_qr_scan"}, "lon": -77.02474566666666, "type": "electric_scooter", "fusion_lat": 0.0, "lat": 38.938640166666666, "name": "a3f076d1496a167a852e9366137507fe", "fusion_lon": 0.0, "bike_id": "a3f076d1496a167a852e9366137507fe", "is_disabled": 0, "is_reserved": 0}, {"rental_uris": {"ios": "https://dc.lft.to/lastmile_qr_scan", "android": "https://dc.lft.to/lastmile_qr_scan"}, "lon": -77.0321895, "type": "electric_scooter", "fusion_lat": 0.0, "lat": 38.918090166666666, "name": "d40c80e9f3a879f4cdc4b38914b37f69", "fusion_lon": 0.0, "bike_id": "d40c80e9f3a879f4cdc4b38914b37f69", "is_disabled": 0, "is_reserved": 0}, {"rental_uris": {"ios": "https://dc.lft.to/lastmile_qr_scan", "android": "https://dc.lft.to/lastmile_qr_scan"}, "lon": -76.98828866666666, "type": "electric_scooter", "fusion_lat": 0.0, "lat": 38.880270833333334, "name": "c807a71e92ed79374e3addaf286e8c5a", "fusion_lon": 0.0, "bike_id": "c807a71e92ed79374e3addaf286e8c5a", "is_disabled": 0, "is_reserved": 0}, {"rental_uris": {"ios": "https://dc.lft.to/lastmile_qr_scan", "android": "https://dc.lft.to/lastmile_qr_scan"}, "lon": -76.99635516666666, "type": "electric_bike", "fusion_lat": 0.0, "lat": 38.846725, "name": "3956b4b5e40307274eb0ff43a6a2abac", "fusion_lon": 0.0, "bike_id": "3956b4b5e40307274eb0ff43a6a2abac", "is_disabled": 0, "is_reserved": 0}, {"rental_uris": {"ios": "https://dc.lft.to/lastmile_qr_scan", "android": "https://dc.lft.to/lastmile_qr_scan"}, "lon": -77.04843833333334, "type": "electric_scooter", "fusion_lat": 0.0, "lat": 38.91107133333333, "name": "bbef30f6e7038ec0b24fd1ce33f6614b", "fusion_lon": 0.0, "bike_id": "bbef30f6e7038ec0b24fd1ce33f6614b", "is_disabled": 0, "is_reserved": 0}, {"rental_uris": {"ios": "https://dc.lft.to/lastmile_qr_scan", "android": "https://dc.lft.to/lastmile_qr_scan"}, "lon": -77.02221033333333, "type": "electric_scooter", "fusion_lat": 0.0, "lat": 38.89220866666667, "name": "4fc6a57b9e3217263a6d5178b11f3084", "fusion_lon": 0.0, "bike_id": "4fc6a57b9e3217263a6d5178b11f3084", "is_disabled": 0, "is_reserved": 0}, {"rental_uris": {"ios": "https://dc.lft.to/lastmile_qr_scan", "android": "https://dc.lft.to/lastmile_qr_scan"}, "lon": -77.07063366666667, "type": "electric_scooter", "fusion_lat": 0.0, "lat": 38.9011295, "name": "12a605a23ce2a4973a63c55f2c946b76", "fusion_lon": 0.0, "bike_id": "12a605a23ce2a4973a63c55f2c946b76", "is_disabled": 0, "is_reserved": 0}, {"rental_uris": {"ios": "https://dc.lft.to/lastmile_qr_scan", "android": "https://dc.lft.to/lastmile_qr_scan"}, "lon": -77.035566, "type": "electric_scooter", "fusion_lat": 0.0, "lat": 38.92747216666667, "name": "73511bb1786970f0b51a19fe34367ecd", "fusion_lon": 0.0, "bike_id": "73511bb1786970f0b51a19fe34367ecd", "is_disabled": 0, "is_reserved": 0}, {"rental_uris": {"ios": "https://dc.lft.to/lastmile_qr_scan", "android": "https://dc.lft.to/lastmile_qr_scan"}, "lon": -77.06886866666666, "type": "electric_scooter", "fusion_lat": 0.0, "lat": 38.90515516666667, "name": "f47118585a82ca2da0788e4e17d1fe2b", "fusion_lon": 0.0, "bike_id": "f47118585a82ca2da0788e4e17d1fe2b", "is_disabled": 0, "is_reserved": 0}, {"rental_uris": {"ios": "https://dc.lft.to/lastmile_qr_scan", "android": "https://dc.lft.to/lastmile_qr_scan"}, "lon": -77.022128, "type": "electric_scooter", "fusion_lat": 0.0, "lat": 38.912737, "name": "82199f430c36e64eca91571ea5f5abcf", "fusion_lon": 0.0, "bike_id": "82199f430c36e64eca91571ea5f5abcf", "is_disabled": 0, "is_reserved": 0}, {"rental_uris": {"ios": "https://dc.lft.to/lastmile_qr_scan", "android": "https://dc.lft.to/lastmile_qr_scan"}, "lon": -77.123748, "type": "electric_bike", "fusion_lat": 0.0, "lat": 38.84741783333333, "name": "591d7c805bb4dd95334f98ab3940fea3", "fusion_lon": 0.0, "bike_id": "591d7c805bb4dd95334f98ab3940fea3", "is_disabled": 0, "is_reserved": 0}, {"rental_uris": {"ios": "https://dc.lft.to/lastmile_qr_scan", "android": "https://dc.lft.to/lastmile_qr_scan"}, "lon": -77.04679883333333, "type": "electric_scooter", "fusion_lat": 0.0, "lat": 38.90544533333333, "name": "cff4e38a9398874a6814037ce5ae9d4b", "fusion_lon": 0.0, "bike_id": "cff4e38a9398874a6814037ce5ae9d4b", "is_disabled": 0, "is_reserved": 0}, {"rental_uris": {"ios": "https://dc.lft.to/lastmile_qr_scan", "android": "https://dc.lft.to/lastmile_qr_scan"}, "lon": -77.03415366666667, "type": "electric_scooter", "fusion_lat": 0.0, "lat": 38.935401666666664, "name": "0ccd365345254456ed7cd500957aa872", "fusion_lon": 0.0, "bike_id": "0ccd365345254456ed7cd500957aa872", "is_disabled": 0, "is_reserved": 0}, {"rental_uris": {"ios": "https://dc.lft.to/lastmile_qr_scan", "android": "https://dc.lft.to/lastmile_qr_scan"}, "lon": -76.9372045, "type": "electric_scooter", "fusion_lat": 0.0, "lat": 38.895857666666664, "name": "5fd05944d0434b91e378339772609ad4", "fusion_lon": 0.0, "bike_id": "5fd05944d0434b91e378339772609ad4", "is_disabled": 0, "is_reserved": 0}, {"rental_uris": {"ios": "https://dc.lft.to/lastmile_qr_scan", "android": "https://dc.lft.to/lastmile_qr_scan"}, "lon": -77.0412185, "type": "electric_scooter", "fusion_lat": 0.0, "lat": 38.92448616666667, "name": "bb0438034ed5c4556121eff3f7fd8918", "fusion_lon": 0.0, "bike_id": "bb0438034ed5c4556121eff3f7fd8918", "is_disabled": 0, "is_reserved": 0}, {"rental_uris": {"ios": "https://dc.lft.to/lastmile_qr_scan", "android": "https://dc.lft.to/lastmile_qr_scan"}, "lon": -77.00249633333334, "type": "electric_scooter", "fusion_lat": 0.0, "lat": 38.91194333333333, "name": "c741251b84bdbdb63a60dcf53b83f2aa", "fusion_lon": 0.0, "bike_id": "c741251b84bdbdb63a60dcf53b83f2aa", "is_disabled": 0, "is_reserved": 0}, {"rental_uris": {"ios": "https://dc.lft.to/lastmile_qr_scan", "android": "https://dc.lft.to/lastmile_qr_scan"}, "lon": -77.00655766666667, "type": "electric_scooter", "fusion_lat": 0.0, "lat": 38.8718195, "name": "5996ebec4a9bd0e748780de79f3b2773", "fusion_lon": 0.0, "bike_id": "5996ebec4a9bd0e748780de79f3b2773", "is_disabled": 0, "is_reserved": 0}, {"rental_uris": {"ios": "https://dc.lft.to/lastmile_qr_scan", "android": "https://dc.lft.to/lastmile_qr_scan"}, "lon": -77.02616566666667, "type": "electric_scooter", "fusion_lat": 0.0, "lat": 38.892563833333334, "name": "5ae57c5017c69dcd79a1fb9c916fb9ca", "fusion_lon": 0.0, "bike_id": "5ae57c5017c69dcd79a1fb9c916fb9ca", "is_disabled": 0, "is_reserved": 0}, {"rental_uris": {"ios": "https://dc.lft.to/lastmile_qr_scan", "android": "https://dc.lft.to/lastmile_qr_scan"}, "lon": -77.04008183333333, "type": "electric_scooter", "fusion_lat": 0.0, "lat": 38.91003116666667, "name": "7c8d9a4865fb8d28510e0cb99f189f36", "fusion_lon": 0.0, "bike_id": "7c8d9a4865fb8d28510e0cb99f189f36", "is_disabled": 0, "is_reserved": 0}, {"rental_uris": {"ios": "https://dc.lft.to/lastmile_qr_scan", "android": "https://dc.lft.to/lastmile_qr_scan"}, "lon": -76.9749735, "type": "electric_bike", "fusion_lat": 0.0, "lat": 38.92009633333333, "name": "ad20d195952ac58d128a791afad89388", "fusion_lon": 0.0, "bike_id": "ad20d195952ac58d128a791afad89388", "is_disabled": 0, "is_reserved": 0}, {"rental_uris": {"ios": "https://dc.lft.to/lastmile_qr_scan", "android": "https://dc.lft.to/lastmile_qr_scan"}, "lon": -77.05812766666666, "type": "electric_scooter", "fusion_lat": 0.0, "lat": 38.93457433333333, "name": "1d121e2783e51d350705047cbc26d464", "fusion_lon": 0.0, "bike_id": "1d121e2783e51d350705047cbc26d464", "is_disabled": 0, "is_reserved": 0}, {"rental_uris": {"ios": "https://dc.lft.to/lastmile_qr_scan", "android": "https://dc.lft.to/lastmile_qr_scan"}, "lon": -76.97406316666667, "type": "electric_scooter", "fusion_lat": 0.0, "lat": 38.90160083333333, "name": "c01fd349dc39aed913d5a8948973ebf2", "fusion_lon": 0.0, "bike_id": "c01fd349dc39aed913d5a8948973ebf2", "is_disabled": 0, "is_reserved": 0}, {"rental_uris": {"ios": "https://dc.lft.to/lastmile_qr_scan", "android": "https://dc.lft.to/lastmile_qr_scan"}, "lon": -77.0486675, "type": "electric_scooter", "fusion_lat": 0.0, "lat": 38.908512333333334, "name": "367181fb1c9d4231d6306baa4f98e0ae", "fusion_lon": 0.0, "bike_id": "367181fb1c9d4231d6306baa4f98e0ae", "is_disabled": 0, "is_reserved": 0}, {"rental_uris": {"ios": "https://dc.lft.to/lastmile_qr_scan", "android": "https://dc.lft.to/lastmile_qr_scan"}, "lon": -77.032262, "type": "electric_scooter", "fusion_lat": 0.0, "lat": 38.926704666666666, "name": "e3493a0f7a2c30d1af200924ea685092", "fusion_lon": 0.0, "bike_id": "e3493a0f7a2c30d1af200924ea685092", "is_disabled": 0, "is_reserved": 0}, {"rental_uris": {"ios": "https://dc.lft.to/lastmile_qr_scan", "android": "https://dc.lft.to/lastmile_qr_scan"}, "lon": -77.0295055, "type": "electric_scooter", "fusion_lat": 0.0, "lat": 38.9052285, "name": "ba363158331fb1d91d927dcc26b4bf5d", "fusion_lon": 0.0, "bike_id": "ba363158331fb1d91d927dcc26b4bf5d", "is_disabled": 0, "is_reserved": 0}, {"rental_uris": {"ios": "https://dc.lft.to/lastmile_qr_scan", "android": "https://dc.lft.to/lastmile_qr_scan"}, "lon": -77.04289966666667, "type": "electric_scooter", "fusion_lat": 0.0, "lat": 38.90815216666667, "name": "6458535977c9d1901c126f1051c29741", "fusion_lon": 0.0, "bike_id": "6458535977c9d1901c126f1051c29741", "is_disabled": 0, "is_reserved": 0}, {"rental_uris": {"ios": "https://dc.lft.to/lastmile_qr_scan", "android": "https://dc.lft.to/lastmile_qr_scan"}, "lon": -76.99786366666666, "type": "electric_scooter", "fusion_lat": 0.0, "lat": 38.908746666666666, "name": "613be8f6e0afb701f0ee0b0677b6c22e", "fusion_lon": 0.0, "bike_id": "613be8f6e0afb701f0ee0b0677b6c22e", "is_disabled": 0, "is_reserved": 0}, {"rental_uris": {"ios": "https://dc.lft.to/lastmile_qr_scan", "android": "https://dc.lft.to/lastmile_qr_scan"}, "lon": -77.05637216666666, "type": "electric_bike", "fusion_lat": 0.0, "lat": 38.9241835, "name": "4cea0525443723ebc9d16a303cd6dd8d", "fusion_lon": 0.0, "bike_id": "4cea0525443723ebc9d16a303cd6dd8d", "is_disabled": 0, "is_reserved": 0}, {"rental_uris": {"ios": "https://dc.lft.to/lastmile_qr_scan", "android": "https://dc.lft.to/lastmile_qr_scan"}, "lon": -76.993778, "type": "electric_scooter", "fusion_lat": 0.0, "lat": 38.897476833333336, "name": "7a9ab13f69e0ff7b65f3d86a1b80c70b", "fusion_lon": 0.0, "bike_id": "7a9ab13f69e0ff7b65f3d86a1b80c70b", "is_disabled": 0, "is_reserved": 0}, {"rental_uris": {"ios": "https://dc.lft.to/lastmile_qr_scan", "android": "https://dc.lft.to/lastmile_qr_scan"}, "lon": -77.01106816666666, "type": "electric_scooter", "fusion_lat": 0.0, "lat": 38.89998833333333, "name": "c33174c08f1b9ed0814112269c1e6c93", "fusion_lon": 0.0, "bike_id": "c33174c08f1b9ed0814112269c1e6c93", "is_disabled": 0, "is_reserved": 0}, {"rental_uris": {"ios": "https://dc.lft.to/lastmile_qr_scan", "android": "https://dc.lft.to/lastmile_qr_scan"}, "lon": -77.04413783333334, "type": "electric_scooter", "fusion_lat": 0.0, "lat": 38.90587883333333, "name": "674273502f03a23cd6582292feb9f4ec", "fusion_lon": 0.0, "bike_id": "674273502f03a23cd6582292feb9f4ec", "is_disabled": 0, "is_reserved": 0}, {"rental_uris": {"ios": "https://dc.lft.to/lastmile_qr_scan", "android": "https://dc.lft.to/lastmile_qr_scan"}, "lon": -77.054421, "type": "electric_scooter", "fusion_lat": 0.0, "lat": 38.89605816666667, "name": "3f2afd31c6b5bada88eb4179ca116b55", "fusion_lon": 0.0, "bike_id": "3f2afd31c6b5bada88eb4179ca116b55", "is_disabled": 0, "is_reserved": 0}, {"rental_uris": {"ios": "https://dc.lft.to/lastmile_qr_scan", "android": "https://dc.lft.to/lastmile_qr_scan"}, "lon": -77.046762, "type": "electric_scooter", "fusion_lat": 0.0, "lat": 38.89238683333333, "name": "3464737807656b88ddd889fd83d274cf", "fusion_lon": 0.0, "bike_id": "3464737807656b88ddd889fd83d274cf", "is_disabled": 0, "is_reserved": 0}, {"rental_uris": {"ios": "https://dc.lft.to/lastmile_qr_scan", "android": "https://dc.lft.to/lastmile_qr_scan"}, "lon": -77.04011016666666, "type": "electric_scooter", "fusion_lat": 0.0, "lat": 38.932496, "name": "76720d8fdb6b4bf7dd94454eaf457e8e", "fusion_lon": 0.0, "bike_id": "76720d8fdb6b4bf7dd94454eaf457e8e", "is_disabled": 0, "is_reserved": 0},