{"data": {"bikes": [{"rental_uris": {"android": "https://dc.lft.to/lastmile_qr_scan", "ios": "https://dc.lft.to/lastmile_qr_scan"}, "lat": 38.926598, "type": "electric_scooter", "name": "cf16d9754039532e9da9624ff3be8869", "fusion_lon": 0.0, "fusion_lat": 0.0, "is_reserved": 0, "bike_id": "cf16d9754039532e9da9624ff3be8869", "lon": -77.0242115, "is_disabled": 0}, {"rental_uris": {"android": "https://dc.lft.to/lastmile_qr_scan", "ios": "https://dc.lft.to/lastmile_qr_scan"}, "lat": 38.90253233333333, "type": "electric_scooter", "name": "1bcee09795d994ff14ad19ab08dc0a32", "fusion_lon": 0.0, "fusion_lat": 0.0, "is_reserved": 0, "bike_id": "1bcee09795d994ff14ad19ab08dc0a32", "lon": -77.02652716666667, "is_disabled": 0}, {"rental_uris": {"android": "https://dc.lft.to/lastmile_qr_scan", "ios": "https://dc.lft.to/lastmile_qr_scan"}, "lat": 38.9149115, "type": "electric_scooter", "name": "6c69593c98064fd46d933d09d1d7a7bf", "fusion_lon": 0.0, "fusion_lat": 0.0, "is_reserved": 0, "bike_id": "6c69593c98064fd46d933d09d1d7a7bf", "lon": -77.02002283333333, "is_disabled": 0}, {"rental_uris": {"android": "https://dc.lft.to/lastmile_qr_scan", "ios": "https://dc.lft.to/lastmile_qr_scan"}, "lat": 38.884572666666664, "type": "electric_scooter", "name": "f741eab19db9b204fdcde93db625b8b0", "fusion_lon": 0.0, "fusion_lat": 0.0, "is_reserved": 0, "bike_id": "f741eab19db9b204fdcde93db625b8b0", "lon": -77.00051866666666, "is_disabled": 0}, {"rental_uris": {"android": "https://dc.lft.to/lastmile_qr_scan", "ios": "https://dc.lft.to/lastmile_qr_scan"}, "lat": 38.92402116666667, "type": "electric_scooter", "name": "7af977f7043c25adf105d5270a7dd475", "fusion_lon": 0.0, "fusion_lat": 0.0, "is_reserved": 0, "bike_id": "7af977f7043c25adf105d5270a7dd475", "lon": -77.02712066666666, "is_disabled": 0}, {"rental_uris": {"android": "https://dc.lft.to/lastmile_qr_scan", "ios": "https://dc.lft.to/lastmile_qr_scan"}, "lat": 38.87378133333333, "type": "electric_scooter", "name": "dc6e97873046a26675be1e5e6874ee83", "fusion_lon": 0.0, "fusion_lat": 0.0, "is_reserved": 0, "bike_id": "dc6e97873046a26675be1e5e6874ee83", "lon": -77.00068633333333, "is_disabled": 0}, {"rental_uris": {"android": "https://dc.lft.to/lastmile_qr_scan", "ios": "https://dc.lft.to/lastmile_qr_scan"}, "lat": 38.855941666666666, "type": "electric_bike", "name": "4831f8a52c5b05907aae2db3ecdb9baf", "fusion_lon": 0.0, "fusion_lat": 0.0, "is_reserved": 0, "bike_id": "4831f8a52c5b05907aae2db3ecdb9baf", "lon": -76.97270816666666, "is_disabled": 0}, {"rental_uris": {"android": "https://dc.lft.to/lastmile_qr_scan", "ios": "https://dc.lft.to/lastmile_qr_scan"}, "lat": 38.81488183333333, "type": "electric_bike", "name": "e6f6cb799eb1d8c60101a713fea9f2bc", "fusion_lon": 0.0, "fusion_lat": 0.0, "is_reserved": 0, "bike_id": "e6f6cb799eb1d8c60101a713fea9f2bc", "lon": -77.0451785, "is_disabled": 0}, {"rental_uris": {"android": "https://dc.lft.to/lastmile_qr_scan", "ios": "https://dc.lft.to/lastmile_qr_scan"}, "lat": 38.88738416666666, "type": "electric_scooter", "name": "9bb36d90ce4712bf93260448088492ae", "fusion_lon": 0.0, "fusion_lat": 0.0, "is_reserved": 0, "bike_id": "9bb36d90ce4712bf93260448088492ae", "lon": -77.015294, "is_disabled": 0}, {"rental_uris": {"android": "https://dc.lft.to/lastmile_qr_scan", "ios": "https://dc.lft.to/lastmile_qr_scan"}, "lat": 39.074703, "type": "electric_bike", "name": "d55da07e565497f4f5e794b790f0446f", "fusion_lon": 0.0, "fusion_lat": 0.0, "is_reserved": 0, "bike_id": "d55da07e565497f4f5e794b790f0446f", "lon": -77.11527383333333, "is_disabled": 0}, {"rental_uris": {"android": "https://dc.lft.to/lastmile_qr_scan", "ios": "https://dc.lft.to/lastmile_qr_scan"}, "lat": 38.90308066666667, "type": "electric_scooter", "name": "953de116ef040811e78013919def9350", "fusion_lon": 0.0, "fusion_lat": 0.0, "is_reserved": 0, "bike_id": "953de116ef040811e78013919def9350", "lon": -77.0385185, "is_disabled": 0}, {"rental_uris": {"android": "https://dc.lft.to/lastmile_qr_scan", "ios": "https://dc.lft.to/lastmile_qr_scan"}, "lat": 38.9002895, "type": "electric_scooter", "name": "006710c7ef243d9579beb23b042b2bcb", "fusion_lon": 0.0, "fusion_lat": 0.0, "is_reserved": 0, "bike_id": "006710c7ef243d9579beb23b042b2bcb", "lon": -76.99845783333333, "is_disabled": 0}, {"rental_uris": {"android": "https://dc.lft.to/lastmile_qr_scan", "ios": "https://dc.lft.to/lastmile_qr_scan"}, "lat": 38.903725, "type": "electric_scooter", "name": "11d569c05765bb7d571bcefcaea23ea5", "fusion_lon": 0.0, "fusion_lat": 0.0, "is_reserved": 0, "bike_id": "11d569c05765bb7d571bcefcaea23ea5", "lon": -77.03574083333334, "is_disabled": 0}, {"rental_uris": {"android": "https://dc.lft.to/lastmile_qr_scan", "ios": "https://dc.lft.to/lastmile_qr_scan"}, "lat": 38.90035433333333, "type": "electric_scooter", "name": "c515828218bcae7f793544e683430609", "fusion_lon": 0.0, "fusion_lat": 0.0, "is_reserved": 0, "bike_id": "c515828218bcae7f793544e683430609", "lon": -76.98839916666667, "is_disabled": 0}, {"rental_uris": {"android": "https://dc.lft.to/lastmile_qr_scan", "ios": "https://dc.lft.to/lastmile_qr_scan"}, "lat": 38.915845166666664, "type": "electric_scooter", "name": "d2d14469f50b89f1045c94659c6cb2fc", "fusion_lon": 0.0, "fusion_lat": 0.0, "is_reserved": 0, "bike_id": "d2d14469f50b89f1045c94659c6cb2fc", "lon": -77.0123235, "is_disabled": 0}, {"rental_uris": {"android": "https://dc.lft.to/lastmile_qr_scan", "ios": "https://dc.lft.to/lastmile_qr_scan"}, "lat": 38.91711766666667, "type": "electric_scooter", "name": "936676fa72b37794795ce63957f195a8", "fusion_lon": 0.0, "fusion_lat": 0.0, "is_reserved": 0, "bike_id": "936676fa72b37794795ce63957f195a8", "lon": -77.038651, "is_disabled": 0}, {"rental_uris": {"android": "https://dc.lft.to/lastmile_qr_scan", "ios": "https://dc.lft.to/lastmile_qr_scan"}, "lat": 38.9132725, "type": "electric_scooter", "name": "395dc3113256696f20c4e3f1a1609248", "fusion_lon": 0.0, "fusion_lat": 0.0, "is_reserved": 0, "bike_id": "395dc3113256696f20c4e3f1a1609248", "lon": -77.045377, "is_disabled": 0}, {"rental_uris": {"android": "https://dc.lft.to/lastmile_qr_scan", "ios": "https://dc.lft.to/lastmile_qr_scan"}, "lat": 38.88473616666667, "type": "electric_scooter", "name": "dbd526585c8aea99e93f74d55a7343dc", "fusion_lon": 0.0, "fusion_lat": 0.0, "is_reserved": 0, "bike_id": "dbd526585c8aea99e93f74d55a7343dc", "lon": -77.02633483333334, "is_disabled": 0}, {"rental_uris": {"android": "https://dc.lft.to/lastmile_qr_scan", "ios": "https://dc.lft.to/lastmile_qr_scan"}, "lat": 38.92791483333333, "type": "electric_scooter", "name": "361c4c6a9051c197b944447bb4bbed30", "fusion_lon": 0.0, "fusion_lat": 0.0, "is_reserved": 0, "bike_id": "361c4c6a9051c197b944447bb4bbed30", "lon": -77.04328083333333, "is_disabled": 0}, {"rental_uris": {"android": "https://dc.lft.to/lastmile_qr_scan", "ios": "https://dc.lft.to/lastmile_qr_scan"}, "lat": 38.885047166666666, "type": "electric_scooter", "name": "e0b6957a03f45d7e41cf0acd33f38a71", "fusion_lon": 0.0, "fusion_lat": 0.0, "is_reserved": 0, "bike_id": "e0b6957a03f45d7e41cf0acd33f38a71", "lon": -77.02206916666667, "is_disabled": 0}, {"rental_uris": {"android": "https://dc.lft.to/lastmile_qr_scan", "ios": "https://dc.lft.to/lastmile_qr_scan"}, "lat": 38.904881833333334, "type": "electric_scooter", "name": "2d9eb7c147c2d682e7fa859507e26703", "fusion_lon": 0.0, "fusion_lat": 0.0, "is_reserved": 0, "bike_id": "2d9eb7c147c2d682e7fa859507e26703", "lon": -76.94951466666667, "is_disabled": 0}, {"rental_uris": {"android": "https://dc.lft.to/lastmile_qr_scan", "ios": "https://dc.lft.to/lastmile_qr_scan"}, "lat": 38.9059935, "type": "electric_scooter", "name": "59ad0e828f15c81e99f78c49b8045973", "fusion_lon": 0.0, "fusion_lat": 0.0, "is_reserved": 0, "bike_id": "59ad0e828f15c81e99f78c49b8045973", "lon": -77.05000933333334, "is_disabled": 0}, {"rental_uris": {"android": "https://dc.lft.to/lastmile_qr_scan", "ios": "https://dc.lft.to/lastmile_qr_scan"}, "lat": 38.9234005, "type": "electric_scooter", "name": "e896abdfd4c74e4a02231c1692451278", "fusion_lon": 0.0, "fusion_lat": 0.0, "is_reserved": 0, "bike_id": "e896abdfd4c74e4a02231c1692451278", "lon": -77.019076, "is_disabled": 0}, {"rental_uris": {"android": "https://dc.lft.to/lastmile_qr_scan", "ios": "https://dc.lft.to/lastmile_qr_scan"}, "lat": 38.9209175, "type": "electric_scooter", "name": "6e284dd0bc4461eb37195996f72a2ace", "fusion_lon": 0.0, "fusion_lat": 0.0, "is_reserved": 0, "bike_id": "6e284dd0bc4461eb37195996f72a2ace", "lon": -77.0317035, "is_disabled": 0}, {"rental_uris": {"android": "https://dc.lft.to/lastmile_qr_scan", "ios": "https://dc.lft.to/lastmile_qr_scan"}, "lat": 38.896054166666666, "type": "electric_scooter", "name": "c346de64a20edb8ddd07485cb5c4e31e", "fusion_lon": 0.0, "fusion_lat": 0.0, "is_reserved": 0, "bike_id": "c346de64a20edb8ddd07485cb5c4e31e", "lon": -76.97250866666667, "is_disabled": 0}, {"rental_uris": {"android": "https://dc.lft.to/lastmile_qr_scan", "ios": "https://dc.lft.to/lastmile_qr_scan"}, "lat": 38.9110205, "type": "electric_scooter", "name": "e7fc3c76d469d9a688a68a06df0868f1", "fusion_lon": 0.0, "fusion_lat": 0.0, "is_reserved": 0, "bike_id": "e7fc3c76d469d9a688a68a06df0868f1", "lon": -77.073566, "is_disabled": 0}, {"rental_uris": {"android": "https://dc.lft.to/lastmile_qr_scan", "ios": "https://dc.lft.to/lastmile_qr_scan"}, "lat": 38.99495133333333, "type": "electric_bike", "name": "5e49b6cd5ad6e9c7cb2ec56009cbad61", "fusion_lon": 0.0, "fusion_lat": 0.0, "is_reserved": 0, "bike_id": "5e49b6cd5ad6e9c7cb2ec56009cbad61", "lon": -77.02900833333334, "is_disabled": 0}, {"rental_uris": {"android": "https://dc.lft.to/lastmile_qr_scan", "ios": "https://dc.lft.to/lastmile_qr_scan"}, "lat": 38.92111116666667, "type": "electric_scooter", "name": "d446feaff800e0e6d17107eeea21a057", "fusion_lon": 0.0, "fusion_lat": 0.0, "is_reserved": 0, "bike_id": "d446feaff800e0e6d17107eeea21a057", "lon": -77.02209083333334, "is_disabled": 0}, {"rental_uris": {"android": "https://dc.lft.to/lastmile_qr_scan", "ios": "https://dc.lft.to/lastmile_qr_scan"}, "lat": 38.908503333333336, "type": "electric_scooter", "name": "d1d6e172b6caf79f91949fc9eeb2a93f", "fusion_lon": 0.0, "fusion_lat": 0.0, "is_reserved": 0, "bike_id": "d1d6e172b6caf79f91949fc9eeb2a93f", "lon": -76.99799383333334, "is_disabled": 0}, {"rental_uris": {"android": "https://dc.lft.to/lastmile_qr_scan", "ios": "https://dc.lft.to/lastmile_qr_scan"}, "lat": 38.90275233333333, "type": "electric_scooter", "name": "f3b9be573b4256d57fb2db8621413822", "fusion_lon": 0.0, "fusion_lat": 0.0, "is_reserved": 0, "bike_id": "f3b9be573b4256d57fb2db8621413822", "lon": -77.034246, "is_disabled": 0}, {"rental_uris": {"android": "https://dc.lft.to/lastmile_qr_scan", "ios": "https://dc.lft.to/lastmile_qr_scan"}, "lat": 38.921537666666666, "type": "electric_scooter", "name": "5a91138dececd49d5bee1a14518f3de1", "fusion_lon": 0.0, "fusion_lat": 0.0, "is_reserved": 0, "bike_id": "5a91138dececd49d5bee1a14518f3de1", "lon": -77.03462483333334, "is_disabled": 0}, {"rental_uris": {"android": "https://dc.lft.to/lastmile_qr_scan", "ios": "https://dc.lft.to/lastmile_qr_scan"}, "lat": 38.934664, "type": "electric_scooter", "name": "5259a714714b5994202396cc3a46df02", "fusion_lon": 0.0, "fusion_lat": 0.0, "is_reserved": 0, "bike_id": "5259a714714b5994202396cc3a46df02", "lon": -77.05807766666666, "is_disabled": 0}, {"rental_uris": {"android": "https://dc.lft.to/lastmile_qr_scan", "ios": "https://dc.lft.to/lastmile_qr_scan"}, "lat": 38.923406166666666, "type": "electric_scooter", "name": "5d124d256feab725654979d2aa2b02ee", "fusion_lon": 0.0, "fusion_lat": 0.0, "is_reserved": 0, "bike_id": "5d124d256feab725654979d2aa2b02ee", "lon": -77.01916116666666, "is_disabled": 0}, {"rental_uris": {"android": "https://dc.lft.to/lastmile_qr_scan", "ios": "https://dc.lft.to/lastmile_qr_scan"}, "lat": 38.92491416666667, "type": "electric_scooter", "name": "a6e4656c09a6f74100f3e39f7127403e", "fusion_lon": 0.0, "fusion_lat": 0.0, "is_reserved": 0, "bike_id": "a6e4656c09a6f74100f3e39f7127403e", "lon": -77.0269655, "is_disabled": 0}, {"rental_uris": {"android": "https://dc.lft.to/lastmile_qr_scan", "ios": "https://dc.lft.to/lastmile_qr_scan"}, "lat": 38.904157, "type": "electric_scooter", "name": "ceb55089476219494562d017477fbc48", "fusion_lon": 0.0, "fusion_lat": 0.0, "is_reserved": 0, "bike_id": "ceb55089476219494562d017477fbc48", "lon": -77.03453383333333, "is_disabled": 0}, {"rental_uris": {"android": "https://dc.lft.to/lastmile_qr_scan", "ios": "https://dc.lft.to/lastmile_qr_scan"}, "lat": 38.896413833333334, "type": "electric_scooter", "name": "af26cf7284747b0962c0eb1a7a54d650", "fusion_lon": 0.0, "fusion_lat": 0.0, "is_reserved": 0, "bike_id": "af26cf7284747b0962c0eb1a7a54d650", "lon": -77.0465445, "is_disabled": 0}, {"rental_uris": {"android": "https://dc.lft.to/lastmile_qr_scan", "ios": "https://dc.lft.to/lastmile_qr_scan"}, "lat": 38.89673966666667, "type": "electric_bike", "name": "e94397ef9191db55f47e1ef1fb9eadcc", "fusion_lon": 0.0, "fusion_lat": 0.0, "is_reserved": 0, "bike_id": "e94397ef9191db55f47e1ef1fb9eadcc", "lon": -76.98166116666667, "is_disabled": 0}, {"rental_uris": {"android": "https://dc.lft.to/lastmile_qr_scan", "ios": "https://dc.lft.to/lastmile_qr_scan"}, "lat": 38.94111816666667, "type": "electric_scooter", "name": "0df91cddf177361cb266fa9e9fd5f255", "fusion_lon": 0.0, "fusion_lat": 0.0, "is_reserved": 0, "bike_id": "0df91cddf177361cb266fa9e9fd5f255", "lon": -77.06136216666667, "is_disabled": 0}, {"rental_uris": {"android": "https://dc.lft.to/lastmile_qr_scan", "ios": "https://dc.lft.to/lastmile_qr_scan"}, "lat": 38.8935755, "type": "electric_scooter", "name": "4d5e1ff0eb91796b9e736f0f4d1410ed", "fusion_lon": 0.0, "fusion_lat": 0.0, "is_reserved": 0, "bike_id": "4d5e1ff0eb91796b9e736f0f4d1410ed", "lon": -77.00340716666666, "is_disabled": 0}, {"rental_uris": {"android": "https://dc.lft.to/lastmile_qr_scan", "ios": "https://dc.lft.to/lastmile_qr_scan"}, "lat": 38.9191015, "type": "electric_scooter", "name": "486805289aefdfdead7b29ca49dca6b8", "fusion_lon": 0.0, "fusion_lat": 0.0, "is_reserved": 0, "bike_id": "486805289aefdfdead7b29ca49dca6b8", "lon": -77.03146866666667, "is_disabled": 0}, {"rental_uris": {"android": "https://dc.lft.to/lastmile_qr_scan", "ios": "https://dc.lft.to/lastmile_qr_scan"}, "lat": 38.900094, "type": "electric_scooter", "name": "0bb087ef0c0335592a8c18cd417c7af7", "fusion_lon": 0.0, "fusion_lat": 0.0, "is_reserved": 0, "bike_id": "0bb087ef0c0335592a8c18cd417c7af7", "lon": -77.04874566666666, "is_disabled": 0}, {"rental_uris": {"android": "https://dc.lft.to/lastmile_qr_scan", "ios": "https://dc.lft.to/lastmile_qr_scan"}, "lat": 38.899123333333335, "type": "electric_scooter", "name": "2dbfb095bc53005385b1ed3f42430e88", "fusion_lon": 0.0, "fusion_lat": 0.0, "is_reserved": 0, "bike_id": "2dbfb095bc53005385b1ed3f42430e88", "lon": -76.93382916666667, "is_disabled": 0}, {"rental_uris": {"android": "https://dc.lft.to/lastmile_qr_scan", "ios": "https://dc.lft.to/lastmile_qr_scan"}, "lat": 38.81915133333333, "type": "electric_bike", "name": "2aa1a53099eb1f3af394f9d03a8b8e83", "fusion_lon": 0.0, "fusion_lat": 0.0, "is_reserved": 0, "bike_id": "2aa1a53099eb1f3af394f9d03a8b8e83", "lon": -77.12661933333334, "is_disabled": 0}, {"rental_uris": {"android": "https://dc.lft.to/lastmile_qr_scan", "ios": "https://dc.lft.to/lastmile_qr_scan"}, "lat": 38.90785866666667, "type": "electric_scooter", "name": "7b82d8f8f5db5e9bad97baddaafd5575", "fusion_lon": 0.0, "fusion_lat": 0.0, "is_reserved": 0, "bike_id": "7b82d8f8f5db5e9bad97baddaafd5575", "lon": -77.072536, "is_disabled": 0}, {"rental_uris": {"android": "https://dc.lft.to/lastmile_qr_scan", "ios": "https://dc.lft.to/lastmile_qr_scan"}, "lat": 38.9141815, "type": "electric_scooter", "name": "de4685dc78354ca6c83aaa349c5ebc74", "fusion_lon": 0.0, "fusion_lat": 0.0, "is_reserved": 0, "bike_id": "de4685dc78354ca6c83aaa349c5ebc74", "lon": -77.0317745, "is_disabled": 0}, {"rental_uris": {"android": "https://dc.lft.to/lastmile_qr_scan", "ios": "https://dc.lft.to/lastmile_qr_scan"}, "lat": 38.897310833333336, "type": "electric_scooter", "name": "ed6ea85e216912a4618c53e3abd965b9", "fusion_lon": 0.0, "fusion_lat": 0.0, "is_reserved": 0, "bike_id": "ed6ea85e216912a4618c53e3abd965b9", "lon": -77.02474816666667, "is_disabled": 0}, {"rental_uris": {"android": "https://dc.lft.to/lastmile_qr_scan", "ios": "https://dc.lft.to/lastmile_qr_scan"}, "lat": 38.92373116666667, "type": "electric_scooter", "name": "662aea84a117fcb5008a59b507ad911f", "fusion_lon": 0.0, "fusion_lat": 0.0, "is_reserved": 0, "bike_id": "662aea84a117fcb5008a59b507ad911f", "lon": -77.04094433333333, "is_disabled": 0}, {"rental_uris": {"android": "https://dc.lft.to/lastmile_qr_scan", "ios": "https://dc.lft.to/lastmile_qr_scan"}, "lat": 38.89743416666666, "type": "electric_scooter", "name": "74ec324d6d9bf1d1cf23bd2826cd5622", "fusion_lon": 0.0, "fusion_lat": 0.0, "is_reserved": 0, "bike_id": "74ec324d6d9bf1d1cf23bd2826cd5622", "lon": -77.04725333333333, "is_disabled": 0}, {"rental_uris": {"android": "https://dc.lft.to/lastmile_qr_scan", "ios": "https://dc.lft.to/lastmile_qr_scan"}, "lat": 38.892461, "type": "electric_scooter", "name": "cbda5d062f1584693f0699ce68985287", "fusion_lon": 0.0, "fusion_lat": 0.0, "is_reserved": 0, "bike_id": "cbda5d062f1584693f0699ce68985287", "lon": -76.9521505, "is_disabled": 0}, {"rental_uris": {"android": "https://dc.lft.to/lastmile_qr_scan", "ios": "https://dc.lft.to/lastmile_qr_scan"}, "lat": 38.892228833333334, "type": "electric_scooter", "name": "b596cefed0b2c679911540d380c0d5c5", "fusion_lon": 0.0, "fusion_lat": 0.0, "is_reserved": 0, "bike_id": "b596cefed0b2c679911540d380c0d5c5", "lon": -77.0313535, "is_disabled": 0}, {"rental_uris": {"android": "https://dc.lft.to/lastmile_qr_scan", "ios": "https://dc.lft.to/lastmile_qr_scan"}, "lat": 38.91808966666667, "type": "electric_scooter", "name": "a4647f4f42112fd46a6588cc3e386579", "fusion_lon": 0.0, "fusion_lat": 0.0, "is_reserved": 0, "bike_id": "a4647f4f42112fd46a6588cc3e386579", "lon": -77.02508083333333, "is_disabled": 0}, {"rental_uris": {"android": "https://dc.lft.to/lastmile_qr_scan", "ios": "https://dc.lft.to/lastmile_qr_scan"}, "lat": 38.924344166666664, "type": "electric_scooter", "name": "3fc54b744ac3087baf7fc19e92b45e38", "fusion_lon": 0.0, "fusion_lat": 0.0, "is_reserved": 0, "bike_id": "3fc54b744ac3087baf7fc19e92b45e38", "lon": -77.00321533333333, "is_disabled": 0}, {"rental_uris": {"android": "https://dc.lft.to/lastmile_qr_scan", "ios": "https://dc.lft.to/lastmile_qr_scan"}, "lat": 38.87667533333333, "type": "electric_scooter", "name": "3ecb6dba54c69e08c053b79a5436cd67", "fusion_lon": 0.0, "fusion_lat": 0.0, "is_reserved": 0, "bike_id": "3ecb6dba54c69e08c053b79a5436cd67", "lon": -77.01167866666667, "is_disabled": 0}, {"rental_uris": {"android": "https://dc.lft.to/lastmile_qr_scan", "ios": "https://dc.lft.to/lastmile_qr_scan"}, "lat": 38.89695916666667, "type": "electric_scooter", "name": "4fcf55acd3d85222a2f1e4de2182331b", "fusion_lon": 0.0, "fusion_lat": 0.0, "is_reserved": 0, "bike_id": "4fcf55acd3d85222a2f1e4de2182331b", "lon": -76.93912466666667, "is_disabled": 0}, {"rental_uris": {"android": "https://dc.lft.to/lastmile_qr_scan", "ios": "https://dc.lft.to/lastmile_qr_scan"}, "lat": 38.89359866666667, "type": "electric_scooter", "name": "baddc474dd22b033fee169eedf6f9c96", "fusion_lon": 0.0, "fusion_lat": 0.0, "is_reserved": 0, "bike_id": "baddc474dd22b033fee169eedf6f9c96", "lon": -77.04617633333334, "is_disabled": 0}, {"rental_uris": {"android": "https://dc.lft.to/lastmile_qr_scan", "ios": "https://dc.lft.to/lastmile_qr_scan"}, "lat": 38.912590333333334, "type": "electric_scooter", "name": "238a51303f5e907e216b7b207e21a405", "fusion_lon": 0.0, "fusion_lat": 0.0, "is_reserved": 0, "bike_id": "238a51303f5e907e216b7b207e21a405", "lon": -77.0754795, "is_disabled": 0}, {"rental_uris": {"android": "https://dc.lft.to/lastmile_qr_scan", "ios": "https://dc.lft.to/lastmile_qr_scan"}, "lat": 38.872139, "type": "electric_scooter", "name": "7873c660703dca3e2af4c686e44fe649", "fusion_lon": 0.0, "fusion_lat": 0.0, "is_reserved": 0, "bike_id": "7873c660703dca3e2af4c686e44fe649", "lon": -77.0161245, "is_disabled": 0}, {"rental_uris": {"android": "https://dc.lft.to/lastmile_qr_scan", "ios": "https://dc.lft.to/lastmile_qr_scan"}, "lat": 38.910447166666664, "type": "electric_scooter", "name": "18ca7bd3c2824067fc50fa449f2bcdbc", "fusion_lon": 0.0, "fusion_lat": 0.0, "is_reserved": 0, "bike_id": "18ca7bd3c2824067fc50fa449f2bcdbc", "lon": -77.040862, "is_disabled": 0}, {"rental_uris": {"android": "https://dc.lft.to/lastmile_qr_scan", "ios": "https://dc.lft.to/lastmile_qr_scan"}, "lat": 38.907268333333334, "type": "electric_scooter", "name": "09d1d14e12561ff9ab78d310d52b2896", "fusion_lon": 0.0, "fusion_lat": 0.0, "is_reserved": 0, "bike_id": "09d1d14e12561ff9ab78d310d52b2896", "lon": -77.045614, "is_disabled": 0}, {"rental_uris": {"android": "https://dc.lft.to/lastmile_qr_scan", "ios": "https://dc.lft.to/lastmile_qr_scan"}, "lat": 38.915432833333334, "type": "electric_scooter", "name": "1cf34ab1ffdabe79a120bb569df7f9bf", "fusion_lon": 0.0, "fusion_lat": 0.0, "is_reserved": 0, "bike_id": "1cf34ab1ffdabe79a120bb569df7f9bf", "lon": -77.03185566666667, "is_disabled": 0}, {"rental_uris": {"android": "https://dc.lft.to/lastmile_qr_scan", "ios": "https://dc.lft.to/lastmile_qr_scan"}, "lat": 38.90060416666667, "type": "electric_scooter", "name": "c92b5861660f95f21ceef7763a474e5c", "fusion_lon": 0.0, "fusion_lat": 0.0, "is_reserved": 0, "bike_id": "c92b5861660f95f21ceef7763a474e5c", "lon": -76.987048, "is_disabled": 0}, {"rental_uris": {"android": "https://dc.lft.to/lastmile_qr_scan", "ios": "https://dc.lft.to/lastmile_qr_scan"}, "lat": 38.900400833333336, "type": "electric_scooter", "name": "f9d7657ff3684138b9e9bedd920eddbf", "fusion_lon": 0.0, "fusion_lat": 0.0, "is_reserved": 0, "bike_id": "f9d7657ff3684138b9e9bedd920eddbf", "lon": -77.0320205, "is_disabled": 0}, {"rental_uris": {"android": "https://dc.lft.to/lastmile_qr_scan", "ios": "https://dc.lft.to/lastmile_qr_scan"}, "lat": 38.804045, "type": "electric_bike", "name": "a488683fdddd24ecd63ca5cca1cc937d", "fusion_lon": 0.0, "fusion_lat": 0.0, "is_reserved": 0, "bike_id": "a488683fdddd24ecd63ca5cca1cc937d", "lon": -77.11331583333333, "is_disabled": 0}, {"rental_uris": {"android": "https://dc.lft.to/lastmile_qr_scan", "ios": "https://dc.lft.to/lastmile_qr_scan"}, "lat": 38.92194766666667, "type": "electric_scooter", "name": "8c312cc071890a19a4e7dc4140d5cb8a", "fusion_lon": 0.0, "fusion_lat": 0.0, "is_reserved": 0, "bike_id": "8c312cc071890a19a4e7dc4140d5cb8a", "lon": -77.04236033333333, "is_disabled": 0}, {"rental_uris": {"android": "https://dc.lft.to/lastmile_qr_scan", "ios": "https://dc.lft.to/lastmile_qr_scan"}, "lat": 38.88024566666667, "type": "electric_scooter", "name": "e4b5fc7b3d96df815c0e77cd7db30468", "fusion_lon": 0.0, "fusion_lat": 0.0, "is_reserved": 0, "bike_id": "e4b5fc7b3d96df815c0e77cd7db30468", "lon": -76.94323233333333, "is_disabled": 0}, {"rental_uris": {"android": "https://dc.lft.to/lastmile_qr_scan", "ios": "https://dc.lft.to/lastmile_qr_scan"}, "lat": 38.894065833333336, "type": "electric_scooter", "name": "84bcc3aff6ab5dd040bec84a24d1b404", "fusion_lon": 0.0, "fusion_lat": 0.0, "is_reserved": 0, "bike_id": "84bcc3aff6ab5dd040bec84a24d1b404", "lon": -77.02117733333333, "is_disabled": 0}, {"rental_uris": {"android": "https://dc.lft.to/lastmile_qr_scan", "ios": "https://dc.lft.to/lastmile_qr_scan"}, "lat": 38.900332, "type": "electric_scooter", "name": "a3fbf48d3cadccda45e0a7209a96ebce", "fusion_lon": 0.0, "fusion_lat": 0.0, "is_reserved": 0, "bike_id": "a3fbf48d3cadccda45e0a7209a96ebce", "lon": -77.01763466666667, "is_disabled": 0}, {"rental_uris": {"android": "https://dc.lft.to/lastmile_qr_scan", "ios": "https://dc.lft.to/lastmile_qr_scan"}, "lat": 38.918811166666664, "type": "electric_scooter", "name": "40df51a67f39f2e04aa384648bde88f7", "fusion_lon": 0.0, "fusion_lat": 0.0, "is_reserved": 0, "bike_id": "40df51a67f39f2e04aa384648bde88f7", "lon": -77.04081733333334, "is_disabled": 0}, {"rental_uris": {"android": "https://dc.lft.to/lastmile_qr_scan", "ios": "https://dc.lft.to/lastmile_qr_scan"}, "lat": 38.90127483333333, "type": "electric_scooter", "name": "ad1ea20e4568906249d44530e2548091", "fusion_lon": 0.0, "fusion_lat": 0.0, "is_reserved": 0, "bike_id": "ad1ea20e4568906249d44530e2548091", "lon": -77.03248, "is_disabled": 0}, {"rental_uris": {"android": "https://dc.lft.to/lastmile_qr_scan", "ios": "https://dc.lft.to/lastmile_qr_scan"}, "lat": 38.80382616666667, "type": "electric_bike", "name": "8fa7fe44d86b04ccd13122ea48fd2b58", "fusion_lon": 0.0, "fusion_lat": 0.0, "is_reserved": 0, "bike_id": "8fa7fe44d86b04ccd13122ea48fd2b58", "lon": -76.98812083333334, "is_disabled": 0}, {"rental_uris": {"android": "https://dc.lft.to/lastmile_qr_scan", "ios": "https://dc.lft.to/lastmile_qr_scan"}, "lat": 38.887104, "type": "electric_scooter", "name": "2e0d7b52be97c990d8dd45d09f54770f", "fusion_lon": 0.0, "fusion_lat": 0.0, "is_reserved": 0, "bike_id": "2e0d7b52be97c990d8dd45d09f54770f", "lon": -76.983414, "is_disabled": 0}, {"rental_uris": {"android": "https://dc.lft.to/lastmile_qr_scan", "ios": "https://dc.lft.to/lastmile_qr_scan"}, "lat": 38.89825333333334, "type": "electric_scooter", "name": "8e7ba997d0455c5a47893a410a985803", "fusion_lon": 0.0, "fusion_lat": 0.0, "is_reserved": 0, "bike_id": "8e7ba997d0455c5a47893a410a985803", "lon": -77.045444, "is_disabled": 0}, {"rental_uris": {"android": "https://dc.lft.to/lastmile_qr_scan", "ios": "https://dc.lft.to/lastmile_qr_scan"}, "lat": 38.920624333333336, "type": "electric_scooter", "name": "de1909350360fb25238da6167847616b", "fusion_lon": 0.0, "fusion_lat": 0.0, "is_reserved": 0, "bike_id": "de1909350360fb25238da6167847616b", "lon": -77.02509916666666, "is_disabled": 0}, {"rental_uris": {"android": "https://dc.lft.to/lastmile_qr_scan", "ios": "https://dc.lft.to/lastmile_qr_scan"}, "lat": 38.91874716666667, "type": "electric_scooter", "name": "774992db3ad216e8e388354ecb56f97b", "fusion_lon": 0.0, "fusion_lat": 0.0, "is_reserved": 0, "bike_id": "774992db3ad216e8e388354ecb56f97b", "lon": -77.02473966666666, "is_disabled": 0}, {"rental_uris": {"android": "https://dc.lft.to/lastmile_qr_scan", "ios": "https://dc.lft.to/lastmile_qr_scan"}, "lat": 38.906753, "type": "electric_scooter", "name": "c54b11f1c7ced7d9c766b3888167a940", "fusion_lon": 0.0, "fusion_lat": 0.0, "is_reserved": 0, "bike_id": "c54b11f1c7ced7d9c766b3888167a940", "lon": -76.9836975, "is_disabled": 0}, {"rental_uris": {"android": "https://dc.lft.to/lastmile_qr_scan", "ios": "https://dc.lft.to/lastmile_qr_scan"}, "lat": 38.86203866666666, "type": "electric_scooter", "name": "47d8270689cc2ae7eeb4e61c5f045e99", "fusion_lon": 0.0, "fusion_lat": 0.0, "is_reserved": 0, "bike_id": "47d8270689cc2ae7eeb4e61c5f045e99", "lon": -76.99524116666667, "is_disabled": 0}, {"rental_uris": {"android": "https://dc.lft.to/lastmile_qr_scan", "ios": "https://dc.lft.to/lastmile_qr_scan"}, "lat": 38.920162166666664, "type": "electric_scooter", "name": "782c69d0c84978a78310901375f5eef3", "fusion_lon": 0.0, "fusion_lat": 0.0, "is_reserved": 0, "bike_id": "782c69d0c84978a78310901375f5eef3", "lon": -76.995639, "is_disabled": 0}, {"rental_uris": {"android": "https://dc.lft.to/lastmile_qr_scan", "ios": "https://dc.lft.to/lastmile_qr_scan"}, "lat": 38.88652283333333, "type": "electric_scooter", "name": "66f30567e5885c0cedbeedce48182487", "fusion_lon": 0.0, "fusion_lat": 0.0, "is_reserved": 0, "bike_id": "66f30567e5885c0cedbeedce48182487", "lon": -77.0020135, "is_disabled": 0}, {"rental_uris": {"android": "https://dc.lft.to/lastmile_qr_scan", "ios": "https://dc.lft.to/lastmile_qr_scan"}, "lat": 38.9134555, "type": "electric_scooter", "name": "75489a2d9a0469c75e160de625eef963", "fusion_lon": 0.0, "fusion_lat": 0.0, "is_reserved": 0, "bike_id": "75489a2d9a0469c75e160de625eef963", "lon": -77.0205455, "is_disabled": 0}, {"rental_uris": {"android": "https://dc.lft.to/lastmile_qr_scan", "ios": "https://dc.lft.to/lastmile_qr_scan"}, "lat": 38.91258283333333, "type": "electric_scooter", "name": "896af0434d5706f2911aa41d42ad6aae", "fusion_lon": 0.0, "fusion_lat": 0.0, "is_reserved": 0, "bike_id": "896af0434d5706f2911aa41d42ad6aae", "lon": -77.03873566666667, "is_disabled": 0}, {"rental_uris": {"android": "https://dc.lft.to/lastmile_qr_scan", "ios": "https://dc.lft.to/lastmile_qr_scan"}, "lat": 38.90260883333333, "type": "electric_scooter", "name": "ad60b8aeef26e6872817882d39f3b688", "fusion_lon": 0.0, "fusion_lat": 0.0, "is_reserved": 0, "bike_id": "ad60b8aeef26e6872817882d39f3b688", "lon": -77.01962233333333, "is_disabled": 0}, {"rental_uris": {"android": "https://dc.lft.to/lastmile_qr_scan", "ios": "https://dc.lft.to/lastmile_qr_scan"}, "lat": 38.92390283333334, "type": "electric_scooter", "name": "02cca757e915621ccbfb1124b56f1cad", "fusion_lon": 0.0, "fusion_lat": 0.0, "is_reserved": 0, "bike_id": "02cca757e915621ccbfb1124b56f1cad", "lon": -77.00071, "is_disabled": 0}, {"rental_uris": {"android": "https://dc.lft.to/lastmile_qr_scan", "ios": "https://dc.lft.to/lastmile_qr_scan"}, "lat": 39.04236066666667, "type": "electric_bike", "name": "5c048db81777cd0ac0c101bff0002598", "fusion_lon": 0.0, "fusion_lat": 0.0, "is_reserved": 0, "bike_id": "5c048db81777cd0ac0c101bff0002598", "lon": -76.99738550000001, "is_disabled": 0}, {"rental_uris": {"android": "https://dc.lft.to/lastmile_qr_scan", "ios": "https://dc.lft.to/lastmile_qr_scan"}, "lat": 38.92683433333333, "type": "electric_scooter", "name": "5e3c3ca3fae46c6e9622518e8a7b9ee4", "fusion_lon": 0.0, "fusion_lat": 0.0, "is_reserved": 0, "bike_id": "5e3c3ca3fae46c6e9622518e8a7b9ee4", "lon": -77.02300733333334, "is_disabled": 0}, {"rental_uris": {"android": "https://dc.lft.to/lastmile_qr_scan", "ios": "https://dc.lft.to/lastmile_qr_scan"}, "lat": 38.870397833333335, "type": "electric_scooter", "name": "3c6e5b955b77249fc2832b2e38833fc4", "fusion_lon": 0.0, "fusion_lat": 0.0, "is_reserved": 0, "bike_id": "3c6e5b955b77249fc2832b2e38833fc4", "lon": -76.98039816666666, "is_disabled": 0}, {"rental_uris": {"android": "https://dc.lft.to/lastmile_qr_scan", "ios": "https://dc.lft.to/lastmile_qr_scan"}, "lat": 38.930725833333334, "type": "electric_scooter", "name": "f083a46183fdcab45de3469aa7e633d9", "fusion_lon": 0.0, "fusion_lat": 0.0, "is_reserved": 0, "bike_id": "f083a46183fdcab45de3469aa7e633d9", "lon": -77.02172783333333, "is_disabled": 0}, {"rental_uris": {"android": "https://dc.lft.to/lastmile_qr_scan", "ios": "https://dc.lft.to/lastmile_qr_scan"}, "lat": 38.905177333333334, "type": "electric_scooter", "name": "a92c211ae777f341d1ba5f8918a8385e", "fusion_lon": 0.0, "fusion_lat": 0.0, "is_reserved": 0, "bike_id": "a92c211ae777f341d1ba5f8918a8385e", "lon": -77.0672495, "is_disabled": 0}, {"rental_uris": {"android": "https://dc.lft.to/lastmile_qr_scan", "ios": "https://dc.lft.to/lastmile_qr_scan"}, "lat": 38.895165666666664, "type": "electric_scooter", "name": "e1392868d33b6429e914cd91ba94e600", "fusion_lon": 0.0, "fusion_lat": 0.0, "is_reserved": 0, "bike_id": "e1392868d33b6429e914cd91ba94e600", "lon": -77.02434416666667, "is_disabled": 0}, {"rental_uris": {"android": "https://dc.lft.to/lastmile_qr_scan", "ios": "https://dc.lft.to/lastmile_qr_scan"}, "lat": 38.918761833333335, "type": "electric_scooter", "name": "f3c2815f557efe3d369dc98cd58c306a", "fusion_lon": 0.0, "fusion_lat": 0.0, "is_reserved": 0, "bike_id": "f3c2815f557efe3d369dc98cd58c306a", "lon": -77.04476766666667, "is_disabled": 0}, {"rental_uris": {"android": "https://dc.lft.to/lastmile_qr_scan", "ios": "https://dc.lft.to/lastmile_qr_scan"}, "lat": 38.90440016666667, "type": "electric_scooter", "name": "c4c25ea34fcb030f36bcc782f89e832a", "fusion_lon": 0.0, "fusion_lat": 0.0, "is_reserved": 0, "bike_id": "c4c25ea34fcb030f36bcc782f89e832a", "lon": -77.03237616666667, "is_disabled": 0}, {"rental_uris": {"android": "https://dc.lft.to/lastmile_qr_scan", "ios": "https://dc.lft.to/lastmile_qr_scan"}, "lat": 38.960457, "type": "electric_scooter", "name": "4ac39a886c82963d74793932476130db", "fusion_lon": 0.0, "fusion_lat": 0.0, "is_reserved": 0, "bike_id": "4ac39a886c82963d74793932476130db", "lon": -77.0050705, "is_disabled": 0}, {"rental_uris": {"android": "https://dc.lft.to/lastmile_qr_scan", "ios": "https://dc.lft.to/lastmile_qr_scan"}, "lat": 38.923627833333335, "type": "electric_scooter", "name": "40c74e5eeb191e3cf68128016458753f", "fusion_lon": 0.0, "fusion_lat": 0.0, "is_reserved": 0, "bike_id": "40c74e5eeb191e3cf68128016458753f", "lon": -77.0513235, "is_disabled": 0}, {"rental_uris": {"android": "https://dc.lft.to/lastmile_qr_scan", "ios": "https://dc.lft.to/lastmile_qr_scan"}, "lat": 38.9305455, "type": "electric_scooter", "name": "61a51bc63fac723c39c0bbf3d2bc4ce3", "fusion_lon": 0.0, "fusion_lat": 0.0, "is_reserved": 0, "bike_id": "61a51bc63fac723c39c0bbf3d2bc4ce3", "lon": -77.04333783333334, "is_disabled": 0}, {"rental_uris": {"android": "https://dc.lft.to/lastmile_qr_scan", "ios": "https://dc.lft.to/lastmile_qr_scan"}, "lat": 38.90404433333333, "type": "electric_scooter", "name": "7c3fe682e3908bfe268e073102163eb8", "fusion_lon": 0.0, "fusion_lat": 0.0, "is_reserved": 0, "bike_id": "7c3fe682e3908bfe268e073102163eb8", "lon": -77.0250115, "is_disabled": 0}, {"rental_uris": {"android": "https://dc.lft.to/lastmile_qr_scan", "ios": "https://dc.lft.to/lastmile_qr_scan"}, "lat": 38.9012045, "type": "electric_scooter", "name": "4fac54f9bf61bf49b15453fca657b1a6", "fusion_lon": 0.0, "fusion_lat": 0.0, "is_reserved": 0, "bike_id": "4fac54f9bf61bf49b15453fca657b1a6", "lon": -77.01747683333333, "is_disabled": 0}, {"rental_uris": {"android": "https://dc.lft.to/lastmile_qr_scan", "ios": "https://dc.lft.to/lastmile_qr_scan"}, "lat": 38.924475666666666, "type": "electric_scooter", "name": "512ad2543f43a727696ab6898396d96b", "fusion_lon": 0.0, "fusion_lat": 0.0, "is_reserved": 0, "bike_id": "512ad2543f43a727696ab6898396d96b", "lon": -77.02148533333333, "is_disabled": 0}, {"rental_uris": {"android": "https://dc.lft.to/lastmile_qr_scan", "ios": "https://dc.lft.to/lastmile_qr_scan"}, "lat": 38.926384166666665, "type": "electric_scooter", "name": "3e6d55ec779492f3d55928b907420cc7", "fusion_lon": 0.0, "fusion_lat": 0.0, "is_reserved": 0, "bike_id": "3e6d55ec779492f3d55928b907420cc7", "lon": -77.03548916666666, "is_disabled": 0}, {"rental_uris": {"android": "https://dc.lft.to/lastmile_qr_scan", "ios": "https://dc.lft.to/lastmile_qr_scan"}, "lat": 38.898850833333334, "type": "electric_scooter", "name": "b3fc4be5007173c900d68716ced03071", "fusion_lon": 0.0, "fusion_lat": 0.0, "is_reserved": 0, "bike_id": "b3fc4be5007173c900d68716ced03071", "lon": -76.93174266666666, "is_disabled": 0}, {"rental_uris": {"android": "https://dc.lft.to/lastmile_qr_scan", "ios": "https://dc.lft.to/lastmile_qr_scan"}, "lat": 38.89958016666667, "type": "electric_scooter", "name": "eca0df0ab87f690f7fd21638f57b5ac9", "fusion_lon": 0.0, "fusion_lat": 0.0, "is_reserved": 0, "bike_id": "eca0df0ab87f690f7fd21638f57b5ac9", "lon": -77.05030966666666, "is_disabled": 0}, {"rental_uris": {"android": "https://dc.lft.to/lastmile_qr_scan", "ios": "https://dc.lft.to/lastmile_qr_scan"}, "lat": 38.92895016666667, "type": "electric_scooter", "name": "2a999d60677875ec51a1eb7ff21e49d1", "fusion_lon": 0.0, "fusion_lat": 0.0, "is_reserved": 0, "bike_id": "2a999d60677875ec51a1eb7ff21e49d1", "lon": -77.01362466666667, "is_disabled": 0}, {"rental_uris": {"android": "https://dc.lft.to/lastmile_qr_scan", "ios": "https://dc.lft.to/lastmile_qr_scan"}, "lat": 38.921502833333335, "type": "electric_scooter", "name": "9525caba67d1b4cc6b85f7d64f2100fb", "fusion_lon": 0.0, "fusion_lat": 0.0, "is_reserved": 0, "bike_id": "9525caba67d1b4cc6b85f7d64f2100fb", "lon": -77.02208166666667, "is_disabled": 0}, {"rental_uris": {"android": "https://dc.lft.to/lastmile_qr_scan", "ios": "https://dc.lft.to/lastmile_qr_scan"}, "lat": 38.908457166666665, "type": "electric_scooter", "name": "cdcb52935d7e7ff0a68c87612e7dbe48", "fusion_lon": 0.0, "fusion_lat": 0.0, "is_reserved": 0, "bike_id": "cdcb52935d7e7ff0a68c87612e7dbe48", "lon": -77.00218816666667, "is_disabled": 0}, {"rental_uris": {"android": "https://dc.lft.to/lastmile_qr_scan", "ios": "https://dc.lft.to/lastmile_qr_scan"}, "lat": 38.905631, "type": "electric_scooter", "name": "f89582bea9118b1804eabbb8d2da2a03", "fusion_lon": 0.0, "fusion_lat": 0.0, "is_reserved": 0, "bike_id": "f89582bea9118b1804eabbb8d2da2a03", "lon": -77.00209933333333, "is_disabled": 0}, {"rental_uris": {"android": "https://dc.lft.to/lastmile_qr_scan", "ios": "https://dc.lft.to/lastmile_qr_scan"}, "lat": 38.91261, "type": "electric_scooter", "name": "fbf30c3b424d041774891b7d369007d6", "fusion_lon": 0.0, "fusion_lat": 0.0, "is_reserved": 0, "bike_id": "fbf30c3b424d041774891b7d369007d6", "lon": -77.038706, "is_disabled": 0}, {"rental_uris": {"android": "https://dc.lft.to/lastmile_qr_scan", "ios": "https://dc.lft.to/lastmile_qr_scan"}, "lat": 38.9061935, "type": "electric_scooter", "name": "0cb1fd3bd9746017a2b01990928f346d", "fusion_lon": 0.0, "fusion_lat": 0.0, "is_reserved": 0, "bike_id": "0cb1fd3bd9746017a2b01990928f346d", "lon": -77.00592716666667, "is_disabled": 0}, {"rental_uris": {"android": "https://dc.lft.to/lastmile_qr_scan", "ios": "https://dc.lft.to/lastmile_qr_scan"}, "lat": 38.89619166666667, "type": "electric_bike", "name": "0e88ff51e0a62c1a4f7b9191e9340124", "fusion_lon": 0.0, "fusion_lat": 0.0, "is_reserved": 0, "bike_id": "0e88ff51e0a62c1a4f7b9191e9340124", "lon": -76.907534, "is_disabled": 0}, {"rental_uris": {"android": "https://dc.lft.to/lastmile_qr_scan", "ios": "https://dc.lft.to/lastmile_qr_scan"}, "lat": 38.905066, "type": "electric_scooter", "name": "3516d894ab3f17737a6f8ec50ec0a51f", "fusion_lon": 0.0, "fusion_lat": 0.0, "is_reserved": 0, "bike_id": "3516d894ab3f17737a6f8ec50ec0a51f", "lon": -77.02941833333334, "is_disabled": 0}, {"rental_uris": {"android": "https://dc.lft.to/lastmile_qr_scan", "ios": "https://dc.lft.to/lastmile_qr_scan"}, "lat": 38.887051, "type": "electric_scooter", "name": "3c5d0a1cce6c336c3e6cb1f51c81e4e6", "fusion_lon": 0.0, "fusion_lat": 0.0, "is_reserved": 0, "bike_id": "3c5d0a1cce6c336c3e6cb1f51c81e4e6", "lon": -77.021718, "is_disabled": 0}, {"rental_uris": {"android": "https://dc.lft.to/lastmile_qr_scan", "ios": "https://dc.lft.to/lastmile_qr_scan"}, "lat": 38.8767925, "type": "electric_scooter", "name": "3a8136e1c70e76d59993499909143323", "fusion_lon": 0.0, "fusion_lat": 0.0, "is_reserved": 0, "bike_id": "3a8136e1c70e76d59993499909143323", "lon": -77.01966466666667, "is_disabled": 0}, {"rental_uris": {"android": "https://dc.lft.to/lastmile_qr_scan", "ios": "https://dc.lft.to/lastmile_qr_scan"}, "lat": 38.91682316666667, "type": "electric_scooter", "name": "65c9abeb9108e9e8ec0c7b9a09161990", "fusion_lon": 0.0, "fusion_lat": 0.0, "is_reserved": 0, "bike_id": "65c9abeb9108e9e8ec0c7b9a09161990", "lon": -77.02972133333333, "is_disabled": 0}, {"rental_uris": {"android": "https://dc.lft.to/lastmile_qr_scan", "ios": "https://dc.lft.to/lastmile_qr_scan"}, "lat": 38.91868433333333, "type": "electric_scooter", "name": "28b16fd2aa5a1fdcca073a1e99eb941e", "fusion_lon": 0.0, "fusion_lat": 0.0, "is_reserved": 0, "bike_id": "28b16fd2aa5a1fdcca073a1e99eb941e", "lon": -77.0448305, "is_disabled": 0}, {"rental_uris": {"android": "https://dc.lft.to/lastmile_qr_scan", "ios": "https://dc.lft.to/lastmile_qr_scan"}, "lat": 38.91033866666667, "type": "electric_scooter", "name": "22ac216ad6f0f6f08b1906cff5ebf73d", "fusion_lon": 0.0, "fusion_lat": 0.0, "is_reserved": 0, "bike_id": "22ac216ad6f0f6f08b1906cff5ebf73d", "lon": -76.9934155, "is_disabled": 0}, {"rental_uris": {"android": "https://dc.lft.to/lastmile_qr_scan", "ios": "https://dc.lft.to/lastmile_qr_scan"}, "lat": 38.89087766666667, "type": "electric_bike", "name": "635b65e6c7d4d61c472103fa016e7f52", "fusion_lon": 0.0, "fusion_lat": 0.0, "is_reserved": 0, "bike_id": "635b65e6c7d4d61c472103fa016e7f52", "lon": -76.95467066666667, "is_disabled": 0}, {"rental_uris": {"android": "https://dc.lft.to/lastmile_qr_scan", "ios": "https://dc.lft.to/lastmile_qr_scan"}, "lat": 38.92800366666667, "type": "electric_scooter", "name": "d8efab9639790107340d565d8c157a39", "fusion_lon": 0.0, "fusion_lat": 0.0, "is_reserved": 0, "bike_id": "d8efab9639790107340d565d8c157a39", "lon": -77.02980933333333, "is_disabled": 0}, {"rental_uris": {"android": "https://dc.lft.to/lastmile_qr_scan", "ios": "https://dc.lft.to/lastmile_qr_scan"}, "lat": 38.93192766666667, "type": "electric_scooter", "name": "3ebbf3b05558aa6456e0d7d7e59963cf", "fusion_lon": 0.0, "fusion_lat": 0.0, "is_reserved": 0, "bike_id": "3ebbf3b05558aa6456e0d7d7e59963cf", "lon": -77.01866633333333, "is_disabled": 0}, {"rental_uris": {"android": "https://dc.lft.to/lastmile_qr_scan", "ios": "https://dc.lft.to/lastmile_qr_scan"}, "lat": 38.90170633333334, "type": "electric_scooter", "name": "610947536a2db575171fec7e5d7a53e8", "fusion_lon": 0.0, "fusion_lat": 0.0, "is_reserved": 0, "bike_id": "610947536a2db575171fec7e5d7a53e8", "lon": -77.02207816666666, "is_disabled": 0}, {"rental_uris": {"android": "https://dc.lft.to/lastmile_qr_scan", "ios": "https://dc.lft.to/lastmile_qr_scan"}, "lat": 38.907034, "type": "electric_scooter", "name": "52eeeeee41d5d6e7ba59fffa11d3d2d5", "fusion_lon": 0.0, "fusion_lat": 0.0, "is_reserved": 0, "bike_id": "52eeeeee41d5d6e7ba59fffa11d3d2d5", "lon": -76.98700533333333, "is_disabled": 0}, {"rental_uris": {"android": "https://dc.lft.to/lastmile_qr_scan", "ios": "https://dc.lft.to/lastmile_qr_scan"}, "lat": 38.9339825, "type": "electric_scooter", "name": "3a4505b93ad0c43681025d8401642042", "fusion_lon": 0.0, "fusion_lat": 0.0, "is_reserved": 0, "bike_id": "3a4505b93ad0c43681025d8401642042", "lon": -77.04143566666667, "is_disabled": 0}, {"rental_uris": {"android": "https://dc.lft.to/lastmile_qr_scan", "ios": "https://dc.lft.to/lastmile_qr_scan"}, "lat": 38.897228166666665, "type": "electric_scooter", "name": "eb398e1f7ac9b72021f554a476d82a5e", "fusion_lon": 0.0, "fusion_lat": 0.0, "is_reserved": 0, "bike_id": "eb398e1f7ac9b72021f554a476d82a5e", "lon": -77.03225133333333, "is_disabled": 0}, {"rental_uris": {"android": "https://dc.lft.to/lastmile_qr_scan", "ios": "https://dc.lft.to/lastmile_qr_scan"}, "lat": 38.89888, "type": "electric_scooter", "name": "27d45f36955195c05e127743be215fc5", "fusion_lon": 0.0, "fusion_lat": 0.0, "is_reserved": 0, "bike_id": "27d45f36955195c05e127743be215fc5", "lon": -77.048758, "is_disabled": 0}, {"rental_uris": {"android": "https://dc.lft.to/lastmile_qr_scan", "ios": "https://dc.lft.to/lastmile_qr_scan"}, "lat": 38.92140366666667, "type": "electric_scooter", "name": "dcfd3fbf69412bcab8bc281cdbaf8ea8", "fusion_lon": 0.0, "fusion_lat": 0.0, "is_reserved": 0, "bike_id": "dcfd3fbf69412bcab8bc281cdbaf8ea8", "lon": -77.01796566666667, "is_disabled": 0}, {"rental_uris": {"android": "https://dc.lft.to/lastmile_qr_scan", "ios": "https://dc.lft.to/lastmile_qr_scan"}, "lat": 38.93882583333333, "type": "electric_scooter", "name": "e51293520f181da3ed0aa7b367496f10", "fusion_lon": 0.0, "fusion_lat": 0.0, "is_reserved": 0, "bike_id": "e51293520f181da3ed0aa7b367496f10", "lon": -77.02483033333333, "is_disabled": 0}, {"rental_uris": {"android": "https://dc.lft.to/lastmile_qr_scan", "ios": "https://dc.lft.to/lastmile_qr_scan"}, "lat": 38.8975605, "type": "electric_scooter", "name": "fd6773ce3fae16c38f9ce57fbddee7f5", "fusion_lon": 0.0, "fusion_lat": 0.0, "is_reserved": 0, "bike_id": "fd6773ce3fae16c38f9ce57fbddee7f5", "lon": -77.00954683333333, "is_disabled": 0}, {"rental_uris": {"android": "https://dc.lft.to/lastmile_qr_scan", "ios": "https://dc.lft.to/lastmile_qr_scan"}, "lat": 38.91830483333333, "type": "electric_scooter", "name": "e9b67ed589550d0e9ffb8b8abe082895", "fusion_lon": 0.0, "fusion_lat": 0.0, "is_reserved": 0, "bike_id": "e9b67ed589550d0e9ffb8b8abe082895", "lon": -77.05319933333334, "is_disabled": 0}, {"rental_uris": {"android": "https://dc.lft.to/lastmile_qr_scan", "ios": "https://dc.lft.to/lastmile_qr_scan"}, "lat": 38.91540033333333, "type": "electric_scooter", "name": "3b945e2874e4355eaa18b99f29426cc2", "fusion_lon": 0.0, "fusion_lat": 0.0, "is_reserved": 0, "bike_id": "3b945e2874e4355eaa18b99f29426cc2", "lon": -77.03192866666667, "is_disabled": 0}, {"rental_uris": {"android": "https://dc.lft.to/lastmile_qr_scan", "ios": "https://dc.lft.to/lastmile_qr_scan"}, "lat": 38.87924566666667, "type": "electric_scooter", "name": "66d82be4f2288567a6c62cd36f0b3b18", "fusion_lon": 0.0, "fusion_lat": 0.0, "is_reserved": 0, "bike_id": "66d82be4f2288567a6c62cd36f0b3b18", "lon": -77.02379133333334, "is_disabled": 0}, {"rental_uris": {"android": "https://dc.lft.to/lastmile_qr_scan", "ios": "https://dc.lft.to/lastmile_qr_scan"}, "lat": 38.87779833333333, "type": "electric_scooter", "name": "dafda986232104c23b76b53a7b831645", "fusion_lon": 0.0, "fusion_lat": 0.0, "is_reserved": 0, "bike_id": "dafda986232104c23b76b53a7b831645", "lon": -77.002121, "is_disabled": 0}, {"rental_uris": {"android": "https://dc.lft.to/lastmile_qr_scan", "ios": "https://dc.lft.to/lastmile_qr_scan"}, "lat": 38.838679166666665, "type": "electric_bike", "name": "e93cd517030c667dcd550fdad67964bc", "fusion_lon": 0.0, "fusion_lat": 0.0, "is_reserved": 0, "bike_id": "e93cd517030c667dcd550fdad67964bc", "lon": -76.9948615, "is_disabled": 0}, {"rental_uris": {"android": "https://dc.lft.to/lastmile_qr_scan", "ios": "https://dc.lft.to/lastmile_qr_scan"}, "lat": 38.9083875, "type": "electric_scooter", "name": "bf3bbb3f02d0bff05df649e25a502c9f", "fusion_lon": 0.0, "fusion_lat": 0.0, "is_reserved": 0, "bike_id": "bf3bbb3f02d0bff05df649e25a502c9f", "lon": -77.03552733333333, "is_disabled": 0}, {"rental_uris": {"android": "https://dc.lft.to/lastmile_qr_scan", "ios": "https://dc.lft.to/lastmile_qr_scan"}, "lat": 38.905649333333336, "type": "electric_scooter", "name": "58720f0b5c96d70302fc453211c1def4", "fusion_lon": 0.0, "fusion_lat": 0.0, "is_reserved": 0, "bike_id": "58720f0b5c96d70302fc453211c1def4", "lon": -77.03445183333334, "is_disabled": 0}, {"rental_uris": {"android": "https://dc.lft.to/lastmile_qr_scan", "ios": "https://dc.lft.to/lastmile_qr_scan"}, "lat": 38.92695583333333, "type": "electric_scooter", "name": "a77fc952123053b3770d07e195b9471a", "fusion_lon": 0.0, "fusion_lat": 0.0, "is_reserved": 0, "bike_id": "a77fc952123053b3770d07e195b9471a", "lon": -77.014989, "is_disabled": 0}, {"rental_uris": {"android": "https://dc.lft.to/lastmile_qr_scan", "ios": "https://dc.lft.to/lastmile_qr_scan"}, "lat": 38.89731416666667, "type": "electric_scooter", "name": "91b2a624d9777e0953e88ccf88309779", "fusion_lon": 0.0, "fusion_lat": 0.0, "is_reserved": 0, "bike_id": "91b2a624d9777e0953e88ccf88309779", "lon": -76.99513983333334, "is_disabled": 0}, {"rental_uris": {"android": "https://dc.lft.to/lastmile_qr_scan", "ios": "https://dc.lft.to/lastmile_qr_scan"}, "lat": 38.8922175, "type": "electric_scooter", "name": "cf64fd5aac6dd844619aeafdc536b194", "fusion_lon": 0.0, "fusion_lat": 0.0, "is_reserved": 0, "bike_id": "cf64fd5aac6dd844619aeafdc536b194", "lon": -77.04502183333334, "is_disabled": 0}, {"rental_uris": {"android": "https://dc.lft.to/lastmile_qr_scan", "ios": "https://dc.lft.to/lastmile_qr_scan"}, "lat": 38.9230805, "type": "electric_scooter", "name": "f8b9ecde4bb61ee480edd4fde7ea655c", "fusion_lon": 0.0, "fusion_lat": 0.0, "is_reserved": 0, "bike_id": "f8b9ecde4bb61ee480edd4fde7ea655c", "lon": -77.04219833333333, "is_disabled": 0}, {"rental_uris": {"android": "https://dc.lft.to/lastmile_qr_scan", "ios": "https://dc.lft.to/lastmile_qr_scan"}, "lat": 38.95783816666667, "type": "electric_scooter", "name": "5b73d3d2a8032fcc1babae2b4d6067e1", "fusion_lon": 0.0, "fusion_lat": 0.0, "is_reserved": 0, "bike_id": "5b73d3d2a8032fcc1babae2b4d6067e1", "lon": -77.02831866666666, "is_disabled": 0}, {"rental_uris": {"android": "https://dc.lft.to/lastmile_qr_scan", "ios": "https://dc.lft.to/lastmile_qr_scan"}, "lat": 38.901952, "type": "electric_scooter", "name": "985178ff76b6eb79be4eff00feb9decb", "fusion_lon": 0.0, "fusion_lat": 0.0, "is_reserved": 0, "bike_id": "985178ff76b6eb79be4eff00feb9decb", "lon": -77.033402, "is_disabled": 0}, {"rental_uris": {"android": "https://dc.lft.to/lastmile_qr_scan", "ios": "https://dc.lft.to/lastmile_qr_scan"}, "lat": 38.92931866666667, "type": "electric_scooter", "name": "aa8af055705610af28e61145c1b0fbb9", "fusion_lon": 0.0, "fusion_lat": 0.0, "is_reserved": 0, "bike_id": "aa8af055705610af28e61145c1b0fbb9", "lon": -77.00676483333334, "is_disabled": 0}, {"rental_uris": {"android": "https://dc.lft.to/lastmile_qr_scan", "ios": "https://dc.lft.to/lastmile_qr_scan"}, "lat": 38.934612666666666, "type": "electric_scooter", "name": "0c2af71540becadb83c1b071adc3c862", "fusion_lon": 0.0, "fusion_lat": 0.0, "is_reserved": 0, "bike_id": "0c2af71540becadb83c1b071adc3c862", "lon": -77.0580925, "is_disabled": 0}, {"rental_uris": {"android": "https://dc.lft.to/lastmile_qr_scan", "ios": "https://dc.lft.to/lastmile_qr_scan"}, "lat": 38.903310833333336, "type": "electric_scooter", "name": "a1f13861218ba5b8bf1b6a66a61956b7", "fusion_lon": 0.0, "fusion_lat": 0.0, "is_reserved": 0, "bike_id": "a1f13861218ba5b8bf1b6a66a61956b7", "lon": -77.03764816666667, "is_disabled": 0}, {"rental_uris": {"android": "https://dc.lft.to/lastmile_qr_scan", "ios": "https://dc.lft.to/lastmile_qr_scan"}, "lat": 38.91712916666667, "type": "electric_scooter", "name": "48639ab1cdfc4bc9410ffb046528fac7", "fusion_lon": 0.0, "fusion_lat": 0.0, "is_reserved": 0, "bike_id": "48639ab1cdfc4bc9410ffb046528fac7", "lon": -77.03863233333334, "is_disabled": 0}, {"rental_uris": {"android": "https://dc.lft.to/lastmile_qr_scan", "ios": "https://dc.lft.to/lastmile_qr_scan"}, "lat": 38.892209666666666, "type": "electric_scooter", "name": "eb230fed1f75f9eb277e8d7ac9e9119f", "fusion_lon": 0.0, "fusion_lat": 0.0, "is_reserved": 0, "bike_id": "eb230fed1f75f9eb277e8d7ac9e9119f", "lon": -77.02165183333334, "is_disabled": 0}, {"rental_uris": {"android": "https://dc.lft.to/lastmile_qr_scan", "ios": "https://dc.lft.to/lastmile_qr_scan"}, "lat": 38.9127005, "type": "electric_scooter", "name": "9d57d582b5c2a9f81b007e2a0173dc40", "fusion_lon": 0.0, "fusion_lat": 0.0, "is_reserved": 0, "bike_id": "9d57d582b5c2a9f81b007e2a0173dc40", "lon": -77.02223433333333, "is_disabled": 0}, {"rental_uris": {"android": "https://dc.lft.to/lastmile_qr_scan", "ios": "https://dc.lft.to/lastmile_qr_scan"}, "lat": 38.8544095, "type": "electric_scooter", "name": "4ae7d85efbfd7c2bbe2ef121f87ad4e6", "fusion_lon": 0.0, "fusion_lat": 0.0, "is_reserved": 0, "bike_id": "4ae7d85efbfd7c2bbe2ef121f87ad4e6", "lon": -76.97172116666667, "is_disabled": 0}, {"rental_uris": {"android": "https://dc.lft.to/lastmile_qr_scan", "ios": "https://dc.lft.to/lastmile_qr_scan"}, "lat": 38.892261500000004, "type": "electric_scooter", "name": "90f25708a6191c61cdc790808047a423", "fusion_lon": 0.0, "fusion_lat": 0.0, "is_reserved": 0, "bike_id": "90f25708a6191c61cdc790808047a423", "lon": -77.04360166666666, "is_disabled": 0}, {"rental_uris": {"android": "https://dc.lft.to/lastmile_qr_scan", "ios": "https://dc.lft.to/lastmile_qr_scan"}, "lat": 38.876628833333335, "type": "electric_scooter", "name": "2bea7b789b2c3a10e96bdc1c69115fe2", "fusion_lon": 0.0, "fusion_lat": 0.0, "is_reserved": 0, "bike_id": "2bea7b789b2c3a10e96bdc1c69115fe2", "lon": -77.00957483333333, "is_disabled": 0}, {"rental_uris": {"android": "https://dc.lft.to/lastmile_qr_scan", "ios": "https://dc.lft.to/lastmile_qr_scan"}, "lat": 38.9199755, "type": "electric_scooter", "name": "e38b67e4538656abc4f7fb8b0cc97551", "fusion_lon": 0.0, "fusion_lat": 0.0, "is_reserved": 0, "bike_id": "e38b67e4538656abc4f7fb8b0cc97551", "lon": -76.98397316666667, "is_disabled": 0}, {"rental_uris": {"android": "https://dc.lft.to/lastmile_qr_scan", "ios": "https://dc.lft.to/lastmile_qr_scan"}, "lat": 38.897052, "type": "electric_scooter", "name": "bedf5f5b64b39b849d6d41bd3d876289", "fusion_lon": 0.0, "fusion_lat": 0.0, "is_reserved": 0, "bike_id": "bedf5f5b64b39b849d6d41bd3d876289", "lon": -77.046656, "is_disabled": 0}, {"rental_uris": {"android": "https://dc.lft.to/lastmile_qr_scan", "ios": "https://dc.lft.to/lastmile_qr_scan"}, "lat": 38.899391, "type": "electric_bike", "name": "ab8e7ba154396b21e5cc8d1893e81119", "fusion_lon": 0.0, "fusion_lat": 0.0, "is_reserved": 0, "bike_id": "ab8e7ba154396b21e5cc8d1893e81119", "lon": -76.998405, "is_disabled": 0}, {"rental_uris": {"android": "https://dc.lft.to/lastmile_qr_scan", "ios": "https://dc.lft.to/lastmile_qr_scan"}, "lat": 38.89611933333333, "type": "electric_scooter", "name": "3debb7ae4e014ac9977dd820c6ed8a7b", "fusion_lon": 0.0, "fusion_lat": 0.0, "is_reserved": 0, "bike_id": "3debb7ae4e014ac9977dd820c6ed8a7b", "lon": -77.04798266666667, "is_disabled": 0}, {"rental_uris": {"android": "https://dc.lft.to/lastmile_qr_scan", "ios": "https://dc.lft.to/lastmile_qr_scan"}, "lat": 38.96045266666667, "type": "electric_scooter", "name": "89af85d3ca83cb1d4df092cc9d3b3072", "fusion_lon": 0.0, "fusion_lat": 0.0, "is_reserved": 0, "bike_id": "89af85d3ca83cb1d4df092cc9d3b3072", "lon": -77.005079, "is_disabled": 0}, {"rental_uris": {"android": "https://dc.lft.to/lastmile_qr_scan", "ios": "https://dc.lft.to/lastmile_qr_scan"}, "lat": 38.876671, "type": "electric_scooter", "name": "e037bdce319541e7105387d7ff5c69ab", "fusion_lon": 0.0, "fusion_lat": 0.0, "is_reserved": 0, "bike_id": "e037bdce319541e7105387d7ff5c69ab", "lon": -77.00080866666667, "is_disabled": 0}, {"rental_uris": {"android": "https://dc.lft.to/lastmile_qr_scan", "ios": "https://dc.lft.to/lastmile_qr_scan"}, "lat": 38.930986, "type": "electric_scooter", "name": "8c45c44978b411c2d10ef5f02b87f2e9", "fusion_lon": 0.0, "fusion_lat": 0.0, "is_reserved": 0, "bike_id": "8c45c44978b411c2d10ef5f02b87f2e9", "lon": -77.02657283333333, "is_disabled": 0}, {"rental_uris": {"android": "https://dc.lft.to/lastmile_qr_scan", "ios": "https://dc.lft.to/lastmile_qr_scan"}, "lat": 38.8866735, "type": "electric_scooter", "name": "fb4808654c29dd78f4618a35ca4a7123", "fusion_lon": 0.0, "fusion_lat": 0.0, "is_reserved": 0, "bike_id": "fb4808654c29dd78f4618a35ca4a7123", "lon": -77.00134283333334, "is_disabled": 0}, {"rental_uris": {"android": "https://dc.lft.to/lastmile_qr_scan", "ios": "https://dc.lft.to/lastmile_qr_scan"}, "lat": 38.89813816666667, "type": "electric_scooter", "name": "10e6f624e04636c454038db30e536839", "fusion_lon": 0.0, "fusion_lat": 0.0, "is_reserved": 0, "bike_id": "10e6f624e04636c454038db30e536839", "lon": -77.02980166666667, "is_disabled": 0}, {"rental_uris": {"android": "https://dc.lft.to/lastmile_qr_scan", "ios": "https://dc.lft.to/lastmile_qr_scan"}, "lat": 38.93082733333333, "type": "electric_scooter", "name": "e113040a9b6a0b1a79ef0642a62f7db9", "fusion_lon": 0.0, "fusion_lat": 0.0, "is_reserved": 0, "bike_id": "e113040a9b6a0b1a79ef0642a62f7db9", "lon": -77.02808833333333, "is_disabled": 0}, {"rental_uris": {"android": "https://dc.lft.to/lastmile_qr_scan", "ios": "https://dc.lft.to/lastmile_qr_scan"}, "lat": 38.90593616666666, "type": "electric_scooter", "name": "467519f7df8771b734251db06f59ccd5", "fusion_lon": 0.0, "fusion_lat": 0.0, "is_reserved": 0, "bike_id": "467519f7df8771b734251db06f59ccd5", "lon": -77.04117583333333, "is_disabled": 0}, {"rental_uris": {"android": "https://dc.lft.to/lastmile_qr_scan", "ios": "https://dc.lft.to/lastmile_qr_scan"}, "lat": 38.910338333333335, "type": "electric_scooter", "name": "bfabe4b37c9ea35514e84ac6c3a94dc4", "fusion_lon": 0.0, "fusion_lat": 0.0, "is_reserved": 0, "bike_id": "bfabe4b37c9ea35514e84ac6c3a94dc4", "lon": -77.04331666666667, "is_disabled": 0}, {"rental_uris": {"android": "https://dc.lft.to/lastmile_qr_scan", "ios": "https://dc.lft.to/lastmile_qr_scan"}, "lat": 38.924844, "type": "electric_scooter", "name": "904936c734d1637cb2c66ad6895e8fcb", "fusion_lon": 0.0, "fusion_lat": 0.0, "is_reserved": 0, "bike_id": "904936c734d1637cb2c66ad6895e8fcb", "lon": -77.02278783333334, "is_disabled": 0}, {"rental_uris": {"android": "https://dc.lft.to/lastmile_qr_scan", "ios": "https://dc.lft.to/lastmile_qr_scan"}, "lat": 38.89746233333334, "type": "electric_scooter", "name": "e962a964b385f6a9283a42ebd1cb9b8b", "fusion_lon": 0.0, "fusion_lat": 0.0, "is_reserved": 0, "bike_id": "e962a964b385f6a9283a42ebd1cb9b8b", "lon": -77.02564583333333, "is_disabled": 0}, {"rental_uris": {"android": "https://dc.lft.to/lastmile_qr_scan", "ios": "https://dc.lft.to/lastmile_qr_scan"}, "lat": 38.8922195, "type": "electric_scooter", "name": "4d2ff21d8b0a644f7e2c797ea6c9f33e", "fusion_lon": 0.0, "fusion_lat": 0.0, "is_reserved": 0, "bike_id": "4d2ff21d8b0a644f7e2c797ea6c9f33e", "lon": -77.02220766666667, "is_disabled": 0}, {"rental_uris": {"android": "https://dc.lft.to/lastmile_qr_scan", "ios": "https://dc.lft.to/lastmile_qr_scan"}, "lat": 38.840531166666665, "type": "electric_scooter", "name": "128671944b3c378c1450d7f7782db027", "fusion_lon": 0.0, "fusion_lat": 0.0, "is_reserved": 0, "bike_id": "128671944b3c378c1450d7f7782db027", "lon": -76.97667183333333, "is_disabled": 0}, {"rental_uris": {"android": "https://dc.lft.to/lastmile_qr_scan", "ios": "https://dc.lft.to/lastmile_qr_scan"}, "lat": 38.90235416666667, "type": "electric_scooter", "name": "043c251714598a50ca149676dab9147b", "fusion_lon": 0.0, "fusion_lat": 0.0, "is_reserved": 0, "bike_id": "043c251714598a50ca149676dab9147b", "lon": -77.00202733333333, "is_disabled": 0}, {"rental_uris": {"android": "https://dc.lft.to/lastmile_qr_scan", "ios": "https://dc.lft.to/lastmile_qr_scan"}, "lat": 38.92326683333334, "type": "electric_scooter", "name": "e83b53fe1b9c16d58707be91dd66bea6", "fusion_lon": 0.0, "fusion_lat": 0.0, "is_reserved": 0, "bike_id": "e83b53fe1b9c16d58707be91dd66bea6", "lon": -77.0195575, "is_disabled": 0}, {"rental_uris": {"android": "https://dc.lft.to/lastmile_qr_scan", "ios": "https://dc.lft.to/lastmile_qr_scan"}, "lat": 38.934497, "type": "electric_scooter", "name": "1c57c69b48dfb5d8e73100bee7f21e6e", "fusion_lon": 0.0, "fusion_lat": 0.0, "is_reserved": 0, "bike_id": "1c57c69b48dfb5d8e73100bee7f21e6e", "lon": -77.0896545, "is_disabled": 0}, {"rental_uris": {"android": "https://dc.lft.to/lastmile_qr_scan", "ios": "https://dc.lft.to/lastmile_qr_scan"}, "lat": 38.83045533333333, "type": "electric_bike", "name": "c0f75a1bdb6af93519624b5c0817ef1e", "fusion_lon": 0.0, "fusion_lat": 0.0, "is_reserved": 0, "bike_id": "c0f75a1bdb6af93519624b5c0817ef1e", "lon": -77.00825083333334, "is_disabled": 0}, {"rental_uris": {"android": "https://dc.lft.to/lastmile_qr_scan", "ios": "https://dc.lft.to/lastmile_qr_scan"}, "lat": 38.917857166666664, "type": "electric_scooter", "name": "1b62515a01f4b53d313e2b38ed3dfff1", "fusion_lon": 0.0, "fusion_lat": 0.0, "is_reserved": 0, "bike_id": "1b62515a01f4b53d313e2b38ed3dfff1", "lon": -77.0466525, "is_disabled": 0}, {"rental_uris": {"android": "https://dc.lft.to/lastmile_qr_scan", "ios": "https://dc.lft.to/lastmile_qr_scan"}, "lat": 38.97177083333333, "type": "electric_scooter", "name": "ca6f8c438273c857e141f7dee70ba49c", "fusion_lon": 0.0, "fusion_lat": 0.0, "is_reserved": 0, "bike_id": "ca6f8c438273c857e141f7dee70ba49c", "lon": -77.02692533333334, "is_disabled": 0}, {"rental_uris": {"android": "https://dc.lft.to/lastmile_qr_scan", "ios": "https://dc.lft.to/lastmile_qr_scan"}, "lat": 38.949774166666664, "type": "electric_scooter", "name": "aa98f8b43ce17349db1cee27f2f8c0df", "fusion_lon": 0.0, "fusion_lat": 0.0, "is_reserved": 0, "bike_id": "aa98f8b43ce17349db1cee27f2f8c0df", "lon": -77.02433566666667, "is_disabled": 0}, {"rental_uris": {"android": "https://dc.lft.to/lastmile_qr_scan", "ios": "https://dc.lft.to/lastmile_qr_scan"}, "lat": 38.926139166666665, "type": "electric_scooter", "name": "cbf036955e93232b688c6c271a820cb0", "fusion_lon": 0.0, "fusion_lat": 0.0, "is_reserved": 0, "bike_id": "cbf036955e93232b688c6c271a820cb0", "lon": -77.02160783333333, "is_disabled": 0}, {"rental_uris": {"android": "https://dc.lft.to/lastmile_qr_scan", "ios": "https://dc.lft.to/lastmile_qr_scan"}, "lat": 38.909716, "type": "electric_scooter", "name": "4f9fd49b4dcba46234a3cec1ebb89cfb", "fusion_lon": 0.0, "fusion_lat": 0.0, "is_reserved": 0, "bike_id": "4f9fd49b4dcba46234a3cec1ebb89cfb", "lon": -77.04230083333333, "is_disabled": 0}, {"rental_uris": {"android": "https://dc.lft.to/lastmile_qr_scan", "ios": "https://dc.lft.to/lastmile_qr_scan"}, "lat": 38.9085375, "type": "electric_scooter", "name": "75eef865ace909186c35411f4336ce69", "fusion_lon": 0.0, "fusion_lat": 0.0, "is_reserved": 0, "bike_id": "75eef865ace909186c35411f4336ce69", "lon": -77.01001766666667, "is_disabled": 0}, {"rental_uris": {"android": "https://dc.lft.to/lastmile_qr_scan", "ios": "https://dc.lft.to/lastmile_qr_scan"}, "lat": 38.92681983333333, "type": "electric_scooter", "name": "0fbc4322b6d371f9c6e793976a3a1db1", "fusion_lon": 0.0, "fusion_lat": 0.0, "is_reserved": 0, "bike_id": "0fbc4322b6d371f9c6e793976a3a1db1", "lon": -77.01517483333333, "is_disabled": 0}, {"rental_uris": {"android": "https://dc.lft.to/lastmile_qr_scan", "ios": "https://dc.lft.to/lastmile_qr_scan"}, "lat": 38.92445133333333, "type": "electric_scooter", "name": "0bab9ab0860cdced5821339a0d6db5de", "fusion_lon": 0.0, "fusion_lat": 0.0, "is_reserved": 0, "bike_id": "0bab9ab0860cdced5821339a0d6db5de", "lon": -77.02141416666667, "is_disabled": 0}, {"rental_uris": {"android": "https://dc.lft.to/lastmile_qr_scan", "ios": "https://dc.lft.to/lastmile_qr_scan"}, "lat": 38.90398183333333, "type": "electric_scooter", "name": "97ef14f2bf796d345663b2a8ff5bb692", "fusion_lon": 0.0, "fusion_lat": 0.0, "is_reserved": 0, "bike_id": "97ef14f2bf796d345663b2a8ff5bb692", "lon": -77.05343833333333, "is_disabled": 0}, {"rental_uris": {"android": "https://dc.lft.to/lastmile_qr_scan", "ios": "https://dc.lft.to/lastmile_qr_scan"}, "lat": 38.908673, "type": "electric_scooter", "name": "1683009fd3c583bdc1a33d2c3342a777", "fusion_lon": 0.0, "fusion_lat": 0.0, "is_reserved": 0, "bike_id": "1683009fd3c583bdc1a33d2c3342a777", "lon": -77.0377495, "is_disabled": 0}, {"rental_uris": {"android": "https://dc.lft.to/lastmile_qr_scan", "ios": "https://dc.lft.to/lastmile_qr_scan"}, "lat": 38.92157683333333, "type": "electric_scooter", "name": "3c25dc6b86845ff18ad3312175200ba6", "fusion_lon": 0.0, "fusion_lat": 0.0, "is_reserved": 0, "bike_id": "3c25dc6b86845ff18ad3312175200ba6", "lon": -77.0350465, "is_disabled": 0}, {"rental_uris": {"android": "https://dc.lft.to/lastmile_qr_scan", "ios": "https://dc.lft.to/lastmile_qr_scan"}, "lat": 38.936613, "type": "electric_scooter", "name": "b1736e5dc27eb40b866975eb3a23a29c", "fusion_lon": 0.0, "fusion_lat": 0.0, "is_reserved": 0, "bike_id": "b1736e5dc27eb40b866975eb3a23a29c", "lon": -77.0660965, "is_disabled": 0}, {"rental_uris": {"android": "https://dc.lft.to/lastmile_qr_scan", "ios": "https://dc.lft.to/lastmile_qr_scan"}, "lat": 38.91605333333333, "type": "electric_scooter", "name": "d2947fd3813661d6851fa417b58f25cf", "fusion_lon": 0.0, "fusion_lat": 0.0, "is_reserved": 0, "bike_id": "d2947fd3813661d6851fa417b58f25cf", "lon": -77.02281833333333, "is_disabled": 0}, {"rental_uris": {"android": "https://dc.lft.to/lastmile_qr_scan", "ios": "https://dc.lft.to/lastmile_qr_scan"}, "lat": 38.9250955, "type": "electric_scooter", "name": "3ca2ae47de0fd9a5e055affd3def4ca8", "fusion_lon": 0.0, "fusion_lat": 0.0, "is_reserved": 0, "bike_id": "3ca2ae47de0fd9a5e055affd3def4ca8", "lon": -77.002274, "is_disabled": 0}, {"rental_uris": {"android": "https://dc.lft.to/lastmile_qr_scan", "ios": "https://dc.lft.to/lastmile_qr_scan"}, "lat": 38.90061383333333, "type": "electric_scooter", "name": "1b74b08c25b65b7f6258add122574e51", "fusion_lon": 0.0, "fusion_lat": 0.0, "is_reserved": 0, "bike_id": "1b74b08c25b65b7f6258add122574e51", "lon": -77.04844066666666, "is_disabled": 0}, {"rental_uris": {"android": "https://dc.lft.to/lastmile_qr_scan", "ios": "https://dc.lft.to/lastmile_qr_scan"}, "lat": 38.887189166666666, "type": "electric_scooter", "name": "f5fad0cf3d80afa8631d4785da313c0e", "fusion_lon": 0.0, "fusion_lat": 0.0, "is_reserved": 0, "bike_id": "f5fad0cf3d80afa8631d4785da313c0e", "lon": -77.02835783333333, "is_disabled": 0}, {"rental_uris": {"android": "https://dc.lft.to/lastmile_qr_scan", "ios": "https://dc.lft.to/lastmile_qr_scan"}, "lat": 38.8737375, "type": "electric_scooter", "name": "23ea354ad70fdba18b1a0740ea567d09", "fusion_lon": 0.0, "fusion_lat": 0.0, "is_reserved": 0, "bike_id": "23ea354ad70fdba18b1a0740ea567d09", "lon": -77.0008785, "is_disabled": 0}, {"rental_uris": {"android": "https://dc.lft.to/lastmile_qr_scan", "ios": "https://dc.lft.to/lastmile_qr_scan"}, "lat": 38.886557333333336, "type": "electric_scooter", "name": "71a793774c81d1b7f5010f77fad1eb26", "fusion_lon": 0.0, "fusion_lat": 0.0, "is_reserved": 0, "bike_id": "71a793774c81d1b7f5010f77fad1eb26", "lon": -77.0019905, "is_disabled": 0}, {"rental_uris": {"android": "https://dc.lft.to/lastmile_qr_scan", "ios": "https://dc.lft.to/lastmile_qr_scan"}, "lat": 38.926305166666666, "type": "electric_scooter", "name": "54039f201877bb53f4db2eb167ef20e4", "fusion_lon": 0.0, "fusion_lat": 0.0, "is_reserved": 0, "bike_id": "54039f201877bb53f4db2eb167ef20e4", "lon": -77.0732525, "is_disabled": 0}, {"rental_uris": {"android": "https://dc.lft.to/lastmile_qr_scan", "ios": "https://dc.lft.to/lastmile_qr_scan"}, "lat": 38.901542666666664, "type": "electric_scooter", "name": "a15d4e2b868846f2591858c6b28b0a2b", "fusion_lon": 0.0, "fusion_lat": 0.0, "is_reserved": 0, "bike_id": "a15d4e2b868846f2591858c6b28b0a2b", "lon": -77.02928466666667, "is_disabled": 0}, {"rental_uris": {"android": "https://dc.lft.to/lastmile_qr_scan", "ios": "https://dc.lft.to/lastmile_qr_scan"}, "lat": 38.90232066666667, "type": "electric_scooter", "name": "9b92bc02d66197cd71a9534c299c0fec", "fusion_lon": 0.0, "fusion_lat": 0.0, "is_reserved": 0, "bike_id": "9b92bc02d66197cd71a9534c299c0fec", "lon": -77.034765, "is_disabled": 0}, {"rental_uris": {"android": "https://dc.lft.to/lastmile_qr_scan", "ios": "https://dc.lft.to/lastmile_qr_scan"}, "lat": 38.91064216666667, "type": "electric_scooter", "name": "8a6fa444e3406260bf971eb42b317fe5", "fusion_lon": 0.0, "fusion_lat": 0.0, "is_reserved": 0, "bike_id": "8a6fa444e3406260bf971eb42b317fe5", "lon": -77.04381133333334, "is_disabled": 0}, {"rental_uris": {"android": "https://dc.lft.to/lastmile_qr_scan", "ios": "https://dc.lft.to/lastmile_qr_scan"}, "lat": 38.922548, "type": "electric_scooter", "name": "19679332f66c77f66e4866b74c842832", "fusion_lon": 0.0, "fusion_lat": 0.0, "is_reserved": 0, "bike_id": "19679332f66c77f66e4866b74c842832", "lon": -77.01943833333333, "is_disabled": 0}, {"rental_uris": {"android": "https://dc.lft.to/lastmile_qr_scan", "ios": "https://dc.lft.to/lastmile_qr_scan"}, "lat": 38.9276185, "type": "electric_scooter", "name": "1dea2598bc218c33ad33eea867038b67", "fusion_lon": 0.0, "fusion_lat": 0.0, "is_reserved": 0, "bike_id": "1dea2598bc218c33ad33eea867038b67", "lon": -77.03202933333333, "is_disabled": 0}, {"rental_uris": {"android": "https://dc.lft.to/lastmile_qr_scan", "ios": "https://dc.lft.to/lastmile_qr_scan"}, "lat": 38.90633616666667, "type": "electric_scooter", "name": "a96e20e8d16012f5ee1fda9a9ea7f1b4", "fusion_lon": 0.0, "fusion_lat": 0.0, "is_reserved": 0, "bike_id": "a96e20e8d16012f5ee1fda9a9ea7f1b4", "lon": -77.06284366666667, "is_disabled": 0}, {"rental_uris": {"android": "https://dc.lft.to/lastmile_qr_scan", "ios": "https://dc.lft.to/lastmile_qr_scan"}, "lat": 38.905223166666666, "type": "electric_scooter", "name": "03906fa6d692e830967c78afc5413ff4", "fusion_lon": 0.0, "fusion_lat": 0.0, "is_reserved": 0, "bike_id": "03906fa6d692e830967c78afc5413ff4", "lon": -77.0644875, "is_disabled": 0}, {"rental_uris": {"android": "https://dc.lft.to/lastmile_qr_scan", "ios": "https://dc.lft.to/lastmile_qr_scan"}, "lat": 38.90089283333333, "type": "electric_scooter", "name": "c110a4546b853f4a051c903c88c95286", "fusion_lon": 0.0, "fusion_lat": 0.0, "is_reserved": 0, "bike_id": "c110a4546b853f4a051c903c88c95286", "lon": -77.04767583333333, "is_disabled": 0}, {"rental_uris": {"android": "https://dc.lft.to/lastmile_qr_scan", "ios": "https://dc.lft.to/lastmile_qr_scan"}, "lat": 38.90568116666667, "type": "electric_scooter", "name": "d06ee8bc15333d252d39c353b78454af", "fusion_lon": 0.0, "fusion_lat": 0.0, "is_reserved": 0, "bike_id": "d06ee8bc15333d252d39c353b78454af", "lon": -77.038015, "is_disabled": 0}, {"rental_uris": {"android": "https://dc.lft.to/lastmile_qr_scan", "ios": "https://dc.lft.to/lastmile_qr_scan"}, "lat": 38.91611266666666, "type": "electric_scooter", "name": "e88d38e199d134430251febcd7978303", "fusion_lon": 0.0, "fusion_lat": 0.0, "is_reserved": 0, "bike_id": "e88d38e199d134430251febcd7978303", "lon": -77.04834933333333, "is_disabled": 0}, {"rental_uris": {"android": "https://dc.lft.to/lastmile_qr_scan", "ios": "https://dc.lft.to/lastmile_qr_scan"}, "lat": 38.91067016666667, "type": "electric_scooter", "name": "bb323ae918b1944c21c68e3defc977c8", "fusion_lon": 0.0, "fusion_lat": 0.0, "is_reserved": 0, "bike_id": "bb323ae918b1944c21c68e3defc977c8", "lon": -77.05388716666667, "is_disabled": 0}, {"rental_uris": {"android": "https://dc.lft.to/lastmile_qr_scan", "ios": "https://dc.lft.to/lastmile_qr_scan"}, "lat": 38.926792666666664, "type": "electric_scooter", "name": "78edbd5328d03caa2f39b234aada8df9", "fusion_lon": 0.0, "fusion_lat": 0.0, "is_reserved": 0, "bike_id": "78edbd5328d03caa2f39b234aada8df9", "lon": -77.01513483333333, "is_disabled": 0}, {"rental_uris": {"android": "https://dc.lft.to/lastmile_qr_scan", "ios": "https://dc.lft.to/lastmile_qr_scan"}, "lat": 38.862604, "type": "electric_bike", "name": "25de9c88227f031d6a78fa1ed73b7bfc", "fusion_lon": 0.0, "fusion_lat": 0.0, "is_reserved": 0, "bike_id": "25de9c88227f031d6a78fa1ed73b7bfc", "lon": -77.05959966666667, "is_disabled": 0}, {"rental_uris": {"android": "https://dc.lft.to/lastmile_qr_scan", "ios": "https://dc.lft.to/lastmile_qr_scan"}, "lat": 38.923785, "type": "electric_scooter", "name": "fed08f99a1beb41910f9bb6750b7687d", "fusion_lon": 0.0, "fusion_lat": 0.0, "is_reserved": 0, "bike_id": "fed08f99a1beb41910f9bb6750b7687d", "lon": -77.02934666666667, "is_disabled": 0}, {"rental_uris": {"android": "https://dc.lft.to/lastmile_qr_scan", "ios": "https://dc.lft.to/lastmile_qr_scan"}, "lat": 38.909886, "type": "electric_scooter", "name": "ba89057bbd9fbfc443a9b3896131f7ea", "fusion_lon": 0.0, "fusion_lat": 0.0, "is_reserved": 0, "bike_id": "ba89057bbd9fbfc443a9b3896131f7ea", "lon": -77.0443745, "is_disabled": 0}, {"rental_uris": {"android": "https://dc.lft.to/lastmile_qr_scan", "ios": "https://dc.lft.to/lastmile_qr_scan"}, "lat": 38.89226133333333, "type": "electric_scooter", "name": "47099896e65b14ed558b1b3ba329b944", "fusion_lon": 0.0, "fusion_lat": 0.0, "is_reserved": 0, "bike_id": "47099896e65b14ed558b1b3ba329b944", "lon": -77.04365233333333, "is_disabled": 0}, {"rental_uris": {"android": "https://dc.lft.to/lastmile_qr_scan", "ios": "https://dc.lft.to/lastmile_qr_scan"}, "lat": 38.933185333333334, "type": "electric_scooter", "name": "f5c5510aab6f981cc3cdb2145e0b6faa", "fusion_lon": 0.0, "fusion_lat": 0.0, "is_reserved": 0, "bike_id": "f5c5510aab6f981cc3cdb2145e0b6faa", "lon": -77.0318395, "is_disabled": 0}, {"rental_uris": {"android": "https://dc.lft.to/lastmile_qr_scan", "ios": "https://dc.lft.to/lastmile_qr_scan"}, "lat": 38.9111705, "type": "electric_scooter", "name": "1b048159f0a5da2b31a7d0437b8ab8a2", "fusion_lon": 0.0, "fusion_lat": 0.0, "is_reserved": 0, "bike_id": "1b048159f0a5da2b31a7d0437b8ab8a2", "lon": -77.03833133333333, "is_disabled": 0}, {"rental_uris": {"android": "https://dc.lft.to/lastmile_qr_scan", "ios": "https://dc.lft.to/lastmile_qr_scan"}, "lat": 38.89258016666667, "type": "electric_scooter", "name": "e13a6640ede08daec91655d9a11bfa92", "fusion_lon": 0.0, "fusion_lat": 0.0, "is_reserved": 0, "bike_id": "e13a6640ede08daec91655d9a11bfa92", "lon": -77.05026766666667, "is_disabled": 0}, {"rental_uris": {"android": "https://dc.lft.to/lastmile_qr_scan", "ios": "https://dc.lft.to/lastmile_qr_scan"}, "lat": 38.904728, "type": "electric_scooter", "name": "f6a18d2f2670fda5e284cf4c46298a94", "fusion_lon": 0.0, "fusion_lat": 0.0, "is_reserved": 0, "bike_id": "f6a18d2f2670fda5e284cf4c46298a94", "lon": -77.034703, "is_disabled": 0}, {"rental_uris": {"android": "https://dc.lft.to/lastmile_qr_scan", "ios": "https://dc.lft.to/lastmile_qr_scan"}, "lat": 38.876443, "type": "electric_bike", "name": "7d657a0eb43d87fa290f44377e424d68", "fusion_lon": 0.0, "fusion_lat": 0.0, "is_reserved": 0, "bike_id": "7d657a0eb43d87fa290f44377e424d68", "lon": -76.93546933333333, "is_disabled": 0}, {"rental_uris": {"android": "https://dc.lft.to/lastmile_qr_scan", "ios": "https://dc.lft.to/lastmile_qr_scan"}, "lat": 38.884794, "type": "electric_scooter", "name": "9790b406958b8f472f5350d7cb30a1e6", "fusion_lon": 0.0, "fusion_lat": 0.0, "is_reserved": 0, "bike_id": "9790b406958b8f472f5350d7cb30a1e6", "lon": -77.03345983333334, "is_disabled": 0}, {"rental_uris": {"android": "https://dc.lft.to/lastmile_qr_scan", "ios": "https://dc.lft.to/lastmile_qr_scan"}, "lat": 38.900344833333335, "type": "electric_scooter", "name": "c104837b5c8282978754af7bf826b3b1", "fusion_lon": 0.0, "fusion_lat": 0.0, "is_reserved": 0, "bike_id": "c104837b5c8282978754af7bf826b3b1", "lon": -77.00214283333334, "is_disabled": 0}, {"rental_uris": {"android": "https://dc.lft.to/lastmile_qr_scan", "ios": "https://dc.lft.to/lastmile_qr_scan"}, "lat": 38.9268045, "type": "electric_scooter", "name": "026ec3417f8b50d256b28ab3b6e021b8", "fusion_lon": 0.0, "fusion_lat": 0.0, "is_reserved": 0, "bike_id": "026ec3417f8b50d256b28ab3b6e021b8", "lon": -77.0274885, "is_disabled": 0}, {"rental_uris": {"android": "https://dc.lft.to/lastmile_qr_scan", "ios": "https://dc.lft.to/lastmile_qr_scan"}, "lat": 38.918114833333334, "type": "electric_scooter", "name": "fc2d83d4f14cc3fa0599f7a50fc00a55", "fusion_lon": 0.0, "fusion_lat": 0.0, "is_reserved": 0, "bike_id": "fc2d83d4f14cc3fa0599f7a50fc00a55", "lon": -77.041553, "is_disabled": 0}, {"rental_uris": {"android": "https://dc.lft.to/lastmile_qr_scan", "ios": "https://dc.lft.to/lastmile_qr_scan"}, "lat": 38.916179166666666, "type": "electric_scooter", "name": "4cba96e2d65b5ac2f509acf585190021", "fusion_lon": 0.0, "fusion_lat": 0.0, "is_reserved": 0, "bike_id": "4cba96e2d65b5ac2f509acf585190021", "lon": -77.02392833333333, "is_disabled": 0}, {"rental_uris": {"android": "https://dc.lft.to/lastmile_qr_scan", "ios": "https://dc.lft.to/lastmile_qr_scan"}, "lat": 38.95753116666667, "type": "electric_bike", "name": "2c2a1836a4c38f66b3d9edd25d17ceec", "fusion_lon": 0.0, "fusion_lat": 0.0, "is_reserved": 0, "bike_id": "2c2a1836a4c38f66b3d9edd25d17ceec", "lon": -76.98022766666666, "is_disabled": 0}, {"rental_uris": {"android": "https://dc.lft.to/lastmile_qr_scan", "ios": "https://dc.lft.to/lastmile_qr_scan"}, "lat": 38.9017355, "type": "electric_scooter", "name": "fd3018c16d21430b5dbf06bb90d1afe3", "fusion_lon": 0.0, "fusion_lat": 0.0, "is_reserved": 0, "bike_id": "fd3018c16d21430b5dbf06bb90d1afe3", "lon": -77.04888283333334, "is_disabled": 0}, {"rental_uris": {"android": "https://dc.lft.to/lastmile_qr_scan", "ios": "https://dc.lft.to/lastmile_qr_scan"}, "lat": 38.8579245, "type": "electric_bike", "name": "0ee258d3c557b4b471f1996e69e69e0b", "fusion_lon": 0.0, "fusion_lat": 0.0, "is_reserved": 0, "bike_id": "0ee258d3c557b4b471f1996e69e69e0b", "lon": -77.09965033333333, "is_disabled": 0}, {"rental_uris": {"android": "https://dc.lft.to/lastmile_qr_scan", "ios": "https://dc.lft.to/lastmile_qr_scan"}, "lat": 38.918749166666665, "type": "electric_scooter", "name": "78afc8a2e5dc9ce00f76e5fed9899cbc", "fusion_lon": 0.0, "fusion_lat": 0.0, "is_reserved": 0, "bike_id": "78afc8a2e5dc9ce00f76e5fed9899cbc", "lon": -77.04198366666667, "is_disabled": 0}, {"rental_uris": {"android": "https://dc.lft.to/lastmile_qr_scan", "ios": "https://dc.lft.to/lastmile_qr_scan"}, "lat": 38.955918833333335, "type": "electric_scooter", "name": "06562d6647702b41ed5ce23144c26b60", "fusion_lon": 0.0, "fusion_lat": 0.0, "is_reserved": 0, "bike_id": "06562d6647702b41ed5ce23144c26b60", "lon": -77.02813566666667, "is_disabled": 0}, {"rental_uris": {"android": "https://dc.lft.to/lastmile_qr_scan", "ios": "https://dc.lft.to/lastmile_qr_scan"}, "lat": 38.91605533333333, "type": "electric_scooter", "name": "118719b02931ac7d23d61c9a75bfbd12", "fusion_lon": 0.0, "fusion_lat": 0.0, "is_reserved": 0, "bike_id": "118719b02931ac7d23d61c9a75bfbd12", "lon": -77.04010366666667, "is_disabled": 0}, {"rental_uris": {"android": "https://dc.lft.to/lastmile_qr_scan", "ios": "https://dc.lft.to/lastmile_qr_scan"}, "lat": 38.9324085, "type": "electric_scooter", "name": "3b1033f299a7feb99335e8ed364b7ba6", "fusion_lon": 0.0, "fusion_lat": 0.0, "is_reserved": 0, "bike_id": "3b1033f299a7feb99335e8ed364b7ba6", "lon": -77.02824583333333, "is_disabled": 0}, {"rental_uris": {"android": "https://dc.lft.to/lastmile_qr_scan", "ios": "https://dc.lft.to/lastmile_qr_scan"}, "lat": 38.901592, "type": "electric_scooter", "name": "8d67dc5ef3dacabb0a46def88cad6825", "fusion_lon": 0.0, "fusion_lat": 0.0, "is_reserved": 0, "bike_id": "8d67dc5ef3dacabb0a46def88cad6825", "lon": -76.98230966666667, "is_disabled": 0}, {"rental_uris": {"android": "https://dc.lft.to/lastmile_qr_scan", "ios": "https://dc.lft.to/lastmile_qr_scan"}, "lat": 38.864849166666666, "type": "electric_bike", "name": "cdd6c24e0e73ef27c6d47e2bca9feac7", "fusion_lon": 0.0, "fusion_lat": 0.0, "is_reserved": 0, "bike_id": "cdd6c24e0e73ef27c6d47e2bca9feac7", "lon": -76.9774455, "is_disabled": 0}, {"rental_uris": {"android": "https://dc.lft.to/lastmile_qr_scan", "ios": "https://dc.lft.to/lastmile_qr_scan"}, "lat": 38.924290666666664, "type": "electric_scooter", "name": "d49e80ea079b0169edf173c66784df2f", "fusion_lon": 0.0, "fusion_lat": 0.0, "is_reserved": 0, "bike_id": "d49e80ea079b0169edf173c66784df2f", "lon": -77.021366, "is_disabled": 0}, {"rental_uris": {"android": "https://dc.lft.to/lastmile_qr_scan", "ios": "https://dc.lft.to/lastmile_qr_scan"}, "lat": 38.95418566666667, "type": "electric_scooter", "name": "a3521ca31a76c36336f949117ac0c1ee", "fusion_lon": 0.0, "fusion_lat": 0.0, "is_reserved": 0, "bike_id": "a3521ca31a76c36336f949117ac0c1ee", "lon": -77.028164, "is_disabled": 0}, {"rental_uris": {"android": "https://dc.lft.to/lastmile_qr_scan", "ios": "https://dc.lft.to/lastmile_qr_scan"}, "lat": 38.884434666666664, "type": "electric_scooter", "name": "553e1aa54eba4cffd9a9ff55b85d9cd8", "fusion_lon": 0.0, "fusion_lat": 0.0, "is_reserved": 0, "bike_id": "553e1aa54eba4cffd9a9ff55b85d9cd8", "lon": -76.9576695, "is_disabled": 0}, {"rental_uris": {"android": "https://dc.lft.to/lastmile_qr_scan", "ios": "https://dc.lft.to/lastmile_qr_scan"}, "lat": 38.903115, "type": "electric_scooter", "name": "4e639a8c845fa845c3c6a63ffcec4f3e", "fusion_lon": 0.0, "fusion_lat": 0.0, "is_reserved": 0, "bike_id": "4e639a8c845fa845c3c6a63ffcec4f3e", "lon": -76.975023, "is_disabled": 0}, {"rental_uris": {"android": "https://dc.lft.to/lastmile_qr_scan", "ios": "https://dc.lft.to/lastmile_qr_scan"}, "lat": 38.89293333333333, "type": "electric_scooter", "name": "a467de554064d48bae8e29779265c879", "fusion_lon": 0.0, "fusion_lat": 0.0, "is_reserved": 0, "bike_id": "a467de554064d48bae8e29779265c879", "lon": -76.998394, "is_disabled": 0}, {"rental_uris": {"android": "https://dc.lft.to/lastmile_qr_scan", "ios": "https://dc.lft.to/lastmile_qr_scan"}, "lat": 38.916362, "type": "electric_scooter", "name": "6d3a80a1e49a5f71c1b9ba1da3e6b376", "fusion_lon": 0.0, "fusion_lat": 0.0, "is_reserved": 0, "bike_id": "6d3a80a1e49a5f71c1b9ba1da3e6b376", "lon": -77.04815716666667, "is_disabled": 0}, {"rental_uris": {"android": "https://dc.lft.to/lastmile_qr_scan", "ios": "https://dc.lft.to/lastmile_qr_scan"}, "lat": 38.90263983333333, "type": "electric_scooter", "name": "e446d2145a069ab22a1b4bc4633a6699", "fusion_lon": 0.0, "fusion_lat": 0.0, "is_reserved": 0, "bike_id": "e446d2145a069ab22a1b4bc4633a6699", "lon": -77.04332966666666, "is_disabled": 0}, {"rental_uris": {"android": "https://dc.lft.to/lastmile_qr_scan", "ios": "https://dc.lft.to/lastmile_qr_scan"}, "lat": 38.87701633333333, "type": "electric_scooter", "name": "06635c302342a12df96b1a5793e0448e", "fusion_lon": 0.0, "fusion_lat": 0.0, "is_reserved": 0, "bike_id": "06635c302342a12df96b1a5793e0448e", "lon": -77.01764583333333, "is_disabled": 0}, {"rental_uris": {"android": "https://dc.lft.to/lastmile_qr_scan", "ios": "https://dc.lft.to/lastmile_qr_scan"}, "lat": 38.908349, "type": "electric_scooter", "name": "30f6fc66080a6e4e05745b716484485d", "fusion_lon": 0.0, "fusion_lat": 0.0, "is_reserved": 0, "bike_id": "30f6fc66080a6e4e05745b716484485d", "lon": -77.0417045, "is_disabled": 0}, {"rental_uris": {"android": "https://dc.lft.to/lastmile_qr_scan", "ios": "https://dc.lft.to/lastmile_qr_scan"}, "lat": 38.87588733333333, "type": "electric_scooter", "name": "f9f06a12086eca01f0a3828baf8ae3bd", "fusion_lon": 0.0, "fusion_lat": 0.0, "is_reserved": 0, "bike_id": "f9f06a12086eca01f0a3828baf8ae3bd", "lon": -77.00579583333334, "is_disabled": 0}, {"rental_uris": {"android": "https://dc.lft.to/lastmile_qr_scan", "ios": "https://dc.lft.to/lastmile_qr_scan"}, "lat": 38.895178666666666, "type": "electric_scooter", "name": "d459c94f693f27ed092ce432303be6d0", "fusion_lon": 0.0, "fusion_lat": 0.0, "is_reserved": 0, "bike_id": "d459c94f693f27ed092ce432303be6d0", "lon": -76.98115683333333, "is_disabled": 0}, {"rental_uris": {"android": "https://dc.lft.to/lastmile_qr_scan", "ios": "https://dc.lft.to/lastmile_qr_scan"}, "lat": 38.92326116666667, "type": "electric_scooter", "name": "1d3cd52cae95fe4ef6b680dc93546489", "fusion_lon": 0.0, "fusion_lat": 0.0, "is_reserved": 0, "bike_id": "1d3cd52cae95fe4ef6b680dc93546489", "lon": -77.03862733333334, "is_disabled": 0}, {"rental_uris": {"android": "https://dc.lft.to/lastmile_qr_scan", "ios": "https://dc.lft.to/lastmile_qr_scan"}, "lat": 38.8758945, "type": "electric_scooter", "name": "a4fe1acac20e4961d1f3ac9093d2eb4c", "fusion_lon": 0.0, "fusion_lat": 0.0, "is_reserved": 0, "bike_id": "a4fe1acac20e4961d1f3ac9093d2eb4c", "lon": -77.00581866666667, "is_disabled": 0}, {"rental_uris": {"android": "https://dc.lft.to/lastmile_qr_scan", "ios": "https://dc.lft.to/lastmile_qr_scan"}, "lat": 38.935536666666664, "type": "electric_scooter", "name": "8f39eb45ea0469708a51942bd41c4fd8", "fusion_lon": 0.0, "fusion_lat": 0.0, "is_reserved": 0, "bike_id": "8f39eb45ea0469708a51942bd41c4fd8", "lon": -77.08738, "is_disabled": 0}, {"rental_uris": {"android": "https://dc.lft.to/lastmile_qr_scan", "ios": "https://dc.lft.to/lastmile_qr_scan"}, "lat": 38.905377333333334, "type": "electric_scooter", "name": "0fb5a52815612a059028a2002e8d2ace", "fusion_lon": 0.0, "fusion_lat": 0.0, "is_reserved": 0, "bike_id": "0fb5a52815612a059028a2002e8d2ace", "lon": -77.06534333333333, "is_disabled": 0}, {"rental_uris": {"android": "https://dc.lft.to/lastmile_qr_scan", "ios": "https://dc.lft.to/lastmile_qr_scan"}, "lat": 38.8972605, "type": "electric_scooter", "name": "83d51a854843e19dccf7d51b726a7156", "fusion_lon": 0.0, "fusion_lat": 0.0, "is_reserved": 0, "bike_id": "83d51a854843e19dccf7d51b726a7156", "lon": -77.02723516666667, "is_disabled": 0}, {"rental_uris": {"android": "https://dc.lft.to/lastmile_qr_scan", "ios": "https://dc.lft.to/lastmile_qr_scan"}, "lat": 38.90281616666667, "type": "electric_scooter", "name": "45d1ba1bb8dd134955720f84df3ef152", "fusion_lon": 0.0, "fusion_lat": 0.0, "is_reserved": 0, "bike_id": "45d1ba1bb8dd134955720f84df3ef152", "lon": -77.03466133333333, "is_disabled": 0}, {"rental_uris": {"android": "https://dc.lft.to/lastmile_qr_scan", "ios": "https://dc.lft.to/lastmile_qr_scan"}, "lat": 38.899233, "type": "electric_scooter", "name": "b690848bb5b52a909f3cf9400851468f", "fusion_lon": 0.0, "fusion_lat": 0.0, "is_reserved": 0, "bike_id": "b690848bb5b52a909f3cf9400851468f", "lon": -77.0137765, "is_disabled": 0}, {"rental_uris": {"android": "https://dc.lft.to/lastmile_qr_scan", "ios": "https://dc.lft.to/lastmile_qr_scan"}, "lat": 38.92449633333333, "type": "electric_scooter", "name": "e61de42a2bfebea0117efb94b79960b7", "fusion_lon": 0.0, "fusion_lat": 0.0, "is_reserved": 0, "bike_id": "e61de42a2bfebea0117efb94b79960b7", "lon": -77.02247366666667, "is_disabled": 0}, {"rental_uris": {"android": "https://dc.lft.to/lastmile_qr_scan", "ios": "https://dc.lft.to/lastmile_qr_scan"}, "lat": 38.92046116666667, "type": "electric_scooter", "name": "c10b58c7fdb54d4b72112a311075b44b", "fusion_lon": 0.0, "fusion_lat": 0.0, "is_reserved": 0, "bike_id": "c10b58c7fdb54d4b72112a311075b44b", "lon": -77.01670683333333, "is_disabled": 0}, {"rental_uris": {"android": "https://dc.lft.to/lastmile_qr_scan", "ios": "https://dc.lft.to/lastmile_qr_scan"}, "lat": 38.92329633333333, "type": "electric_scooter", "name": "e2c3869f6b3b1a04de51b2b57f68fcdb", "fusion_lon": 0.0, "fusion_lat": 0.0, "is_reserved": 0, "bike_id": "e2c3869f6b3b1a04de51b2b57f68fcdb", "lon": -77.02075733333334, "is_disabled": 0}, {"rental_uris": {"android": "https://dc.lft.to/lastmile_qr_scan", "ios": "https://dc.lft.to/lastmile_qr_scan"}, "lat": 38.89721883333333, "type": "electric_scooter", "name": "0f99e36f968696da843db586923b431e", "fusion_lon": 0.0, "fusion_lat": 0.0, "is_reserved": 0, "bike_id": "0f99e36f968696da843db586923b431e", "lon": -77.03217683333334, "is_disabled": 0}, {"rental_uris": {"android": "https://dc.lft.to/lastmile_qr_scan", "ios": "https://dc.lft.to/lastmile_qr_scan"}, "lat": 38.8837715, "type": "electric_scooter", "name": "2755ec47ac4a698348a5bb97bf6c2e01", "fusion_lon": 0.0, "fusion_lat": 0.0, "is_reserved": 0, "bike_id": "2755ec47ac4a698348a5bb97bf6c2e01", "lon": -76.99518233333333, "is_disabled": 0}, {"rental_uris": {"android": "https://dc.lft.to/lastmile_qr_scan", "ios": "https://dc.lft.to/lastmile_qr_scan"}, "lat": 38.92254833333333, "type": "electric_scooter", "name": "4e79c0a85f3c88a04064ce24962b7c8c", "fusion_lon": 0.0, "fusion_lat": 0.0, "is_reserved": 0, "bike_id": "4e79c0a85f3c88a04064ce24962b7c8c", "lon": -77.03085316666666, "is_disabled": 0}, {"rental_uris": {"android": "https://dc.lft.to/lastmile_qr_scan", "ios": "https://dc.lft.to/lastmile_qr_scan"}, "lat": 38.90015416666667, "type": "electric_scooter", "name": "fe27e64c7eb0d156bff809e9086d3c28", "fusion_lon": 0.0, "fusion_lat": 0.0, "is_reserved": 0, "bike_id": "fe27e64c7eb0d156bff809e9086d3c28", "lon": -77.0124955, "is_disabled": 0}, {"rental_uris": {"android": "https://dc.lft.to/lastmile_qr_scan", "ios": "https://dc.lft.to/lastmile_qr_scan"}, "lat": 38.90358033333333, "type": "electric_scooter", "name": "4bcf13beec56f40154fecd3ef93ac39d", "fusion_lon": 0.0, "fusion_lat": 0.0, "is_reserved": 0, "bike_id": "4bcf13beec56f40154fecd3ef93ac39d", "lon": -77.03210333333334, "is_disabled": 0}, {"rental_uris": {"android": "https://dc.lft.to/lastmile_qr_scan", "ios": "https://dc.lft.to/lastmile_qr_scan"}, "lat": 38.929012, "type": "electric_scooter", "name": "f27bbea8fddc35e9d464e86e9d7d051a", "fusion_lon": 0.0, "fusion_lat": 0.0, "is_reserved": 0, "bike_id": "f27bbea8fddc35e9d464e86e9d7d051a", "lon": -77.0141445, "is_disabled": 0}, {"rental_uris": {"android": "https://dc.lft.to/lastmile_qr_scan", "ios": "https://dc.lft.to/lastmile_qr_scan"}, "lat": 38.930057, "type": "electric_scooter", "name": "e8327f5125b9de958ccb6ec9b95f921f", "fusion_lon": 0.0, "fusion_lat": 0.0, "is_reserved": 0, "bike_id": "e8327f5125b9de958ccb6ec9b95f921f", "lon": -77.02111, "is_disabled": 0}, {"rental_uris": {"android": "https://dc.lft.to/lastmile_qr_scan", "ios": "https://dc.lft.to/lastmile_qr_scan"}, "lat": 38.88990166666667, "type": "electric_scooter", "name": "8ca45c95ac02072cb6dec03d7c9a0e97", "fusion_lon": 0.0, "fusion_lat": 0.0, "is_reserved": 0, "bike_id": "8ca45c95ac02072cb6dec03d7c9a0e97", "lon": -77.00339683333333, "is_disabled": 0}, {"rental_uris": {"android": "https://dc.lft.to/lastmile_qr_scan", "ios": "https://dc.lft.to/lastmile_qr_scan"}, "lat": 38.887059, "type": "electric_scooter", "name": "880c846df02ccace356449bf706fff4c", "fusion_lon": 0.0, "fusion_lat": 0.0, "is_reserved": 0, "bike_id": "880c846df02ccace356449bf706fff4c", "lon": -77.01366233333333, "is_disabled": 0}, {"rental_uris": {"android": "https://dc.lft.to/lastmile_qr_scan", "ios": "https://dc.lft.to/lastmile_qr_scan"}, "lat": 38.9270995, "type": "electric_scooter", "name": "5442737a81f118f3eed315b6e0c50676", "fusion_lon": 0.0, "fusion_lat": 0.0, "is_reserved": 0, "bike_id": "5442737a81f118f3eed315b6e0c50676", "lon": -77.02405483333334, "is_disabled": 0}, {"rental_uris": {"android": "https://dc.lft.to/lastmile_qr_scan", "ios": "https://dc.lft.to/lastmile_qr_scan"}, "lat": 38.90268366666667, "type": "electric_scooter", "name": "bafd885f3450f5ec4f25753a284b4151", "fusion_lon": 0.0, "fusion_lat": 0.0, "is_reserved": 0, "bike_id": "bafd885f3450f5ec4f25753a284b4151", "lon": -77.01542283333333, "is_disabled": 0}, {"rental_uris": {"android": "https://dc.lft.to/lastmile_qr_scan", "ios": "https://dc.lft.to/lastmile_qr_scan"}, "lat": 38.89967433333333, "type": "electric_scooter", "name": "4f5ac79cbe38a0d1dd49403d5b4fdf2e", "fusion_lon": 0.0, "fusion_lat": 0.0, "is_reserved": 0, "bike_id": "4f5ac79cbe38a0d1dd49403d5b4fdf2e", "lon": -77.03082483333333, "is_disabled": 0}, {"rental_uris": {"android": "https://dc.lft.to/lastmile_qr_scan", "ios": "https://dc.lft.to/lastmile_qr_scan"}, "lat": 38.90837533333333, "type": "electric_scooter", "name": "cc10a399e1c42069bd9f3d089d75f340", "fusion_lon": 0.0, "fusion_lat": 0.0, "is_reserved": 0, "bike_id": "cc10a399e1c42069bd9f3d089d75f340", "lon": -77.0730185, "is_disabled": 0}, {"rental_uris": {"android": "https://dc.lft.to/lastmile_qr_scan", "ios": "https://dc.lft.to/lastmile_qr_scan"}, "lat": 38.9105245, "type": "electric_scooter", "name": "75e9d55130ea03b74b671d0b25b0574e", "fusion_lon": 0.0, "fusion_lat": 0.0, "is_reserved": 0, "bike_id": "75e9d55130ea03b74b671d0b25b0574e", "lon": -77.043752, "is_disabled": 0}, {"rental_uris": {"android": "https://dc.lft.to/lastmile_qr_scan", "ios": "https://dc.lft.to/lastmile_qr_scan"}, "lat": 38.9136785, "type": "electric_scooter", "name": "6ad696d7ad6fa15d0284d9dcf79a9a81", "fusion_lon": 0.0, "fusion_lat": 0.0, "is_reserved": 0, "bike_id": "6ad696d7ad6fa15d0284d9dcf79a9a81", "lon": -77.03211, "is_disabled": 0}, {"rental_uris": {"android": "https://dc.lft.to/lastmile_qr_scan", "ios": "https://dc.lft.to/lastmile_qr_scan"}, "lat": 38.894013666666666, "type": "electric_scooter", "name": "387b070d82575cddedd4094e2ca0eabd", "fusion_lon": 0.0, "fusion_lat": 0.0, "is_reserved": 0, "bike_id": "387b070d82575cddedd4094e2ca0eabd", "lon": -77.02166716666666, "is_disabled": 0}, {"rental_uris": {"android": "https://dc.lft.to/lastmile_qr_scan", "ios": "https://dc.lft.to/lastmile_qr_scan"}, "lat": 38.8898945, "type": "electric_scooter", "name": "a919954cdec9c66ff7d58cae10aa0118", "fusion_lon": 0.0, "fusion_lat": 0.0, "is_reserved": 0, "bike_id": "a919954cdec9c66ff7d58cae10aa0118", "lon": -77.00336616666667, "is_disabled": 0}, {"rental_uris": {"android": "https://dc.lft.to/lastmile_qr_scan", "ios": "https://dc.lft.to/lastmile_qr_scan"}, "lat": 38.878635833333334, "type": "electric_scooter", "name": "c06a59c985910acc0a8ac8c1eb098b9d", "fusion_lon": 0.0, "fusion_lat": 0.0, "is_reserved": 0, "bike_id": "c06a59c985910acc0a8ac8c1eb098b9d", "lon": -76.99165183333334, "is_disabled": 0}, {"rental_uris": {"android": "https://dc.lft.to/lastmile_qr_scan", "ios": "https://dc.lft.to/lastmile_qr_scan"}, "lat": 38.898329333333336, "type": "electric_scooter", "name": "e96a6e5906de1a55ef3b3198c12682a0", "fusion_lon": 0.0, "fusion_lat": 0.0, "is_reserved": 0, "bike_id": "e96a6e5906de1a55ef3b3198c12682a0", "lon": -76.9463605, "is_disabled": 0}, {"rental_uris": {"android": "https://dc.lft.to/lastmile_qr_scan", "ios": "https://dc.lft.to/lastmile_qr_scan"}, "lat": 38.90798516666667, "type": "electric_scooter", "name": "9c8d87aa4e6d54afc0f9e14df7a572e1", "fusion_lon": 0.0, "fusion_lat": 0.0, "is_reserved": 0, "bike_id": "9c8d87aa4e6d54afc0f9e14df7a572e1", "lon": -77.04983866666667, "is_disabled": 0}, {"rental_uris": {"android": "https://dc.lft.to/lastmile_qr_scan", "ios": "https://dc.lft.to/lastmile_qr_scan"}, "lat": 38.918153333333336, "type": "electric_scooter", "name": "62bd566412144f33f17225b3a80a9c8e", "fusion_lon": 0.0, "fusion_lat": 0.0, "is_reserved": 0, "bike_id": "62bd566412144f33f17225b3a80a9c8e", "lon": -77.04761666666667, "is_disabled": 0}, {"rental_uris": {"android": "https://dc.lft.to/lastmile_qr_scan", "ios": "https://dc.lft.to/lastmile_qr_scan"}, "lat": 38.93537283333333, "type": "electric_scooter", "name": "eb7104a0c1d17993d7eb32508c847df0", "fusion_lon": 0.0, "fusion_lat": 0.0, "is_reserved": 0, "bike_id": "eb7104a0c1d17993d7eb32508c847df0", "lon": -77.07277633333334, "is_disabled": 0}, {"rental_uris": {"android": "https://dc.lft.to/lastmile_qr_scan", "ios": "https://dc.lft.to/lastmile_qr_scan"}, "lat": 38.88128666666667, "type": "electric_scooter", "name": "951d14a47679f852462d08cacdaf5d30", "fusion_lon": 0.0, "fusion_lat": 0.0, "is_reserved": 0, "bike_id": "951d14a47679f852462d08cacdaf5d30", "lon": -76.99296833333334, "is_disabled": 0}, {"rental_uris": {"android": "https://dc.lft.to/lastmile_qr_scan", "ios": "https://dc.lft.to/lastmile_qr_scan"}, "lat": 38.92614833333333, "type": "electric_scooter", "name": "8239057fe83e2d2c4a8a4ad33028318a", "fusion_lon": 0.0, "fusion_lat": 0.0, "is_reserved": 0, "bike_id": "8239057fe83e2d2c4a8a4ad33028318a", "lon": -77.02160733333334, "is_disabled": 0}, {"rental_uris": {"android": "https://dc.lft.to/lastmile_qr_scan", "ios": "https://dc.lft.to/lastmile_qr_scan"}, "lat": 38.89232, "type": "electric_scooter", "name": "71d40c4a81d372b24e2b82dcf6d6cc30", "fusion_lon": 0.0, "fusion_lat": 0.0, "is_reserved": 0, "bike_id": "71d40c4a81d372b24e2b82dcf6d6cc30", "lon": -77.00303483333333, "is_disabled": 0}, {"rental_uris": {"android": "https://dc.lft.to/lastmile_qr_scan", "ios": "https://dc.lft.to/lastmile_qr_scan"}, "lat": 38.903844666666664, "type": "electric_scooter", "name": "2bd7364c7ab5f8edcd13bd8ad72869f5", "fusion_lon": 0.0, "fusion_lat": 0.0, "is_reserved": 0, "bike_id": "2bd7364c7ab5f8edcd13bd8ad72869f5", "lon": -77.04675516666667, "is_disabled": 0}, {"rental_uris": {"android": "https://dc.lft.to/lastmile_qr_scan", "ios": "https://dc.lft.to/lastmile_qr_scan"}, "lat": 38.926051666666666, "type": "electric_scooter", "name": "945c47657ba3a2d6f37ea04f3a24e9b8", "fusion_lon": 0.0, "fusion_lat": 0.0, "is_reserved": 0, "bike_id": "945c47657ba3a2d6f37ea04f3a24e9b8", "lon": -77.02157316666667, "is_disabled": 0}, {"rental_uris": {"android": "https://dc.lft.to/lastmile_qr_scan", "ios": "https://dc.lft.to/lastmile_qr_scan"}, "lat": 38.881387, "type": "electric_scooter", "name": "d9213e88074cafee1da3e3cb5c7e0b98", "fusion_lon": 0.0, "fusion_lat": 0.0, "is_reserved": 0, "bike_id": "d9213e88074cafee1da3e3cb5c7e0b98", "lon": -76.99620533333334, "is_disabled": 0}, {"rental_uris": {"android": "https://dc.lft.to/lastmile_qr_scan", "ios": "https://dc.lft.to/lastmile_qr_scan"}, "lat": 38.9097425, "type": "electric_scooter", "name": "b883b45f0b551ef903308b0ae963ca0f", "fusion_lon": 0.0, "fusion_lat": 0.0, "is_reserved": 0, "bike_id": "b883b45f0b551ef903308b0ae963ca0f", "lon": -77.031713, "is_disabled": 0}, {"rental_uris": {"android": "https://dc.lft.to/lastmile_qr_scan", "ios": "https://dc.lft.to/lastmile_qr_scan"}, "lat": 38.90143483333333, "type": "electric_scooter", "name": "132cd9fbf5ad3fc7da632459836446dd", "fusion_lon": 0.0, "fusion_lat": 0.0, "is_reserved": 0, "bike_id": "132cd9fbf5ad3fc7da632459836446dd", "lon": -77.0293125, "is_disabled": 0}, {"rental_uris": {"android": "https://dc.lft.to/lastmile_qr_scan", "ios": "https://dc.lft.to/lastmile_qr_scan"}, "lat": 38.9261475, "type": "electric_scooter", "name": "9f4e1f6ab04824f22c4bf1479412370f", "fusion_lon": 0.0, "fusion_lat": 0.0, "is_reserved": 0, "bike_id": "9f4e1f6ab04824f22c4bf1479412370f", "lon": -77.02160416666666, "is_disabled": 0}, {"rental_uris": {"android": "https://dc.lft.to/lastmile_qr_scan", "ios": "https://dc.lft.to/lastmile_qr_scan"}, "lat": 38.92332366666667, "type": "electric_scooter", "name": "7e3250e32da30490b8b98c6540c42fb2", "fusion_lon": 0.0, "fusion_lat": 0.0, "is_reserved": 0, "bike_id": "7e3250e32da30490b8b98c6540c42fb2", "lon": -77.03508233333334, "is_disabled": 0}, {"rental_uris": {"android": "https://dc.lft.to/lastmile_qr_scan", "ios": "https://dc.lft.to/lastmile_qr_scan"}, "lat": 38.924336, "type": "electric_bike", "name": "9e02dc83cfe7fe6d836642d5db33e82b", "fusion_lon": 0.0, "fusion_lat": 0.0, "is_reserved": 0, "bike_id": "9e02dc83cfe7fe6d836642d5db33e82b", "lon": -76.97157683333333, "is_disabled": 0}, {"rental_uris": {"android": "https://dc.lft.to/lastmile_qr_scan", "ios": "https://dc.lft.to/lastmile_qr_scan"}, "lat": 38.89706983333333, "type": "electric_scooter", "name": "a40311739c2b3bb97c537c4102a522c9", "fusion_lon": 0.0, "fusion_lat": 0.0, "is_reserved": 0, "bike_id": "a40311739c2b3bb97c537c4102a522c9", "lon": -77.02726466666667, "is_disabled": 0}, {"rental_uris": {"android": "https://dc.lft.to/lastmile_qr_scan", "ios": "https://dc.lft.to/lastmile_qr_scan"}, "lat": 38.90574633333333, "type": "electric_scooter", "name": "d056bb9fb3a164182247fbc63aa4a9f9", "fusion_lon": 0.0, "fusion_lat": 0.0, "is_reserved": 0, "bike_id": "d056bb9fb3a164182247fbc63aa4a9f9", "lon": -77.00612433333333, "is_disabled": 0}, {"rental_uris": {"android": "https://dc.lft.to/lastmile_qr_scan", "ios": "https://dc.lft.to/lastmile_qr_scan"}, "lat": 38.92762866666666, "type": "electric_scooter", "name": "75fcb344844060f578de426a154414b3", "fusion_lon": 0.0, "fusion_lat": 0.0, "is_reserved": 0, "bike_id": "75fcb344844060f578de426a154414b3", "lon": -77.03215083333333, "is_disabled": 0}, {"rental_uris": {"android": "https://dc.lft.to/lastmile_qr_scan", "ios": "https://dc.lft.to/lastmile_qr_scan"}, "lat": 38.89228883333333, "type": "electric_scooter", "name": "bbbc671bfd7fc8b0fe69577877d08cd5", "fusion_lon": 0.0, "fusion_lat": 0.0, "is_reserved": 0, "bike_id": "bbbc671bfd7fc8b0fe69577877d08cd5", "lon": -77.043406, "is_disabled": 0}, {"rental_uris": {"android": "https://dc.lft.to/lastmile_qr_scan", "ios": "https://dc.lft.to/lastmile_qr_scan"}, "lat": 38.89829666666667, "type": "electric_scooter", "name": "57fac262211ac644454c539538514289", "fusion_lon": 0.0, "fusion_lat": 0.0, "is_reserved": 0, "bike_id": "57fac262211ac644454c539538514289", "lon": -77.04574016666666, "is_disabled": 0}, {"rental_uris": {"android": "https://dc.lft.to/lastmile_qr_scan", "ios": "https://dc.lft.to/lastmile_qr_scan"}, "lat": 38.87646383333333, "type": "electric_scooter", "name": "d491633525987e0cae8a3af759ebc3c0", "fusion_lon": 0.0, "fusion_lat": 0.0, "is_reserved": 0, "bike_id": "d491633525987e0cae8a3af759ebc3c0", "lon": -77.00241866666667, "is_disabled": 0}, {"rental_uris": {"android": "https://dc.lft.to/lastmile_qr_scan", "ios": "https://dc.lft.to/lastmile_qr_scan"}, "lat": 38.90405033333333, "type": "electric_scooter", "name": "f9e1c789f6dc5db4f6476d0998406617", "fusion_lon": 0.0, "fusion_lat": 0.0, "is_reserved": 0, "bike_id": "f9e1c789f6dc5db4f6476d0998406617", "lon": -77.0244815, "is_disabled": 0}, {"rental_uris": {"android": "https://dc.lft.to/lastmile_qr_scan", "ios": "https://dc.lft.to/lastmile_qr_scan"}, "lat": 38.9330285, "type": "electric_scooter", "name": "d02fae926a9bbdf5aaf61c4b05855fe1", "fusion_lon": 0.0, "fusion_lat": 0.0, "is_reserved": 0, "bike_id": "d02fae926a9bbdf5aaf61c4b05855fe1", "lon": -77.03257816666667, "is_disabled": 0}, {"rental_uris": {"android": "https://dc.lft.to/lastmile_qr_scan", "ios": "https://dc.lft.to/lastmile_qr_scan"}, "lat": 38.82209966666667, "type": "electric_bike", "name": "df85f7ff1cf73fb0d8ea59b75d0c0343", "fusion_lon": 0.0, "fusion_lat": 0.0, "is_reserved": 0, "bike_id": "df85f7ff1cf73fb0d8ea59b75d0c0343", "lon": -76.97707116666666, "is_disabled": 0},