{"data": {"bikes": [{"fusion_lat": 0.0, "bike_id": "e4b8b1d3b80c190308b49d5a29e01f90", "fusion_lon": 0.0, "lon": -77.00219366666667, "lat": 38.90048083333333, "is_reserved": 0, "is_disabled": 0, "rental_uris": {"android": "https://dc.lft.to/lastmile_qr_scan", "ios": "https://dc.lft.to/lastmile_qr_scan"}, "name": "e4b8b1d3b80c190308b49d5a29e01f90", "type": "electric_scooter"}, {"fusion_lat": 0.0, "bike_id": "40bb131eb97c37aa9a51a1c1b9c07655", "fusion_lon": 0.0, "lon": -77.03827733333334, "lat": 38.915519333333336, "is_reserved": 0, "is_disabled": 0, "rental_uris": {"android": "https://dc.lft.to/lastmile_qr_scan", "ios": "https://dc.lft.to/lastmile_qr_scan"}, "name": "40bb131eb97c37aa9a51a1c1b9c07655", "type": "electric_bike"}, {"fusion_lat": 0.0, "bike_id": "d64a1a4140993c353c4543306bba80e1", "fusion_lon": 0.0, "lon": -77.03525166666667, "lat": 38.9272755, "is_reserved": 0, "is_disabled": 0, "rental_uris": {"android": "https://dc.lft.to/lastmile_qr_scan", "ios": "https://dc.lft.to/lastmile_qr_scan"}, "name": "d64a1a4140993c353c4543306bba80e1", "type": "electric_scooter"}, {"fusion_lat": 0.0, "bike_id": "4fdb2fdf43de7ddac5a8c49ffd3793fb", "fusion_lon": 0.0, "lon": -76.9871455, "lat": 38.866991, "is_reserved": 0, "is_disabled": 0, "rental_uris": {"android": "https://dc.lft.to/lastmile_qr_scan", "ios": "https://dc.lft.to/lastmile_qr_scan"}, "name": "4fdb2fdf43de7ddac5a8c49ffd3793fb", "type": "electric_scooter"}, {"fusion_lat": 0.0, "bike_id": "da8eab272acaa354fa30ded4aa1b48a3", "fusion_lon": 0.0, "lon": -77.0302615, "lat": 38.903824, "is_reserved": 0, "is_disabled": 0, "rental_uris": {"android": "https://dc.lft.to/lastmile_qr_scan", "ios": "https://dc.lft.to/lastmile_qr_scan"}, "name": "da8eab272acaa354fa30ded4aa1b48a3", "type": "electric_scooter"}, {"fusion_lat": 0.0, "bike_id": "5856b324c23745a4d58b11553e30dbd4", "fusion_lon": 0.0, "lon": -77.030512, "lat": 38.887384, "is_reserved": 0, "is_disabled": 0, "rental_uris": {"android": "https://dc.lft.to/lastmile_qr_scan", "ios": "https://dc.lft.to/lastmile_qr_scan"}, "name": "5856b324c23745a4d58b11553e30dbd4", "type": "electric_scooter"}, {"fusion_lat": 0.0, "bike_id": "e9ed29b38515b519880855b6bc03eee7", "fusion_lon": 0.0, "lon": -76.97912633333334, "lat": 38.863617166666664, "is_reserved": 0, "is_disabled": 0, "rental_uris": {"android": "https://dc.lft.to/lastmile_qr_scan", "ios": "https://dc.lft.to/lastmile_qr_scan"}, "name": "e9ed29b38515b519880855b6bc03eee7", "type": "electric_scooter"}, {"fusion_lat": 0.0, "bike_id": "8b73e4c38d271006462aaa6091b917a3", "fusion_lon": 0.0, "lon": -77.04614083333334, "lat": 38.915171, "is_reserved": 0, "is_disabled": 0, "rental_uris": {"android": "https://dc.lft.to/lastmile_qr_scan", "ios": "https://dc.lft.to/lastmile_qr_scan"}, "name": "8b73e4c38d271006462aaa6091b917a3", "type": "electric_scooter"}, {"fusion_lat": 0.0, "bike_id": "57fade2ce4cca78e771ff7f167a3b50a", "fusion_lon": 0.0, "lon": -77.02496216666667, "lat": 38.916926, "is_reserved": 0, "is_disabled": 0, "rental_uris": {"android": "https://dc.lft.to/lastmile_qr_scan", "ios": "https://dc.lft.to/lastmile_qr_scan"}, "name": "57fade2ce4cca78e771ff7f167a3b50a", "type": "electric_scooter"}, {"fusion_lat": 0.0, "bike_id": "76ae8b04fd60c351a34b6f63cd10c01e", "fusion_lon": 0.0, "lon": -76.98885483333333, "lat": 38.866565, "is_reserved": 0, "is_disabled": 0, "rental_uris": {"android": "https://dc.lft.to/lastmile_qr_scan", "ios": "https://dc.lft.to/lastmile_qr_scan"}, "name": "76ae8b04fd60c351a34b6f63cd10c01e", "type": "electric_scooter"}, {"fusion_lat": 0.0, "bike_id": "9ae5f1d4960cc5709571cebd28ce13f0", "fusion_lon": 0.0, "lon": -76.92774883333334, "lat": 38.900854833333334, "is_reserved": 0, "is_disabled": 0, "rental_uris": {"android": "https://dc.lft.to/lastmile_qr_scan", "ios": "https://dc.lft.to/lastmile_qr_scan"}, "name": "9ae5f1d4960cc5709571cebd28ce13f0", "type": "electric_scooter"}, {"fusion_lat": 0.0, "bike_id": "4b0c6e2b735c84fe360b63096709599a", "fusion_lon": 0.0, "lon": -76.98708383333333, "lat": 38.8811555, "is_reserved": 0, "is_disabled": 0, "rental_uris": {"android": "https://dc.lft.to/lastmile_qr_scan", "ios": "https://dc.lft.to/lastmile_qr_scan"}, "name": "4b0c6e2b735c84fe360b63096709599a", "type": "electric_scooter"}, {"fusion_lat": 0.0, "bike_id": "d6c1469d81078da4e3328c55b89eed75", "fusion_lon": 0.0, "lon": -77.0274805, "lat": 38.894956666666666, "is_reserved": 0, "is_disabled": 0, "rental_uris": {"android": "https://dc.lft.to/lastmile_qr_scan", "ios": "https://dc.lft.to/lastmile_qr_scan"}, "name": "d6c1469d81078da4e3328c55b89eed75", "type": "electric_scooter"}, {"fusion_lat": 0.0, "bike_id": "93c4ddf20c5bb08de9b7f9d843ccbd79", "fusion_lon": 0.0, "lon": -77.01235666666666, "lat": 38.89294916666667, "is_reserved": 0, "is_disabled": 0, "rental_uris": {"android": "https://dc.lft.to/lastmile_qr_scan", "ios": "https://dc.lft.to/lastmile_qr_scan"}, "name": "93c4ddf20c5bb08de9b7f9d843ccbd79", "type": "electric_scooter"}, {"fusion_lat": 0.0, "bike_id": "3e8c5118b5974fad0604a2bcc0f424e3", "fusion_lon": 0.0, "lon": -76.94889516666667, "lat": 38.89507166666667, "is_reserved": 0, "is_disabled": 0, "rental_uris": {"android": "https://dc.lft.to/lastmile_qr_scan", "ios": "https://dc.lft.to/lastmile_qr_scan"}, "name": "3e8c5118b5974fad0604a2bcc0f424e3", "type": "electric_scooter"}, {"fusion_lat": 0.0, "bike_id": "94df9bc263edf2394a2400f919da7133", "fusion_lon": 0.0, "lon": -77.03429016666666, "lat": 38.966145833333336, "is_reserved": 0, "is_disabled": 0, "rental_uris": {"android": "https://dc.lft.to/lastmile_qr_scan", "ios": "https://dc.lft.to/lastmile_qr_scan"}, "name": "94df9bc263edf2394a2400f919da7133", "type": "electric_bike"}, {"fusion_lat": 0.0, "bike_id": "8f8b9c3e562aaee27375bb7a89a4901a", "fusion_lon": 0.0, "lon": -77.022306, "lat": 38.892194833333335, "is_reserved": 0, "is_disabled": 0, "rental_uris": {"android": "https://dc.lft.to/lastmile_qr_scan", "ios": "https://dc.lft.to/lastmile_qr_scan"}, "name": "8f8b9c3e562aaee27375bb7a89a4901a", "type": "electric_scooter"}, {"fusion_lat": 0.0, "bike_id": "b2965ca2100032e88225f2ca1b9477a4", "fusion_lon": 0.0, "lon": -77.0312, "lat": 38.887397666666665, "is_reserved": 0, "is_disabled": 0, "rental_uris": {"android": "https://dc.lft.to/lastmile_qr_scan", "ios": "https://dc.lft.to/lastmile_qr_scan"}, "name": "b2965ca2100032e88225f2ca1b9477a4", "type": "electric_scooter"}, {"fusion_lat": 0.0, "bike_id": "0b76590b8c3083dbbbaa7958f8a34f18", "fusion_lon": 0.0, "lon": -77.0091365, "lat": 38.89918633333333, "is_reserved": 0, "is_disabled": 0, "rental_uris": {"android": "https://dc.lft.to/lastmile_qr_scan", "ios": "https://dc.lft.to/lastmile_qr_scan"}, "name": "0b76590b8c3083dbbbaa7958f8a34f18", "type": "electric_scooter"}, {"fusion_lat": 0.0, "bike_id": "cd7bade0d5de620a328f8fa99883939f", "fusion_lon": 0.0, "lon": -77.045081, "lat": 38.902264833333334, "is_reserved": 0, "is_disabled": 0, "rental_uris": {"android": "https://dc.lft.to/lastmile_qr_scan", "ios": "https://dc.lft.to/lastmile_qr_scan"}, "name": "cd7bade0d5de620a328f8fa99883939f", "type": "electric_scooter"}, {"fusion_lat": 0.0, "bike_id": "9bd2aeea31a46c80c576398dfdb3fd1c", "fusion_lon": 0.0, "lon": -77.04660216666667, "lat": 38.89778416666667, "is_reserved": 0, "is_disabled": 0, "rental_uris": {"android": "https://dc.lft.to/lastmile_qr_scan", "ios": "https://dc.lft.to/lastmile_qr_scan"}, "name": "9bd2aeea31a46c80c576398dfdb3fd1c", "type": "electric_scooter"}, {"fusion_lat": 0.0, "bike_id": "4a5cf61af13baed1a68a2429a48cf3e0", "fusion_lon": 0.0, "lon": -77.03706, "lat": 38.91264183333333, "is_reserved": 0, "is_disabled": 0, "rental_uris": {"android": "https://dc.lft.to/lastmile_qr_scan", "ios": "https://dc.lft.to/lastmile_qr_scan"}, "name": "4a5cf61af13baed1a68a2429a48cf3e0", "type": "electric_scooter"}, {"fusion_lat": 0.0, "bike_id": "b8c36888236e9450ad45b84cc32a35e2", "fusion_lon": 0.0, "lon": -77.00458233333333, "lat": 38.87659883333333, "is_reserved": 0, "is_disabled": 0, "rental_uris": {"android": "https://dc.lft.to/lastmile_qr_scan", "ios": "https://dc.lft.to/lastmile_qr_scan"}, "name": "b8c36888236e9450ad45b84cc32a35e2", "type": "electric_scooter"}, {"fusion_lat": 0.0, "bike_id": "f134743e92302135de865603e5ae8bee", "fusion_lon": 0.0, "lon": -76.933809, "lat": 38.89914066666667, "is_reserved": 0, "is_disabled": 0, "rental_uris": {"android": "https://dc.lft.to/lastmile_qr_scan", "ios": "https://dc.lft.to/lastmile_qr_scan"}, "name": "f134743e92302135de865603e5ae8bee", "type": "electric_scooter"}, {"fusion_lat": 0.0, "bike_id": "cf3ded721307942d6383c1eaed11d069", "fusion_lon": 0.0, "lon": -77.03206833333333, "lat": 38.920112833333334, "is_reserved": 0, "is_disabled": 0, "rental_uris": {"android": "https://dc.lft.to/lastmile_qr_scan", "ios": "https://dc.lft.to/lastmile_qr_scan"}, "name": "cf3ded721307942d6383c1eaed11d069", "type": "electric_scooter"}, {"fusion_lat": 0.0, "bike_id": "758fa9f946c66871d666183ab64c039e", "fusion_lon": 0.0, "lon": -76.99826383333334, "lat": 38.885313, "is_reserved": 0, "is_disabled": 0, "rental_uris": {"android": "https://dc.lft.to/lastmile_qr_scan", "ios": "https://dc.lft.to/lastmile_qr_scan"}, "name": "758fa9f946c66871d666183ab64c039e", "type": "electric_scooter"}, {"fusion_lat": 0.0, "bike_id": "1c81d6a81bebbd848b147a015b7ed7ba", "fusion_lon": 0.0, "lon": -77.04008183333333, "lat": 38.90776566666667, "is_reserved": 0, "is_disabled": 0, "rental_uris": {"android": "https://dc.lft.to/lastmile_qr_scan", "ios": "https://dc.lft.to/lastmile_qr_scan"}, "name": "1c81d6a81bebbd848b147a015b7ed7ba", "type": "electric_scooter"}, {"fusion_lat": 0.0, "bike_id": "27727302b66e7c771d3bed2751c117a0", "fusion_lon": 0.0, "lon": -77.05315366666666, "lat": 38.906429, "is_reserved": 0, "is_disabled": 0, "rental_uris": {"android": "https://dc.lft.to/lastmile_qr_scan", "ios": "https://dc.lft.to/lastmile_qr_scan"}, "name": "27727302b66e7c771d3bed2751c117a0", "type": "electric_scooter"}, {"fusion_lat": 0.0, "bike_id": "552812603e83c02ec82a19b457eafb78", "fusion_lon": 0.0, "lon": -77.03768283333333, "lat": 38.907770166666666, "is_reserved": 0, "is_disabled": 0, "rental_uris": {"android": "https://dc.lft.to/lastmile_qr_scan", "ios": "https://dc.lft.to/lastmile_qr_scan"}, "name": "552812603e83c02ec82a19b457eafb78", "type": "electric_scooter"}, {"fusion_lat": 0.0, "bike_id": "b36c5c07dded0418649a4f889ad2c7cd", "fusion_lon": 0.0, "lon": -76.99939516666667, "lat": 38.906913, "is_reserved": 0, "is_disabled": 0, "rental_uris": {"android": "https://dc.lft.to/lastmile_qr_scan", "ios": "https://dc.lft.to/lastmile_qr_scan"}, "name": "b36c5c07dded0418649a4f889ad2c7cd", "type": "electric_scooter"}, {"fusion_lat": 0.0, "bike_id": "0dc4431aa9791d7c35c3f21198d2d6ff", "fusion_lon": 0.0, "lon": -76.98823266666666, "lat": 38.90042066666667, "is_reserved": 0, "is_disabled": 0, "rental_uris": {"android": "https://dc.lft.to/lastmile_qr_scan", "ios": "https://dc.lft.to/lastmile_qr_scan"}, "name": "0dc4431aa9791d7c35c3f21198d2d6ff", "type": "electric_scooter"}, {"fusion_lat": 0.0, "bike_id": "c81858499274760631a1f673ff845b2e", "fusion_lon": 0.0, "lon": -77.02705316666666, "lat": 38.949885333333334, "is_reserved": 0, "is_disabled": 0, "rental_uris": {"android": "https://dc.lft.to/lastmile_qr_scan", "ios": "https://dc.lft.to/lastmile_qr_scan"}, "name": "c81858499274760631a1f673ff845b2e", "type": "electric_scooter"}, {"fusion_lat": 0.0, "bike_id": "2e322eb7d917f4e17b551350c3108bc8", "fusion_lon": 0.0, "lon": -77.050411, "lat": 38.905209666666664, "is_reserved": 0, "is_disabled": 0, "rental_uris": {"android": "https://dc.lft.to/lastmile_qr_scan", "ios": "https://dc.lft.to/lastmile_qr_scan"}, "name": "2e322eb7d917f4e17b551350c3108bc8", "type": "electric_scooter"}, {"fusion_lat": 0.0, "bike_id": "de155a6538f90f56aec6bc3eada02a4f", "fusion_lon": 0.0, "lon": -76.99572, "lat": 38.8517625, "is_reserved": 0, "is_disabled": 0, "rental_uris": {"android": "https://dc.lft.to/lastmile_qr_scan", "ios": "https://dc.lft.to/lastmile_qr_scan"}, "name": "de155a6538f90f56aec6bc3eada02a4f", "type": "electric_bike"}, {"fusion_lat": 0.0, "bike_id": "c1eabe46d9a01c7d578b73e1fcccd290", "fusion_lon": 0.0, "lon": -77.00602183333334, "lat": 38.871853, "is_reserved": 0, "is_disabled": 0, "rental_uris": {"android": "https://dc.lft.to/lastmile_qr_scan", "ios": "https://dc.lft.to/lastmile_qr_scan"}, "name": "c1eabe46d9a01c7d578b73e1fcccd290", "type": "electric_scooter"}, {"fusion_lat": 0.0, "bike_id": "59b1ac32659106c5ed3c53e493166e76", "fusion_lon": 0.0, "lon": -77.02844666666667, "lat": 38.887389666666664, "is_reserved": 0, "is_disabled": 0, "rental_uris": {"android": "https://dc.lft.to/lastmile_qr_scan", "ios": "https://dc.lft.to/lastmile_qr_scan"}, "name": "59b1ac32659106c5ed3c53e493166e76", "type": "electric_scooter"}, {"fusion_lat": 0.0, "bike_id": "73c93eca7ca3c34d9b5417047646fb64", "fusion_lon": 0.0, "lon": -77.02889616666667, "lat": 38.932738666666665, "is_reserved": 0, "is_disabled": 0, "rental_uris": {"android": "https://dc.lft.to/lastmile_qr_scan", "ios": "https://dc.lft.to/lastmile_qr_scan"}, "name": "73c93eca7ca3c34d9b5417047646fb64", "type": "electric_scooter"}, {"fusion_lat": 0.0, "bike_id": "166d9921a230558eb743689140c8eba8", "fusion_lon": 0.0, "lon": -77.00968083333333, "lat": 38.89727766666667, "is_reserved": 0, "is_disabled": 0, "rental_uris": {"android": "https://dc.lft.to/lastmile_qr_scan", "ios": "https://dc.lft.to/lastmile_qr_scan"}, "name": "166d9921a230558eb743689140c8eba8", "type": "electric_scooter"}, {"fusion_lat": 0.0, "bike_id": "2dbaf79d735b1fca4aed39c47ada2195", "fusion_lon": 0.0, "lon": -76.93755366666667, "lat": 38.89033383333334, "is_reserved": 0, "is_disabled": 0, "rental_uris": {"android": "https://dc.lft.to/lastmile_qr_scan", "ios": "https://dc.lft.to/lastmile_qr_scan"}, "name": "2dbaf79d735b1fca4aed39c47ada2195", "type": "electric_scooter"}, {"fusion_lat": 0.0, "bike_id": "3d006f5517ee8a31f75a0dcecdb20715", "fusion_lon": 0.0, "lon": -77.04882016666667, "lat": 38.9047675, "is_reserved": 0, "is_disabled": 0, "rental_uris": {"android": "https://dc.lft.to/lastmile_qr_scan", "ios": "https://dc.lft.to/lastmile_qr_scan"}, "name": "3d006f5517ee8a31f75a0dcecdb20715", "type": "electric_scooter"}, {"fusion_lat": 0.0, "bike_id": "b6cad674d6f953c509bb73c21ffa7fc3", "fusion_lon": 0.0, "lon": -76.95751266666667, "lat": 38.88422883333333, "is_reserved": 0, "is_disabled": 0, "rental_uris": {"android": "https://dc.lft.to/lastmile_qr_scan", "ios": "https://dc.lft.to/lastmile_qr_scan"}, "name": "b6cad674d6f953c509bb73c21ffa7fc3", "type": "electric_scooter"}, {"fusion_lat": 0.0, "bike_id": "ef84b09d951ab0be69e275cd82177de7", "fusion_lon": 0.0, "lon": -77.024048, "lat": 38.923951833333334, "is_reserved": 0, "is_disabled": 0, "rental_uris": {"android": "https://dc.lft.to/lastmile_qr_scan", "ios": "https://dc.lft.to/lastmile_qr_scan"}, "name": "ef84b09d951ab0be69e275cd82177de7", "type": "electric_scooter"}, {"fusion_lat": 0.0, "bike_id": "e269c92ae1fed832f07fe41eb1fa8e7a", "fusion_lon": 0.0, "lon": -77.04474633333334, "lat": 38.90859616666667, "is_reserved": 0, "is_disabled": 0, "rental_uris": {"android": "https://dc.lft.to/lastmile_qr_scan", "ios": "https://dc.lft.to/lastmile_qr_scan"}, "name": "e269c92ae1fed832f07fe41eb1fa8e7a", "type": "electric_scooter"}, {"fusion_lat": 0.0, "bike_id": "1ed8b93f6608d25203eb89add00b3b6e", "fusion_lon": 0.0, "lon": -77.043028, "lat": 38.908904166666666, "is_reserved": 0, "is_disabled": 0, "rental_uris": {"android": "https://dc.lft.to/lastmile_qr_scan", "ios": "https://dc.lft.to/lastmile_qr_scan"}, "name": "1ed8b93f6608d25203eb89add00b3b6e", "type": "electric_scooter"}, {"fusion_lat": 0.0, "bike_id": "d280242e99b354a2eba6bb75f79cc04b", "fusion_lon": 0.0, "lon": -77.03188766666666, "lat": 38.9030145, "is_reserved": 0, "is_disabled": 0, "rental_uris": {"android": "https://dc.lft.to/lastmile_qr_scan", "ios": "https://dc.lft.to/lastmile_qr_scan"}, "name": "d280242e99b354a2eba6bb75f79cc04b", "type": "electric_scooter"}, {"fusion_lat": 0.0, "bike_id": "1ed6585ba117c58ee560607ea92ae6ea", "fusion_lon": 0.0, "lon": -77.03357266666667, "lat": 38.924400166666665, "is_reserved": 0, "is_disabled": 0, "rental_uris": {"android": "https://dc.lft.to/lastmile_qr_scan", "ios": "https://dc.lft.to/lastmile_qr_scan"}, "name": "1ed6585ba117c58ee560607ea92ae6ea", "type": "electric_scooter"}, {"fusion_lat": 0.0, "bike_id": "edd671ffd46db90b7e5423c3116731ab", "fusion_lon": 0.0, "lon": -77.04060583333333, "lat": 38.90967766666667, "is_reserved": 0, "is_disabled": 0, "rental_uris": {"android": "https://dc.lft.to/lastmile_qr_scan", "ios": "https://dc.lft.to/lastmile_qr_scan"}, "name": "edd671ffd46db90b7e5423c3116731ab", "type": "electric_scooter"}, {"fusion_lat": 0.0, "bike_id": "5695680db482868a5b640e69803dd8cf", "fusion_lon": 0.0, "lon": -76.98936866666666, "lat": 38.901802333333336, "is_reserved": 0, "is_disabled": 0, "rental_uris": {"android": "https://dc.lft.to/lastmile_qr_scan", "ios": "https://dc.lft.to/lastmile_qr_scan"}, "name": "5695680db482868a5b640e69803dd8cf", "type": "electric_scooter"}, {"fusion_lat": 0.0, "bike_id": "1a6857ed6ce7bad785dc843021a51a88", "fusion_lon": 0.0, "lon": -77.0502075, "lat": 38.901558666666666, "is_reserved": 0, "is_disabled": 0, "rental_uris": {"android": "https://dc.lft.to/lastmile_qr_scan", "ios": "https://dc.lft.to/lastmile_qr_scan"}, "name": "1a6857ed6ce7bad785dc843021a51a88", "type": "electric_scooter"}, {"fusion_lat": 0.0, "bike_id": "1ad359714a853ecbc843cec4cb488742", "fusion_lon": 0.0, "lon": -77.032013, "lat": 38.912593666666666, "is_reserved": 0, "is_disabled": 0, "rental_uris": {"android": "https://dc.lft.to/lastmile_qr_scan", "ios": "https://dc.lft.to/lastmile_qr_scan"}, "name": "1ad359714a853ecbc843cec4cb488742", "type": "electric_scooter"}, {"fusion_lat": 0.0, "bike_id": "f135c93792f5c7467ba3f935f8b1853d", "fusion_lon": 0.0, "lon": -77.06883916666666, "lat": 38.904019, "is_reserved": 0, "is_disabled": 0, "rental_uris": {"android": "https://dc.lft.to/lastmile_qr_scan", "ios": "https://dc.lft.to/lastmile_qr_scan"}, "name": "f135c93792f5c7467ba3f935f8b1853d", "type": "electric_bike"}, {"fusion_lat": 0.0, "bike_id": "5f188c1c7d7810f0b2cf4adfa3478b9b", "fusion_lon": 0.0, "lon": -77.03446533333333, "lat": 38.904488666666666, "is_reserved": 0, "is_disabled": 0, "rental_uris": {"android": "https://dc.lft.to/lastmile_qr_scan", "ios": "https://dc.lft.to/lastmile_qr_scan"}, "name": "5f188c1c7d7810f0b2cf4adfa3478b9b", "type": "electric_scooter"}, {"fusion_lat": 0.0, "bike_id": "e0427c21113c4e0adfb417b6239dec46", "fusion_lon": 0.0, "lon": -76.993679, "lat": 38.8614605, "is_reserved": 0, "is_disabled": 0, "rental_uris": {"android": "https://dc.lft.to/lastmile_qr_scan", "ios": "https://dc.lft.to/lastmile_qr_scan"}, "name": "e0427c21113c4e0adfb417b6239dec46", "type": "electric_scooter"}, {"fusion_lat": 0.0, "bike_id": "09db7b4a776d76537ab6346685690b05", "fusion_lon": 0.0, "lon": -76.93545816666666, "lat": 38.8901495, "is_reserved": 0, "is_disabled": 0, "rental_uris": {"android": "https://dc.lft.to/lastmile_qr_scan", "ios": "https://dc.lft.to/lastmile_qr_scan"}, "name": "09db7b4a776d76537ab6346685690b05", "type": "electric_scooter"}, {"fusion_lat": 0.0, "bike_id": "d2857dea76a1bdb04ce74b791195bf6c", "fusion_lon": 0.0, "lon": -77.0305415, "lat": 38.884236, "is_reserved": 0, "is_disabled": 0, "rental_uris": {"android": "https://dc.lft.to/lastmile_qr_scan", "ios": "https://dc.lft.to/lastmile_qr_scan"}, "name": "d2857dea76a1bdb04ce74b791195bf6c", "type": "electric_scooter"}, {"fusion_lat": 0.0, "bike_id": "2f21dd3320fe9cb3ef9259c8733ad228", "fusion_lon": 0.0, "lon": -77.02781266666666, "lat": 38.892176, "is_reserved": 0, "is_disabled": 0, "rental_uris": {"android": "https://dc.lft.to/lastmile_qr_scan", "ios": "https://dc.lft.to/lastmile_qr_scan"}, "name": "2f21dd3320fe9cb3ef9259c8733ad228", "type": "electric_scooter"}, {"fusion_lat": 0.0, "bike_id": "98ff6cfe4c39da2fe2720f2611f6829a", "fusion_lon": 0.0, "lon": -76.9823485, "lat": 38.886415, "is_reserved": 0, "is_disabled": 0, "rental_uris": {"android": "https://dc.lft.to/lastmile_qr_scan", "ios": "https://dc.lft.to/lastmile_qr_scan"}, "name": "98ff6cfe4c39da2fe2720f2611f6829a", "type": "electric_scooter"}, {"fusion_lat": 0.0, "bike_id": "d76450165696401e14a5e11874f40460", "fusion_lon": 0.0, "lon": -76.9857815, "lat": 38.908113666666665, "is_reserved": 0, "is_disabled": 0, "rental_uris": {"android": "https://dc.lft.to/lastmile_qr_scan", "ios": "https://dc.lft.to/lastmile_qr_scan"}, "name": "d76450165696401e14a5e11874f40460", "type": "electric_scooter"}, {"fusion_lat": 0.0, "bike_id": "fe28b7babff58004fd7084bcb1434c6c", "fusion_lon": 0.0, "lon": -77.02407166666667, "lat": 38.89183366666666, "is_reserved": 0, "is_disabled": 0, "rental_uris": {"android": "https://dc.lft.to/lastmile_qr_scan", "ios": "https://dc.lft.to/lastmile_qr_scan"}, "name": "fe28b7babff58004fd7084bcb1434c6c", "type": "electric_scooter"}, {"fusion_lat": 0.0, "bike_id": "e021d16910183527e9079795e4d12146", "fusion_lon": 0.0, "lon": -77.031977, "lat": 38.916438666666664, "is_reserved": 0, "is_disabled": 0, "rental_uris": {"android": "https://dc.lft.to/lastmile_qr_scan", "ios": "https://dc.lft.to/lastmile_qr_scan"}, "name": "e021d16910183527e9079795e4d12146", "type": "electric_scooter"}, {"fusion_lat": 0.0, "bike_id": "56251e2454a29bbeee5b1f952dd71513", "fusion_lon": 0.0, "lon": -77.0342255, "lat": 38.919193, "is_reserved": 0, "is_disabled": 0, "rental_uris": {"android": "https://dc.lft.to/lastmile_qr_scan", "ios": "https://dc.lft.to/lastmile_qr_scan"}, "name": "56251e2454a29bbeee5b1f952dd71513", "type": "electric_scooter"}, {"fusion_lat": 0.0, "bike_id": "d69a6d3210d2c9128996d85463cbef0b", "fusion_lon": 0.0, "lon": -77.06384333333334, "lat": 38.90526633333333, "is_reserved": 0, "is_disabled": 0, "rental_uris": {"android": "https://dc.lft.to/lastmile_qr_scan", "ios": "https://dc.lft.to/lastmile_qr_scan"}, "name": "d69a6d3210d2c9128996d85463cbef0b", "type": "electric_scooter"}, {"fusion_lat": 0.0, "bike_id": "a7fe7403f1b4653c7acc7be191c4b65f", "fusion_lon": 0.0, "lon": -77.05162383333334, "lat": 39.0430225, "is_reserved": 0, "is_disabled": 0, "rental_uris": {"android": "https://dc.lft.to/lastmile_qr_scan", "ios": "https://dc.lft.to/lastmile_qr_scan"}, "name": "a7fe7403f1b4653c7acc7be191c4b65f", "type": "electric_bike"}, {"fusion_lat": 0.0, "bike_id": "e14b8bea072325b4dc211e2ec5c0e26e", "fusion_lon": 0.0, "lon": -76.93304566666667, "lat": 38.89194916666667, "is_reserved": 0, "is_disabled": 0, "rental_uris": {"android": "https://dc.lft.to/lastmile_qr_scan", "ios": "https://dc.lft.to/lastmile_qr_scan"}, "name": "e14b8bea072325b4dc211e2ec5c0e26e", "type": "electric_scooter"}, {"fusion_lat": 0.0, "bike_id": "9d60ee5ea6acc40c414e436187502232", "fusion_lon": 0.0, "lon": -77.01498, "lat": 38.89217466666667, "is_reserved": 0, "is_disabled": 0, "rental_uris": {"android": "https://dc.lft.to/lastmile_qr_scan", "ios": "https://dc.lft.to/lastmile_qr_scan"}, "name": "9d60ee5ea6acc40c414e436187502232", "type": "electric_scooter"}, {"fusion_lat": 0.0, "bike_id": "591be8ca8a726dc61d7f2f0bc45a85e1", "fusion_lon": 0.0, "lon": -77.04335983333333, "lat": 38.922157, "is_reserved": 0, "is_disabled": 0, "rental_uris": {"android": "https://dc.lft.to/lastmile_qr_scan", "ios": "https://dc.lft.to/lastmile_qr_scan"}, "name": "591be8ca8a726dc61d7f2f0bc45a85e1", "type": "electric_scooter"}, {"fusion_lat": 0.0, "bike_id": "dfff294eea3ea8bb806b4a31bd6830f2", "fusion_lon": 0.0, "lon": -77.000655, "lat": 38.89495333333333, "is_reserved": 0, "is_disabled": 0, "rental_uris": {"android": "https://dc.lft.to/lastmile_qr_scan", "ios": "https://dc.lft.to/lastmile_qr_scan"}, "name": "dfff294eea3ea8bb806b4a31bd6830f2", "type": "electric_scooter"}, {"fusion_lat": 0.0, "bike_id": "8a64ec6b7b5cadbe2890471b16975db7", "fusion_lon": 0.0, "lon": -76.93756966666666, "lat": 38.89032516666666, "is_reserved": 0, "is_disabled": 0, "rental_uris": {"android": "https://dc.lft.to/lastmile_qr_scan", "ios": "https://dc.lft.to/lastmile_qr_scan"}, "name": "8a64ec6b7b5cadbe2890471b16975db7", "type": "electric_scooter"}, {"fusion_lat": 0.0, "bike_id": "e680a8366e6c9c0a19e0a367399d54c5", "fusion_lon": 0.0, "lon": -76.98215450000001, "lat": 38.86650816666667, "is_reserved": 0, "is_disabled": 0, "rental_uris": {"android": "https://dc.lft.to/lastmile_qr_scan", "ios": "https://dc.lft.to/lastmile_qr_scan"}, "name": "e680a8366e6c9c0a19e0a367399d54c5", "type": "electric_scooter"}, {"fusion_lat": 0.0, "bike_id": "d0595fd8979c439ba73432d58550295a", "fusion_lon": 0.0, "lon": -77.04041116666667, "lat": 38.91854, "is_reserved": 0, "is_disabled": 0, "rental_uris": {"android": "https://dc.lft.to/lastmile_qr_scan", "ios": "https://dc.lft.to/lastmile_qr_scan"}, "name": "d0595fd8979c439ba73432d58550295a", "type": "electric_scooter"}, {"fusion_lat": 0.0, "bike_id": "68ed0670dd93f1d23cdbfa7a2ca1e8d8", "fusion_lon": 0.0, "lon": -77.01699683333334, "lat": 38.9205475, "is_reserved": 0, "is_disabled": 0, "rental_uris": {"android": "https://dc.lft.to/lastmile_qr_scan", "ios": "https://dc.lft.to/lastmile_qr_scan"}, "name": "68ed0670dd93f1d23cdbfa7a2ca1e8d8", "type": "electric_scooter"}, {"fusion_lat": 0.0, "bike_id": "8a77c8b3b0cd8d94785c37c7433229d3", "fusion_lon": 0.0, "lon": -77.04340533333334, "lat": 38.9014265, "is_reserved": 0, "is_disabled": 0, "rental_uris": {"android": "https://dc.lft.to/lastmile_qr_scan", "ios": "https://dc.lft.to/lastmile_qr_scan"}, "name": "8a77c8b3b0cd8d94785c37c7433229d3", "type": "electric_scooter"}, {"fusion_lat": 0.0, "bike_id": "2e65acf187db7dae276b988935f6d640", "fusion_lon": 0.0, "lon": -77.02590133333334, "lat": 38.92028533333333, "is_reserved": 0, "is_disabled": 0, "rental_uris": {"android": "https://dc.lft.to/lastmile_qr_scan", "ios": "https://dc.lft.to/lastmile_qr_scan"}, "name": "2e65acf187db7dae276b988935f6d640", "type": "electric_scooter"}, {"fusion_lat": 0.0, "bike_id": "8912b457406a1474d3d19d218b5b4fdd", "fusion_lon": 0.0, "lon": -77.10493083333333, "lat": 38.8560425, "is_reserved": 0, "is_disabled": 0, "rental_uris": {"android": "https://dc.lft.to/lastmile_qr_scan", "ios": "https://dc.lft.to/lastmile_qr_scan"}, "name": "8912b457406a1474d3d19d218b5b4fdd", "type": "electric_bike"}, {"fusion_lat": 0.0, "bike_id": "a6bbbe42d1d27a729d38f20e8f4721ee", "fusion_lon": 0.0, "lon": -77.11163516666667, "lat": 38.855010166666666, "is_reserved": 0, "is_disabled": 0, "rental_uris": {"android": "https://dc.lft.to/lastmile_qr_scan", "ios": "https://dc.lft.to/lastmile_qr_scan"}, "name": "a6bbbe42d1d27a729d38f20e8f4721ee", "type": "electric_bike"}, {"fusion_lat": 0.0, "bike_id": "acd68a93d52a4f2a59b00138652ea71b", "fusion_lon": 0.0, "lon": -77.05696433333334, "lat": 38.937132, "is_reserved": 0, "is_disabled": 0, "rental_uris": {"android": "https://dc.lft.to/lastmile_qr_scan", "ios": "https://dc.lft.to/lastmile_qr_scan"}, "name": "acd68a93d52a4f2a59b00138652ea71b", "type": "electric_scooter"}, {"fusion_lat": 0.0, "bike_id": "aa2673b5a19decb2b19872b977d4438a", "fusion_lon": 0.0, "lon": -77.04877816666666, "lat": 38.892362166666665, "is_reserved": 0, "is_disabled": 0, "rental_uris": {"android": "https://dc.lft.to/lastmile_qr_scan", "ios": "https://dc.lft.to/lastmile_qr_scan"}, "name": "aa2673b5a19decb2b19872b977d4438a", "type": "electric_scooter"}, {"fusion_lat": 0.0, "bike_id": "f468b752202c4746fcde65bd3ffb74ea", "fusion_lon": 0.0, "lon": -77.0232765, "lat": 38.929817666666665, "is_reserved": 0, "is_disabled": 0, "rental_uris": {"android": "https://dc.lft.to/lastmile_qr_scan", "ios": "https://dc.lft.to/lastmile_qr_scan"}, "name": "f468b752202c4746fcde65bd3ffb74ea", "type": "electric_scooter"}, {"fusion_lat": 0.0, "bike_id": "a919b5bc65ec4becbe3ee03df6c3b199", "fusion_lon": 0.0, "lon": -77.041625, "lat": 38.91248816666667, "is_reserved": 0, "is_disabled": 0, "rental_uris": {"android": "https://dc.lft.to/lastmile_qr_scan", "ios": "https://dc.lft.to/lastmile_qr_scan"}, "name": "a919b5bc65ec4becbe3ee03df6c3b199", "type": "electric_scooter"}, {"fusion_lat": 0.0, "bike_id": "3b34f495f4b9444761534c04a8e2b0e3", "fusion_lon": 0.0, "lon": -77.01632966666666, "lat": 38.928944666666666, "is_reserved": 0, "is_disabled": 0, "rental_uris": {"android": "https://dc.lft.to/lastmile_qr_scan", "ios": "https://dc.lft.to/lastmile_qr_scan"}, "name": "3b34f495f4b9444761534c04a8e2b0e3", "type": "electric_scooter"}, {"fusion_lat": 0.0, "bike_id": "bf350efded540b145e938f602b7e5b4e", "fusion_lon": 0.0, "lon": -77.02173533333334, "lat": 38.90847316666667, "is_reserved": 0, "is_disabled": 0, "rental_uris": {"android": "https://dc.lft.to/lastmile_qr_scan", "ios": "https://dc.lft.to/lastmile_qr_scan"}, "name": "bf350efded540b145e938f602b7e5b4e", "type": "electric_scooter"}, {"fusion_lat": 0.0, "bike_id": "5a869fb2c7525ca4f01a3963c7e2ce07", "fusion_lon": 0.0, "lon": -77.04432866666667, "lat": 38.92123016666667, "is_reserved": 0, "is_disabled": 0, "rental_uris": {"android": "https://dc.lft.to/lastmile_qr_scan", "ios": "https://dc.lft.to/lastmile_qr_scan"}, "name": "5a869fb2c7525ca4f01a3963c7e2ce07", "type": "electric_scooter"}, {"fusion_lat": 0.0, "bike_id": "7ccdc429d6da1b585c24e02a34421267", "fusion_lon": 0.0, "lon": -77.02306766666666, "lat": 38.917119666666665, "is_reserved": 0, "is_disabled": 0, "rental_uris": {"android": "https://dc.lft.to/lastmile_qr_scan", "ios": "https://dc.lft.to/lastmile_qr_scan"}, "name": "7ccdc429d6da1b585c24e02a34421267", "type": "electric_scooter"}, {"fusion_lat": 0.0, "bike_id": "d909d76495df36411e1bfb1f3c60c1cf", "fusion_lon": 0.0, "lon": -77.03372366666666, "lat": 38.92815433333333, "is_reserved": 0, "is_disabled": 0, "rental_uris": {"android": "https://dc.lft.to/lastmile_qr_scan", "ios": "https://dc.lft.to/lastmile_qr_scan"}, "name": "d909d76495df36411e1bfb1f3c60c1cf", "type": "electric_scooter"}, {"fusion_lat": 0.0, "bike_id": "f048ed8ee189b07abbe3d9783b01395e", "fusion_lon": 0.0, "lon": -77.031849, "lat": 38.912203166666664, "is_reserved": 0, "is_disabled": 0, "rental_uris": {"android": "https://dc.lft.to/lastmile_qr_scan", "ios": "https://dc.lft.to/lastmile_qr_scan"}, "name": "f048ed8ee189b07abbe3d9783b01395e", "type": "electric_scooter"}, {"fusion_lat": 0.0, "bike_id": "7c1d4721966519685366f665175fee5e", "fusion_lon": 0.0, "lon": -77.07285933333333, "lat": 38.93098966666667, "is_reserved": 0, "is_disabled": 0, "rental_uris": {"android": "https://dc.lft.to/lastmile_qr_scan", "ios": "https://dc.lft.to/lastmile_qr_scan"}, "name": "7c1d4721966519685366f665175fee5e", "type": "electric_scooter"}, {"fusion_lat": 0.0, "bike_id": "a938c06c5a21bdd28026066c5101e12f", "fusion_lon": 0.0, "lon": -77.02501116666667, "lat": 38.91926266666667, "is_reserved": 0, "is_disabled": 0, "rental_uris": {"android": "https://dc.lft.to/lastmile_qr_scan", "ios": "https://dc.lft.to/lastmile_qr_scan"}, "name": "a938c06c5a21bdd28026066c5101e12f", "type": "electric_scooter"}, {"fusion_lat": 0.0, "bike_id": "15d03bc74f2db2f4f4bc5629dee3ec70", "fusion_lon": 0.0, "lon": -76.9313105, "lat": 38.87848816666666, "is_reserved": 0, "is_disabled": 0, "rental_uris": {"android": "https://dc.lft.to/lastmile_qr_scan", "ios": "https://dc.lft.to/lastmile_qr_scan"}, "name": "15d03bc74f2db2f4f4bc5629dee3ec70", "type": "electric_scooter"}, {"fusion_lat": 0.0, "bike_id": "d5db040777bd60663e9fcb9725ee1854", "fusion_lon": 0.0, "lon": -77.03321016666666, "lat": 38.88889283333334, "is_reserved": 0, "is_disabled": 0, "rental_uris": {"android": "https://dc.lft.to/lastmile_qr_scan", "ios": "https://dc.lft.to/lastmile_qr_scan"}, "name": "d5db040777bd60663e9fcb9725ee1854", "type": "electric_scooter"}, {"fusion_lat": 0.0, "bike_id": "a164840db18d407aae8fa94c6529b648", "fusion_lon": 0.0, "lon": -77.03646216666667, "lat": 38.92303866666666, "is_reserved": 0, "is_disabled": 0, "rental_uris": {"android": "https://dc.lft.to/lastmile_qr_scan", "ios": "https://dc.lft.to/lastmile_qr_scan"}, "name": "a164840db18d407aae8fa94c6529b648", "type": "electric_scooter"}, {"fusion_lat": 0.0, "bike_id": "493a66922e60c7c9b244d04e997f7fcd", "fusion_lon": 0.0, "lon": -76.98499983333333, "lat": 38.87831833333333, "is_reserved": 0, "is_disabled": 0, "rental_uris": {"android": "https://dc.lft.to/lastmile_qr_scan", "ios": "https://dc.lft.to/lastmile_qr_scan"}, "name": "493a66922e60c7c9b244d04e997f7fcd", "type": "electric_scooter"}, {"fusion_lat": 0.0, "bike_id": "15b9dab0b0e19f9fdf93fcd5e200f1f9", "fusion_lon": 0.0, "lon": -76.9853055, "lat": 38.866821, "is_reserved": 0, "is_disabled": 0, "rental_uris": {"android": "https://dc.lft.to/lastmile_qr_scan", "ios": "https://dc.lft.to/lastmile_qr_scan"}, "name": "15b9dab0b0e19f9fdf93fcd5e200f1f9", "type": "electric_scooter"}, {"fusion_lat": 0.0, "bike_id": "bf26ab0b733bb79e4e8781e899125101", "fusion_lon": 0.0, "lon": -77.0320295, "lat": 38.91650083333333, "is_reserved": 0, "is_disabled": 0, "rental_uris": {"android": "https://dc.lft.to/lastmile_qr_scan", "ios": "https://dc.lft.to/lastmile_qr_scan"}, "name": "bf26ab0b733bb79e4e8781e899125101", "type": "electric_scooter"}, {"fusion_lat": 0.0, "bike_id": "ddcd944378f451624bc098ab333f7365", "fusion_lon": 0.0, "lon": -77.02251, "lat": 38.92467466666667, "is_reserved": 0, "is_disabled": 0, "rental_uris": {"android": "https://dc.lft.to/lastmile_qr_scan", "ios": "https://dc.lft.to/lastmile_qr_scan"}, "name": "ddcd944378f451624bc098ab333f7365", "type": "electric_scooter"}, {"fusion_lat": 0.0, "bike_id": "eb34b0e9e70e2773255515001f0108d8", "fusion_lon": 0.0, "lon": -77.04508933333334, "lat": 38.89226933333333, "is_reserved": 0, "is_disabled": 0, "rental_uris": {"android": "https://dc.lft.to/lastmile_qr_scan", "ios": "https://dc.lft.to/lastmile_qr_scan"}, "name": "eb34b0e9e70e2773255515001f0108d8", "type": "electric_scooter"}, {"fusion_lat": 0.0, "bike_id": "80cf32fdcadd211d465621d87224d397", "fusion_lon": 0.0, "lon": -77.005977, "lat": 38.871834666666665, "is_reserved": 0, "is_disabled": 0, "rental_uris": {"android": "https://dc.lft.to/lastmile_qr_scan", "ios": "https://dc.lft.to/lastmile_qr_scan"}, "name": "80cf32fdcadd211d465621d87224d397", "type": "electric_scooter"}, {"fusion_lat": 0.0, "bike_id": "f728f8636d41f01d75e57addf162e397", "fusion_lon": 0.0, "lon": -77.06006, "lat": 38.90120316666667, "is_reserved": 0, "is_disabled": 0, "rental_uris": {"android": "https://dc.lft.to/lastmile_qr_scan", "ios": "https://dc.lft.to/lastmile_qr_scan"}, "name": "f728f8636d41f01d75e57addf162e397", "type": "electric_scooter"}, {"fusion_lat": 0.0, "bike_id": "db95134d18c47e7cf0e4d6eae39c22dc", "fusion_lon": 0.0, "lon": -77.034494, "lat": 38.90878283333333, "is_reserved": 0, "is_disabled": 0, "rental_uris": {"android": "https://dc.lft.to/lastmile_qr_scan", "ios": "https://dc.lft.to/lastmile_qr_scan"}, "name": "db95134d18c47e7cf0e4d6eae39c22dc", "type": "electric_scooter"}, {"fusion_lat": 0.0, "bike_id": "d2dbd9bdba3219c090c6c0e62152e924", "fusion_lon": 0.0, "lon": -76.96532966666666, "lat": 38.87620416666667, "is_reserved": 0, "is_disabled": 0, "rental_uris": {"android": "https://dc.lft.to/lastmile_qr_scan", "ios": "https://dc.lft.to/lastmile_qr_scan"}, "name": "d2dbd9bdba3219c090c6c0e62152e924", "type": "electric_scooter"}, {"fusion_lat": 0.0, "bike_id": "66b0be6ad37223a1b0bf5a629cfd2c72", "fusion_lon": 0.0, "lon": -77.02361733333333, "lat": 38.892147666666666, "is_reserved": 0, "is_disabled": 0, "rental_uris": {"android": "https://dc.lft.to/lastmile_qr_scan", "ios": "https://dc.lft.to/lastmile_qr_scan"}, "name": "66b0be6ad37223a1b0bf5a629cfd2c72", "type": "electric_scooter"}, {"fusion_lat": 0.0, "bike_id": "bd4183cb43546d3558066dd1f644bc68", "fusion_lon": 0.0, "lon": -76.9906275, "lat": 38.863725333333335, "is_reserved": 0, "is_disabled": 0, "rental_uris": {"android": "https://dc.lft.to/lastmile_qr_scan", "ios": "https://dc.lft.to/lastmile_qr_scan"}, "name": "bd4183cb43546d3558066dd1f644bc68", "type": "electric_scooter"}, {"fusion_lat": 0.0, "bike_id": "5569ab3c6145dcc00fc222e48c991c29", "fusion_lon": 0.0, "lon": -77.044972, "lat": 38.913561333333334, "is_reserved": 0, "is_disabled": 0, "rental_uris": {"android": "https://dc.lft.to/lastmile_qr_scan", "ios": "https://dc.lft.to/lastmile_qr_scan"}, "name": "5569ab3c6145dcc00fc222e48c991c29", "type": "electric_scooter"}, {"fusion_lat": 0.0, "bike_id": "1c5a0d906c46ae8a157692f64715e5cc", "fusion_lon": 0.0, "lon": -77.02184733333333, "lat": 38.887187833333336, "is_reserved": 0, "is_disabled": 0, "rental_uris": {"android": "https://dc.lft.to/lastmile_qr_scan", "ios": "https://dc.lft.to/lastmile_qr_scan"}, "name": "1c5a0d906c46ae8a157692f64715e5cc", "type": "electric_scooter"}, {"fusion_lat": 0.0, "bike_id": "53dfc6a90fc7f9762b47e1705aa46384", "fusion_lon": 0.0, "lon": -77.03513033333333, "lat": 38.90364816666667, "is_reserved": 0, "is_disabled": 0, "rental_uris": {"android": "https://dc.lft.to/lastmile_qr_scan", "ios": "https://dc.lft.to/lastmile_qr_scan"}, "name": "53dfc6a90fc7f9762b47e1705aa46384", "type": "electric_scooter"}, {"fusion_lat": 0.0, "bike_id": "e32bca19e1df5f6ab87696aede2c19ea", "fusion_lon": 0.0, "lon": -77.01777583333333, "lat": 38.90361166666667, "is_reserved": 0, "is_disabled": 0, "rental_uris": {"android": "https://dc.lft.to/lastmile_qr_scan", "ios": "https://dc.lft.to/lastmile_qr_scan"}, "name": "e32bca19e1df5f6ab87696aede2c19ea", "type": "electric_scooter"}, {"fusion_lat": 0.0, "bike_id": "f01c1d01bd799b33d2461cd104595ca7", "fusion_lon": 0.0, "lon": -76.98987733333334, "lat": 38.859111, "is_reserved": 0, "is_disabled": 0, "rental_uris": {"android": "https://dc.lft.to/lastmile_qr_scan", "ios": "https://dc.lft.to/lastmile_qr_scan"}, "name": "f01c1d01bd799b33d2461cd104595ca7", "type": "electric_scooter"}, {"fusion_lat": 0.0, "bike_id": "16ebb49cf648dc6e516e13511bc5aa72", "fusion_lon": 0.0, "lon": -77.03200733333334, "lat": 38.918379333333334, "is_reserved": 0, "is_disabled": 0, "rental_uris": {"android": "https://dc.lft.to/lastmile_qr_scan", "ios": "https://dc.lft.to/lastmile_qr_scan"}, "name": "16ebb49cf648dc6e516e13511bc5aa72", "type": "electric_scooter"}, {"fusion_lat": 0.0, "bike_id": "71d5e7da2ed73846a151a685a8c2d272", "fusion_lon": 0.0, "lon": -77.041117, "lat": 38.898208833333335, "is_reserved": 0, "is_disabled": 0, "rental_uris": {"android": "https://dc.lft.to/lastmile_qr_scan", "ios": "https://dc.lft.to/lastmile_qr_scan"}, "name": "71d5e7da2ed73846a151a685a8c2d272", "type": "electric_scooter"}, {"fusion_lat": 0.0, "bike_id": "22641ecb764856c586cf6f798ce8dba1", "fusion_lon": 0.0, "lon": -76.9900325, "lat": 38.865053333333336, "is_reserved": 0, "is_disabled": 0, "rental_uris": {"android": "https://dc.lft.to/lastmile_qr_scan", "ios": "https://dc.lft.to/lastmile_qr_scan"}, "name": "22641ecb764856c586cf6f798ce8dba1", "type": "electric_scooter"}, {"fusion_lat": 0.0, "bike_id": "cf03343c411a2e4a8d160f40b281387f", "fusion_lon": 0.0, "lon": -76.94576033333334, "lat": 38.8661735, "is_reserved": 0, "is_disabled": 0, "rental_uris": {"android": "https://dc.lft.to/lastmile_qr_scan", "ios": "https://dc.lft.to/lastmile_qr_scan"}, "name": "cf03343c411a2e4a8d160f40b281387f", "type": "electric_bike"}, {"fusion_lat": 0.0, "bike_id": "6daefc41525710d39f6e1e1865d04e46", "fusion_lon": 0.0, "lon": -77.03221866666667, "lat": 38.91837616666667, "is_reserved": 0, "is_disabled": 0, "rental_uris": {"android": "https://dc.lft.to/lastmile_qr_scan", "ios": "https://dc.lft.to/lastmile_qr_scan"}, "name": "6daefc41525710d39f6e1e1865d04e46", "type": "electric_scooter"}, {"fusion_lat": 0.0, "bike_id": "061b00a4be277e634f1fcae8b98cc0ef", "fusion_lon": 0.0, "lon": -77.02093216666667, "lat": 38.95743366666667, "is_reserved": 0, "is_disabled": 0, "rental_uris": {"android": "https://dc.lft.to/lastmile_qr_scan", "ios": "https://dc.lft.to/lastmile_qr_scan"}, "name": "061b00a4be277e634f1fcae8b98cc0ef", "type": "electric_scooter"}, {"fusion_lat": 0.0, "bike_id": "d867e7745b8f0051ae47aa26138e2ffe", "fusion_lon": 0.0, "lon": -77.0468115, "lat": 38.89509316666667, "is_reserved": 0, "is_disabled": 0, "rental_uris": {"android": "https://dc.lft.to/lastmile_qr_scan", "ios": "https://dc.lft.to/lastmile_qr_scan"}, "name": "d867e7745b8f0051ae47aa26138e2ffe", "type": "electric_scooter"}, {"fusion_lat": 0.0, "bike_id": "dbc31d5f5a1f87b337da1e5e03ae5c3d", "fusion_lon": 0.0, "lon": -77.0441865, "lat": 38.911291, "is_reserved": 0, "is_disabled": 0, "rental_uris": {"android": "https://dc.lft.to/lastmile_qr_scan", "ios": "https://dc.lft.to/lastmile_qr_scan"}, "name": "dbc31d5f5a1f87b337da1e5e03ae5c3d", "type": "electric_scooter"}, {"fusion_lat": 0.0, "bike_id": "26c1360e5ed28a53533bc6e3e3b5caee", "fusion_lon": 0.0, "lon": -77.05574566666667, "lat": 38.91598066666667, "is_reserved": 0, "is_disabled": 0, "rental_uris": {"android": "https://dc.lft.to/lastmile_qr_scan", "ios": "https://dc.lft.to/lastmile_qr_scan"}, "name": "26c1360e5ed28a53533bc6e3e3b5caee", "type": "electric_scooter"}, {"fusion_lat": 0.0, "bike_id": "6bc945585afbb3ae45f0432e9d55e2d3", "fusion_lon": 0.0, "lon": -77.05278083333333, "lat": 38.925449, "is_reserved": 0, "is_disabled": 0, "rental_uris": {"android": "https://dc.lft.to/lastmile_qr_scan", "ios": "https://dc.lft.to/lastmile_qr_scan"}, "name": "6bc945585afbb3ae45f0432e9d55e2d3", "type": "electric_scooter"}, {"fusion_lat": 0.0, "bike_id": "59b69176c62b8fd4caf22e36eecd0d99", "fusion_lon": 0.0, "lon": -77.00733166666667, "lat": 38.89836916666667, "is_reserved": 0, "is_disabled": 0, "rental_uris": {"android": "https://dc.lft.to/lastmile_qr_scan", "ios": "https://dc.lft.to/lastmile_qr_scan"}, "name": "59b69176c62b8fd4caf22e36eecd0d99", "type": "electric_scooter"}, {"fusion_lat": 0.0, "bike_id": "f697e39cd12a70aa0aa5b268cdc31c6b", "fusion_lon": 0.0, "lon": -77.000081, "lat": 38.957179333333336, "is_reserved": 0, "is_disabled": 0, "rental_uris": {"android": "https://dc.lft.to/lastmile_qr_scan", "ios": "https://dc.lft.to/lastmile_qr_scan"}, "name": "f697e39cd12a70aa0aa5b268cdc31c6b", "type": "electric_scooter"}, {"fusion_lat": 0.0, "bike_id": "66575215843da92650a5eb6f9f13ec0c", "fusion_lon": 0.0, "lon": -76.98402133333333, "lat": 38.90630133333333, "is_reserved": 0, "is_disabled": 0, "rental_uris": {"android": "https://dc.lft.to/lastmile_qr_scan", "ios": "https://dc.lft.to/lastmile_qr_scan"}, "name": "66575215843da92650a5eb6f9f13ec0c", "type": "electric_scooter"}, {"fusion_lat": 0.0, "bike_id": "faca4802577537d47725a471e7792c10", "fusion_lon": 0.0, "lon": -77.02541733333334, "lat": 38.94099116666667, "is_reserved": 0, "is_disabled": 0, "rental_uris": {"android": "https://dc.lft.to/lastmile_qr_scan", "ios": "https://dc.lft.to/lastmile_qr_scan"}, "name": "faca4802577537d47725a471e7792c10", "type": "electric_scooter"}, {"fusion_lat": 0.0, "bike_id": "a2a18d4c654cd6c3ae56f6f1e33a547f", "fusion_lon": 0.0, "lon": -77.03963383333334, "lat": 38.91630083333333, "is_reserved": 0, "is_disabled": 0, "rental_uris": {"android": "https://dc.lft.to/lastmile_qr_scan", "ios": "https://dc.lft.to/lastmile_qr_scan"}, "name": "a2a18d4c654cd6c3ae56f6f1e33a547f", "type": "electric_scooter"}, {"fusion_lat": 0.0, "bike_id": "66a7fc21d61cc24b43cf94d0e29dd315", "fusion_lon": 0.0, "lon": -77.023155, "lat": 38.901645333333335, "is_reserved": 0, "is_disabled": 0, "rental_uris": {"android": "https://dc.lft.to/lastmile_qr_scan", "ios": "https://dc.lft.to/lastmile_qr_scan"}, "name": "66a7fc21d61cc24b43cf94d0e29dd315", "type": "electric_scooter"}, {"fusion_lat": 0.0, "bike_id": "0505a95d2c94499753fa4b017f79a88f", "fusion_lon": 0.0, "lon": -77.031985, "lat": 38.916789666666666, "is_reserved": 0, "is_disabled": 0, "rental_uris": {"android": "https://dc.lft.to/lastmile_qr_scan", "ios": "https://dc.lft.to/lastmile_qr_scan"}, "name": "0505a95d2c94499753fa4b017f79a88f", "type": "electric_scooter"}, {"fusion_lat": 0.0, "bike_id": "a90e8b5b87be65361c1dd62b99fd255c", "fusion_lon": 0.0, "lon": -76.99035083333334, "lat": 38.8987905, "is_reserved": 0, "is_disabled": 0, "rental_uris": {"android": "https://dc.lft.to/lastmile_qr_scan", "ios": "https://dc.lft.to/lastmile_qr_scan"}, "name": "a90e8b5b87be65361c1dd62b99fd255c", "type": "electric_scooter"}, {"fusion_lat": 0.0, "bike_id": "c4103ca6fce2dbe122655a98b142b0f0", "fusion_lon": 0.0, "lon": -77.05054666666666, "lat": 38.92515916666667, "is_reserved": 0, "is_disabled": 0, "rental_uris": {"android": "https://dc.lft.to/lastmile_qr_scan", "ios": "https://dc.lft.to/lastmile_qr_scan"}, "name": "c4103ca6fce2dbe122655a98b142b0f0", "type": "electric_scooter"}, {"fusion_lat": 0.0, "bike_id": "7d42579ae32f8bbd2845c96b11225eab", "fusion_lon": 0.0, "lon": -77.05181016666667, "lat": 38.92384583333333, "is_reserved": 0, "is_disabled": 0, "rental_uris": {"android": "https://dc.lft.to/lastmile_qr_scan", "ios": "https://dc.lft.to/lastmile_qr_scan"}, "name": "7d42579ae32f8bbd2845c96b11225eab", "type": "electric_scooter"}, {"fusion_lat": 0.0, "bike_id": "1a07c6d5080e065227ba9b43b886e2ae", "fusion_lon": 0.0, "lon": -77.02584716666667, "lat": 38.88731816666667, "is_reserved": 0, "is_disabled": 0, "rental_uris": {"android": "https://dc.lft.to/lastmile_qr_scan", "ios": "https://dc.lft.to/lastmile_qr_scan"}, "name": "1a07c6d5080e065227ba9b43b886e2ae", "type": "electric_scooter"}, {"fusion_lat": 0.0, "bike_id": "b8847397e3bf0af828aa17886da7986d", "fusion_lon": 0.0, "lon": -77.032896, "lat": 38.93074766666667, "is_reserved": 0, "is_disabled": 0, "rental_uris": {"android": "https://dc.lft.to/lastmile_qr_scan", "ios": "https://dc.lft.to/lastmile_qr_scan"}, "name": "b8847397e3bf0af828aa17886da7986d", "type": "electric_scooter"}, {"fusion_lat": 0.0, "bike_id": "e8d4807892ecc9bf695042fcb0e5b59d", "fusion_lon": 0.0, "lon": -77.02591916666667, "lat": 38.942017166666666, "is_reserved": 0, "is_disabled": 0, "rental_uris": {"android": "https://dc.lft.to/lastmile_qr_scan", "ios": "https://dc.lft.to/lastmile_qr_scan"}, "name": "e8d4807892ecc9bf695042fcb0e5b59d", "type": "electric_scooter"}, {"fusion_lat": 0.0, "bike_id": "7fe3e69e41edbb7739da74ecc347f568", "fusion_lon": 0.0, "lon": -76.9331335, "lat": 38.90090383333333, "is_reserved": 0, "is_disabled": 0, "rental_uris": {"android": "https://dc.lft.to/lastmile_qr_scan", "ios": "https://dc.lft.to/lastmile_qr_scan"}, "name": "7fe3e69e41edbb7739da74ecc347f568", "type": "electric_scooter"}, {"fusion_lat": 0.0, "bike_id": "5f2dee133bc2c80cdde4e3ec244c0a3d", "fusion_lon": 0.0, "lon": -77.00889933333333, "lat": 38.961126, "is_reserved": 0, "is_disabled": 0, "rental_uris": {"android": "https://dc.lft.to/lastmile_qr_scan", "ios": "https://dc.lft.to/lastmile_qr_scan"}, "name": "5f2dee133bc2c80cdde4e3ec244c0a3d", "type": "electric_scooter"}, {"fusion_lat": 0.0, "bike_id": "3cee79eceb03b4583b0b4df7790acf3d", "fusion_lon": 0.0, "lon": -77.02320383333333, "lat": 38.887359333333336, "is_reserved": 0, "is_disabled": 0, "rental_uris": {"android": "https://dc.lft.to/lastmile_qr_scan", "ios": "https://dc.lft.to/lastmile_qr_scan"}, "name": "3cee79eceb03b4583b0b4df7790acf3d", "type": "electric_scooter"}, {"fusion_lat": 0.0, "bike_id": "faa78ecab9b6b90bd576c002deec63d7", "fusion_lon": 0.0, "lon": -77.04738516666667, "lat": 38.90324066666667, "is_reserved": 0, "is_disabled": 0, "rental_uris": {"android": "https://dc.lft.to/lastmile_qr_scan", "ios": "https://dc.lft.to/lastmile_qr_scan"}, "name": "faa78ecab9b6b90bd576c002deec63d7", "type": "electric_scooter"}, {"fusion_lat": 0.0, "bike_id": "d2c8e6e4eb0bfb58dc6999db9f99e06f", "fusion_lon": 0.0, "lon": -76.9939435, "lat": 38.89206183333334, "is_reserved": 0, "is_disabled": 0, "rental_uris": {"android": "https://dc.lft.to/lastmile_qr_scan", "ios": "https://dc.lft.to/lastmile_qr_scan"}, "name": "d2c8e6e4eb0bfb58dc6999db9f99e06f", "type": "electric_scooter"}, {"fusion_lat": 0.0, "bike_id": "4bd66b7a5d46c50f673d42e36b54fd3d", "fusion_lon": 0.0, "lon": -77.0107005, "lat": 38.907154166666665, "is_reserved": 0, "is_disabled": 0, "rental_uris": {"android": "https://dc.lft.to/lastmile_qr_scan", "ios": "https://dc.lft.to/lastmile_qr_scan"}, "name": "4bd66b7a5d46c50f673d42e36b54fd3d", "type": "electric_bike"}, {"fusion_lat": 0.0, "bike_id": "9fff72d3daed9aba042a3688a6fb83f6", "fusion_lon": 0.0, "lon": -77.01616533333333, "lat": 38.87692283333333, "is_reserved": 0, "is_disabled": 0, "rental_uris": {"android": "https://dc.lft.to/lastmile_qr_scan", "ios": "https://dc.lft.to/lastmile_qr_scan"}, "name": "9fff72d3daed9aba042a3688a6fb83f6", "type": "electric_scooter"}, {"fusion_lat": 0.0, "bike_id": "27b9332ed47c29c5e94079404687068f", "fusion_lon": 0.0, "lon": -77.03224316666666, "lat": 38.914036333333335, "is_reserved": 0, "is_disabled": 0, "rental_uris": {"android": "https://dc.lft.to/lastmile_qr_scan", "ios": "https://dc.lft.to/lastmile_qr_scan"}, "name": "27b9332ed47c29c5e94079404687068f", "type": "electric_scooter"}, {"fusion_lat": 0.0, "bike_id": "2bcf83b02f4a68b485e19da8c3ce3a87", "fusion_lon": 0.0, "lon": -77.02945533333333, "lat": 38.91690066666666, "is_reserved": 0, "is_disabled": 0, "rental_uris": {"android": "https://dc.lft.to/lastmile_qr_scan", "ios": "https://dc.lft.to/lastmile_qr_scan"}, "name": "2bcf83b02f4a68b485e19da8c3ce3a87", "type": "electric_scooter"}, {"fusion_lat": 0.0, "bike_id": "26d31b6afdc5b94a29cf4a53363a16d5", "fusion_lon": 0.0, "lon": -77.0326915, "lat": 38.89841, "is_reserved": 0, "is_disabled": 0, "rental_uris": {"android": "https://dc.lft.to/lastmile_qr_scan", "ios": "https://dc.lft.to/lastmile_qr_scan"}, "name": "26d31b6afdc5b94a29cf4a53363a16d5", "type": "electric_scooter"}, {"fusion_lat": 0.0, "bike_id": "22b437f2f0ca12089a44d41d553d893d", "fusion_lon": 0.0, "lon": -77.02838766666666, "lat": 38.887248666666665, "is_reserved": 0, "is_disabled": 0, "rental_uris": {"android": "https://dc.lft.to/lastmile_qr_scan", "ios": "https://dc.lft.to/lastmile_qr_scan"}, "name": "22b437f2f0ca12089a44d41d553d893d", "type": "electric_scooter"}, {"fusion_lat": 0.0, "bike_id": "7e0f3bb24d0937b2a24efa488f8151bd", "fusion_lon": 0.0, "lon": -77.02664133333333, "lat": 38.916891666666665, "is_reserved": 0, "is_disabled": 0, "rental_uris": {"android": "https://dc.lft.to/lastmile_qr_scan", "ios": "https://dc.lft.to/lastmile_qr_scan"}, "name": "7e0f3bb24d0937b2a24efa488f8151bd", "type": "electric_scooter"}, {"fusion_lat": 0.0, "bike_id": "3b3ea2f17b3f452290f77364634147d8", "fusion_lon": 0.0, "lon": -77.03211466666667, "lat": 38.928683666666664, "is_reserved": 0, "is_disabled": 0, "rental_uris": {"android": "https://dc.lft.to/lastmile_qr_scan", "ios": "https://dc.lft.to/lastmile_qr_scan"}, "name": "3b3ea2f17b3f452290f77364634147d8", "type": "electric_scooter"}, {"fusion_lat": 0.0, "bike_id": "e175178560296d2f10632681add5489d", "fusion_lon": 0.0, "lon": -77.04104183333334, "lat": 38.923664333333335, "is_reserved": 0, "is_disabled": 0, "rental_uris": {"android": "https://dc.lft.to/lastmile_qr_scan", "ios": "https://dc.lft.to/lastmile_qr_scan"}, "name": "e175178560296d2f10632681add5489d", "type": "electric_scooter"}, {"fusion_lat": 0.0, "bike_id": "5a64ba1b3a386678db8a9d7deea73c10", "fusion_lon": 0.0, "lon": -77.05766133333333, "lat": 38.93382316666667, "is_reserved": 0, "is_disabled": 0, "rental_uris": {"android": "https://dc.lft.to/lastmile_qr_scan", "ios": "https://dc.lft.to/lastmile_qr_scan"}, "name": "5a64ba1b3a386678db8a9d7deea73c10", "type": "electric_scooter"}, {"fusion_lat": 0.0, "bike_id": "70756e59f3d3af148f543c71e1cf5a7a", "fusion_lon": 0.0, "lon": -77.03273833333333, "lat": 38.901496, "is_reserved": 0, "is_disabled": 0, "rental_uris": {"android": "https://dc.lft.to/lastmile_qr_scan", "ios": "https://dc.lft.to/lastmile_qr_scan"}, "name": "70756e59f3d3af148f543c71e1cf5a7a", "type": "electric_scooter"}, {"fusion_lat": 0.0, "bike_id": "3c329ee50a176231b23d0844f0c3265c", "fusion_lon": 0.0, "lon": -77.03266366666666, "lat": 38.9377315, "is_reserved": 0, "is_disabled": 0, "rental_uris": {"android": "https://dc.lft.to/lastmile_qr_scan", "ios": "https://dc.lft.to/lastmile_qr_scan"}, "name": "3c329ee50a176231b23d0844f0c3265c", "type": "electric_scooter"}, {"fusion_lat": 0.0, "bike_id": "5b92a815d773ba9b81762b2838586334", "fusion_lon": 0.0, "lon": -77.0321155, "lat": 38.9199085, "is_reserved": 0, "is_disabled": 0, "rental_uris": {"android": "https://dc.lft.to/lastmile_qr_scan", "ios": "https://dc.lft.to/lastmile_qr_scan"}, "name": "5b92a815d773ba9b81762b2838586334", "type": "electric_scooter"}, {"fusion_lat": 0.0, "bike_id": "46e1ed095cb107382fc6695a680b4a11", "fusion_lon": 0.0, "lon": -77.06767766666667, "lat": 38.90353066666667, "is_reserved": 0, "is_disabled": 0, "rental_uris": {"android": "https://dc.lft.to/lastmile_qr_scan", "ios": "https://dc.lft.to/lastmile_qr_scan"}, "name": "46e1ed095cb107382fc6695a680b4a11", "type": "electric_scooter"}, {"fusion_lat": 0.0, "bike_id": "aa6c063c06bd45a6d2ef3f82802099cb", "fusion_lon": 0.0, "lon": -77.046747, "lat": 38.896724166666665, "is_reserved": 0, "is_disabled": 0, "rental_uris": {"android": "https://dc.lft.to/lastmile_qr_scan", "ios": "https://dc.lft.to/lastmile_qr_scan"}, "name": "aa6c063c06bd45a6d2ef3f82802099cb", "type": "electric_scooter"}, {"fusion_lat": 0.0, "bike_id": "bb0fbe5cedee2db1d24447ce8248e3d5", "fusion_lon": 0.0, "lon": -76.9691165, "lat": 38.846055666666665, "is_reserved": 0, "is_disabled": 0, "rental_uris": {"android": "https://dc.lft.to/lastmile_qr_scan", "ios": "https://dc.lft.to/lastmile_qr_scan"}, "name": "bb0fbe5cedee2db1d24447ce8248e3d5", "type": "electric_bike"}, {"fusion_lat": 0.0, "bike_id": "8951ce23ed8ea6806a63c032adb1731e", "fusion_lon": 0.0, "lon": -76.96152166666667, "lat": 38.883573166666665, "is_reserved": 0, "is_disabled": 0, "rental_uris": {"android": "https://dc.lft.to/lastmile_qr_scan", "ios": "https://dc.lft.to/lastmile_qr_scan"}, "name": "8951ce23ed8ea6806a63c032adb1731e", "type": "electric_scooter"}, {"fusion_lat": 0.0, "bike_id": "2435cdf1dfe78280891ba7ccbe4903ca", "fusion_lon": 0.0, "lon": -77.02665883333333, "lat": 38.92216483333333, "is_reserved": 0, "is_disabled": 0, "rental_uris": {"android": "https://dc.lft.to/lastmile_qr_scan", "ios": "https://dc.lft.to/lastmile_qr_scan"}, "name": "2435cdf1dfe78280891ba7ccbe4903ca", "type": "electric_scooter"}, {"fusion_lat": 0.0, "bike_id": "b58c9e798b2fae36f15b987b44ebb7e5", "fusion_lon": 0.0, "lon": -77.03646716666667, "lat": 38.913374833333336, "is_reserved": 0, "is_disabled": 0, "rental_uris": {"android": "https://dc.lft.to/lastmile_qr_scan", "ios": "https://dc.lft.to/lastmile_qr_scan"}, "name": "b58c9e798b2fae36f15b987b44ebb7e5", "type": "electric_scooter"}, {"fusion_lat": 0.0, "bike_id": "f403ff60631fd6b751ff465dc04dcb9c", "fusion_lon": 0.0, "lon": -77.04488, "lat": 38.90736016666666, "is_reserved": 0, "is_disabled": 0, "rental_uris": {"android": "https://dc.lft.to/lastmile_qr_scan", "ios": "https://dc.lft.to/lastmile_qr_scan"}, "name": "f403ff60631fd6b751ff465dc04dcb9c", "type": "electric_scooter"}, {"fusion_lat": 0.0, "bike_id": "be6e9d95ff2cdcc94758791fc5e2cb5d", "fusion_lon": 0.0, "lon": -77.033429, "lat": 38.899014666666666, "is_reserved": 0, "is_disabled": 0, "rental_uris": {"android": "https://dc.lft.to/lastmile_qr_scan", "ios": "https://dc.lft.to/lastmile_qr_scan"}, "name": "be6e9d95ff2cdcc94758791fc5e2cb5d", "type": "electric_scooter"}, {"fusion_lat": 0.0, "bike_id": "cf68ee6077eaacdfdc05793405dd6e31", "fusion_lon": 0.0, "lon": -77.03200683333333, "lat": 38.9184005, "is_reserved": 0, "is_disabled": 0, "rental_uris": {"android": "https://dc.lft.to/lastmile_qr_scan", "ios": "https://dc.lft.to/lastmile_qr_scan"}, "name": "cf68ee6077eaacdfdc05793405dd6e31", "type": "electric_scooter"}, {"fusion_lat": 0.0, "bike_id": "28b61f6a59a8aea19e538975ad8df980", "fusion_lon": 0.0, "lon": -77.04012983333334, "lat": 38.90554266666667, "is_reserved": 0, "is_disabled": 0, "rental_uris": {"android": "https://dc.lft.to/lastmile_qr_scan", "ios": "https://dc.lft.to/lastmile_qr_scan"}, "name": "28b61f6a59a8aea19e538975ad8df980", "type": "electric_scooter"}, {"fusion_lat": 0.0, "bike_id": "55cae2898c157bfaadd0177f7adead3e", "fusion_lon": 0.0, "lon": -77.07117766666667, "lat": 38.91967966666667, "is_reserved": 0, "is_disabled": 0, "rental_uris": {"android": "https://dc.lft.to/lastmile_qr_scan", "ios": "https://dc.lft.to/lastmile_qr_scan"}, "name": "55cae2898c157bfaadd0177f7adead3e", "type": "electric_scooter"}, {"fusion_lat": 0.0, "bike_id": "55a08bb04d5968054c6baa1d4b841d44", "fusion_lon": 0.0, "lon": -77.019376, "lat": 38.9025385, "is_reserved": 0, "is_disabled": 0, "rental_uris": {"android": "https://dc.lft.to/lastmile_qr_scan", "ios": "https://dc.lft.to/lastmile_qr_scan"}, "name": "55a08bb04d5968054c6baa1d4b841d44", "type": "electric_scooter"}, {"fusion_lat": 0.0, "bike_id": "05b19a3f747fb71c292de4a41feeb625", "fusion_lon": 0.0, "lon": -77.00886566666667, "lat": 38.9038045, "is_reserved": 0, "is_disabled": 0, "rental_uris": {"android": "https://dc.lft.to/lastmile_qr_scan", "ios": "https://dc.lft.to/lastmile_qr_scan"}, "name": "05b19a3f747fb71c292de4a41feeb625", "type": "electric_bike"}, {"fusion_lat": 0.0, "bike_id": "6390d64524fee3bfa5b31074c075b95d", "fusion_lon": 0.0, "lon": -77.0256115, "lat": 38.94171683333333, "is_reserved": 0, "is_disabled": 0, "rental_uris": {"android": "https://dc.lft.to/lastmile_qr_scan", "ios": "https://dc.lft.to/lastmile_qr_scan"}, "name": "6390d64524fee3bfa5b31074c075b95d", "type": "electric_scooter"}, {"fusion_lat": 0.0, "bike_id": "0b4eb755209680fe52fd1fbe158fc870", "fusion_lon": 0.0, "lon": -77.046738, "lat": 38.8923085, "is_reserved": 0, "is_disabled": 0, "rental_uris": {"android": "https://dc.lft.to/lastmile_qr_scan", "ios": "https://dc.lft.to/lastmile_qr_scan"}, "name": "0b4eb755209680fe52fd1fbe158fc870", "type": "electric_scooter"}, {"fusion_lat": 0.0, "bike_id": "1e3c1a210265fec2d1ae4233d27c8380", "fusion_lon": 0.0, "lon": -77.00681633333333, "lat": 38.94494616666667, "is_reserved": 0, "is_disabled": 0, "rental_uris": {"android": "https://dc.lft.to/lastmile_qr_scan", "ios": "https://dc.lft.to/lastmile_qr_scan"}, "name": "1e3c1a210265fec2d1ae4233d27c8380", "type": "electric_bike"}, {"fusion_lat": 0.0, "bike_id": "f397f4aa3b14aeaced3cfa6823e7640b", "fusion_lon": 0.0, "lon": -77.043919, "lat": 38.921126, "is_reserved": 0, "is_disabled": 0, "rental_uris": {"android": "https://dc.lft.to/lastmile_qr_scan", "ios": "https://dc.lft.to/lastmile_qr_scan"}, "name": "f397f4aa3b14aeaced3cfa6823e7640b", "type": "electric_scooter"}, {"fusion_lat": 0.0, "bike_id": "cb111132e74bad2ab6fd4e2563e3861d", "fusion_lon": 0.0, "lon": -77.00116683333333, "lat": 38.8868435, "is_reserved": 0, "is_disabled": 0, "rental_uris": {"android": "https://dc.lft.to/lastmile_qr_scan", "ios": "https://dc.lft.to/lastmile_qr_scan"}, "name": "cb111132e74bad2ab6fd4e2563e3861d", "type": "electric_bike"}, {"fusion_lat": 0.0, "bike_id": "39919e9fd01988112b89db8c76eae923", "fusion_lon": 0.0, "lon": -77.025134, "lat": 38.92641066666667, "is_reserved": 0, "is_disabled": 0, "rental_uris": {"android": "https://dc.lft.to/lastmile_qr_scan", "ios": "https://dc.lft.to/lastmile_qr_scan"}, "name": "39919e9fd01988112b89db8c76eae923", "type": "electric_scooter"}, {"fusion_lat": 0.0, "bike_id": "29c3bbd0f633978635fa30315b6a8ecb", "fusion_lon": 0.0, "lon": -76.99157583333333, "lat": 38.90035666666667, "is_reserved": 0, "is_disabled": 0, "rental_uris": {"android": "https://dc.lft.to/lastmile_qr_scan", "ios": "https://dc.lft.to/lastmile_qr_scan"}, "name": "29c3bbd0f633978635fa30315b6a8ecb", "type": "electric_scooter"}, {"fusion_lat": 0.0, "bike_id": "600a48723c44a1d269fc5abca2f745b1", "fusion_lon": 0.0, "lon": -77.05239933333333, "lat": 38.92548883333333, "is_reserved": 0, "is_disabled": 0, "rental_uris": {"android": "https://dc.lft.to/lastmile_qr_scan", "ios": "https://dc.lft.to/lastmile_qr_scan"}, "name": "600a48723c44a1d269fc5abca2f745b1", "type": "electric_scooter"}, {"fusion_lat": 0.0, "bike_id": "0d7cb04175c0a79220d82d4060f406d4", "fusion_lon": 0.0, "lon": -76.99894816666666, "lat": 38.90722266666667, "is_reserved": 0, "is_disabled": 0, "rental_uris": {"android": "https://dc.lft.to/lastmile_qr_scan", "ios": "https://dc.lft.to/lastmile_qr_scan"}, "name": "0d7cb04175c0a79220d82d4060f406d4", "type": "electric_scooter"}, {"fusion_lat": 0.0, "bike_id": "d8b35dda522ffd95f89f0bdfc2038fac", "fusion_lon": 0.0, "lon": -77.04882783333333, "lat": 38.90098183333333, "is_reserved": 0, "is_disabled": 0, "rental_uris": {"android": "https://dc.lft.to/lastmile_qr_scan", "ios": "https://dc.lft.to/lastmile_qr_scan"}, "name": "d8b35dda522ffd95f89f0bdfc2038fac", "type": "electric_scooter"}, {"fusion_lat": 0.0, "bike_id": "78a44a328c10e9569ce2f3429e2340f5", "fusion_lon": 0.0, "lon": -77.0271545, "lat": 38.9066095, "is_reserved": 0, "is_disabled": 0, "rental_uris": {"android": "https://dc.lft.to/lastmile_qr_scan", "ios": "https://dc.lft.to/lastmile_qr_scan"}, "name": "78a44a328c10e9569ce2f3429e2340f5", "type": "electric_scooter"}, {"fusion_lat": 0.0, "bike_id": "11782b382bc532a41044cc4869d48eb4", "fusion_lon": 0.0, "lon": -77.00598033333333, "lat": 38.871851666666664, "is_reserved": 0, "is_disabled": 0, "rental_uris": {"android": "https://dc.lft.to/lastmile_qr_scan", "ios": "https://dc.lft.to/lastmile_qr_scan"}, "name": "11782b382bc532a41044cc4869d48eb4", "type": "electric_scooter"}, {"fusion_lat": 0.0, "bike_id": "a735c5d3450dfcbd59b2cef514f106b2", "fusion_lon": 0.0, "lon": -76.8954375, "lat": 38.94548283333334, "is_reserved": 0, "is_disabled": 0, "rental_uris": {"android": "https://dc.lft.to/lastmile_qr_scan", "ios": "https://dc.lft.to/lastmile_qr_scan"}, "name": "a735c5d3450dfcbd59b2cef514f106b2", "type": "electric_bike"}, {"fusion_lat": 0.0, "bike_id": "6b5cd879f7fdccb9bffe27b773af2b80", "fusion_lon": 0.0, "lon": -77.03264566666667, "lat": 38.901497166666665, "is_reserved": 0, "is_disabled": 0, "rental_uris": {"android": "https://dc.lft.to/lastmile_qr_scan", "ios": "https://dc.lft.to/lastmile_qr_scan"}, "name": "6b5cd879f7fdccb9bffe27b773af2b80", "type": "electric_scooter"}, {"fusion_lat": 0.0, "bike_id": "59560ab4cc33dbea50d8e56fa95ffec3", "fusion_lon": 0.0, "lon": -77.03664733333333, "lat": 38.929722, "is_reserved": 0, "is_disabled": 0, "rental_uris": {"android": "https://dc.lft.to/lastmile_qr_scan", "ios": "https://dc.lft.to/lastmile_qr_scan"}, "name": "59560ab4cc33dbea50d8e56fa95ffec3", "type": "electric_scooter"}, {"fusion_lat": 0.0, "bike_id": "92a8bbd216a2c7a5bf1e3bf1a857ce65", "fusion_lon": 0.0, "lon": -77.0257245, "lat": 38.914793333333336, "is_reserved": 0, "is_disabled": 0, "rental_uris": {"android": "https://dc.lft.to/lastmile_qr_scan", "ios": "https://dc.lft.to/lastmile_qr_scan"}, "name": "92a8bbd216a2c7a5bf1e3bf1a857ce65", "type": "electric_scooter"}, {"fusion_lat": 0.0, "bike_id": "c7881366ee23d499aaa1d720ab4ef162", "fusion_lon": 0.0, "lon": -77.0221215, "lat": 38.892206333333334, "is_reserved": 0, "is_disabled": 0, "rental_uris": {"android": "https://dc.lft.to/lastmile_qr_scan", "ios": "https://dc.lft.to/lastmile_qr_scan"}, "name": "c7881366ee23d499aaa1d720ab4ef162", "type": "electric_bike"}, {"fusion_lat": 0.0, "bike_id": "239dda074caba69203896b0406009785", "fusion_lon": 0.0, "lon": -76.978109, "lat": 38.9066645, "is_reserved": 0, "is_disabled": 0, "rental_uris": {"android": "https://dc.lft.to/lastmile_qr_scan", "ios": "https://dc.lft.to/lastmile_qr_scan"}, "name": "239dda074caba69203896b0406009785", "type": "electric_scooter"}, {"fusion_lat": 0.0, "bike_id": "2903ed7ca42e337cf8c06d188502279c", "fusion_lon": 0.0, "lon": -77.0322245, "lat": 38.90867033333333, "is_reserved": 0, "is_disabled": 0, "rental_uris": {"android": "https://dc.lft.to/lastmile_qr_scan", "ios": "https://dc.lft.to/lastmile_qr_scan"}, "name": "2903ed7ca42e337cf8c06d188502279c", "type": "electric_scooter"}, {"fusion_lat": 0.0, "bike_id": "55d140c0b4d97e181b5fcc41a1a4b9a9", "fusion_lon": 0.0, "lon": -77.03719533333333, "lat": 38.9306085, "is_reserved": 0, "is_disabled": 0, "rental_uris": {"android": "https://dc.lft.to/lastmile_qr_scan", "ios": "https://dc.lft.to/lastmile_qr_scan"}, "name": "55d140c0b4d97e181b5fcc41a1a4b9a9", "type": "electric_scooter"}, {"fusion_lat": 0.0, "bike_id": "0c257e3a7c9d851898ac3c2b269db031", "fusion_lon": 0.0, "lon": -77.03858683333333, "lat": 38.91216383333333, "is_reserved": 0, "is_disabled": 0, "rental_uris": {"android": "https://dc.lft.to/lastmile_qr_scan", "ios": "https://dc.lft.to/lastmile_qr_scan"}, "name": "0c257e3a7c9d851898ac3c2b269db031", "type": "electric_scooter"}, {"fusion_lat": 0.0, "bike_id": "5fc6b561c3c023165cb6efe0d99de142", "fusion_lon": 0.0, "lon": -77.04883033333333, "lat": 38.89229483333333, "is_reserved": 0, "is_disabled": 0, "rental_uris": {"android": "https://dc.lft.to/lastmile_qr_scan", "ios": "https://dc.lft.to/lastmile_qr_scan"}, "name": "5fc6b561c3c023165cb6efe0d99de142", "type": "electric_scooter"}, {"fusion_lat": 0.0, "bike_id": "f78c9898b2a1e9a21c3f3132af2a39d4", "fusion_lon": 0.0, "lon": -76.94892333333334, "lat": 38.8951025, "is_reserved": 0, "is_disabled": 0, "rental_uris": {"android": "https://dc.lft.to/lastmile_qr_scan", "ios": "https://dc.lft.to/lastmile_qr_scan"}, "name": "f78c9898b2a1e9a21c3f3132af2a39d4", "type": "electric_scooter"}, {"fusion_lat": 0.0, "bike_id": "23f734b5185bfee79f8c98a1c876fbb8", "fusion_lon": 0.0, "lon": -77.03135, "lat": 38.91543683333333, "is_reserved": 0, "is_disabled": 0, "rental_uris": {"android": "https://dc.lft.to/lastmile_qr_scan", "ios": "https://dc.lft.to/lastmile_qr_scan"}, "name": "23f734b5185bfee79f8c98a1c876fbb8", "type": "electric_scooter"}, {"fusion_lat": 0.0, "bike_id": "5c966c96706c1d48e8eb2f94110f8c50", "fusion_lon": 0.0, "lon": -77.11163766666667, "lat": 38.85512416666667, "is_reserved": 0, "is_disabled": 0, "rental_uris": {"android": "https://dc.lft.to/lastmile_qr_scan", "ios": "https://dc.lft.to/lastmile_qr_scan"}, "name": "5c966c96706c1d48e8eb2f94110f8c50", "type": "electric_bike"}, {"fusion_lat": 0.0, "bike_id": "9122c2c98737528e1eee764cdd2c36ba", "fusion_lon": 0.0, "lon": -77.0347595, "lat": 38.916983333333334, "is_reserved": 0, "is_disabled": 0, "rental_uris": {"android": "https://dc.lft.to/lastmile_qr_scan", "ios": "https://dc.lft.to/lastmile_qr_scan"}, "name": "9122c2c98737528e1eee764cdd2c36ba", "type": "electric_scooter"}, {"fusion_lat": 0.0, "bike_id": "0061c51826c7992fccc6a1fd860d8a9c", "fusion_lon": 0.0, "lon": -77.00129716666666, "lat": 38.912345, "is_reserved": 0, "is_disabled": 0, "rental_uris": {"android": "https://dc.lft.to/lastmile_qr_scan", "ios": "https://dc.lft.to/lastmile_qr_scan"}, "name": "0061c51826c7992fccc6a1fd860d8a9c", "type": "electric_scooter"}, {"fusion_lat": 0.0, "bike_id": "267ec4f26cdb86cbaf6e0d004e8df455", "fusion_lon": 0.0, "lon": -77.0423655, "lat": 38.92180533333333, "is_reserved": 0, "is_disabled": 0, "rental_uris": {"android": "https://dc.lft.to/lastmile_qr_scan", "ios": "https://dc.lft.to/lastmile_qr_scan"}, "name": "267ec4f26cdb86cbaf6e0d004e8df455", "type": "electric_scooter"}, {"fusion_lat": 0.0, "bike_id": "75ab61f38b8c78559059d6580ac5c24e", "fusion_lon": 0.0, "lon": -77.03210666666666, "lat": 38.91648283333333, "is_reserved": 0, "is_disabled": 0, "rental_uris": {"android": "https://dc.lft.to/lastmile_qr_scan", "ios": "https://dc.lft.to/lastmile_qr_scan"}, "name": "75ab61f38b8c78559059d6580ac5c24e", "type": "electric_scooter"}, {"fusion_lat": 0.0, "bike_id": "895eac5c7f19baddd88abf1cc266faf9", "fusion_lon": 0.0, "lon": -77.06163416666666, "lat": 38.91301516666667, "is_reserved": 0, "is_disabled": 0, "rental_uris": {"android": "https://dc.lft.to/lastmile_qr_scan", "ios": "https://dc.lft.to/lastmile_qr_scan"}, "name": "895eac5c7f19baddd88abf1cc266faf9", "type": "electric_scooter"}, {"fusion_lat": 0.0, "bike_id": "d7be761057092f524dd9db51248a9744", "fusion_lon": 0.0, "lon": -77.058883, "lat": 38.936053666666666, "is_reserved": 0, "is_disabled": 0, "rental_uris": {"android": "https://dc.lft.to/lastmile_qr_scan", "ios": "https://dc.lft.to/lastmile_qr_scan"}, "name": "d7be761057092f524dd9db51248a9744", "type": "electric_scooter"}, {"fusion_lat": 0.0, "bike_id": "f349d4fed12857bb7caad00f6add637e", "fusion_lon": 0.0, "lon": -77.04360283333334, "lat": 39.015361, "is_reserved": 0, "is_disabled": 0, "rental_uris": {"android": "https://dc.lft.to/lastmile_qr_scan", "ios": "https://dc.lft.to/lastmile_qr_scan"}, "name": "f349d4fed12857bb7caad00f6add637e", "type": "electric_bike"}, {"fusion_lat": 0.0, "bike_id": "4b500f84e1ec24d2a78fdd52ba5ae873", "fusion_lon": 0.0, "lon": -77.04169783333333, "lat": 38.91988816666667, "is_reserved": 0, "is_disabled": 0, "rental_uris": {"android": "https://dc.lft.to/lastmile_qr_scan", "ios": "https://dc.lft.to/lastmile_qr_scan"}, "name": "4b500f84e1ec24d2a78fdd52ba5ae873", "type": "electric_scooter"}, {"fusion_lat": 0.0, "bike_id": "0c1770528b67b42380b8658d5a9f082d", "fusion_lon": 0.0, "lon": -77.04267333333334, "lat": 38.922303, "is_reserved": 0, "is_disabled": 0, "rental_uris": {"android": "https://dc.lft.to/lastmile_qr_scan", "ios": "https://dc.lft.to/lastmile_qr_scan"}, "name": "0c1770528b67b42380b8658d5a9f082d", "type": "electric_scooter"}, {"fusion_lat": 0.0, "bike_id": "cb8ec24fdb3c8dba77106d05b7a92f87", "fusion_lon": 0.0, "lon": -76.97534466666667, "lat": 38.903257333333336, "is_reserved": 0, "is_disabled": 0, "rental_uris": {"android": "https://dc.lft.to/lastmile_qr_scan", "ios": "https://dc.lft.to/lastmile_qr_scan"}, "name": "cb8ec24fdb3c8dba77106d05b7a92f87", "type": "electric_bike"}, {"fusion_lat": 0.0, "bike_id": "486c06145867fc8ba5c786f145c30676", "fusion_lon": 0.0, "lon": -77.11784483333334, "lat": 39.05487683333333, "is_reserved": 0, "is_disabled": 0, "rental_uris": {"android": "https://dc.lft.to/lastmile_qr_scan", "ios": "https://dc.lft.to/lastmile_qr_scan"}, "name": "486c06145867fc8ba5c786f145c30676", "type": "electric_bike"}, {"fusion_lat": 0.0, "bike_id": "d66ceb2eecbc591f908b426a86c6fc48", "fusion_lon": 0.0, "lon": -77.01647833333334, "lat": 38.877149833333334, "is_reserved": 0, "is_disabled": 0, "rental_uris": {"android": "https://dc.lft.to/lastmile_qr_scan", "ios": "https://dc.lft.to/lastmile_qr_scan"}, "name": "d66ceb2eecbc591f908b426a86c6fc48", "type": "electric_scooter"}, {"fusion_lat": 0.0, "bike_id": "61d45037ac649ed6692fa744af062e90", "fusion_lon": 0.0, "lon": -77.070102, "lat": 38.91865133333334, "is_reserved": 0, "is_disabled": 0, "rental_uris": {"android": "https://dc.lft.to/lastmile_qr_scan", "ios": "https://dc.lft.to/lastmile_qr_scan"}, "name": "61d45037ac649ed6692fa744af062e90", "type": "electric_scooter"}, {"fusion_lat": 0.0, "bike_id": "1d73e7a73874053cd5f0db03b390efee", "fusion_lon": 0.0, "lon": -77.0183755, "lat": 38.92245283333333, "is_reserved": 0, "is_disabled": 0, "rental_uris": {"android": "https://dc.lft.to/lastmile_qr_scan", "ios": "https://dc.lft.to/lastmile_qr_scan"}, "name": "1d73e7a73874053cd5f0db03b390efee", "type": "electric_scooter"}, {"fusion_lat": 0.0, "bike_id": "36f2896a3a37b218c14915d1e3a7d28b", "fusion_lon": 0.0, "lon": -77.02866416666667, "lat": 38.895380333333335, "is_reserved": 0, "is_disabled": 0, "rental_uris": {"android": "https://dc.lft.to/lastmile_qr_scan", "ios": "https://dc.lft.to/lastmile_qr_scan"}, "name": "36f2896a3a37b218c14915d1e3a7d28b", "type": "electric_scooter"}, {"fusion_lat": 0.0, "bike_id": "17caf7a38fce4ba8fa8021f91c154aa9", "fusion_lon": 0.0, "lon": -77.044816, "lat": 38.892238666666664, "is_reserved": 0, "is_disabled": 0, "rental_uris": {"android": "https://dc.lft.to/lastmile_qr_scan", "ios": "https://dc.lft.to/lastmile_qr_scan"}, "name": "17caf7a38fce4ba8fa8021f91c154aa9", "type": "electric_scooter"}, {"fusion_lat": 0.0, "bike_id": "9114a2de40ccf51ec1b0f71a347c3d35", "fusion_lon": 0.0, "lon": -77.03273366666667, "lat": 38.94155833333333, "is_reserved": 0, "is_disabled": 0, "rental_uris": {"android": "https://dc.lft.to/lastmile_qr_scan", "ios": "https://dc.lft.to/lastmile_qr_scan"}, "name": "9114a2de40ccf51ec1b0f71a347c3d35", "type": "electric_scooter"}, {"fusion_lat": 0.0, "bike_id": "97347f8f48c47ebdee5143f2cc6c29a1", "fusion_lon": 0.0, "lon": -77.04182616666667, "lat": 38.892236833333335, "is_reserved": 0, "is_disabled": 0, "rental_uris": {"android": "https://dc.lft.to/lastmile_qr_scan", "ios": "https://dc.lft.to/lastmile_qr_scan"}, "name": "97347f8f48c47ebdee5143f2cc6c29a1", "type": "electric_scooter"}, {"fusion_lat": 0.0, "bike_id": "fe0bea5d3701c74b94b6957a28c54f38", "fusion_lon": 0.0, "lon": -77.03828233333333, "lat": 38.9126885, "is_reserved": 0, "is_disabled": 0, "rental_uris": {"android": "https://dc.lft.to/lastmile_qr_scan", "ios": "https://dc.lft.to/lastmile_qr_scan"}, "name": "fe0bea5d3701c74b94b6957a28c54f38", "type": "electric_scooter"}, {"fusion_lat": 0.0, "bike_id": "b1f3e0e045a228c87616e363f23c5c45", "fusion_lon": 0.0, "lon": -77.0178895, "lat": 38.88590216666667, "is_reserved": 0, "is_disabled": 0, "rental_uris": {"android": "https://dc.lft.to/lastmile_qr_scan", "ios": "https://dc.lft.to/lastmile_qr_scan"}, "name": "b1f3e0e045a228c87616e363f23c5c45", "type": "electric_scooter"}, {"fusion_lat": 0.0, "bike_id": "61c0a64f3aec3b389fc21762239980ce", "fusion_lon": 0.0, "lon": -77.04162833333334, "lat": 38.91250183333333, "is_reserved": 0, "is_disabled": 0, "rental_uris": {"android": "https://dc.lft.to/lastmile_qr_scan", "ios": "https://dc.lft.to/lastmile_qr_scan"}, "name": "61c0a64f3aec3b389fc21762239980ce", "type": "electric_scooter"}, {"fusion_lat": 0.0, "bike_id": "de1bbf9443412d5a9bf4efd7aa3dd7c1", "fusion_lon": 0.0, "lon": -77.0552975, "lat": 38.926636, "is_reserved": 0, "is_disabled": 0, "rental_uris": {"android": "https://dc.lft.to/lastmile_qr_scan", "ios": "https://dc.lft.to/lastmile_qr_scan"}, "name": "de1bbf9443412d5a9bf4efd7aa3dd7c1", "type": "electric_scooter"}, {"fusion_lat": 0.0, "bike_id": "0e549e0486c6678479f9b324b78590b4", "fusion_lon": 0.0, "lon": -77.04805433333334, "lat": 38.9140225, "is_reserved": 0, "is_disabled": 0, "rental_uris": {"android": "https://dc.lft.to/lastmile_qr_scan", "ios": "https://dc.lft.to/lastmile_qr_scan"}, "name": "0e549e0486c6678479f9b324b78590b4", "type": "electric_scooter"}, {"fusion_lat": 0.0, "bike_id": "edb2d7f2e7fc83a0529cdb10f7f2dcc3", "fusion_lon": 0.0, "lon": -77.01507266666667, "lat": 38.889349, "is_reserved": 0, "is_disabled": 0, "rental_uris": {"android": "https://dc.lft.to/lastmile_qr_scan", "ios": "https://dc.lft.to/lastmile_qr_scan"}, "name": "edb2d7f2e7fc83a0529cdb10f7f2dcc3", "type": "electric_scooter"}, {"fusion_lat": 0.0, "bike_id": "e8ae7a0fae1361576a3470b2cebbebb5", "fusion_lon": 0.0, "lon": -76.98239916666667, "lat": 38.88860066666667, "is_reserved": 0, "is_disabled": 0, "rental_uris": {"android": "https://dc.lft.to/lastmile_qr_scan", "ios": "https://dc.lft.to/lastmile_qr_scan"}, "name": "e8ae7a0fae1361576a3470b2cebbebb5", "type": "electric_scooter"}, {"fusion_lat": 0.0, "bike_id": "80a244e508bbbf940e79638d8346406e", "fusion_lon": 0.0, "lon": -77.03208333333333, "lat": 38.911326333333335, "is_reserved": 0, "is_disabled": 0, "rental_uris": {"android": "https://dc.lft.to/lastmile_qr_scan", "ios": "https://dc.lft.to/lastmile_qr_scan"}, "name": "80a244e508bbbf940e79638d8346406e", "type": "electric_scooter"}, {"fusion_lat": 0.0, "bike_id": "279e3cba82d27f760d4d07f0de6714c1", "fusion_lon": 0.0, "lon": -77.02476966666667, "lat": 38.884997166666665, "is_reserved": 0, "is_disabled": 0, "rental_uris": {"android": "https://dc.lft.to/lastmile_qr_scan", "ios": "https://dc.lft.to/lastmile_qr_scan"}, "name": "279e3cba82d27f760d4d07f0de6714c1", "type": "electric_scooter"}, {"fusion_lat": 0.0, "bike_id": "9c6d4e94b926291439c73b7ac5ac5f6b", "fusion_lon": 0.0, "lon": -77.04476433333333, "lat": 38.90249333333333, "is_reserved": 0, "is_disabled": 0, "rental_uris": {"android": "https://dc.lft.to/lastmile_qr_scan", "ios": "https://dc.lft.to/lastmile_qr_scan"}, "name": "9c6d4e94b926291439c73b7ac5ac5f6b", "type": "electric_scooter"}, {"fusion_lat": 0.0, "bike_id": "4423dc5ab11dd4a7bdf228e6747dd0d9", "fusion_lon": 0.0, "lon": -77.02321466666666, "lat": 38.92984766666667, "is_reserved": 0, "is_disabled": 0, "rental_uris": {"android": "https://dc.lft.to/lastmile_qr_scan", "ios": "https://dc.lft.to/lastmile_qr_scan"}, "name": "4423dc5ab11dd4a7bdf228e6747dd0d9", "type": "electric_scooter"}, {"fusion_lat": 0.0, "bike_id": "1d7e7e537f5614e8f0d58ccc445a28ea", "fusion_lon": 0.0, "lon": -77.04192533333334, "lat": 38.89977016666667, "is_reserved": 0, "is_disabled": 0, "rental_uris": {"android": "https://dc.lft.to/lastmile_qr_scan", "ios": "https://dc.lft.to/lastmile_qr_scan"}, "name": "1d7e7e537f5614e8f0d58ccc445a28ea", "type": "electric_scooter"}, {"fusion_lat": 0.0, "bike_id": "840850ebe57c28bf88b24d3481e01ae5", "fusion_lon": 0.0, "lon": -77.036084, "lat": 38.936811, "is_reserved": 0, "is_disabled": 0, "rental_uris": {"android": "https://dc.lft.to/lastmile_qr_scan", "ios": "https://dc.lft.to/lastmile_qr_scan"}, "name": "840850ebe57c28bf88b24d3481e01ae5", "type": "electric_scooter"}, {"fusion_lat": 0.0, "bike_id": "d7df95b86c4332da0e4901794457bd0c", "fusion_lon": 0.0, "lon": -77.0450075, "lat": 38.915240833333336, "is_reserved": 0, "is_disabled": 0, "rental_uris": {"android": "https://dc.lft.to/lastmile_qr_scan", "ios": "https://dc.lft.to/lastmile_qr_scan"}, "name": "d7df95b86c4332da0e4901794457bd0c", "type": "electric_scooter"}, {"fusion_lat": 0.0, "bike_id": "cf8ee7b7946c432f40b135236acba7d3", "fusion_lon": 0.0, "lon": -76.9979605, "lat": 38.82908616666667, "is_reserved": 0, "is_disabled": 0, "rental_uris": {"android": "https://dc.lft.to/lastmile_qr_scan", "ios": "https://dc.lft.to/lastmile_qr_scan"}, "name": "cf8ee7b7946c432f40b135236acba7d3", "type": "electric_bike"}, {"fusion_lat": 0.0, "bike_id": "47ab9e6eca1f844fee70b116c08c413f", "fusion_lon": 0.0, "lon": -77.03229616666667, "lat": 38.925828833333334, "is_reserved": 0, "is_disabled": 0, "rental_uris": {"android": "https://dc.lft.to/lastmile_qr_scan", "ios": "https://dc.lft.to/lastmile_qr_scan"}, "name": "47ab9e6eca1f844fee70b116c08c413f", "type": "electric_scooter"}, {"fusion_lat": 0.0, "bike_id": "ff7d66257fb8c8b7c781049b211c74e3", "fusion_lon": 0.0, "lon": -77.11708383333334, "lat": 38.86743033333333, "is_reserved": 0, "is_disabled": 0, "rental_uris": {"android": "https://dc.lft.to/lastmile_qr_scan", "ios": "https://dc.lft.to/lastmile_qr_scan"}, "name": "ff7d66257fb8c8b7c781049b211c74e3", "type": "electric_bike"}, {"fusion_lat": 0.0, "bike_id": "297ada97aafafc84fbd9302049fc3b74", "fusion_lon": 0.0, "lon": -77.02310383333334, "lat": 38.894809333333335, "is_reserved": 0, "is_disabled": 0, "rental_uris": {"android": "https://dc.lft.to/lastmile_qr_scan", "ios": "https://dc.lft.to/lastmile_qr_scan"}, "name": "297ada97aafafc84fbd9302049fc3b74", "type": "electric_scooter"}, {"fusion_lat": 0.0, "bike_id": "b71830bae6f296efd975995fcf7c6d8b", "fusion_lon": 0.0, "lon": -77.0309735, "lat": 38.910583833333334, "is_reserved": 0, "is_disabled": 0, "rental_uris": {"android": "https://dc.lft.to/lastmile_qr_scan", "ios": "https://dc.lft.to/lastmile_qr_scan"}, "name": "b71830bae6f296efd975995fcf7c6d8b", "type": "electric_scooter"}, {"fusion_lat": 0.0, "bike_id": "b06c94d0aeffd652bb5ff27928026071", "fusion_lon": 0.0, "lon": -77.02587666666666, "lat": 38.918124, "is_reserved": 0, "is_disabled": 0, "rental_uris": {"android": "https://dc.lft.to/lastmile_qr_scan", "ios": "https://dc.lft.to/lastmile_qr_scan"}, "name": "b06c94d0aeffd652bb5ff27928026071", "type": "electric_scooter"}, {"fusion_lat": 0.0, "bike_id": "33a93b9304dbd8aa01ab481a4a8f8ce6", "fusion_lon": 0.0, "lon": -77.07624966666667, "lat": 38.965748833333336, "is_reserved": 0, "is_disabled": 0, "rental_uris": {"android": "https://dc.lft.to/lastmile_qr_scan", "ios": "https://dc.lft.to/lastmile_qr_scan"}, "name": "33a93b9304dbd8aa01ab481a4a8f8ce6", "type": "electric_bike"}, {"fusion_lat": 0.0, "bike_id": "12ee41297ac43a82c497c6f09136dc29", "fusion_lon": 0.0, "lon": -77.019247, "lat": 38.923660166666664, "is_reserved": 0, "is_disabled": 0, "rental_uris": {"android": "https://dc.lft.to/lastmile_qr_scan", "ios": "https://dc.lft.to/lastmile_qr_scan"}, "name": "12ee41297ac43a82c497c6f09136dc29", "type": "electric_scooter"}, {"fusion_lat": 0.0, "bike_id": "4c1f0976f114fdd395fca20325c3ec4c", "fusion_lon": 0.0, "lon": -76.95751166666666, "lat": 38.88426333333334, "is_reserved": 0, "is_disabled": 0, "rental_uris": {"android": "https://dc.lft.to/lastmile_qr_scan", "ios": "https://dc.lft.to/lastmile_qr_scan"}, "name": "4c1f0976f114fdd395fca20325c3ec4c", "type": "electric_scooter"}, {"fusion_lat": 0.0, "bike_id": "3f2c76b5f278e98c11aaa6d2575fc989", "fusion_lon": 0.0, "lon": -77.0351085, "lat": 38.965097666666665, "is_reserved": 0, "is_disabled": 0, "rental_uris": {"android": "https://dc.lft.to/lastmile_qr_scan", "ios": "https://dc.lft.to/lastmile_qr_scan"}, "name": "3f2c76b5f278e98c11aaa6d2575fc989", "type": "electric_bike"}, {"fusion_lat": 0.0, "bike_id": "78f4c1e3c6b750a819b9351e2a3110d1", "fusion_lon": 0.0, "lon": -77.02690316666667, "lat": 38.89645383333333, "is_reserved": 0, "is_disabled": 0, "rental_uris": {"android": "https://dc.lft.to/lastmile_qr_scan", "ios": "https://dc.lft.to/lastmile_qr_scan"}, "name": "78f4c1e3c6b750a819b9351e2a3110d1", "type": "electric_scooter"}, {"fusion_lat": 0.0, "bike_id": "2cdfd71050b64861b286174fd06db644", "fusion_lon": 0.0, "lon": -77.04486866666667, "lat": 38.90051183333333, "is_reserved": 0, "is_disabled": 0, "rental_uris": {"android": "https://dc.lft.to/lastmile_qr_scan", "ios": "https://dc.lft.to/lastmile_qr_scan"}, "name": "2cdfd71050b64861b286174fd06db644", "type": "electric_scooter"}, {"fusion_lat": 0.0, "bike_id": "92850237022226f555ca1eb37c1da97b", "fusion_lon": 0.0, "lon": -77.04673683333333, "lat": 38.900331666666666, "is_reserved": 0, "is_disabled": 0, "rental_uris": {"android": "https://dc.lft.to/lastmile_qr_scan", "ios": "https://dc.lft.to/lastmile_qr_scan"}, "name": "92850237022226f555ca1eb37c1da97b", "type": "electric_scooter"}, {"fusion_lat": 0.0, "bike_id": "e1b5c3d70e9686cfebb4824f02f7820c", "fusion_lon": 0.0, "lon": -77.00071483333333, "lat": 38.9073165, "is_reserved": 0, "is_disabled": 0, "rental_uris": {"android": "https://dc.lft.to/lastmile_qr_scan", "ios": "https://dc.lft.to/lastmile_qr_scan"}, "name": "e1b5c3d70e9686cfebb4824f02f7820c", "type": "electric_scooter"}, {"fusion_lat": 0.0, "bike_id": "e55aa4bc4d7288d2d86c9ade39d8ae1f", "fusion_lon": 0.0, "lon": -77.03720083333333, "lat": 38.9147875, "is_reserved": 0, "is_disabled": 0, "rental_uris": {"android": "https://dc.lft.to/lastmile_qr_scan", "ios": "https://dc.lft.to/lastmile_qr_scan"}, "name": "e55aa4bc4d7288d2d86c9ade39d8ae1f", "type": "electric_scooter"}, {"fusion_lat": 0.0, "bike_id": "cf9276f8d6b6291f144418c3f7151748", "fusion_lon": 0.0, "lon": -77.04940383333333, "lat": 38.900756, "is_reserved": 0, "is_disabled": 0, "rental_uris": {"android": "https://dc.lft.to/lastmile_qr_scan", "ios": "https://dc.lft.to/lastmile_qr_scan"}, "name": "cf9276f8d6b6291f144418c3f7151748", "type": "electric_scooter"}, {"fusion_lat": 0.0, "bike_id": "e509b9df91ca2efecd9c83c6dfd5052e", "fusion_lon": 0.0, "lon": -77.02709283333333, "lat": 38.906643, "is_reserved": 0, "is_disabled": 0, "rental_uris": {"android": "https://dc.lft.to/lastmile_qr_scan", "ios": "https://dc.lft.to/lastmile_qr_scan"}, "name": "e509b9df91ca2efecd9c83c6dfd5052e", "type": "electric_scooter"}, {"fusion_lat": 0.0, "bike_id": "0de3e0527e28c768c25beaaaebc86c5c", "fusion_lon": 0.0, "lon": -77.02822633333334, "lat": 38.89578433333333, "is_reserved": 0, "is_disabled": 0, "rental_uris": {"android": "https://dc.lft.to/lastmile_qr_scan", "ios": "https://dc.lft.to/lastmile_qr_scan"}, "name": "0de3e0527e28c768c25beaaaebc86c5c", "type": "electric_scooter"}, {"fusion_lat": 0.0, "bike_id": "4c6b63abe28e73b0aec7f2097951d465", "fusion_lon": 0.0, "lon": -77.0326525, "lat": 38.93266783333333, "is_reserved": 0, "is_disabled": 0, "rental_uris": {"android": "https://dc.lft.to/lastmile_qr_scan", "ios": "https://dc.lft.to/lastmile_qr_scan"}, "name": "4c6b63abe28e73b0aec7f2097951d465", "type": "electric_scooter"}, {"fusion_lat": 0.0, "bike_id": "6c9a2b04b81e1ed8c5d42596844d5714", "fusion_lon": 0.0, "lon": -77.02171816666667, "lat": 38.894871333333334, "is_reserved": 0, "is_disabled": 0, "rental_uris": {"android": "https://dc.lft.to/lastmile_qr_scan", "ios": "https://dc.lft.to/lastmile_qr_scan"}, "name": "6c9a2b04b81e1ed8c5d42596844d5714", "type": "electric_scooter"}, {"fusion_lat": 0.0, "bike_id": "83633d2d711b91de3d5272423fcc2b73", "fusion_lon": 0.0, "lon": -77.0199845, "lat": 38.886046, "is_reserved": 0, "is_disabled": 0, "rental_uris": {"android": "https://dc.lft.to/lastmile_qr_scan", "ios": "https://dc.lft.to/lastmile_qr_scan"}, "name": "83633d2d711b91de3d5272423fcc2b73", "type": "electric_scooter"}, {"fusion_lat": 0.0, "bike_id": "4032cab8c63827a7901e06e0a13dbe78", "fusion_lon": 0.0, "lon": -77.04219466666666, "lat": 38.9212735, "is_reserved": 0, "is_disabled": 0, "rental_uris": {"android": "https://dc.lft.to/lastmile_qr_scan", "ios": "https://dc.lft.to/lastmile_qr_scan"}, "name": "4032cab8c63827a7901e06e0a13dbe78", "type": "electric_scooter"}, {"fusion_lat": 0.0, "bike_id": "dde3e25bfc693fa4cc0a938c3f7aeab1", "fusion_lon": 0.0, "lon": -77.07793516666666, "lat": 38.996055166666665, "is_reserved": 0, "is_disabled": 0, "rental_uris": {"android": "https://dc.lft.to/lastmile_qr_scan", "ios": "https://dc.lft.to/lastmile_qr_scan"}, "name": "dde3e25bfc693fa4cc0a938c3f7aeab1", "type": "electric_bike"}, {"fusion_lat": 0.0, "bike_id": "0181fb3ce88daafb4bf69d694bda2882", "fusion_lon": 0.0, "lon": -76.97661116666667, "lat": 38.898706, "is_reserved": 0, "is_disabled": 0, "rental_uris": {"android": "https://dc.lft.to/lastmile_qr_scan", "ios": "https://dc.lft.to/lastmile_qr_scan"}, "name": "0181fb3ce88daafb4bf69d694bda2882", "type": "electric_bike"}, {"fusion_lat": 0.0, "bike_id": "c62596c4cfd7f54050ee0c3844093f42", "fusion_lon": 0.0, "lon": -77.0137755, "lat": 38.898225833333335, "is_reserved": 0, "is_disabled": 0, "rental_uris": {"android": "https://dc.lft.to/lastmile_qr_scan", "ios": "https://dc.lft.to/lastmile_qr_scan"}, "name": "c62596c4cfd7f54050ee0c3844093f42", "type": "electric_scooter"}, {"fusion_lat": 0.0, "bike_id": "7ce935bc9a453d0b27cac5c1be77d776", "fusion_lon": 0.0, "lon": -77.02694866666667, "lat": 38.91862583333333, "is_reserved": 0, "is_disabled": 0, "rental_uris": {"android": "https://dc.lft.to/lastmile_qr_scan", "ios": "https://dc.lft.to/lastmile_qr_scan"}, "name": "7ce935bc9a453d0b27cac5c1be77d776", "type": "electric_scooter"}, {"fusion_lat": 0.0, "bike_id": "5440a5b18876ead667938d36098e9a87", "fusion_lon": 0.0, "lon": -77.03003883333334, "lat": 39.041942166666665, "is_reserved": 0, "is_disabled": 0, "rental_uris": {"android": "https://dc.lft.to/lastmile_qr_scan", "ios": "https://dc.lft.to/lastmile_qr_scan"}, "name": "5440a5b18876ead667938d36098e9a87", "type": "electric_bike"}, {"fusion_lat": 0.0, "bike_id": "98bbd0f7c31775bd0abe32bc5ce2e2a7", "fusion_lon": 0.0, "lon": -77.0019375, "lat": 38.89097983333333, "is_reserved": 0, "is_disabled": 0, "rental_uris": {"android": "https://dc.lft.to/lastmile_qr_scan", "ios": "https://dc.lft.to/lastmile_qr_scan"}, "name": "98bbd0f7c31775bd0abe32bc5ce2e2a7", "type": "electric_scooter"}, {"fusion_lat": 0.0, "bike_id": "eefbc23c94483bed316404095bbd8416", "fusion_lon": 0.0, "lon": -77.04269133333334, "lat": 38.92233316666667, "is_reserved": 0, "is_disabled": 0, "rental_uris": {"android": "https://dc.lft.to/lastmile_qr_scan", "ios": "https://dc.lft.to/lastmile_qr_scan"}, "name": "eefbc23c94483bed316404095bbd8416", "type": "electric_scooter"}, {"fusion_lat": 0.0, "bike_id": "ad165bad6f35791c993372728a6792af", "fusion_lon": 0.0, "lon": -77.04094333333333, "lat": 38.91562066666667, "is_reserved": 0, "is_disabled": 0, "rental_uris": {"android": "https://dc.lft.to/lastmile_qr_scan", "ios": "https://dc.lft.to/lastmile_qr_scan"}, "name": "ad165bad6f35791c993372728a6792af", "type": "electric_scooter"}, {"fusion_lat": 0.0, "bike_id": "bde80a118787613e92c5161116c26f90", "fusion_lon": 0.0, "lon": -77.01851133333334, "lat": 38.97362183333333, "is_reserved": 0, "is_disabled": 0, "rental_uris": {"android": "https://dc.lft.to/lastmile_qr_scan", "ios": "https://dc.lft.to/lastmile_qr_scan"}, "name": "bde80a118787613e92c5161116c26f90", "type": "electric_scooter"}, {"fusion_lat": 0.0, "bike_id": "910510c0424c72ed6956855fc853893c", "fusion_lon": 0.0, "lon": -77.021227, "lat": 38.916082, "is_reserved": 0, "is_disabled": 0, "rental_uris": {"android": "https://dc.lft.to/lastmile_qr_scan", "ios": "https://dc.lft.to/lastmile_qr_scan"}, "name": "910510c0424c72ed6956855fc853893c", "type": "electric_scooter"}, {"fusion_lat": 0.0, "bike_id": "7370592addca64079eac834edc1555d8", "fusion_lon": 0.0, "lon": -77.0283265, "lat": 38.90233516666667, "is_reserved": 0, "is_disabled": 0, "rental_uris": {"android": "https://dc.lft.to/lastmile_qr_scan", "ios": "https://dc.lft.to/lastmile_qr_scan"}, "name": "7370592addca64079eac834edc1555d8", "type": "electric_scooter"}, {"fusion_lat": 0.0, "bike_id": "aed5bdd5e605238864349bb9ae11461c", "fusion_lon": 0.0, "lon": -77.03174583333333, "lat": 38.891967666666666, "is_reserved": 0, "is_disabled": 0, "rental_uris": {"android": "https://dc.lft.to/lastmile_qr_scan", "ios": "https://dc.lft.to/lastmile_qr_scan"}, "name": "aed5bdd5e605238864349bb9ae11461c", "type": "electric_scooter"}, {"fusion_lat": 0.0, "bike_id": "f6e87e3fdcd690aec1125e7f0c6aad47", "fusion_lon": 0.0, "lon": -77.0383255, "lat": 38.906757999999996, "is_reserved": 0, "is_disabled": 0, "rental_uris": {"android": "https://dc.lft.to/lastmile_qr_scan", "ios": "https://dc.lft.to/lastmile_qr_scan"}, "name": "f6e87e3fdcd690aec1125e7f0c6aad47", "type": "electric_scooter"}, {"fusion_lat": 0.0, "bike_id": "4a641dbd843e124cfcde298a4926114a", "fusion_lon": 0.0, "lon": -77.02535883333333, "lat": 38.90852616666667, "is_reserved": 0, "is_disabled": 0, "rental_uris": {"android": "https://dc.lft.to/lastmile_qr_scan", "ios": "https://dc.lft.to/lastmile_qr_scan"}, "name": "4a641dbd843e124cfcde298a4926114a", "type": "electric_scooter"}, {"fusion_lat": 0.0, "bike_id": "e3733cd0167dc38845cddc55a64f0ec6", "fusion_lon": 0.0, "lon": -77.021767, "lat": 38.94290383333333, "is_reserved": 0, "is_disabled": 0, "rental_uris": {"android": "https://dc.lft.to/lastmile_qr_scan", "ios": "https://dc.lft.to/lastmile_qr_scan"}, "name": "e3733cd0167dc38845cddc55a64f0ec6", "type": "electric_scooter"}, {"fusion_lat": 0.0, "bike_id": "e331b63e53f8044912d4a7f3a821913e", "fusion_lon": 0.0, "lon": -76.98904333333333, "lat": 38.913422, "is_reserved": 0, "is_disabled": 0, "rental_uris": {"android": "https://dc.lft.to/lastmile_qr_scan", "ios": "https://dc.lft.to/lastmile_qr_scan"}, "name": "e331b63e53f8044912d4a7f3a821913e", "type": "electric_scooter"}, {"fusion_lat": 0.0, "bike_id": "c2d8788f04d8605b3085613fa0a86d10", "fusion_lon": 0.0, "lon": -77.0320705, "lat": 38.9184125, "is_reserved": 0, "is_disabled": 0, "rental_uris": {"android": "https://dc.lft.to/lastmile_qr_scan", "ios": "https://dc.lft.to/lastmile_qr_scan"}, "name": "c2d8788f04d8605b3085613fa0a86d10", "type": "electric_scooter"}, {"fusion_lat": 0.0, "bike_id": "d2f046c6efc9791a218f28356f3847ee", "fusion_lon": 0.0, "lon": -77.03388816666667, "lat": 38.902639, "is_reserved": 0, "is_disabled": 0, "rental_uris": {"android": "https://dc.lft.to/lastmile_qr_scan", "ios": "https://dc.lft.to/lastmile_qr_scan"}, "name": "d2f046c6efc9791a218f28356f3847ee", "type": "electric_scooter"}, {"fusion_lat": 0.0, "bike_id": "a2f5a7720753b09a83a6d721afed728e", "fusion_lon": 0.0, "lon": -77.03667983333334, "lat": 38.9031815, "is_reserved": 0, "is_disabled": 0, "rental_uris": {"android": "https://dc.lft.to/lastmile_qr_scan", "ios": "https://dc.lft.to/lastmile_qr_scan"}, "name": "a2f5a7720753b09a83a6d721afed728e", "type": "electric_scooter"}, {"fusion_lat": 0.0, "bike_id": "b8e1faf2d7a4d189440ebad0f743a1cc", "fusion_lon": 0.0, "lon": -77.03947633333334, "lat": 38.899025, "is_reserved": 0, "is_disabled": 0, "rental_uris": {"android": "https://dc.lft.to/lastmile_qr_scan", "ios": "https://dc.lft.to/lastmile_qr_scan"}, "name": "b8e1faf2d7a4d189440ebad0f743a1cc", "type": "electric_scooter"}, {"fusion_lat": 0.0, "bike_id": "82850435a8c3828fab9a5a6c71de92b7", "fusion_lon": 0.0, "lon": -77.034371, "lat": 38.909785166666666, "is_reserved": 0, "is_disabled": 0, "rental_uris": {"android": "https://dc.lft.to/lastmile_qr_scan", "ios": "https://dc.lft.to/lastmile_qr_scan"}, "name": "82850435a8c3828fab9a5a6c71de92b7", "type": "electric_scooter"}, {"fusion_lat": 0.0, "bike_id": "ae791265a12555211171adc50d2c967f", "fusion_lon": 0.0, "lon": -77.04676016666667, "lat": 38.892316, "is_reserved": 0, "is_disabled": 0, "rental_uris": {"android": "https://dc.lft.to/lastmile_qr_scan", "ios": "https://dc.lft.to/lastmile_qr_scan"}, "name": "ae791265a12555211171adc50d2c967f", "type": "electric_scooter"}, {"fusion_lat": 0.0, "bike_id": "6f96627b0bd399497b415f16bf1283d8", "fusion_lon": 0.0, "lon": -77.05401766666667, "lat": 38.927592833333335, "is_reserved": 0, "is_disabled": 0, "rental_uris": {"android": "https://dc.lft.to/lastmile_qr_scan", "ios": "https://dc.lft.to/lastmile_qr_scan"}, "name": "6f96627b0bd399497b415f16bf1283d8", "type": "electric_scooter"}, {"fusion_lat": 0.0, "bike_id": "f5963474aaf74c190203d94d35d29229", "fusion_lon": 0.0, "lon": -77.05002916666666, "lat": 38.8919535, "is_reserved": 0, "is_disabled": 0, "rental_uris": {"android": "https://dc.lft.to/lastmile_qr_scan", "ios": "https://dc.lft.to/lastmile_qr_scan"}, "name": "f5963474aaf74c190203d94d35d29229", "type": "electric_scooter"}, {"fusion_lat": 0.0, "bike_id": "6d6c96266880cdf8ccd7c7546e865d44", "fusion_lon": 0.0, "lon": -77.03289833333334, "lat": 38.9103355, "is_reserved": 0, "is_disabled": 0, "rental_uris": {"android": "https://dc.lft.to/lastmile_qr_scan", "ios": "https://dc.lft.to/lastmile_qr_scan"}, "name": "6d6c96266880cdf8ccd7c7546e865d44", "type": "electric_scooter"}, {"fusion_lat": 0.0, "bike_id": "c9f587f2062c357432bd99a998973c77", "fusion_lon": 0.0, "lon": -77.050449, "lat": 38.9236015, "is_reserved": 0, "is_disabled": 0, "rental_uris": {"android": "https://dc.lft.to/lastmile_qr_scan", "ios": "https://dc.lft.to/lastmile_qr_scan"}, "name": "c9f587f2062c357432bd99a998973c77", "type": "electric_scooter"}, {"fusion_lat": 0.0, "bike_id": "8f9182aaefd43c412a28a1ca11d6cf88", "fusion_lon": 0.0, "lon": -76.95057566666667, "lat": 38.89301866666667, "is_reserved": 0, "is_disabled": 0, "rental_uris": {"android": "https://dc.lft.to/lastmile_qr_scan", "ios": "https://dc.lft.to/lastmile_qr_scan"}, "name": "8f9182aaefd43c412a28a1ca11d6cf88", "type": "electric_scooter"}, {"fusion_lat": 0.0, "bike_id": "6a5debfe604a84887785fc2ae7d6151a", "fusion_lon": 0.0, "lon": -76.9853475, "lat": 38.89978766666667, "is_reserved": 0, "is_disabled": 0, "rental_uris": {"android": "https://dc.lft.to/lastmile_qr_scan", "ios": "https://dc.lft.to/lastmile_qr_scan"}, "name": "6a5debfe604a84887785fc2ae7d6151a", "type": "electric_scooter"}, {"fusion_lat": 0.0, "bike_id": "8945014c9adf32492737ba2b83c8c606", "fusion_lon": 0.0, "lon": -77.04483933333333, "lat": 38.905450333333334, "is_reserved": 0, "is_disabled": 0, "rental_uris": {"android": "https://dc.lft.to/lastmile_qr_scan", "ios": "https://dc.lft.to/lastmile_qr_scan"}, "name": "8945014c9adf32492737ba2b83c8c606", "type": "electric_scooter"}, {"fusion_lat": 0.0, "bike_id": "b95f149c24471996e75208e4b6b57ae3", "fusion_lon": 0.0, "lon": -77.03556533333334, "lat": 38.93376833333333, "is_reserved": 0, "is_disabled": 0, "rental_uris": {"android": "https://dc.lft.to/lastmile_qr_scan", "ios": "https://dc.lft.to/lastmile_qr_scan"}, "name": "b95f149c24471996e75208e4b6b57ae3", "type": "electric_scooter"}, {"fusion_lat": 0.0, "bike_id": "29a8704184b07155024528f0585adee8", "fusion_lon": 0.0, "lon": -76.978652, "lat": 38.907188833333336, "is_reserved": 0, "is_disabled": 0, "rental_uris": {"android": "https://dc.lft.to/lastmile_qr_scan", "ios": "https://dc.lft.to/lastmile_qr_scan"}, "name": "29a8704184b07155024528f0585adee8", "type": "electric_scooter"}, {"fusion_lat": 0.0, "bike_id": "77fa1f1fec16fae16fcae402e085565d", "fusion_lon": 0.0, "lon": -77.02089866666667, "lat": 38.92911183333333, "is_reserved": 0, "is_disabled": 0, "rental_uris": {"android": "https://dc.lft.to/lastmile_qr_scan", "ios": "https://dc.lft.to/lastmile_qr_scan"}, "name": "77fa1f1fec16fae16fcae402e085565d", "type": "electric_scooter"}, {"fusion_lat": 0.0, "bike_id": "e38a5e5a83806e2957c77b84c2150691", "fusion_lon": 0.0, "lon": -77.01774383333333, "lat": 38.88598433333333, "is_reserved": 0, "is_disabled": 0, "rental_uris": {"android": "https://dc.lft.to/lastmile_qr_scan", "ios": "https://dc.lft.to/lastmile_qr_scan"}, "name": "e38a5e5a83806e2957c77b84c2150691", "type": "electric_scooter"}, {"fusion_lat": 0.0, "bike_id": "4a5417007e9fcde89150c68a47e7b91b", "fusion_lon": 0.0, "lon": -77.07922066666667, "lat": 38.94637766666666, "is_reserved": 0, "is_disabled": 0, "rental_uris": {"android": "https://dc.lft.to/lastmile_qr_scan", "ios": "https://dc.lft.to/lastmile_qr_scan"}, "name": "4a5417007e9fcde89150c68a47e7b91b", "type": "electric_scooter"}, {"fusion_lat": 0.0, "bike_id": "af77cfb91daa5c0a8ecc1e2dcc47a409", "fusion_lon": 0.0, "lon": -76.93017166666667, "lat": 38.89657716666667, "is_reserved": 0, "is_disabled": 0, "rental_uris": {"android": "https://dc.lft.to/lastmile_qr_scan", "ios": "https://dc.lft.to/lastmile_qr_scan"}, "name": "af77cfb91daa5c0a8ecc1e2dcc47a409", "type": "electric_bike"}, {"fusion_lat": 0.0, "bike_id": "fcc48f58cbed293b722ce6b3ae5e7bd4", "fusion_lon": 0.0, "lon": -77.03859983333334, "lat": 38.906643333333335, "is_reserved": 0, "is_disabled": 0, "rental_uris": {"android": "https://dc.lft.to/lastmile_qr_scan", "ios": "https://dc.lft.to/lastmile_qr_scan"}, "name": "fcc48f58cbed293b722ce6b3ae5e7bd4", "type": "electric_scooter"}, {"fusion_lat": 0.0, "bike_id": "b5acedbf3c5ac8a06be5a7ce960f8f8c", "fusion_lon": 0.0, "lon": -77.04171566666666, "lat": 38.9034415, "is_reserved": 0, "is_disabled": 0, "rental_uris": {"android": "https://dc.lft.to/lastmile_qr_scan", "ios": "https://dc.lft.to/lastmile_qr_scan"}, "name": "b5acedbf3c5ac8a06be5a7ce960f8f8c", "type": "electric_scooter"}, {"fusion_lat": 0.0, "bike_id": "cf9ec9f7fad535357f46340ddf1c5aad", "fusion_lon": 0.0, "lon": -76.93175833333333, "lat": 38.898845333333334, "is_reserved": 0, "is_disabled": 0, "rental_uris": {"android": "https://dc.lft.to/lastmile_qr_scan", "ios": "https://dc.lft.to/lastmile_qr_scan"}, "name": "cf9ec9f7fad535357f46340ddf1c5aad", "type": "electric_scooter"}, {"fusion_lat": 0.0, "bike_id": "f4ac3379c77144419c3841c4c3fc7a3e", "fusion_lon": 0.0, "lon": -77.02722583333333, "lat": 38.89735233333333, "is_reserved": 0, "is_disabled": 0, "rental_uris": {"android": "https://dc.lft.to/lastmile_qr_scan", "ios": "https://dc.lft.to/lastmile_qr_scan"}, "name": "f4ac3379c77144419c3841c4c3fc7a3e", "type": "electric_scooter"}, {"fusion_lat": 0.0, "bike_id": "a32237ed1b203484cde6c7f5e0d53c34", "fusion_lon": 0.0, "lon": -77.02562166666667, "lat": 38.93862266666667, "is_reserved": 0, "is_disabled": 0, "rental_uris": {"android": "https://dc.lft.to/lastmile_qr_scan", "ios": "https://dc.lft.to/lastmile_qr_scan"}, "name": "a32237ed1b203484cde6c7f5e0d53c34", "type": "electric_scooter"}, {"fusion_lat": 0.0, "bike_id": "49bbd7328d49ec0f3bc00027b413befb", "fusion_lon": 0.0, "lon": -77.03297983333333, "lat": 38.956518, "is_reserved": 0, "is_disabled": 0, "rental_uris": {"android": "https://dc.lft.to/lastmile_qr_scan", "ios": "https://dc.lft.to/lastmile_qr_scan"}, "name": "49bbd7328d49ec0f3bc00027b413befb", "type": "electric_scooter"}, {"fusion_lat": 0.0, "bike_id": "4ac4dededf176ad22a2b7cb18e2701fe", "fusion_lon": 0.0, "lon": -76.95749016666667, "lat": 38.884269333333336, "is_reserved": 0, "is_disabled": 0, "rental_uris": {"android": "https://dc.lft.to/lastmile_qr_scan", "ios": "https://dc.lft.to/lastmile_qr_scan"}, "name": "4ac4dededf176ad22a2b7cb18e2701fe", "type": "electric_scooter"}, {"fusion_lat": 0.0, "bike_id": "1d100b70598ac1380e43179f7ce6d64f", "fusion_lon": 0.0, "lon": -77.00655216666667, "lat": 38.83886833333333, "is_reserved": 0, "is_disabled": 0, "rental_uris": {"android": "https://dc.lft.to/lastmile_qr_scan", "ios": "https://dc.lft.to/lastmile_qr_scan"}, "name": "1d100b70598ac1380e43179f7ce6d64f", "type": "electric_scooter"},