{"data": {"bikes": [{"lon": -77.069823, "name": "1dc0d02dc754f0c8741a8dae0d46ca71", "is_disabled": 0, "type": "electric_scooter", "is_reserved": 0, "fusion_lon": 0.0, "lat": 38.952992, "rental_uris": {"ios": "https://dc.lft.to/lastmile_qr_scan", "android": "https://dc.lft.to/lastmile_qr_scan"}, "bike_id": "1dc0d02dc754f0c8741a8dae0d46ca71", "fusion_lat": 0.0}, {"lon": -77.005047, "name": "d856dde5c0cab645eafc2cf872f40d4b", "is_disabled": 0, "type": "electric_scooter", "is_reserved": 0, "fusion_lon": 0.0, "lat": 38.87532566666667, "rental_uris": {"ios": "https://dc.lft.to/lastmile_qr_scan", "android": "https://dc.lft.to/lastmile_qr_scan"}, "bike_id": "d856dde5c0cab645eafc2cf872f40d4b", "fusion_lat": 0.0}, {"lon": -76.973292, "name": "f4847a39d7966093df32e345173d8883", "is_disabled": 0, "type": "electric_scooter", "is_reserved": 0, "fusion_lon": 0.0, "lat": 38.904142666666665, "rental_uris": {"ios": "https://dc.lft.to/lastmile_qr_scan", "android": "https://dc.lft.to/lastmile_qr_scan"}, "bike_id": "f4847a39d7966093df32e345173d8883", "fusion_lat": 0.0}, {"lon": -77.00281083333333, "name": "63160bce3ddce0b3b260152c684af6b5", "is_disabled": 0, "type": "electric_scooter", "is_reserved": 0, "fusion_lon": 0.0, "lat": 38.91110783333333, "rental_uris": {"ios": "https://dc.lft.to/lastmile_qr_scan", "android": "https://dc.lft.to/lastmile_qr_scan"}, "bike_id": "63160bce3ddce0b3b260152c684af6b5", "fusion_lat": 0.0}, {"lon": -77.039405, "name": "ca8b6a49a6757514673ad47f8d18ba1e", "is_disabled": 0, "type": "electric_scooter", "is_reserved": 0, "fusion_lon": 0.0, "lat": 38.92475, "rental_uris": {"ios": "https://dc.lft.to/lastmile_qr_scan", "android": "https://dc.lft.to/lastmile_qr_scan"}, "bike_id": "ca8b6a49a6757514673ad47f8d18ba1e", "fusion_lat": 0.0}, {"lon": -77.01778333333333, "name": "ae1ce56f9d79c87d7b0b63d66dde1cd1", "is_disabled": 0, "type": "electric_scooter", "is_reserved": 0, "fusion_lon": 0.0, "lat": 38.920905, "rental_uris": {"ios": "https://dc.lft.to/lastmile_qr_scan", "android": "https://dc.lft.to/lastmile_qr_scan"}, "bike_id": "ae1ce56f9d79c87d7b0b63d66dde1cd1", "fusion_lat": 0.0}, {"lon": -77.03195566666666, "name": "3e8bceac0d48f086deccd0320dbde922", "is_disabled": 0, "type": "electric_scooter", "is_reserved": 0, "fusion_lon": 0.0, "lat": 38.9163005, "rental_uris": {"ios": "https://dc.lft.to/lastmile_qr_scan", "android": "https://dc.lft.to/lastmile_qr_scan"}, "bike_id": "3e8bceac0d48f086deccd0320dbde922", "fusion_lat": 0.0}, {"lon": -76.9956015, "name": "2f37a63b4079fd041f31ae729769c710", "is_disabled": 0, "type": "electric_scooter", "is_reserved": 0, "fusion_lon": 0.0, "lat": 38.9001205, "rental_uris": {"ios": "https://dc.lft.to/lastmile_qr_scan", "android": "https://dc.lft.to/lastmile_qr_scan"}, "bike_id": "2f37a63b4079fd041f31ae729769c710", "fusion_lat": 0.0}, {"lon": -77.0279295, "name": "1eb46c754a103d692585afbaec8fcb7b", "is_disabled": 0, "type": "electric_scooter", "is_reserved": 0, "fusion_lon": 0.0, "lat": 38.934621666666665, "rental_uris": {"ios": "https://dc.lft.to/lastmile_qr_scan", "android": "https://dc.lft.to/lastmile_qr_scan"}, "bike_id": "1eb46c754a103d692585afbaec8fcb7b", "fusion_lat": 0.0}, {"lon": -77.01519583333334, "name": "fc4a03627f10e127928f6d225aef236c", "is_disabled": 0, "type": "electric_scooter", "is_reserved": 0, "fusion_lon": 0.0, "lat": 38.91320133333333, "rental_uris": {"ios": "https://dc.lft.to/lastmile_qr_scan", "android": "https://dc.lft.to/lastmile_qr_scan"}, "bike_id": "fc4a03627f10e127928f6d225aef236c", "fusion_lat": 0.0}, {"lon": -76.9916595, "name": "4a59af30b1682740d9a18426bf4b4907", "is_disabled": 0, "type": "electric_scooter", "is_reserved": 0, "fusion_lon": 0.0, "lat": 38.90131983333333, "rental_uris": {"ios": "https://dc.lft.to/lastmile_qr_scan", "android": "https://dc.lft.to/lastmile_qr_scan"}, "bike_id": "4a59af30b1682740d9a18426bf4b4907", "fusion_lat": 0.0}, {"lon": -77.038817, "name": "d3da311f1530430177a6a6bed4361456", "is_disabled": 0, "type": "electric_scooter", "is_reserved": 0, "fusion_lon": 0.0, "lat": 38.918482833333336, "rental_uris": {"ios": "https://dc.lft.to/lastmile_qr_scan", "android": "https://dc.lft.to/lastmile_qr_scan"}, "bike_id": "d3da311f1530430177a6a6bed4361456", "fusion_lat": 0.0}, {"lon": -77.062196, "name": "44e561d254e6742d96cc2664e4827586", "is_disabled": 0, "type": "electric_scooter", "is_reserved": 0, "fusion_lon": 0.0, "lat": 38.942288833333336, "rental_uris": {"ios": "https://dc.lft.to/lastmile_qr_scan", "android": "https://dc.lft.to/lastmile_qr_scan"}, "bike_id": "44e561d254e6742d96cc2664e4827586", "fusion_lat": 0.0}, {"lon": -77.028331, "name": "701cb3abd6e3c52769fd04b55790ecb2", "is_disabled": 0, "type": "electric_scooter", "is_reserved": 0, "fusion_lon": 0.0, "lat": 38.93884933333333, "rental_uris": {"ios": "https://dc.lft.to/lastmile_qr_scan", "android": "https://dc.lft.to/lastmile_qr_scan"}, "bike_id": "701cb3abd6e3c52769fd04b55790ecb2", "fusion_lat": 0.0}, {"lon": -77.00288133333333, "name": "b90b8b92d458acba854b1e2475f9b351", "is_disabled": 0, "type": "electric_scooter", "is_reserved": 0, "fusion_lon": 0.0, "lat": 38.893552666666665, "rental_uris": {"ios": "https://dc.lft.to/lastmile_qr_scan", "android": "https://dc.lft.to/lastmile_qr_scan"}, "bike_id": "b90b8b92d458acba854b1e2475f9b351", "fusion_lat": 0.0}, {"lon": -77.05439283333334, "name": "26bcac4645e0f0e7840003323abc58e6", "is_disabled": 0, "type": "electric_scooter", "is_reserved": 0, "fusion_lon": 0.0, "lat": 38.914835333333336, "rental_uris": {"ios": "https://dc.lft.to/lastmile_qr_scan", "android": "https://dc.lft.to/lastmile_qr_scan"}, "bike_id": "26bcac4645e0f0e7840003323abc58e6", "fusion_lat": 0.0}, {"lon": -77.03189333333333, "name": "47b3e04ab48a86fab505c3d248ae3b66", "is_disabled": 0, "type": "electric_scooter", "is_reserved": 0, "fusion_lon": 0.0, "lat": 38.91625916666667, "rental_uris": {"ios": "https://dc.lft.to/lastmile_qr_scan", "android": "https://dc.lft.to/lastmile_qr_scan"}, "bike_id": "47b3e04ab48a86fab505c3d248ae3b66", "fusion_lat": 0.0}, {"lon": -77.01020466666667, "name": "c5692237a5d567a325c42414f028cab8", "is_disabled": 0, "type": "electric_scooter", "is_reserved": 0, "fusion_lon": 0.0, "lat": 38.917062333333334, "rental_uris": {"ios": "https://dc.lft.to/lastmile_qr_scan", "android": "https://dc.lft.to/lastmile_qr_scan"}, "bike_id": "c5692237a5d567a325c42414f028cab8", "fusion_lat": 0.0}, {"lon": -77.02087233333333, "name": "dbf83591edd73b673a8cb9b8b9243e4d", "is_disabled": 0, "type": "electric_scooter", "is_reserved": 0, "fusion_lon": 0.0, "lat": 38.91124766666667, "rental_uris": {"ios": "https://dc.lft.to/lastmile_qr_scan", "android": "https://dc.lft.to/lastmile_qr_scan"}, "bike_id": "dbf83591edd73b673a8cb9b8b9243e4d", "fusion_lat": 0.0}, {"lon": -77.03189416666666, "name": "261bb4e61c2e368f6722f763fca746b1", "is_disabled": 0, "type": "electric_scooter", "is_reserved": 0, "fusion_lon": 0.0, "lat": 38.91624516666667, "rental_uris": {"ios": "https://dc.lft.to/lastmile_qr_scan", "android": "https://dc.lft.to/lastmile_qr_scan"}, "bike_id": "261bb4e61c2e368f6722f763fca746b1", "fusion_lat": 0.0}, {"lon": -77.04827366666666, "name": "6227b631ba008152937563d0c1add469", "is_disabled": 0, "type": "electric_scooter", "is_reserved": 0, "fusion_lon": 0.0, "lat": 38.90517416666667, "rental_uris": {"ios": "https://dc.lft.to/lastmile_qr_scan", "android": "https://dc.lft.to/lastmile_qr_scan"}, "bike_id": "6227b631ba008152937563d0c1add469", "fusion_lat": 0.0}, {"lon": -77.06781683333334, "name": "55aa324b60dba0f3075ec786adf7c56a", "is_disabled": 0, "type": "electric_scooter", "is_reserved": 0, "fusion_lon": 0.0, "lat": 38.90844116666667, "rental_uris": {"ios": "https://dc.lft.to/lastmile_qr_scan", "android": "https://dc.lft.to/lastmile_qr_scan"}, "bike_id": "55aa324b60dba0f3075ec786adf7c56a", "fusion_lat": 0.0}, {"lon": -77.02051083333333, "name": "db36c2ef6a1cae3e6efee1a3d5e259b5", "is_disabled": 0, "type": "electric_scooter", "is_reserved": 0, "fusion_lon": 0.0, "lat": 38.923724666666665, "rental_uris": {"ios": "https://dc.lft.to/lastmile_qr_scan", "android": "https://dc.lft.to/lastmile_qr_scan"}, "bike_id": "db36c2ef6a1cae3e6efee1a3d5e259b5", "fusion_lat": 0.0}, {"lon": -77.02779916666667, "name": "d8ccae712097a3cb4622913b7520e829", "is_disabled": 0, "type": "electric_scooter", "is_reserved": 0, "fusion_lon": 0.0, "lat": 38.955398833333334, "rental_uris": {"ios": "https://dc.lft.to/lastmile_qr_scan", "android": "https://dc.lft.to/lastmile_qr_scan"}, "bike_id": "d8ccae712097a3cb4622913b7520e829", "fusion_lat": 0.0}, {"lon": -77.0387825, "name": "a62df4c09d99c3b99cb78b2d87ed5880", "is_disabled": 0, "type": "electric_scooter", "is_reserved": 0, "fusion_lon": 0.0, "lat": 38.9312365, "rental_uris": {"ios": "https://dc.lft.to/lastmile_qr_scan", "android": "https://dc.lft.to/lastmile_qr_scan"}, "bike_id": "a62df4c09d99c3b99cb78b2d87ed5880", "fusion_lat": 0.0}, {"lon": -77.004897, "name": "bd26df4d38c71a0bf080ee1fe7af74cb", "is_disabled": 0, "type": "electric_scooter", "is_reserved": 0, "fusion_lon": 0.0, "lat": 38.9169815, "rental_uris": {"ios": "https://dc.lft.to/lastmile_qr_scan", "android": "https://dc.lft.to/lastmile_qr_scan"}, "bike_id": "bd26df4d38c71a0bf080ee1fe7af74cb", "fusion_lat": 0.0}, {"lon": -77.02951083333333, "name": "6eabb215c0b5c484afce3ecf5e66ea8d", "is_disabled": 0, "type": "electric_scooter", "is_reserved": 0, "fusion_lon": 0.0, "lat": 38.904966333333334, "rental_uris": {"ios": "https://dc.lft.to/lastmile_qr_scan", "android": "https://dc.lft.to/lastmile_qr_scan"}, "bike_id": "6eabb215c0b5c484afce3ecf5e66ea8d", "fusion_lat": 0.0}, {"lon": -76.9172525, "name": "db46b1063e88997da2999a5faa9ac1ab", "is_disabled": 0, "type": "electric_bike", "is_reserved": 0, "fusion_lon": 0.0, "lat": 38.880260666666665, "rental_uris": {"ios": "https://dc.lft.to/lastmile_qr_scan", "android": "https://dc.lft.to/lastmile_qr_scan"}, "bike_id": "db46b1063e88997da2999a5faa9ac1ab", "fusion_lat": 0.0}, {"lon": -77.0175435, "name": "83adfd4c1ca97391d4e1c986c05d6484", "is_disabled": 0, "type": "electric_scooter", "is_reserved": 0, "fusion_lon": 0.0, "lat": 38.883259, "rental_uris": {"ios": "https://dc.lft.to/lastmile_qr_scan", "android": "https://dc.lft.to/lastmile_qr_scan"}, "bike_id": "83adfd4c1ca97391d4e1c986c05d6484", "fusion_lat": 0.0}, {"lon": -77.00133916666667, "name": "952725595ce11bbf0cd20e6cd4c2a1b4", "is_disabled": 0, "type": "electric_scooter", "is_reserved": 0, "fusion_lon": 0.0, "lat": 38.873750333333334, "rental_uris": {"ios": "https://dc.lft.to/lastmile_qr_scan", "android": "https://dc.lft.to/lastmile_qr_scan"}, "bike_id": "952725595ce11bbf0cd20e6cd4c2a1b4", "fusion_lat": 0.0}, {"lon": -77.03952866666667, "name": "e96577029b608fbb62dd063746c616ab", "is_disabled": 0, "type": "electric_scooter", "is_reserved": 0, "fusion_lon": 0.0, "lat": 38.898618666666664, "rental_uris": {"ios": "https://dc.lft.to/lastmile_qr_scan", "android": "https://dc.lft.to/lastmile_qr_scan"}, "bike_id": "e96577029b608fbb62dd063746c616ab", "fusion_lat": 0.0}, {"lon": -76.94661433333333, "name": "68e26d4f26b32365804eb1e97e4d690f", "is_disabled": 0, "type": "electric_scooter", "is_reserved": 0, "fusion_lon": 0.0, "lat": 38.89871, "rental_uris": {"ios": "https://dc.lft.to/lastmile_qr_scan", "android": "https://dc.lft.to/lastmile_qr_scan"}, "bike_id": "68e26d4f26b32365804eb1e97e4d690f", "fusion_lat": 0.0}, {"lon": -77.02135533333333, "name": "89f5785b04536153cb89a0ea7818a3ac", "is_disabled": 0, "type": "electric_scooter", "is_reserved": 0, "fusion_lon": 0.0, "lat": 38.923723833333334, "rental_uris": {"ios": "https://dc.lft.to/lastmile_qr_scan", "android": "https://dc.lft.to/lastmile_qr_scan"}, "bike_id": "89f5785b04536153cb89a0ea7818a3ac", "fusion_lat": 0.0}, {"lon": -77.02815583333333, "name": "36045ca28978e422546957e7cf2b5aa5", "is_disabled": 0, "type": "electric_scooter", "is_reserved": 0, "fusion_lon": 0.0, "lat": 38.907031, "rental_uris": {"ios": "https://dc.lft.to/lastmile_qr_scan", "android": "https://dc.lft.to/lastmile_qr_scan"}, "bike_id": "36045ca28978e422546957e7cf2b5aa5", "fusion_lat": 0.0}, {"lon": -77.04299983333334, "name": "05f228f1bb8f4c7231f83e6179ee6359", "is_disabled": 0, "type": "electric_bike", "is_reserved": 0, "fusion_lon": 0.0, "lat": 39.034229333333336, "rental_uris": {"ios": "https://dc.lft.to/lastmile_qr_scan", "android": "https://dc.lft.to/lastmile_qr_scan"}, "bike_id": "05f228f1bb8f4c7231f83e6179ee6359", "fusion_lat": 0.0}, {"lon": -77.01941266666667, "name": "8fba8f847fe2e45c0a56ecccb9a2cd81", "is_disabled": 0, "type": "electric_scooter", "is_reserved": 0, "fusion_lon": 0.0, "lat": 38.9564135, "rental_uris": {"ios": "https://dc.lft.to/lastmile_qr_scan", "android": "https://dc.lft.to/lastmile_qr_scan"}, "bike_id": "8fba8f847fe2e45c0a56ecccb9a2cd81", "fusion_lat": 0.0}, {"lon": -77.07488316666667, "name": "f8b1fc5219875c1e5c57833c83ee74c5", "is_disabled": 0, "type": "electric_scooter", "is_reserved": 0, "fusion_lon": 0.0, "lat": 38.91189833333333, "rental_uris": {"ios": "https://dc.lft.to/lastmile_qr_scan", "android": "https://dc.lft.to/lastmile_qr_scan"}, "bike_id": "f8b1fc5219875c1e5c57833c83ee74c5", "fusion_lat": 0.0}, {"lon": -77.03279966666666, "name": "2869da50e5b60abdc516bf8ef3ff748d", "is_disabled": 0, "type": "electric_scooter", "is_reserved": 0, "fusion_lon": 0.0, "lat": 38.9325665, "rental_uris": {"ios": "https://dc.lft.to/lastmile_qr_scan", "android": "https://dc.lft.to/lastmile_qr_scan"}, "bike_id": "2869da50e5b60abdc516bf8ef3ff748d", "fusion_lat": 0.0}, {"lon": -77.0343595, "name": "9454b1f218d30dc3d1626dddaef89a68", "is_disabled": 0, "type": "electric_scooter", "is_reserved": 0, "fusion_lon": 0.0, "lat": 38.90115983333333, "rental_uris": {"ios": "https://dc.lft.to/lastmile_qr_scan", "android": "https://dc.lft.to/lastmile_qr_scan"}, "bike_id": "9454b1f218d30dc3d1626dddaef89a68", "fusion_lat": 0.0}, {"lon": -77.02595733333334, "name": "906f4da0678530253eb887b19d29ebd3", "is_disabled": 0, "type": "electric_scooter", "is_reserved": 0, "fusion_lon": 0.0, "lat": 38.9043675, "rental_uris": {"ios": "https://dc.lft.to/lastmile_qr_scan", "android": "https://dc.lft.to/lastmile_qr_scan"}, "bike_id": "906f4da0678530253eb887b19d29ebd3", "fusion_lat": 0.0}, {"lon": -76.94885316666667, "name": "c9fadc3e8630cd7e5e7e1b7ea7c1db7e", "is_disabled": 0, "type": "electric_scooter", "is_reserved": 0, "fusion_lon": 0.0, "lat": 38.89513566666667, "rental_uris": {"ios": "https://dc.lft.to/lastmile_qr_scan", "android": "https://dc.lft.to/lastmile_qr_scan"}, "bike_id": "c9fadc3e8630cd7e5e7e1b7ea7c1db7e", "fusion_lat": 0.0}, {"lon": -77.0033265, "name": "7ce923102c8fd582e59adca23aaa8a2a", "is_disabled": 0, "type": "electric_scooter", "is_reserved": 0, "fusion_lon": 0.0, "lat": 38.893651166666665, "rental_uris": {"ios": "https://dc.lft.to/lastmile_qr_scan", "android": "https://dc.lft.to/lastmile_qr_scan"}, "bike_id": "7ce923102c8fd582e59adca23aaa8a2a", "fusion_lat": 0.0}, {"lon": -77.00709766666667, "name": "719329d8d76d52961efc08062498b574", "is_disabled": 0, "type": "electric_scooter", "is_reserved": 0, "fusion_lon": 0.0, "lat": 38.91192233333334, "rental_uris": {"ios": "https://dc.lft.to/lastmile_qr_scan", "android": "https://dc.lft.to/lastmile_qr_scan"}, "bike_id": "719329d8d76d52961efc08062498b574", "fusion_lat": 0.0}, {"lon": -77.036102, "name": "a8926c73ea934ef1e6323a4215600e7d", "is_disabled": 0, "type": "electric_scooter", "is_reserved": 0, "fusion_lon": 0.0, "lat": 38.9056295, "rental_uris": {"ios": "https://dc.lft.to/lastmile_qr_scan", "android": "https://dc.lft.to/lastmile_qr_scan"}, "bike_id": "a8926c73ea934ef1e6323a4215600e7d", "fusion_lat": 0.0}, {"lon": -77.01700266666667, "name": "b630a007206c31c171db1896cc6a30b8", "is_disabled": 0, "type": "electric_scooter", "is_reserved": 0, "fusion_lon": 0.0, "lat": 38.907579, "rental_uris": {"ios": "https://dc.lft.to/lastmile_qr_scan", "android": "https://dc.lft.to/lastmile_qr_scan"}, "bike_id": "b630a007206c31c171db1896cc6a30b8", "fusion_lat": 0.0}, {"lon": -77.14872183333334, "name": "dc27b581c2b2056dfaabbf1e2184d33a", "is_disabled": 0, "type": "electric_bike", "is_reserved": 0, "fusion_lon": 0.0, "lat": 38.877393833333336, "rental_uris": {"ios": "https://dc.lft.to/lastmile_qr_scan", "android": "https://dc.lft.to/lastmile_qr_scan"}, "bike_id": "dc27b581c2b2056dfaabbf1e2184d33a", "fusion_lat": 0.0}, {"lon": -77.024091, "name": "1da841d5803764a762c880a6224436b6", "is_disabled": 0, "type": "electric_scooter", "is_reserved": 0, "fusion_lon": 0.0, "lat": 38.941848666666665, "rental_uris": {"ios": "https://dc.lft.to/lastmile_qr_scan", "android": "https://dc.lft.to/lastmile_qr_scan"}, "bike_id": "1da841d5803764a762c880a6224436b6", "fusion_lat": 0.0}, {"lon": -77.03459116666667, "name": "63c2fe355c83e555aa019f1c57865d43", "is_disabled": 0, "type": "electric_scooter", "is_reserved": 0, "fusion_lon": 0.0, "lat": 38.9166605, "rental_uris": {"ios": "https://dc.lft.to/lastmile_qr_scan", "android": "https://dc.lft.to/lastmile_qr_scan"}, "bike_id": "63c2fe355c83e555aa019f1c57865d43", "fusion_lat": 0.0}, {"lon": -77.05685733333334, "name": "42d3d85d1349ccf224d77944afcaf9e4", "is_disabled": 0, "type": "electric_scooter", "is_reserved": 0, "fusion_lon": 0.0, "lat": 38.906073166666665, "rental_uris": {"ios": "https://dc.lft.to/lastmile_qr_scan", "android": "https://dc.lft.to/lastmile_qr_scan"}, "bike_id": "42d3d85d1349ccf224d77944afcaf9e4", "fusion_lat": 0.0}, {"lon": -77.04015566666666, "name": "1aa3340e76c66300d7163f895584c6c1", "is_disabled": 0, "type": "electric_scooter", "is_reserved": 0, "fusion_lon": 0.0, "lat": 38.90274816666667, "rental_uris": {"ios": "https://dc.lft.to/lastmile_qr_scan", "android": "https://dc.lft.to/lastmile_qr_scan"}, "bike_id": "1aa3340e76c66300d7163f895584c6c1", "fusion_lat": 0.0}, {"lon": -77.0190015, "name": "2e5cbb48a5f6a6b3f103430a195c4cd4", "is_disabled": 0, "type": "electric_scooter", "is_reserved": 0, "fusion_lon": 0.0, "lat": 38.92349983333333, "rental_uris": {"ios": "https://dc.lft.to/lastmile_qr_scan", "android": "https://dc.lft.to/lastmile_qr_scan"}, "bike_id": "2e5cbb48a5f6a6b3f103430a195c4cd4", "fusion_lat": 0.0}, {"lon": -77.03127366666666, "name": "3d94f64c1941196c70141848bcd16586", "is_disabled": 0, "type": "electric_scooter", "is_reserved": 0, "fusion_lon": 0.0, "lat": 38.918140333333334, "rental_uris": {"ios": "https://dc.lft.to/lastmile_qr_scan", "android": "https://dc.lft.to/lastmile_qr_scan"}, "bike_id": "3d94f64c1941196c70141848bcd16586", "fusion_lat": 0.0}, {"lon": -77.03161533333333, "name": "76a054ce6d2eb42273faffc2a9e6ce83", "is_disabled": 0, "type": "electric_scooter", "is_reserved": 0, "fusion_lon": 0.0, "lat": 38.89218916666667, "rental_uris": {"ios": "https://dc.lft.to/lastmile_qr_scan", "android": "https://dc.lft.to/lastmile_qr_scan"}, "bike_id": "76a054ce6d2eb42273faffc2a9e6ce83", "fusion_lat": 0.0}, {"lon": -77.05930283333333, "name": "6605f48faca3b817e76c2ab8c76f3bfe", "is_disabled": 0, "type": "electric_scooter", "is_reserved": 0, "fusion_lon": 0.0, "lat": 38.94301766666667, "rental_uris": {"ios": "https://dc.lft.to/lastmile_qr_scan", "android": "https://dc.lft.to/lastmile_qr_scan"}, "bike_id": "6605f48faca3b817e76c2ab8c76f3bfe", "fusion_lat": 0.0}, {"lon": -77.04324866666667, "name": "9eaf37b4f40e8c5028caf52efd418761", "is_disabled": 0, "type": "electric_scooter", "is_reserved": 0, "fusion_lon": 0.0, "lat": 38.9188135, "rental_uris": {"ios": "https://dc.lft.to/lastmile_qr_scan", "android": "https://dc.lft.to/lastmile_qr_scan"}, "bike_id": "9eaf37b4f40e8c5028caf52efd418761", "fusion_lat": 0.0}, {"lon": -77.0486455, "name": "2042a7edf9ceb9c6689259f91b39027e", "is_disabled": 0, "type": "electric_scooter", "is_reserved": 0, "fusion_lon": 0.0, "lat": 38.900339, "rental_uris": {"ios": "https://dc.lft.to/lastmile_qr_scan", "android": "https://dc.lft.to/lastmile_qr_scan"}, "bike_id": "2042a7edf9ceb9c6689259f91b39027e", "fusion_lat": 0.0}, {"lon": -77.00917116666666, "name": "6f75df505060e8810a97a6077b998b9c", "is_disabled": 0, "type": "electric_scooter", "is_reserved": 0, "fusion_lon": 0.0, "lat": 38.9234025, "rental_uris": {"ios": "https://dc.lft.to/lastmile_qr_scan", "android": "https://dc.lft.to/lastmile_qr_scan"}, "bike_id": "6f75df505060e8810a97a6077b998b9c", "fusion_lat": 0.0}, {"lon": -77.05598783333333, "name": "14ef0c962a5b53e0b78560264c66bed0", "is_disabled": 0, "type": "electric_scooter", "is_reserved": 0, "fusion_lon": 0.0, "lat": 38.937021, "rental_uris": {"ios": "https://dc.lft.to/lastmile_qr_scan", "android": "https://dc.lft.to/lastmile_qr_scan"}, "bike_id": "14ef0c962a5b53e0b78560264c66bed0", "fusion_lat": 0.0}, {"lon": -77.02967683333334, "name": "f56f223d4ef81f45fef51718a2a28f52", "is_disabled": 0, "type": "electric_scooter", "is_reserved": 0, "fusion_lon": 0.0, "lat": 38.90485733333333, "rental_uris": {"ios": "https://dc.lft.to/lastmile_qr_scan", "android": "https://dc.lft.to/lastmile_qr_scan"}, "bike_id": "f56f223d4ef81f45fef51718a2a28f52", "fusion_lat": 0.0}, {"lon": -77.02433433333333, "name": "15f3250c3943f89d194c3868b34049b9", "is_disabled": 0, "type": "electric_scooter", "is_reserved": 0, "fusion_lon": 0.0, "lat": 38.933650666666665, "rental_uris": {"ios": "https://dc.lft.to/lastmile_qr_scan", "android": "https://dc.lft.to/lastmile_qr_scan"}, "bike_id": "15f3250c3943f89d194c3868b34049b9", "fusion_lat": 0.0}, {"lon": -76.99841733333334, "name": "8ffa7343f63f36d3005206252a7961a7", "is_disabled": 0, "type": "electric_bike", "is_reserved": 0, "fusion_lon": 0.0, "lat": 38.839122, "rental_uris": {"ios": "https://dc.lft.to/lastmile_qr_scan", "android": "https://dc.lft.to/lastmile_qr_scan"}, "bike_id": "8ffa7343f63f36d3005206252a7961a7", "fusion_lat": 0.0}, {"lon": -76.94145866666666, "name": "91ea4b9cd846db385d7b276fa867d792", "is_disabled": 0, "type": "electric_bike", "is_reserved": 0, "fusion_lon": 0.0, "lat": 38.86554183333333, "rental_uris": {"ios": "https://dc.lft.to/lastmile_qr_scan", "android": "https://dc.lft.to/lastmile_qr_scan"}, "bike_id": "91ea4b9cd846db385d7b276fa867d792", "fusion_lat": 0.0}, {"lon": -77.0185455, "name": "46dcfc6e35791a5b2aadfe47f8bc1ad0", "is_disabled": 0, "type": "electric_scooter", "is_reserved": 0, "fusion_lon": 0.0, "lat": 38.9038745, "rental_uris": {"ios": "https://dc.lft.to/lastmile_qr_scan", "android": "https://dc.lft.to/lastmile_qr_scan"}, "bike_id": "46dcfc6e35791a5b2aadfe47f8bc1ad0", "fusion_lat": 0.0}, {"lon": -77.03264, "name": "3c161f873dd1daf5d09079c7cacec316", "is_disabled": 0, "type": "electric_scooter", "is_reserved": 0, "fusion_lon": 0.0, "lat": 38.919849, "rental_uris": {"ios": "https://dc.lft.to/lastmile_qr_scan", "android": "https://dc.lft.to/lastmile_qr_scan"}, "bike_id": "3c161f873dd1daf5d09079c7cacec316", "fusion_lat": 0.0}, {"lon": -77.02966416666666, "name": "adeee2b2e43037168487eb741c953dd9", "is_disabled": 0, "type": "electric_scooter", "is_reserved": 0, "fusion_lon": 0.0, "lat": 38.92588583333333, "rental_uris": {"ios": "https://dc.lft.to/lastmile_qr_scan", "android": "https://dc.lft.to/lastmile_qr_scan"}, "bike_id": "adeee2b2e43037168487eb741c953dd9", "fusion_lat": 0.0}, {"lon": -77.02690583333333, "name": "d102ba0344e11578d0e5f6f6d3432860", "is_disabled": 0, "type": "electric_scooter", "is_reserved": 0, "fusion_lon": 0.0, "lat": 38.9169455, "rental_uris": {"ios": "https://dc.lft.to/lastmile_qr_scan", "android": "https://dc.lft.to/lastmile_qr_scan"}, "bike_id": "d102ba0344e11578d0e5f6f6d3432860", "fusion_lat": 0.0}, {"lon": -77.05082933333334, "name": "6512d0554bf3a10e6d43e4839f4dd6b8", "is_disabled": 0, "type": "electric_bike", "is_reserved": 0, "fusion_lon": 0.0, "lat": 38.8133185, "rental_uris": {"ios": "https://dc.lft.to/lastmile_qr_scan", "android": "https://dc.lft.to/lastmile_qr_scan"}, "bike_id": "6512d0554bf3a10e6d43e4839f4dd6b8", "fusion_lat": 0.0}, {"lon": -77.04128283333333, "name": "29aec757af4648cf5a3e9a774410dffd", "is_disabled": 0, "type": "electric_scooter", "is_reserved": 0, "fusion_lon": 0.0, "lat": 38.918904166666664, "rental_uris": {"ios": "https://dc.lft.to/lastmile_qr_scan", "android": "https://dc.lft.to/lastmile_qr_scan"}, "bike_id": "29aec757af4648cf5a3e9a774410dffd", "fusion_lat": 0.0}, {"lon": -77.0284685, "name": "84e9569f59e7c3bec7c0005e53daff02", "is_disabled": 0, "type": "electric_scooter", "is_reserved": 0, "fusion_lon": 0.0, "lat": 38.93523183333333, "rental_uris": {"ios": "https://dc.lft.to/lastmile_qr_scan", "android": "https://dc.lft.to/lastmile_qr_scan"}, "bike_id": "84e9569f59e7c3bec7c0005e53daff02", "fusion_lat": 0.0}, {"lon": -76.94813966666666, "name": "cea2d38ff93fa958645f99a84ffa4c7f", "is_disabled": 0, "type": "electric_bike", "is_reserved": 0, "fusion_lon": 0.0, "lat": 38.89353833333333, "rental_uris": {"ios": "https://dc.lft.to/lastmile_qr_scan", "android": "https://dc.lft.to/lastmile_qr_scan"}, "bike_id": "cea2d38ff93fa958645f99a84ffa4c7f", "fusion_lat": 0.0}, {"lon": -77.01609283333333, "name": "451b51894a7910627d003998a615f3a4", "is_disabled": 0, "type": "electric_scooter", "is_reserved": 0, "fusion_lon": 0.0, "lat": 38.91067366666667, "rental_uris": {"ios": "https://dc.lft.to/lastmile_qr_scan", "android": "https://dc.lft.to/lastmile_qr_scan"}, "bike_id": "451b51894a7910627d003998a615f3a4", "fusion_lat": 0.0}, {"lon": -77.02202666666666, "name": "6a4ce154ff24b0af46b4ad838715a604", "is_disabled": 0, "type": "electric_scooter", "is_reserved": 0, "fusion_lon": 0.0, "lat": 38.91013483333333, "rental_uris": {"ios": "https://dc.lft.to/lastmile_qr_scan", "android": "https://dc.lft.to/lastmile_qr_scan"}, "bike_id": "6a4ce154ff24b0af46b4ad838715a604", "fusion_lat": 0.0}, {"lon": -77.02052283333333, "name": "2020951fc2dc61ed78ed4dffa5d819ab", "is_disabled": 0, "type": "electric_scooter", "is_reserved": 0, "fusion_lon": 0.0, "lat": 38.921692666666665, "rental_uris": {"ios": "https://dc.lft.to/lastmile_qr_scan", "android": "https://dc.lft.to/lastmile_qr_scan"}, "bike_id": "2020951fc2dc61ed78ed4dffa5d819ab", "fusion_lat": 0.0}, {"lon": -77.02320683333333, "name": "1470c49e79a645a4723892b467c4b59a", "is_disabled": 0, "type": "electric_scooter", "is_reserved": 0, "fusion_lon": 0.0, "lat": 38.918473166666665, "rental_uris": {"ios": "https://dc.lft.to/lastmile_qr_scan", "android": "https://dc.lft.to/lastmile_qr_scan"}, "bike_id": "1470c49e79a645a4723892b467c4b59a", "fusion_lat": 0.0}, {"lon": -77.043143, "name": "ea4baf7effe1a4d2c55976f0eb3d8932", "is_disabled": 0, "type": "electric_scooter", "is_reserved": 0, "fusion_lon": 0.0, "lat": 38.922123666666664, "rental_uris": {"ios": "https://dc.lft.to/lastmile_qr_scan", "android": "https://dc.lft.to/lastmile_qr_scan"}, "bike_id": "ea4baf7effe1a4d2c55976f0eb3d8932", "fusion_lat": 0.0}, {"lon": -77.08489283333333, "name": "dfeeff3bdf7eeb27b93ca4f512a20cce", "is_disabled": 0, "type": "electric_scooter", "is_reserved": 0, "fusion_lon": 0.0, "lat": 38.95895516666667, "rental_uris": {"ios": "https://dc.lft.to/lastmile_qr_scan", "android": "https://dc.lft.to/lastmile_qr_scan"}, "bike_id": "dfeeff3bdf7eeb27b93ca4f512a20cce", "fusion_lat": 0.0}, {"lon": -77.02162716666666, "name": "c207aa3238f72235d8b8a1e64ec48cf6", "is_disabled": 0, "type": "electric_scooter", "is_reserved": 0, "fusion_lon": 0.0, "lat": 38.92614616666667, "rental_uris": {"ios": "https://dc.lft.to/lastmile_qr_scan", "android": "https://dc.lft.to/lastmile_qr_scan"}, "bike_id": "c207aa3238f72235d8b8a1e64ec48cf6", "fusion_lat": 0.0}, {"lon": -77.031591, "name": "b344cd28600be69ef648d0f9dbdfef0a", "is_disabled": 0, "type": "electric_scooter", "is_reserved": 0, "fusion_lon": 0.0, "lat": 38.95932583333333, "rental_uris": {"ios": "https://dc.lft.to/lastmile_qr_scan", "android": "https://dc.lft.to/lastmile_qr_scan"}, "bike_id": "b344cd28600be69ef648d0f9dbdfef0a", "fusion_lat": 0.0}, {"lon": -77.05708783333333, "name": "ff7180522cf0757b4e4f82ed30712884", "is_disabled": 0, "type": "electric_scooter", "is_reserved": 0, "fusion_lon": 0.0, "lat": 38.92605483333333, "rental_uris": {"ios": "https://dc.lft.to/lastmile_qr_scan", "android": "https://dc.lft.to/lastmile_qr_scan"}, "bike_id": "ff7180522cf0757b4e4f82ed30712884", "fusion_lat": 0.0}, {"lon": -77.023845, "name": "ffd4851521e44f4a4c0928c720d24b5c", "is_disabled": 0, "type": "electric_scooter", "is_reserved": 0, "fusion_lon": 0.0, "lat": 38.91617316666667, "rental_uris": {"ios": "https://dc.lft.to/lastmile_qr_scan", "android": "https://dc.lft.to/lastmile_qr_scan"}, "bike_id": "ffd4851521e44f4a4c0928c720d24b5c", "fusion_lat": 0.0}, {"lon": -77.04164783333333, "name": "e4e5796b9bce4b3641bd3e8245cbfbdc", "is_disabled": 0, "type": "electric_scooter", "is_reserved": 0, "fusion_lon": 0.0, "lat": 38.907425833333335, "rental_uris": {"ios": "https://dc.lft.to/lastmile_qr_scan", "android": "https://dc.lft.to/lastmile_qr_scan"}, "bike_id": "e4e5796b9bce4b3641bd3e8245cbfbdc", "fusion_lat": 0.0}, {"lon": -77.03586233333333, "name": "740015a6e56e4436665c92b522159206", "is_disabled": 0, "type": "electric_scooter", "is_reserved": 0, "fusion_lon": 0.0, "lat": 38.926997666666665, "rental_uris": {"ios": "https://dc.lft.to/lastmile_qr_scan", "android": "https://dc.lft.to/lastmile_qr_scan"}, "bike_id": "740015a6e56e4436665c92b522159206", "fusion_lat": 0.0}, {"lon": -77.00204633333334, "name": "f556f5b55eb0b618dbfa46e64b801b85", "is_disabled": 0, "type": "electric_scooter", "is_reserved": 0, "fusion_lon": 0.0, "lat": 38.914677833333336, "rental_uris": {"ios": "https://dc.lft.to/lastmile_qr_scan", "android": "https://dc.lft.to/lastmile_qr_scan"}, "bike_id": "f556f5b55eb0b618dbfa46e64b801b85", "fusion_lat": 0.0}, {"lon": -77.01949683333333, "name": "67f88e248f669ca3fb8f5ddccf864e88", "is_disabled": 0, "type": "electric_scooter", "is_reserved": 0, "fusion_lon": 0.0, "lat": 38.92424233333333, "rental_uris": {"ios": "https://dc.lft.to/lastmile_qr_scan", "android": "https://dc.lft.to/lastmile_qr_scan"}, "bike_id": "67f88e248f669ca3fb8f5ddccf864e88", "fusion_lat": 0.0}, {"lon": -77.0033675, "name": "4fe884b84e010a9de570b23c5fe712a8", "is_disabled": 0, "type": "electric_bike", "is_reserved": 0, "fusion_lon": 0.0, "lat": 38.920199833333335, "rental_uris": {"ios": "https://dc.lft.to/lastmile_qr_scan", "android": "https://dc.lft.to/lastmile_qr_scan"}, "bike_id": "4fe884b84e010a9de570b23c5fe712a8", "fusion_lat": 0.0}, {"lon": -77.021497, "name": "175433d6c0a642c8f65edb42df7a74ab", "is_disabled": 0, "type": "electric_scooter", "is_reserved": 0, "fusion_lon": 0.0, "lat": 38.92606383333333, "rental_uris": {"ios": "https://dc.lft.to/lastmile_qr_scan", "android": "https://dc.lft.to/lastmile_qr_scan"}, "bike_id": "175433d6c0a642c8f65edb42df7a74ab", "fusion_lat": 0.0}, {"lon": -77.01215083333334, "name": "92ac2c56d0b9c3ad3974ab0dbf5de03d", "is_disabled": 0, "type": "electric_scooter", "is_reserved": 0, "fusion_lon": 0.0, "lat": 38.9144365, "rental_uris": {"ios": "https://dc.lft.to/lastmile_qr_scan", "android": "https://dc.lft.to/lastmile_qr_scan"}, "bike_id": "92ac2c56d0b9c3ad3974ab0dbf5de03d", "fusion_lat": 0.0}, {"lon": -77.04466316666667, "name": "f9895a7878fc05203ccd4c0a4e353af6", "is_disabled": 0, "type": "electric_scooter", "is_reserved": 0, "fusion_lon": 0.0, "lat": 38.9153785, "rental_uris": {"ios": "https://dc.lft.to/lastmile_qr_scan", "android": "https://dc.lft.to/lastmile_qr_scan"}, "bike_id": "f9895a7878fc05203ccd4c0a4e353af6", "fusion_lat": 0.0}, {"lon": -77.050024, "name": "78d9eb23909e13e119e47ab222c86129", "is_disabled": 0, "type": "electric_scooter", "is_reserved": 0, "fusion_lon": 0.0, "lat": 38.892282, "rental_uris": {"ios": "https://dc.lft.to/lastmile_qr_scan", "android": "https://dc.lft.to/lastmile_qr_scan"}, "bike_id": "78d9eb23909e13e119e47ab222c86129", "fusion_lat": 0.0}, {"lon": -77.0575555, "name": "e3d9beeed0a679d057ece303dd9e6af2", "is_disabled": 0, "type": "electric_scooter", "is_reserved": 0, "fusion_lon": 0.0, "lat": 38.9248905, "rental_uris": {"ios": "https://dc.lft.to/lastmile_qr_scan", "android": "https://dc.lft.to/lastmile_qr_scan"}, "bike_id": "e3d9beeed0a679d057ece303dd9e6af2", "fusion_lat": 0.0}, {"lon": -77.01622333333333, "name": "249a8f1c41416567ccf10c722e1f1ad9", "is_disabled": 0, "type": "electric_scooter", "is_reserved": 0, "fusion_lon": 0.0, "lat": 38.90351783333333, "rental_uris": {"ios": "https://dc.lft.to/lastmile_qr_scan", "android": "https://dc.lft.to/lastmile_qr_scan"}, "bike_id": "249a8f1c41416567ccf10c722e1f1ad9", "fusion_lat": 0.0}, {"lon": -77.01245866666666, "name": "c1a6f45d62cdca83853f89f98ea2aadc", "is_disabled": 0, "type": "electric_scooter", "is_reserved": 0, "fusion_lon": 0.0, "lat": 38.91575533333334, "rental_uris": {"ios": "https://dc.lft.to/lastmile_qr_scan", "android": "https://dc.lft.to/lastmile_qr_scan"}, "bike_id": "c1a6f45d62cdca83853f89f98ea2aadc", "fusion_lat": 0.0}, {"lon": -77.0073625, "name": "1c4d3e65f5e6c1af886d09586987bbee", "is_disabled": 0, "type": "electric_scooter", "is_reserved": 0, "fusion_lon": 0.0, "lat": 38.9095465, "rental_uris": {"ios": "https://dc.lft.to/lastmile_qr_scan", "android": "https://dc.lft.to/lastmile_qr_scan"}, "bike_id": "1c4d3e65f5e6c1af886d09586987bbee", "fusion_lat": 0.0}, {"lon": -76.99502733333334, "name": "c27af8e0e9f4057fb502e430365eff02", "is_disabled": 0, "type": "electric_scooter", "is_reserved": 0, "fusion_lon": 0.0, "lat": 38.8800555, "rental_uris": {"ios": "https://dc.lft.to/lastmile_qr_scan", "android": "https://dc.lft.to/lastmile_qr_scan"}, "bike_id": "c27af8e0e9f4057fb502e430365eff02", "fusion_lat": 0.0}, {"lon": -77.00209516666666, "name": "f3356fb41f2523a87ba9c81aa0bf3608", "is_disabled": 0, "type": "electric_scooter", "is_reserved": 0, "fusion_lon": 0.0, "lat": 38.92452883333333, "rental_uris": {"ios": "https://dc.lft.to/lastmile_qr_scan", "android": "https://dc.lft.to/lastmile_qr_scan"}, "bike_id": "f3356fb41f2523a87ba9c81aa0bf3608", "fusion_lat": 0.0}, {"lon": -77.04686916666667, "name": "3a9b24ef7e09b5cfb0d6560033b4090d", "is_disabled": 0, "type": "electric_scooter", "is_reserved": 0, "fusion_lon": 0.0, "lat": 38.8922255, "rental_uris": {"ios": "https://dc.lft.to/lastmile_qr_scan", "android": "https://dc.lft.to/lastmile_qr_scan"}, "bike_id": "3a9b24ef7e09b5cfb0d6560033b4090d", "fusion_lat": 0.0}, {"lon": -76.947213, "name": "2196f1726eb1b058bd0e30a7a154ec4e", "is_disabled": 0, "type": "electric_bike", "is_reserved": 0, "fusion_lon": 0.0, "lat": 38.98381366666667, "rental_uris": {"ios": "https://dc.lft.to/lastmile_qr_scan", "android": "https://dc.lft.to/lastmile_qr_scan"}, "bike_id": "2196f1726eb1b058bd0e30a7a154ec4e", "fusion_lat": 0.0}, {"lon": -77.03885766666667, "name": "4db514f71149b199c2afc23768005bbd", "is_disabled": 0, "type": "electric_scooter", "is_reserved": 0, "fusion_lon": 0.0, "lat": 38.917602333333335, "rental_uris": {"ios": "https://dc.lft.to/lastmile_qr_scan", "android": "https://dc.lft.to/lastmile_qr_scan"}, "bike_id": "4db514f71149b199c2afc23768005bbd", "fusion_lat": 0.0}, {"lon": -77.07640733333334, "name": "57f8948920b7ff39eb71c0e279af7c96", "is_disabled": 0, "type": "electric_scooter", "is_reserved": 0, "fusion_lon": 0.0, "lat": 38.92358866666667, "rental_uris": {"ios": "https://dc.lft.to/lastmile_qr_scan", "android": "https://dc.lft.to/lastmile_qr_scan"}, "bike_id": "57f8948920b7ff39eb71c0e279af7c96", "fusion_lat": 0.0}, {"lon": -77.03290916666667, "name": "75fd6ef8dbc6e6fa283aa60cb702160e", "is_disabled": 0, "type": "electric_scooter", "is_reserved": 0, "fusion_lon": 0.0, "lat": 38.935119, "rental_uris": {"ios": "https://dc.lft.to/lastmile_qr_scan", "android": "https://dc.lft.to/lastmile_qr_scan"}, "bike_id": "75fd6ef8dbc6e6fa283aa60cb702160e", "fusion_lat": 0.0}, {"lon": -77.00212633333334, "name": "6b45dbf3f5e5ba5e99501be03b5e7264", "is_disabled": 0, "type": "electric_scooter", "is_reserved": 0, "fusion_lon": 0.0, "lat": 38.90514866666667, "rental_uris": {"ios": "https://dc.lft.to/lastmile_qr_scan", "android": "https://dc.lft.to/lastmile_qr_scan"}, "bike_id": "6b45dbf3f5e5ba5e99501be03b5e7264", "fusion_lat": 0.0}, {"lon": -76.9576865, "name": "5e53b0e4b2cae8ba121e95131f512bc1", "is_disabled": 0, "type": "electric_scooter", "is_reserved": 0, "fusion_lon": 0.0, "lat": 38.8835915, "rental_uris": {"ios": "https://dc.lft.to/lastmile_qr_scan", "android": "https://dc.lft.to/lastmile_qr_scan"}, "bike_id": "5e53b0e4b2cae8ba121e95131f512bc1", "fusion_lat": 0.0}, {"lon": -77.03640816666666, "name": "a54933da6883b7b0aa9983e41fed3b05", "is_disabled": 0, "type": "electric_scooter", "is_reserved": 0, "fusion_lon": 0.0, "lat": 38.9112465, "rental_uris": {"ios": "https://dc.lft.to/lastmile_qr_scan", "android": "https://dc.lft.to/lastmile_qr_scan"}, "bike_id": "a54933da6883b7b0aa9983e41fed3b05", "fusion_lat": 0.0}, {"lon": -77.03664883333333, "name": "ec553d764a85858a10d1ef7e2fde8ae3", "is_disabled": 0, "type": "electric_scooter", "is_reserved": 0, "fusion_lon": 0.0, "lat": 38.92238966666667, "rental_uris": {"ios": "https://dc.lft.to/lastmile_qr_scan", "android": "https://dc.lft.to/lastmile_qr_scan"}, "bike_id": "ec553d764a85858a10d1ef7e2fde8ae3", "fusion_lat": 0.0}, {"lon": -77.03662066666666, "name": "0b2c0190c4ca1cc18440a7d2f1b1ff24", "is_disabled": 0, "type": "electric_scooter", "is_reserved": 0, "fusion_lon": 0.0, "lat": 38.93632083333333, "rental_uris": {"ios": "https://dc.lft.to/lastmile_qr_scan", "android": "https://dc.lft.to/lastmile_qr_scan"}, "bike_id": "0b2c0190c4ca1cc18440a7d2f1b1ff24", "fusion_lat": 0.0}, {"lon": -77.02766416666667, "name": "eec50a3771ea5cc1f6db9f6d97e21220", "is_disabled": 0, "type": "electric_scooter", "is_reserved": 0, "fusion_lon": 0.0, "lat": 38.95303033333333, "rental_uris": {"ios": "https://dc.lft.to/lastmile_qr_scan", "android": "https://dc.lft.to/lastmile_qr_scan"}, "bike_id": "eec50a3771ea5cc1f6db9f6d97e21220", "fusion_lat": 0.0}, {"lon": -76.93767366666667, "name": "d3ee4c76a90bfed0556612b3b0b61ed2", "is_disabled": 0, "type": "electric_scooter", "is_reserved": 0, "fusion_lon": 0.0, "lat": 38.899683333333336, "rental_uris": {"ios": "https://dc.lft.to/lastmile_qr_scan", "android": "https://dc.lft.to/lastmile_qr_scan"}, "bike_id": "d3ee4c76a90bfed0556612b3b0b61ed2", "fusion_lat": 0.0}, {"lon": -76.99153183333334, "name": "2a48ac78858de7256ce3bbea9be33b0c", "is_disabled": 0, "type": "electric_scooter", "is_reserved": 0, "fusion_lon": 0.0, "lat": 38.8821265, "rental_uris": {"ios": "https://dc.lft.to/lastmile_qr_scan", "android": "https://dc.lft.to/lastmile_qr_scan"}, "bike_id": "2a48ac78858de7256ce3bbea9be33b0c", "fusion_lat": 0.0}, {"lon": -77.028166, "name": "ca850d19d431534fc28ce8f6c2c74037", "is_disabled": 0, "type": "electric_scooter", "is_reserved": 0, "fusion_lon": 0.0, "lat": 38.907036833333336, "rental_uris": {"ios": "https://dc.lft.to/lastmile_qr_scan", "android": "https://dc.lft.to/lastmile_qr_scan"}, "bike_id": "ca850d19d431534fc28ce8f6c2c74037", "fusion_lat": 0.0}, {"lon": -77.03185483333333, "name": "8cc8a1ccf88dfc2a7493a1b6ce6de4a9", "is_disabled": 0, "type": "electric_scooter", "is_reserved": 0, "fusion_lon": 0.0, "lat": 38.916172333333336, "rental_uris": {"ios": "https://dc.lft.to/lastmile_qr_scan", "android": "https://dc.lft.to/lastmile_qr_scan"}, "bike_id": "8cc8a1ccf88dfc2a7493a1b6ce6de4a9", "fusion_lat": 0.0}, {"lon": -77.033067, "name": "c594ca71d3577d9e6a15a6a86a70c259", "is_disabled": 0, "type": "electric_scooter", "is_reserved": 0, "fusion_lon": 0.0, "lat": 38.92648283333333, "rental_uris": {"ios": "https://dc.lft.to/lastmile_qr_scan", "android": "https://dc.lft.to/lastmile_qr_scan"}, "bike_id": "c594ca71d3577d9e6a15a6a86a70c259", "fusion_lat": 0.0}, {"lon": -77.0212685, "name": "7b557b36d4b452d82c965fb4ec414afe", "is_disabled": 0, "type": "electric_scooter", "is_reserved": 0, "fusion_lon": 0.0, "lat": 38.924184, "rental_uris": {"ios": "https://dc.lft.to/lastmile_qr_scan", "android": "https://dc.lft.to/lastmile_qr_scan"}, "bike_id": "7b557b36d4b452d82c965fb4ec414afe", "fusion_lat": 0.0}, {"lon": -77.02943266666666, "name": "b1cd7a82172b6ff1c16c5852498802c2", "is_disabled": 0, "type": "electric_scooter", "is_reserved": 0, "fusion_lon": 0.0, "lat": 38.905031666666666, "rental_uris": {"ios": "https://dc.lft.to/lastmile_qr_scan", "android": "https://dc.lft.to/lastmile_qr_scan"}, "bike_id": "b1cd7a82172b6ff1c16c5852498802c2", "fusion_lat": 0.0}, {"lon": -77.00501983333334, "name": "7d961353b51cab5bff947c7b674fe923", "is_disabled": 0, "type": "electric_scooter", "is_reserved": 0, "fusion_lon": 0.0, "lat": 38.905463833333336, "rental_uris": {"ios": "https://dc.lft.to/lastmile_qr_scan", "android": "https://dc.lft.to/lastmile_qr_scan"}, "bike_id": "7d961353b51cab5bff947c7b674fe923", "fusion_lat": 0.0}, {"lon": -77.0816705, "name": "fce45709cf49c3ddab7dc6a87c3663f9", "is_disabled": 0, "type": "electric_bike", "is_reserved": 0, "fusion_lon": 0.0, "lat": 38.90779916666666, "rental_uris": {"ios": "https://dc.lft.to/lastmile_qr_scan", "android": "https://dc.lft.to/lastmile_qr_scan"}, "bike_id": "fce45709cf49c3ddab7dc6a87c3663f9", "fusion_lat": 0.0}, {"lon": -77.03216016666667, "name": "b98769b949ddddd3847519bebb3d0fc2", "is_disabled": 0, "type": "electric_scooter", "is_reserved": 0, "fusion_lon": 0.0, "lat": 38.91635866666667, "rental_uris": {"ios": "https://dc.lft.to/lastmile_qr_scan", "android": "https://dc.lft.to/lastmile_qr_scan"}, "bike_id": "b98769b949ddddd3847519bebb3d0fc2", "fusion_lat": 0.0}, {"lon": -77.023876, "name": "cc012791ad2db9963ae792e8244b51c5", "is_disabled": 0, "type": "electric_scooter", "is_reserved": 0, "fusion_lon": 0.0, "lat": 38.927021, "rental_uris": {"ios": "https://dc.lft.to/lastmile_qr_scan", "android": "https://dc.lft.to/lastmile_qr_scan"}, "bike_id": "cc012791ad2db9963ae792e8244b51c5", "fusion_lat": 0.0}, {"lon": -76.98166183333333, "name": "3b507014cdffab99c7f7f9abe6c7c1d5", "is_disabled": 0, "type": "electric_bike", "is_reserved": 0, "fusion_lon": 0.0, "lat": 38.92595566666667, "rental_uris": {"ios": "https://dc.lft.to/lastmile_qr_scan", "android": "https://dc.lft.to/lastmile_qr_scan"}, "bike_id": "3b507014cdffab99c7f7f9abe6c7c1d5", "fusion_lat": 0.0}, {"lon": -77.027736, "name": "480e16db623b42b88a4005de125bba73", "is_disabled": 0, "type": "electric_scooter", "is_reserved": 0, "fusion_lon": 0.0, "lat": 38.898688, "rental_uris": {"ios": "https://dc.lft.to/lastmile_qr_scan", "android": "https://dc.lft.to/lastmile_qr_scan"}, "bike_id": "480e16db623b42b88a4005de125bba73", "fusion_lat": 0.0}, {"lon": -77.0108625, "name": "3ad0280046de463252ba207510ea2241", "is_disabled": 0, "type": "electric_scooter", "is_reserved": 0, "fusion_lon": 0.0, "lat": 38.903352, "rental_uris": {"ios": "https://dc.lft.to/lastmile_qr_scan", "android": "https://dc.lft.to/lastmile_qr_scan"}, "bike_id": "3ad0280046de463252ba207510ea2241", "fusion_lat": 0.0}, {"lon": -77.04978566666666, "name": "ca84034b52cd0bc0a9dacc25f2f5c69d", "is_disabled": 0, "type": "electric_scooter", "is_reserved": 0, "fusion_lon": 0.0, "lat": 38.89786566666667, "rental_uris": {"ios": "https://dc.lft.to/lastmile_qr_scan", "android": "https://dc.lft.to/lastmile_qr_scan"}, "bike_id": "ca84034b52cd0bc0a9dacc25f2f5c69d", "fusion_lat": 0.0}, {"lon": -77.02100783333333, "name": "e364ec8688e9a0a7ae82b59ab9fe5e0e", "is_disabled": 0, "type": "electric_scooter", "is_reserved": 0, "fusion_lon": 0.0, "lat": 38.9311355, "rental_uris": {"ios": "https://dc.lft.to/lastmile_qr_scan", "android": "https://dc.lft.to/lastmile_qr_scan"}, "bike_id": "e364ec8688e9a0a7ae82b59ab9fe5e0e", "fusion_lat": 0.0}, {"lon": -76.9823605, "name": "e3639e0f13ad2f2ed56617d18e1b946f", "is_disabled": 0, "type": "electric_scooter", "is_reserved": 0, "fusion_lon": 0.0, "lat": 38.908911, "rental_uris": {"ios": "https://dc.lft.to/lastmile_qr_scan", "android": "https://dc.lft.to/lastmile_qr_scan"}, "bike_id": "e3639e0f13ad2f2ed56617d18e1b946f", "fusion_lat": 0.0}, {"lon": -77.01031683333333, "name": "9dfeeb341dd46c147d082ee6175ec26d", "is_disabled": 0, "type": "electric_bike", "is_reserved": 0, "fusion_lon": 0.0, "lat": 38.958831833333335, "rental_uris": {"ios": "https://dc.lft.to/lastmile_qr_scan", "android": "https://dc.lft.to/lastmile_qr_scan"}, "bike_id": "9dfeeb341dd46c147d082ee6175ec26d", "fusion_lat": 0.0}, {"lon": -77.06002133333334, "name": "a77746a6c5ddfc3a2cc92f58477da37d", "is_disabled": 0, "type": "electric_scooter", "is_reserved": 0, "fusion_lon": 0.0, "lat": 38.9271745, "rental_uris": {"ios": "https://dc.lft.to/lastmile_qr_scan", "android": "https://dc.lft.to/lastmile_qr_scan"}, "bike_id": "a77746a6c5ddfc3a2cc92f58477da37d", "fusion_lat": 0.0}, {"lon": -77.0260305, "name": "8000748eacbc648ab42273e1bbffe6a3", "is_disabled": 0, "type": "electric_scooter", "is_reserved": 0, "fusion_lon": 0.0, "lat": 38.91880166666667, "rental_uris": {"ios": "https://dc.lft.to/lastmile_qr_scan", "android": "https://dc.lft.to/lastmile_qr_scan"}, "bike_id": "8000748eacbc648ab42273e1bbffe6a3", "fusion_lat": 0.0}, {"lon": -77.0391745, "name": "239a598d2065b8a9ab8d1745e579c7a4", "is_disabled": 0, "type": "electric_scooter", "is_reserved": 0, "fusion_lon": 0.0, "lat": 38.924810666666666, "rental_uris": {"ios": "https://dc.lft.to/lastmile_qr_scan", "android": "https://dc.lft.to/lastmile_qr_scan"}, "bike_id": "239a598d2065b8a9ab8d1745e579c7a4", "fusion_lat": 0.0}, {"lon": -76.93215366666666, "name": "3e65ab01e12d4b8e724d78da2b273ecd", "is_disabled": 0, "type": "electric_scooter", "is_reserved": 0, "fusion_lon": 0.0, "lat": 38.88060883333333, "rental_uris": {"ios": "https://dc.lft.to/lastmile_qr_scan", "android": "https://dc.lft.to/lastmile_qr_scan"}, "bike_id": "3e65ab01e12d4b8e724d78da2b273ecd", "fusion_lat": 0.0}, {"lon": -77.02140133333333, "name": "57b083c143c220773cdfeccdacfe30a5", "is_disabled": 0, "type": "electric_scooter", "is_reserved": 0, "fusion_lon": 0.0, "lat": 38.92417983333333, "rental_uris": {"ios": "https://dc.lft.to/lastmile_qr_scan", "android": "https://dc.lft.to/lastmile_qr_scan"}, "bike_id": "57b083c143c220773cdfeccdacfe30a5", "fusion_lat": 0.0}, {"lon": -77.01970033333333, "name": "81c3f20e94ff517ca0316c663e1eda21", "is_disabled": 0, "type": "electric_scooter", "is_reserved": 0, "fusion_lon": 0.0, "lat": 38.96744, "rental_uris": {"ios": "https://dc.lft.to/lastmile_qr_scan", "android": "https://dc.lft.to/lastmile_qr_scan"}, "bike_id": "81c3f20e94ff517ca0316c663e1eda21", "fusion_lat": 0.0}, {"lon": -77.03782016666666, "name": "a4ee2c84fe9e2d51f094310c5cff4d46", "is_disabled": 0, "type": "electric_scooter", "is_reserved": 0, "fusion_lon": 0.0, "lat": 38.92792216666667, "rental_uris": {"ios": "https://dc.lft.to/lastmile_qr_scan", "android": "https://dc.lft.to/lastmile_qr_scan"}, "bike_id": "a4ee2c84fe9e2d51f094310c5cff4d46", "fusion_lat": 0.0}, {"lon": -77.0121905, "name": "b6ec6b0b97aade0701e34519d58021ca", "is_disabled": 0, "type": "electric_scooter", "is_reserved": 0, "fusion_lon": 0.0, "lat": 38.915256666666664, "rental_uris": {"ios": "https://dc.lft.to/lastmile_qr_scan", "android": "https://dc.lft.to/lastmile_qr_scan"}, "bike_id": "b6ec6b0b97aade0701e34519d58021ca", "fusion_lat": 0.0}, {"lon": -76.93007483333334, "name": "64c3c3189c6f890f08c19f1d3d8caa0b", "is_disabled": 0, "type": "electric_scooter", "is_reserved": 0, "fusion_lon": 0.0, "lat": 38.90712833333333, "rental_uris": {"ios": "https://dc.lft.to/lastmile_qr_scan", "android": "https://dc.lft.to/lastmile_qr_scan"}, "bike_id": "64c3c3189c6f890f08c19f1d3d8caa0b", "fusion_lat": 0.0}, {"lon": -77.07802016666666, "name": "fe9ecab4c2a21fcc4c2803f414ea15cd", "is_disabled": 0, "type": "electric_scooter", "is_reserved": 0, "fusion_lon": 0.0, "lat": 38.938505166666666, "rental_uris": {"ios": "https://dc.lft.to/lastmile_qr_scan", "android": "https://dc.lft.to/lastmile_qr_scan"}, "bike_id": "fe9ecab4c2a21fcc4c2803f414ea15cd", "fusion_lat": 0.0}, {"lon": -77.03559316666667, "name": "dfd18685c5dd4fafe4eff47a4f103b6d", "is_disabled": 0, "type": "electric_scooter", "is_reserved": 0, "fusion_lon": 0.0, "lat": 38.9048975, "rental_uris": {"ios": "https://dc.lft.to/lastmile_qr_scan", "android": "https://dc.lft.to/lastmile_qr_scan"}, "bike_id": "dfd18685c5dd4fafe4eff47a4f103b6d", "fusion_lat": 0.0}, {"lon": -77.04997616666667, "name": "d4efa899832909e3e13bdd5793e85a97", "is_disabled": 0, "type": "electric_scooter", "is_reserved": 0, "fusion_lon": 0.0, "lat": 38.8922895, "rental_uris": {"ios": "https://dc.lft.to/lastmile_qr_scan", "android": "https://dc.lft.to/lastmile_qr_scan"}, "bike_id": "d4efa899832909e3e13bdd5793e85a97", "fusion_lat": 0.0}, {"lon": -77.032134, "name": "d6a122fa6a86691cd5337cfcee8c3f57", "is_disabled": 0, "type": "electric_scooter", "is_reserved": 0, "fusion_lon": 0.0, "lat": 38.919131666666665, "rental_uris": {"ios": "https://dc.lft.to/lastmile_qr_scan", "android": "https://dc.lft.to/lastmile_qr_scan"}, "bike_id": "d6a122fa6a86691cd5337cfcee8c3f57", "fusion_lat": 0.0}, {"lon": -77.00571583333333, "name": "6aa14f87c2d85b276ec9834112177f53", "is_disabled": 0, "type": "electric_scooter", "is_reserved": 0, "fusion_lon": 0.0, "lat": 38.90575233333333, "rental_uris": {"ios": "https://dc.lft.to/lastmile_qr_scan", "android": "https://dc.lft.to/lastmile_qr_scan"}, "bike_id": "6aa14f87c2d85b276ec9834112177f53", "fusion_lat": 0.0}, {"lon": -77.0058365, "name": "284f2b4b25d6d3c9448e45bea2457bb9", "is_disabled": 0, "type": "electric_scooter", "is_reserved": 0, "fusion_lon": 0.0, "lat": 38.87208783333333, "rental_uris": {"ios": "https://dc.lft.to/lastmile_qr_scan", "android": "https://dc.lft.to/lastmile_qr_scan"}, "bike_id": "284f2b4b25d6d3c9448e45bea2457bb9", "fusion_lat": 0.0}, {"lon": -77.03662883333334, "name": "6bdf06bd5e4a1af0913cfc11a7ed7172", "is_disabled": 0, "type": "electric_scooter", "is_reserved": 0, "fusion_lon": 0.0, "lat": 38.9157165, "rental_uris": {"ios": "https://dc.lft.to/lastmile_qr_scan", "android": "https://dc.lft.to/lastmile_qr_scan"}, "bike_id": "6bdf06bd5e4a1af0913cfc11a7ed7172", "fusion_lat": 0.0}, {"lon": -77.06431583333334, "name": "887a28daa7576f8968a7e0a7dc9abc29", "is_disabled": 0, "type": "electric_scooter", "is_reserved": 0, "fusion_lon": 0.0, "lat": 38.905182, "rental_uris": {"ios": "https://dc.lft.to/lastmile_qr_scan", "android": "https://dc.lft.to/lastmile_qr_scan"}, "bike_id": "887a28daa7576f8968a7e0a7dc9abc29", "fusion_lat": 0.0}, {"lon": -76.99837666666667, "name": "4c90020583b60c27f4800836aec533eb", "is_disabled": 0, "type": "electric_scooter", "is_reserved": 0, "fusion_lon": 0.0, "lat": 38.92549283333334, "rental_uris": {"ios": "https://dc.lft.to/lastmile_qr_scan", "android": "https://dc.lft.to/lastmile_qr_scan"}, "bike_id": "4c90020583b60c27f4800836aec533eb", "fusion_lat": 0.0}, {"lon": -77.0457015, "name": "e12029fb52049f8c69c2cdb013e9ec2b", "is_disabled": 0, "type": "electric_scooter", "is_reserved": 0, "fusion_lon": 0.0, "lat": 38.9105625, "rental_uris": {"ios": "https://dc.lft.to/lastmile_qr_scan", "android": "https://dc.lft.to/lastmile_qr_scan"}, "bike_id": "e12029fb52049f8c69c2cdb013e9ec2b", "fusion_lat": 0.0}, {"lon": -77.02606716666666, "name": "62ef4ac468fc1f149157441943ccc22a", "is_disabled": 0, "type": "electric_scooter", "is_reserved": 0, "fusion_lon": 0.0, "lat": 38.900502333333336, "rental_uris": {"ios": "https://dc.lft.to/lastmile_qr_scan", "android": "https://dc.lft.to/lastmile_qr_scan"}, "bike_id": "62ef4ac468fc1f149157441943ccc22a", "fusion_lat": 0.0}, {"lon": -77.02703116666666, "name": "0e930cfc4ef6ec7bbe38a0da2db7debd", "is_disabled": 0, "type": "electric_scooter", "is_reserved": 0, "fusion_lon": 0.0, "lat": 38.895954, "rental_uris": {"ios": "https://dc.lft.to/lastmile_qr_scan", "android": "https://dc.lft.to/lastmile_qr_scan"}, "bike_id": "0e930cfc4ef6ec7bbe38a0da2db7debd", "fusion_lat": 0.0}, {"lon": -77.0392755, "name": "18a0a03e74dda85e3a573c13c7706053", "is_disabled": 0, "type": "electric_scooter", "is_reserved": 0, "fusion_lon": 0.0, "lat": 38.924985666666664, "rental_uris": {"ios": "https://dc.lft.to/lastmile_qr_scan", "android": "https://dc.lft.to/lastmile_qr_scan"}, "bike_id": "18a0a03e74dda85e3a573c13c7706053", "fusion_lat": 0.0}, {"lon": -77.03194966666666, "name": "6d301273a8891466eeef94ac26a3acaa", "is_disabled": 0, "type": "electric_scooter", "is_reserved": 0, "fusion_lon": 0.0, "lat": 38.893628666666665, "rental_uris": {"ios": "https://dc.lft.to/lastmile_qr_scan", "android": "https://dc.lft.to/lastmile_qr_scan"}, "bike_id": "6d301273a8891466eeef94ac26a3acaa", "fusion_lat": 0.0}, {"lon": -77.02128966666666, "name": "1ee2107f2639eba27a923530be11cf72", "is_disabled": 0, "type": "electric_scooter", "is_reserved": 0, "fusion_lon": 0.0, "lat": 38.92415533333333, "rental_uris": {"ios": "https://dc.lft.to/lastmile_qr_scan", "android": "https://dc.lft.to/lastmile_qr_scan"}, "bike_id": "1ee2107f2639eba27a923530be11cf72", "fusion_lat": 0.0}, {"lon": -77.01180916666667, "name": "cd37e7597ff96737149ae9ca0bb3b727", "is_disabled": 0, "type": "electric_scooter", "is_reserved": 0, "fusion_lon": 0.0, "lat": 38.91200516666667, "rental_uris": {"ios": "https://dc.lft.to/lastmile_qr_scan", "android": "https://dc.lft.to/lastmile_qr_scan"}, "bike_id": "cd37e7597ff96737149ae9ca0bb3b727", "fusion_lat": 0.0}, {"lon": -77.0401035, "name": "b24ec0ac337038d31effd8cce4358d73", "is_disabled": 0, "type": "electric_scooter", "is_reserved": 0, "fusion_lon": 0.0, "lat": 38.902330666666664, "rental_uris": {"ios": "https://dc.lft.to/lastmile_qr_scan", "android": "https://dc.lft.to/lastmile_qr_scan"}, "bike_id": "b24ec0ac337038d31effd8cce4358d73", "fusion_lat": 0.0}, {"lon": -77.02528883333333, "name": "c20de7eef4b8296c2a04b6629b764363", "is_disabled": 0, "type": "electric_scooter", "is_reserved": 0, "fusion_lon": 0.0, "lat": 38.96736083333333, "rental_uris": {"ios": "https://dc.lft.to/lastmile_qr_scan", "android": "https://dc.lft.to/lastmile_qr_scan"}, "bike_id": "c20de7eef4b8296c2a04b6629b764363", "fusion_lat": 0.0}, {"lon": -77.02227516666666, "name": "b75bd31e886f59f1e8b8caba6ea4ea82", "is_disabled": 0, "type": "electric_bike", "is_reserved": 0, "fusion_lon": 0.0, "lat": 38.9569475, "rental_uris": {"ios": "https://dc.lft.to/lastmile_qr_scan", "android": "https://dc.lft.to/lastmile_qr_scan"}, "bike_id": "b75bd31e886f59f1e8b8caba6ea4ea82", "fusion_lat": 0.0}, {"lon": -77.07230733333333, "name": "bb7c41d9d0d6fa3e255f50592b973606", "is_disabled": 0, "type": "electric_scooter", "is_reserved": 0, "fusion_lon": 0.0, "lat": 38.9236565, "rental_uris": {"ios": "https://dc.lft.to/lastmile_qr_scan", "android": "https://dc.lft.to/lastmile_qr_scan"}, "bike_id": "bb7c41d9d0d6fa3e255f50592b973606", "fusion_lat": 0.0}, {"lon": -77.02281216666667, "name": "d508c71245173850bd2f8ced54395028", "is_disabled": 0, "type": "electric_scooter", "is_reserved": 0, "fusion_lon": 0.0, "lat": 38.91659883333333, "rental_uris": {"ios": "https://dc.lft.to/lastmile_qr_scan", "android": "https://dc.lft.to/lastmile_qr_scan"}, "bike_id": "d508c71245173850bd2f8ced54395028", "fusion_lat": 0.0}, {"lon": -76.98542666666667, "name": "61a1fcb84a1dd6caba576af13e8ef83c", "is_disabled": 0, "type": "electric_scooter", "is_reserved": 0, "fusion_lon": 0.0, "lat": 38.905886, "rental_uris": {"ios": "https://dc.lft.to/lastmile_qr_scan", "android": "https://dc.lft.to/lastmile_qr_scan"}, "bike_id": "61a1fcb84a1dd6caba576af13e8ef83c", "fusion_lat": 0.0}, {"lon": -77.0355865, "name": "a8c594bca1b00b28b2f9cc9a7dddf9b5", "is_disabled": 0, "type": "electric_scooter", "is_reserved": 0, "fusion_lon": 0.0, "lat": 38.90832316666667, "rental_uris": {"ios": "https://dc.lft.to/lastmile_qr_scan", "android": "https://dc.lft.to/lastmile_qr_scan"}, "bike_id": "a8c594bca1b00b28b2f9cc9a7dddf9b5", "fusion_lat": 0.0}, {"lon": -77.0227235, "name": "89e8739a464788d46e773f86dc296636", "is_disabled": 0, "type": "electric_scooter", "is_reserved": 0, "fusion_lon": 0.0, "lat": 38.88134516666667, "rental_uris": {"ios": "https://dc.lft.to/lastmile_qr_scan", "android": "https://dc.lft.to/lastmile_qr_scan"}, "bike_id": "89e8739a464788d46e773f86dc296636", "fusion_lat": 0.0}, {"lon": -77.03482683333333, "name": "649e37e8c5574c9b3fba93ba6b94e487", "is_disabled": 0, "type": "electric_scooter", "is_reserved": 0, "fusion_lon": 0.0, "lat": 38.92919416666667, "rental_uris": {"ios": "https://dc.lft.to/lastmile_qr_scan", "android": "https://dc.lft.to/lastmile_qr_scan"}, "bike_id": "649e37e8c5574c9b3fba93ba6b94e487", "fusion_lat": 0.0}, {"lon": -76.99143766666667, "name": "c96dc5ed33690c8546860a5a2b4a7178", "is_disabled": 0, "type": "electric_scooter", "is_reserved": 0, "fusion_lon": 0.0, "lat": 38.899777, "rental_uris": {"ios": "https://dc.lft.to/lastmile_qr_scan", "android": "https://dc.lft.to/lastmile_qr_scan"}, "bike_id": "c96dc5ed33690c8546860a5a2b4a7178", "fusion_lat": 0.0}, {"lon": -77.02600033333333, "name": "f8ffd9f18d9cad8396664c0afd51b692", "is_disabled": 0, "type": "electric_scooter", "is_reserved": 0, "fusion_lon": 0.0, "lat": 38.905992833333336, "rental_uris": {"ios": "https://dc.lft.to/lastmile_qr_scan", "android": "https://dc.lft.to/lastmile_qr_scan"}, "bike_id": "f8ffd9f18d9cad8396664c0afd51b692", "fusion_lat": 0.0}, {"lon": -76.935225, "name": "a9ac56907b6ba14a8139aaf2edce21f5", "is_disabled": 0, "type": "electric_scooter", "is_reserved": 0, "fusion_lon": 0.0, "lat": 38.878972833333336, "rental_uris": {"ios": "https://dc.lft.to/lastmile_qr_scan", "android": "https://dc.lft.to/lastmile_qr_scan"}, "bike_id": "a9ac56907b6ba14a8139aaf2edce21f5", "fusion_lat": 0.0}, {"lon": -76.98316966666667, "name": "5a75b4dc075cd66e0c1d979d1fd47eba", "is_disabled": 0, "type": "electric_scooter", "is_reserved": 0, "fusion_lon": 0.0, "lat": 38.92251683333333, "rental_uris": {"ios": "https://dc.lft.to/lastmile_qr_scan", "android": "https://dc.lft.to/lastmile_qr_scan"}, "bike_id": "5a75b4dc075cd66e0c1d979d1fd47eba", "fusion_lat": 0.0}, {"lon": -77.04387933333334, "name": "7e53cb578152fa3b18fc0fd78bd09b04", "is_disabled": 0, "type": "electric_scooter", "is_reserved": 0, "fusion_lon": 0.0, "lat": 38.922393, "rental_uris": {"ios": "https://dc.lft.to/lastmile_qr_scan", "android": "https://dc.lft.to/lastmile_qr_scan"}, "bike_id": "7e53cb578152fa3b18fc0fd78bd09b04", "fusion_lat": 0.0}, {"lon": -77.04489083333333, "name": "a69314e6f9e629dc3cdf602aab2691d2", "is_disabled": 0, "type": "electric_scooter", "is_reserved": 0, "fusion_lon": 0.0, "lat": 38.91921383333333, "rental_uris": {"ios": "https://dc.lft.to/lastmile_qr_scan", "android": "https://dc.lft.to/lastmile_qr_scan"}, "bike_id": "a69314e6f9e629dc3cdf602aab2691d2", "fusion_lat": 0.0}, {"lon": -77.09522316666667, "name": "1d7f77d5b55de9fc84fcb6ab7424feb0", "is_disabled": 0, "type": "electric_bike", "is_reserved": 0, "fusion_lon": 0.0, "lat": 38.8381135, "rental_uris": {"ios": "https://dc.lft.to/lastmile_qr_scan", "android": "https://dc.lft.to/lastmile_qr_scan"}, "bike_id": "1d7f77d5b55de9fc84fcb6ab7424feb0", "fusion_lat": 0.0}, {"lon": -77.0388065, "name": "c7b01b223d77ca9b6c66cdf62cedb3c0", "is_disabled": 0, "type": "electric_scooter", "is_reserved": 0, "fusion_lon": 0.0, "lat": 38.91847166666667, "rental_uris": {"ios": "https://dc.lft.to/lastmile_qr_scan", "android": "https://dc.lft.to/lastmile_qr_scan"}, "bike_id": "c7b01b223d77ca9b6c66cdf62cedb3c0", "fusion_lat": 0.0}, {"lon": -76.9995685, "name": "6c721f611718dd43633b7cdfb7877b22", "is_disabled": 0, "type": "electric_scooter", "is_reserved": 0, "fusion_lon": 0.0, "lat": 38.903847166666665, "rental_uris": {"ios": "https://dc.lft.to/lastmile_qr_scan", "android": "https://dc.lft.to/lastmile_qr_scan"}, "bike_id": "6c721f611718dd43633b7cdfb7877b22", "fusion_lat": 0.0}, {"lon": -77.050006, "name": "b32b66ce3e93e0bb65abc129cd0787f7", "is_disabled": 0, "type": "electric_scooter", "is_reserved": 0, "fusion_lon": 0.0, "lat": 38.892293, "rental_uris": {"ios": "https://dc.lft.to/lastmile_qr_scan", "android": "https://dc.lft.to/lastmile_qr_scan"}, "bike_id": "b32b66ce3e93e0bb65abc129cd0787f7", "fusion_lat": 0.0}, {"lon": -76.991713, "name": "8e91cb271a515c545210ab966f748db4", "is_disabled": 0, "type": "electric_scooter", "is_reserved": 0, "fusion_lon": 0.0, "lat": 38.8897995, "rental_uris": {"ios": "https://dc.lft.to/lastmile_qr_scan", "android": "https://dc.lft.to/lastmile_qr_scan"}, "bike_id": "8e91cb271a515c545210ab966f748db4", "fusion_lat": 0.0}, {"lon": -76.99378966666667, "name": "5b4983f09e22cf2d6a4a9702c6bc26fb", "is_disabled": 0, "type": "electric_bike", "is_reserved": 0, "fusion_lon": 0.0, "lat": 38.990958, "rental_uris": {"ios": "https://dc.lft.to/lastmile_qr_scan", "android": "https://dc.lft.to/lastmile_qr_scan"}, "bike_id": "5b4983f09e22cf2d6a4a9702c6bc26fb", "fusion_lat": 0.0}, {"lon": -77.0252165, "name": "a9d841a22eab15cdcc6c4bb448c19649", "is_disabled": 0, "type": "electric_scooter", "is_reserved": 0, "fusion_lon": 0.0, "lat": 38.92230833333333, "rental_uris": {"ios": "https://dc.lft.to/lastmile_qr_scan", "android": "https://dc.lft.to/lastmile_qr_scan"}, "bike_id": "a9d841a22eab15cdcc6c4bb448c19649", "fusion_lat": 0.0}, {"lon": -77.03249483333333, "name": "bd0e689331f6cbded0cd63cab35ed03d", "is_disabled": 0, "type": "electric_scooter", "is_reserved": 0, "fusion_lon": 0.0, "lat": 38.93971716666667, "rental_uris": {"ios": "https://dc.lft.to/lastmile_qr_scan", "android": "https://dc.lft.to/lastmile_qr_scan"}, "bike_id": "bd0e689331f6cbded0cd63cab35ed03d", "fusion_lat": 0.0}, {"lon": -76.93629683333333, "name": "4594da12cfc072b6da957f5df9e43ffa", "is_disabled": 0, "type": "electric_scooter", "is_reserved": 0, "fusion_lon": 0.0, "lat": 38.883520833333336, "rental_uris": {"ios": "https://dc.lft.to/lastmile_qr_scan", "android": "https://dc.lft.to/lastmile_qr_scan"}, "bike_id": "4594da12cfc072b6da957f5df9e43ffa", "fusion_lat": 0.0}, {"lon": -76.94291533333333, "name": "01a21de3169b16386f7b0f1eff3d12b7", "is_disabled": 0, "type": "electric_scooter", "is_reserved": 0, "fusion_lon": 0.0, "lat": 38.898485, "rental_uris": {"ios": "https://dc.lft.to/lastmile_qr_scan", "android": "https://dc.lft.to/lastmile_qr_scan"}, "bike_id": "01a21de3169b16386f7b0f1eff3d12b7", "fusion_lat": 0.0}, {"lon": -76.99507516666667, "name": "c15fb3639c74ff67551471eb4eefc738", "is_disabled": 0, "type": "electric_scooter", "is_reserved": 0, "fusion_lon": 0.0, "lat": 38.880597, "rental_uris": {"ios": "https://dc.lft.to/lastmile_qr_scan", "android": "https://dc.lft.to/lastmile_qr_scan"}, "bike_id": "c15fb3639c74ff67551471eb4eefc738", "fusion_lat": 0.0}, {"lon": -77.01811183333334, "name": "1678ce97e655729472674cc8c77a1c2a", "is_disabled": 0, "type": "electric_scooter", "is_reserved": 0, "fusion_lon": 0.0, "lat": 38.92137833333334, "rental_uris": {"ios": "https://dc.lft.to/lastmile_qr_scan", "android": "https://dc.lft.to/lastmile_qr_scan"}, "bike_id": "1678ce97e655729472674cc8c77a1c2a", "fusion_lat": 0.0}, {"lon": -77.01985833333333, "name": "b1b6aa55aa041625e3c12a68f9dc9342", "is_disabled": 0, "type": "electric_scooter", "is_reserved": 0, "fusion_lon": 0.0, "lat": 38.9156805, "rental_uris": {"ios": "https://dc.lft.to/lastmile_qr_scan", "android": "https://dc.lft.to/lastmile_qr_scan"}, "bike_id": "b1b6aa55aa041625e3c12a68f9dc9342", "fusion_lat": 0.0}, {"lon": -77.01145533333333, "name": "16063640e13c4635fbc0fbd3b6796008", "is_disabled": 0, "type": "electric_scooter", "is_reserved": 0, "fusion_lon": 0.0, "lat": 38.911119666666664, "rental_uris": {"ios": "https://dc.lft.to/lastmile_qr_scan", "android": "https://dc.lft.to/lastmile_qr_scan"}, "bike_id": "16063640e13c4635fbc0fbd3b6796008", "fusion_lat": 0.0}, {"lon": -77.0213295, "name": "260a21e0691aaf18bd21dc90184fae9c", "is_disabled": 0, "type": "electric_scooter", "is_reserved": 0, "fusion_lon": 0.0, "lat": 38.9310435, "rental_uris": {"ios": "https://dc.lft.to/lastmile_qr_scan", "android": "https://dc.lft.to/lastmile_qr_scan"}, "bike_id": "260a21e0691aaf18bd21dc90184fae9c", "fusion_lat": 0.0}, {"lon": -77.0552355, "name": "edb09916a89e740fb0ef206f95f3f8e6", "is_disabled": 0, "type": "electric_scooter", "is_reserved": 0, "fusion_lon": 0.0, "lat": 38.89727833333333, "rental_uris": {"ios": "https://dc.lft.to/lastmile_qr_scan", "android": "https://dc.lft.to/lastmile_qr_scan"}, "bike_id": "edb09916a89e740fb0ef206f95f3f8e6", "fusion_lat": 0.0}, {"lon": -77.019375, "name": "f247d5865bb5f1dbd1e939d8f54c9a64", "is_disabled": 0, "type": "electric_scooter", "is_reserved": 0, "fusion_lon": 0.0, "lat": 38.919352833333335, "rental_uris": {"ios": "https://dc.lft.to/lastmile_qr_scan", "android": "https://dc.lft.to/lastmile_qr_scan"}, "bike_id": "f247d5865bb5f1dbd1e939d8f54c9a64", "fusion_lat": 0.0}, {"lon": -77.02303383333333, "name": "ae4d283aecff49a9c9c46dad55f3bc4c", "is_disabled": 0, "type": "electric_scooter", "is_reserved": 0, "fusion_lon": 0.0, "lat": 38.926524666666666, "rental_uris": {"ios": "https://dc.lft.to/lastmile_qr_scan", "android": "https://dc.lft.to/lastmile_qr_scan"}, "bike_id": "ae4d283aecff49a9c9c46dad55f3bc4c", "fusion_lat": 0.0}, {"lon": -77.03260866666666, "name": "8f8bd28f47665fb52c945044de184089", "is_disabled": 0, "type": "electric_scooter", "is_reserved": 0, "fusion_lon": 0.0, "lat": 38.92744733333333, "rental_uris": {"ios": "https://dc.lft.to/lastmile_qr_scan", "android": "https://dc.lft.to/lastmile_qr_scan"}, "bike_id": "8f8bd28f47665fb52c945044de184089", "fusion_lat": 0.0}, {"lon": -76.939362, "name": "8d40ef11acf423da61c9323f26ca7eec", "is_disabled": 0, "type": "electric_scooter", "is_reserved": 0, "fusion_lon": 0.0, "lat": 38.90865733333333, "rental_uris": {"ios": "https://dc.lft.to/lastmile_qr_scan", "android": "https://dc.lft.to/lastmile_qr_scan"}, "bike_id": "8d40ef11acf423da61c9323f26ca7eec", "fusion_lat": 0.0}, {"lon": -77.028959, "name": "6dd884807ecedfd7718d67a1526fd379", "is_disabled": 0, "type": "electric_bike", "is_reserved": 0, "fusion_lon": 0.0, "lat": 38.940576166666666, "rental_uris": {"ios": "https://dc.lft.to/lastmile_qr_scan", "android": "https://dc.lft.to/lastmile_qr_scan"}, "bike_id": "6dd884807ecedfd7718d67a1526fd379", "fusion_lat": 0.0}, {"lon": -77.03195683333334, "name": "405815c9ca7983ad923f1c0dd6a4af72", "is_disabled": 0, "type": "electric_scooter", "is_reserved": 0, "fusion_lon": 0.0, "lat": 38.916348666666664, "rental_uris": {"ios": "https://dc.lft.to/lastmile_qr_scan", "android": "https://dc.lft.to/lastmile_qr_scan"}, "bike_id": "405815c9ca7983ad923f1c0dd6a4af72", "fusion_lat": 0.0}, {"lon": -77.03685366666667, "name": "dc7a00a98c39ae5f6d3765977a26cc35", "is_disabled": 0, "type": "electric_scooter", "is_reserved": 0, "fusion_lon": 0.0, "lat": 38.92636666666667, "rental_uris": {"ios": "https://dc.lft.to/lastmile_qr_scan", "android": "https://dc.lft.to/lastmile_qr_scan"}, "bike_id": "dc7a00a98c39ae5f6d3765977a26cc35", "fusion_lat": 0.0}, {"lon": -77.032188, "name": "fa3a3ac03d34ded90f85eab6e00cf362", "is_disabled": 0, "type": "electric_scooter", "is_reserved": 0, "fusion_lon": 0.0, "lat": 38.89223366666667, "rental_uris": {"ios": "https://dc.lft.to/lastmile_qr_scan", "android": "https://dc.lft.to/lastmile_qr_scan"}, "bike_id": "fa3a3ac03d34ded90f85eab6e00cf362", "fusion_lat": 0.0}, {"lon": -76.98823816666666, "name": "b21ebc3de2a282d10b8b417c019203bc", "is_disabled": 0, "type": "electric_scooter", "is_reserved": 0, "fusion_lon": 0.0, "lat": 38.89076766666667, "rental_uris": {"ios": "https://dc.lft.to/lastmile_qr_scan", "android": "https://dc.lft.to/lastmile_qr_scan"}, "bike_id": "b21ebc3de2a282d10b8b417c019203bc", "fusion_lat": 0.0}, {"lon": -77.01846033333334, "name": "9075ced12e27333f7b2652d5576a3b0c", "is_disabled": 0, "type": "electric_scooter", "is_reserved": 0, "fusion_lon": 0.0, "lat": 38.922113, "rental_uris": {"ios": "https://dc.lft.to/lastmile_qr_scan", "android": "https://dc.lft.to/lastmile_qr_scan"}, "bike_id": "9075ced12e27333f7b2652d5576a3b0c", "fusion_lat": 0.0}, {"lon": -77.07471516666666, "name": "9bbf5175d8b95edbff4b2f75676c2813", "is_disabled": 0, "type": "electric_scooter", "is_reserved": 0, "fusion_lon": 0.0, "lat": 38.92241816666667, "rental_uris": {"ios": "https://dc.lft.to/lastmile_qr_scan", "android": "https://dc.lft.to/lastmile_qr_scan"}, "bike_id": "9bbf5175d8b95edbff4b2f75676c2813", "fusion_lat": 0.0}, {"lon": -77.04078766666666, "name": "78553eacb4e371c419799bd76fdb866c", "is_disabled": 0, "type": "electric_scooter", "is_reserved": 0, "fusion_lon": 0.0, "lat": 38.92887983333333, "rental_uris": {"ios": "https://dc.lft.to/lastmile_qr_scan", "android": "https://dc.lft.to/lastmile_qr_scan"}, "bike_id": "78553eacb4e371c419799bd76fdb866c", "fusion_lat": 0.0}, {"lon": -77.0177255, "name": "fb3c4feae3b008044987335ecb046303", "is_disabled": 0, "type": "electric_bike", "is_reserved": 0, "fusion_lon": 0.0, "lat": 38.8785815, "rental_uris": {"ios": "https://dc.lft.to/lastmile_qr_scan", "android": "https://dc.lft.to/lastmile_qr_scan"}, "bike_id": "fb3c4feae3b008044987335ecb046303", "fusion_lat": 0.0}, {"lon": -77.0254215, "name": "cadef0d549a8e136e3f69c664e89827a", "is_disabled": 0, "type": "electric_scooter", "is_reserved": 0, "fusion_lon": 0.0, "lat": 38.92081, "rental_uris": {"ios": "https://dc.lft.to/lastmile_qr_scan", "android": "https://dc.lft.to/lastmile_qr_scan"}, "bike_id": "cadef0d549a8e136e3f69c664e89827a", "fusion_lat": 0.0}, {"lon": -76.97331616666666, "name": "ba3ae6061455f337e5edc8b052e9fd3f", "is_disabled": 0, "type": "electric_scooter", "is_reserved": 0, "fusion_lon": 0.0, "lat": 38.90413066666667, "rental_uris": {"ios": "https://dc.lft.to/lastmile_qr_scan", "android": "https://dc.lft.to/lastmile_qr_scan"}, "bike_id": "ba3ae6061455f337e5edc8b052e9fd3f", "fusion_lat": 0.0}, {"lon": -77.01919083333334, "name": "03e7bb60287a54d13710abaa2a14bad7", "is_disabled": 0, "type": "electric_scooter", "is_reserved": 0, "fusion_lon": 0.0, "lat": 38.93271633333333, "rental_uris": {"ios": "https://dc.lft.to/lastmile_qr_scan", "android": "https://dc.lft.to/lastmile_qr_scan"}, "bike_id": "03e7bb60287a54d13710abaa2a14bad7", "fusion_lat": 0.0}, {"lon": -77.0459785, "name": "9e57e51bd445933f0a45f8d6c981b007", "is_disabled": 0, "type": "electric_scooter", "is_reserved": 0, "fusion_lon": 0.0, "lat": 38.89609383333333, "rental_uris": {"ios": "https://dc.lft.to/lastmile_qr_scan", "android": "https://dc.lft.to/lastmile_qr_scan"}, "bike_id": "9e57e51bd445933f0a45f8d6c981b007", "fusion_lat": 0.0}, {"lon": -77.01875966666667, "name": "811a411f40f9d3825f23f36b7cd6c057", "is_disabled": 0, "type": "electric_scooter", "is_reserved": 0, "fusion_lon": 0.0, "lat": 38.91107383333333, "rental_uris": {"ios": "https://dc.lft.to/lastmile_qr_scan", "android": "https://dc.lft.to/lastmile_qr_scan"}, "bike_id": "811a411f40f9d3825f23f36b7cd6c057", "fusion_lat": 0.0}, {"lon": -76.92932316666666, "name": "b363533c1297af1e17f2fced425ad872", "is_disabled": 0, "type": "electric_scooter", "is_reserved": 0, "fusion_lon": 0.0, "lat": 38.900976, "rental_uris": {"ios": "https://dc.lft.to/lastmile_qr_scan", "android": "https://dc.lft.to/lastmile_qr_scan"}, "bike_id": "b363533c1297af1e17f2fced425ad872", "fusion_lat": 0.0}, {"lon": -77.03188483333334, "name": "5af508dc45c63b64cca8dd5064a845e6", "is_disabled": 0, "type": "electric_scooter", "is_reserved": 0, "fusion_lon": 0.0, "lat": 38.911895333333334, "rental_uris": {"ios": "https://dc.lft.to/lastmile_qr_scan", "android": "https://dc.lft.to/lastmile_qr_scan"}, "bike_id": "5af508dc45c63b64cca8dd5064a845e6", "fusion_lat": 0.0}, {"lon": -77.0020875, "name": "ba728fdd433f5ceb4e044f346b515419", "is_disabled": 0, "type": "electric_scooter", "is_reserved": 0, "fusion_lon": 0.0, "lat": 38.90186083333333, "rental_uris": {"ios": "https://dc.lft.to/lastmile_qr_scan", "android": "https://dc.lft.to/lastmile_qr_scan"}, "bike_id": "ba728fdd433f5ceb4e044f346b515419", "fusion_lat": 0.0}, {"lon": -77.039079, "name": "97906ce5b538169fc484f821a3118260", "is_disabled": 0, "type": "electric_scooter", "is_reserved": 0, "fusion_lon": 0.0, "lat": 38.922441166666665, "rental_uris": {"ios": "https://dc.lft.to/lastmile_qr_scan", "android": "https://dc.lft.to/lastmile_qr_scan"}, "bike_id": "97906ce5b538169fc484f821a3118260", "fusion_lat": 0.0}, {"lon": -77.024897, "name": "7e61b6f58cd4c494da33ac60f03b1d33", "is_disabled": 0, "type": "electric_scooter", "is_reserved": 0, "fusion_lon": 0.0, "lat": 38.91814516666667, "rental_uris": {"ios": "https://dc.lft.to/lastmile_qr_scan", "android": "https://dc.lft.to/lastmile_qr_scan"}, "bike_id": "7e61b6f58cd4c494da33ac60f03b1d33", "fusion_lat": 0.0}, {"lon": -77.01382766666667, "name": "3f9a52faeff9ac20b67a147438ae9be0", "is_disabled": 0, "type": "electric_scooter", "is_reserved": 0, "fusion_lon": 0.0, "lat": 38.928634, "rental_uris": {"ios": "https://dc.lft.to/lastmile_qr_scan", "android": "https://dc.lft.to/lastmile_qr_scan"}, "bike_id": "3f9a52faeff9ac20b67a147438ae9be0", "fusion_lat": 0.0}, {"lon": -77.02021, "name": "b34275c945e9118318f6ec272b9172b1", "is_disabled": 0, "type": "electric_scooter", "is_reserved": 0, "fusion_lon": 0.0, "lat": 38.92416766666667, "rental_uris": {"ios": "https://dc.lft.to/lastmile_qr_scan", "android": "https://dc.lft.to/lastmile_qr_scan"}, "bike_id": "b34275c945e9118318f6ec272b9172b1", "fusion_lat": 0.0}, {"lon": -76.98789516666666, "name": "ece5b4e71e7a628b381a05c3f0725013", "is_disabled": 0, "type": "electric_scooter", "is_reserved": 0, "fusion_lon": 0.0, "lat": 38.878426166666664, "rental_uris": {"ios": "https://dc.lft.to/lastmile_qr_scan", "android": "https://dc.lft.to/lastmile_qr_scan"}, "bike_id": "ece5b4e71e7a628b381a05c3f0725013", "fusion_lat": 0.0}, {"lon": -77.0352345, "name": "1177186c89ee0e535e5f26cc4f6c23e1", "is_disabled": 0, "type": "electric_scooter", "is_reserved": 0, "fusion_lon": 0.0, "lat": 38.922334666666664, "rental_uris": {"ios": "https://dc.lft.to/lastmile_qr_scan", "android": "https://dc.lft.to/lastmile_qr_scan"}, "bike_id": "1177186c89ee0e535e5f26cc4f6c23e1", "fusion_lat": 0.0}, {"lon": -77.00153966666667, "name": "d919ac3a1d6e27a01a47bdb379b71f0e", "is_disabled": 0, "type": "electric_bike", "is_reserved": 0, "fusion_lon": 0.0, "lat": 38.92544916666667, "rental_uris": {"ios": "https://dc.lft.to/lastmile_qr_scan", "android": "https://dc.lft.to/lastmile_qr_scan"}, "bike_id": "d919ac3a1d6e27a01a47bdb379b71f0e", "fusion_lat": 0.0}, {"lon": -77.06941133333333, "name": "12f0a3d2a203439d46a7a9f615324d35", "is_disabled": 0, "type": "electric_bike", "is_reserved": 0, "fusion_lon": 0.0, "lat": 38.84766283333333, "rental_uris": {"ios": "https://dc.lft.to/lastmile_qr_scan", "android": "https://dc.lft.to/lastmile_qr_scan"}, "bike_id": "12f0a3d2a203439d46a7a9f615324d35", "fusion_lat": 0.0}, {"lon": -77.0021145, "name": "44852187eca1f8da1258deefbe95254b", "is_disabled": 0, "type": "electric_scooter", "is_reserved": 0, "fusion_lon": 0.0, "lat": 38.900061666666666, "rental_uris": {"ios": "https://dc.lft.to/lastmile_qr_scan", "android": "https://dc.lft.to/lastmile_qr_scan"}, "bike_id": "44852187eca1f8da1258deefbe95254b", "fusion_lat": 0.0}, {"lon": -77.02748933333334, "name": "a500eec1843142111d29d58b36c245ba", "is_disabled": 0, "type": "electric_scooter", "is_reserved": 0, "fusion_lon": 0.0, "lat": 38.92402416666667, "rental_uris": {"ios": "https://dc.lft.to/lastmile_qr_scan", "android": "https://dc.lft.to/lastmile_qr_scan"}, "bike_id": "a500eec1843142111d29d58b36c245ba", "fusion_lat": 0.0}, {"lon": -76.973532, "name": "ebdf6924279c29f1d3ba2d8b0e26789e", "is_disabled": 0, "type": "electric_bike", "is_reserved": 0, "fusion_lon": 0.0, "lat": 38.86558216666667, "rental_uris": {"ios": "https://dc.lft.to/lastmile_qr_scan", "android": "https://dc.lft.to/lastmile_qr_scan"}, "bike_id": "ebdf6924279c29f1d3ba2d8b0e26789e", "fusion_lat": 0.0}, {"lon": -77.03221983333333, "name": "7cf9bd8b9fe0760a3263a68c78237059", "is_disabled": 0, "type": "electric_scooter", "is_reserved": 0, "fusion_lon": 0.0, "lat": 38.9099705, "rental_uris": {"ios": "https://dc.lft.to/lastmile_qr_scan", "android": "https://dc.lft.to/lastmile_qr_scan"}, "bike_id": "7cf9bd8b9fe0760a3263a68c78237059", "fusion_lat": 0.0}, {"lon": -77.0130795, "name": "d3f542b57baf09949039f9f93cd9c5df", "is_disabled": 0, "type": "electric_scooter", "is_reserved": 0, "fusion_lon": 0.0, "lat": 38.90182716666666, "rental_uris": {"ios": "https://dc.lft.to/lastmile_qr_scan", "android": "https://dc.lft.to/lastmile_qr_scan"}, "bike_id": "d3f542b57baf09949039f9f93cd9c5df", "fusion_lat": 0.0}, {"lon": -77.03412666666667, "name": "2b1c1c2004851c7b05a1fc7873cc02dd", "is_disabled": 0, "type": "electric_scooter", "is_reserved": 0, "fusion_lon": 0.0, "lat": 38.91926383333333, "rental_uris": {"ios": "https://dc.lft.to/lastmile_qr_scan", "android": "https://dc.lft.to/lastmile_qr_scan"}, "bike_id": "2b1c1c2004851c7b05a1fc7873cc02dd", "fusion_lat": 0.0}, {"lon": -77.0210875, "name": "47adf739023a6bebba8ff18b8aac5967", "is_disabled": 0, "type": "electric_scooter", "is_reserved": 0, "fusion_lon": 0.0, "lat": 38.90605816666667, "rental_uris": {"ios": "https://dc.lft.to/lastmile_qr_scan", "android": "https://dc.lft.to/lastmile_qr_scan"}, "bike_id": "47adf739023a6bebba8ff18b8aac5967", "fusion_lat": 0.0}, {"lon": -77.03367, "name": "afb55d8abf4e936957872fe5d24fbfe5", "is_disabled": 0, "type": "electric_scooter", "is_reserved": 0, "fusion_lon": 0.0, "lat": 38.93769833333333, "rental_uris": {"ios": "https://dc.lft.to/lastmile_qr_scan", "android": "https://dc.lft.to/lastmile_qr_scan"}, "bike_id": "afb55d8abf4e936957872fe5d24fbfe5", "fusion_lat": 0.0}, {"lon": -77.0021035, "name": "7dab569eadf21dc719277c9c9cc33684", "is_disabled": 0, "type": "electric_scooter", "is_reserved": 0, "fusion_lon": 0.0, "lat": 38.901884333333335, "rental_uris": {"ios": "https://dc.lft.to/lastmile_qr_scan", "android": "https://dc.lft.to/lastmile_qr_scan"}, "bike_id": "7dab569eadf21dc719277c9c9cc33684", "fusion_lat": 0.0}, {"lon": -77.04737966666667, "name": "34c4547cabf12b94c7d1144c2f71ebea", "is_disabled": 0, "type": "electric_scooter", "is_reserved": 0, "fusion_lon": 0.0, "lat": 38.9004165, "rental_uris": {"ios": "https://dc.lft.to/lastmile_qr_scan", "android": "https://dc.lft.to/lastmile_qr_scan"}, "bike_id": "34c4547cabf12b94c7d1144c2f71ebea", "fusion_lat": 0.0}, {"lon": -77.03346683333334, "name": "c839146fae4ef838c3eeb38ce95b318e", "is_disabled": 0, "type": "electric_scooter", "is_reserved": 0, "fusion_lon": 0.0, "lat": 38.884826833333335, "rental_uris": {"ios": "https://dc.lft.to/lastmile_qr_scan", "android": "https://dc.lft.to/lastmile_qr_scan"}, "bike_id": "c839146fae4ef838c3eeb38ce95b318e", "fusion_lat": 0.0}, {"lon": -77.0285895, "name": "eb56af3f3f393ba7f81b01c2b2b131e0", "is_disabled": 0, "type": "electric_scooter", "is_reserved": 0, "fusion_lon": 0.0, "lat": 38.88875383333333, "rental_uris": {"ios": "https://dc.lft.to/lastmile_qr_scan", "android": "https://dc.lft.to/lastmile_qr_scan"}, "bike_id": "eb56af3f3f393ba7f81b01c2b2b131e0", "fusion_lat": 0.0}, {"lon": -77.012723, "name": "f1cac3b76bf344437daeba5ca3b8487f", "is_disabled": 0, "type": "electric_scooter", "is_reserved": 0, "fusion_lon": 0.0, "lat": 38.91545583333333, "rental_uris": {"ios": "https://dc.lft.to/lastmile_qr_scan", "android": "https://dc.lft.to/lastmile_qr_scan"}, "bike_id": "f1cac3b76bf344437daeba5ca3b8487f", "fusion_lat": 0.0}, {"lon": -76.99285433333333, "name": "c292ebf9b51334c3c229ca64a9fa0eaf", "is_disabled": 0, "type": "electric_scooter", "is_reserved": 0, "fusion_lon": 0.0, "lat": 38.904146, "rental_uris": {"ios": "https://dc.lft.to/lastmile_qr_scan", "android": "https://dc.lft.to/lastmile_qr_scan"}, "bike_id": "c292ebf9b51334c3c229ca64a9fa0eaf", "fusion_lat": 0.0}, {"lon": -77.0185165, "name": "161716239603a0129f66ed840747ed77", "is_disabled": 0, "type": "electric_scooter", "is_reserved": 0, "fusion_lon": 0.0, "lat": 38.9419075, "rental_uris": {"ios": "https://dc.lft.to/lastmile_qr_scan", "android": "https://dc.lft.to/lastmile_qr_scan"}, "bike_id": "161716239603a0129f66ed840747ed77", "fusion_lat": 0.0}, {"lon": -77.06520016666667, "name": "a9496b04ca1005a34cfe2fba1809bca6", "is_disabled": 0, "type": "electric_scooter", "is_reserved": 0, "fusion_lon": 0.0, "lat": 38.904013666666664, "rental_uris": {"ios": "https://dc.lft.to/lastmile_qr_scan", "android": "https://dc.lft.to/lastmile_qr_scan"}, "bike_id": "a9496b04ca1005a34cfe2fba1809bca6", "fusion_lat": 0.0}, {"lon": -77.01889666666666, "name": "6e4de7e91a5ac966391a21a801dcacfe", "is_disabled": 0, "type": "electric_scooter", "is_reserved": 0, "fusion_lon": 0.0, "lat": 38.91483683333333, "rental_uris": {"ios": "https://dc.lft.to/lastmile_qr_scan", "android": "https://dc.lft.to/lastmile_qr_scan"}, "bike_id": "6e4de7e91a5ac966391a21a801dcacfe", "fusion_lat": 0.0}, {"lon": -77.00941133333333, "name": "357b6eba2501d2e7d1555eaa23ffb9f7", "is_disabled": 0, "type": "electric_scooter", "is_reserved": 0, "fusion_lon": 0.0, "lat": 38.9156445, "rental_uris": {"ios": "https://dc.lft.to/lastmile_qr_scan", "android": "https://dc.lft.to/lastmile_qr_scan"}, "bike_id": "357b6eba2501d2e7d1555eaa23ffb9f7", "fusion_lat": 0.0}, {"lon": -77.03379616666666, "name": "f0380672fe2c2176a44dc3817cdbf1ab", "is_disabled": 0, "type": "electric_scooter", "is_reserved": 0, "fusion_lon": 0.0, "lat": 38.92156883333333, "rental_uris": {"ios": "https://dc.lft.to/lastmile_qr_scan", "android": "https://dc.lft.to/lastmile_qr_scan"}, "bike_id": "f0380672fe2c2176a44dc3817cdbf1ab", "fusion_lat": 0.0}, {"lon": -77.02126433333333, "name": "ad0b99615deecf52b11815fa655608a9", "is_disabled": 0, "type": "electric_scooter", "is_reserved": 0, "fusion_lon": 0.0, "lat": 38.92413533333333, "rental_uris": {"ios": "https://dc.lft.to/lastmile_qr_scan", "android": "https://dc.lft.to/lastmile_qr_scan"}, "bike_id": "ad0b99615deecf52b11815fa655608a9", "fusion_lat": 0.0}, {"lon": -77.1393165, "name": "1f76f5b91ec27892942914c7b29e11bf", "is_disabled": 0, "type": "electric_bike", "is_reserved": 0, "fusion_lon": 0.0, "lat": 38.8468165, "rental_uris": {"ios": "https://dc.lft.to/lastmile_qr_scan", "android": "https://dc.lft.to/lastmile_qr_scan"}, "bike_id": "1f76f5b91ec27892942914c7b29e11bf", "fusion_lat": 0.0}, {"lon": -76.99396266666666, "name": "5d6cbbcf0c5cdd0ddd7f9c8b822ec012", "is_disabled": 0, "type": "electric_scooter", "is_reserved": 0, "fusion_lon": 0.0, "lat": 38.9100305, "rental_uris": {"ios": "https://dc.lft.to/lastmile_qr_scan", "android": "https://dc.lft.to/lastmile_qr_scan"}, "bike_id": "5d6cbbcf0c5cdd0ddd7f9c8b822ec012", "fusion_lat": 0.0}, {"lon": -77.02376166666667, "name": "a91abc4effdf9822fd0b35d1085dba91", "is_disabled": 0, "type": "electric_scooter", "is_reserved": 0, "fusion_lon": 0.0, "lat": 38.90339183333333, "rental_uris": {"ios": "https://dc.lft.to/lastmile_qr_scan", "android": "https://dc.lft.to/lastmile_qr_scan"}, "bike_id": "a91abc4effdf9822fd0b35d1085dba91", "fusion_lat": 0.0}, {"lon": -76.98562933333334, "name": "af35a2c87557751bbbe7a8b953da2266", "is_disabled": 0, "type": "electric_scooter", "is_reserved": 0, "fusion_lon": 0.0, "lat": 38.8995785, "rental_uris": {"ios": "https://dc.lft.to/lastmile_qr_scan", "android": "https://dc.lft.to/lastmile_qr_scan"}, "bike_id": "af35a2c87557751bbbe7a8b953da2266", "fusion_lat": 0.0}, {"lon": -77.02583683333333, "name": "076b0ace8f243d420ebba5c8c96ef850", "is_disabled": 0, "type": "electric_scooter", "is_reserved": 0, "fusion_lon": 0.0, "lat": 38.9044, "rental_uris": {"ios": "https://dc.lft.to/lastmile_qr_scan", "android": "https://dc.lft.to/lastmile_qr_scan"}, "bike_id": "076b0ace8f243d420ebba5c8c96ef850", "fusion_lat": 0.0}, {"lon": -76.98835383333333, "name": "7b70417556323ca2c1b0a1f4caf8da10", "is_disabled": 0, "type": "electric_scooter", "is_reserved": 0, "fusion_lon": 0.0, "lat": 38.8910085, "rental_uris": {"ios": "https://dc.lft.to/lastmile_qr_scan", "android": "https://dc.lft.to/lastmile_qr_scan"}, "bike_id": "7b70417556323ca2c1b0a1f4caf8da10", "fusion_lat": 0.0}, {"lon": -76.9903055, "name": "3fb547c6466a1641c2443016bc9dff1d", "is_disabled": 0, "type": "electric_scooter", "is_reserved": 0, "fusion_lon": 0.0, "lat": 38.898532, "rental_uris": {"ios": "https://dc.lft.to/lastmile_qr_scan", "android": "https://dc.lft.to/lastmile_qr_scan"}, "bike_id": "3fb547c6466a1641c2443016bc9dff1d", "fusion_lat": 0.0}, {"lon": -77.04265016666666, "name": "5653193bbdbea2a94bed61658bebca95", "is_disabled": 0, "type": "electric_scooter", "is_reserved": 0, "fusion_lon": 0.0, "lat": 38.908281, "rental_uris": {"ios": "https://dc.lft.to/lastmile_qr_scan", "android": "https://dc.lft.to/lastmile_qr_scan"}, "bike_id": "5653193bbdbea2a94bed61658bebca95", "fusion_lat": 0.0}, {"lon": -77.01220083333334, "name": "6f849aa5f6220c8f097f229218aaa9cd", "is_disabled": 0, "type": "electric_scooter", "is_reserved": 0, "fusion_lon": 0.0, "lat": 38.91351183333333, "rental_uris": {"ios": "https://dc.lft.to/lastmile_qr_scan", "android": "https://dc.lft.to/lastmile_qr_scan"}, "bike_id": "6f849aa5f6220c8f097f229218aaa9cd", "fusion_lat": 0.0}, {"lon": -77.01557416666667, "name": "065e089a4f2287c3529a2a0b10dc6d38", "is_disabled": 0, "type": "electric_scooter", "is_reserved": 0, "fusion_lon": 0.0, "lat": 38.89367333333333, "rental_uris": {"ios": "https://dc.lft.to/lastmile_qr_scan", "android": "https://dc.lft.to/lastmile_qr_scan"}, "bike_id": "065e089a4f2287c3529a2a0b10dc6d38", "fusion_lat": 0.0}, {"lon": -77.03255766666666, "name": "7f2ad894be772a7cb1f5084ebd439ac4", "is_disabled": 0, "type": "electric_scooter", "is_reserved": 0, "fusion_lon": 0.0, "lat": 38.90870133333333, "rental_uris": {"ios": "https://dc.lft.to/lastmile_qr_scan", "android": "https://dc.lft.to/lastmile_qr_scan"}, "bike_id": "7f2ad894be772a7cb1f5084ebd439ac4", "fusion_lat": 0.0}, {"lon": -77.034067, "name": "072441d3ed584e9385a08cf63496ff4b", "is_disabled": 0, "type": "electric_scooter", "is_reserved": 0, "fusion_lon": 0.0, "lat": 38.92046416666667, "rental_uris": {"ios": "https://dc.lft.to/lastmile_qr_scan", "android": "https://dc.lft.to/lastmile_qr_scan"}, "bike_id": "072441d3ed584e9385a08cf63496ff4b", "fusion_lat": 0.0}, {"lon": -77.020104, "name": "a0fe03afc582a9772071176e7c452b5c", "is_disabled": 0, "type": "electric_scooter", "is_reserved": 0, "fusion_lon": 0.0, "lat": 38.88563116666667, "rental_uris": {"ios": "https://dc.lft.to/lastmile_qr_scan", "android": "https://dc.lft.to/lastmile_qr_scan"}, "bike_id": "a0fe03afc582a9772071176e7c452b5c", "fusion_lat": 0.0}, {"lon": -77.0279265, "name": "92eb7835b2881ba6d493d199b17f6b1a", "is_disabled": 0, "type": "electric_scooter", "is_reserved": 0, "fusion_lon": 0.0, "lat": 38.9297445, "rental_uris": {"ios": "https://dc.lft.to/lastmile_qr_scan", "android": "https://dc.lft.to/lastmile_qr_scan"}, "bike_id": "92eb7835b2881ba6d493d199b17f6b1a", "fusion_lat": 0.0}, {"lon": -77.0215075, "name": "5e7235d50c6907fca72ed398b6b80ba4", "is_disabled": 0, "type": "electric_scooter", "is_reserved": 0, "fusion_lon": 0.0, "lat": 38.9245205, "rental_uris": {"ios": "https://dc.lft.to/lastmile_qr_scan", "android": "https://dc.lft.to/lastmile_qr_scan"}, "bike_id": "5e7235d50c6907fca72ed398b6b80ba4", "fusion_lat": 0.0}, {"lon": -77.02448166666667, "name": "749becd275c343d31c4077ee172776a0", "is_disabled": 0, "type": "electric_scooter", "is_reserved": 0, "fusion_lon": 0.0, "lat": 38.923863, "rental_uris": {"ios": "https://dc.lft.to/lastmile_qr_scan", "android": "https://dc.lft.to/lastmile_qr_scan"}, "bike_id": "749becd275c343d31c4077ee172776a0", "fusion_lat": 0.0}, {"lon": -77.0115535, "name": "f168ac5c32ad8c271071bf777d3ee8ed", "is_disabled": 0, "type": "electric_scooter", "is_reserved": 0, "fusion_lon": 0.0, "lat": 38.91705533333333, "rental_uris": {"ios": "https://dc.lft.to/lastmile_qr_scan", "android": "https://dc.lft.to/lastmile_qr_scan"}, "bike_id": "f168ac5c32ad8c271071bf777d3ee8ed", "fusion_lat": 0.0}, {"lon": -77.00926616666666, "name": "c810698fcde3ebc4c4941a456476e8d3", "is_disabled": 0, "type": "electric_scooter", "is_reserved": 0, "fusion_lon": 0.0, "lat": 38.916988, "rental_uris": {"ios": "https://dc.lft.to/lastmile_qr_scan", "android": "https://dc.lft.to/lastmile_qr_scan"}, "bike_id": "c810698fcde3ebc4c4941a456476e8d3", "fusion_lat": 0.0}, {"lon": -77.01118433333333, "name": "24677a08982f38c1972195e455a69963", "is_disabled": 0, "type": "electric_scooter", "is_reserved": 0, "fusion_lon": 0.0, "lat": 38.894741, "rental_uris": {"ios": "https://dc.lft.to/lastmile_qr_scan", "android": "https://dc.lft.to/lastmile_qr_scan"}, "bike_id": "24677a08982f38c1972195e455a69963", "fusion_lat": 0.0}, {"lon": -76.929486, "name": "e55fa440b4bc4e51968a5dc87c874e07", "is_disabled": 0, "type": "electric_scooter", "is_reserved": 0, "fusion_lon": 0.0, "lat": 38.9017935, "rental_uris": {"ios": "https://dc.lft.to/lastmile_qr_scan", "android": "https://dc.lft.to/lastmile_qr_scan"}, "bike_id": "e55fa440b4bc4e51968a5dc87c874e07", "fusion_lat": 0.0}, {"lon": -77.04890283333333, "name": "1590ed7b2c9a7e8ac349fc7151467ef7", "is_disabled": 0, "type": "electric_scooter", "is_reserved": 0, "fusion_lon": 0.0, "lat": 38.89967766666667, "rental_uris": {"ios": "https://dc.lft.to/lastmile_qr_scan", "android": "https://dc.lft.to/lastmile_qr_scan"}, "bike_id": "1590ed7b2c9a7e8ac349fc7151467ef7", "fusion_lat": 0.0}, {"lon": -77.03186483333333, "name": "04a8934959c24d78da19f9b6724a1047", "is_disabled": 0, "type": "electric_scooter", "is_reserved": 0, "fusion_lon": 0.0, "lat": 38.9119245, "rental_uris": {"ios": "https://dc.lft.to/lastmile_qr_scan", "android": "https://dc.lft.to/lastmile_qr_scan"}, "bike_id": "04a8934959c24d78da19f9b6724a1047", "fusion_lat": 0.0}, {"lon": -77.0190235, "name": "0eac54462d76ea38e362553a49b42e2e", "is_disabled": 0, "type": "electric_scooter", "is_reserved": 0, "fusion_lon": 0.0, "lat": 38.9234335, "rental_uris": {"ios": "https://dc.lft.to/lastmile_qr_scan", "android": "https://dc.lft.to/lastmile_qr_scan"}, "bike_id": "0eac54462d76ea38e362553a49b42e2e", "fusion_lat": 0.0}, {"lon": -77.0326635, "name": "4fd578a785951978b5a1e126e69b319c", "is_disabled": 0, "type": "electric_scooter", "is_reserved": 0, "fusion_lon": 0.0, "lat": 38.93448466666667, "rental_uris": {"ios": "https://dc.lft.to/lastmile_qr_scan", "android": "https://dc.lft.to/lastmile_qr_scan"}, "bike_id": "4fd578a785951978b5a1e126e69b319c", "fusion_lat": 0.0}, {"lon": -77.02960766666666, "name": "1b08f1e3e3f58ab64b8e53430d820345", "is_disabled": 0, "type": "electric_scooter", "is_reserved": 0, "fusion_lon": 0.0, "lat": 38.92591616666667, "rental_uris": {"ios": "https://dc.lft.to/lastmile_qr_scan", "android": "https://dc.lft.to/lastmile_qr_scan"}, "bike_id": "1b08f1e3e3f58ab64b8e53430d820345", "fusion_lat": 0.0}, {"lon": -77.03181633333334, "name": "2b437f2205204b54db8c7171f14192cd", "is_disabled": 0, "type": "electric_scooter", "is_reserved": 0, "fusion_lon": 0.0, "lat": 38.892406666666666, "rental_uris": {"ios": "https://dc.lft.to/lastmile_qr_scan", "android": "https://dc.lft.to/lastmile_qr_scan"}, "bike_id": "2b437f2205204b54db8c7171f14192cd", "fusion_lat": 0.0}, {"lon": -77.02436166666666, "name": "3a239a058e2603eeb4f4e3b60948f2d7", "is_disabled": 0, "type": "electric_scooter", "is_reserved": 0, "fusion_lon": 0.0, "lat": 38.9182715, "rental_uris": {"ios": "https://dc.lft.to/lastmile_qr_scan", "android": "https://dc.lft.to/lastmile_qr_scan"}, "bike_id": "3a239a058e2603eeb4f4e3b60948f2d7", "fusion_lat": 0.0}, {"lon": -77.03222683333334, "name": "681e6724a6a60eaee61a30db0b29cf61", "is_disabled": 0, "type": "electric_scooter", "is_reserved": 0, "fusion_lon": 0.0, "lat": 38.923574, "rental_uris": {"ios": "https://dc.lft.to/lastmile_qr_scan", "android": "https://dc.lft.to/lastmile_qr_scan"}, "bike_id": "681e6724a6a60eaee61a30db0b29cf61", "fusion_lat": 0.0}, {"lon": -76.98336183333333, "name": "5cbf30ee1a6e67328ae2e5d940c19718", "is_disabled": 0, "type": "electric_scooter", "is_reserved": 0, "fusion_lon": 0.0, "lat": 38.89545066666667, "rental_uris": {"ios": "https://dc.lft.to/lastmile_qr_scan", "android": "https://dc.lft.to/lastmile_qr_scan"}, "bike_id": "5cbf30ee1a6e67328ae2e5d940c19718", "fusion_lat": 0.0}, {"lon": -77.00228233333333, "name": "3984aa2f2c5d030325b9a7e2a5d9c0a5", "is_disabled": 0, "type": "electric_scooter", "is_reserved": 0, "fusion_lon": 0.0, "lat": 38.91189166666667, "rental_uris": {"ios": "https://dc.lft.to/lastmile_qr_scan", "android": "https://dc.lft.to/lastmile_qr_scan"}, "bike_id": "3984aa2f2c5d030325b9a7e2a5d9c0a5", "fusion_lat": 0.0}, {"lon": -77.02142816666667, "name": "fdcb81e37806506016f73dbe66308ed1", "is_disabled": 0, "type": "electric_scooter", "is_reserved": 0, "fusion_lon": 0.0, "lat": 38.931087, "rental_uris": {"ios": "https://dc.lft.to/lastmile_qr_scan", "android": "https://dc.lft.to/lastmile_qr_scan"}, "bike_id": "fdcb81e37806506016f73dbe66308ed1", "fusion_lat": 0.0}, {"lon": -76.97853366666666, "name": "1f12e2d4294e7d3a1c47c0cbe0d08d32", "is_disabled": 0, "type": "electric_scooter", "is_reserved": 0, "fusion_lon": 0.0, "lat": 38.897166166666665, "rental_uris": {"ios": "https://dc.lft.to/lastmile_qr_scan", "android": "https://dc.lft.to/lastmile_qr_scan"}, "bike_id": "1f12e2d4294e7d3a1c47c0cbe0d08d32", "fusion_lat": 0.0}, {"lon": -76.970813, "name": "5c7b7d1e1c7bc808bc4be06b9d8f084e", "is_disabled": 0, "type": "electric_scooter", "is_reserved": 0, "fusion_lon": 0.0, "lat": 38.869449, "rental_uris": {"ios": "https://dc.lft.to/lastmile_qr_scan", "android": "https://dc.lft.to/lastmile_qr_scan"}, "bike_id": "5c7b7d1e1c7bc808bc4be06b9d8f084e", "fusion_lat": 0.0}, {"lon": -76.988366, "name": "62926395a305b3e08d0d07faf00f75c0", "is_disabled": 0, "type": "electric_scooter", "is_reserved": 0, "fusion_lon": 0.0, "lat": 38.89251766666667, "rental_uris": {"ios": "https://dc.lft.to/lastmile_qr_scan", "android": "https://dc.lft.to/lastmile_qr_scan"}, "bike_id": "62926395a305b3e08d0d07faf00f75c0", "fusion_lat": 0.0}, {"lon": -77.05473433333333, "name": "dc904c3b41a9fb993760f5e27820f58f", "is_disabled": 0, "type": "electric_scooter", "is_reserved": 0, "fusion_lon": 0.0, "lat": 38.89732266666667, "rental_uris": {"ios": "https://dc.lft.to/lastmile_qr_scan", "android": "https://dc.lft.to/lastmile_qr_scan"}, "bike_id": "dc904c3b41a9fb993760f5e27820f58f", "fusion_lat": 0.0}, {"lon": -77.0581065, "name": "b7131614cdf48bd08df6e761d7818f36", "is_disabled": 0, "type": "electric_scooter", "is_reserved": 0, "fusion_lon": 0.0, "lat": 38.92905583333334, "rental_uris": {"ios": "https://dc.lft.to/lastmile_qr_scan", "android": "https://dc.lft.to/lastmile_qr_scan"}, "bike_id": "b7131614cdf48bd08df6e761d7818f36", "fusion_lat": 0.0}, {"lon": -76.98593116666666, "name": "504f0b9b3271179f8f8b708eb70f8a68", "is_disabled": 0, "type": "electric_scooter", "is_reserved": 0, "fusion_lon": 0.0, "lat": 38.900228, "rental_uris": {"ios": "https://dc.lft.to/lastmile_qr_scan", "android": "https://dc.lft.to/lastmile_qr_scan"}, "bike_id": "504f0b9b3271179f8f8b708eb70f8a68", "fusion_lat": 0.0}, {"lon": -77.022174, "name": "b75eefa6bf06c7156abc4d583e08fbac", "is_disabled": 0, "type": "electric_scooter", "is_reserved": 0, "fusion_lon": 0.0, "lat": 38.92469966666667, "rental_uris": {"ios": "https://dc.lft.to/lastmile_qr_scan", "android": "https://dc.lft.to/lastmile_qr_scan"}, "bike_id": "b75eefa6bf06c7156abc4d583e08fbac", "fusion_lat": 0.0}, {"lon": -77.03260383333334, "name": "5d27d452dc27558f1cf1b571be43cb64", "is_disabled": 0, "type": "electric_scooter", "is_reserved": 0, "fusion_lon": 0.0, "lat": 38.93249933333333, "rental_uris": {"ios": "https://dc.lft.to/lastmile_qr_scan", "android": "https://dc.lft.to/lastmile_qr_scan"}, "bike_id": "5d27d452dc27558f1cf1b571be43cb64", "fusion_lat": 0.0}, {"lon": -77.013667, "name": "549f9634d4ae7390db67612e819bead3", "is_disabled": 0, "type": "electric_scooter", "is_reserved": 0, "fusion_lon": 0.0, "lat": 38.913279333333335, "rental_uris": {"ios": "https://dc.lft.to/lastmile_qr_scan", "android": "https://dc.lft.to/lastmile_qr_scan"}, "bike_id": "549f9634d4ae7390db67612e819bead3", "fusion_lat": 0.0}, {"lon": -77.02978983333334, "name": "e49b1f7cdf36c8b472f230d6270ffd96", "is_disabled": 0, "type": "electric_scooter", "is_reserved": 0, "fusion_lon": 0.0, "lat": 38.94349916666667, "rental_uris": {"ios": "https://dc.lft.to/lastmile_qr_scan", "android": "https://dc.lft.to/lastmile_qr_scan"}, "bike_id": "e49b1f7cdf36c8b472f230d6270ffd96", "fusion_lat": 0.0}, {"lon": -77.040047, "name": "6db8bc0e5e4488dff63ca5f37e0f1dda", "is_disabled": 0, "type": "electric_scooter", "is_reserved": 0, "fusion_lon": 0.0, "lat": 38.91689816666667, "rental_uris": {"ios": "https://dc.lft.to/lastmile_qr_scan", "android": "https://dc.lft.to/lastmile_qr_scan"}, "bike_id": "6db8bc0e5e4488dff63ca5f37e0f1dda", "fusion_lat": 0.0}, {"lon": -77.002878, "name": "2e1385bf25d9b83a96e2f67af9af502f", "is_disabled": 0, "type": "electric_scooter", "is_reserved": 0, "fusion_lon": 0.0, "lat": 38.89235016666667, "rental_uris": {"ios": "https://dc.lft.to/lastmile_qr_scan", "android": "https://dc.lft.to/lastmile_qr_scan"}, "bike_id": "2e1385bf25d9b83a96e2f67af9af502f", "fusion_lat": 0.0}, {"lon": -77.00888566666667, "name": "b49720f65199d29970c1b7dcb49f02c8", "is_disabled": 0, "type": "electric_scooter", "is_reserved": 0, "fusion_lon": 0.0, "lat": 38.900762666666665, "rental_uris": {"ios": "https://dc.lft.to/lastmile_qr_scan", "android": "https://dc.lft.to/lastmile_qr_scan"}, "bike_id": "b49720f65199d29970c1b7dcb49f02c8", "fusion_lat": 0.0}, {"lon": -76.99571733333333, "name": "56be55d97e2c2938fe8283c75c88e911", "is_disabled": 0, "type": "electric_bike", "is_reserved": 0, "fusion_lon": 0.0, "lat": 38.831596166666664, "rental_uris": {"ios": "https://dc.lft.to/lastmile_qr_scan", "android": "https://dc.lft.to/lastmile_qr_scan"}, "bike_id": "56be55d97e2c2938fe8283c75c88e911", "fusion_lat": 0.0}, {"lon": -76.984873, "name": "ff79a05b380f2ae7c11f882855b600ba", "is_disabled": 0, "type": "electric_scooter", "is_reserved": 0, "fusion_lon": 0.0, "lat": 38.9203505, "rental_uris": {"ios": "https://dc.lft.to/lastmile_qr_scan", "android": "https://dc.lft.to/lastmile_qr_scan"}, "bike_id": "ff79a05b380f2ae7c11f882855b600ba", "fusion_lat": 0.0}, {"lon": -77.0208605, "name": "b1865ec7d6a73aaea2073b25a3bb8bb1", "is_disabled": 0, "type": "electric_scooter", "is_reserved": 0, "fusion_lon": 0.0, "lat": 38.92157433333333, "rental_uris": {"ios": "https://dc.lft.to/lastmile_qr_scan", "android": "https://dc.lft.to/lastmile_qr_scan"}, "bike_id": "b1865ec7d6a73aaea2073b25a3bb8bb1", "fusion_lat": 0.0}, {"lon": -77.01663133333334, "name": "333f15df468310fb7271e7b8a1f10c67", "is_disabled": 0, "type": "electric_scooter", "is_reserved": 0, "fusion_lon": 0.0, "lat": 38.8770755, "rental_uris": {"ios": "https://dc.lft.to/lastmile_qr_scan", "android": "https://dc.lft.to/lastmile_qr_scan"}, "bike_id": "333f15df468310fb7271e7b8a1f10c67", "fusion_lat": 0.0}, {"lon": -77.047201, "name": "f9fa427e39662c79dd42b9b12002eac4", "is_disabled": 0, "type": "electric_scooter", "is_reserved": 0, "fusion_lon": 0.0, "lat": 38.8997145, "rental_uris": {"ios": "https://dc.lft.to/lastmile_qr_scan", "android": "https://dc.lft.to/lastmile_qr_scan"}, "bike_id": "f9fa427e39662c79dd42b9b12002eac4", "fusion_lat": 0.0}, {"lon": -77.00213366666667, "name": "22bc09127095460f315f7a854ddfccff", "is_disabled": 0, "type": "electric_scooter", "is_reserved": 0, "fusion_lon": 0.0, "lat": 38.898097166666666, "rental_uris": {"ios": "https://dc.lft.to/lastmile_qr_scan", "android": "https://dc.lft.to/lastmile_qr_scan"}, "bike_id": "22bc09127095460f315f7a854ddfccff", "fusion_lat": 0.0}, {"lon": -77.02487083333334, "name": "46812889fab0640b9e1fce051000105d", "is_disabled": 0, "type": "electric_scooter", "is_reserved": 0, "fusion_lon": 0.0, "lat": 38.9181715, "rental_uris": {"ios": "https://dc.lft.to/lastmile_qr_scan", "android": "https://dc.lft.to/lastmile_qr_scan"}, "bike_id": "46812889fab0640b9e1fce051000105d", "fusion_lat": 0.0}, {"lon": -77.03511483333334, "name": "a4bb5a58fff2fcd3e74228fc4ec4394a", "is_disabled": 0, "type": "electric_scooter", "is_reserved": 0, "fusion_lon": 0.0, "lat": 38.901309166666664, "rental_uris": {"ios": "https://dc.lft.to/lastmile_qr_scan", "android": "https://dc.lft.to/lastmile_qr_scan"}, "bike_id": "a4bb5a58fff2fcd3e74228fc4ec4394a", "fusion_lat": 0.0}, {"lon": -77.02724783333333, "name": "cd00a36d4b485b63596dd5d94771672c", "is_disabled": 0, "type": "electric_scooter", "is_reserved": 0, "fusion_lon": 0.0, "lat": 38.89779016666667, "rental_uris": {"ios": "https://dc.lft.to/lastmile_qr_scan", "android": "https://dc.lft.to/lastmile_qr_scan"}, "bike_id": "cd00a36d4b485b63596dd5d94771672c", "fusion_lat": 0.0},