{"data": {"bikes": [{"name": "d1059673e85783ca347d37b773542e6f", "fusion_lat": 0.0, "type": "electric_scooter", "lat": 38.94929366666667, "is_reserved": 0, "is_disabled": 0, "fusion_lon": 0.0, "bike_id": "d1059673e85783ca347d37b773542e6f", "lon": -77.019356, "rental_uris": {"ios": "https://dc.lft.to/lastmile_qr_scan", "android": "https://dc.lft.to/lastmile_qr_scan"}}, {"name": "1cc6d3061d7e1659e340510fa84ecff7", "fusion_lat": 0.0, "type": "electric_scooter", "lat": 38.912337666666666, "is_reserved": 0, "is_disabled": 0, "fusion_lon": 0.0, "bike_id": "1cc6d3061d7e1659e340510fa84ecff7", "lon": -77.03841883333334, "rental_uris": {"ios": "https://dc.lft.to/lastmile_qr_scan", "android": "https://dc.lft.to/lastmile_qr_scan"}}, {"name": "2473f7319eb5050a14a400b5c5ffcf2d", "fusion_lat": 0.0, "type": "electric_bike", "lat": 38.914034, "is_reserved": 0, "is_disabled": 0, "fusion_lon": 0.0, "bike_id": "2473f7319eb5050a14a400b5c5ffcf2d", "lon": -77.020178, "rental_uris": {"ios": "https://dc.lft.to/lastmile_qr_scan", "android": "https://dc.lft.to/lastmile_qr_scan"}}, {"name": "f25074c03097c4d35a7531c3459bda12", "fusion_lat": 0.0, "type": "electric_scooter", "lat": 38.93409883333333, "is_reserved": 0, "is_disabled": 0, "fusion_lon": 0.0, "bike_id": "f25074c03097c4d35a7531c3459bda12", "lon": -77.02607816666666, "rental_uris": {"ios": "https://dc.lft.to/lastmile_qr_scan", "android": "https://dc.lft.to/lastmile_qr_scan"}}, {"name": "50e1ec192ec5fbb53435d1823b4793f7", "fusion_lat": 0.0, "type": "electric_scooter", "lat": 38.929245333333334, "is_reserved": 0, "is_disabled": 0, "fusion_lon": 0.0, "bike_id": "50e1ec192ec5fbb53435d1823b4793f7", "lon": -77.03742666666666, "rental_uris": {"ios": "https://dc.lft.to/lastmile_qr_scan", "android": "https://dc.lft.to/lastmile_qr_scan"}}, {"name": "4f2d553d83fc15fae0bda6e405d9c460", "fusion_lat": 0.0, "type": "electric_scooter", "lat": 38.92669733333334, "is_reserved": 0, "is_disabled": 0, "fusion_lon": 0.0, "bike_id": "4f2d553d83fc15fae0bda6e405d9c460", "lon": -76.9953945, "rental_uris": {"ios": "https://dc.lft.to/lastmile_qr_scan", "android": "https://dc.lft.to/lastmile_qr_scan"}}, {"name": "c636a06cb7705a146b811ee1b928b0f7", "fusion_lat": 0.0, "type": "electric_scooter", "lat": 38.91004383333333, "is_reserved": 0, "is_disabled": 0, "fusion_lon": 0.0, "bike_id": "c636a06cb7705a146b811ee1b928b0f7", "lon": -77.03839966666666, "rental_uris": {"ios": "https://dc.lft.to/lastmile_qr_scan", "android": "https://dc.lft.to/lastmile_qr_scan"}}, {"name": "e5d3f2645467b7c30c57c082eedcfb88", "fusion_lat": 0.0, "type": "electric_scooter", "lat": 38.91044566666667, "is_reserved": 0, "is_disabled": 0, "fusion_lon": 0.0, "bike_id": "e5d3f2645467b7c30c57c082eedcfb88", "lon": -77.03857183333334, "rental_uris": {"ios": "https://dc.lft.to/lastmile_qr_scan", "android": "https://dc.lft.to/lastmile_qr_scan"}}, {"name": "51e2372cbec8ed46484169e96e447837", "fusion_lat": 0.0, "type": "electric_scooter", "lat": 38.9167515, "is_reserved": 0, "is_disabled": 0, "fusion_lon": 0.0, "bike_id": "51e2372cbec8ed46484169e96e447837", "lon": -77.01452116666667, "rental_uris": {"ios": "https://dc.lft.to/lastmile_qr_scan", "android": "https://dc.lft.to/lastmile_qr_scan"}}, {"name": "2f38f04a48203e9776f082029c254512", "fusion_lat": 0.0, "type": "electric_scooter", "lat": 38.901136, "is_reserved": 0, "is_disabled": 0, "fusion_lon": 0.0, "bike_id": "2f38f04a48203e9776f082029c254512", "lon": -77.02493283333334, "rental_uris": {"ios": "https://dc.lft.to/lastmile_qr_scan", "android": "https://dc.lft.to/lastmile_qr_scan"}}, {"name": "e58c2488bc8a186476929ad4757079ac", "fusion_lat": 0.0, "type": "electric_scooter", "lat": 38.92488616666667, "is_reserved": 0, "is_disabled": 0, "fusion_lon": 0.0, "bike_id": "e58c2488bc8a186476929ad4757079ac", "lon": -77.0271615, "rental_uris": {"ios": "https://dc.lft.to/lastmile_qr_scan", "android": "https://dc.lft.to/lastmile_qr_scan"}}, {"name": "e036ddc3ca0d1cafa6ff7b4fde1bc414", "fusion_lat": 0.0, "type": "electric_scooter", "lat": 38.897286, "is_reserved": 0, "is_disabled": 0, "fusion_lon": 0.0, "bike_id": "e036ddc3ca0d1cafa6ff7b4fde1bc414", "lon": -77.04333516666667, "rental_uris": {"ios": "https://dc.lft.to/lastmile_qr_scan", "android": "https://dc.lft.to/lastmile_qr_scan"}}, {"name": "6bcaa55628d95d4136be43ece350bfeb", "fusion_lat": 0.0, "type": "electric_scooter", "lat": 38.92993366666666, "is_reserved": 0, "is_disabled": 0, "fusion_lon": 0.0, "bike_id": "6bcaa55628d95d4136be43ece350bfeb", "lon": -77.02344033333334, "rental_uris": {"ios": "https://dc.lft.to/lastmile_qr_scan", "android": "https://dc.lft.to/lastmile_qr_scan"}}, {"name": "de90923281b3367ce2d280df0908465a", "fusion_lat": 0.0, "type": "electric_scooter", "lat": 38.892405833333335, "is_reserved": 0, "is_disabled": 0, "fusion_lon": 0.0, "bike_id": "de90923281b3367ce2d280df0908465a", "lon": -77.03181233333333, "rental_uris": {"ios": "https://dc.lft.to/lastmile_qr_scan", "android": "https://dc.lft.to/lastmile_qr_scan"}}, {"name": "5cdb0bc7eefffb235e465f88a26b2d4e", "fusion_lat": 0.0, "type": "electric_scooter", "lat": 38.907207666666665, "is_reserved": 0, "is_disabled": 0, "fusion_lon": 0.0, "bike_id": "5cdb0bc7eefffb235e465f88a26b2d4e", "lon": -77.03358016666667, "rental_uris": {"ios": "https://dc.lft.to/lastmile_qr_scan", "android": "https://dc.lft.to/lastmile_qr_scan"}}, {"name": "c45f4f1bca49f2c279b8fee4ff044d60", "fusion_lat": 0.0, "type": "electric_bike", "lat": 38.843366333333336, "is_reserved": 0, "is_disabled": 0, "fusion_lon": 0.0, "bike_id": "c45f4f1bca49f2c279b8fee4ff044d60", "lon": -77.06345283333333, "rental_uris": {"ios": "https://dc.lft.to/lastmile_qr_scan", "android": "https://dc.lft.to/lastmile_qr_scan"}}, {"name": "d74fa11f0472f6728472e2c49ebfc8b8", "fusion_lat": 0.0, "type": "electric_scooter", "lat": 38.909785, "is_reserved": 0, "is_disabled": 0, "fusion_lon": 0.0, "bike_id": "d74fa11f0472f6728472e2c49ebfc8b8", "lon": -77.04878916666667, "rental_uris": {"ios": "https://dc.lft.to/lastmile_qr_scan", "android": "https://dc.lft.to/lastmile_qr_scan"}}, {"name": "2683bd17b518531686c0919ecf6477c2", "fusion_lat": 0.0, "type": "electric_scooter", "lat": 38.915958833333335, "is_reserved": 0, "is_disabled": 0, "fusion_lon": 0.0, "bike_id": "2683bd17b518531686c0919ecf6477c2", "lon": -77.04358083333334, "rental_uris": {"ios": "https://dc.lft.to/lastmile_qr_scan", "android": "https://dc.lft.to/lastmile_qr_scan"}}, {"name": "4b55474650da3723ce621f677e59d733", "fusion_lat": 0.0, "type": "electric_scooter", "lat": 38.92019783333333, "is_reserved": 0, "is_disabled": 0, "fusion_lon": 0.0, "bike_id": "4b55474650da3723ce621f677e59d733", "lon": -77.03118633333334, "rental_uris": {"ios": "https://dc.lft.to/lastmile_qr_scan", "android": "https://dc.lft.to/lastmile_qr_scan"}}, {"name": "df17195c47a7cc09560979eca0b7e914", "fusion_lat": 0.0, "type": "electric_scooter", "lat": 38.88348466666667, "is_reserved": 0, "is_disabled": 0, "fusion_lon": 0.0, "bike_id": "df17195c47a7cc09560979eca0b7e914", "lon": -76.98546083333333, "rental_uris": {"ios": "https://dc.lft.to/lastmile_qr_scan", "android": "https://dc.lft.to/lastmile_qr_scan"}}, {"name": "b3c16e3c7d899537b256c329095ac469", "fusion_lat": 0.0, "type": "electric_scooter", "lat": 38.894146666666664, "is_reserved": 0, "is_disabled": 0, "fusion_lon": 0.0, "bike_id": "b3c16e3c7d899537b256c329095ac469", "lon": -76.93965983333334, "rental_uris": {"ios": "https://dc.lft.to/lastmile_qr_scan", "android": "https://dc.lft.to/lastmile_qr_scan"}}, {"name": "c16f8cd6d936f6d5d41b44f83203eef6", "fusion_lat": 0.0, "type": "electric_scooter", "lat": 38.92588283333333, "is_reserved": 0, "is_disabled": 0, "fusion_lon": 0.0, "bike_id": "c16f8cd6d936f6d5d41b44f83203eef6", "lon": -77.02963516666667, "rental_uris": {"ios": "https://dc.lft.to/lastmile_qr_scan", "android": "https://dc.lft.to/lastmile_qr_scan"}}, {"name": "b6d10630642a1ccc4a0a5016258e970b", "fusion_lat": 0.0, "type": "electric_scooter", "lat": 38.901304333333336, "is_reserved": 0, "is_disabled": 0, "fusion_lon": 0.0, "bike_id": "b6d10630642a1ccc4a0a5016258e970b", "lon": -77.028826, "rental_uris": {"ios": "https://dc.lft.to/lastmile_qr_scan", "android": "https://dc.lft.to/lastmile_qr_scan"}}, {"name": "6ade8ed3bb6b4b260dbf1175fdb895e4", "fusion_lat": 0.0, "type": "electric_scooter", "lat": 38.901217, "is_reserved": 0, "is_disabled": 0, "fusion_lon": 0.0, "bike_id": "6ade8ed3bb6b4b260dbf1175fdb895e4", "lon": -77.03051766666667, "rental_uris": {"ios": "https://dc.lft.to/lastmile_qr_scan", "android": "https://dc.lft.to/lastmile_qr_scan"}}, {"name": "9305ad9a7ca406a2bf20cd358b5716e7", "fusion_lat": 0.0, "type": "electric_scooter", "lat": 38.907335333333336, "is_reserved": 0, "is_disabled": 0, "fusion_lon": 0.0, "bike_id": "9305ad9a7ca406a2bf20cd358b5716e7", "lon": -77.0232125, "rental_uris": {"ios": "https://dc.lft.to/lastmile_qr_scan", "android": "https://dc.lft.to/lastmile_qr_scan"}}, {"name": "e87aabfa77399b08bc5c3bf23fa15855", "fusion_lat": 0.0, "type": "electric_scooter", "lat": 38.917139, "is_reserved": 0, "is_disabled": 0, "fusion_lon": 0.0, "bike_id": "e87aabfa77399b08bc5c3bf23fa15855", "lon": -77.0467725, "rental_uris": {"ios": "https://dc.lft.to/lastmile_qr_scan", "android": "https://dc.lft.to/lastmile_qr_scan"}}, {"name": "fda8e4d81f0bf3a98751c4a8fe23d0ba", "fusion_lat": 0.0, "type": "electric_bike", "lat": 38.93671666666667, "is_reserved": 0, "is_disabled": 0, "fusion_lon": 0.0, "bike_id": "fda8e4d81f0bf3a98751c4a8fe23d0ba", "lon": -76.95206466666667, "rental_uris": {"ios": "https://dc.lft.to/lastmile_qr_scan", "android": "https://dc.lft.to/lastmile_qr_scan"}}, {"name": "bd6319e02770af21c18d039ee339c4f4", "fusion_lat": 0.0, "type": "electric_scooter", "lat": 38.8989995, "is_reserved": 0, "is_disabled": 0, "fusion_lon": 0.0, "bike_id": "bd6319e02770af21c18d039ee339c4f4", "lon": -77.01514766666666, "rental_uris": {"ios": "https://dc.lft.to/lastmile_qr_scan", "android": "https://dc.lft.to/lastmile_qr_scan"}}, {"name": "ee550491dff6ec82149784e4097733ad", "fusion_lat": 0.0, "type": "electric_scooter", "lat": 38.90231933333333, "is_reserved": 0, "is_disabled": 0, "fusion_lon": 0.0, "bike_id": "ee550491dff6ec82149784e4097733ad", "lon": -77.05344066666666, "rental_uris": {"ios": "https://dc.lft.to/lastmile_qr_scan", "android": "https://dc.lft.to/lastmile_qr_scan"}}, {"name": "54abf9c568edeb02fced37ef85c2c35a", "fusion_lat": 0.0, "type": "electric_scooter", "lat": 38.862107333333334, "is_reserved": 0, "is_disabled": 0, "fusion_lon": 0.0, "bike_id": "54abf9c568edeb02fced37ef85c2c35a", "lon": -76.99470166666667, "rental_uris": {"ios": "https://dc.lft.to/lastmile_qr_scan", "android": "https://dc.lft.to/lastmile_qr_scan"}}, {"name": "21f1b2688922b9d2d5845a70daba7fe0", "fusion_lat": 0.0, "type": "electric_scooter", "lat": 38.9118945, "is_reserved": 0, "is_disabled": 0, "fusion_lon": 0.0, "bike_id": "21f1b2688922b9d2d5845a70daba7fe0", "lon": -77.03256966666666, "rental_uris": {"ios": "https://dc.lft.to/lastmile_qr_scan", "android": "https://dc.lft.to/lastmile_qr_scan"}}, {"name": "2a8e7e4ad4ec26d7b12f7c11eb7e8b42", "fusion_lat": 0.0, "type": "electric_scooter", "lat": 38.91920266666666, "is_reserved": 0, "is_disabled": 0, "fusion_lon": 0.0, "bike_id": "2a8e7e4ad4ec26d7b12f7c11eb7e8b42", "lon": -77.03107533333333, "rental_uris": {"ios": "https://dc.lft.to/lastmile_qr_scan", "android": "https://dc.lft.to/lastmile_qr_scan"}}, {"name": "0a602a00d16afa446b0d2795352687e0", "fusion_lat": 0.0, "type": "electric_scooter", "lat": 38.90959866666667, "is_reserved": 0, "is_disabled": 0, "fusion_lon": 0.0, "bike_id": "0a602a00d16afa446b0d2795352687e0", "lon": -77.02683216666667, "rental_uris": {"ios": "https://dc.lft.to/lastmile_qr_scan", "android": "https://dc.lft.to/lastmile_qr_scan"}}, {"name": "da7ae91d47914c9474b0431a34d8cbd5", "fusion_lat": 0.0, "type": "electric_scooter", "lat": 38.913395333333334, "is_reserved": 0, "is_disabled": 0, "fusion_lon": 0.0, "bike_id": "da7ae91d47914c9474b0431a34d8cbd5", "lon": -77.04232716666667, "rental_uris": {"ios": "https://dc.lft.to/lastmile_qr_scan", "android": "https://dc.lft.to/lastmile_qr_scan"}}, {"name": "4c7a59987cbfdf71727e0fffb57c8894", "fusion_lat": 0.0, "type": "electric_scooter", "lat": 38.89548766666667, "is_reserved": 0, "is_disabled": 0, "fusion_lon": 0.0, "bike_id": "4c7a59987cbfdf71727e0fffb57c8894", "lon": -76.94879183333333, "rental_uris": {"ios": "https://dc.lft.to/lastmile_qr_scan", "android": "https://dc.lft.to/lastmile_qr_scan"}}, {"name": "438d68eef5529ccad1c1ec58c33d3ba3", "fusion_lat": 0.0, "type": "electric_scooter", "lat": 38.90731533333334, "is_reserved": 0, "is_disabled": 0, "fusion_lon": 0.0, "bike_id": "438d68eef5529ccad1c1ec58c33d3ba3", "lon": -77.03189566666667, "rental_uris": {"ios": "https://dc.lft.to/lastmile_qr_scan", "android": "https://dc.lft.to/lastmile_qr_scan"}}, {"name": "28a44ae9c75dd78859ab0fea2461bdc1", "fusion_lat": 0.0, "type": "electric_bike", "lat": 38.81510333333333, "is_reserved": 0, "is_disabled": 0, "fusion_lon": 0.0, "bike_id": "28a44ae9c75dd78859ab0fea2461bdc1", "lon": -77.12657183333333, "rental_uris": {"ios": "https://dc.lft.to/lastmile_qr_scan", "android": "https://dc.lft.to/lastmile_qr_scan"}}, {"name": "02207b509ee5df77d3f107eb4b5a1b20", "fusion_lat": 0.0, "type": "electric_scooter", "lat": 38.927085166666664, "is_reserved": 0, "is_disabled": 0, "fusion_lon": 0.0, "bike_id": "02207b509ee5df77d3f107eb4b5a1b20", "lon": -77.0373085, "rental_uris": {"ios": "https://dc.lft.to/lastmile_qr_scan", "android": "https://dc.lft.to/lastmile_qr_scan"}}, {"name": "45f752dff2b96d98d1fee72a06b25e6a", "fusion_lat": 0.0, "type": "electric_scooter", "lat": 38.915666, "is_reserved": 0, "is_disabled": 0, "fusion_lon": 0.0, "bike_id": "45f752dff2b96d98d1fee72a06b25e6a", "lon": -77.02236433333333, "rental_uris": {"ios": "https://dc.lft.to/lastmile_qr_scan", "android": "https://dc.lft.to/lastmile_qr_scan"}}, {"name": "86186cab9a79c3797e51211ae8ef7616", "fusion_lat": 0.0, "type": "electric_scooter", "lat": 38.93283616666667, "is_reserved": 0, "is_disabled": 0, "fusion_lon": 0.0, "bike_id": "86186cab9a79c3797e51211ae8ef7616", "lon": -77.034998, "rental_uris": {"ios": "https://dc.lft.to/lastmile_qr_scan", "android": "https://dc.lft.to/lastmile_qr_scan"}}, {"name": "cdab8deb25aeaf98f0fa1374a52bc8b3", "fusion_lat": 0.0, "type": "electric_scooter", "lat": 38.900228166666665, "is_reserved": 0, "is_disabled": 0, "fusion_lon": 0.0, "bike_id": "cdab8deb25aeaf98f0fa1374a52bc8b3", "lon": -77.00213883333333, "rental_uris": {"ios": "https://dc.lft.to/lastmile_qr_scan", "android": "https://dc.lft.to/lastmile_qr_scan"}}, {"name": "782d6a8c8426f05e982560346b7b9173", "fusion_lat": 0.0, "type": "electric_scooter", "lat": 38.870097666666666, "is_reserved": 0, "is_disabled": 0, "fusion_lon": 0.0, "bike_id": "782d6a8c8426f05e982560346b7b9173", "lon": -77.01227033333333, "rental_uris": {"ios": "https://dc.lft.to/lastmile_qr_scan", "android": "https://dc.lft.to/lastmile_qr_scan"}}, {"name": "dbc0785bf1b00fcf39dd55a90badef2e", "fusion_lat": 0.0, "type": "electric_scooter", "lat": 38.8908815, "is_reserved": 0, "is_disabled": 0, "fusion_lon": 0.0, "bike_id": "dbc0785bf1b00fcf39dd55a90badef2e", "lon": -76.99788083333334, "rental_uris": {"ios": "https://dc.lft.to/lastmile_qr_scan", "android": "https://dc.lft.to/lastmile_qr_scan"}}, {"name": "3bf361624b330ed82b37d11c809d94e9", "fusion_lat": 0.0, "type": "electric_scooter", "lat": 38.91419583333333, "is_reserved": 0, "is_disabled": 0, "fusion_lon": 0.0, "bike_id": "3bf361624b330ed82b37d11c809d94e9", "lon": -77.04159983333334, "rental_uris": {"ios": "https://dc.lft.to/lastmile_qr_scan", "android": "https://dc.lft.to/lastmile_qr_scan"}}, {"name": "29576bab5fe005ae189a55e24cbf14ce", "fusion_lat": 0.0, "type": "electric_bike", "lat": 38.965532333333336, "is_reserved": 0, "is_disabled": 0, "fusion_lon": 0.0, "bike_id": "29576bab5fe005ae189a55e24cbf14ce", "lon": -77.03511583333334, "rental_uris": {"ios": "https://dc.lft.to/lastmile_qr_scan", "android": "https://dc.lft.to/lastmile_qr_scan"}}, {"name": "5206adb829919ddd9fc0f573d024fd29", "fusion_lat": 0.0, "type": "electric_scooter", "lat": 38.91044, "is_reserved": 0, "is_disabled": 0, "fusion_lon": 0.0, "bike_id": "5206adb829919ddd9fc0f573d024fd29", "lon": -77.02814533333333, "rental_uris": {"ios": "https://dc.lft.to/lastmile_qr_scan", "android": "https://dc.lft.to/lastmile_qr_scan"}}, {"name": "4989bd05c9fa60040de40a8c40a9d9c4", "fusion_lat": 0.0, "type": "electric_scooter", "lat": 38.865219, "is_reserved": 0, "is_disabled": 0, "fusion_lon": 0.0, "bike_id": "4989bd05c9fa60040de40a8c40a9d9c4", "lon": -76.98560216666667, "rental_uris": {"ios": "https://dc.lft.to/lastmile_qr_scan", "android": "https://dc.lft.to/lastmile_qr_scan"}}, {"name": "08c5f00f68dba7729c92bc8466b188c8", "fusion_lat": 0.0, "type": "electric_scooter", "lat": 38.900658, "is_reserved": 0, "is_disabled": 0, "fusion_lon": 0.0, "bike_id": "08c5f00f68dba7729c92bc8466b188c8", "lon": -77.04509166666666, "rental_uris": {"ios": "https://dc.lft.to/lastmile_qr_scan", "android": "https://dc.lft.to/lastmile_qr_scan"}}, {"name": "16f5ffdc6c8867d43d3d46d7bf580756", "fusion_lat": 0.0, "type": "electric_scooter", "lat": 38.92431216666667, "is_reserved": 0, "is_disabled": 0, "fusion_lon": 0.0, "bike_id": "16f5ffdc6c8867d43d3d46d7bf580756", "lon": -77.04142066666667, "rental_uris": {"ios": "https://dc.lft.to/lastmile_qr_scan", "android": "https://dc.lft.to/lastmile_qr_scan"}}, {"name": "b7fb56fea7a7cab5bf64c7eb8a259c42", "fusion_lat": 0.0, "type": "electric_scooter", "lat": 38.93069966666667, "is_reserved": 0, "is_disabled": 0, "fusion_lon": 0.0, "bike_id": "b7fb56fea7a7cab5bf64c7eb8a259c42", "lon": -77.03399016666667, "rental_uris": {"ios": "https://dc.lft.to/lastmile_qr_scan", "android": "https://dc.lft.to/lastmile_qr_scan"}}, {"name": "a545fb91bb8628f3d4cb8afb13a48290", "fusion_lat": 0.0, "type": "electric_scooter", "lat": 38.9206, "is_reserved": 0, "is_disabled": 0, "fusion_lon": 0.0, "bike_id": "a545fb91bb8628f3d4cb8afb13a48290", "lon": -77.02935683333334, "rental_uris": {"ios": "https://dc.lft.to/lastmile_qr_scan", "android": "https://dc.lft.to/lastmile_qr_scan"}}, {"name": "572bc4ed9f3991a215dd0a93656ef242", "fusion_lat": 0.0, "type": "electric_scooter", "lat": 38.903767333333334, "is_reserved": 0, "is_disabled": 0, "fusion_lon": 0.0, "bike_id": "572bc4ed9f3991a215dd0a93656ef242", "lon": -77.0449415, "rental_uris": {"ios": "https://dc.lft.to/lastmile_qr_scan", "android": "https://dc.lft.to/lastmile_qr_scan"}}, {"name": "e201a13805ad06173bf2fbc8ab3f7dcf", "fusion_lat": 0.0, "type": "electric_scooter", "lat": 38.909660333333335, "is_reserved": 0, "is_disabled": 0, "fusion_lon": 0.0, "bike_id": "e201a13805ad06173bf2fbc8ab3f7dcf", "lon": -77.03867166666667, "rental_uris": {"ios": "https://dc.lft.to/lastmile_qr_scan", "android": "https://dc.lft.to/lastmile_qr_scan"}}, {"name": "9dbfcfb6510d3cc0cffd4c085e538d9c", "fusion_lat": 0.0, "type": "electric_bike", "lat": 38.896821, "is_reserved": 0, "is_disabled": 0, "fusion_lon": 0.0, "bike_id": "9dbfcfb6510d3cc0cffd4c085e538d9c", "lon": -76.94064433333334, "rental_uris": {"ios": "https://dc.lft.to/lastmile_qr_scan", "android": "https://dc.lft.to/lastmile_qr_scan"}}, {"name": "12ba8e5e983e6b14450333337fb21535", "fusion_lat": 0.0, "type": "electric_scooter", "lat": 38.933102833333336, "is_reserved": 0, "is_disabled": 0, "fusion_lon": 0.0, "bike_id": "12ba8e5e983e6b14450333337fb21535", "lon": -77.03088116666666, "rental_uris": {"ios": "https://dc.lft.to/lastmile_qr_scan", "android": "https://dc.lft.to/lastmile_qr_scan"}}, {"name": "88247011bbb9495b39aa000034af44c6", "fusion_lat": 0.0, "type": "electric_scooter", "lat": 38.9318565, "is_reserved": 0, "is_disabled": 0, "fusion_lon": 0.0, "bike_id": "88247011bbb9495b39aa000034af44c6", "lon": -77.02784966666667, "rental_uris": {"ios": "https://dc.lft.to/lastmile_qr_scan", "android": "https://dc.lft.to/lastmile_qr_scan"}}, {"name": "5c73edf8c07ef2b35c7d73cfb9da15da", "fusion_lat": 0.0, "type": "electric_bike", "lat": 38.88637216666667, "is_reserved": 0, "is_disabled": 0, "fusion_lon": 0.0, "bike_id": "5c73edf8c07ef2b35c7d73cfb9da15da", "lon": -76.95463516666666, "rental_uris": {"ios": "https://dc.lft.to/lastmile_qr_scan", "android": "https://dc.lft.to/lastmile_qr_scan"}}, {"name": "37bc67166aa210f5e500d997ed6da3d8", "fusion_lat": 0.0, "type": "electric_scooter", "lat": 38.923827833333334, "is_reserved": 0, "is_disabled": 0, "fusion_lon": 0.0, "bike_id": "37bc67166aa210f5e500d997ed6da3d8", "lon": -77.029492, "rental_uris": {"ios": "https://dc.lft.to/lastmile_qr_scan", "android": "https://dc.lft.to/lastmile_qr_scan"}}, {"name": "6c5816d0a6f1cc0c74a48ff3840dd305", "fusion_lat": 0.0, "type": "electric_scooter", "lat": 38.906492666666665, "is_reserved": 0, "is_disabled": 0, "fusion_lon": 0.0, "bike_id": "6c5816d0a6f1cc0c74a48ff3840dd305", "lon": -76.98372533333334, "rental_uris": {"ios": "https://dc.lft.to/lastmile_qr_scan", "android": "https://dc.lft.to/lastmile_qr_scan"}}, {"name": "84e96c5b4f6fac0462cdee115a43bdcc", "fusion_lat": 0.0, "type": "electric_scooter", "lat": 38.90993383333333, "is_reserved": 0, "is_disabled": 0, "fusion_lon": 0.0, "bike_id": "84e96c5b4f6fac0462cdee115a43bdcc", "lon": -77.0401025, "rental_uris": {"ios": "https://dc.lft.to/lastmile_qr_scan", "android": "https://dc.lft.to/lastmile_qr_scan"}}, {"name": "1c2ad602a3399c69e9adaaf2f7086c29", "fusion_lat": 0.0, "type": "electric_scooter", "lat": 38.9142105, "is_reserved": 0, "is_disabled": 0, "fusion_lon": 0.0, "bike_id": "1c2ad602a3399c69e9adaaf2f7086c29", "lon": -77.04157966666666, "rental_uris": {"ios": "https://dc.lft.to/lastmile_qr_scan", "android": "https://dc.lft.to/lastmile_qr_scan"}}, {"name": "974d90da40c71b848fe37ed6af0d79e6", "fusion_lat": 0.0, "type": "electric_bike", "lat": 38.91405133333333, "is_reserved": 0, "is_disabled": 0, "fusion_lon": 0.0, "bike_id": "974d90da40c71b848fe37ed6af0d79e6", "lon": -77.03222216666667, "rental_uris": {"ios": "https://dc.lft.to/lastmile_qr_scan", "android": "https://dc.lft.to/lastmile_qr_scan"}}, {"name": "7fdefea87a1f6703673ca29a003ba398", "fusion_lat": 0.0, "type": "electric_scooter", "lat": 38.912535166666665, "is_reserved": 0, "is_disabled": 0, "fusion_lon": 0.0, "bike_id": "7fdefea87a1f6703673ca29a003ba398", "lon": -77.00775633333333, "rental_uris": {"ios": "https://dc.lft.to/lastmile_qr_scan", "android": "https://dc.lft.to/lastmile_qr_scan"}}, {"name": "0cc044b49ef95e347ad8079baa9327b5", "fusion_lat": 0.0, "type": "electric_scooter", "lat": 38.886099333333334, "is_reserved": 0, "is_disabled": 0, "fusion_lon": 0.0, "bike_id": "0cc044b49ef95e347ad8079baa9327b5", "lon": -76.97814416666667, "rental_uris": {"ios": "https://dc.lft.to/lastmile_qr_scan", "android": "https://dc.lft.to/lastmile_qr_scan"}}, {"name": "518faef8eb2acc0c5db9cc7c3d55f810", "fusion_lat": 0.0, "type": "electric_scooter", "lat": 38.92130183333333, "is_reserved": 0, "is_disabled": 0, "fusion_lon": 0.0, "bike_id": "518faef8eb2acc0c5db9cc7c3d55f810", "lon": -77.04577633333334, "rental_uris": {"ios": "https://dc.lft.to/lastmile_qr_scan", "android": "https://dc.lft.to/lastmile_qr_scan"}}, {"name": "6fd70498043daf73b4ae84c09e412989", "fusion_lat": 0.0, "type": "electric_bike", "lat": 38.898365, "is_reserved": 0, "is_disabled": 0, "fusion_lon": 0.0, "bike_id": "6fd70498043daf73b4ae84c09e412989", "lon": -77.1179655, "rental_uris": {"ios": "https://dc.lft.to/lastmile_qr_scan", "android": "https://dc.lft.to/lastmile_qr_scan"}}, {"name": "8691886f91e6ae79bdd89943670ba531", "fusion_lat": 0.0, "type": "electric_scooter", "lat": 38.93363466666667, "is_reserved": 0, "is_disabled": 0, "fusion_lon": 0.0, "bike_id": "8691886f91e6ae79bdd89943670ba531", "lon": -77.0572445, "rental_uris": {"ios": "https://dc.lft.to/lastmile_qr_scan", "android": "https://dc.lft.to/lastmile_qr_scan"}}, {"name": "15414241e809f96f3f8acff9c96bbbab", "fusion_lat": 0.0, "type": "electric_scooter", "lat": 38.93614433333333, "is_reserved": 0, "is_disabled": 0, "fusion_lon": 0.0, "bike_id": "15414241e809f96f3f8acff9c96bbbab", "lon": -77.05585066666667, "rental_uris": {"ios": "https://dc.lft.to/lastmile_qr_scan", "android": "https://dc.lft.to/lastmile_qr_scan"}}, {"name": "62ef45414acaf9303d0f8aaac3b51f84", "fusion_lat": 0.0, "type": "electric_scooter", "lat": 38.90031366666667, "is_reserved": 0, "is_disabled": 0, "fusion_lon": 0.0, "bike_id": "62ef45414acaf9303d0f8aaac3b51f84", "lon": -76.98847266666667, "rental_uris": {"ios": "https://dc.lft.to/lastmile_qr_scan", "android": "https://dc.lft.to/lastmile_qr_scan"}}, {"name": "2bdf5124edeceb87d0397bccc7d43728", "fusion_lat": 0.0, "type": "electric_scooter", "lat": 38.92446116666667, "is_reserved": 0, "is_disabled": 0, "fusion_lon": 0.0, "bike_id": "2bdf5124edeceb87d0397bccc7d43728", "lon": -77.03275083333334, "rental_uris": {"ios": "https://dc.lft.to/lastmile_qr_scan", "android": "https://dc.lft.to/lastmile_qr_scan"}}, {"name": "aba688f27d8e592e4b448f44d7c918f2", "fusion_lat": 0.0, "type": "electric_scooter", "lat": 38.9134685, "is_reserved": 0, "is_disabled": 0, "fusion_lon": 0.0, "bike_id": "aba688f27d8e592e4b448f44d7c918f2", "lon": -77.00345316666667, "rental_uris": {"ios": "https://dc.lft.to/lastmile_qr_scan", "android": "https://dc.lft.to/lastmile_qr_scan"}}, {"name": "1a9650c11ce1a1d9db354e91e79967c3", "fusion_lat": 0.0, "type": "electric_scooter", "lat": 38.90860883333333, "is_reserved": 0, "is_disabled": 0, "fusion_lon": 0.0, "bike_id": "1a9650c11ce1a1d9db354e91e79967c3", "lon": -77.085966, "rental_uris": {"ios": "https://dc.lft.to/lastmile_qr_scan", "android": "https://dc.lft.to/lastmile_qr_scan"}}, {"name": "d1db0a4bb5e45aa06d036f4ba4136498", "fusion_lat": 0.0, "type": "electric_scooter", "lat": 38.935557, "is_reserved": 0, "is_disabled": 0, "fusion_lon": 0.0, "bike_id": "d1db0a4bb5e45aa06d036f4ba4136498", "lon": -77.023698, "rental_uris": {"ios": "https://dc.lft.to/lastmile_qr_scan", "android": "https://dc.lft.to/lastmile_qr_scan"}}, {"name": "6967dff47c1f943a3d57465c793c7ab3", "fusion_lat": 0.0, "type": "electric_scooter", "lat": 38.93884583333333, "is_reserved": 0, "is_disabled": 0, "fusion_lon": 0.0, "bike_id": "6967dff47c1f943a3d57465c793c7ab3", "lon": -77.02461933333333, "rental_uris": {"ios": "https://dc.lft.to/lastmile_qr_scan", "android": "https://dc.lft.to/lastmile_qr_scan"}}, {"name": "2a04d1ffcf3519d272bd87d7049fd808", "fusion_lat": 0.0, "type": "electric_scooter", "lat": 38.92474933333333, "is_reserved": 0, "is_disabled": 0, "fusion_lon": 0.0, "bike_id": "2a04d1ffcf3519d272bd87d7049fd808", "lon": -77.02892566666667, "rental_uris": {"ios": "https://dc.lft.to/lastmile_qr_scan", "android": "https://dc.lft.to/lastmile_qr_scan"}}, {"name": "5b6b6b6dc5621f7feb28167f81f40c5b", "fusion_lat": 0.0, "type": "electric_scooter", "lat": 38.91109483333334, "is_reserved": 0, "is_disabled": 0, "fusion_lon": 0.0, "bike_id": "5b6b6b6dc5621f7feb28167f81f40c5b", "lon": -77.02463783333333, "rental_uris": {"ios": "https://dc.lft.to/lastmile_qr_scan", "android": "https://dc.lft.to/lastmile_qr_scan"}}, {"name": "895d6d3da94895066943a63eac2fcd78", "fusion_lat": 0.0, "type": "electric_scooter", "lat": 38.88372566666666, "is_reserved": 0, "is_disabled": 0, "fusion_lon": 0.0, "bike_id": "895d6d3da94895066943a63eac2fcd78", "lon": -76.92372033333334, "rental_uris": {"ios": "https://dc.lft.to/lastmile_qr_scan", "android": "https://dc.lft.to/lastmile_qr_scan"}}, {"name": "d84ee77ee116b1533169bc0bcfc7fdd4", "fusion_lat": 0.0, "type": "electric_scooter", "lat": 38.923618166666664, "is_reserved": 0, "is_disabled": 0, "fusion_lon": 0.0, "bike_id": "d84ee77ee116b1533169bc0bcfc7fdd4", "lon": -77.05834916666667, "rental_uris": {"ios": "https://dc.lft.to/lastmile_qr_scan", "android": "https://dc.lft.to/lastmile_qr_scan"}}, {"name": "d185dc7c6820289554a23ceb4192f28f", "fusion_lat": 0.0, "type": "electric_scooter", "lat": 38.92515216666666, "is_reserved": 0, "is_disabled": 0, "fusion_lon": 0.0, "bike_id": "d185dc7c6820289554a23ceb4192f28f", "lon": -77.001763, "rental_uris": {"ios": "https://dc.lft.to/lastmile_qr_scan", "android": "https://dc.lft.to/lastmile_qr_scan"}}, {"name": "d54717f22d8a22f03a3c9e4d152a818f", "fusion_lat": 0.0, "type": "electric_scooter", "lat": 38.8952925, "is_reserved": 0, "is_disabled": 0, "fusion_lon": 0.0, "bike_id": "d54717f22d8a22f03a3c9e4d152a818f", "lon": -77.01135183333334, "rental_uris": {"ios": "https://dc.lft.to/lastmile_qr_scan", "android": "https://dc.lft.to/lastmile_qr_scan"}}, {"name": "edd9a632d40d5f28e6ce1d9a2744deaf", "fusion_lat": 0.0, "type": "electric_scooter", "lat": 38.9127275, "is_reserved": 0, "is_disabled": 0, "fusion_lon": 0.0, "bike_id": "edd9a632d40d5f28e6ce1d9a2744deaf", "lon": -77.04504333333334, "rental_uris": {"ios": "https://dc.lft.to/lastmile_qr_scan", "android": "https://dc.lft.to/lastmile_qr_scan"}}, {"name": "18e7eb12261bf700e5ff83b673045f8a", "fusion_lat": 0.0, "type": "electric_scooter", "lat": 38.896166, "is_reserved": 0, "is_disabled": 0, "fusion_lon": 0.0, "bike_id": "18e7eb12261bf700e5ff83b673045f8a", "lon": -77.044635, "rental_uris": {"ios": "https://dc.lft.to/lastmile_qr_scan", "android": "https://dc.lft.to/lastmile_qr_scan"}}, {"name": "cb0aaf58622481c9640c5292e3b04955", "fusion_lat": 0.0, "type": "electric_scooter", "lat": 38.9284945, "is_reserved": 0, "is_disabled": 0, "fusion_lon": 0.0, "bike_id": "cb0aaf58622481c9640c5292e3b04955", "lon": -77.02737066666667, "rental_uris": {"ios": "https://dc.lft.to/lastmile_qr_scan", "android": "https://dc.lft.to/lastmile_qr_scan"}}, {"name": "8fd611b99e882431b90c9e7d0b40f21f", "fusion_lat": 0.0, "type": "electric_scooter", "lat": 38.919301833333336, "is_reserved": 0, "is_disabled": 0, "fusion_lon": 0.0, "bike_id": "8fd611b99e882431b90c9e7d0b40f21f", "lon": -77.03426966666666, "rental_uris": {"ios": "https://dc.lft.to/lastmile_qr_scan", "android": "https://dc.lft.to/lastmile_qr_scan"}}, {"name": "280d1b4492f639c98e1f4c3478b4fca2", "fusion_lat": 0.0, "type": "electric_scooter", "lat": 38.906761333333336, "is_reserved": 0, "is_disabled": 0, "fusion_lon": 0.0, "bike_id": "280d1b4492f639c98e1f4c3478b4fca2", "lon": -77.04642333333334, "rental_uris": {"ios": "https://dc.lft.to/lastmile_qr_scan", "android": "https://dc.lft.to/lastmile_qr_scan"}}, {"name": "b826e1b31b31995c6bdb3c4c3fa2ec35", "fusion_lat": 0.0, "type": "electric_scooter", "lat": 38.90197916666666, "is_reserved": 0, "is_disabled": 0, "fusion_lon": 0.0, "bike_id": "b826e1b31b31995c6bdb3c4c3fa2ec35", "lon": -76.98214, "rental_uris": {"ios": "https://dc.lft.to/lastmile_qr_scan", "android": "https://dc.lft.to/lastmile_qr_scan"}}, {"name": "7c6dc690d94041f38f623bca3dff5ed2", "fusion_lat": 0.0, "type": "electric_scooter", "lat": 38.90964233333333, "is_reserved": 0, "is_disabled": 0, "fusion_lon": 0.0, "bike_id": "7c6dc690d94041f38f623bca3dff5ed2", "lon": -77.02743883333333, "rental_uris": {"ios": "https://dc.lft.to/lastmile_qr_scan", "android": "https://dc.lft.to/lastmile_qr_scan"}}, {"name": "ab80d4bb3a61423d46cb1481e2f3a25b", "fusion_lat": 0.0, "type": "electric_scooter", "lat": 38.917627333333336, "is_reserved": 0, "is_disabled": 0, "fusion_lon": 0.0, "bike_id": "ab80d4bb3a61423d46cb1481e2f3a25b", "lon": -77.096743, "rental_uris": {"ios": "https://dc.lft.to/lastmile_qr_scan", "android": "https://dc.lft.to/lastmile_qr_scan"}}, {"name": "ea5f57ce4a9457f328ccb0ad7bc14a35", "fusion_lat": 0.0, "type": "electric_scooter", "lat": 38.925183, "is_reserved": 0, "is_disabled": 0, "fusion_lon": 0.0, "bike_id": "ea5f57ce4a9457f328ccb0ad7bc14a35", "lon": -77.03330883333334, "rental_uris": {"ios": "https://dc.lft.to/lastmile_qr_scan", "android": "https://dc.lft.to/lastmile_qr_scan"}}, {"name": "c470b8c3124b9768a0c467c6344d3ed6", "fusion_lat": 0.0, "type": "electric_scooter", "lat": 38.866559, "is_reserved": 0, "is_disabled": 0, "fusion_lon": 0.0, "bike_id": "c470b8c3124b9768a0c467c6344d3ed6", "lon": -76.988879, "rental_uris": {"ios": "https://dc.lft.to/lastmile_qr_scan", "android": "https://dc.lft.to/lastmile_qr_scan"}}, {"name": "d9af64cf4f192cc218c791a6b93c2de6", "fusion_lat": 0.0, "type": "electric_scooter", "lat": 38.91928133333333, "is_reserved": 0, "is_disabled": 0, "fusion_lon": 0.0, "bike_id": "d9af64cf4f192cc218c791a6b93c2de6", "lon": -77.041558, "rental_uris": {"ios": "https://dc.lft.to/lastmile_qr_scan", "android": "https://dc.lft.to/lastmile_qr_scan"}}, {"name": "19c5eadf1d69d2cca2ba9b50912100de", "fusion_lat": 0.0, "type": "electric_scooter", "lat": 38.92066283333333, "is_reserved": 0, "is_disabled": 0, "fusion_lon": 0.0, "bike_id": "19c5eadf1d69d2cca2ba9b50912100de", "lon": -76.97801749999999, "rental_uris": {"ios": "https://dc.lft.to/lastmile_qr_scan", "android": "https://dc.lft.to/lastmile_qr_scan"}}, {"name": "4aef843cd70613132a91fdcf31915bdc", "fusion_lat": 0.0, "type": "electric_scooter", "lat": 38.8654115, "is_reserved": 0, "is_disabled": 0, "fusion_lon": 0.0, "bike_id": "4aef843cd70613132a91fdcf31915bdc", "lon": -76.98708883333333, "rental_uris": {"ios": "https://dc.lft.to/lastmile_qr_scan", "android": "https://dc.lft.to/lastmile_qr_scan"}}, {"name": "b4d942da8f0e5944b5ccbba8392579e2", "fusion_lat": 0.0, "type": "electric_scooter", "lat": 38.92757566666667, "is_reserved": 0, "is_disabled": 0, "fusion_lon": 0.0, "bike_id": "b4d942da8f0e5944b5ccbba8392579e2", "lon": -77.032785, "rental_uris": {"ios": "https://dc.lft.to/lastmile_qr_scan", "android": "https://dc.lft.to/lastmile_qr_scan"}}, {"name": "c46c7f4fcd423b35f311427dadd68199", "fusion_lat": 0.0, "type": "electric_scooter", "lat": 38.92629, "is_reserved": 0, "is_disabled": 0, "fusion_lon": 0.0, "bike_id": "c46c7f4fcd423b35f311427dadd68199", "lon": -77.03510716666666, "rental_uris": {"ios": "https://dc.lft.to/lastmile_qr_scan", "android": "https://dc.lft.to/lastmile_qr_scan"}}, {"name": "a73b13c960de547412ab4ce572e8e7f3", "fusion_lat": 0.0, "type": "electric_scooter", "lat": 38.904857166666666, "is_reserved": 0, "is_disabled": 0, "fusion_lon": 0.0, "bike_id": "a73b13c960de547412ab4ce572e8e7f3", "lon": -77.0271915, "rental_uris": {"ios": "https://dc.lft.to/lastmile_qr_scan", "android": "https://dc.lft.to/lastmile_qr_scan"}}, {"name": "e5afcda14e57b18219da49cfcaa6f620", "fusion_lat": 0.0, "type": "electric_scooter", "lat": 38.91723316666667, "is_reserved": 0, "is_disabled": 0, "fusion_lon": 0.0, "bike_id": "e5afcda14e57b18219da49cfcaa6f620", "lon": -77.008166, "rental_uris": {"ios": "https://dc.lft.to/lastmile_qr_scan", "android": "https://dc.lft.to/lastmile_qr_scan"}}, {"name": "ccf4a5515b0edbe08eaa81479494766f", "fusion_lat": 0.0, "type": "electric_scooter", "lat": 38.91910333333333, "is_reserved": 0, "is_disabled": 0, "fusion_lon": 0.0, "bike_id": "ccf4a5515b0edbe08eaa81479494766f", "lon": -77.02414066666667, "rental_uris": {"ios": "https://dc.lft.to/lastmile_qr_scan", "android": "https://dc.lft.to/lastmile_qr_scan"}}, {"name": "2f8c8aa98de997591e55b155c2ad4588", "fusion_lat": 0.0, "type": "electric_scooter", "lat": 38.90776683333333, "is_reserved": 0, "is_disabled": 0, "fusion_lon": 0.0, "bike_id": "2f8c8aa98de997591e55b155c2ad4588", "lon": -77.038656, "rental_uris": {"ios": "https://dc.lft.to/lastmile_qr_scan", "android": "https://dc.lft.to/lastmile_qr_scan"}}, {"name": "7734a65e0f20eed57046313d49951f60", "fusion_lat": 0.0, "type": "electric_scooter", "lat": 38.9251505, "is_reserved": 0, "is_disabled": 0, "fusion_lon": 0.0, "bike_id": "7734a65e0f20eed57046313d49951f60", "lon": -77.02562266666666, "rental_uris": {"ios": "https://dc.lft.to/lastmile_qr_scan", "android": "https://dc.lft.to/lastmile_qr_scan"}}, {"name": "fd6edcea9498731f057a5422c3ba6b50", "fusion_lat": 0.0, "type": "electric_bike", "lat": 38.96438466666667, "is_reserved": 0, "is_disabled": 0, "fusion_lon": 0.0, "bike_id": "fd6edcea9498731f057a5422c3ba6b50", "lon": -77.03164, "rental_uris": {"ios": "https://dc.lft.to/lastmile_qr_scan", "android": "https://dc.lft.to/lastmile_qr_scan"}}, {"name": "2ef176e1610ed51c165b457a942ea0d4", "fusion_lat": 0.0, "type": "electric_scooter", "lat": 38.91099883333333, "is_reserved": 0, "is_disabled": 0, "fusion_lon": 0.0, "bike_id": "2ef176e1610ed51c165b457a942ea0d4", "lon": -77.02973183333333, "rental_uris": {"ios": "https://dc.lft.to/lastmile_qr_scan", "android": "https://dc.lft.to/lastmile_qr_scan"}}, {"name": "ae9a741c622783fda829e78972768b94", "fusion_lat": 0.0, "type": "electric_scooter", "lat": 38.90922033333333, "is_reserved": 0, "is_disabled": 0, "fusion_lon": 0.0, "bike_id": "ae9a741c622783fda829e78972768b94", "lon": -77.04160816666666, "rental_uris": {"ios": "https://dc.lft.to/lastmile_qr_scan", "android": "https://dc.lft.to/lastmile_qr_scan"}}, {"name": "43688d2075c226d00213e2c2f85a0b1a", "fusion_lat": 0.0, "type": "electric_scooter", "lat": 38.88315, "is_reserved": 0, "is_disabled": 0, "fusion_lon": 0.0, "bike_id": "43688d2075c226d00213e2c2f85a0b1a", "lon": -77.0153145, "rental_uris": {"ios": "https://dc.lft.to/lastmile_qr_scan", "android": "https://dc.lft.to/lastmile_qr_scan"}}, {"name": "464aa7cad3ea34eb5e4a2842a3c67d79", "fusion_lat": 0.0, "type": "electric_scooter", "lat": 38.9382485, "is_reserved": 0, "is_disabled": 0, "fusion_lon": 0.0, "bike_id": "464aa7cad3ea34eb5e4a2842a3c67d79", "lon": -77.03279283333333, "rental_uris": {"ios": "https://dc.lft.to/lastmile_qr_scan", "android": "https://dc.lft.to/lastmile_qr_scan"}}, {"name": "31f20aa3b98923477539f6afae2c7d8e", "fusion_lat": 0.0, "type": "electric_scooter", "lat": 38.90261366666667, "is_reserved": 0, "is_disabled": 0, "fusion_lon": 0.0, "bike_id": "31f20aa3b98923477539f6afae2c7d8e", "lon": -77.00930583333333, "rental_uris": {"ios": "https://dc.lft.to/lastmile_qr_scan", "android": "https://dc.lft.to/lastmile_qr_scan"}}, {"name": "3fd835b489ed3615c7e3a292760cabaf", "fusion_lat": 0.0, "type": "electric_scooter", "lat": 38.910134166666666, "is_reserved": 0, "is_disabled": 0, "fusion_lon": 0.0, "bike_id": "3fd835b489ed3615c7e3a292760cabaf", "lon": -77.0219485, "rental_uris": {"ios": "https://dc.lft.to/lastmile_qr_scan", "android": "https://dc.lft.to/lastmile_qr_scan"}}, {"name": "f45931726cc5a8a11a085b9dad38e41c", "fusion_lat": 0.0, "type": "electric_scooter", "lat": 38.923741666666665, "is_reserved": 0, "is_disabled": 0, "fusion_lon": 0.0, "bike_id": "f45931726cc5a8a11a085b9dad38e41c", "lon": -77.03129616666666, "rental_uris": {"ios": "https://dc.lft.to/lastmile_qr_scan", "android": "https://dc.lft.to/lastmile_qr_scan"}}, {"name": "269bb1e11f37bf5bc72b0111606e994c", "fusion_lat": 0.0, "type": "electric_scooter", "lat": 38.908954, "is_reserved": 0, "is_disabled": 0, "fusion_lon": 0.0, "bike_id": "269bb1e11f37bf5bc72b0111606e994c", "lon": -77.03143533333333, "rental_uris": {"ios": "https://dc.lft.to/lastmile_qr_scan", "android": "https://dc.lft.to/lastmile_qr_scan"}}, {"name": "1fc78708c37e80236074a1e352779594", "fusion_lat": 0.0, "type": "electric_scooter", "lat": 38.89475, "is_reserved": 0, "is_disabled": 0, "fusion_lon": 0.0, "bike_id": "1fc78708c37e80236074a1e352779594", "lon": -77.03053716666666, "rental_uris": {"ios": "https://dc.lft.to/lastmile_qr_scan", "android": "https://dc.lft.to/lastmile_qr_scan"}}, {"name": "d870470a6b9ea4e03be7b6a1652986a6", "fusion_lat": 0.0, "type": "electric_scooter", "lat": 38.92493983333333, "is_reserved": 0, "is_disabled": 0, "fusion_lon": 0.0, "bike_id": "d870470a6b9ea4e03be7b6a1652986a6", "lon": -77.07329266666666, "rental_uris": {"ios": "https://dc.lft.to/lastmile_qr_scan", "android": "https://dc.lft.to/lastmile_qr_scan"}}, {"name": "ffa617512e8ecd6e6eda27a3739f256b", "fusion_lat": 0.0, "type": "electric_scooter", "lat": 38.8650385, "is_reserved": 0, "is_disabled": 0, "fusion_lon": 0.0, "bike_id": "ffa617512e8ecd6e6eda27a3739f256b", "lon": -76.99007933333333, "rental_uris": {"ios": "https://dc.lft.to/lastmile_qr_scan", "android": "https://dc.lft.to/lastmile_qr_scan"}}, {"name": "091d767b4071d16643b3e600998889bf", "fusion_lat": 0.0, "type": "electric_bike", "lat": 38.92044716666667, "is_reserved": 0, "is_disabled": 0, "fusion_lon": 0.0, "bike_id": "091d767b4071d16643b3e600998889bf", "lon": -77.00355433333333, "rental_uris": {"ios": "https://dc.lft.to/lastmile_qr_scan", "android": "https://dc.lft.to/lastmile_qr_scan"}}, {"name": "b651562bc2e0fe01aff37b1012013a3b", "fusion_lat": 0.0, "type": "electric_scooter", "lat": 38.90484266666667, "is_reserved": 0, "is_disabled": 0, "fusion_lon": 0.0, "bike_id": "b651562bc2e0fe01aff37b1012013a3b", "lon": -77.02808366666666, "rental_uris": {"ios": "https://dc.lft.to/lastmile_qr_scan", "android": "https://dc.lft.to/lastmile_qr_scan"}}, {"name": "1b19cd0a288ca079541d425cfae1e0ef", "fusion_lat": 0.0, "type": "electric_scooter", "lat": 38.921029833333336, "is_reserved": 0, "is_disabled": 0, "fusion_lon": 0.0, "bike_id": "1b19cd0a288ca079541d425cfae1e0ef", "lon": -77.02983833333333, "rental_uris": {"ios": "https://dc.lft.to/lastmile_qr_scan", "android": "https://dc.lft.to/lastmile_qr_scan"}}, {"name": "4e460e37baa6f57b1249e5a8cb35e75e", "fusion_lat": 0.0, "type": "electric_scooter", "lat": 38.912202666666666, "is_reserved": 0, "is_disabled": 0, "fusion_lon": 0.0, "bike_id": "4e460e37baa6f57b1249e5a8cb35e75e", "lon": -77.01210216666666, "rental_uris": {"ios": "https://dc.lft.to/lastmile_qr_scan", "android": "https://dc.lft.to/lastmile_qr_scan"}}, {"name": "62b80f25bc7db151e16edc79ee1713cf", "fusion_lat": 0.0, "type": "electric_scooter", "lat": 38.941100166666665, "is_reserved": 0, "is_disabled": 0, "fusion_lon": 0.0, "bike_id": "62b80f25bc7db151e16edc79ee1713cf", "lon": -77.02664716666666, "rental_uris": {"ios": "https://dc.lft.to/lastmile_qr_scan", "android": "https://dc.lft.to/lastmile_qr_scan"}}, {"name": "2909f68d30fa5a70588bb6bcbc810fd5", "fusion_lat": 0.0, "type": "electric_bike", "lat": 38.92866883333333, "is_reserved": 0, "is_disabled": 0, "fusion_lon": 0.0, "bike_id": "2909f68d30fa5a70588bb6bcbc810fd5", "lon": -76.96108516666666, "rental_uris": {"ios": "https://dc.lft.to/lastmile_qr_scan", "android": "https://dc.lft.to/lastmile_qr_scan"}}, {"name": "893a239dc6938df16eb36096cc3b4c62", "fusion_lat": 0.0, "type": "electric_scooter", "lat": 38.90206583333333, "is_reserved": 0, "is_disabled": 0, "fusion_lon": 0.0, "bike_id": "893a239dc6938df16eb36096cc3b4c62", "lon": -76.98819633333333, "rental_uris": {"ios": "https://dc.lft.to/lastmile_qr_scan", "android": "https://dc.lft.to/lastmile_qr_scan"}}, {"name": "2641857d7ee0250f022fa3375a682c8f", "fusion_lat": 0.0, "type": "electric_scooter", "lat": 38.864590166666666, "is_reserved": 0, "is_disabled": 0, "fusion_lon": 0.0, "bike_id": "2641857d7ee0250f022fa3375a682c8f", "lon": -76.98247816666667, "rental_uris": {"ios": "https://dc.lft.to/lastmile_qr_scan", "android": "https://dc.lft.to/lastmile_qr_scan"}}, {"name": "9fe33b5e83ab2754d359c1f0671b3bf7", "fusion_lat": 0.0, "type": "electric_scooter", "lat": 38.90429783333333, "is_reserved": 0, "is_disabled": 0, "fusion_lon": 0.0, "bike_id": "9fe33b5e83ab2754d359c1f0671b3bf7", "lon": -77.05342566666667, "rental_uris": {"ios": "https://dc.lft.to/lastmile_qr_scan", "android": "https://dc.lft.to/lastmile_qr_scan"}}, {"name": "52bfa6b913d2eae726aaf6df3272fc57", "fusion_lat": 0.0, "type": "electric_scooter", "lat": 38.96562183333333, "is_reserved": 0, "is_disabled": 0, "fusion_lon": 0.0, "bike_id": "52bfa6b913d2eae726aaf6df3272fc57", "lon": -77.01631716666667, "rental_uris": {"ios": "https://dc.lft.to/lastmile_qr_scan", "android": "https://dc.lft.to/lastmile_qr_scan"}}, {"name": "3678af94154bfb2a2a1fcd6118ca332f", "fusion_lat": 0.0, "type": "electric_scooter", "lat": 38.906373333333335, "is_reserved": 0, "is_disabled": 0, "fusion_lon": 0.0, "bike_id": "3678af94154bfb2a2a1fcd6118ca332f", "lon": -77.02613433333333, "rental_uris": {"ios": "https://dc.lft.to/lastmile_qr_scan", "android": "https://dc.lft.to/lastmile_qr_scan"}}, {"name": "92c594fd47abb6b78292bc491d24b053", "fusion_lat": 0.0, "type": "electric_scooter", "lat": 38.938669833333336, "is_reserved": 0, "is_disabled": 0, "fusion_lon": 0.0, "bike_id": "92c594fd47abb6b78292bc491d24b053", "lon": -77.02648133333334, "rental_uris": {"ios": "https://dc.lft.to/lastmile_qr_scan", "android": "https://dc.lft.to/lastmile_qr_scan"}}, {"name": "05d577f44eb0da18e8f973b36b217ed9", "fusion_lat": 0.0, "type": "electric_scooter", "lat": 38.92251533333334, "is_reserved": 0, "is_disabled": 0, "fusion_lon": 0.0, "bike_id": "05d577f44eb0da18e8f973b36b217ed9", "lon": -77.03076133333333, "rental_uris": {"ios": "https://dc.lft.to/lastmile_qr_scan", "android": "https://dc.lft.to/lastmile_qr_scan"}}, {"name": "07f0eccc830c4fb0c0371a0c07af02b6", "fusion_lat": 0.0, "type": "electric_scooter", "lat": 38.8624865, "is_reserved": 0, "is_disabled": 0, "fusion_lon": 0.0, "bike_id": "07f0eccc830c4fb0c0371a0c07af02b6", "lon": -76.99530966666667, "rental_uris": {"ios": "https://dc.lft.to/lastmile_qr_scan", "android": "https://dc.lft.to/lastmile_qr_scan"}}, {"name": "c2bb19a2f4111f535917b861adbff085", "fusion_lat": 0.0, "type": "electric_scooter", "lat": 38.93732133333334, "is_reserved": 0, "is_disabled": 0, "fusion_lon": 0.0, "bike_id": "c2bb19a2f4111f535917b861adbff085", "lon": -77.0328645, "rental_uris": {"ios": "https://dc.lft.to/lastmile_qr_scan", "android": "https://dc.lft.to/lastmile_qr_scan"}}, {"name": "8360d5e0228797830fd58f9bb0c0d5ec", "fusion_lat": 0.0, "type": "electric_scooter", "lat": 38.902435, "is_reserved": 0, "is_disabled": 0, "fusion_lon": 0.0, "bike_id": "8360d5e0228797830fd58f9bb0c0d5ec", "lon": -77.01972666666667, "rental_uris": {"ios": "https://dc.lft.to/lastmile_qr_scan", "android": "https://dc.lft.to/lastmile_qr_scan"}}, {"name": "daf91f504719b9449ae26443a36371d0", "fusion_lat": 0.0, "type": "electric_scooter", "lat": 38.91291283333333, "is_reserved": 0, "is_disabled": 0, "fusion_lon": 0.0, "bike_id": "daf91f504719b9449ae26443a36371d0", "lon": -77.06113466666666, "rental_uris": {"ios": "https://dc.lft.to/lastmile_qr_scan", "android": "https://dc.lft.to/lastmile_qr_scan"}}, {"name": "56c3f956480780e25d0e55d750df47c6", "fusion_lat": 0.0, "type": "electric_scooter", "lat": 38.8772135, "is_reserved": 0, "is_disabled": 0, "fusion_lon": 0.0, "bike_id": "56c3f956480780e25d0e55d750df47c6", "lon": -76.99389733333334, "rental_uris": {"ios": "https://dc.lft.to/lastmile_qr_scan", "android": "https://dc.lft.to/lastmile_qr_scan"}}, {"name": "aec34d7ea2924fda53542bf8cfec1f02", "fusion_lat": 0.0, "type": "electric_scooter", "lat": 38.90742733333333, "is_reserved": 0, "is_disabled": 0, "fusion_lon": 0.0, "bike_id": "aec34d7ea2924fda53542bf8cfec1f02", "lon": -77.0434795, "rental_uris": {"ios": "https://dc.lft.to/lastmile_qr_scan", "android": "https://dc.lft.to/lastmile_qr_scan"}}, {"name": "03613b233699f564770c2168467673b1", "fusion_lat": 0.0, "type": "electric_scooter", "lat": 38.90517033333333, "is_reserved": 0, "is_disabled": 0, "fusion_lon": 0.0, "bike_id": "03613b233699f564770c2168467673b1", "lon": -77.052327, "rental_uris": {"ios": "https://dc.lft.to/lastmile_qr_scan", "android": "https://dc.lft.to/lastmile_qr_scan"}}, {"name": "4aea56be0f66facdc5ce925177f7148b", "fusion_lat": 0.0, "type": "electric_scooter", "lat": 38.94252066666667, "is_reserved": 0, "is_disabled": 0, "fusion_lon": 0.0, "bike_id": "4aea56be0f66facdc5ce925177f7148b", "lon": -77.04132883333334, "rental_uris": {"ios": "https://dc.lft.to/lastmile_qr_scan", "android": "https://dc.lft.to/lastmile_qr_scan"}}, {"name": "56790607905b223e1237d14202825c64", "fusion_lat": 0.0, "type": "electric_scooter", "lat": 38.9026075, "is_reserved": 0, "is_disabled": 0, "fusion_lon": 0.0, "bike_id": "56790607905b223e1237d14202825c64", "lon": -77.02655133333333, "rental_uris": {"ios": "https://dc.lft.to/lastmile_qr_scan", "android": "https://dc.lft.to/lastmile_qr_scan"}}, {"name": "f34aae59354b73e6dda0830668588550", "fusion_lat": 0.0, "type": "electric_scooter", "lat": 38.907330333333334, "is_reserved": 0, "is_disabled": 0, "fusion_lon": 0.0, "bike_id": "f34aae59354b73e6dda0830668588550", "lon": -77.010672, "rental_uris": {"ios": "https://dc.lft.to/lastmile_qr_scan", "android": "https://dc.lft.to/lastmile_qr_scan"}}, {"name": "aba2afb8fa0227ec7820d6c3aefecce1", "fusion_lat": 0.0, "type": "electric_bike", "lat": 38.87753433333334, "is_reserved": 0, "is_disabled": 0, "fusion_lon": 0.0, "bike_id": "aba2afb8fa0227ec7820d6c3aefecce1", "lon": -76.97987633333334, "rental_uris": {"ios": "https://dc.lft.to/lastmile_qr_scan", "android": "https://dc.lft.to/lastmile_qr_scan"}}, {"name": "3cc2388abdb4a71c00409c41d2085908", "fusion_lat": 0.0, "type": "electric_scooter", "lat": 38.909686, "is_reserved": 0, "is_disabled": 0, "fusion_lon": 0.0, "bike_id": "3cc2388abdb4a71c00409c41d2085908", "lon": -77.01118466666667, "rental_uris": {"ios": "https://dc.lft.to/lastmile_qr_scan", "android": "https://dc.lft.to/lastmile_qr_scan"}}, {"name": "1dfb62a35f84a469425d1e5d73b4109c", "fusion_lat": 0.0, "type": "electric_bike", "lat": 38.93963433333333, "is_reserved": 0, "is_disabled": 0, "fusion_lon": 0.0, "bike_id": "1dfb62a35f84a469425d1e5d73b4109c", "lon": -77.3608995, "rental_uris": {"ios": "https://dc.lft.to/lastmile_qr_scan", "android": "https://dc.lft.to/lastmile_qr_scan"}}, {"name": "0d48f71c8b64ea16d091fffcafa47183", "fusion_lat": 0.0, "type": "electric_scooter", "lat": 38.90022733333333, "is_reserved": 0, "is_disabled": 0, "fusion_lon": 0.0, "bike_id": "0d48f71c8b64ea16d091fffcafa47183", "lon": -77.03335583333333, "rental_uris": {"ios": "https://dc.lft.to/lastmile_qr_scan", "android": "https://dc.lft.to/lastmile_qr_scan"}}, {"name": "505c9f303344f0a0f2625a4f9a7ebdda", "fusion_lat": 0.0, "type": "electric_bike", "lat": 38.959287, "is_reserved": 0, "is_disabled": 0, "fusion_lon": 0.0, "bike_id": "505c9f303344f0a0f2625a4f9a7ebdda", "lon": -76.92538083333334, "rental_uris": {"ios": "https://dc.lft.to/lastmile_qr_scan", "android": "https://dc.lft.to/lastmile_qr_scan"}}, {"name": "7ec43a41b1afecec3f4f5873cfe57842", "fusion_lat": 0.0, "type": "electric_scooter", "lat": 38.917067833333334, "is_reserved": 0, "is_disabled": 0, "fusion_lon": 0.0, "bike_id": "7ec43a41b1afecec3f4f5873cfe57842", "lon": -77.041727, "rental_uris": {"ios": "https://dc.lft.to/lastmile_qr_scan", "android": "https://dc.lft.to/lastmile_qr_scan"}}, {"name": "c132ba961b2d2907697ca445d6842a8e", "fusion_lat": 0.0, "type": "electric_scooter", "lat": 38.90438983333333, "is_reserved": 0, "is_disabled": 0, "fusion_lon": 0.0, "bike_id": "c132ba961b2d2907697ca445d6842a8e", "lon": -77.02850366666667, "rental_uris": {"ios": "https://dc.lft.to/lastmile_qr_scan", "android": "https://dc.lft.to/lastmile_qr_scan"}}, {"name": "31b36efb6cbbc00ed984ca89733a27ab", "fusion_lat": 0.0, "type": "electric_scooter", "lat": 38.90814966666667, "is_reserved": 0, "is_disabled": 0, "fusion_lon": 0.0, "bike_id": "31b36efb6cbbc00ed984ca89733a27ab", "lon": -77.03939583333333, "rental_uris": {"ios": "https://dc.lft.to/lastmile_qr_scan", "android": "https://dc.lft.to/lastmile_qr_scan"}}, {"name": "c8f117c98f543a919050dc24af64a7d3", "fusion_lat": 0.0, "type": "electric_scooter", "lat": 38.90381566666667, "is_reserved": 0, "is_disabled": 0, "fusion_lon": 0.0, "bike_id": "c8f117c98f543a919050dc24af64a7d3", "lon": -77.0069675, "rental_uris": {"ios": "https://dc.lft.to/lastmile_qr_scan", "android": "https://dc.lft.to/lastmile_qr_scan"}}, {"name": "ce43d4c1a7b9f0dd20e87bf0e4907460", "fusion_lat": 0.0, "type": "electric_scooter", "lat": 38.975012666666665, "is_reserved": 0, "is_disabled": 0, "fusion_lon": 0.0, "bike_id": "ce43d4c1a7b9f0dd20e87bf0e4907460", "lon": -77.01697183333333, "rental_uris": {"ios": "https://dc.lft.to/lastmile_qr_scan", "android": "https://dc.lft.to/lastmile_qr_scan"}}, {"name": "2e4273fef9a52fb7f141b93e60b60ccb", "fusion_lat": 0.0, "type": "electric_scooter", "lat": 38.928279, "is_reserved": 0, "is_disabled": 0, "fusion_lon": 0.0, "bike_id": "2e4273fef9a52fb7f141b93e60b60ccb", "lon": -77.02255433333333, "rental_uris": {"ios": "https://dc.lft.to/lastmile_qr_scan", "android": "https://dc.lft.to/lastmile_qr_scan"}}, {"name": "0613662501c0b90e2c2b2c4f3635bb38", "fusion_lat": 0.0, "type": "electric_scooter", "lat": 38.9000455, "is_reserved": 0, "is_disabled": 0, "fusion_lon": 0.0, "bike_id": "0613662501c0b90e2c2b2c4f3635bb38", "lon": -77.053362, "rental_uris": {"ios": "https://dc.lft.to/lastmile_qr_scan", "android": "https://dc.lft.to/lastmile_qr_scan"}}, {"name": "3724160d90b98a5bd63431f0f0d20c65", "fusion_lat": 0.0, "type": "electric_scooter", "lat": 38.92649566666667, "is_reserved": 0, "is_disabled": 0, "fusion_lon": 0.0, "bike_id": "3724160d90b98a5bd63431f0f0d20c65", "lon": -77.037292, "rental_uris": {"ios": "https://dc.lft.to/lastmile_qr_scan", "android": "https://dc.lft.to/lastmile_qr_scan"}}, {"name": "bcffa488991fcd9e5358f7aad4b9f01d", "fusion_lat": 0.0, "type": "electric_scooter", "lat": 38.869600166666665, "is_reserved": 0, "is_disabled": 0, "fusion_lon": 0.0, "bike_id": "bcffa488991fcd9e5358f7aad4b9f01d", "lon": -77.01374866666667, "rental_uris": {"ios": "https://dc.lft.to/lastmile_qr_scan", "android": "https://dc.lft.to/lastmile_qr_scan"}}, {"name": "85ba44980340acb647560aef5b2491b6", "fusion_lat": 0.0, "type": "electric_scooter", "lat": 38.91056866666667, "is_reserved": 0, "is_disabled": 0, "fusion_lon": 0.0, "bike_id": "85ba44980340acb647560aef5b2491b6", "lon": -77.02190016666667, "rental_uris": {"ios": "https://dc.lft.to/lastmile_qr_scan", "android": "https://dc.lft.to/lastmile_qr_scan"}}, {"name": "f8887a39b48815dd02606dd3da03e441", "fusion_lat": 0.0, "type": "electric_scooter", "lat": 38.918166166666666, "is_reserved": 0, "is_disabled": 0, "fusion_lon": 0.0, "bike_id": "f8887a39b48815dd02606dd3da03e441", "lon": -77.03447416666667, "rental_uris": {"ios": "https://dc.lft.to/lastmile_qr_scan", "android": "https://dc.lft.to/lastmile_qr_scan"}}, {"name": "2ed262113d36380e288357dc9b0f2494", "fusion_lat": 0.0, "type": "electric_scooter", "lat": 38.90142983333333, "is_reserved": 0, "is_disabled": 0, "fusion_lon": 0.0, "bike_id": "2ed262113d36380e288357dc9b0f2494", "lon": -77.00059216666666, "rental_uris": {"ios": "https://dc.lft.to/lastmile_qr_scan", "android": "https://dc.lft.to/lastmile_qr_scan"}}, {"name": "d2747cbc450a5ef4712570a73af5149d", "fusion_lat": 0.0, "type": "electric_bike", "lat": 38.953329333333336, "is_reserved": 0, "is_disabled": 0, "fusion_lon": 0.0, "bike_id": "d2747cbc450a5ef4712570a73af5149d", "lon": -76.97830216666667, "rental_uris": {"ios": "https://dc.lft.to/lastmile_qr_scan", "android": "https://dc.lft.to/lastmile_qr_scan"}}, {"name": "1bbdb43b7d8464f857aa9a96ff3a7d27", "fusion_lat": 0.0, "type": "electric_scooter", "lat": 38.91236766666667, "is_reserved": 0, "is_disabled": 0, "fusion_lon": 0.0, "bike_id": "1bbdb43b7d8464f857aa9a96ff3a7d27", "lon": -77.0487805, "rental_uris": {"ios": "https://dc.lft.to/lastmile_qr_scan", "android": "https://dc.lft.to/lastmile_qr_scan"}}, {"name": "9fae3221aae9ff5bdd8083996d697951", "fusion_lat": 0.0, "type": "electric_scooter", "lat": 38.89546716666667, "is_reserved": 0, "is_disabled": 0, "fusion_lon": 0.0, "bike_id": "9fae3221aae9ff5bdd8083996d697951", "lon": -76.94881366666667, "rental_uris": {"ios": "https://dc.lft.to/lastmile_qr_scan", "android": "https://dc.lft.to/lastmile_qr_scan"}}, {"name": "03e914146c69abb5215a611f4b863843", "fusion_lat": 0.0, "type": "electric_bike", "lat": 38.90004183333333, "is_reserved": 0, "is_disabled": 0, "fusion_lon": 0.0, "bike_id": "03e914146c69abb5215a611f4b863843", "lon": -76.99848516666667, "rental_uris": {"ios": "https://dc.lft.to/lastmile_qr_scan", "android": "https://dc.lft.to/lastmile_qr_scan"}}, {"name": "b8dfe0a1d8b834743b9c129d287ac132", "fusion_lat": 0.0, "type": "electric_scooter", "lat": 38.927388666666666, "is_reserved": 0, "is_disabled": 0, "fusion_lon": 0.0, "bike_id": "b8dfe0a1d8b834743b9c129d287ac132", "lon": -77.02494183333333, "rental_uris": {"ios": "https://dc.lft.to/lastmile_qr_scan", "android": "https://dc.lft.to/lastmile_qr_scan"}}, {"name": "241efe84ab832189ff41a28c86f7d39d", "fusion_lat": 0.0, "type": "electric_scooter", "lat": 38.92880183333333, "is_reserved": 0, "is_disabled": 0, "fusion_lon": 0.0, "bike_id": "241efe84ab832189ff41a28c86f7d39d", "lon": -77.02711066666667, "rental_uris": {"ios": "https://dc.lft.to/lastmile_qr_scan", "android": "https://dc.lft.to/lastmile_qr_scan"}}, {"name": "7c502cbafb11029b76aa34d5a7411f91", "fusion_lat": 0.0, "type": "electric_scooter", "lat": 38.9116935, "is_reserved": 0, "is_disabled": 0, "fusion_lon": 0.0, "bike_id": "7c502cbafb11029b76aa34d5a7411f91", "lon": -77.03183133333333, "rental_uris": {"ios": "https://dc.lft.to/lastmile_qr_scan", "android": "https://dc.lft.to/lastmile_qr_scan"}}, {"name": "3f16231ed49b959941f089d30f5606a6", "fusion_lat": 0.0, "type": "electric_scooter", "lat": 38.90254866666667, "is_reserved": 0, "is_disabled": 0, "fusion_lon": 0.0, "bike_id": "3f16231ed49b959941f089d30f5606a6", "lon": -77.03987233333334, "rental_uris": {"ios": "https://dc.lft.to/lastmile_qr_scan", "android": "https://dc.lft.to/lastmile_qr_scan"}}, {"name": "18e4249e3fd4c7929dfe87b1ac96dba0", "fusion_lat": 0.0, "type": "electric_scooter", "lat": 38.89966183333333, "is_reserved": 0, "is_disabled": 0, "fusion_lon": 0.0, "bike_id": "18e4249e3fd4c7929dfe87b1ac96dba0", "lon": -77.05293783333333, "rental_uris": {"ios": "https://dc.lft.to/lastmile_qr_scan", "android": "https://dc.lft.to/lastmile_qr_scan"}}, {"name": "ba0ccbd872d25a85da4a27c5b647ecd1", "fusion_lat": 0.0, "type": "electric_scooter", "lat": 38.92744183333333, "is_reserved": 0, "is_disabled": 0, "fusion_lon": 0.0, "bike_id": "ba0ccbd872d25a85da4a27c5b647ecd1", "lon": -77.022501, "rental_uris": {"ios": "https://dc.lft.to/lastmile_qr_scan", "android": "https://dc.lft.to/lastmile_qr_scan"}}, {"name": "7308d18c663ee33fbbff499f9d3c05f9", "fusion_lat": 0.0, "type": "electric_scooter", "lat": 38.907311166666666, "is_reserved": 0, "is_disabled": 0, "fusion_lon": 0.0, "bike_id": "7308d18c663ee33fbbff499f9d3c05f9", "lon": -77.03191033333333, "rental_uris": {"ios": "https://dc.lft.to/lastmile_qr_scan", "android": "https://dc.lft.to/lastmile_qr_scan"}}, {"name": "ed372c8985545b142fe1a72a69a3e28f", "fusion_lat": 0.0, "type": "electric_scooter", "lat": 38.87829266666667, "is_reserved": 0, "is_disabled": 0, "fusion_lon": 0.0, "bike_id": "ed372c8985545b142fe1a72a69a3e28f", "lon": -76.98614133333334, "rental_uris": {"ios": "https://dc.lft.to/lastmile_qr_scan", "android": "https://dc.lft.to/lastmile_qr_scan"}}, {"name": "675bb3b89ffdaeb46c3ab45ae11166e7", "fusion_lat": 0.0, "type": "electric_scooter", "lat": 38.883259333333335, "is_reserved": 0, "is_disabled": 0, "fusion_lon": 0.0, "bike_id": "675bb3b89ffdaeb46c3ab45ae11166e7", "lon": -77.01541166666667, "rental_uris": {"ios": "https://dc.lft.to/lastmile_qr_scan", "android": "https://dc.lft.to/lastmile_qr_scan"}}, {"name": "a2fb5e98062edc8b14455c528542d076", "fusion_lat": 0.0, "type": "electric_scooter", "lat": 38.9013265, "is_reserved": 0, "is_disabled": 0, "fusion_lon": 0.0, "bike_id": "a2fb5e98062edc8b14455c528542d076", "lon": -77.04701833333333, "rental_uris": {"ios": "https://dc.lft.to/lastmile_qr_scan", "android": "https://dc.lft.to/lastmile_qr_scan"}}, {"name": "36bfdf774b046f83b2c2f9ff28a1212d", "fusion_lat": 0.0, "type": "electric_scooter", "lat": 38.93913916666666, "is_reserved": 0, "is_disabled": 0, "fusion_lon": 0.0, "bike_id": "36bfdf774b046f83b2c2f9ff28a1212d", "lon": -77.0604525, "rental_uris": {"ios": "https://dc.lft.to/lastmile_qr_scan", "android": "https://dc.lft.to/lastmile_qr_scan"}}, {"name": "b99e529ef927caa9e7f7846652ef25cf", "fusion_lat": 0.0, "type": "electric_scooter", "lat": 38.9101245, "is_reserved": 0, "is_disabled": 0, "fusion_lon": 0.0, "bike_id": "b99e529ef927caa9e7f7846652ef25cf", "lon": -76.99677266666667, "rental_uris": {"ios": "https://dc.lft.to/lastmile_qr_scan", "android": "https://dc.lft.to/lastmile_qr_scan"}}, {"name": "96af579b3bc02aecd9e74a4175ceb6ca", "fusion_lat": 0.0, "type": "electric_scooter", "lat": 38.90560816666667, "is_reserved": 0, "is_disabled": 0, "fusion_lon": 0.0, "bike_id": "96af579b3bc02aecd9e74a4175ceb6ca", "lon": -77.00580883333333, "rental_uris": {"ios": "https://dc.lft.to/lastmile_qr_scan", "android": "https://dc.lft.to/lastmile_qr_scan"}}, {"name": "41d25d10b2e27ee4b39c3d935465db7d", "fusion_lat": 0.0, "type": "electric_scooter", "lat": 38.89763283333333, "is_reserved": 0, "is_disabled": 0, "fusion_lon": 0.0, "bike_id": "41d25d10b2e27ee4b39c3d935465db7d", "lon": -77.05168066666667, "rental_uris": {"ios": "https://dc.lft.to/lastmile_qr_scan", "android": "https://dc.lft.to/lastmile_qr_scan"}}, {"name": "9bbb7ea7b1c8477e8a5b4c3cc4c6d51c", "fusion_lat": 0.0, "type": "electric_bike", "lat": 38.902973333333335, "is_reserved": 0, "is_disabled": 0, "fusion_lon": 0.0, "bike_id": "9bbb7ea7b1c8477e8a5b4c3cc4c6d51c", "lon": -76.9443645, "rental_uris": {"ios": "https://dc.lft.to/lastmile_qr_scan", "android": "https://dc.lft.to/lastmile_qr_scan"}}, {"name": "41508b01624c3d5f519a7eeeec1df6e7", "fusion_lat": 0.0, "type": "electric_scooter", "lat": 38.922506, "is_reserved": 0, "is_disabled": 0, "fusion_lon": 0.0, "bike_id": "41508b01624c3d5f519a7eeeec1df6e7", "lon": -77.0304595, "rental_uris": {"ios": "https://dc.lft.to/lastmile_qr_scan", "android": "https://dc.lft.to/lastmile_qr_scan"}}, {"name": "7d3c47456dc6145a427d1a208932b405", "fusion_lat": 0.0, "type": "electric_bike", "lat": 38.9394635, "is_reserved": 0, "is_disabled": 0, "fusion_lon": 0.0, "bike_id": "7d3c47456dc6145a427d1a208932b405", "lon": -77.03266983333333, "rental_uris": {"ios": "https://dc.lft.to/lastmile_qr_scan", "android": "https://dc.lft.to/lastmile_qr_scan"}}, {"name": "b04809e5faf257d42ab3bd939927f183", "fusion_lat": 0.0, "type": "electric_scooter", "lat": 38.957801833333335, "is_reserved": 0, "is_disabled": 0, "fusion_lon": 0.0, "bike_id": "b04809e5faf257d42ab3bd939927f183", "lon": -77.02753733333333, "rental_uris": {"ios": "https://dc.lft.to/lastmile_qr_scan", "android": "https://dc.lft.to/lastmile_qr_scan"}}, {"name": "743164272629979e31f89b2eb8b219a1", "fusion_lat": 0.0, "type": "electric_scooter", "lat": 38.91967016666667, "is_reserved": 0, "is_disabled": 0, "fusion_lon": 0.0, "bike_id": "743164272629979e31f89b2eb8b219a1", "lon": -77.03858316666667, "rental_uris": {"ios": "https://dc.lft.to/lastmile_qr_scan", "android": "https://dc.lft.to/lastmile_qr_scan"}}, {"name": "eab7d06ccac8133a2165e16c78cd9fd9", "fusion_lat": 0.0, "type": "electric_scooter", "lat": 38.917595, "is_reserved": 0, "is_disabled": 0, "fusion_lon": 0.0, "bike_id": "eab7d06ccac8133a2165e16c78cd9fd9", "lon": -77.02512683333333, "rental_uris": {"ios": "https://dc.lft.to/lastmile_qr_scan", "android": "https://dc.lft.to/lastmile_qr_scan"}}, {"name": "977a72b3e5d6a2a7fe3e838cd6f02544", "fusion_lat": 0.0, "type": "electric_scooter", "lat": 38.897287, "is_reserved": 0, "is_disabled": 0, "fusion_lon": 0.0, "bike_id": "977a72b3e5d6a2a7fe3e838cd6f02544", "lon": -77.0465075, "rental_uris": {"ios": "https://dc.lft.to/lastmile_qr_scan", "android": "https://dc.lft.to/lastmile_qr_scan"}}, {"name": "f028f5c974736195d6c591c2c26258cd", "fusion_lat": 0.0, "type": "electric_scooter", "lat": 38.91245683333333, "is_reserved": 0, "is_disabled": 0, "fusion_lon": 0.0, "bike_id": "f028f5c974736195d6c591c2c26258cd", "lon": -77.03840833333334, "rental_uris": {"ios": "https://dc.lft.to/lastmile_qr_scan", "android": "https://dc.lft.to/lastmile_qr_scan"}}, {"name": "37a8bfdc1a6bae06d9e6bbdafbb9dd7d", "fusion_lat": 0.0, "type": "electric_scooter", "lat": 38.914154, "is_reserved": 0, "is_disabled": 0, "fusion_lon": 0.0, "bike_id": "37a8bfdc1a6bae06d9e6bbdafbb9dd7d", "lon": -77.0450475, "rental_uris": {"ios": "https://dc.lft.to/lastmile_qr_scan", "android": "https://dc.lft.to/lastmile_qr_scan"}}, {"name": "2b3ce122039dc23fe30e8befb4051e39", "fusion_lat": 0.0, "type": "electric_bike", "lat": 38.992416166666665, "is_reserved": 0, "is_disabled": 0, "fusion_lon": 0.0, "bike_id": "2b3ce122039dc23fe30e8befb4051e39", "lon": -77.10007983333334, "rental_uris": {"ios": "https://dc.lft.to/lastmile_qr_scan", "android": "https://dc.lft.to/lastmile_qr_scan"}}, {"name": "249e3fdc0b29beba5b866af5db711f58", "fusion_lat": 0.0, "type": "electric_scooter", "lat": 38.9126905, "is_reserved": 0, "is_disabled": 0, "fusion_lon": 0.0, "bike_id": "249e3fdc0b29beba5b866af5db711f58", "lon": -77.03938233333334, "rental_uris": {"ios": "https://dc.lft.to/lastmile_qr_scan", "android": "https://dc.lft.to/lastmile_qr_scan"}}, {"name": "a4967d8d7d561dada3faa21e4dd5fc93", "fusion_lat": 0.0, "type": "electric_scooter", "lat": 38.917169666666666, "is_reserved": 0, "is_disabled": 0, "fusion_lon": 0.0, "bike_id": "a4967d8d7d561dada3faa21e4dd5fc93", "lon": -77.0187045, "rental_uris": {"ios": "https://dc.lft.to/lastmile_qr_scan", "android": "https://dc.lft.to/lastmile_qr_scan"}}, {"name": "ac0fc3531a1717648299f24c71b88888", "fusion_lat": 0.0, "type": "electric_scooter", "lat": 38.927261666666666, "is_reserved": 0, "is_disabled": 0, "fusion_lon": 0.0, "bike_id": "ac0fc3531a1717648299f24c71b88888", "lon": -77.07144066666666, "rental_uris": {"ios": "https://dc.lft.to/lastmile_qr_scan", "android": "https://dc.lft.to/lastmile_qr_scan"}}, {"name": "83ea5a7423e973fae8c7d3fcbb8111af", "fusion_lat": 0.0, "type": "electric_scooter", "lat": 38.900338166666664, "is_reserved": 0, "is_disabled": 0, "fusion_lon": 0.0, "bike_id": "83ea5a7423e973fae8c7d3fcbb8111af", "lon": -76.99822283333333, "rental_uris": {"ios": "https://dc.lft.to/lastmile_qr_scan", "android": "https://dc.lft.to/lastmile_qr_scan"}}, {"name": "eeddcdd3a3b0f3ff54c37c45198cd600", "fusion_lat": 0.0, "type": "electric_scooter", "lat": 38.885939, "is_reserved": 0, "is_disabled": 0, "fusion_lon": 0.0, "bike_id": "eeddcdd3a3b0f3ff54c37c45198cd600", "lon": -77.0220645, "rental_uris": {"ios": "https://dc.lft.to/lastmile_qr_scan", "android": "https://dc.lft.to/lastmile_qr_scan"}}, {"name": "22aa752d1adea0aa339782fdeddef472", "fusion_lat": 0.0, "type": "electric_bike", "lat": 38.88345966666667, "is_reserved": 0, "is_disabled": 0, "fusion_lon": 0.0, "bike_id": "22aa752d1adea0aa339782fdeddef472", "lon": -77.182921, "rental_uris": {"ios": "https://dc.lft.to/lastmile_qr_scan", "android": "https://dc.lft.to/lastmile_qr_scan"}}, {"name": "4f3028f81e83522558d540f3b314e21d", "fusion_lat": 0.0, "type": "electric_scooter", "lat": 38.93414533333333, "is_reserved": 0, "is_disabled": 0, "fusion_lon": 0.0, "bike_id": "4f3028f81e83522558d540f3b314e21d", "lon": -77.04184033333334, "rental_uris": {"ios": "https://dc.lft.to/lastmile_qr_scan", "android": "https://dc.lft.to/lastmile_qr_scan"}}, {"name": "9c104b403119f1a112c859cf7bf13352", "fusion_lat": 0.0, "type": "electric_scooter", "lat": 38.905513166666665, "is_reserved": 0, "is_disabled": 0, "fusion_lon": 0.0, "bike_id": "9c104b403119f1a112c859cf7bf13352", "lon": -77.06274983333333, "rental_uris": {"ios": "https://dc.lft.to/lastmile_qr_scan", "android": "https://dc.lft.to/lastmile_qr_scan"}}, {"name": "0fda33f0d996e9a17becb7735c08a72f", "fusion_lat": 0.0, "type": "electric_scooter", "lat": 38.910474, "is_reserved": 0, "is_disabled": 0, "fusion_lon": 0.0, "bike_id": "0fda33f0d996e9a17becb7735c08a72f", "lon": -77.043691, "rental_uris": {"ios": "https://dc.lft.to/lastmile_qr_scan", "android": "https://dc.lft.to/lastmile_qr_scan"}}, {"name": "f9ef023891fd5ab09fed6e8a04f91edf", "fusion_lat": 0.0, "type": "electric_scooter", "lat": 38.9002745, "is_reserved": 0, "is_disabled": 0, "fusion_lon": 0.0, "bike_id": "f9ef023891fd5ab09fed6e8a04f91edf", "lon": -76.99844316666666, "rental_uris": {"ios": "https://dc.lft.to/lastmile_qr_scan", "android": "https://dc.lft.to/lastmile_qr_scan"}}, {"name": "890256744d749bd13720eb330b1d3471", "fusion_lat": 0.0, "type": "electric_scooter", "lat": 38.89850166666667, "is_reserved": 0, "is_disabled": 0, "fusion_lon": 0.0, "bike_id": "890256744d749bd13720eb330b1d3471", "lon": -77.01610383333333, "rental_uris": {"ios": "https://dc.lft.to/lastmile_qr_scan", "android": "https://dc.lft.to/lastmile_qr_scan"}}, {"name": "563d7c39381665f9fa3d21e74d33ee32", "fusion_lat": 0.0, "type": "electric_scooter", "lat": 38.9427935, "is_reserved": 0, "is_disabled": 0, "fusion_lon": 0.0, "bike_id": "563d7c39381665f9fa3d21e74d33ee32", "lon": -77.0250465, "rental_uris": {"ios": "https://dc.lft.to/lastmile_qr_scan", "android": "https://dc.lft.to/lastmile_qr_scan"}}, {"name": "a14d7d360451e8e05fc1967a46113225", "fusion_lat": 0.0, "type": "electric_scooter", "lat": 38.89370266666667, "is_reserved": 0, "is_disabled": 0, "fusion_lon": 0.0, "bike_id": "a14d7d360451e8e05fc1967a46113225", "lon": -76.94997233333333, "rental_uris": {"ios": "https://dc.lft.to/lastmile_qr_scan", "android": "https://dc.lft.to/lastmile_qr_scan"}}, {"name": "d08e8aa2e0e613b8de5d4fff529c465d", "fusion_lat": 0.0, "type": "electric_bike", "lat": 38.8415185, "is_reserved": 0, "is_disabled": 0, "fusion_lon": 0.0, "bike_id": "d08e8aa2e0e613b8de5d4fff529c465d", "lon": -77.088889, "rental_uris": {"ios": "https://dc.lft.to/lastmile_qr_scan", "android": "https://dc.lft.to/lastmile_qr_scan"}}, {"name": "16f9c0fa94697c38afc8068a4d50ace5", "fusion_lat": 0.0, "type": "electric_scooter", "lat": 38.901418, "is_reserved": 0, "is_disabled": 0, "fusion_lon": 0.0, "bike_id": "16f9c0fa94697c38afc8068a4d50ace5", "lon": -76.99120216666667, "rental_uris": {"ios": "https://dc.lft.to/lastmile_qr_scan", "android": "https://dc.lft.to/lastmile_qr_scan"}}, {"name": "aa56c7e89e6ed9399dab0e1202533588", "fusion_lat": 0.0, "type": "electric_scooter", "lat": 38.9098235, "is_reserved": 0, "is_disabled": 0, "fusion_lon": 0.0, "bike_id": "aa56c7e89e6ed9399dab0e1202533588", "lon": -77.048722, "rental_uris": {"ios": "https://dc.lft.to/lastmile_qr_scan", "android": "https://dc.lft.to/lastmile_qr_scan"}}, {"name": "ac763644868490f5340de19796963515", "fusion_lat": 0.0, "type": "electric_scooter", "lat": 38.923685166666665, "is_reserved": 0, "is_disabled": 0, "fusion_lon": 0.0, "bike_id": "ac763644868490f5340de19796963515", "lon": -77.01906933333333, "rental_uris": {"ios": "https://dc.lft.to/lastmile_qr_scan", "android": "https://dc.lft.to/lastmile_qr_scan"}}, {"name": "eefb5a9953ed6096167e6bfd62c114b5", "fusion_lat": 0.0, "type": "electric_bike", "lat": 39.052020666666664, "is_reserved": 0, "is_disabled": 0, "fusion_lon": 0.0, "bike_id": "eefb5a9953ed6096167e6bfd62c114b5", "lon": -77.10910066666666, "rental_uris": {"ios": "https://dc.lft.to/lastmile_qr_scan", "android": "https://dc.lft.to/lastmile_qr_scan"}}, {"name": "38f9d58497d3bade05da0d1df3a690a5", "fusion_lat": 0.0, "type": "electric_scooter", "lat": 38.907931833333336, "is_reserved": 0, "is_disabled": 0, "fusion_lon": 0.0, "bike_id": "38f9d58497d3bade05da0d1df3a690a5", "lon": -77.04822283333333, "rental_uris": {"ios": "https://dc.lft.to/lastmile_qr_scan", "android": "https://dc.lft.to/lastmile_qr_scan"}}, {"name": "5ac0309e1da1b76b9153b123960b380b", "fusion_lat": 0.0, "type": "electric_scooter", "lat": 38.908646, "is_reserved": 0, "is_disabled": 0, "fusion_lon": 0.0, "bike_id": "5ac0309e1da1b76b9153b123960b380b", "lon": -77.0271455, "rental_uris": {"ios": "https://dc.lft.to/lastmile_qr_scan", "android": "https://dc.lft.to/lastmile_qr_scan"}}, {"name": "03f7f7d8ea421d06c06afc3c3b6a4f37", "fusion_lat": 0.0, "type": "electric_bike", "lat": 38.93603183333333, "is_reserved": 0, "is_disabled": 0, "fusion_lon": 0.0, "bike_id": "03f7f7d8ea421d06c06afc3c3b6a4f37", "lon": -77.02114383333333, "rental_uris": {"ios": "https://dc.lft.to/lastmile_qr_scan", "android": "https://dc.lft.to/lastmile_qr_scan"}}, {"name": "0437ce562d5e1eb57430dff5ac9b460f", "fusion_lat": 0.0, "type": "electric_scooter", "lat": 38.93389766666667, "is_reserved": 0, "is_disabled": 0, "fusion_lon": 0.0, "bike_id": "0437ce562d5e1eb57430dff5ac9b460f", "lon": -77.0576215, "rental_uris": {"ios": "https://dc.lft.to/lastmile_qr_scan", "android": "https://dc.lft.to/lastmile_qr_scan"}}, {"name": "607386d0e0b35cc09738a7e58f509e3c", "fusion_lat": 0.0, "type": "electric_scooter", "lat": 38.908464333333335, "is_reserved": 0, "is_disabled": 0, "fusion_lon": 0.0, "bike_id": "607386d0e0b35cc09738a7e58f509e3c", "lon": -77.02045983333333, "rental_uris": {"ios": "https://dc.lft.to/lastmile_qr_scan", "android": "https://dc.lft.to/lastmile_qr_scan"}}, {"name": "7e3ab2f8f51dea83a794d01db349ae8b", "fusion_lat": 0.0, "type": "electric_scooter", "lat": 38.901601166666666, "is_reserved": 0, "is_disabled": 0, "fusion_lon": 0.0, "bike_id": "7e3ab2f8f51dea83a794d01db349ae8b", "lon": -77.02181, "rental_uris": {"ios": "https://dc.lft.to/lastmile_qr_scan", "android": "https://dc.lft.to/lastmile_qr_scan"}}, {"name": "098e8a1b613d8be046a568636493100b", "fusion_lat": 0.0, "type": "electric_scooter", "lat": 38.91249033333333, "is_reserved": 0, "is_disabled": 0, "fusion_lon": 0.0, "bike_id": "098e8a1b613d8be046a568636493100b", "lon": -77.02229566666666, "rental_uris": {"ios": "https://dc.lft.to/lastmile_qr_scan", "android": "https://dc.lft.to/lastmile_qr_scan"}}, {"name": "603d000edaa0579b921fa5cc4b21062f", "fusion_lat": 0.0, "type": "electric_scooter", "lat": 38.942941, "is_reserved": 0, "is_disabled": 0, "fusion_lon": 0.0, "bike_id": "603d000edaa0579b921fa5cc4b21062f", "lon": -77.0217355, "rental_uris": {"ios": "https://dc.lft.to/lastmile_qr_scan", "android": "https://dc.lft.to/lastmile_qr_scan"}}, {"name": "a2ff40700f0ad9940f380e26b5cb7f27", "fusion_lat": 0.0, "type": "electric_scooter", "lat": 38.929955, "is_reserved": 0, "is_disabled": 0, "fusion_lon": 0.0, "bike_id": "a2ff40700f0ad9940f380e26b5cb7f27", "lon": -77.02302566666667, "rental_uris": {"ios": "https://dc.lft.to/lastmile_qr_scan", "android": "https://dc.lft.to/lastmile_qr_scan"}}, {"name": "2eb2281355032f40cb674ddc3956a4a2", "fusion_lat": 0.0, "type": "electric_scooter", "lat": 38.900065166666664, "is_reserved": 0, "is_disabled": 0, "fusion_lon": 0.0, "bike_id": "2eb2281355032f40cb674ddc3956a4a2", "lon": -77.032897, "rental_uris": {"ios": "https://dc.lft.to/lastmile_qr_scan", "android": "https://dc.lft.to/lastmile_qr_scan"}}, {"name": "b39236255af7d99bec5a5dbc8e60c592", "fusion_lat": 0.0, "type": "electric_scooter", "lat": 38.897366, "is_reserved": 0, "is_disabled": 0, "fusion_lon": 0.0, "bike_id": "b39236255af7d99bec5a5dbc8e60c592", "lon": -76.94256083333333, "rental_uris": {"ios": "https://dc.lft.to/lastmile_qr_scan", "android": "https://dc.lft.to/lastmile_qr_scan"}}, {"name": "48c70a84d5a00318c497dc23bc337cfc", "fusion_lat": 0.0, "type": "electric_scooter", "lat": 38.91416183333333, "is_reserved": 0, "is_disabled": 0, "fusion_lon": 0.0, "bike_id": "48c70a84d5a00318c497dc23bc337cfc", "lon": -77.0317365, "rental_uris": {"ios": "https://dc.lft.to/lastmile_qr_scan", "android": "https://dc.lft.to/lastmile_qr_scan"}}, {"name": "cd2f4f4e8a306039e0eb19159ef36fac", "fusion_lat": 0.0, "type": "electric_scooter", "lat": 38.92701566666667, "is_reserved": 0, "is_disabled": 0, "fusion_lon": 0.0, "bike_id": "cd2f4f4e8a306039e0eb19159ef36fac", "lon": -77.03734066666667, "rental_uris": {"ios": "https://dc.lft.to/lastmile_qr_scan", "android": "https://dc.lft.to/lastmile_qr_scan"}}, {"name": "3bb7a0f1f8d62c750b158093e1faecf6", "fusion_lat": 0.0, "type": "electric_scooter", "lat": 38.915685333333336, "is_reserved": 0, "is_disabled": 0, "fusion_lon": 0.0, "bike_id": "3bb7a0f1f8d62c750b158093e1faecf6", "lon": -77.0318935, "rental_uris": {"ios": "https://dc.lft.to/lastmile_qr_scan", "android": "https://dc.lft.to/lastmile_qr_scan"}}, {"name": "7c4b960a22db64257ab1e83726f847f7", "fusion_lat": 0.0, "type": "electric_scooter", "lat": 38.9222945, "is_reserved": 0, "is_disabled": 0, "fusion_lon": 0.0, "bike_id": "7c4b960a22db64257ab1e83726f847f7", "lon": -77.04256933333333, "rental_uris": {"ios": "https://dc.lft.to/lastmile_qr_scan", "android": "https://dc.lft.to/lastmile_qr_scan"}}, {"name": "32c657c99dd90ec62ae63d7fd4571d4c", "fusion_lat": 0.0, "type": "electric_scooter", "lat": 38.95869666666667, "is_reserved": 0, "is_disabled": 0, "fusion_lon": 0.0, "bike_id": "32c657c99dd90ec62ae63d7fd4571d4c", "lon": -77.02050816666667, "rental_uris": {"ios": "https://dc.lft.to/lastmile_qr_scan", "android": "https://dc.lft.to/lastmile_qr_scan"}}, {"name": "aa62355b34c077159764ef178bec0fc9", "fusion_lat": 0.0, "type": "electric_scooter", "lat": 38.929084333333336, "is_reserved": 0, "is_disabled": 0, "fusion_lon": 0.0, "bike_id": "aa62355b34c077159764ef178bec0fc9", "lon": -77.0261865, "rental_uris": {"ios": "https://dc.lft.to/lastmile_qr_scan", "android": "https://dc.lft.to/lastmile_qr_scan"}}, {"name": "a97b1dfb1d8a8de7b5750479b957a91c", "fusion_lat": 0.0, "type": "electric_bike", "lat": 38.85245883333333, "is_reserved": 0, "is_disabled": 0, "fusion_lon": 0.0, "bike_id": "a97b1dfb1d8a8de7b5750479b957a91c", "lon": -77.11425483333333, "rental_uris": {"ios": "https://dc.lft.to/lastmile_qr_scan", "android": "https://dc.lft.to/lastmile_qr_scan"}}, {"name": "3611710b25bc92531f0be43e110b737a", "fusion_lat": 0.0, "type": "electric_scooter", "lat": 38.9096045, "is_reserved": 0, "is_disabled": 0, "fusion_lon": 0.0, "bike_id": "3611710b25bc92531f0be43e110b737a", "lon": -77.04134183333333, "rental_uris": {"ios": "https://dc.lft.to/lastmile_qr_scan", "android": "https://dc.lft.to/lastmile_qr_scan"}}, {"name": "05b0019cdf602e4d65141963bda98749", "fusion_lat": 0.0, "type": "electric_scooter", "lat": 38.842957166666665, "is_reserved": 0, "is_disabled": 0, "fusion_lon": 0.0, "bike_id": "05b0019cdf602e4d65141963bda98749", "lon": -76.9994725, "rental_uris": {"ios": "https://dc.lft.to/lastmile_qr_scan", "android": "https://dc.lft.to/lastmile_qr_scan"}}, {"name": "e6a2aa4095e882ce0dca0035ef8ae2b9", "fusion_lat": 0.0, "type": "electric_scooter", "lat": 38.95406233333333, "is_reserved": 0, "is_disabled": 0, "fusion_lon": 0.0, "bike_id": "e6a2aa4095e882ce0dca0035ef8ae2b9", "lon": -77.02745083333333, "rental_uris": {"ios": "https://dc.lft.to/lastmile_qr_scan", "android": "https://dc.lft.to/lastmile_qr_scan"}}, {"name": "aaf72518a6bb2406f7f60f5a510ba66c", "fusion_lat": 0.0, "type": "electric_scooter", "lat": 38.9028455, "is_reserved": 0, "is_disabled": 0, "fusion_lon": 0.0, "bike_id": "aaf72518a6bb2406f7f60f5a510ba66c", "lon": -77.03847866666666, "rental_uris": {"ios": "https://dc.lft.to/lastmile_qr_scan", "android": "https://dc.lft.to/lastmile_qr_scan"}}, {"name": "8aacc8cff14ec1be616fdc633e8b9e34", "fusion_lat": 0.0, "type": "electric_scooter", "lat": 38.91405566666667, "is_reserved": 0, "is_disabled": 0, "fusion_lon": 0.0, "bike_id": "8aacc8cff14ec1be616fdc633e8b9e34", "lon": -77.02725566666666, "rental_uris": {"ios": "https://dc.lft.to/lastmile_qr_scan", "android": "https://dc.lft.to/lastmile_qr_scan"}}, {"name": "ab0f973135ccbd73cf336585d7e6a14a", "fusion_lat": 0.0, "type": "electric_scooter", "lat": 38.918011666666665, "is_reserved": 0, "is_disabled": 0, "fusion_lon": 0.0, "bike_id": "ab0f973135ccbd73cf336585d7e6a14a", "lon": -77.04016433333334, "rental_uris": {"ios": "https://dc.lft.to/lastmile_qr_scan", "android": "https://dc.lft.to/lastmile_qr_scan"}}, {"name": "51ed84ddcf930e060a9614f462492932", "fusion_lat": 0.0, "type": "electric_scooter", "lat": 38.93474283333333, "is_reserved": 0, "is_disabled": 0, "fusion_lon": 0.0, "bike_id": "51ed84ddcf930e060a9614f462492932", "lon": -77.02842616666666, "rental_uris": {"ios": "https://dc.lft.to/lastmile_qr_scan", "android": "https://dc.lft.to/lastmile_qr_scan"}}, {"name": "2a313b4c41e2f4afc02a1eabdf4919e0", "fusion_lat": 0.0, "type": "electric_scooter", "lat": 38.907359166666666, "is_reserved": 0, "is_disabled": 0, "fusion_lon": 0.0, "bike_id": "2a313b4c41e2f4afc02a1eabdf4919e0", "lon": -77.045031, "rental_uris": {"ios": "https://dc.lft.to/lastmile_qr_scan", "android": "https://dc.lft.to/lastmile_qr_scan"}}, {"name": "17974a6056a127f3660c310fcdf8e1fa", "fusion_lat": 0.0, "type": "electric_scooter", "lat": 38.93320333333333, "is_reserved": 0, "is_disabled": 0, "fusion_lon": 0.0, "bike_id": "17974a6056a127f3660c310fcdf8e1fa", "lon": -77.03433866666667, "rental_uris": {"ios": "https://dc.lft.to/lastmile_qr_scan", "android": "https://dc.lft.to/lastmile_qr_scan"}}, {"name": "f7b60700c883ad9c4212267bfc6c44fc", "fusion_lat": 0.0, "type": "electric_scooter", "lat": 38.949599666666664, "is_reserved": 0, "is_disabled": 0, "fusion_lon": 0.0, "bike_id": "f7b60700c883ad9c4212267bfc6c44fc", "lon": -77.02727083333333, "rental_uris": {"ios": "https://dc.lft.to/lastmile_qr_scan", "android": "https://dc.lft.to/lastmile_qr_scan"}}, {"name": "972da00c82f1a2049a6d0afceb6615fc", "fusion_lat": 0.0, "type": "electric_bike", "lat": 38.83937916666667, "is_reserved": 0, "is_disabled": 0, "fusion_lon": 0.0, "bike_id": "972da00c82f1a2049a6d0afceb6615fc", "lon": -77.078977, "rental_uris": {"ios": "https://dc.lft.to/lastmile_qr_scan", "android": "https://dc.lft.to/lastmile_qr_scan"}}, {"name": "7c8a073ab662ea91cd987341c9f0be42", "fusion_lat": 0.0, "type": "electric_scooter", "lat": 38.921554666666665, "is_reserved": 0, "is_disabled": 0, "fusion_lon": 0.0, "bike_id": "7c8a073ab662ea91cd987341c9f0be42", "lon": -77.034687, "rental_uris": {"ios": "https://dc.lft.to/lastmile_qr_scan", "android": "https://dc.lft.to/lastmile_qr_scan"}}, {"name": "781c6548a3bbf753226c547699b471c2", "fusion_lat": 0.0, "type": "electric_scooter", "lat": 38.91811383333334, "is_reserved": 0, "is_disabled": 0, "fusion_lon": 0.0, "bike_id": "781c6548a3bbf753226c547699b471c2", "lon": -77.04619683333334, "rental_uris": {"ios": "https://dc.lft.to/lastmile_qr_scan", "android": "https://dc.lft.to/lastmile_qr_scan"}}, {"name": "4b836b83b3fefb58a57902c1e7797c3e", "fusion_lat": 0.0, "type": "electric_scooter", "lat": 38.89241616666666, "is_reserved": 0, "is_disabled": 0, "fusion_lon": 0.0, "bike_id": "4b836b83b3fefb58a57902c1e7797c3e", "lon": -77.03383633333333, "rental_uris": {"ios": "https://dc.lft.to/lastmile_qr_scan", "android": "https://dc.lft.to/lastmile_qr_scan"}}, {"name": "1b634fdf06e6bf057835f9bc99e9a539", "fusion_lat": 0.0, "type": "electric_scooter", "lat": 38.90737583333333, "is_reserved": 0, "is_disabled": 0, "fusion_lon": 0.0, "bike_id": "1b634fdf06e6bf057835f9bc99e9a539", "lon": -77.02692133333333, "rental_uris": {"ios": "https://dc.lft.to/lastmile_qr_scan", "android": "https://dc.lft.to/lastmile_qr_scan"}}, {"name": "0a8cabc1f31b81c48d30a2a0a8f344ee", "fusion_lat": 0.0, "type": "electric_scooter", "lat": 38.9218255, "is_reserved": 0, "is_disabled": 0, "fusion_lon": 0.0, "bike_id": "0a8cabc1f31b81c48d30a2a0a8f344ee", "lon": -77.04285366666667, "rental_uris": {"ios": "https://dc.lft.to/lastmile_qr_scan", "android": "https://dc.lft.to/lastmile_qr_scan"}}, {"name": "95dd3462fc72fff2c17074c6c3655aad", "fusion_lat": 0.0, "type": "electric_scooter", "lat": 38.905492833333334, "is_reserved": 0, "is_disabled": 0, "fusion_lon": 0.0, "bike_id": "95dd3462fc72fff2c17074c6c3655aad", "lon": -77.04553883333334, "rental_uris": {"ios": "https://dc.lft.to/lastmile_qr_scan", "android": "https://dc.lft.to/lastmile_qr_scan"}}, {"name": "ebae17c9d3bcd7f8149c3d0623da486c", "fusion_lat": 0.0, "type": "electric_scooter", "lat": 38.931915000000004, "is_reserved": 0, "is_disabled": 0, "fusion_lon": 0.0, "bike_id": "ebae17c9d3bcd7f8149c3d0623da486c", "lon": -77.03450866666667, "rental_uris": {"ios": "https://dc.lft.to/lastmile_qr_scan", "android": "https://dc.lft.to/lastmile_qr_scan"}}, {"name": "b992d15081cb79c414f3066f0578024b", "fusion_lat": 0.0, "type": "electric_scooter", "lat": 38.91821, "is_reserved": 0, "is_disabled": 0, "fusion_lon": 0.0, "bike_id": "b992d15081cb79c414f3066f0578024b", "lon": -77.02501466666666, "rental_uris": {"ios": "https://dc.lft.to/lastmile_qr_scan", "android": "https://dc.lft.to/lastmile_qr_scan"}}, {"name": "1886d8365d64c16116ce07c433056ea2", "fusion_lat": 0.0, "type": "electric_scooter", "lat": 38.910216166666665, "is_reserved": 0, "is_disabled": 0, "fusion_lon": 0.0, "bike_id": "1886d8365d64c16116ce07c433056ea2", "lon": -77.04873316666666, "rental_uris": {"ios": "https://dc.lft.to/lastmile_qr_scan", "android": "https://dc.lft.to/lastmile_qr_scan"}}, {"name": "ace37c3d8db3c665847e1368f0758c28", "fusion_lat": 0.0, "type": "electric_scooter", "lat": 38.905482666666664, "is_reserved": 0, "is_disabled": 0, "fusion_lon": 0.0, "bike_id": "ace37c3d8db3c665847e1368f0758c28", "lon": -77.03251016666667, "rental_uris": {"ios": "https://dc.lft.to/lastmile_qr_scan", "android": "https://dc.lft.to/lastmile_qr_scan"}}, {"name": "7146f6514c469607e161014e79ce7135", "fusion_lat": 0.0, "type": "electric_scooter", "lat": 38.9192945, "is_reserved": 0, "is_disabled": 0, "fusion_lon": 0.0, "bike_id": "7146f6514c469607e161014e79ce7135", "lon": -77.02358733333334, "rental_uris": {"ios": "https://dc.lft.to/lastmile_qr_scan", "android": "https://dc.lft.to/lastmile_qr_scan"}}, {"name": "49712d6eb427b8752dd20be65c8944bc", "fusion_lat": 0.0, "type": "electric_scooter", "lat": 38.8977175, "is_reserved": 0, "is_disabled": 0, "fusion_lon": 0.0, "bike_id": "49712d6eb427b8752dd20be65c8944bc", "lon": -77.03182916666667, "rental_uris": {"ios": "https://dc.lft.to/lastmile_qr_scan", "android": "https://dc.lft.to/lastmile_qr_scan"}}, {"name": "2ec66a82c6c95be42c913530840f2b65", "fusion_lat": 0.0, "type": "electric_scooter", "lat": 38.924892166666666, "is_reserved": 0, "is_disabled": 0, "fusion_lon": 0.0, "bike_id": "2ec66a82c6c95be42c913530840f2b65", "lon": -77.02708033333333, "rental_uris": {"ios": "https://dc.lft.to/lastmile_qr_scan", "android": "https://dc.lft.to/lastmile_qr_scan"}}, {"name": "54d209e849f3a8b71dd510a12e55008d", "fusion_lat": 0.0, "type": "electric_scooter", "lat": 38.90553166666667, "is_reserved": 0, "is_disabled": 0, "fusion_lon": 0.0, "bike_id": "54d209e849f3a8b71dd510a12e55008d", "lon": -77.03718566666667, "rental_uris": {"ios": "https://dc.lft.to/lastmile_qr_scan", "android": "https://dc.lft.to/lastmile_qr_scan"}}, {"name": "9770701aa2ea8c20796b04a19e501846", "fusion_lat": 0.0, "type": "electric_scooter", "lat": 38.8683025, "is_reserved": 0, "is_disabled": 0, "fusion_lon": 0.0, "bike_id": "9770701aa2ea8c20796b04a19e501846", "lon": -76.98615733333334, "rental_uris": {"ios": "https://dc.lft.to/lastmile_qr_scan", "android": "https://dc.lft.to/lastmile_qr_scan"}}, {"name": "582bb745e9c7fec7ca1b6611ff22fca0", "fusion_lat": 0.0, "type": "electric_scooter", "lat": 38.9275425, "is_reserved": 0, "is_disabled": 0, "fusion_lon": 0.0, "bike_id": "582bb745e9c7fec7ca1b6611ff22fca0", "lon": -77.02306, "rental_uris": {"ios": "https://dc.lft.to/lastmile_qr_scan", "android": "https://dc.lft.to/lastmile_qr_scan"}}, {"name": "8c06c312cd3896190723253566bff7f7", "fusion_lat": 0.0, "type": "electric_scooter", "lat": 38.885841666666664, "is_reserved": 0, "is_disabled": 0, "fusion_lon": 0.0, "bike_id": "8c06c312cd3896190723253566bff7f7", "lon": -76.99504483333334, "rental_uris": {"ios": "https://dc.lft.to/lastmile_qr_scan", "android": "https://dc.lft.to/lastmile_qr_scan"}}, {"name": "6a4bd219c478a0c237a9d11b5427a81f", "fusion_lat": 0.0, "type": "electric_scooter", "lat": 38.9158975, "is_reserved": 0, "is_disabled": 0, "fusion_lon": 0.0, "bike_id": "6a4bd219c478a0c237a9d11b5427a81f", "lon": -77.042561, "rental_uris": {"ios": "https://dc.lft.to/lastmile_qr_scan", "android": "https://dc.lft.to/lastmile_qr_scan"}}, {"name": "0bc1b5f5f6c7592f3ca9c2bbe1d09496", "fusion_lat": 0.0, "type": "electric_scooter", "lat": 38.924826833333334, "is_reserved": 0, "is_disabled": 0, "fusion_lon": 0.0, "bike_id": "0bc1b5f5f6c7592f3ca9c2bbe1d09496", "lon": -77.02998416666667, "rental_uris": {"ios": "https://dc.lft.to/lastmile_qr_scan", "android": "https://dc.lft.to/lastmile_qr_scan"}}, {"name": "c4a93b32dc1e15789d1d64612146271b", "fusion_lat": 0.0, "type": "electric_scooter", "lat": 38.927990666666666, "is_reserved": 0, "is_disabled": 0, "fusion_lon": 0.0, "bike_id": "c4a93b32dc1e15789d1d64612146271b", "lon": -77.0141785, "rental_uris": {"ios": "https://dc.lft.to/lastmile_qr_scan", "android": "https://dc.lft.to/lastmile_qr_scan"}}, {"name": "e791677f4c7e8aff0808bc517e12fdf3", "fusion_lat": 0.0, "type": "electric_scooter", "lat": 38.90675433333333, "is_reserved": 0, "is_disabled": 0, "fusion_lon": 0.0, "bike_id": "e791677f4c7e8aff0808bc517e12fdf3", "lon": -77.02711033333334, "rental_uris": {"ios": "https://dc.lft.to/lastmile_qr_scan", "android": "https://dc.lft.to/lastmile_qr_scan"}}, {"name": "1061cbd005ab3562172403cacd63d7c4", "fusion_lat": 0.0, "type": "electric_bike", "lat": 38.958936666666666, "is_reserved": 0, "is_disabled": 0, "fusion_lon": 0.0, "bike_id": "1061cbd005ab3562172403cacd63d7c4", "lon": -77.02594233333333, "rental_uris": {"ios": "https://dc.lft.to/lastmile_qr_scan", "android": "https://dc.lft.to/lastmile_qr_scan"}}, {"name": "08d62cf95ca0fea3684920abfb5ab41e", "fusion_lat": 0.0, "type": "electric_scooter", "lat": 38.90573783333333, "is_reserved": 0, "is_disabled": 0, "fusion_lon": 0.0, "bike_id": "08d62cf95ca0fea3684920abfb5ab41e", "lon": -77.02214416666666, "rental_uris": {"ios": "https://dc.lft.to/lastmile_qr_scan", "android": "https://dc.lft.to/lastmile_qr_scan"}}, {"name": "b60166fff5f66bf75259bf2983f1be84", "fusion_lat": 0.0, "type": "electric_scooter", "lat": 38.8665835, "is_reserved": 0, "is_disabled": 0, "fusion_lon": 0.0, "bike_id": "b60166fff5f66bf75259bf2983f1be84", "lon": -76.98885616666666, "rental_uris": {"ios": "https://dc.lft.to/lastmile_qr_scan", "android": "https://dc.lft.to/lastmile_qr_scan"}}, {"name": "ea82d69314c9f2cbde6f018537ddbf82", "fusion_lat": 0.0, "type": "electric_scooter", "lat": 38.92623316666667, "is_reserved": 0, "is_disabled": 0, "fusion_lon": 0.0, "bike_id": "ea82d69314c9f2cbde6f018537ddbf82", "lon": -77.03701033333333, "rental_uris": {"ios": "https://dc.lft.to/lastmile_qr_scan", "android": "https://dc.lft.to/lastmile_qr_scan"}}, {"name": "c1335fbf77b7107b15a90ca753a62d30", "fusion_lat": 0.0, "type": "electric_scooter", "lat": 38.905024166666664, "is_reserved": 0, "is_disabled": 0, "fusion_lon": 0.0, "bike_id": "c1335fbf77b7107b15a90ca753a62d30", "lon": -76.99450066666667, "rental_uris": {"ios": "https://dc.lft.to/lastmile_qr_scan", "android": "https://dc.lft.to/lastmile_qr_scan"}}, {"name": "cf242fb33146bd724f1d5433d2f7e19d", "fusion_lat": 0.0, "type": "electric_scooter", "lat": 38.88103783333333, "is_reserved": 0, "is_disabled": 0, "fusion_lon": 0.0, "bike_id": "cf242fb33146bd724f1d5433d2f7e19d", "lon": -77.012114, "rental_uris": {"ios": "https://dc.lft.to/lastmile_qr_scan", "android": "https://dc.lft.to/lastmile_qr_scan"}}, {"name": "d5c592b527f775b4ebe2f72cc900f889", "fusion_lat": 0.0, "type": "electric_scooter", "lat": 38.90641166666666, "is_reserved": 0, "is_disabled": 0, "fusion_lon": 0.0, "bike_id": "d5c592b527f775b4ebe2f72cc900f889", "lon": -77.03873733333333, "rental_uris": {"ios": "https://dc.lft.to/lastmile_qr_scan", "android": "https://dc.lft.to/lastmile_qr_scan"}}, {"name": "5ed592b9f632405a357bb032653f8d60", "fusion_lat": 0.0, "type": "electric_scooter", "lat": 38.9378045, "is_reserved": 0, "is_disabled": 0, "fusion_lon": 0.0, "bike_id": "5ed592b9f632405a357bb032653f8d60", "lon": -77.05996083333334, "rental_uris": {"ios": "https://dc.lft.to/lastmile_qr_scan", "android": "https://dc.lft.to/lastmile_qr_scan"}}, {"name": "d19eb5629bb58a58a681d743cbe19de6", "fusion_lat": 0.0, "type": "electric_scooter", "lat": 38.92209316666667, "is_reserved": 0, "is_disabled": 0, "fusion_lon": 0.0, "bike_id": "d19eb5629bb58a58a681d743cbe19de6", "lon": -77.04249383333334, "rental_uris": {"ios": "https://dc.lft.to/lastmile_qr_scan", "android": "https://dc.lft.to/lastmile_qr_scan"}}, {"name": "f0e62c2b737a0db9d31de3469977f185", "fusion_lat": 0.0, "type": "electric_scooter", "lat": 38.90360416666667, "is_reserved": 0, "is_disabled": 0, "fusion_lon": 0.0, "bike_id": "f0e62c2b737a0db9d31de3469977f185", "lon": -77.04002066666666, "rental_uris": {"ios": "https://dc.lft.to/lastmile_qr_scan", "android": "https://dc.lft.to/lastmile_qr_scan"}}, {"name": "3a46597cb17f80e5ac01363e172a95dd", "fusion_lat": 0.0, "type": "electric_scooter", "lat": 38.93867933333333, "is_reserved": 0, "is_disabled": 0, "fusion_lon": 0.0, "bike_id": "3a46597cb17f80e5ac01363e172a95dd", "lon": -77.02475616666666, "rental_uris": {"ios": "https://dc.lft.to/lastmile_qr_scan", "android": "https://dc.lft.to/lastmile_qr_scan"}}, {"name": "b403fc58fe13b9adc6e485c15bec5918", "fusion_lat": 0.0, "type": "electric_scooter", "lat": 38.876494, "is_reserved": 0, "is_disabled": 0, "fusion_lon": 0.0, "bike_id": "b403fc58fe13b9adc6e485c15bec5918", "lon": -76.9650795, "rental_uris": {"ios": "https://dc.lft.to/lastmile_qr_scan", "android": "https://dc.lft.to/lastmile_qr_scan"}}, {"name": "660b8efae20c42acf5794c01c234cbe6", "fusion_lat": 0.0, "type": "electric_bike", "lat": 38.990616, "is_reserved": 0, "is_disabled": 0, "fusion_lon": 0.0, "bike_id": "660b8efae20c42acf5794c01c234cbe6", "lon": -77.10028416666667, "rental_uris": {"ios": "https://dc.lft.to/lastmile_qr_scan", "android": "https://dc.lft.to/lastmile_qr_scan"}}, {"name": "eee8670fcb64211a536153f7c22d073c", "fusion_lat": 0.0, "type": "electric_scooter", "lat": 38.858013, "is_reserved": 0, "is_disabled": 0, "fusion_lon": 0.0, "bike_id": "eee8670fcb64211a536153f7c22d073c", "lon": -76.9864995, "rental_uris": {"ios": "https://dc.lft.to/lastmile_qr_scan", "android": "https://dc.lft.to/lastmile_qr_scan"}}, {"name": "d041b7d8e9ad74dac46ed84be8acd7c6", "fusion_lat": 0.0, "type": "electric_scooter", "lat": 38.900133333333336, "is_reserved": 0, "is_disabled": 0, "fusion_lon": 0.0, "bike_id": "d041b7d8e9ad74dac46ed84be8acd7c6", "lon": -77.02723783333333, "rental_uris": {"ios": "https://dc.lft.to/lastmile_qr_scan", "android": "https://dc.lft.to/lastmile_qr_scan"}}, {"name": "9cc4834e7c7cb01ad345182581d145ba", "fusion_lat": 0.0, "type": "electric_scooter", "lat": 38.92939783333333, "is_reserved": 0, "is_disabled": 0, "fusion_lon": 0.0, "bike_id": "9cc4834e7c7cb01ad345182581d145ba", "lon": -77.0347815, "rental_uris": {"ios": "https://dc.lft.to/lastmile_qr_scan", "android": "https://dc.lft.to/lastmile_qr_scan"}}, {"name": "647561e3788f5e67b01ef79052b416c0", "fusion_lat": 0.0, "type": "electric_scooter", "lat": 38.939454833333336, "is_reserved": 0, "is_disabled": 0, "fusion_lon": 0.0, "bike_id": "647561e3788f5e67b01ef79052b416c0", "lon": -77.03264883333334, "rental_uris": {"ios": "https://dc.lft.to/lastmile_qr_scan", "android": "https://dc.lft.to/lastmile_qr_scan"}}, {"name": "8db934c6b779362b00bfca6292021bf0", "fusion_lat": 0.0, "type": "electric_scooter", "lat": 38.921267666666665, "is_reserved": 0, "is_disabled": 0, "fusion_lon": 0.0, "bike_id": "8db934c6b779362b00bfca6292021bf0", "lon": -77.03660866666667, "rental_uris": {"ios": "https://dc.lft.to/lastmile_qr_scan", "android": "https://dc.lft.to/lastmile_qr_scan"}}, {"name": "d6e4ce2b9c2eab3da5e6f15d4fcf61d3", "fusion_lat": 0.0, "type": "electric_scooter", "lat": 38.851996166666666, "is_reserved": 0, "is_disabled": 0, "fusion_lon": 0.0, "bike_id": "d6e4ce2b9c2eab3da5e6f15d4fcf61d3", "lon": -76.98553683333333, "rental_uris": {"ios": "https://dc.lft.to/lastmile_qr_scan", "android": "https://dc.lft.to/lastmile_qr_scan"}}, {"name": "6994575ad51336f877e2d6166c2b2946", "fusion_lat": 0.0, "type": "electric_scooter", "lat": 38.91114983333333, "is_reserved": 0, "is_disabled": 0, "fusion_lon": 0.0, "bike_id": "6994575ad51336f877e2d6166c2b2946", "lon": -77.03715183333334, "rental_uris": {"ios": "https://dc.lft.to/lastmile_qr_scan", "android": "https://dc.lft.to/lastmile_qr_scan"}}, {"name": "5ec62097d5e8935cebf26e92f672e723", "fusion_lat": 0.0, "type": "electric_scooter", "lat": 38.9026065, "is_reserved": 0, "is_disabled": 0, "fusion_lon": 0.0, "bike_id": "5ec62097d5e8935cebf26e92f672e723", "lon": -77.04348583333334, "rental_uris": {"ios": "https://dc.lft.to/lastmile_qr_scan", "android": "https://dc.lft.to/lastmile_qr_scan"}}, {"name": "38eb602f47df30c45a5a0b3c168e3731", "fusion_lat": 0.0, "type": "electric_scooter", "lat": 38.90580116666667, "is_reserved": 0, "is_disabled": 0, "fusion_lon": 0.0, "bike_id": "38eb602f47df30c45a5a0b3c168e3731", "lon": -77.07011316666667, "rental_uris": {"ios": "https://dc.lft.to/lastmile_qr_scan", "android": "https://dc.lft.to/lastmile_qr_scan"}}, {"name": "dd1f584abdf1df9c1917fa53c895b9ac", "fusion_lat": 0.0, "type": "electric_bike", "lat": 38.854303333333334, "is_reserved": 0, "is_disabled": 0, "fusion_lon": 0.0, "bike_id": "dd1f584abdf1df9c1917fa53c895b9ac", "lon": -76.90970266666666, "rental_uris": {"ios": "https://dc.lft.to/lastmile_qr_scan", "android": "https://dc.lft.to/lastmile_qr_scan"}}, {"name": "4986c03bdf4b3f7991df8779b81f102a", "fusion_lat": 0.0, "type": "electric_scooter", "lat": 38.921320333333334, "is_reserved": 0, "is_disabled": 0, "fusion_lon": 0.0, "bike_id": "4986c03bdf4b3f7991df8779b81f102a", "lon": -76.99393133333334, "rental_uris": {"ios": "https://dc.lft.to/lastmile_qr_scan", "android": "https://dc.lft.to/lastmile_qr_scan"}}, {"name": "4f6ce0dee87f211aacec46c2d67ba91b", "fusion_lat": 0.0, "type": "electric_bike", "lat": 38.810502166666666, "is_reserved": 0, "is_disabled": 0, "fusion_lon": 0.0, "bike_id": "4f6ce0dee87f211aacec46c2d67ba91b", "lon": -77.085077, "rental_uris": {"ios": "https://dc.lft.to/lastmile_qr_scan", "android": "https://dc.lft.to/lastmile_qr_scan"}}, {"name": "3efa7cf755a1e322f74cc1a9ba0abb90", "fusion_lat": 0.0, "type": "electric_scooter", "lat": 38.90666266666667, "is_reserved": 0, "is_disabled": 0, "fusion_lon": 0.0, "bike_id": "3efa7cf755a1e322f74cc1a9ba0abb90", "lon": -77.02720366666667, "rental_uris": {"ios": "https://dc.lft.to/lastmile_qr_scan", "android": "https://dc.lft.to/lastmile_qr_scan"}}, {"name": "0fafff2c1b88ec16fb43802674d81608", "fusion_lat": 0.0, "type": "electric_scooter", "lat": 38.936376333333335, "is_reserved": 0, "is_disabled": 0, "fusion_lon": 0.0, "bike_id": "0fafff2c1b88ec16fb43802674d81608", "lon": -77.02057916666666, "rental_uris": {"ios": "https://dc.lft.to/lastmile_qr_scan", "android": "https://dc.lft.to/lastmile_qr_scan"}}, {"name": "0f0162c35ae8c9c5e6ca197a7cca4fef", "fusion_lat": 0.0, "type": "electric_scooter", "lat": 38.91604733333333, "is_reserved": 0, "is_disabled": 0, "fusion_lon": 0.0, "bike_id": "0f0162c35ae8c9c5e6ca197a7cca4fef", "lon": -77.03854733333333, "rental_uris": {"ios": "https://dc.lft.to/lastmile_qr_scan", "android": "https://dc.lft.to/lastmile_qr_scan"}}, {"name": "2343ec78a12387eef1ce0ddcbf7df849", "fusion_lat": 0.0, "type": "electric_scooter", "lat": 38.9004275, "is_reserved": 0, "is_disabled": 0, "fusion_lon": 0.0, "bike_id": "2343ec78a12387eef1ce0ddcbf7df849", "lon": -77.00187283333334, "rental_uris": {"ios": "https://dc.lft.to/lastmile_qr_scan", "android": "https://dc.lft.to/lastmile_qr_scan"}}, {"name": "b8479e314802e1282ef5d5e850b70b6e", "fusion_lat": 0.0, "type": "electric_scooter", "lat": 38.89527, "is_reserved": 0, "is_disabled": 0, "fusion_lon": 0.0, "bike_id": "b8479e314802e1282ef5d5e850b70b6e", "lon": -76.94888316666666, "rental_uris": {"ios": "https://dc.lft.to/lastmile_qr_scan", "android": "https://dc.lft.to/lastmile_qr_scan"}}, {"name": "c49afd2c4f9b8ad65ee0ce626eaa7849", "fusion_lat": 0.0, "type": "electric_bike", "lat": 39.02685183333333, "is_reserved": 0, "is_disabled": 0, "fusion_lon": 0.0, "bike_id": "c49afd2c4f9b8ad65ee0ce626eaa7849", "lon": -77.12603, "rental_uris": {"ios": "https://dc.lft.to/lastmile_qr_scan", "android": "https://dc.lft.to/lastmile_qr_scan"}}, {"name": "7cca24357375929501cd348b91af132c", "fusion_lat": 0.0, "type": "electric_scooter", "lat": 38.93539116666667, "is_reserved": 0, "is_disabled": 0, "fusion_lon": 0.0, "bike_id": "7cca24357375929501cd348b91af132c", "lon": -77.03399233333333, "rental_uris": {"ios": "https://dc.lft.to/lastmile_qr_scan", "android": "https://dc.lft.to/lastmile_qr_scan"}}, {"name": "aa84e6fc044c27b62cc067bbfd9fc0eb", "fusion_lat": 0.0, "type": "electric_scooter", "lat": 38.900185666666665, "is_reserved": 0, "is_disabled": 0, "fusion_lon": 0.0, "bike_id": "aa84e6fc044c27b62cc067bbfd9fc0eb", "lon": -77.00187566666666, "rental_uris": {"ios": "https://dc.lft.to/lastmile_qr_scan", "android": "https://dc.lft.to/lastmile_qr_scan"}},