{"data": {"bikes": [{"fusion_lat": 0.0, "name": "4c243c5475ff91dec8fd1d831ae63e56", "is_disabled": 0, "rental_uris": {"android": "https://dc.lft.to/lastmile_qr_scan", "ios": "https://dc.lft.to/lastmile_qr_scan"}, "fusion_lon": 0.0, "lat": 38.92084833333333, "bike_id": "4c243c5475ff91dec8fd1d831ae63e56", "type": "electric_scooter", "is_reserved": 0, "lon": -76.99456283333333}, {"fusion_lat": 0.0, "name": "6d9ef48dd56f4bb2e14bf233a70a5cf3", "is_disabled": 0, "rental_uris": {"android": "https://dc.lft.to/lastmile_qr_scan", "ios": "https://dc.lft.to/lastmile_qr_scan"}, "fusion_lon": 0.0, "lat": 38.908966666666664, "bike_id": "6d9ef48dd56f4bb2e14bf233a70a5cf3", "type": "electric_bike", "is_reserved": 0, "lon": -77.0321065}, {"fusion_lat": 0.0, "name": "7b4339b80d2498d1988fcaf5d4029670", "is_disabled": 0, "rental_uris": {"android": "https://dc.lft.to/lastmile_qr_scan", "ios": "https://dc.lft.to/lastmile_qr_scan"}, "fusion_lon": 0.0, "lat": 38.80454966666667, "bike_id": "7b4339b80d2498d1988fcaf5d4029670", "type": "electric_bike", "is_reserved": 0, "lon": -77.053868}, {"fusion_lat": 0.0, "name": "f59e3361cc5a99533fc3954cc0de7644", "is_disabled": 0, "rental_uris": {"android": "https://dc.lft.to/lastmile_qr_scan", "ios": "https://dc.lft.to/lastmile_qr_scan"}, "fusion_lon": 0.0, "lat": 38.897319, "bike_id": "f59e3361cc5a99533fc3954cc0de7644", "type": "electric_scooter", "is_reserved": 0, "lon": -77.04617983333333}, {"fusion_lat": 0.0, "name": "457802d3a020c4a7e3447c87507221e5", "is_disabled": 0, "rental_uris": {"android": "https://dc.lft.to/lastmile_qr_scan", "ios": "https://dc.lft.to/lastmile_qr_scan"}, "fusion_lon": 0.0, "lat": 38.914708833333336, "bike_id": "457802d3a020c4a7e3447c87507221e5", "type": "electric_scooter", "is_reserved": 0, "lon": -77.04541466666667}, {"fusion_lat": 0.0, "name": "d526d5be2b8eb6b48ba8cc4c9cbf243f", "is_disabled": 0, "rental_uris": {"android": "https://dc.lft.to/lastmile_qr_scan", "ios": "https://dc.lft.to/lastmile_qr_scan"}, "fusion_lon": 0.0, "lat": 38.900375333333336, "bike_id": "d526d5be2b8eb6b48ba8cc4c9cbf243f", "type": "electric_scooter", "is_reserved": 0, "lon": -77.00199366666666}, {"fusion_lat": 0.0, "name": "134aaab5c08efa66516a95699e2823e1", "is_disabled": 0, "rental_uris": {"android": "https://dc.lft.to/lastmile_qr_scan", "ios": "https://dc.lft.to/lastmile_qr_scan"}, "fusion_lon": 0.0, "lat": 38.927357, "bike_id": "134aaab5c08efa66516a95699e2823e1", "type": "electric_scooter", "is_reserved": 0, "lon": -77.03426333333333}, {"fusion_lat": 0.0, "name": "b39bc833807ef5e207046d862fbde5ea", "is_disabled": 0, "rental_uris": {"android": "https://dc.lft.to/lastmile_qr_scan", "ios": "https://dc.lft.to/lastmile_qr_scan"}, "fusion_lon": 0.0, "lat": 38.9040925, "bike_id": "b39bc833807ef5e207046d862fbde5ea", "type": "electric_scooter", "is_reserved": 0, "lon": -76.973311}, {"fusion_lat": 0.0, "name": "27e32ce668ff6dcf3a984c42239b7f9f", "is_disabled": 0, "rental_uris": {"android": "https://dc.lft.to/lastmile_qr_scan", "ios": "https://dc.lft.to/lastmile_qr_scan"}, "fusion_lon": 0.0, "lat": 38.896980166666665, "bike_id": "27e32ce668ff6dcf3a984c42239b7f9f", "type": "electric_scooter", "is_reserved": 0, "lon": -77.0294375}, {"fusion_lat": 0.0, "name": "ea96afacecbc908e620ca4403b9511ec", "is_disabled": 0, "rental_uris": {"android": "https://dc.lft.to/lastmile_qr_scan", "ios": "https://dc.lft.to/lastmile_qr_scan"}, "fusion_lon": 0.0, "lat": 38.887066, "bike_id": "ea96afacecbc908e620ca4403b9511ec", "type": "electric_scooter", "is_reserved": 0, "lon": -77.00245233333334}, {"fusion_lat": 0.0, "name": "9e014b0ebffcac57e8a75d01d4c95e61", "is_disabled": 0, "rental_uris": {"android": "https://dc.lft.to/lastmile_qr_scan", "ios": "https://dc.lft.to/lastmile_qr_scan"}, "fusion_lon": 0.0, "lat": 38.90214366666667, "bike_id": "9e014b0ebffcac57e8a75d01d4c95e61", "type": "electric_scooter", "is_reserved": 0, "lon": -77.02301033333333}, {"fusion_lat": 0.0, "name": "6cb3ace5199eda2b4d525550ee6eca14", "is_disabled": 0, "rental_uris": {"android": "https://dc.lft.to/lastmile_qr_scan", "ios": "https://dc.lft.to/lastmile_qr_scan"}, "fusion_lon": 0.0, "lat": 38.89682616666666, "bike_id": "6cb3ace5199eda2b4d525550ee6eca14", "type": "electric_scooter", "is_reserved": 0, "lon": -77.05128033333334}, {"fusion_lat": 0.0, "name": "9ad78d26e4dd526987c1fb3a6e2b9b7f", "is_disabled": 0, "rental_uris": {"android": "https://dc.lft.to/lastmile_qr_scan", "ios": "https://dc.lft.to/lastmile_qr_scan"}, "fusion_lon": 0.0, "lat": 38.901202833333336, "bike_id": "9ad78d26e4dd526987c1fb3a6e2b9b7f", "type": "electric_scooter", "is_reserved": 0, "lon": -77.052338}, {"fusion_lat": 0.0, "name": "935334c69970dd8a29505436541b55ad", "is_disabled": 0, "rental_uris": {"android": "https://dc.lft.to/lastmile_qr_scan", "ios": "https://dc.lft.to/lastmile_qr_scan"}, "fusion_lon": 0.0, "lat": 38.898327, "bike_id": "935334c69970dd8a29505436541b55ad", "type": "electric_scooter", "is_reserved": 0, "lon": -76.94625566666667}, {"fusion_lat": 0.0, "name": "e772505cb51d3a66349516a8aaf03771", "is_disabled": 0, "rental_uris": {"android": "https://dc.lft.to/lastmile_qr_scan", "ios": "https://dc.lft.to/lastmile_qr_scan"}, "fusion_lon": 0.0, "lat": 38.89612616666667, "bike_id": "e772505cb51d3a66349516a8aaf03771", "type": "electric_scooter", "is_reserved": 0, "lon": -76.94813}, {"fusion_lat": 0.0, "name": "458486ac8c89cb8832ecb9c0a52a5a05", "is_disabled": 0, "rental_uris": {"android": "https://dc.lft.to/lastmile_qr_scan", "ios": "https://dc.lft.to/lastmile_qr_scan"}, "fusion_lon": 0.0, "lat": 38.883307, "bike_id": "458486ac8c89cb8832ecb9c0a52a5a05", "type": "electric_scooter", "is_reserved": 0, "lon": -77.01767233333334}, {"fusion_lat": 0.0, "name": "3a7fd831bfda198ddcbb7f1e2ce41114", "is_disabled": 0, "rental_uris": {"android": "https://dc.lft.to/lastmile_qr_scan", "ios": "https://dc.lft.to/lastmile_qr_scan"}, "fusion_lon": 0.0, "lat": 38.8775205, "bike_id": "3a7fd831bfda198ddcbb7f1e2ce41114", "type": "electric_scooter", "is_reserved": 0, "lon": -77.01429583333334}, {"fusion_lat": 0.0, "name": "12e08b25c33eb99183b2ede22c85571e", "is_disabled": 0, "rental_uris": {"android": "https://dc.lft.to/lastmile_qr_scan", "ios": "https://dc.lft.to/lastmile_qr_scan"}, "fusion_lon": 0.0, "lat": 38.87953566666667, "bike_id": "12e08b25c33eb99183b2ede22c85571e", "type": "electric_scooter", "is_reserved": 0, "lon": -76.99014966666667}, {"fusion_lat": 0.0, "name": "a7cc92ba8227c80c37b33662b7a7232e", "is_disabled": 0, "rental_uris": {"android": "https://dc.lft.to/lastmile_qr_scan", "ios": "https://dc.lft.to/lastmile_qr_scan"}, "fusion_lon": 0.0, "lat": 38.8900865, "bike_id": "a7cc92ba8227c80c37b33662b7a7232e", "type": "electric_scooter", "is_reserved": 0, "lon": -76.93740533333333}, {"fusion_lat": 0.0, "name": "52e10d4be5fefc230114d67d22f1151d", "is_disabled": 0, "rental_uris": {"android": "https://dc.lft.to/lastmile_qr_scan", "ios": "https://dc.lft.to/lastmile_qr_scan"}, "fusion_lon": 0.0, "lat": 38.821886666666664, "bike_id": "52e10d4be5fefc230114d67d22f1151d", "type": "electric_bike", "is_reserved": 0, "lon": -76.995106}, {"fusion_lat": 0.0, "name": "4cd07025b4bf674b3eba7ad4eddd7971", "is_disabled": 0, "rental_uris": {"android": "https://dc.lft.to/lastmile_qr_scan", "ios": "https://dc.lft.to/lastmile_qr_scan"}, "fusion_lon": 0.0, "lat": 38.926023, "bike_id": "4cd07025b4bf674b3eba7ad4eddd7971", "type": "electric_scooter", "is_reserved": 0, "lon": -77.02150966666666}, {"fusion_lat": 0.0, "name": "6a7cc2e7dfd617f6b889c281acee7276", "is_disabled": 0, "rental_uris": {"android": "https://dc.lft.to/lastmile_qr_scan", "ios": "https://dc.lft.to/lastmile_qr_scan"}, "fusion_lon": 0.0, "lat": 38.916678833333336, "bike_id": "6a7cc2e7dfd617f6b889c281acee7276", "type": "electric_scooter", "is_reserved": 0, "lon": -77.02825666666666}, {"fusion_lat": 0.0, "name": "fdb58ae6000d9436221ebe4bba59c95e", "is_disabled": 0, "rental_uris": {"android": "https://dc.lft.to/lastmile_qr_scan", "ios": "https://dc.lft.to/lastmile_qr_scan"}, "fusion_lon": 0.0, "lat": 38.876849, "bike_id": "fdb58ae6000d9436221ebe4bba59c95e", "type": "electric_scooter", "is_reserved": 0, "lon": -77.01760566666667}, {"fusion_lat": 0.0, "name": "6b68023a54fd7727997e395e9f3ebf17", "is_disabled": 0, "rental_uris": {"android": "https://dc.lft.to/lastmile_qr_scan", "ios": "https://dc.lft.to/lastmile_qr_scan"}, "fusion_lon": 0.0, "lat": 38.932672333333336, "bike_id": "6b68023a54fd7727997e395e9f3ebf17", "type": "electric_scooter", "is_reserved": 0, "lon": -77.02088483333333}, {"fusion_lat": 0.0, "name": "2c657d1cf6ab927bbf2fd26d2c68192b", "is_disabled": 0, "rental_uris": {"android": "https://dc.lft.to/lastmile_qr_scan", "ios": "https://dc.lft.to/lastmile_qr_scan"}, "fusion_lon": 0.0, "lat": 38.905814666666664, "bike_id": "2c657d1cf6ab927bbf2fd26d2c68192b", "type": "electric_scooter", "is_reserved": 0, "lon": -77.03472233333333}, {"fusion_lat": 0.0, "name": "3c60e1c2ba05d40ae0a54697f75bb0bc", "is_disabled": 0, "rental_uris": {"android": "https://dc.lft.to/lastmile_qr_scan", "ios": "https://dc.lft.to/lastmile_qr_scan"}, "fusion_lon": 0.0, "lat": 38.86764266666667, "bike_id": "3c60e1c2ba05d40ae0a54697f75bb0bc", "type": "electric_scooter", "is_reserved": 0, "lon": -76.982683}, {"fusion_lat": 0.0, "name": "fc25777072d722e0ef335642d963bd8e", "is_disabled": 0, "rental_uris": {"android": "https://dc.lft.to/lastmile_qr_scan", "ios": "https://dc.lft.to/lastmile_qr_scan"}, "fusion_lon": 0.0, "lat": 38.90521566666666, "bike_id": "fc25777072d722e0ef335642d963bd8e", "type": "electric_scooter", "is_reserved": 0, "lon": -77.0297045}, {"fusion_lat": 0.0, "name": "385ed3555bd5b9a155bdcab4a3b7132c", "is_disabled": 0, "rental_uris": {"android": "https://dc.lft.to/lastmile_qr_scan", "ios": "https://dc.lft.to/lastmile_qr_scan"}, "fusion_lon": 0.0, "lat": 38.9126375, "bike_id": "385ed3555bd5b9a155bdcab4a3b7132c", "type": "electric_scooter", "is_reserved": 0, "lon": -77.038668}, {"fusion_lat": 0.0, "name": "a001dd283c271e4ea787eea54f50daf4", "is_disabled": 0, "rental_uris": {"android": "https://dc.lft.to/lastmile_qr_scan", "ios": "https://dc.lft.to/lastmile_qr_scan"}, "fusion_lon": 0.0, "lat": 38.928035666666666, "bike_id": "a001dd283c271e4ea787eea54f50daf4", "type": "electric_scooter", "is_reserved": 0, "lon": -77.0238785}, {"fusion_lat": 0.0, "name": "899df2be105f8d40d6833a1d12a28357", "is_disabled": 0, "rental_uris": {"android": "https://dc.lft.to/lastmile_qr_scan", "ios": "https://dc.lft.to/lastmile_qr_scan"}, "fusion_lon": 0.0, "lat": 38.889035666666665, "bike_id": "899df2be105f8d40d6833a1d12a28357", "type": "electric_scooter", "is_reserved": 0, "lon": -76.977326}, {"fusion_lat": 0.0, "name": "3f6adf4c75c48ae79dc12c4963a5fa5a", "is_disabled": 0, "rental_uris": {"android": "https://dc.lft.to/lastmile_qr_scan", "ios": "https://dc.lft.to/lastmile_qr_scan"}, "fusion_lon": 0.0, "lat": 38.90244283333333, "bike_id": "3f6adf4c75c48ae79dc12c4963a5fa5a", "type": "electric_scooter", "is_reserved": 0, "lon": -77.03960633333334}, {"fusion_lat": 0.0, "name": "062bacf5155a3f07bb6c037599b55674", "is_disabled": 0, "rental_uris": {"android": "https://dc.lft.to/lastmile_qr_scan", "ios": "https://dc.lft.to/lastmile_qr_scan"}, "fusion_lon": 0.0, "lat": 38.873845833333334, "bike_id": "062bacf5155a3f07bb6c037599b55674", "type": "electric_scooter", "is_reserved": 0, "lon": -77.00044916666667}, {"fusion_lat": 0.0, "name": "847c78358319f0d1f550def67def8b7e", "is_disabled": 0, "rental_uris": {"android": "https://dc.lft.to/lastmile_qr_scan", "ios": "https://dc.lft.to/lastmile_qr_scan"}, "fusion_lon": 0.0, "lat": 38.92555616666667, "bike_id": "847c78358319f0d1f550def67def8b7e", "type": "electric_scooter", "is_reserved": 0, "lon": -76.98298983333333}, {"fusion_lat": 0.0, "name": "f04478c6380270a0cd2b201a50a4f9ab", "is_disabled": 0, "rental_uris": {"android": "https://dc.lft.to/lastmile_qr_scan", "ios": "https://dc.lft.to/lastmile_qr_scan"}, "fusion_lon": 0.0, "lat": 38.902031, "bike_id": "f04478c6380270a0cd2b201a50a4f9ab", "type": "electric_scooter", "is_reserved": 0, "lon": -77.01614766666667}, {"fusion_lat": 0.0, "name": "7536deaaeb240015ba3162124e510ba9", "is_disabled": 0, "rental_uris": {"android": "https://dc.lft.to/lastmile_qr_scan", "ios": "https://dc.lft.to/lastmile_qr_scan"}, "fusion_lon": 0.0, "lat": 38.91666033333333, "bike_id": "7536deaaeb240015ba3162124e510ba9", "type": "electric_scooter", "is_reserved": 0, "lon": -77.03847866666666}, {"fusion_lat": 0.0, "name": "230c42c3b43f5558ae345f00ae91e916", "is_disabled": 0, "rental_uris": {"android": "https://dc.lft.to/lastmile_qr_scan", "ios": "https://dc.lft.to/lastmile_qr_scan"}, "fusion_lon": 0.0, "lat": 38.92675066666666, "bike_id": "230c42c3b43f5558ae345f00ae91e916", "type": "electric_scooter", "is_reserved": 0, "lon": -77.03142933333334}, {"fusion_lat": 0.0, "name": "6ae7df13347cba7ff12e50deca6758af", "is_disabled": 0, "rental_uris": {"android": "https://dc.lft.to/lastmile_qr_scan", "ios": "https://dc.lft.to/lastmile_qr_scan"}, "fusion_lon": 0.0, "lat": 38.90693916666667, "bike_id": "6ae7df13347cba7ff12e50deca6758af", "type": "electric_scooter", "is_reserved": 0, "lon": -77.0745775}, {"fusion_lat": 0.0, "name": "d7fc8d6fc57de612d76faf34dc9d8b78", "is_disabled": 0, "rental_uris": {"android": "https://dc.lft.to/lastmile_qr_scan", "ios": "https://dc.lft.to/lastmile_qr_scan"}, "fusion_lon": 0.0, "lat": 38.8935315, "bike_id": "d7fc8d6fc57de612d76faf34dc9d8b78", "type": "electric_scooter", "is_reserved": 0, "lon": -77.02798266666667}, {"fusion_lat": 0.0, "name": "6e8dfd87fc066abcc0b936a334321b20", "is_disabled": 0, "rental_uris": {"android": "https://dc.lft.to/lastmile_qr_scan", "ios": "https://dc.lft.to/lastmile_qr_scan"}, "fusion_lon": 0.0, "lat": 38.919827, "bike_id": "6e8dfd87fc066abcc0b936a334321b20", "type": "electric_scooter", "is_reserved": 0, "lon": -77.02374716666667}, {"fusion_lat": 0.0, "name": "a17ec1b87a778da3ebd9402135ab7999", "is_disabled": 0, "rental_uris": {"android": "https://dc.lft.to/lastmile_qr_scan", "ios": "https://dc.lft.to/lastmile_qr_scan"}, "fusion_lon": 0.0, "lat": 38.90734533333333, "bike_id": "a17ec1b87a778da3ebd9402135ab7999", "type": "electric_scooter", "is_reserved": 0, "lon": -77.02965166666667}, {"fusion_lat": 0.0, "name": "0055f34179b973a24ef30783dd859d74", "is_disabled": 0, "rental_uris": {"android": "https://dc.lft.to/lastmile_qr_scan", "ios": "https://dc.lft.to/lastmile_qr_scan"}, "fusion_lon": 0.0, "lat": 38.931031833333336, "bike_id": "0055f34179b973a24ef30783dd859d74", "type": "electric_scooter", "is_reserved": 0, "lon": -77.02392833333333}, {"fusion_lat": 0.0, "name": "f9ddba744fd8af645449209d89f43a14", "is_disabled": 0, "rental_uris": {"android": "https://dc.lft.to/lastmile_qr_scan", "ios": "https://dc.lft.to/lastmile_qr_scan"}, "fusion_lon": 0.0, "lat": 38.941673, "bike_id": "f9ddba744fd8af645449209d89f43a14", "type": "electric_scooter", "is_reserved": 0, "lon": -77.02509466666666}, {"fusion_lat": 0.0, "name": "59de299b7db3263500f2a842ef0617e2", "is_disabled": 0, "rental_uris": {"android": "https://dc.lft.to/lastmile_qr_scan", "ios": "https://dc.lft.to/lastmile_qr_scan"}, "fusion_lon": 0.0, "lat": 38.888072333333334, "bike_id": "59de299b7db3263500f2a842ef0617e2", "type": "electric_scooter", "is_reserved": 0, "lon": -76.98352066666666}, {"fusion_lat": 0.0, "name": "a922c27366058d84211a71621788a698", "is_disabled": 0, "rental_uris": {"android": "https://dc.lft.to/lastmile_qr_scan", "ios": "https://dc.lft.to/lastmile_qr_scan"}, "fusion_lon": 0.0, "lat": 38.86644366666667, "bike_id": "a922c27366058d84211a71621788a698", "type": "electric_scooter", "is_reserved": 0, "lon": -76.98311183333334}, {"fusion_lat": 0.0, "name": "ffd3f8fe9bfaddc078b1f7379077de12", "is_disabled": 0, "rental_uris": {"android": "https://dc.lft.to/lastmile_qr_scan", "ios": "https://dc.lft.to/lastmile_qr_scan"}, "fusion_lon": 0.0, "lat": 38.905551, "bike_id": "ffd3f8fe9bfaddc078b1f7379077de12", "type": "electric_scooter", "is_reserved": 0, "lon": -77.00576216666667}, {"fusion_lat": 0.0, "name": "478d564bfb0d0e2729caa4d822efee66", "is_disabled": 0, "rental_uris": {"android": "https://dc.lft.to/lastmile_qr_scan", "ios": "https://dc.lft.to/lastmile_qr_scan"}, "fusion_lon": 0.0, "lat": 38.931302333333335, "bike_id": "478d564bfb0d0e2729caa4d822efee66", "type": "electric_scooter", "is_reserved": 0, "lon": -77.0219445}, {"fusion_lat": 0.0, "name": "64883b9fc11d48ef35e30138d23c90a0", "is_disabled": 0, "rental_uris": {"android": "https://dc.lft.to/lastmile_qr_scan", "ios": "https://dc.lft.to/lastmile_qr_scan"}, "fusion_lon": 0.0, "lat": 38.9134245, "bike_id": "64883b9fc11d48ef35e30138d23c90a0", "type": "electric_scooter", "is_reserved": 0, "lon": -77.04343983333334}, {"fusion_lat": 0.0, "name": "4edee4d1c93662cd75b438b435a4646d", "is_disabled": 0, "rental_uris": {"android": "https://dc.lft.to/lastmile_qr_scan", "ios": "https://dc.lft.to/lastmile_qr_scan"}, "fusion_lon": 0.0, "lat": 39.01413816666667, "bike_id": "4edee4d1c93662cd75b438b435a4646d", "type": "electric_bike", "is_reserved": 0, "lon": -77.04491133333333}, {"fusion_lat": 0.0, "name": "72885b87a88c436e468b251835a3c6ad", "is_disabled": 0, "rental_uris": {"android": "https://dc.lft.to/lastmile_qr_scan", "ios": "https://dc.lft.to/lastmile_qr_scan"}, "fusion_lon": 0.0, "lat": 38.92830416666666, "bike_id": "72885b87a88c436e468b251835a3c6ad", "type": "electric_bike", "is_reserved": 0, "lon": -77.0541245}, {"fusion_lat": 0.0, "name": "05f105fa10adae4545bb50bb22159e62", "is_disabled": 0, "rental_uris": {"android": "https://dc.lft.to/lastmile_qr_scan", "ios": "https://dc.lft.to/lastmile_qr_scan"}, "fusion_lon": 0.0, "lat": 38.84915133333333, "bike_id": "05f105fa10adae4545bb50bb22159e62", "type": "electric_bike", "is_reserved": 0, "lon": -77.07926166666667}, {"fusion_lat": 0.0, "name": "4aaabdcb7960522a061a0a71ce5ab20b", "is_disabled": 0, "rental_uris": {"android": "https://dc.lft.to/lastmile_qr_scan", "ios": "https://dc.lft.to/lastmile_qr_scan"}, "fusion_lon": 0.0, "lat": 38.931956, "bike_id": "4aaabdcb7960522a061a0a71ce5ab20b", "type": "electric_scooter", "is_reserved": 0, "lon": -77.02976166666667}, {"fusion_lat": 0.0, "name": "fae5cd297c238d1f835b51421ed0647a", "is_disabled": 0, "rental_uris": {"android": "https://dc.lft.to/lastmile_qr_scan", "ios": "https://dc.lft.to/lastmile_qr_scan"}, "fusion_lon": 0.0, "lat": 38.9005915, "bike_id": "fae5cd297c238d1f835b51421ed0647a", "type": "electric_scooter", "is_reserved": 0, "lon": -76.98713233333334}, {"fusion_lat": 0.0, "name": "485e2ff894005f9878e35c261f06cc9c", "is_disabled": 0, "rental_uris": {"android": "https://dc.lft.to/lastmile_qr_scan", "ios": "https://dc.lft.to/lastmile_qr_scan"}, "fusion_lon": 0.0, "lat": 38.927079666666664, "bike_id": "485e2ff894005f9878e35c261f06cc9c", "type": "electric_scooter", "is_reserved": 0, "lon": -77.02083616666667}, {"fusion_lat": 0.0, "name": "dd8476eaae2a0c1f8d47054b348bfa25", "is_disabled": 0, "rental_uris": {"android": "https://dc.lft.to/lastmile_qr_scan", "ios": "https://dc.lft.to/lastmile_qr_scan"}, "fusion_lon": 0.0, "lat": 38.88503083333333, "bike_id": "dd8476eaae2a0c1f8d47054b348bfa25", "type": "electric_scooter", "is_reserved": 0, "lon": -76.997523}, {"fusion_lat": 0.0, "name": "6c31f5f50063f29a33b5532ddcd3f32c", "is_disabled": 0, "rental_uris": {"android": "https://dc.lft.to/lastmile_qr_scan", "ios": "https://dc.lft.to/lastmile_qr_scan"}, "fusion_lon": 0.0, "lat": 38.8161115, "bike_id": "6c31f5f50063f29a33b5532ddcd3f32c", "type": "electric_bike", "is_reserved": 0, "lon": -76.99655333333334}, {"fusion_lat": 0.0, "name": "7a88f363029b40b0b41c3b0be02ee27c", "is_disabled": 0, "rental_uris": {"android": "https://dc.lft.to/lastmile_qr_scan", "ios": "https://dc.lft.to/lastmile_qr_scan"}, "fusion_lon": 0.0, "lat": 38.91113033333333, "bike_id": "7a88f363029b40b0b41c3b0be02ee27c", "type": "electric_scooter", "is_reserved": 0, "lon": -77.03824266666666}, {"fusion_lat": 0.0, "name": "8800e295e750387029a5292ed095eed1", "is_disabled": 0, "rental_uris": {"android": "https://dc.lft.to/lastmile_qr_scan", "ios": "https://dc.lft.to/lastmile_qr_scan"}, "fusion_lon": 0.0, "lat": 38.910269166666666, "bike_id": "8800e295e750387029a5292ed095eed1", "type": "electric_scooter", "is_reserved": 0, "lon": -77.033236}, {"fusion_lat": 0.0, "name": "f447e6d1fe91d0d69b03efa09f891170", "is_disabled": 0, "rental_uris": {"android": "https://dc.lft.to/lastmile_qr_scan", "ios": "https://dc.lft.to/lastmile_qr_scan"}, "fusion_lon": 0.0, "lat": 38.900263333333335, "bike_id": "f447e6d1fe91d0d69b03efa09f891170", "type": "electric_scooter", "is_reserved": 0, "lon": -77.00036633333333}, {"fusion_lat": 0.0, "name": "55733ff584ab0dbc086219cfc8cc8aac", "is_disabled": 0, "rental_uris": {"android": "https://dc.lft.to/lastmile_qr_scan", "ios": "https://dc.lft.to/lastmile_qr_scan"}, "fusion_lon": 0.0, "lat": 38.911102166666666, "bike_id": "55733ff584ab0dbc086219cfc8cc8aac", "type": "electric_scooter", "is_reserved": 0, "lon": -77.02169233333333}, {"fusion_lat": 0.0, "name": "25c4bf0e7dc8a7fe6dfc84e48d909b92", "is_disabled": 0, "rental_uris": {"android": "https://dc.lft.to/lastmile_qr_scan", "ios": "https://dc.lft.to/lastmile_qr_scan"}, "fusion_lon": 0.0, "lat": 38.91064033333333, "bike_id": "25c4bf0e7dc8a7fe6dfc84e48d909b92", "type": "electric_scooter", "is_reserved": 0, "lon": -77.052696}, {"fusion_lat": 0.0, "name": "ea4aa9cb48a46f7a39158512d3b0a292", "is_disabled": 0, "rental_uris": {"android": "https://dc.lft.to/lastmile_qr_scan", "ios": "https://dc.lft.to/lastmile_qr_scan"}, "fusion_lon": 0.0, "lat": 38.9006105, "bike_id": "ea4aa9cb48a46f7a39158512d3b0a292", "type": "electric_scooter", "is_reserved": 0, "lon": -76.98556783333333}, {"fusion_lat": 0.0, "name": "126b4bead74621a5755d275d5ab5c7fe", "is_disabled": 0, "rental_uris": {"android": "https://dc.lft.to/lastmile_qr_scan", "ios": "https://dc.lft.to/lastmile_qr_scan"}, "fusion_lon": 0.0, "lat": 38.94334116666667, "bike_id": "126b4bead74621a5755d275d5ab5c7fe", "type": "electric_scooter", "is_reserved": 0, "lon": -77.02683583333334}, {"fusion_lat": 0.0, "name": "baefe2e4683641b1c1e76aade7e16c50", "is_disabled": 0, "rental_uris": {"android": "https://dc.lft.to/lastmile_qr_scan", "ios": "https://dc.lft.to/lastmile_qr_scan"}, "fusion_lon": 0.0, "lat": 38.9170825, "bike_id": "baefe2e4683641b1c1e76aade7e16c50", "type": "electric_scooter", "is_reserved": 0, "lon": -77.00109966666666}, {"fusion_lat": 0.0, "name": "c44ff4ff6250f21b6a6dcc29061aa0ad", "is_disabled": 0, "rental_uris": {"android": "https://dc.lft.to/lastmile_qr_scan", "ios": "https://dc.lft.to/lastmile_qr_scan"}, "fusion_lon": 0.0, "lat": 38.898513333333334, "bike_id": "c44ff4ff6250f21b6a6dcc29061aa0ad", "type": "electric_scooter", "is_reserved": 0, "lon": -76.99028233333334}, {"fusion_lat": 0.0, "name": "5c226f0d21f3f96492822af70133d0ca", "is_disabled": 0, "rental_uris": {"android": "https://dc.lft.to/lastmile_qr_scan", "ios": "https://dc.lft.to/lastmile_qr_scan"}, "fusion_lon": 0.0, "lat": 38.9074105, "bike_id": "5c226f0d21f3f96492822af70133d0ca", "type": "electric_scooter", "is_reserved": 0, "lon": -77.029591}, {"fusion_lat": 0.0, "name": "de66d268057d9011e5ca46ef407e99ca", "is_disabled": 0, "rental_uris": {"android": "https://dc.lft.to/lastmile_qr_scan", "ios": "https://dc.lft.to/lastmile_qr_scan"}, "fusion_lon": 0.0, "lat": 38.92867583333334, "bike_id": "de66d268057d9011e5ca46ef407e99ca", "type": "electric_scooter", "is_reserved": 0, "lon": -77.03789083333334}, {"fusion_lat": 0.0, "name": "8ce9221b253b10c93eee8779ccd78c0e", "is_disabled": 0, "rental_uris": {"android": "https://dc.lft.to/lastmile_qr_scan", "ios": "https://dc.lft.to/lastmile_qr_scan"}, "fusion_lon": 0.0, "lat": 38.9204495, "bike_id": "8ce9221b253b10c93eee8779ccd78c0e", "type": "electric_scooter", "is_reserved": 0, "lon": -77.02531783333333}, {"fusion_lat": 0.0, "name": "950d37e80f0b222a2a3584164b01c164", "is_disabled": 0, "rental_uris": {"android": "https://dc.lft.to/lastmile_qr_scan", "ios": "https://dc.lft.to/lastmile_qr_scan"}, "fusion_lon": 0.0, "lat": 38.8930095, "bike_id": "950d37e80f0b222a2a3584164b01c164", "type": "electric_scooter", "is_reserved": 0, "lon": -77.02144216666667}, {"fusion_lat": 0.0, "name": "0f127b678a9b306b608bc37bd7383306", "is_disabled": 0, "rental_uris": {"android": "https://dc.lft.to/lastmile_qr_scan", "ios": "https://dc.lft.to/lastmile_qr_scan"}, "fusion_lon": 0.0, "lat": 38.946615333333334, "bike_id": "0f127b678a9b306b608bc37bd7383306", "type": "electric_bike", "is_reserved": 0, "lon": -76.95670666666666}, {"fusion_lat": 0.0, "name": "bcecf5293600c344a634af0b02543aab", "is_disabled": 0, "rental_uris": {"android": "https://dc.lft.to/lastmile_qr_scan", "ios": "https://dc.lft.to/lastmile_qr_scan"}, "fusion_lon": 0.0, "lat": 38.9175165, "bike_id": "bcecf5293600c344a634af0b02543aab", "type": "electric_scooter", "is_reserved": 0, "lon": -77.0415875}, {"fusion_lat": 0.0, "name": "4ae1837d4349dd885b27ee07ed967899", "is_disabled": 0, "rental_uris": {"android": "https://dc.lft.to/lastmile_qr_scan", "ios": "https://dc.lft.to/lastmile_qr_scan"}, "fusion_lon": 0.0, "lat": 38.92107633333333, "bike_id": "4ae1837d4349dd885b27ee07ed967899", "type": "electric_scooter", "is_reserved": 0, "lon": -77.0469025}, {"fusion_lat": 0.0, "name": "e0dc392738acfd7b4330495a2cae1e1b", "is_disabled": 0, "rental_uris": {"android": "https://dc.lft.to/lastmile_qr_scan", "ios": "https://dc.lft.to/lastmile_qr_scan"}, "fusion_lon": 0.0, "lat": 38.89907766666666, "bike_id": "e0dc392738acfd7b4330495a2cae1e1b", "type": "electric_scooter", "is_reserved": 0, "lon": -76.93348366666666}, {"fusion_lat": 0.0, "name": "953a935fbf35524c15ac63e229a77e98", "is_disabled": 0, "rental_uris": {"android": "https://dc.lft.to/lastmile_qr_scan", "ios": "https://dc.lft.to/lastmile_qr_scan"}, "fusion_lon": 0.0, "lat": 38.897925666666666, "bike_id": "953a935fbf35524c15ac63e229a77e98", "type": "electric_scooter", "is_reserved": 0, "lon": -77.04662033333334}, {"fusion_lat": 0.0, "name": "d3a419d31d710ebccb8dbe5a33a63b6c", "is_disabled": 0, "rental_uris": {"android": "https://dc.lft.to/lastmile_qr_scan", "ios": "https://dc.lft.to/lastmile_qr_scan"}, "fusion_lon": 0.0, "lat": 38.90032566666667, "bike_id": "d3a419d31d710ebccb8dbe5a33a63b6c", "type": "electric_scooter", "is_reserved": 0, "lon": -77.0582255}, {"fusion_lat": 0.0, "name": "5f923dacc3c502f3fff7fba7f07b7b6b", "is_disabled": 0, "rental_uris": {"android": "https://dc.lft.to/lastmile_qr_scan", "ios": "https://dc.lft.to/lastmile_qr_scan"}, "fusion_lon": 0.0, "lat": 38.90054966666667, "bike_id": "5f923dacc3c502f3fff7fba7f07b7b6b", "type": "electric_scooter", "is_reserved": 0, "lon": -77.056213}, {"fusion_lat": 0.0, "name": "2d49840f82aeb06da63f4b3591db6088", "is_disabled": 0, "rental_uris": {"android": "https://dc.lft.to/lastmile_qr_scan", "ios": "https://dc.lft.to/lastmile_qr_scan"}, "fusion_lon": 0.0, "lat": 38.9483655, "bike_id": "2d49840f82aeb06da63f4b3591db6088", "type": "electric_scooter", "is_reserved": 0, "lon": -77.02561666666666}, {"fusion_lat": 0.0, "name": "ac1713afc2a2a05995dc60e08ece4836", "is_disabled": 0, "rental_uris": {"android": "https://dc.lft.to/lastmile_qr_scan", "ios": "https://dc.lft.to/lastmile_qr_scan"}, "fusion_lon": 0.0, "lat": 38.794695, "bike_id": "ac1713afc2a2a05995dc60e08ece4836", "type": "electric_bike", "is_reserved": 0, "lon": -76.99245933333333}, {"fusion_lat": 0.0, "name": "2a30b705fb6eb489b4a78103247171c1", "is_disabled": 0, "rental_uris": {"android": "https://dc.lft.to/lastmile_qr_scan", "ios": "https://dc.lft.to/lastmile_qr_scan"}, "fusion_lon": 0.0, "lat": 38.9170245, "bike_id": "2a30b705fb6eb489b4a78103247171c1", "type": "electric_scooter", "is_reserved": 0, "lon": -77.0417}, {"fusion_lat": 0.0, "name": "4025236e1f33e2e5158166f06337c96d", "is_disabled": 0, "rental_uris": {"android": "https://dc.lft.to/lastmile_qr_scan", "ios": "https://dc.lft.to/lastmile_qr_scan"}, "fusion_lon": 0.0, "lat": 38.922491666666666, "bike_id": "4025236e1f33e2e5158166f06337c96d", "type": "electric_scooter", "is_reserved": 0, "lon": -77.02983133333333}, {"fusion_lat": 0.0, "name": "e7330a80e9460200e05590ed143aec61", "is_disabled": 0, "rental_uris": {"android": "https://dc.lft.to/lastmile_qr_scan", "ios": "https://dc.lft.to/lastmile_qr_scan"}, "fusion_lon": 0.0, "lat": 38.919011833333336, "bike_id": "e7330a80e9460200e05590ed143aec61", "type": "electric_scooter", "is_reserved": 0, "lon": -77.02755016666667}, {"fusion_lat": 0.0, "name": "a47ae9131258d15c849bc8777a78e2eb", "is_disabled": 0, "rental_uris": {"android": "https://dc.lft.to/lastmile_qr_scan", "ios": "https://dc.lft.to/lastmile_qr_scan"}, "fusion_lon": 0.0, "lat": 38.896923, "bike_id": "a47ae9131258d15c849bc8777a78e2eb", "type": "electric_scooter", "is_reserved": 0, "lon": -77.04316616666667}, {"fusion_lat": 0.0, "name": "5ff43cddd9b6d763ff050dbda12079c1", "is_disabled": 0, "rental_uris": {"android": "https://dc.lft.to/lastmile_qr_scan", "ios": "https://dc.lft.to/lastmile_qr_scan"}, "fusion_lon": 0.0, "lat": 38.92641316666667, "bike_id": "5ff43cddd9b6d763ff050dbda12079c1", "type": "electric_scooter", "is_reserved": 0, "lon": -77.03321383333333}, {"fusion_lat": 0.0, "name": "4fae4ac6a0e2ab73c2980eec6aff8cdb", "is_disabled": 0, "rental_uris": {"android": "https://dc.lft.to/lastmile_qr_scan", "ios": "https://dc.lft.to/lastmile_qr_scan"}, "fusion_lon": 0.0, "lat": 38.907032666666666, "bike_id": "4fae4ac6a0e2ab73c2980eec6aff8cdb", "type": "electric_scooter", "is_reserved": 0, "lon": -77.02712966666667}, {"fusion_lat": 0.0, "name": "5bd92ef85d2b647346d20d06b8275bcb", "is_disabled": 0, "rental_uris": {"android": "https://dc.lft.to/lastmile_qr_scan", "ios": "https://dc.lft.to/lastmile_qr_scan"}, "fusion_lon": 0.0, "lat": 38.91128783333333, "bike_id": "5bd92ef85d2b647346d20d06b8275bcb", "type": "electric_scooter", "is_reserved": 0, "lon": -77.02090283333334}, {"fusion_lat": 0.0, "name": "5179ec7ce0cd36496823d1d2fa898ec2", "is_disabled": 0, "rental_uris": {"android": "https://dc.lft.to/lastmile_qr_scan", "ios": "https://dc.lft.to/lastmile_qr_scan"}, "fusion_lon": 0.0, "lat": 38.973712, "bike_id": "5179ec7ce0cd36496823d1d2fa898ec2", "type": "electric_scooter", "is_reserved": 0, "lon": -77.01290383333334}, {"fusion_lat": 0.0, "name": "8145d604c6e76b8bd53ea21ff5ea071e", "is_disabled": 0, "rental_uris": {"android": "https://dc.lft.to/lastmile_qr_scan", "ios": "https://dc.lft.to/lastmile_qr_scan"}, "fusion_lon": 0.0, "lat": 38.89117983333333, "bike_id": "8145d604c6e76b8bd53ea21ff5ea071e", "type": "electric_scooter", "is_reserved": 0, "lon": -76.943833}, {"fusion_lat": 0.0, "name": "2a7db4259447b64ba09520e986dd5d00", "is_disabled": 0, "rental_uris": {"android": "https://dc.lft.to/lastmile_qr_scan", "ios": "https://dc.lft.to/lastmile_qr_scan"}, "fusion_lon": 0.0, "lat": 38.908771333333334, "bike_id": "2a7db4259447b64ba09520e986dd5d00", "type": "electric_scooter", "is_reserved": 0, "lon": -77.04265333333333}, {"fusion_lat": 0.0, "name": "efe66b8c28df6e9b71f0297574afbf47", "is_disabled": 0, "rental_uris": {"android": "https://dc.lft.to/lastmile_qr_scan", "ios": "https://dc.lft.to/lastmile_qr_scan"}, "fusion_lon": 0.0, "lat": 38.96986033333334, "bike_id": "efe66b8c28df6e9b71f0297574afbf47", "type": "electric_scooter", "is_reserved": 0, "lon": -77.01157433333333}, {"fusion_lat": 0.0, "name": "5f3fab7164f9a1171f5bafce82b43cb7", "is_disabled": 0, "rental_uris": {"android": "https://dc.lft.to/lastmile_qr_scan", "ios": "https://dc.lft.to/lastmile_qr_scan"}, "fusion_lon": 0.0, "lat": 38.91109733333333, "bike_id": "5f3fab7164f9a1171f5bafce82b43cb7", "type": "electric_scooter", "is_reserved": 0, "lon": -77.02907283333333}, {"fusion_lat": 0.0, "name": "9d22ee8c47ba9a0501e7b716ab6cb243", "is_disabled": 0, "rental_uris": {"android": "https://dc.lft.to/lastmile_qr_scan", "ios": "https://dc.lft.to/lastmile_qr_scan"}, "fusion_lon": 0.0, "lat": 38.9306075, "bike_id": "9d22ee8c47ba9a0501e7b716ab6cb243", "type": "electric_scooter", "is_reserved": 0, "lon": -77.0404345}, {"fusion_lat": 0.0, "name": "d1ba0b101b29d98f01e2701def85be05", "is_disabled": 0, "rental_uris": {"android": "https://dc.lft.to/lastmile_qr_scan", "ios": "https://dc.lft.to/lastmile_qr_scan"}, "fusion_lon": 0.0, "lat": 38.89734983333334, "bike_id": "d1ba0b101b29d98f01e2701def85be05", "type": "electric_bike", "is_reserved": 0, "lon": -76.92049933333334}, {"fusion_lat": 0.0, "name": "b7e48eb89bbf3a3dfb0643f957656ce1", "is_disabled": 0, "rental_uris": {"android": "https://dc.lft.to/lastmile_qr_scan", "ios": "https://dc.lft.to/lastmile_qr_scan"}, "fusion_lon": 0.0, "lat": 38.881103833333334, "bike_id": "b7e48eb89bbf3a3dfb0643f957656ce1", "type": "electric_bike", "is_reserved": 0, "lon": -77.01658383333333}, {"fusion_lat": 0.0, "name": "53f9d76afc5dd9217b577cb85955739c", "is_disabled": 0, "rental_uris": {"android": "https://dc.lft.to/lastmile_qr_scan", "ios": "https://dc.lft.to/lastmile_qr_scan"}, "fusion_lon": 0.0, "lat": 38.909229333333336, "bike_id": "53f9d76afc5dd9217b577cb85955739c", "type": "electric_scooter", "is_reserved": 0, "lon": -77.0729065}, {"fusion_lat": 0.0, "name": "08f9f149d7229ef5d0b648878941efb7", "is_disabled": 0, "rental_uris": {"android": "https://dc.lft.to/lastmile_qr_scan", "ios": "https://dc.lft.to/lastmile_qr_scan"}, "fusion_lon": 0.0, "lat": 38.89731616666667, "bike_id": "08f9f149d7229ef5d0b648878941efb7", "type": "electric_scooter", "is_reserved": 0, "lon": -77.00363616666667}, {"fusion_lat": 0.0, "name": "bb3434a052e77f3b377674a7a7055035", "is_disabled": 0, "rental_uris": {"android": "https://dc.lft.to/lastmile_qr_scan", "ios": "https://dc.lft.to/lastmile_qr_scan"}, "fusion_lon": 0.0, "lat": 38.919078999999996, "bike_id": "bb3434a052e77f3b377674a7a7055035", "type": "electric_scooter", "is_reserved": 0, "lon": -77.002093}, {"fusion_lat": 0.0, "name": "0fb4b96b8d404cfc5d8ab13cb608d019", "is_disabled": 0, "rental_uris": {"android": "https://dc.lft.to/lastmile_qr_scan", "ios": "https://dc.lft.to/lastmile_qr_scan"}, "fusion_lon": 0.0, "lat": 38.88767716666667, "bike_id": "0fb4b96b8d404cfc5d8ab13cb608d019", "type": "electric_scooter", "is_reserved": 0, "lon": -76.97742033333333}, {"fusion_lat": 0.0, "name": "fd4fbabb5ce1f08ba790e59e7b0d24e3", "is_disabled": 0, "rental_uris": {"android": "https://dc.lft.to/lastmile_qr_scan", "ios": "https://dc.lft.to/lastmile_qr_scan"}, "fusion_lon": 0.0, "lat": 38.905691, "bike_id": "fd4fbabb5ce1f08ba790e59e7b0d24e3", "type": "electric_scooter", "is_reserved": 0, "lon": -77.04421133333334}, {"fusion_lat": 0.0, "name": "a9c0aabf7569164e3a98b47a2f4d42d2", "is_disabled": 0, "rental_uris": {"android": "https://dc.lft.to/lastmile_qr_scan", "ios": "https://dc.lft.to/lastmile_qr_scan"}, "fusion_lon": 0.0, "lat": 38.89827066666667, "bike_id": "a9c0aabf7569164e3a98b47a2f4d42d2", "type": "electric_scooter", "is_reserved": 0, "lon": -77.00738016666666}, {"fusion_lat": 0.0, "name": "b68edebd9e114f77e40f233d08b520d5", "is_disabled": 0, "rental_uris": {"android": "https://dc.lft.to/lastmile_qr_scan", "ios": "https://dc.lft.to/lastmile_qr_scan"}, "fusion_lon": 0.0, "lat": 38.984602833333334, "bike_id": "b68edebd9e114f77e40f233d08b520d5", "type": "electric_bike", "is_reserved": 0, "lon": -76.9705345}, {"fusion_lat": 0.0, "name": "bc375e0f162262596036e64275d17ecb", "is_disabled": 0, "rental_uris": {"android": "https://dc.lft.to/lastmile_qr_scan", "ios": "https://dc.lft.to/lastmile_qr_scan"}, "fusion_lon": 0.0, "lat": 38.90683816666667, "bike_id": "bc375e0f162262596036e64275d17ecb", "type": "electric_bike", "is_reserved": 0, "lon": -76.94490116666667}, {"fusion_lat": 0.0, "name": "088db9154ab999835ece118d45fdf9a2", "is_disabled": 0, "rental_uris": {"android": "https://dc.lft.to/lastmile_qr_scan", "ios": "https://dc.lft.to/lastmile_qr_scan"}, "fusion_lon": 0.0, "lat": 38.87848433333333, "bike_id": "088db9154ab999835ece118d45fdf9a2", "type": "electric_bike", "is_reserved": 0, "lon": -77.03026833333334}, {"fusion_lat": 0.0, "name": "a25e200e2eabac94b7de62f0752024d8", "is_disabled": 0, "rental_uris": {"android": "https://dc.lft.to/lastmile_qr_scan", "ios": "https://dc.lft.to/lastmile_qr_scan"}, "fusion_lon": 0.0, "lat": 38.922566333333336, "bike_id": "a25e200e2eabac94b7de62f0752024d8", "type": "electric_bike", "is_reserved": 0, "lon": -77.02215116666666}, {"fusion_lat": 0.0, "name": "7cc38e40a868f5ab57893afbbd67e86e", "is_disabled": 0, "rental_uris": {"android": "https://dc.lft.to/lastmile_qr_scan", "ios": "https://dc.lft.to/lastmile_qr_scan"}, "fusion_lon": 0.0, "lat": 38.907332, "bike_id": "7cc38e40a868f5ab57893afbbd67e86e", "type": "electric_scooter", "is_reserved": 0, "lon": -77.01123216666667}, {"fusion_lat": 0.0, "name": "81bdba12903efec3bba1b215074dff0b", "is_disabled": 0, "rental_uris": {"android": "https://dc.lft.to/lastmile_qr_scan", "ios": "https://dc.lft.to/lastmile_qr_scan"}, "fusion_lon": 0.0, "lat": 38.90029966666667, "bike_id": "81bdba12903efec3bba1b215074dff0b", "type": "electric_scooter", "is_reserved": 0, "lon": -76.99859216666667}, {"fusion_lat": 0.0, "name": "44e798cb3580bec17e04d9fa427756e8", "is_disabled": 0, "rental_uris": {"android": "https://dc.lft.to/lastmile_qr_scan", "ios": "https://dc.lft.to/lastmile_qr_scan"}, "fusion_lon": 0.0, "lat": 38.98824916666667, "bike_id": "44e798cb3580bec17e04d9fa427756e8", "type": "electric_bike", "is_reserved": 0, "lon": -76.99649666666667}, {"fusion_lat": 0.0, "name": "e9ac9f54e1a20b6165ec6528c89eefea", "is_disabled": 0, "rental_uris": {"android": "https://dc.lft.to/lastmile_qr_scan", "ios": "https://dc.lft.to/lastmile_qr_scan"}, "fusion_lon": 0.0, "lat": 38.921127166666665, "bike_id": "e9ac9f54e1a20b6165ec6528c89eefea", "type": "electric_scooter", "is_reserved": 0, "lon": -77.01764633333333}, {"fusion_lat": 0.0, "name": "7cebfe09e938b032461f3a9db28ef3c0", "is_disabled": 0, "rental_uris": {"android": "https://dc.lft.to/lastmile_qr_scan", "ios": "https://dc.lft.to/lastmile_qr_scan"}, "fusion_lon": 0.0, "lat": 38.92774083333333, "bike_id": "7cebfe09e938b032461f3a9db28ef3c0", "type": "electric_scooter", "is_reserved": 0, "lon": -77.0270165}, {"fusion_lat": 0.0, "name": "dcb74962d45e173dec7103e70f56e28f", "is_disabled": 0, "rental_uris": {"android": "https://dc.lft.to/lastmile_qr_scan", "ios": "https://dc.lft.to/lastmile_qr_scan"}, "fusion_lon": 0.0, "lat": 38.91788733333333, "bike_id": "dcb74962d45e173dec7103e70f56e28f", "type": "electric_scooter", "is_reserved": 0, "lon": -77.0230725}, {"fusion_lat": 0.0, "name": "3962d79ef93e516884960e1a4ec6b47d", "is_disabled": 0, "rental_uris": {"android": "https://dc.lft.to/lastmile_qr_scan", "ios": "https://dc.lft.to/lastmile_qr_scan"}, "fusion_lon": 0.0, "lat": 38.9015135, "bike_id": "3962d79ef93e516884960e1a4ec6b47d", "type": "electric_scooter", "is_reserved": 0, "lon": -76.93066383333333}, {"fusion_lat": 0.0, "name": "055acf70971b1e403cf36153ab1c025e", "is_disabled": 0, "rental_uris": {"android": "https://dc.lft.to/lastmile_qr_scan", "ios": "https://dc.lft.to/lastmile_qr_scan"}, "fusion_lon": 0.0, "lat": 38.91300316666667, "bike_id": "055acf70971b1e403cf36153ab1c025e", "type": "electric_scooter", "is_reserved": 0, "lon": -77.04863533333334}, {"fusion_lat": 0.0, "name": "d3ae8666976948ef05a0ca27d2511437", "is_disabled": 0, "rental_uris": {"android": "https://dc.lft.to/lastmile_qr_scan", "ios": "https://dc.lft.to/lastmile_qr_scan"}, "fusion_lon": 0.0, "lat": 38.9196235, "bike_id": "d3ae8666976948ef05a0ca27d2511437", "type": "electric_scooter", "is_reserved": 0, "lon": -77.0708095}, {"fusion_lat": 0.0, "name": "6521a7237d7848fec6320fd3d65e34d5", "is_disabled": 0, "rental_uris": {"android": "https://dc.lft.to/lastmile_qr_scan", "ios": "https://dc.lft.to/lastmile_qr_scan"}, "fusion_lon": 0.0, "lat": 38.920541666666665, "bike_id": "6521a7237d7848fec6320fd3d65e34d5", "type": "electric_scooter", "is_reserved": 0, "lon": -77.00208016666667}, {"fusion_lat": 0.0, "name": "d982df3bff16581850b90f1009bfa2a2", "is_disabled": 0, "rental_uris": {"android": "https://dc.lft.to/lastmile_qr_scan", "ios": "https://dc.lft.to/lastmile_qr_scan"}, "fusion_lon": 0.0, "lat": 38.93598683333333, "bike_id": "d982df3bff16581850b90f1009bfa2a2", "type": "electric_scooter", "is_reserved": 0, "lon": -77.02283883333334}, {"fusion_lat": 0.0, "name": "08d90c84bc77e01825ed79eab90bb802", "is_disabled": 0, "rental_uris": {"android": "https://dc.lft.to/lastmile_qr_scan", "ios": "https://dc.lft.to/lastmile_qr_scan"}, "fusion_lon": 0.0, "lat": 38.8616705, "bike_id": "08d90c84bc77e01825ed79eab90bb802", "type": "electric_scooter", "is_reserved": 0, "lon": -76.983646}, {"fusion_lat": 0.0, "name": "7c20b47a2a1ed68428d8d4f4799d00c7", "is_disabled": 0, "rental_uris": {"android": "https://dc.lft.to/lastmile_qr_scan", "ios": "https://dc.lft.to/lastmile_qr_scan"}, "fusion_lon": 0.0, "lat": 38.942291166666664, "bike_id": "7c20b47a2a1ed68428d8d4f4799d00c7", "type": "electric_bike", "is_reserved": 0, "lon": -77.013863}, {"fusion_lat": 0.0, "name": "8358d26b1f28a2fc1a47aaec724c233c", "is_disabled": 0, "rental_uris": {"android": "https://dc.lft.to/lastmile_qr_scan", "ios": "https://dc.lft.to/lastmile_qr_scan"}, "fusion_lon": 0.0, "lat": 38.9201545, "bike_id": "8358d26b1f28a2fc1a47aaec724c233c", "type": "electric_scooter", "is_reserved": 0, "lon": -77.03133733333334}, {"fusion_lat": 0.0, "name": "dc63900349995b5da7609936dff2632c", "is_disabled": 0, "rental_uris": {"android": "https://dc.lft.to/lastmile_qr_scan", "ios": "https://dc.lft.to/lastmile_qr_scan"}, "fusion_lon": 0.0, "lat": 38.8928485, "bike_id": "dc63900349995b5da7609936dff2632c", "type": "electric_scooter", "is_reserved": 0, "lon": -76.9830845}, {"fusion_lat": 0.0, "name": "f64bdb8d0a178b07842dab532384e750", "is_disabled": 0, "rental_uris": {"android": "https://dc.lft.to/lastmile_qr_scan", "ios": "https://dc.lft.to/lastmile_qr_scan"}, "fusion_lon": 0.0, "lat": 38.92503766666667, "bike_id": "f64bdb8d0a178b07842dab532384e750", "type": "electric_scooter", "is_reserved": 0, "lon": -77.0213975}, {"fusion_lat": 0.0, "name": "b97cc9e0a45ad30bf36d2509c330ca15", "is_disabled": 0, "rental_uris": {"android": "https://dc.lft.to/lastmile_qr_scan", "ios": "https://dc.lft.to/lastmile_qr_scan"}, "fusion_lon": 0.0, "lat": 38.927903, "bike_id": "b97cc9e0a45ad30bf36d2509c330ca15", "type": "electric_scooter", "is_reserved": 0, "lon": -77.03197733333333}, {"fusion_lat": 0.0, "name": "f0a396a1793084ce6385fa2f2efee4b0", "is_disabled": 0, "rental_uris": {"android": "https://dc.lft.to/lastmile_qr_scan", "ios": "https://dc.lft.to/lastmile_qr_scan"}, "fusion_lon": 0.0, "lat": 38.914136166666665, "bike_id": "f0a396a1793084ce6385fa2f2efee4b0", "type": "electric_scooter", "is_reserved": 0, "lon": -77.0220975}, {"fusion_lat": 0.0, "name": "a87357f9b7b27c3470f1bb7b41beffc3", "is_disabled": 0, "rental_uris": {"android": "https://dc.lft.to/lastmile_qr_scan", "ios": "https://dc.lft.to/lastmile_qr_scan"}, "fusion_lon": 0.0, "lat": 38.9184215, "bike_id": "a87357f9b7b27c3470f1bb7b41beffc3", "type": "electric_scooter", "is_reserved": 0, "lon": -77.03512666666667}, {"fusion_lat": 0.0, "name": "4de5f936904c4844b1421cf162f01721", "is_disabled": 0, "rental_uris": {"android": "https://dc.lft.to/lastmile_qr_scan", "ios": "https://dc.lft.to/lastmile_qr_scan"}, "fusion_lon": 0.0, "lat": 38.908305166666665, "bike_id": "4de5f936904c4844b1421cf162f01721", "type": "electric_scooter", "is_reserved": 0, "lon": -76.98256566666667}, {"fusion_lat": 0.0, "name": "4da0de9aea25836d7b8870b90931d887", "is_disabled": 0, "rental_uris": {"android": "https://dc.lft.to/lastmile_qr_scan", "ios": "https://dc.lft.to/lastmile_qr_scan"}, "fusion_lon": 0.0, "lat": 38.9176555, "bike_id": "4da0de9aea25836d7b8870b90931d887", "type": "electric_scooter", "is_reserved": 0, "lon": -77.03639766666667}, {"fusion_lat": 0.0, "name": "5c114aca1a83c06fed73901628910fdb", "is_disabled": 0, "rental_uris": {"android": "https://dc.lft.to/lastmile_qr_scan", "ios": "https://dc.lft.to/lastmile_qr_scan"}, "fusion_lon": 0.0, "lat": 38.915704, "bike_id": "5c114aca1a83c06fed73901628910fdb", "type": "electric_scooter", "is_reserved": 0, "lon": -77.03851966666667}, {"fusion_lat": 0.0, "name": "8294b1dd8c2be3624d5f26cda4250477", "is_disabled": 0, "rental_uris": {"android": "https://dc.lft.to/lastmile_qr_scan", "ios": "https://dc.lft.to/lastmile_qr_scan"}, "fusion_lon": 0.0, "lat": 38.892467333333336, "bike_id": "8294b1dd8c2be3624d5f26cda4250477", "type": "electric_scooter", "is_reserved": 0, "lon": -77.046432}, {"fusion_lat": 0.0, "name": "83bf58a71d7506b2f0bd56ca45e63f6f", "is_disabled": 0, "rental_uris": {"android": "https://dc.lft.to/lastmile_qr_scan", "ios": "https://dc.lft.to/lastmile_qr_scan"}, "fusion_lon": 0.0, "lat": 38.91816433333334, "bike_id": "83bf58a71d7506b2f0bd56ca45e63f6f", "type": "electric_scooter", "is_reserved": 0, "lon": -77.02528033333333}, {"fusion_lat": 0.0, "name": "2bd48aeca1ac39dd462249867e87cedd", "is_disabled": 0, "rental_uris": {"android": "https://dc.lft.to/lastmile_qr_scan", "ios": "https://dc.lft.to/lastmile_qr_scan"}, "fusion_lon": 0.0, "lat": 38.926102666666665, "bike_id": "2bd48aeca1ac39dd462249867e87cedd", "type": "electric_scooter", "is_reserved": 0, "lon": -77.03958516666667}, {"fusion_lat": 0.0, "name": "1e3c97ad28a8ed41bb5551b09d99b815", "is_disabled": 0, "rental_uris": {"android": "https://dc.lft.to/lastmile_qr_scan", "ios": "https://dc.lft.to/lastmile_qr_scan"}, "fusion_lon": 0.0, "lat": 38.856019333333336, "bike_id": "1e3c97ad28a8ed41bb5551b09d99b815", "type": "electric_scooter", "is_reserved": 0, "lon": -76.97260933333334}, {"fusion_lat": 0.0, "name": "480a394ba87dc3aac0bead575c75f2fa", "is_disabled": 0, "rental_uris": {"android": "https://dc.lft.to/lastmile_qr_scan", "ios": "https://dc.lft.to/lastmile_qr_scan"}, "fusion_lon": 0.0, "lat": 38.89826566666667, "bike_id": "480a394ba87dc3aac0bead575c75f2fa", "type": "electric_scooter", "is_reserved": 0, "lon": -77.04645333333333}, {"fusion_lat": 0.0, "name": "948ae0bd45de47d06a8b0640c9ff64af", "is_disabled": 0, "rental_uris": {"android": "https://dc.lft.to/lastmile_qr_scan", "ios": "https://dc.lft.to/lastmile_qr_scan"}, "fusion_lon": 0.0, "lat": 38.89732083333333, "bike_id": "948ae0bd45de47d06a8b0640c9ff64af", "type": "electric_scooter", "is_reserved": 0, "lon": -77.02711216666667}, {"fusion_lat": 0.0, "name": "23f225ffc89e43a19e621f1cdfd8e28f", "is_disabled": 0, "rental_uris": {"android": "https://dc.lft.to/lastmile_qr_scan", "ios": "https://dc.lft.to/lastmile_qr_scan"}, "fusion_lon": 0.0, "lat": 38.92074233333334, "bike_id": "23f225ffc89e43a19e621f1cdfd8e28f", "type": "electric_scooter", "is_reserved": 0, "lon": -77.02314083333333}, {"fusion_lat": 0.0, "name": "95eaf0e8466e5526a4dc422112b01d03", "is_disabled": 0, "rental_uris": {"android": "https://dc.lft.to/lastmile_qr_scan", "ios": "https://dc.lft.to/lastmile_qr_scan"}, "fusion_lon": 0.0, "lat": 38.92139016666667, "bike_id": "95eaf0e8466e5526a4dc422112b01d03", "type": "electric_scooter", "is_reserved": 0, "lon": -77.02514983333333}, {"fusion_lat": 0.0, "name": "abcc3e75435c8851174a99cf287f1c40", "is_disabled": 0, "rental_uris": {"android": "https://dc.lft.to/lastmile_qr_scan", "ios": "https://dc.lft.to/lastmile_qr_scan"}, "fusion_lon": 0.0, "lat": 38.915547, "bike_id": "abcc3e75435c8851174a99cf287f1c40", "type": "electric_scooter", "is_reserved": 0, "lon": -77.0347455}, {"fusion_lat": 0.0, "name": "cc3d2a336adbb283f95b8342d53d0dea", "is_disabled": 0, "rental_uris": {"android": "https://dc.lft.to/lastmile_qr_scan", "ios": "https://dc.lft.to/lastmile_qr_scan"}, "fusion_lon": 0.0, "lat": 38.93275766666667, "bike_id": "cc3d2a336adbb283f95b8342d53d0dea", "type": "electric_scooter", "is_reserved": 0, "lon": -77.04078516666667}, {"fusion_lat": 0.0, "name": "442102cf5d5fedc78b7f783617d2412f", "is_disabled": 0, "rental_uris": {"android": "https://dc.lft.to/lastmile_qr_scan", "ios": "https://dc.lft.to/lastmile_qr_scan"}, "fusion_lon": 0.0, "lat": 38.950552333333334, "bike_id": "442102cf5d5fedc78b7f783617d2412f", "type": "electric_scooter", "is_reserved": 0, "lon": -77.08028166666666}, {"fusion_lat": 0.0, "name": "3386d7ec5a604484083c53b0331905ce", "is_disabled": 0, "rental_uris": {"android": "https://dc.lft.to/lastmile_qr_scan", "ios": "https://dc.lft.to/lastmile_qr_scan"}, "fusion_lon": 0.0, "lat": 38.86627416666666, "bike_id": "3386d7ec5a604484083c53b0331905ce", "type": "electric_scooter", "is_reserved": 0, "lon": -76.98716216666666}, {"fusion_lat": 0.0, "name": "743806952b72ab18f708cb5e61904c02", "is_disabled": 0, "rental_uris": {"android": "https://dc.lft.to/lastmile_qr_scan", "ios": "https://dc.lft.to/lastmile_qr_scan"}, "fusion_lon": 0.0, "lat": 38.90313116666667, "bike_id": "743806952b72ab18f708cb5e61904c02", "type": "electric_scooter", "is_reserved": 0, "lon": -77.06033366666666}, {"fusion_lat": 0.0, "name": "ace58493889ede49e825419c4feb006a", "is_disabled": 0, "rental_uris": {"android": "https://dc.lft.to/lastmile_qr_scan", "ios": "https://dc.lft.to/lastmile_qr_scan"}, "fusion_lon": 0.0, "lat": 38.909745, "bike_id": "ace58493889ede49e825419c4feb006a", "type": "electric_scooter", "is_reserved": 0, "lon": -77.0269205}, {"fusion_lat": 0.0, "name": "daef57ac833d7eb973eff6cee030e848", "is_disabled": 0, "rental_uris": {"android": "https://dc.lft.to/lastmile_qr_scan", "ios": "https://dc.lft.to/lastmile_qr_scan"}, "fusion_lon": 0.0, "lat": 38.897985, "bike_id": "daef57ac833d7eb973eff6cee030e848", "type": "electric_bike", "is_reserved": 0, "lon": -76.99953633333334}, {"fusion_lat": 0.0, "name": "044d7ee517ac6055c18cc08205d5be1f", "is_disabled": 0, "rental_uris": {"android": "https://dc.lft.to/lastmile_qr_scan", "ios": "https://dc.lft.to/lastmile_qr_scan"}, "fusion_lon": 0.0, "lat": 38.87626383333333, "bike_id": "044d7ee517ac6055c18cc08205d5be1f", "type": "electric_scooter", "is_reserved": 0, "lon": -77.00654083333333}, {"fusion_lat": 0.0, "name": "358bd72653c720564346d0c8dfb9b4cb", "is_disabled": 0, "rental_uris": {"android": "https://dc.lft.to/lastmile_qr_scan", "ios": "https://dc.lft.to/lastmile_qr_scan"}, "fusion_lon": 0.0, "lat": 38.81998133333333, "bike_id": "358bd72653c720564346d0c8dfb9b4cb", "type": "electric_bike", "is_reserved": 0, "lon": -76.9981055}, {"fusion_lat": 0.0, "name": "e71450b051f80ff090eae64fb064fc05", "is_disabled": 0, "rental_uris": {"android": "https://dc.lft.to/lastmile_qr_scan", "ios": "https://dc.lft.to/lastmile_qr_scan"}, "fusion_lon": 0.0, "lat": 38.916649166666666, "bike_id": "e71450b051f80ff090eae64fb064fc05", "type": "electric_scooter", "is_reserved": 0, "lon": -77.02969283333333}, {"fusion_lat": 0.0, "name": "2f4509b243221b95367f71dc89bbdb2c", "is_disabled": 0, "rental_uris": {"android": "https://dc.lft.to/lastmile_qr_scan", "ios": "https://dc.lft.to/lastmile_qr_scan"}, "fusion_lon": 0.0, "lat": 38.909386166666664, "bike_id": "2f4509b243221b95367f71dc89bbdb2c", "type": "electric_scooter", "is_reserved": 0, "lon": -77.0386035}, {"fusion_lat": 0.0, "name": "6d7faf5c1b9f57b672b0343ae21d9904", "is_disabled": 0, "rental_uris": {"android": "https://dc.lft.to/lastmile_qr_scan", "ios": "https://dc.lft.to/lastmile_qr_scan"}, "fusion_lon": 0.0, "lat": 38.95186283333334, "bike_id": "6d7faf5c1b9f57b672b0343ae21d9904", "type": "electric_scooter", "is_reserved": 0, "lon": -77.026063}, {"fusion_lat": 0.0, "name": "5b6346248ec00cc7f4352daddfbe3ab2", "is_disabled": 0, "rental_uris": {"android": "https://dc.lft.to/lastmile_qr_scan", "ios": "https://dc.lft.to/lastmile_qr_scan"}, "fusion_lon": 0.0, "lat": 38.87669783333333, "bike_id": "5b6346248ec00cc7f4352daddfbe3ab2", "type": "electric_bike", "is_reserved": 0, "lon": -77.01449566666666}, {"fusion_lat": 0.0, "name": "653e95c81e3d51790dd4119fc403ea6c", "is_disabled": 0, "rental_uris": {"android": "https://dc.lft.to/lastmile_qr_scan", "ios": "https://dc.lft.to/lastmile_qr_scan"}, "fusion_lon": 0.0, "lat": 38.90874683333333, "bike_id": "653e95c81e3d51790dd4119fc403ea6c", "type": "electric_scooter", "is_reserved": 0, "lon": -77.00259016666666}, {"fusion_lat": 0.0, "name": "81ff8014041714f35e0eef2947b45d81", "is_disabled": 0, "rental_uris": {"android": "https://dc.lft.to/lastmile_qr_scan", "ios": "https://dc.lft.to/lastmile_qr_scan"}, "fusion_lon": 0.0, "lat": 38.94962783333333, "bike_id": "81ff8014041714f35e0eef2947b45d81", "type": "electric_scooter", "is_reserved": 0, "lon": -77.06646183333334}, {"fusion_lat": 0.0, "name": "e21065a71cf50c6e9538a9fe356b1f1a", "is_disabled": 0, "rental_uris": {"android": "https://dc.lft.to/lastmile_qr_scan", "ios": "https://dc.lft.to/lastmile_qr_scan"}, "fusion_lon": 0.0, "lat": 38.91110483333333, "bike_id": "e21065a71cf50c6e9538a9fe356b1f1a", "type": "electric_scooter", "is_reserved": 0, "lon": -77.03825716666667}, {"fusion_lat": 0.0, "name": "d27060d7f73afac417a487edc9166e47", "is_disabled": 0, "rental_uris": {"android": "https://dc.lft.to/lastmile_qr_scan", "ios": "https://dc.lft.to/lastmile_qr_scan"}, "fusion_lon": 0.0, "lat": 38.931874, "bike_id": "d27060d7f73afac417a487edc9166e47", "type": "electric_scooter", "is_reserved": 0, "lon": -77.04295866666666}, {"fusion_lat": 0.0, "name": "0ec632c8e440f11d7597c818c0087bca", "is_disabled": 0, "rental_uris": {"android": "https://dc.lft.to/lastmile_qr_scan", "ios": "https://dc.lft.to/lastmile_qr_scan"}, "fusion_lon": 0.0, "lat": 38.89718766666667, "bike_id": "0ec632c8e440f11d7597c818c0087bca", "type": "electric_scooter", "is_reserved": 0, "lon": -77.00789516666667}, {"fusion_lat": 0.0, "name": "828e1fed2b556f9a9e4553122cb33fcc", "is_disabled": 0, "rental_uris": {"android": "https://dc.lft.to/lastmile_qr_scan", "ios": "https://dc.lft.to/lastmile_qr_scan"}, "fusion_lon": 0.0, "lat": 38.90426733333334, "bike_id": "828e1fed2b556f9a9e4553122cb33fcc", "type": "electric_scooter", "is_reserved": 0, "lon": -76.98173666666666}, {"fusion_lat": 0.0, "name": "d529ea099cac35477b680ed10786a28d", "is_disabled": 0, "rental_uris": {"android": "https://dc.lft.to/lastmile_qr_scan", "ios": "https://dc.lft.to/lastmile_qr_scan"}, "fusion_lon": 0.0, "lat": 38.90408633333333, "bike_id": "d529ea099cac35477b680ed10786a28d", "type": "electric_scooter", "is_reserved": 0, "lon": -76.9733115}, {"fusion_lat": 0.0, "name": "68fd09d785ca93926fae52dd8060af7a", "is_disabled": 0, "rental_uris": {"android": "https://dc.lft.to/lastmile_qr_scan", "ios": "https://dc.lft.to/lastmile_qr_scan"}, "fusion_lon": 0.0, "lat": 38.885557666666664, "bike_id": "68fd09d785ca93926fae52dd8060af7a", "type": "electric_scooter", "is_reserved": 0, "lon": -76.99773333333333}, {"fusion_lat": 0.0, "name": "b4e036d59df4ce2e6f66d33f750084b2", "is_disabled": 0, "rental_uris": {"android": "https://dc.lft.to/lastmile_qr_scan", "ios": "https://dc.lft.to/lastmile_qr_scan"}, "fusion_lon": 0.0, "lat": 38.919863666666664, "bike_id": "b4e036d59df4ce2e6f66d33f750084b2", "type": "electric_scooter", "is_reserved": 0, "lon": -77.02362483333333}, {"fusion_lat": 0.0, "name": "dc81f9e0a9c5c3d29869c8fc85a42505", "is_disabled": 0, "rental_uris": {"android": "https://dc.lft.to/lastmile_qr_scan", "ios": "https://dc.lft.to/lastmile_qr_scan"}, "fusion_lon": 0.0, "lat": 38.909751, "bike_id": "dc81f9e0a9c5c3d29869c8fc85a42505", "type": "electric_scooter", "is_reserved": 0, "lon": -77.03860066666667}, {"fusion_lat": 0.0, "name": "bc6fa57a4783eccc662a585de13a699b", "is_disabled": 0, "rental_uris": {"android": "https://dc.lft.to/lastmile_qr_scan", "ios": "https://dc.lft.to/lastmile_qr_scan"}, "fusion_lon": 0.0, "lat": 38.92433583333333, "bike_id": "bc6fa57a4783eccc662a585de13a699b", "type": "electric_scooter", "is_reserved": 0, "lon": -77.0006305}, {"fusion_lat": 0.0, "name": "ecae1c9f713350079ccafb1841da3823", "is_disabled": 0, "rental_uris": {"android": "https://dc.lft.to/lastmile_qr_scan", "ios": "https://dc.lft.to/lastmile_qr_scan"}, "fusion_lon": 0.0, "lat": 38.917682166666665, "bike_id": "ecae1c9f713350079ccafb1841da3823", "type": "electric_scooter", "is_reserved": 0, "lon": -77.02290033333334}, {"fusion_lat": 0.0, "name": "76a9e0994eb0255a4733a131adf718b1", "is_disabled": 0, "rental_uris": {"android": "https://dc.lft.to/lastmile_qr_scan", "ios": "https://dc.lft.to/lastmile_qr_scan"}, "fusion_lon": 0.0, "lat": 38.918127, "bike_id": "76a9e0994eb0255a4733a131adf718b1", "type": "electric_scooter", "is_reserved": 0, "lon": -77.04590416666667}, {"fusion_lat": 0.0, "name": "e93e4ec4de47d24574a2e6aaf9e25f77", "is_disabled": 0, "rental_uris": {"android": "https://dc.lft.to/lastmile_qr_scan", "ios": "https://dc.lft.to/lastmile_qr_scan"}, "fusion_lon": 0.0, "lat": 38.86686683333333, "bike_id": "e93e4ec4de47d24574a2e6aaf9e25f77", "type": "electric_scooter", "is_reserved": 0, "lon": -76.98566366666667}, {"fusion_lat": 0.0, "name": "3bd24b2ee32cea2b612a85919212d2cd", "is_disabled": 0, "rental_uris": {"android": "https://dc.lft.to/lastmile_qr_scan", "ios": "https://dc.lft.to/lastmile_qr_scan"}, "fusion_lon": 0.0, "lat": 38.923451, "bike_id": "3bd24b2ee32cea2b612a85919212d2cd", "type": "electric_scooter", "is_reserved": 0, "lon": -77.05130316666667}, {"fusion_lat": 0.0, "name": "deee38b88020c7c275e7ee38f65d7140", "is_disabled": 0, "rental_uris": {"android": "https://dc.lft.to/lastmile_qr_scan", "ios": "https://dc.lft.to/lastmile_qr_scan"}, "fusion_lon": 0.0, "lat": 38.87717083333333, "bike_id": "deee38b88020c7c275e7ee38f65d7140", "type": "electric_scooter", "is_reserved": 0, "lon": -77.0177305}, {"fusion_lat": 0.0, "name": "2f850e5a3719fdf4d6a25e5903cde2d4", "is_disabled": 0, "rental_uris": {"android": "https://dc.lft.to/lastmile_qr_scan", "ios": "https://dc.lft.to/lastmile_qr_scan"}, "fusion_lon": 0.0, "lat": 38.90780133333333, "bike_id": "2f850e5a3719fdf4d6a25e5903cde2d4", "type": "electric_scooter", "is_reserved": 0, "lon": -77.03855816666666}, {"fusion_lat": 0.0, "name": "1ed0ef38ffdc70a88975777d4ec74bb7", "is_disabled": 0, "rental_uris": {"android": "https://dc.lft.to/lastmile_qr_scan", "ios": "https://dc.lft.to/lastmile_qr_scan"}, "fusion_lon": 0.0, "lat": 38.89801466666667, "bike_id": "1ed0ef38ffdc70a88975777d4ec74bb7", "type": "electric_scooter", "is_reserved": 0, "lon": -77.0240325}, {"fusion_lat": 0.0, "name": "0c45609920f213029c375decbf50bd21", "is_disabled": 0, "rental_uris": {"android": "https://dc.lft.to/lastmile_qr_scan", "ios": "https://dc.lft.to/lastmile_qr_scan"}, "fusion_lon": 0.0, "lat": 38.907319666666666, "bike_id": "0c45609920f213029c375decbf50bd21", "type": "electric_scooter", "is_reserved": 0, "lon": -77.04342733333333}, {"fusion_lat": 0.0, "name": "60027d5b041053392fa3389c76e725ba", "is_disabled": 0, "rental_uris": {"android": "https://dc.lft.to/lastmile_qr_scan", "ios": "https://dc.lft.to/lastmile_qr_scan"}, "fusion_lon": 0.0, "lat": 38.920584833333336, "bike_id": "60027d5b041053392fa3389c76e725ba", "type": "electric_scooter", "is_reserved": 0, "lon": -77.02533}, {"fusion_lat": 0.0, "name": "c868e8e8a7c18cc257a94b9a95cf4d60", "is_disabled": 0, "rental_uris": {"android": "https://dc.lft.to/lastmile_qr_scan", "ios": "https://dc.lft.to/lastmile_qr_scan"}, "fusion_lon": 0.0, "lat": 38.923824, "bike_id": "c868e8e8a7c18cc257a94b9a95cf4d60", "type": "electric_scooter", "is_reserved": 0, "lon": -77.07532783333333}, {"fusion_lat": 0.0, "name": "e1d9050383f2bc63e2b179155412de1d", "is_disabled": 0, "rental_uris": {"android": "https://dc.lft.to/lastmile_qr_scan", "ios": "https://dc.lft.to/lastmile_qr_scan"}, "fusion_lon": 0.0, "lat": 38.897261666666665, "bike_id": "e1d9050383f2bc63e2b179155412de1d", "type": "electric_scooter", "is_reserved": 0, "lon": -77.0316745}, {"fusion_lat": 0.0, "name": "6f5d4da6709147e6bea228f0b7a8e835", "is_disabled": 0, "rental_uris": {"android": "https://dc.lft.to/lastmile_qr_scan", "ios": "https://dc.lft.to/lastmile_qr_scan"}, "fusion_lon": 0.0, "lat": 38.9170295, "bike_id": "6f5d4da6709147e6bea228f0b7a8e835", "type": "electric_scooter", "is_reserved": 0, "lon": -77.0117005}, {"fusion_lat": 0.0, "name": "ddc54e399b8dd032ba8bb15297fb47d0", "is_disabled": 0, "rental_uris": {"android": "https://dc.lft.to/lastmile_qr_scan", "ios": "https://dc.lft.to/lastmile_qr_scan"}, "fusion_lon": 0.0, "lat": 38.904115833333336, "bike_id": "ddc54e399b8dd032ba8bb15297fb47d0", "type": "electric_scooter", "is_reserved": 0, "lon": -76.97330266666667}, {"fusion_lat": 0.0, "name": "925616d5d251a43e34af76f041f8353c", "is_disabled": 0, "rental_uris": {"android": "https://dc.lft.to/lastmile_qr_scan", "ios": "https://dc.lft.to/lastmile_qr_scan"}, "fusion_lon": 0.0, "lat": 38.9111165, "bike_id": "925616d5d251a43e34af76f041f8353c", "type": "electric_scooter", "is_reserved": 0, "lon": -77.01523283333333}, {"fusion_lat": 0.0, "name": "5f6cb67eaf84b377b8f1c4d134f523c8", "is_disabled": 0, "rental_uris": {"android": "https://dc.lft.to/lastmile_qr_scan", "ios": "https://dc.lft.to/lastmile_qr_scan"}, "fusion_lon": 0.0, "lat": 38.903849666666666, "bike_id": "5f6cb67eaf84b377b8f1c4d134f523c8", "type": "electric_scooter", "is_reserved": 0, "lon": -77.03186866666667}, {"fusion_lat": 0.0, "name": "e495187711289c2634498c603a79c8b1", "is_disabled": 0, "rental_uris": {"android": "https://dc.lft.to/lastmile_qr_scan", "ios": "https://dc.lft.to/lastmile_qr_scan"}, "fusion_lon": 0.0, "lat": 38.845063333333336, "bike_id": "e495187711289c2634498c603a79c8b1", "type": "electric_bike", "is_reserved": 0, "lon": -76.99350866666667}, {"fusion_lat": 0.0, "name": "d63ca32effa8f96abfd75a6db833aa3f", "is_disabled": 0, "rental_uris": {"android": "https://dc.lft.to/lastmile_qr_scan", "ios": "https://dc.lft.to/lastmile_qr_scan"}, "fusion_lon": 0.0, "lat": 38.920018166666665, "bike_id": "d63ca32effa8f96abfd75a6db833aa3f", "type": "electric_scooter", "is_reserved": 0, "lon": -77.03141133333334}, {"fusion_lat": 0.0, "name": "76afdbbe5584ffb37b9ab85906db6db9", "is_disabled": 0, "rental_uris": {"android": "https://dc.lft.to/lastmile_qr_scan", "ios": "https://dc.lft.to/lastmile_qr_scan"}, "fusion_lon": 0.0, "lat": 38.922489, "bike_id": "76afdbbe5584ffb37b9ab85906db6db9", "type": "electric_scooter", "is_reserved": 0, "lon": -77.07472283333334}, {"fusion_lat": 0.0, "name": "27b7071617e7abfddf04d21567a87456", "is_disabled": 0, "rental_uris": {"android": "https://dc.lft.to/lastmile_qr_scan", "ios": "https://dc.lft.to/lastmile_qr_scan"}, "fusion_lon": 0.0, "lat": 38.935128, "bike_id": "27b7071617e7abfddf04d21567a87456", "type": "electric_scooter", "is_reserved": 0, "lon": -77.0325445}, {"fusion_lat": 0.0, "name": "116ca89526ab827d3078c76ca9a0443c", "is_disabled": 0, "rental_uris": {"android": "https://dc.lft.to/lastmile_qr_scan", "ios": "https://dc.lft.to/lastmile_qr_scan"}, "fusion_lon": 0.0, "lat": 38.92055633333333, "bike_id": "116ca89526ab827d3078c76ca9a0443c", "type": "electric_scooter", "is_reserved": 0, "lon": -77.04252716666667}, {"fusion_lat": 0.0, "name": "07fe76e8aaf57334ace7ce574fc9d3c0", "is_disabled": 0, "rental_uris": {"android": "https://dc.lft.to/lastmile_qr_scan", "ios": "https://dc.lft.to/lastmile_qr_scan"}, "fusion_lon": 0.0, "lat": 38.900341, "bike_id": "07fe76e8aaf57334ace7ce574fc9d3c0", "type": "electric_scooter", "is_reserved": 0, "lon": -77.00205916666667}, {"fusion_lat": 0.0, "name": "48f3da8419798562fe045ffc06617e1c", "is_disabled": 0, "rental_uris": {"android": "https://dc.lft.to/lastmile_qr_scan", "ios": "https://dc.lft.to/lastmile_qr_scan"}, "fusion_lon": 0.0, "lat": 38.883153666666665, "bike_id": "48f3da8419798562fe045ffc06617e1c", "type": "electric_scooter", "is_reserved": 0, "lon": -77.01763}, {"fusion_lat": 0.0, "name": "845acc1f02b807cc621823c313218edf", "is_disabled": 0, "rental_uris": {"android": "https://dc.lft.to/lastmile_qr_scan", "ios": "https://dc.lft.to/lastmile_qr_scan"}, "fusion_lon": 0.0, "lat": 38.81331016666667, "bike_id": "845acc1f02b807cc621823c313218edf", "type": "electric_bike", "is_reserved": 0, "lon": -77.0508445}, {"fusion_lat": 0.0, "name": "8f6b55202c4442d399f3633c2b66aa6c", "is_disabled": 0, "rental_uris": {"android": "https://dc.lft.to/lastmile_qr_scan", "ios": "https://dc.lft.to/lastmile_qr_scan"}, "fusion_lon": 0.0, "lat": 38.931973666666664, "bike_id": "8f6b55202c4442d399f3633c2b66aa6c", "type": "electric_bike", "is_reserved": 0, "lon": -77.229291}, {"fusion_lat": 0.0, "name": "00b52f5ddf88a20f41735a1aa79235a8", "is_disabled": 0, "rental_uris": {"android": "https://dc.lft.to/lastmile_qr_scan", "ios": "https://dc.lft.to/lastmile_qr_scan"}, "fusion_lon": 0.0, "lat": 38.9143205, "bike_id": "00b52f5ddf88a20f41735a1aa79235a8", "type": "electric_scooter", "is_reserved": 0, "lon": -77.03461883333334}, {"fusion_lat": 0.0, "name": "e4227d836363b2371abd0f6e5985b724", "is_disabled": 0, "rental_uris": {"android": "https://dc.lft.to/lastmile_qr_scan", "ios": "https://dc.lft.to/lastmile_qr_scan"}, "fusion_lon": 0.0, "lat": 38.9247815, "bike_id": "e4227d836363b2371abd0f6e5985b724", "type": "electric_scooter", "is_reserved": 0, "lon": -77.02630266666667}, {"fusion_lat": 0.0, "name": "16692f29cfaf5048a8da9f6c3cf2145c", "is_disabled": 0, "rental_uris": {"android": "https://dc.lft.to/lastmile_qr_scan", "ios": "https://dc.lft.to/lastmile_qr_scan"}, "fusion_lon": 0.0, "lat": 38.9171765, "bike_id": "16692f29cfaf5048a8da9f6c3cf2145c", "type": "electric_scooter", "is_reserved": 0, "lon": -77.03859566666667}, {"fusion_lat": 0.0, "name": "9c0bada07cd239bdaddc6d95d929aced", "is_disabled": 0, "rental_uris": {"android": "https://dc.lft.to/lastmile_qr_scan", "ios": "https://dc.lft.to/lastmile_qr_scan"}, "fusion_lon": 0.0, "lat": 38.92100766666667, "bike_id": "9c0bada07cd239bdaddc6d95d929aced", "type": "electric_scooter", "is_reserved": 0, "lon": -77.07468083333333}, {"fusion_lat": 0.0, "name": "6a353ed34052438f6707b9e368038bc3", "is_disabled": 0, "rental_uris": {"android": "https://dc.lft.to/lastmile_qr_scan", "ios": "https://dc.lft.to/lastmile_qr_scan"}, "fusion_lon": 0.0, "lat": 38.92608033333333, "bike_id": "6a353ed34052438f6707b9e368038bc3", "type": "electric_scooter", "is_reserved": 0, "lon": -77.03952616666666}, {"fusion_lat": 0.0, "name": "14aa1aad465982c525d4da9450574b67", "is_disabled": 0, "rental_uris": {"android": "https://dc.lft.to/lastmile_qr_scan", "ios": "https://dc.lft.to/lastmile_qr_scan"}, "fusion_lon": 0.0, "lat": 38.91543016666667, "bike_id": "14aa1aad465982c525d4da9450574b67", "type": "electric_scooter", "is_reserved": 0, "lon": -77.03842766666666}, {"fusion_lat": 0.0, "name": "cce2b2af6fda43e6cc9dab9ac7065526", "is_disabled": 0, "rental_uris": {"android": "https://dc.lft.to/lastmile_qr_scan", "ios": "https://dc.lft.to/lastmile_qr_scan"}, "fusion_lon": 0.0, "lat": 38.87367716666667, "bike_id": "cce2b2af6fda43e6cc9dab9ac7065526", "type": "electric_scooter", "is_reserved": 0, "lon": -77.0009355}, {"fusion_lat": 0.0, "name": "0c82e2f7a8f242fcf4322cdd601eff9f", "is_disabled": 0, "rental_uris": {"android": "https://dc.lft.to/lastmile_qr_scan", "ios": "https://dc.lft.to/lastmile_qr_scan"}, "fusion_lon": 0.0, "lat": 38.86662, "bike_id": "0c82e2f7a8f242fcf4322cdd601eff9f", "type": "electric_scooter", "is_reserved": 0, "lon": -76.9852105}, {"fusion_lat": 0.0, "name": "fd0ca8e6b954b957064eff007e2a661d", "is_disabled": 0, "rental_uris": {"android": "https://dc.lft.to/lastmile_qr_scan", "ios": "https://dc.lft.to/lastmile_qr_scan"}, "fusion_lon": 0.0, "lat": 38.897225166666665, "bike_id": "fd0ca8e6b954b957064eff007e2a661d", "type": "electric_scooter", "is_reserved": 0, "lon": -77.00792166666666}, {"fusion_lat": 0.0, "name": "a508ef4d615c35371bacae65d8c6456b", "is_disabled": 0, "rental_uris": {"android": "https://dc.lft.to/lastmile_qr_scan", "ios": "https://dc.lft.to/lastmile_qr_scan"}, "fusion_lon": 0.0, "lat": 38.92328883333333, "bike_id": "a508ef4d615c35371bacae65d8c6456b", "type": "electric_scooter", "is_reserved": 0, "lon": -77.029628}, {"fusion_lat": 0.0, "name": "f666f9f746b6eeaef8793458d80ed80a", "is_disabled": 0, "rental_uris": {"android": "https://dc.lft.to/lastmile_qr_scan", "ios": "https://dc.lft.to/lastmile_qr_scan"}, "fusion_lon": 0.0, "lat": 38.932723, "bike_id": "f666f9f746b6eeaef8793458d80ed80a", "type": "electric_scooter", "is_reserved": 0, "lon": -77.04531633333333}, {"fusion_lat": 0.0, "name": "4324465badc931e59985894b3ffc1401", "is_disabled": 0, "rental_uris": {"android": "https://dc.lft.to/lastmile_qr_scan", "ios": "https://dc.lft.to/lastmile_qr_scan"}, "fusion_lon": 0.0, "lat": 38.87714183333333, "bike_id": "4324465badc931e59985894b3ffc1401", "type": "electric_scooter", "is_reserved": 0, "lon": -77.01770566666667}, {"fusion_lat": 0.0, "name": "1ecc1d7ffc7cf0f9fee5e06e43730a9c", "is_disabled": 0, "rental_uris": {"android": "https://dc.lft.to/lastmile_qr_scan", "ios": "https://dc.lft.to/lastmile_qr_scan"}, "fusion_lon": 0.0, "lat": 38.93642116666667, "bike_id": "1ecc1d7ffc7cf0f9fee5e06e43730a9c", "type": "electric_scooter", "is_reserved": 0, "lon": -77.03669516666666}, {"fusion_lat": 0.0, "name": "5dfc6fbf5c3d71e957f7e804f9c4b054", "is_disabled": 0, "rental_uris": {"android": "https://dc.lft.to/lastmile_qr_scan", "ios": "https://dc.lft.to/lastmile_qr_scan"}, "fusion_lon": 0.0, "lat": 38.92060433333333, "bike_id": "5dfc6fbf5c3d71e957f7e804f9c4b054", "type": "electric_scooter", "is_reserved": 0, "lon": -77.0347265}, {"fusion_lat": 0.0, "name": "dff2ef532ff033ad3dfab19f8477bc0b", "is_disabled": 0, "rental_uris": {"android": "https://dc.lft.to/lastmile_qr_scan", "ios": "https://dc.lft.to/lastmile_qr_scan"}, "fusion_lon": 0.0, "lat": 38.89996516666667, "bike_id": "dff2ef532ff033ad3dfab19f8477bc0b", "type": "electric_scooter", "is_reserved": 0, "lon": -77.04117283333333}, {"fusion_lat": 0.0, "name": "fb5bf4190e3e160fd68953aa6629f7fc", "is_disabled": 0, "rental_uris": {"android": "https://dc.lft.to/lastmile_qr_scan", "ios": "https://dc.lft.to/lastmile_qr_scan"}, "fusion_lon": 0.0, "lat": 38.86516683333333, "bike_id": "fb5bf4190e3e160fd68953aa6629f7fc", "type": "electric_bike", "is_reserved": 0, "lon": -76.97326766666667}, {"fusion_lat": 0.0, "name": "40a1e30bcfab3914582bf35b0620f00e", "is_disabled": 0, "rental_uris": {"android": "https://dc.lft.to/lastmile_qr_scan", "ios": "https://dc.lft.to/lastmile_qr_scan"}, "fusion_lon": 0.0, "lat": 38.924475666666666, "bike_id": "40a1e30bcfab3914582bf35b0620f00e", "type": "electric_scooter", "is_reserved": 0, "lon": -77.04019683333334}, {"fusion_lat": 0.0, "name": "5477c85bcfca817d184a97774f2fcea7", "is_disabled": 0, "rental_uris": {"android": "https://dc.lft.to/lastmile_qr_scan", "ios": "https://dc.lft.to/lastmile_qr_scan"}, "fusion_lon": 0.0, "lat": 38.898298833333335, "bike_id": "5477c85bcfca817d184a97774f2fcea7", "type": "electric_scooter", "is_reserved": 0, "lon": -77.0467305}, {"fusion_lat": 0.0, "name": "d84aaa81d522ef8b5f0ed268314662bd", "is_disabled": 0, "rental_uris": {"android": "https://dc.lft.to/lastmile_qr_scan", "ios": "https://dc.lft.to/lastmile_qr_scan"}, "fusion_lon": 0.0, "lat": 38.92358016666667, "bike_id": "d84aaa81d522ef8b5f0ed268314662bd", "type": "electric_scooter", "is_reserved": 0, "lon": -77.05038733333333}, {"fusion_lat": 0.0, "name": "cb31ea9762a1da566dec8392bb21ba66", "is_disabled": 0, "rental_uris": {"android": "https://dc.lft.to/lastmile_qr_scan", "ios": "https://dc.lft.to/lastmile_qr_scan"}, "fusion_lon": 0.0, "lat": 38.936502833333336, "bike_id": "cb31ea9762a1da566dec8392bb21ba66", "type": "electric_scooter", "is_reserved": 0, "lon": -77.03051816666667}, {"fusion_lat": 0.0, "name": "ed4a3255302e929a64476d27305787f4", "is_disabled": 0, "rental_uris": {"android": "https://dc.lft.to/lastmile_qr_scan", "ios": "https://dc.lft.to/lastmile_qr_scan"}, "fusion_lon": 0.0, "lat": 38.8852525, "bike_id": "ed4a3255302e929a64476d27305787f4", "type": "electric_scooter", "is_reserved": 0, "lon": -77.01532566666667}, {"fusion_lat": 0.0, "name": "131e61fd91a86416b43351820b0dd486", "is_disabled": 0, "rental_uris": {"android": "https://dc.lft.to/lastmile_qr_scan", "ios": "https://dc.lft.to/lastmile_qr_scan"}, "fusion_lon": 0.0, "lat": 38.913269166666666, "bike_id": "131e61fd91a86416b43351820b0dd486", "type": "electric_scooter", "is_reserved": 0, "lon": -77.03174833333334}, {"fusion_lat": 0.0, "name": "ec6600e07a4684cc1146bec4b7f05615", "is_disabled": 0, "rental_uris": {"android": "https://dc.lft.to/lastmile_qr_scan", "ios": "https://dc.lft.to/lastmile_qr_scan"}, "fusion_lon": 0.0, "lat": 38.923384, "bike_id": "ec6600e07a4684cc1146bec4b7f05615", "type": "electric_scooter", "is_reserved": 0, "lon": -77.03530316666667}, {"fusion_lat": 0.0, "name": "5f2912f87dbe08223b953fee01676e83", "is_disabled": 0, "rental_uris": {"android": "https://dc.lft.to/lastmile_qr_scan", "ios": "https://dc.lft.to/lastmile_qr_scan"}, "fusion_lon": 0.0, "lat": 38.9024605, "bike_id": "5f2912f87dbe08223b953fee01676e83", "type": "electric_scooter", "is_reserved": 0, "lon": -77.0592155}, {"fusion_lat": 0.0, "name": "4efc4696256ffbcb5884f11e1f697fd1", "is_disabled": 0, "rental_uris": {"android": "https://dc.lft.to/lastmile_qr_scan", "ios": "https://dc.lft.to/lastmile_qr_scan"}, "fusion_lon": 0.0, "lat": 38.918017166666665, "bike_id": "4efc4696256ffbcb5884f11e1f697fd1", "type": "electric_scooter", "is_reserved": 0, "lon": -77.04443066666667}, {"fusion_lat": 0.0, "name": "222ccc665ec7cdb59e142bd4d8524d6a", "is_disabled": 0, "rental_uris": {"android": "https://dc.lft.to/lastmile_qr_scan", "ios": "https://dc.lft.to/lastmile_qr_scan"}, "fusion_lon": 0.0, "lat": 38.917283833333336, "bike_id": "222ccc665ec7cdb59e142bd4d8524d6a", "type": "electric_scooter", "is_reserved": 0, "lon": -77.02504333333333}, {"fusion_lat": 0.0, "name": "7981d45751a6b5756194a7f3ba5bd264", "is_disabled": 0, "rental_uris": {"android": "https://dc.lft.to/lastmile_qr_scan", "ios": "https://dc.lft.to/lastmile_qr_scan"}, "fusion_lon": 0.0, "lat": 38.92082116666667, "bike_id": "7981d45751a6b5756194a7f3ba5bd264", "type": "electric_bike", "is_reserved": 0, "lon": -76.98943233333334}, {"fusion_lat": 0.0, "name": "11acfe85272de5947f8d360023c1c3ce", "is_disabled": 0, "rental_uris": {"android": "https://dc.lft.to/lastmile_qr_scan", "ios": "https://dc.lft.to/lastmile_qr_scan"}, "fusion_lon": 0.0, "lat": 38.89513683333333, "bike_id": "11acfe85272de5947f8d360023c1c3ce", "type": "electric_scooter", "is_reserved": 0, "lon": -77.0217885}, {"fusion_lat": 0.0, "name": "f3654c1c2a2bcaa56aa9cd43ec147663", "is_disabled": 0, "rental_uris": {"android": "https://dc.lft.to/lastmile_qr_scan", "ios": "https://dc.lft.to/lastmile_qr_scan"}, "fusion_lon": 0.0, "lat": 38.937283666666666, "bike_id": "f3654c1c2a2bcaa56aa9cd43ec147663", "type": "electric_scooter", "is_reserved": 0, "lon": -77.02426733333333}, {"fusion_lat": 0.0, "name": "ec61d2368b7962bfc8649d43f8a97c84", "is_disabled": 0, "rental_uris": {"android": "https://dc.lft.to/lastmile_qr_scan", "ios": "https://dc.lft.to/lastmile_qr_scan"}, "fusion_lon": 0.0, "lat": 38.90115733333333, "bike_id": "ec61d2368b7962bfc8649d43f8a97c84", "type": "electric_scooter", "is_reserved": 0, "lon": -77.04977666666667}, {"fusion_lat": 0.0, "name": "7273a1bc7b6c02ce4612fd117e47344a", "is_disabled": 0, "rental_uris": {"android": "https://dc.lft.to/lastmile_qr_scan", "ios": "https://dc.lft.to/lastmile_qr_scan"}, "fusion_lon": 0.0, "lat": 38.9422975, "bike_id": "7273a1bc7b6c02ce4612fd117e47344a", "type": "electric_scooter", "is_reserved": 0, "lon": -77.0138095}, {"fusion_lat": 0.0, "name": "697bd11086639953dab355432afa58ef", "is_disabled": 0, "rental_uris": {"android": "https://dc.lft.to/lastmile_qr_scan", "ios": "https://dc.lft.to/lastmile_qr_scan"}, "fusion_lon": 0.0, "lat": 38.923042833333334, "bike_id": "697bd11086639953dab355432afa58ef", "type": "electric_scooter", "is_reserved": 0, "lon": -77.0281}, {"fusion_lat": 0.0, "name": "2811db9759f2d05cc8ee14a7c1abaae9", "is_disabled": 0, "rental_uris": {"android": "https://dc.lft.to/lastmile_qr_scan", "ios": "https://dc.lft.to/lastmile_qr_scan"}, "fusion_lon": 0.0, "lat": 38.909991166666664, "bike_id": "2811db9759f2d05cc8ee14a7c1abaae9", "type": "electric_scooter", "is_reserved": 0, "lon": -77.04476733333334}, {"fusion_lat": 0.0, "name": "ce786b4e1356226f8b883e5608c889c9", "is_disabled": 0, "rental_uris": {"android": "https://dc.lft.to/lastmile_qr_scan", "ios": "https://dc.lft.to/lastmile_qr_scan"}, "fusion_lon": 0.0, "lat": 38.940727833333334, "bike_id": "ce786b4e1356226f8b883e5608c889c9", "type": "electric_scooter", "is_reserved": 0, "lon": -77.01696933333334}, {"fusion_lat": 0.0, "name": "5f6612febf805dd3dccc9d5c33e13f0e", "is_disabled": 0, "rental_uris": {"android": "https://dc.lft.to/lastmile_qr_scan", "ios": "https://dc.lft.to/lastmile_qr_scan"}, "fusion_lon": 0.0, "lat": 38.865592, "bike_id": "5f6612febf805dd3dccc9d5c33e13f0e", "type": "electric_scooter", "is_reserved": 0, "lon": -76.98345833333333}, {"fusion_lat": 0.0, "name": "e45d0f90fe9a3d210d07bc16e5896a4e", "is_disabled": 0, "rental_uris": {"android": "https://dc.lft.to/lastmile_qr_scan", "ios": "https://dc.lft.to/lastmile_qr_scan"}, "fusion_lon": 0.0, "lat": 38.909718166666664, "bike_id": "e45d0f90fe9a3d210d07bc16e5896a4e", "type": "electric_scooter", "is_reserved": 0, "lon": -77.03861083333334}, {"fusion_lat": 0.0, "name": "2d95b8f1b0f1a5740e5e803a6d2aaceb", "is_disabled": 0, "rental_uris": {"android": "https://dc.lft.to/lastmile_qr_scan", "ios": "https://dc.lft.to/lastmile_qr_scan"}, "fusion_lon": 0.0, "lat": 38.882567, "bike_id": "2d95b8f1b0f1a5740e5e803a6d2aaceb", "type": "electric_scooter", "is_reserved": 0, "lon": -76.99493483333333}, {"fusion_lat": 0.0, "name": "09b80c2d0a2794f86c270c3ac66af715", "is_disabled": 0, "rental_uris": {"android": "https://dc.lft.to/lastmile_qr_scan", "ios": "https://dc.lft.to/lastmile_qr_scan"}, "fusion_lon": 0.0, "lat": 38.922837, "bike_id": "09b80c2d0a2794f86c270c3ac66af715", "type": "electric_scooter", "is_reserved": 0, "lon": -77.03655816666667}, {"fusion_lat": 0.0, "name": "cb9b37e0d4ce5879463286edf4bf414e", "is_disabled": 0, "rental_uris": {"android": "https://dc.lft.to/lastmile_qr_scan", "ios": "https://dc.lft.to/lastmile_qr_scan"}, "fusion_lon": 0.0, "lat": 38.89610916666667, "bike_id": "cb9b37e0d4ce5879463286edf4bf414e", "type": "electric_scooter", "is_reserved": 0, "lon": -76.94810533333333}, {"fusion_lat": 0.0, "name": "a133124ce80a75a612a9ab219a625f3e", "is_disabled": 0, "rental_uris": {"android": "https://dc.lft.to/lastmile_qr_scan", "ios": "https://dc.lft.to/lastmile_qr_scan"}, "fusion_lon": 0.0, "lat": 38.9169895, "bike_id": "a133124ce80a75a612a9ab219a625f3e", "type": "electric_scooter", "is_reserved": 0, "lon": -77.0309835}, {"fusion_lat": 0.0, "name": "f5058e0f179e471f1601f117728126a9", "is_disabled": 0, "rental_uris": {"android": "https://dc.lft.to/lastmile_qr_scan", "ios": "https://dc.lft.to/lastmile_qr_scan"}, "fusion_lon": 0.0, "lat": 38.90838216666667, "bike_id": "f5058e0f179e471f1601f117728126a9", "type": "electric_scooter", "is_reserved": 0, "lon": -77.03837016666667}, {"fusion_lat": 0.0, "name": "1437cae30a8829b63feb1a085cf37c07", "is_disabled": 0, "rental_uris": {"android": "https://dc.lft.to/lastmile_qr_scan", "ios": "https://dc.lft.to/lastmile_qr_scan"}, "fusion_lon": 0.0, "lat": 38.863301166666666, "bike_id": "1437cae30a8829b63feb1a085cf37c07", "type": "electric_bike", "is_reserved": 0, "lon": -76.98716216666666}, {"fusion_lat": 0.0, "name": "bd1de68c7e8406aeaa078255e0a196fa", "is_disabled": 0, "rental_uris": {"android": "https://dc.lft.to/lastmile_qr_scan", "ios": "https://dc.lft.to/lastmile_qr_scan"}, "fusion_lon": 0.0, "lat": 38.9125785, "bike_id": "bd1de68c7e8406aeaa078255e0a196fa", "type": "electric_scooter", "is_reserved": 0, "lon": -77.0473125}, {"fusion_lat": 0.0, "name": "7ff048fcf8e6957c530c1e430d88cad7", "is_disabled": 0, "rental_uris": {"android": "https://dc.lft.to/lastmile_qr_scan", "ios": "https://dc.lft.to/lastmile_qr_scan"}, "fusion_lon": 0.0, "lat": 38.935315833333334, "bike_id": "7ff048fcf8e6957c530c1e430d88cad7", "type": "electric_scooter", "is_reserved": 0, "lon": -77.02346766666666}, {"fusion_lat": 0.0, "name": "5c6135bc17bad37f9b8fa2bcb09a0795", "is_disabled": 0, "rental_uris": {"android": "https://dc.lft.to/lastmile_qr_scan", "ios": "https://dc.lft.to/lastmile_qr_scan"}, "fusion_lon": 0.0, "lat": 38.912379666666666, "bike_id": "5c6135bc17bad37f9b8fa2bcb09a0795", "type": "electric_scooter", "is_reserved": 0, "lon": -77.04872233333333}, {"fusion_lat": 0.0, "name": "51997dd9a01e709f4fba174bff60e13c", "is_disabled": 0, "rental_uris": {"android": "https://dc.lft.to/lastmile_qr_scan", "ios": "https://dc.lft.to/lastmile_qr_scan"}, "fusion_lon": 0.0, "lat": 38.92345, "bike_id": "51997dd9a01e709f4fba174bff60e13c", "type": "electric_scooter", "is_reserved": 0, "lon": -77.02456416666666}, {"fusion_lat": 0.0, "name": "a5fcfa540cfd21746bfd7cd9b8661431", "is_disabled": 0, "rental_uris": {"android": "https://dc.lft.to/lastmile_qr_scan", "ios": "https://dc.lft.to/lastmile_qr_scan"}, "fusion_lon": 0.0, "lat": 38.93366133333333, "bike_id": "a5fcfa540cfd21746bfd7cd9b8661431", "type": "electric_scooter", "is_reserved": 0, "lon": -77.03079533333333}, {"fusion_lat": 0.0, "name": "1e119687e764ecc906dea577afabfaa6", "is_disabled": 0, "rental_uris": {"android": "https://dc.lft.to/lastmile_qr_scan", "ios": "https://dc.lft.to/lastmile_qr_scan"}, "fusion_lon": 0.0, "lat": 38.90977183333333, "bike_id": "1e119687e764ecc906dea577afabfaa6", "type": "electric_scooter", "is_reserved": 0, "lon": -77.03866533333333}, {"fusion_lat": 0.0, "name": "de7eec4d59621f9e6e7befe2309953a6", "is_disabled": 0, "rental_uris": {"android": "https://dc.lft.to/lastmile_qr_scan", "ios": "https://dc.lft.to/lastmile_qr_scan"}, "fusion_lon": 0.0, "lat": 38.92114983333333, "bike_id": "de7eec4d59621f9e6e7befe2309953a6", "type": "electric_scooter", "is_reserved": 0, "lon": -77.04675866666666}, {"fusion_lat": 0.0, "name": "1f44a961437f796a39032031de896b76", "is_disabled": 0, "rental_uris": {"android": "https://dc.lft.to/lastmile_qr_scan", "ios": "https://dc.lft.to/lastmile_qr_scan"}, "fusion_lon": 0.0, "lat": 38.842811833333336, "bike_id": "1f44a961437f796a39032031de896b76", "type": "electric_bike", "is_reserved": 0, "lon": -76.98837}, {"fusion_lat": 0.0, "name": "641c062971da8046fa2dca4cda887d2c", "is_disabled": 0, "rental_uris": {"android": "https://dc.lft.to/lastmile_qr_scan", "ios": "https://dc.lft.to/lastmile_qr_scan"}, "fusion_lon": 0.0, "lat": 38.911262, "bike_id": "641c062971da8046fa2dca4cda887d2c", "type": "electric_scooter", "is_reserved": 0, "lon": -77.02191083333334}, {"fusion_lat": 0.0, "name": "d4bf578b42c97fbd54e9a475c3b4c657", "is_disabled": 0, "rental_uris": {"android": "https://dc.lft.to/lastmile_qr_scan", "ios": "https://dc.lft.to/lastmile_qr_scan"}, "fusion_lon": 0.0, "lat": 38.92459916666667, "bike_id": "d4bf578b42c97fbd54e9a475c3b4c657", "type": "electric_scooter", "is_reserved": 0, "lon": -77.02408416666667}, {"fusion_lat": 0.0, "name": "c934ba87f8f3dc2a042c7abbd5a27fe8", "is_disabled": 0, "rental_uris": {"android": "https://dc.lft.to/lastmile_qr_scan", "ios": "https://dc.lft.to/lastmile_qr_scan"}, "fusion_lon": 0.0, "lat": 38.908723333333334, "bike_id": "c934ba87f8f3dc2a042c7abbd5a27fe8", "type": "electric_scooter", "is_reserved": 0, "lon": -77.04401966666667}, {"fusion_lat": 0.0, "name": "66e0ed9b6751efb741e32b8c5c3e2217", "is_disabled": 0, "rental_uris": {"android": "https://dc.lft.to/lastmile_qr_scan", "ios": "https://dc.lft.to/lastmile_qr_scan"}, "fusion_lon": 0.0, "lat": 38.9202985, "bike_id": "66e0ed9b6751efb741e32b8c5c3e2217", "type": "electric_scooter", "is_reserved": 0, "lon": -77.03072666666667}, {"fusion_lat": 0.0, "name": "923d97b56867ce1ed3c4175e68d48a5b", "is_disabled": 0, "rental_uris": {"android": "https://dc.lft.to/lastmile_qr_scan", "ios": "https://dc.lft.to/lastmile_qr_scan"}, "fusion_lon": 0.0, "lat": 38.92262016666667, "bike_id": "923d97b56867ce1ed3c4175e68d48a5b", "type": "electric_bike", "is_reserved": 0, "lon": -77.0702915}, {"fusion_lat": 0.0, "name": "7a0cfb7515e2b9facbd202d9ff85c129", "is_disabled": 0, "rental_uris": {"android": "https://dc.lft.to/lastmile_qr_scan", "ios": "https://dc.lft.to/lastmile_qr_scan"}, "fusion_lon": 0.0, "lat": 38.9206825, "bike_id": "7a0cfb7515e2b9facbd202d9ff85c129", "type": "electric_scooter", "is_reserved": 0, "lon": -77.02851283333334}, {"fusion_lat": 0.0, "name": "d1906a8db36564029fa9bc00a667732b", "is_disabled": 0, "rental_uris": {"android": "https://dc.lft.to/lastmile_qr_scan", "ios": "https://dc.lft.to/lastmile_qr_scan"}, "fusion_lon": 0.0, "lat": 38.91813416666667, "bike_id": "d1906a8db36564029fa9bc00a667732b", "type": "electric_scooter", "is_reserved": 0, "lon": -77.03271116666667}, {"fusion_lat": 0.0, "name": "ca01331f813cdbf22d0e44e5f0dc8fdd", "is_disabled": 0, "rental_uris": {"android": "https://dc.lft.to/lastmile_qr_scan", "ios": "https://dc.lft.to/lastmile_qr_scan"}, "fusion_lon": 0.0, "lat": 38.920759833333335, "bike_id": "ca01331f813cdbf22d0e44e5f0dc8fdd", "type": "electric_scooter", "is_reserved": 0, "lon": -77.023132}, {"fusion_lat": 0.0, "name": "94f40637d3fc67a5e7abc7420bf94e19", "is_disabled": 0, "rental_uris": {"android": "https://dc.lft.to/lastmile_qr_scan", "ios": "https://dc.lft.to/lastmile_qr_scan"}, "fusion_lon": 0.0, "lat": 38.916563, "bike_id": "94f40637d3fc67a5e7abc7420bf94e19", "type": "electric_scooter", "is_reserved": 0, "lon": -77.04188483333333}, {"fusion_lat": 0.0, "name": "71ea2375d2f67d341b5b9ecb1039c37e", "is_disabled": 0, "rental_uris": {"android": "https://dc.lft.to/lastmile_qr_scan", "ios": "https://dc.lft.to/lastmile_qr_scan"}, "fusion_lon": 0.0, "lat": 38.92085983333333, "bike_id": "71ea2375d2f67d341b5b9ecb1039c37e", "type": "electric_scooter", "is_reserved": 0, "lon": -77.03951166666667}, {"fusion_lat": 0.0, "name": "92053bc894c57efe1e3c5584a98d3b63", "is_disabled": 0, "rental_uris": {"android": "https://dc.lft.to/lastmile_qr_scan", "ios": "https://dc.lft.to/lastmile_qr_scan"}, "fusion_lon": 0.0, "lat": 38.93461033333333, "bike_id": "92053bc894c57efe1e3c5584a98d3b63", "type": "electric_scooter", "is_reserved": 0, "lon": -77.05777183333333}, {"fusion_lat": 0.0, "name": "a9d92035522202a262a762bb6cdd1bba", "is_disabled": 0, "rental_uris": {"android": "https://dc.lft.to/lastmile_qr_scan", "ios": "https://dc.lft.to/lastmile_qr_scan"}, "fusion_lon": 0.0, "lat": 38.8974985, "bike_id": "a9d92035522202a262a762bb6cdd1bba", "type": "electric_scooter", "is_reserved": 0, "lon": -77.03170116666666}, {"fusion_lat": 0.0, "name": "68f5fe5184fd1a5d54d553fd60b8dc55", "is_disabled": 0, "rental_uris": {"android": "https://dc.lft.to/lastmile_qr_scan", "ios": "https://dc.lft.to/lastmile_qr_scan"}, "fusion_lon": 0.0, "lat": 38.950916666666664, "bike_id": "68f5fe5184fd1a5d54d553fd60b8dc55", "type": "electric_scooter", "is_reserved": 0, "lon": -77.02817166666667}, {"fusion_lat": 0.0, "name": "e970be0949187b6cd084bd957251aa3f", "is_disabled": 0, "rental_uris": {"android": "https://dc.lft.to/lastmile_qr_scan", "ios": "https://dc.lft.to/lastmile_qr_scan"}, "fusion_lon": 0.0, "lat": 38.892253333333336, "bike_id": "e970be0949187b6cd084bd957251aa3f", "type": "electric_scooter", "is_reserved": 0, "lon": -77.03218666666666}, {"fusion_lat": 0.0, "name": "04f82be936f3055c40199fe5ae886cf1", "is_disabled": 0, "rental_uris": {"android": "https://dc.lft.to/lastmile_qr_scan", "ios": "https://dc.lft.to/lastmile_qr_scan"}, "fusion_lon": 0.0, "lat": 38.89835183333334, "bike_id": "04f82be936f3055c40199fe5ae886cf1", "type": "electric_scooter", "is_reserved": 0, "lon": -76.93181733333333}, {"fusion_lat": 0.0, "name": "18d1fe71cf352e50889411854941d232", "is_disabled": 0, "rental_uris": {"android": "https://dc.lft.to/lastmile_qr_scan", "ios": "https://dc.lft.to/lastmile_qr_scan"}, "fusion_lon": 0.0, "lat": 38.84054066666667, "bike_id": "18d1fe71cf352e50889411854941d232", "type": "electric_scooter", "is_reserved": 0, "lon": -76.97664766666666}, {"fusion_lat": 0.0, "name": "4460d208cf010f73b03821c0e3b5b24d", "is_disabled": 0, "rental_uris": {"android": "https://dc.lft.to/lastmile_qr_scan", "ios": "https://dc.lft.to/lastmile_qr_scan"}, "fusion_lon": 0.0, "lat": 38.8982815, "bike_id": "4460d208cf010f73b03821c0e3b5b24d", "type": "electric_scooter", "is_reserved": 0, "lon": -76.94652733333334}, {"fusion_lat": 0.0, "name": "60d5bf49a7e30fdd46399ffa5d498742", "is_disabled": 0, "rental_uris": {"android": "https://dc.lft.to/lastmile_qr_scan", "ios": "https://dc.lft.to/lastmile_qr_scan"}, "fusion_lon": 0.0, "lat": 38.9045345, "bike_id": "60d5bf49a7e30fdd46399ffa5d498742", "type": "electric_bike", "is_reserved": 0, "lon": -76.97429333333334}, {"fusion_lat": 0.0, "name": "55d3cbbe037860ac3dc09825f36a4bf4", "is_disabled": 0, "rental_uris": {"android": "https://dc.lft.to/lastmile_qr_scan", "ios": "https://dc.lft.to/lastmile_qr_scan"}, "fusion_lon": 0.0, "lat": 38.89869216666666, "bike_id": "55d3cbbe037860ac3dc09825f36a4bf4", "type": "electric_scooter", "is_reserved": 0, "lon": -77.03279816666667}, {"fusion_lat": 0.0, "name": "2d7b27ea61a801801c2fab72847eafc2", "is_disabled": 0, "rental_uris": {"android": "https://dc.lft.to/lastmile_qr_scan", "ios": "https://dc.lft.to/lastmile_qr_scan"}, "fusion_lon": 0.0, "lat": 38.89911166666667, "bike_id": "2d7b27ea61a801801c2fab72847eafc2", "type": "electric_scooter", "is_reserved": 0, "lon": -76.93345183333334}, {"fusion_lat": 0.0, "name": "51957fa31ed21113c30afef98b8e7582", "is_disabled": 0, "rental_uris": {"android": "https://dc.lft.to/lastmile_qr_scan", "ios": "https://dc.lft.to/lastmile_qr_scan"}, "fusion_lon": 0.0, "lat": 38.92649816666667, "bike_id": "51957fa31ed21113c30afef98b8e7582", "type": "electric_scooter", "is_reserved": 0, "lon": -77.02695666666666}, {"fusion_lat": 0.0, "name": "feee5fe1c43d546eda07c5900ff55b08", "is_disabled": 0, "rental_uris": {"android": "https://dc.lft.to/lastmile_qr_scan", "ios": "https://dc.lft.to/lastmile_qr_scan"}, "fusion_lon": 0.0, "lat": 38.920429666666664, "bike_id": "feee5fe1c43d546eda07c5900ff55b08", "type": "electric_scooter", "is_reserved": 0, "lon": -77.048128}, {"fusion_lat": 0.0, "name": "33d95ead9fda76004aa2b464b7d1cbc6", "is_disabled": 0, "rental_uris": {"android": "https://dc.lft.to/lastmile_qr_scan", "ios": "https://dc.lft.to/lastmile_qr_scan"}, "fusion_lon": 0.0, "lat": 38.95965, "bike_id": "33d95ead9fda76004aa2b464b7d1cbc6", "type": "electric_bike", "is_reserved": 0, "lon": -76.98162583333334}, {"fusion_lat": 0.0, "name": "3eda18478505f0ecd622b1a0e7a3f3ff", "is_disabled": 0, "rental_uris": {"android": "https://dc.lft.to/lastmile_qr_scan", "ios": "https://dc.lft.to/lastmile_qr_scan"}, "fusion_lon": 0.0, "lat": 38.896459166666666, "bike_id": "3eda18478505f0ecd622b1a0e7a3f3ff", "type": "electric_scooter", "is_reserved": 0, "lon": -77.046433}, {"fusion_lat": 0.0, "name": "0dc38555b7f66118ee2817223edc010d", "is_disabled": 0, "rental_uris": {"android": "https://dc.lft.to/lastmile_qr_scan", "ios": "https://dc.lft.to/lastmile_qr_scan"}, "fusion_lon": 0.0, "lat": 38.929070333333335, "bike_id": "0dc38555b7f66118ee2817223edc010d", "type": "electric_scooter", "is_reserved": 0, "lon": -77.06410383333333}, {"fusion_lat": 0.0, "name": "4d9a3d26880491956be9c43121842d9d", "is_disabled": 0, "rental_uris": {"android": "https://dc.lft.to/lastmile_qr_scan", "ios": "https://dc.lft.to/lastmile_qr_scan"}, "fusion_lon": 0.0, "lat": 38.928579, "bike_id": "4d9a3d26880491956be9c43121842d9d", "type": "electric_scooter", "is_reserved": 0, "lon": -77.03096116666667}, {"fusion_lat": 0.0, "name": "afc581e5e7e8788f3b2a0cbf9ebc8629", "is_disabled": 0, "rental_uris": {"android": "https://dc.lft.to/lastmile_qr_scan", "ios": "https://dc.lft.to/lastmile_qr_scan"}, "fusion_lon": 0.0, "lat": 38.95760166666667, "bike_id": "afc581e5e7e8788f3b2a0cbf9ebc8629", "type": "electric_bike", "is_reserved": 0, "lon": -76.9808845}, {"fusion_lat": 0.0, "name": "5431076a4d7fb9a741a70f4aa77b11f4", "is_disabled": 0, "rental_uris": {"android": "https://dc.lft.to/lastmile_qr_scan", "ios": "https://dc.lft.to/lastmile_qr_scan"}, "fusion_lon": 0.0, "lat": 38.93239716666667, "bike_id": "5431076a4d7fb9a741a70f4aa77b11f4", "type": "electric_bike", "is_reserved": 0, "lon": -76.97423516666667}, {"fusion_lat": 0.0, "name": "6a8606c368fa2b38a0da802c99d534fe", "is_disabled": 0, "rental_uris": {"android": "https://dc.lft.to/lastmile_qr_scan", "ios": "https://dc.lft.to/lastmile_qr_scan"}, "fusion_lon": 0.0, "lat": 38.919718333333336, "bike_id": "6a8606c368fa2b38a0da802c99d534fe", "type": "electric_scooter", "is_reserved": 0, "lon": -77.01847333333333}, {"fusion_lat": 0.0, "name": "ecef92845973e497639e5de1c292cc32", "is_disabled": 0, "rental_uris": {"android": "https://dc.lft.to/lastmile_qr_scan", "ios": "https://dc.lft.to/lastmile_qr_scan"}, "fusion_lon": 0.0, "lat": 38.912290666666664, "bike_id": "ecef92845973e497639e5de1c292cc32", "type": "electric_scooter", "is_reserved": 0, "lon": -77.031988}, {"fusion_lat": 0.0, "name": "f480ac0d36e28eaea6b02a67e0603e22", "is_disabled": 0, "rental_uris": {"android": "https://dc.lft.to/lastmile_qr_scan", "ios": "https://dc.lft.to/lastmile_qr_scan"}, "fusion_lon": 0.0, "lat": 38.901243666666666, "bike_id": "f480ac0d36e28eaea6b02a67e0603e22", "type": "electric_scooter", "is_reserved": 0, "lon": -77.00322666666666}, {"fusion_lat": 0.0, "name": "ea05df18e4f8a45f2fd993bd09a669d3", "is_disabled": 0, "rental_uris": {"android": "https://dc.lft.to/lastmile_qr_scan", "ios": "https://dc.lft.to/lastmile_qr_scan"}, "fusion_lon": 0.0, "lat": 38.900449, "bike_id": "ea05df18e4f8a45f2fd993bd09a669d3", "type": "electric_scooter", "is_reserved": 0, "lon": -77.02947866666666}, {"fusion_lat": 0.0, "name": "9dc8b148393b572034458ecc12183010", "is_disabled": 0, "rental_uris": {"android": "https://dc.lft.to/lastmile_qr_scan", "ios": "https://dc.lft.to/lastmile_qr_scan"}, "fusion_lon": 0.0, "lat": 38.90267083333333, "bike_id": "9dc8b148393b572034458ecc12183010", "type": "electric_scooter", "is_reserved": 0, "lon": -77.04361533333334}, {"fusion_lat": 0.0, "name": "038cb14a9aea647b9714f69a49410270", "is_disabled": 0, "rental_uris": {"android": "https://dc.lft.to/lastmile_qr_scan", "ios": "https://dc.lft.to/lastmile_qr_scan"}, "fusion_lon": 0.0, "lat": 38.944497, "bike_id": "038cb14a9aea647b9714f69a49410270", "type": "electric_scooter", "is_reserved": 0, "lon": -77.02338566666667}, {"fusion_lat": 0.0, "name": "9e3a4d9f509cf5d5d2a080cd7bc32e7e", "is_disabled": 0, "rental_uris": {"android": "https://dc.lft.to/lastmile_qr_scan", "ios": "https://dc.lft.to/lastmile_qr_scan"}, "fusion_lon": 0.0, "lat": 38.93131233333333, "bike_id": "9e3a4d9f509cf5d5d2a080cd7bc32e7e", "type": "electric_scooter", "is_reserved": 0, "lon": -77.07846}, {"fusion_lat": 0.0, "name": "1460bd6a3b6f13221973187657490ee2", "is_disabled": 0, "rental_uris": {"android": "https://dc.lft.to/lastmile_qr_scan", "ios": "https://dc.lft.to/lastmile_qr_scan"}, "fusion_lon": 0.0, "lat": 38.91925066666667, "bike_id": "1460bd6a3b6f13221973187657490ee2", "type": "electric_scooter", "is_reserved": 0, "lon": -77.02518216666667}, {"fusion_lat": 0.0, "name": "82f78bc9c8a685c343e66ae29d42c089", "is_disabled": 0, "rental_uris": {"android": "https://dc.lft.to/lastmile_qr_scan", "ios": "https://dc.lft.to/lastmile_qr_scan"}, "fusion_lon": 0.0, "lat": 38.90974966666667, "bike_id": "82f78bc9c8a685c343e66ae29d42c089", "type": "electric_scooter", "is_reserved": 0, "lon": -77.02181066666667}, {"fusion_lat": 0.0, "name": "8dfb694c0cffd1e4c56b39db47a06c64", "is_disabled": 0, "rental_uris": {"android": "https://dc.lft.to/lastmile_qr_scan", "ios": "https://dc.lft.to/lastmile_qr_scan"}, "fusion_lon": 0.0, "lat": 38.86624416666667, "bike_id": "8dfb694c0cffd1e4c56b39db47a06c64", "type": "electric_scooter", "is_reserved": 0, "lon": -76.98716783333333}, {"fusion_lat": 0.0, "name": "99a6f6acc16af8a290bd45216799fec7", "is_disabled": 0, "rental_uris": {"android": "https://dc.lft.to/lastmile_qr_scan", "ios": "https://dc.lft.to/lastmile_qr_scan"}, "fusion_lon": 0.0, "lat": 38.92000816666667, "bike_id": "99a6f6acc16af8a290bd45216799fec7", "type": "electric_scooter", "is_reserved": 0, "lon": -77.023429}, {"fusion_lat": 0.0, "name": "bc09be4f77419db7bbed7e19e9e696ec", "is_disabled": 0, "rental_uris": {"android": "https://dc.lft.to/lastmile_qr_scan", "ios": "https://dc.lft.to/lastmile_qr_scan"}, "fusion_lon": 0.0, "lat": 38.90089733333333, "bike_id": "bc09be4f77419db7bbed7e19e9e696ec", "type": "electric_scooter", "is_reserved": 0, "lon": -77.05829583333333}, {"fusion_lat": 0.0, "name": "e17eb8861abcc8849e2562c3216e90ab", "is_disabled": 0, "rental_uris": {"android": "https://dc.lft.to/lastmile_qr_scan", "ios": "https://dc.lft.to/lastmile_qr_scan"}, "fusion_lon": 0.0, "lat": 38.89355616666667, "bike_id": "e17eb8861abcc8849e2562c3216e90ab", "type": "electric_scooter", "is_reserved": 0, "lon": -77.00059266666666}, {"fusion_lat": 0.0, "name": "dddb59ad7cdcb7d11ce04689aade043f", "is_disabled": 0, "rental_uris": {"android": "https://dc.lft.to/lastmile_qr_scan", "ios": "https://dc.lft.to/lastmile_qr_scan"}, "fusion_lon": 0.0, "lat": 38.905705166666664, "bike_id": "dddb59ad7cdcb7d11ce04689aade043f", "type": "electric_scooter", "is_reserved": 0, "lon": -77.02409966666667}, {"fusion_lat": 0.0, "name": "941ff981f52645d42d758a4c6d8eecbf", "is_disabled": 0, "rental_uris": {"android": "https://dc.lft.to/lastmile_qr_scan", "ios": "https://dc.lft.to/lastmile_qr_scan"}, "fusion_lon": 0.0, "lat": 38.924625166666665, "bike_id": "941ff981f52645d42d758a4c6d8eecbf", "type": "electric_scooter", "is_reserved": 0, "lon": -77.08024266666666}, {"fusion_lat": 0.0, "name": "cd7e6c9be3e246deb8c0afb41f6ec14b", "is_disabled": 0, "rental_uris": {"android": "https://dc.lft.to/lastmile_qr_scan", "ios": "https://dc.lft.to/lastmile_qr_scan"}, "fusion_lon": 0.0, "lat": 38.892588333333336, "bike_id": "cd7e6c9be3e246deb8c0afb41f6ec14b", "type": "electric_bike", "is_reserved": 0, "lon": -76.9511475}, {"fusion_lat": 0.0, "name": "4f3f2d64cf1f7dc37743c29155f292da", "is_disabled": 0, "rental_uris": {"android": "https://dc.lft.to/lastmile_qr_scan", "ios": "https://dc.lft.to/lastmile_qr_scan"}, "fusion_lon": 0.0, "lat": 38.91326016666667, "bike_id": "4f3f2d64cf1f7dc37743c29155f292da", "type": "electric_scooter", "is_reserved": 0, "lon": -77.03182283333334}, {"fusion_lat": 0.0, "name": "30e39823bbd0f7b7918afe794e08ff73", "is_disabled": 0, "rental_uris": {"android": "https://dc.lft.to/lastmile_qr_scan", "ios": "https://dc.lft.to/lastmile_qr_scan"}, "fusion_lon": 0.0, "lat": 38.896022333333335, "bike_id": "30e39823bbd0f7b7918afe794e08ff73", "type": "electric_scooter", "is_reserved": 0, "lon": -77.02653316666667}, {"fusion_lat": 0.0, "name": "dac8d8b53b5814b4a72270ce733ff213", "is_disabled": 0, "rental_uris": {"android": "https://dc.lft.to/lastmile_qr_scan", "ios": "https://dc.lft.to/lastmile_qr_scan"}, "fusion_lon": 0.0, "lat": 38.91913783333333, "bike_id": "dac8d8b53b5814b4a72270ce733ff213", "type": "electric_scooter", "is_reserved": 0, "lon": -77.02609966666667}, {"fusion_lat": 0.0, "name": "89ffdd9aaffbd8af152b9cca52613080", "is_disabled": 0, "rental_uris": {"android": "https://dc.lft.to/lastmile_qr_scan", "ios": "https://dc.lft.to/lastmile_qr_scan"}, "fusion_lon": 0.0, "lat": 38.96729883333333, "bike_id": "89ffdd9aaffbd8af152b9cca52613080", "type": "electric_scooter", "is_reserved": 0, "lon": -77.00919166666667}, {"fusion_lat": 0.0, "name": "70fc3dd12329c6dd9dc7d2c1af93f5ca", "is_disabled": 0, "rental_uris": {"android": "https://dc.lft.to/lastmile_qr_scan", "ios": "https://dc.lft.to/lastmile_qr_scan"}, "fusion_lon": 0.0, "lat": 38.952447666666664, "bike_id": "70fc3dd12329c6dd9dc7d2c1af93f5ca", "type": "electric_scooter", "is_reserved": 0, "lon": -77.0237995}, {"fusion_lat": 0.0, "name": "87db5affc71c93ee79c49325f69c6da8", "is_disabled": 0, "rental_uris": {"android": "https://dc.lft.to/lastmile_qr_scan", "ios": "https://dc.lft.to/lastmile_qr_scan"}, "fusion_lon": 0.0, "lat": 38.88315733333334, "bike_id": "87db5affc71c93ee79c49325f69c6da8", "type": "electric_scooter", "is_reserved": 0, "lon": -77.01731316666667}, {"fusion_lat": 0.0, "name": "4e102f61207a75c91bd4ec50c37d007e", "is_disabled": 0, "rental_uris": {"android": "https://dc.lft.to/lastmile_qr_scan", "ios": "https://dc.lft.to/lastmile_qr_scan"}, "fusion_lon": 0.0, "lat": 38.87543133333333, "bike_id": "4e102f61207a75c91bd4ec50c37d007e", "type": "electric_scooter", "is_reserved": 0, "lon": -77.00530183333333}, {"fusion_lat": 0.0, "name": "241bac7d89e8827a3e9904ba87b9590f", "is_disabled": 0, "rental_uris": {"android": "https://dc.lft.to/lastmile_qr_scan", "ios": "https://dc.lft.to/lastmile_qr_scan"},