{"data": {"bikes": [{"is_disabled": 0, "rental_uris": {"android": "https://dc.lft.to/lastmile_qr_scan", "ios": "https://dc.lft.to/lastmile_qr_scan"}, "is_reserved": 0, "name": "49fecf441727d9493fb53d2de30fe3eb", "lon": -77.0512045, "type": "electric_scooter", "bike_id": "49fecf441727d9493fb53d2de30fe3eb", "fusion_lon": 0.0, "lat": 38.90222883333333, "fusion_lat": 0.0}, {"is_disabled": 0, "rental_uris": {"android": "https://dc.lft.to/lastmile_qr_scan", "ios": "https://dc.lft.to/lastmile_qr_scan"}, "is_reserved": 0, "name": "c749729020bdf44018463018b9771638", "lon": -77.007883, "type": "electric_scooter", "bike_id": "c749729020bdf44018463018b9771638", "fusion_lon": 0.0, "lat": 38.90746566666667, "fusion_lat": 0.0}, {"is_disabled": 0, "rental_uris": {"android": "https://dc.lft.to/lastmile_qr_scan", "ios": "https://dc.lft.to/lastmile_qr_scan"}, "is_reserved": 0, "name": "ee154a9823609202406219a66600c842", "lon": -77.0477125, "type": "electric_scooter", "bike_id": "ee154a9823609202406219a66600c842", "fusion_lon": 0.0, "lat": 38.9176965, "fusion_lat": 0.0}, {"is_disabled": 0, "rental_uris": {"android": "https://dc.lft.to/lastmile_qr_scan", "ios": "https://dc.lft.to/lastmile_qr_scan"}, "is_reserved": 0, "name": "53f8974118d61b23d562d7d499c4d2d4", "lon": -77.021585, "type": "electric_scooter", "bike_id": "53f8974118d61b23d562d7d499c4d2d4", "fusion_lon": 0.0, "lat": 38.87925366666666, "fusion_lat": 0.0}, {"is_disabled": 0, "rental_uris": {"android": "https://dc.lft.to/lastmile_qr_scan", "ios": "https://dc.lft.to/lastmile_qr_scan"}, "is_reserved": 0, "name": "9cd7f1926a01836caf37676f243dbcd1", "lon": -77.02851533333333, "type": "electric_bike", "bike_id": "9cd7f1926a01836caf37676f243dbcd1", "fusion_lon": 0.0, "lat": 38.91365016666666, "fusion_lat": 0.0}, {"is_disabled": 0, "rental_uris": {"android": "https://dc.lft.to/lastmile_qr_scan", "ios": "https://dc.lft.to/lastmile_qr_scan"}, "is_reserved": 0, "name": "1259dd1b3959de94341c9f8b68ca6b6b", "lon": -77.02764083333334, "type": "electric_scooter", "bike_id": "1259dd1b3959de94341c9f8b68ca6b6b", "fusion_lon": 0.0, "lat": 38.96735616666667, "fusion_lat": 0.0}, {"is_disabled": 0, "rental_uris": {"android": "https://dc.lft.to/lastmile_qr_scan", "ios": "https://dc.lft.to/lastmile_qr_scan"}, "is_reserved": 0, "name": "1b3427fd6336659361ae79e70696509d", "lon": -77.02610866666667, "type": "electric_scooter", "bike_id": "1b3427fd6336659361ae79e70696509d", "fusion_lon": 0.0, "lat": 38.92443383333333, "fusion_lat": 0.0}, {"is_disabled": 0, "rental_uris": {"android": "https://dc.lft.to/lastmile_qr_scan", "ios": "https://dc.lft.to/lastmile_qr_scan"}, "is_reserved": 0, "name": "c3c369d9ff84db3f95c3aa56afcfcc7b", "lon": -77.03390083333333, "type": "electric_scooter", "bike_id": "c3c369d9ff84db3f95c3aa56afcfcc7b", "fusion_lon": 0.0, "lat": 38.921563, "fusion_lat": 0.0}, {"is_disabled": 0, "rental_uris": {"android": "https://dc.lft.to/lastmile_qr_scan", "ios": "https://dc.lft.to/lastmile_qr_scan"}, "is_reserved": 0, "name": "b5b8e7328e6e0f3d2eefd4e93442ff26", "lon": -77.05110116666667, "type": "electric_scooter", "bike_id": "b5b8e7328e6e0f3d2eefd4e93442ff26", "fusion_lon": 0.0, "lat": 38.90127016666667, "fusion_lat": 0.0}, {"is_disabled": 0, "rental_uris": {"android": "https://dc.lft.to/lastmile_qr_scan", "ios": "https://dc.lft.to/lastmile_qr_scan"}, "is_reserved": 0, "name": "13bfaea18aec5d679326b5f67aa80930", "lon": -77.03147816666667, "type": "electric_scooter", "bike_id": "13bfaea18aec5d679326b5f67aa80930", "fusion_lon": 0.0, "lat": 38.901161333333334, "fusion_lat": 0.0}, {"is_disabled": 0, "rental_uris": {"android": "https://dc.lft.to/lastmile_qr_scan", "ios": "https://dc.lft.to/lastmile_qr_scan"}, "is_reserved": 0, "name": "4fe66d43e6e883dd81af83818c6f89d7", "lon": -77.0278805, "type": "electric_scooter", "bike_id": "4fe66d43e6e883dd81af83818c6f89d7", "fusion_lon": 0.0, "lat": 38.917047333333336, "fusion_lat": 0.0}, {"is_disabled": 0, "rental_uris": {"android": "https://dc.lft.to/lastmile_qr_scan", "ios": "https://dc.lft.to/lastmile_qr_scan"}, "is_reserved": 0, "name": "16ea5786a2eaabecd81ad1ef66ca6a2a", "lon": -77.0237985, "type": "electric_scooter", "bike_id": "16ea5786a2eaabecd81ad1ef66ca6a2a", "fusion_lon": 0.0, "lat": 38.902055833333335, "fusion_lat": 0.0}, {"is_disabled": 0, "rental_uris": {"android": "https://dc.lft.to/lastmile_qr_scan", "ios": "https://dc.lft.to/lastmile_qr_scan"}, "is_reserved": 0, "name": "f2c64e64ec4f5a89977ef2ce8b9b3b50", "lon": -77.02850633333334, "type": "electric_scooter", "bike_id": "f2c64e64ec4f5a89977ef2ce8b9b3b50", "fusion_lon": 0.0, "lat": 38.9224845, "fusion_lat": 0.0}, {"is_disabled": 0, "rental_uris": {"android": "https://dc.lft.to/lastmile_qr_scan", "ios": "https://dc.lft.to/lastmile_qr_scan"}, "is_reserved": 0, "name": "d6fa72248c8c0303896d06ffba917d13", "lon": -77.012554, "type": "electric_scooter", "bike_id": "d6fa72248c8c0303896d06ffba917d13", "fusion_lon": 0.0, "lat": 38.9085, "fusion_lat": 0.0}, {"is_disabled": 0, "rental_uris": {"android": "https://dc.lft.to/lastmile_qr_scan", "ios": "https://dc.lft.to/lastmile_qr_scan"}, "is_reserved": 0, "name": "79d5cc174383aeb3152ed7a64c62df67", "lon": -77.02988433333333, "type": "electric_scooter", "bike_id": "79d5cc174383aeb3152ed7a64c62df67", "fusion_lon": 0.0, "lat": 38.907256333333336, "fusion_lat": 0.0}, {"is_disabled": 0, "rental_uris": {"android": "https://dc.lft.to/lastmile_qr_scan", "ios": "https://dc.lft.to/lastmile_qr_scan"}, "is_reserved": 0, "name": "1e42d9df96b30786209027e7333bd1d3", "lon": -77.0306375, "type": "electric_scooter", "bike_id": "1e42d9df96b30786209027e7333bd1d3", "fusion_lon": 0.0, "lat": 38.899848666666664, "fusion_lat": 0.0}, {"is_disabled": 0, "rental_uris": {"android": "https://dc.lft.to/lastmile_qr_scan", "ios": "https://dc.lft.to/lastmile_qr_scan"}, "is_reserved": 0, "name": "353d582d5e6319aa213a6a1c83d38c71", "lon": -77.02380166666667, "type": "electric_scooter", "bike_id": "353d582d5e6319aa213a6a1c83d38c71", "fusion_lon": 0.0, "lat": 38.93260866666667, "fusion_lat": 0.0}, {"is_disabled": 0, "rental_uris": {"android": "https://dc.lft.to/lastmile_qr_scan", "ios": "https://dc.lft.to/lastmile_qr_scan"}, "is_reserved": 0, "name": "569affb37ea71ef100848f03e16bcf7d", "lon": -76.93370233333333, "type": "electric_scooter", "bike_id": "569affb37ea71ef100848f03e16bcf7d", "fusion_lon": 0.0, "lat": 38.899235166666664, "fusion_lat": 0.0}, {"is_disabled": 0, "rental_uris": {"android": "https://dc.lft.to/lastmile_qr_scan", "ios": "https://dc.lft.to/lastmile_qr_scan"}, "is_reserved": 0, "name": "4f455d493b36ee8b8f027f8b188155c7", "lon": -77.00922033333333, "type": "electric_scooter", "bike_id": "4f455d493b36ee8b8f027f8b188155c7", "fusion_lon": 0.0, "lat": 38.895605, "fusion_lat": 0.0}, {"is_disabled": 0, "rental_uris": {"android": "https://dc.lft.to/lastmile_qr_scan", "ios": "https://dc.lft.to/lastmile_qr_scan"}, "is_reserved": 0, "name": "4eb3901cf5cdd8b637bf223b4d3095c4", "lon": -76.9652905, "type": "electric_scooter", "bike_id": "4eb3901cf5cdd8b637bf223b4d3095c4", "fusion_lon": 0.0, "lat": 38.876306666666665, "fusion_lat": 0.0}, {"is_disabled": 0, "rental_uris": {"android": "https://dc.lft.to/lastmile_qr_scan", "ios": "https://dc.lft.to/lastmile_qr_scan"}, "is_reserved": 0, "name": "87eacf7c7428a90c33ca5c0917b9b9c7", "lon": -77.02497916666667, "type": "electric_scooter", "bike_id": "87eacf7c7428a90c33ca5c0917b9b9c7", "fusion_lon": 0.0, "lat": 38.91930683333333, "fusion_lat": 0.0}, {"is_disabled": 0, "rental_uris": {"android": "https://dc.lft.to/lastmile_qr_scan", "ios": "https://dc.lft.to/lastmile_qr_scan"}, "is_reserved": 0, "name": "9d84ab452c02d0cad50c5c2ef7280abe", "lon": -77.02255016666666, "type": "electric_scooter", "bike_id": "9d84ab452c02d0cad50c5c2ef7280abe", "fusion_lon": 0.0, "lat": 38.88637033333333, "fusion_lat": 0.0}, {"is_disabled": 0, "rental_uris": {"android": "https://dc.lft.to/lastmile_qr_scan", "ios": "https://dc.lft.to/lastmile_qr_scan"}, "is_reserved": 0, "name": "ca75bdd8ffb3434f8d9dcaeea90ff239", "lon": -77.0318815, "type": "electric_bike", "bike_id": "ca75bdd8ffb3434f8d9dcaeea90ff239", "fusion_lon": 0.0, "lat": 38.920017, "fusion_lat": 0.0}, {"is_disabled": 0, "rental_uris": {"android": "https://dc.lft.to/lastmile_qr_scan", "ios": "https://dc.lft.to/lastmile_qr_scan"}, "is_reserved": 0, "name": "498e296e98182e9a54d574dbf3412544", "lon": -76.99005183333334, "type": "electric_scooter", "bike_id": "498e296e98182e9a54d574dbf3412544", "fusion_lon": 0.0, "lat": 38.86506383333333, "fusion_lat": 0.0}, {"is_disabled": 0, "rental_uris": {"android": "https://dc.lft.to/lastmile_qr_scan", "ios": "https://dc.lft.to/lastmile_qr_scan"}, "is_reserved": 0, "name": "069ffad57f80070abdad7e07ab5de3ce", "lon": -77.0351775, "type": "electric_scooter", "bike_id": "069ffad57f80070abdad7e07ab5de3ce", "fusion_lon": 0.0, "lat": 38.922382, "fusion_lat": 0.0}, {"is_disabled": 0, "rental_uris": {"android": "https://dc.lft.to/lastmile_qr_scan", "ios": "https://dc.lft.to/lastmile_qr_scan"}, "is_reserved": 0, "name": "399e17c0d5137049e2020747717b043b", "lon": -77.05402616666667, "type": "electric_scooter", "bike_id": "399e17c0d5137049e2020747717b043b", "fusion_lon": 0.0, "lat": 38.92779683333333, "fusion_lat": 0.0}, {"is_disabled": 0, "rental_uris": {"android": "https://dc.lft.to/lastmile_qr_scan", "ios": "https://dc.lft.to/lastmile_qr_scan"}, "is_reserved": 0, "name": "8a2aefa8dc615719d903fa6952749514", "lon": -77.02811833333334, "type": "electric_scooter", "bike_id": "8a2aefa8dc615719d903fa6952749514", "fusion_lon": 0.0, "lat": 38.88426483333333, "fusion_lat": 0.0}, {"is_disabled": 0, "rental_uris": {"android": "https://dc.lft.to/lastmile_qr_scan", "ios": "https://dc.lft.to/lastmile_qr_scan"}, "is_reserved": 0, "name": "f8d967c55510c8ae29c1dcc176436994", "lon": -77.04202666666667, "type": "electric_scooter", "bike_id": "f8d967c55510c8ae29c1dcc176436994", "fusion_lon": 0.0, "lat": 38.916764666666666, "fusion_lat": 0.0}, {"is_disabled": 0, "rental_uris": {"android": "https://dc.lft.to/lastmile_qr_scan", "ios": "https://dc.lft.to/lastmile_qr_scan"}, "is_reserved": 0, "name": "4b6864a8abd1f98650d5d942d9c54198", "lon": -77.05959833333333, "type": "electric_scooter", "bike_id": "4b6864a8abd1f98650d5d942d9c54198", "fusion_lon": 0.0, "lat": 38.86235633333333, "fusion_lat": 0.0}, {"is_disabled": 0, "rental_uris": {"android": "https://dc.lft.to/lastmile_qr_scan", "ios": "https://dc.lft.to/lastmile_qr_scan"}, "is_reserved": 0, "name": "36b2ff47e5209e373efb6688efc032e6", "lon": -77.11518383333333, "type": "electric_bike", "bike_id": "36b2ff47e5209e373efb6688efc032e6", "fusion_lon": 0.0, "lat": 38.88192333333333, "fusion_lat": 0.0}, {"is_disabled": 0, "rental_uris": {"android": "https://dc.lft.to/lastmile_qr_scan", "ios": "https://dc.lft.to/lastmile_qr_scan"}, "is_reserved": 0, "name": "c4460e75317594510d0046a24864e6ba", "lon": -77.0309125, "type": "electric_scooter", "bike_id": "c4460e75317594510d0046a24864e6ba", "fusion_lon": 0.0, "lat": 38.9224235, "fusion_lat": 0.0}, {"is_disabled": 0, "rental_uris": {"android": "https://dc.lft.to/lastmile_qr_scan", "ios": "https://dc.lft.to/lastmile_qr_scan"}, "is_reserved": 0, "name": "2a19d476bae06e157033d3e0de1d2824", "lon": -77.022064, "type": "electric_scooter", "bike_id": "2a19d476bae06e157033d3e0de1d2824", "fusion_lon": 0.0, "lat": 38.90981816666667, "fusion_lat": 0.0}, {"is_disabled": 0, "rental_uris": {"android": "https://dc.lft.to/lastmile_qr_scan", "ios": "https://dc.lft.to/lastmile_qr_scan"}, "is_reserved": 0, "name": "7b8dac04a4a552ad29b380044eb65d20", "lon": -76.97998233333334, "type": "electric_scooter", "bike_id": "7b8dac04a4a552ad29b380044eb65d20", "fusion_lon": 0.0, "lat": 38.88874283333333, "fusion_lat": 0.0}, {"is_disabled": 0, "rental_uris": {"android": "https://dc.lft.to/lastmile_qr_scan", "ios": "https://dc.lft.to/lastmile_qr_scan"}, "is_reserved": 0, "name": "8e17454eee054d7d90973e6d463419c1", "lon": -77.02193816666667, "type": "electric_scooter", "bike_id": "8e17454eee054d7d90973e6d463419c1", "fusion_lon": 0.0, "lat": 38.90156783333333, "fusion_lat": 0.0}, {"is_disabled": 0, "rental_uris": {"android": "https://dc.lft.to/lastmile_qr_scan", "ios": "https://dc.lft.to/lastmile_qr_scan"}, "is_reserved": 0, "name": "6be85a38a93972caf1c5aa2053ec5109", "lon": -76.977327, "type": "electric_scooter", "bike_id": "6be85a38a93972caf1c5aa2053ec5109", "fusion_lon": 0.0, "lat": 38.89485766666667, "fusion_lat": 0.0}, {"is_disabled": 0, "rental_uris": {"android": "https://dc.lft.to/lastmile_qr_scan", "ios": "https://dc.lft.to/lastmile_qr_scan"}, "is_reserved": 0, "name": "e9b020e87ffd32f78fe15583780a7116", "lon": -76.9847625, "type": "electric_scooter", "bike_id": "e9b020e87ffd32f78fe15583780a7116", "fusion_lon": 0.0, "lat": 38.893546, "fusion_lat": 0.0}, {"is_disabled": 0, "rental_uris": {"android": "https://dc.lft.to/lastmile_qr_scan", "ios": "https://dc.lft.to/lastmile_qr_scan"}, "is_reserved": 0, "name": "43ac6d1fa708e9f250852c041853c60a", "lon": -77.038656, "type": "electric_scooter", "bike_id": "43ac6d1fa708e9f250852c041853c60a", "fusion_lon": 0.0, "lat": 38.903712166666665, "fusion_lat": 0.0}, {"is_disabled": 0, "rental_uris": {"android": "https://dc.lft.to/lastmile_qr_scan", "ios": "https://dc.lft.to/lastmile_qr_scan"}, "is_reserved": 0, "name": "2c8371915e8d7da6c026821bf6d6ea46", "lon": -77.03230433333333, "type": "electric_scooter", "bike_id": "2c8371915e8d7da6c026821bf6d6ea46", "fusion_lon": 0.0, "lat": 38.90953, "fusion_lat": 0.0}, {"is_disabled": 0, "rental_uris": {"android": "https://dc.lft.to/lastmile_qr_scan", "ios": "https://dc.lft.to/lastmile_qr_scan"}, "is_reserved": 0, "name": "fa9b5ffaf17ef366948a6554d9801737", "lon": -77.0386665, "type": "electric_scooter", "bike_id": "fa9b5ffaf17ef366948a6554d9801737", "fusion_lon": 0.0, "lat": 38.9125685, "fusion_lat": 0.0}, {"is_disabled": 0, "rental_uris": {"android": "https://dc.lft.to/lastmile_qr_scan", "ios": "https://dc.lft.to/lastmile_qr_scan"}, "is_reserved": 0, "name": "b868ae3c1ff3eb0d89ee501e2d54ec2f", "lon": -77.02951916666666, "type": "electric_scooter", "bike_id": "b868ae3c1ff3eb0d89ee501e2d54ec2f", "fusion_lon": 0.0, "lat": 38.91194633333333, "fusion_lat": 0.0}, {"is_disabled": 0, "rental_uris": {"android": "https://dc.lft.to/lastmile_qr_scan", "ios": "https://dc.lft.to/lastmile_qr_scan"}, "is_reserved": 0, "name": "084b3fca97860218f5148a3745a5feea", "lon": -77.065331, "type": "electric_scooter", "bike_id": "084b3fca97860218f5148a3745a5feea", "fusion_lon": 0.0, "lat": 38.905187833333336, "fusion_lat": 0.0}, {"is_disabled": 0, "rental_uris": {"android": "https://dc.lft.to/lastmile_qr_scan", "ios": "https://dc.lft.to/lastmile_qr_scan"}, "is_reserved": 0, "name": "ba8ec3b4a2ee621da94b92b28826a6d5", "lon": -77.0360955, "type": "electric_scooter", "bike_id": "ba8ec3b4a2ee621da94b92b28826a6d5", "fusion_lon": 0.0, "lat": 38.934823, "fusion_lat": 0.0}, {"is_disabled": 0, "rental_uris": {"android": "https://dc.lft.to/lastmile_qr_scan", "ios": "https://dc.lft.to/lastmile_qr_scan"}, "is_reserved": 0, "name": "ceb3aa3b12444245647db0b15c12bc2e", "lon": -77.229421, "type": "electric_bike", "bike_id": "ceb3aa3b12444245647db0b15c12bc2e", "fusion_lon": 0.0, "lat": 38.931901333333336, "fusion_lat": 0.0}, {"is_disabled": 0, "rental_uris": {"android": "https://dc.lft.to/lastmile_qr_scan", "ios": "https://dc.lft.to/lastmile_qr_scan"}, "is_reserved": 0, "name": "e9c29ac252558e647bdddf01a2b194d9", "lon": -77.0065765, "type": "electric_scooter", "bike_id": "e9c29ac252558e647bdddf01a2b194d9", "fusion_lon": 0.0, "lat": 38.944632, "fusion_lat": 0.0}, {"is_disabled": 0, "rental_uris": {"android": "https://dc.lft.to/lastmile_qr_scan", "ios": "https://dc.lft.to/lastmile_qr_scan"}, "is_reserved": 0, "name": "2d940e2c1db48d2dde6638977d582f23", "lon": -77.02927233333334, "type": "electric_bike", "bike_id": "2d940e2c1db48d2dde6638977d582f23", "fusion_lon": 0.0, "lat": 38.9983895, "fusion_lat": 0.0}, {"is_disabled": 0, "rental_uris": {"android": "https://dc.lft.to/lastmile_qr_scan", "ios": "https://dc.lft.to/lastmile_qr_scan"}, "is_reserved": 0, "name": "07008b1f290536b803db93e0e131f947", "lon": -77.038594, "type": "electric_scooter", "bike_id": "07008b1f290536b803db93e0e131f947", "fusion_lon": 0.0, "lat": 38.9146975, "fusion_lat": 0.0}, {"is_disabled": 0, "rental_uris": {"android": "https://dc.lft.to/lastmile_qr_scan", "ios": "https://dc.lft.to/lastmile_qr_scan"}, "is_reserved": 0, "name": "a1243807f4b03cfe3585dbac13d89f5e", "lon": -76.91659716666666, "type": "electric_bike", "bike_id": "a1243807f4b03cfe3585dbac13d89f5e", "fusion_lon": 0.0, "lat": 38.86857933333334, "fusion_lat": 0.0}, {"is_disabled": 0, "rental_uris": {"android": "https://dc.lft.to/lastmile_qr_scan", "ios": "https://dc.lft.to/lastmile_qr_scan"}, "is_reserved": 0, "name": "74964b7992f19481aa89cb4c05363bd2", "lon": -77.02232683333334, "type": "electric_scooter", "bike_id": "74964b7992f19481aa89cb4c05363bd2", "fusion_lon": 0.0, "lat": 38.89222733333333, "fusion_lat": 0.0}, {"is_disabled": 0, "rental_uris": {"android": "https://dc.lft.to/lastmile_qr_scan", "ios": "https://dc.lft.to/lastmile_qr_scan"}, "is_reserved": 0, "name": "305e585005c1595f5c7b994d2a72df31", "lon": -77.0249445, "type": "electric_scooter", "bike_id": "305e585005c1595f5c7b994d2a72df31", "fusion_lon": 0.0, "lat": 38.917486833333335, "fusion_lat": 0.0}, {"is_disabled": 0, "rental_uris": {"android": "https://dc.lft.to/lastmile_qr_scan", "ios": "https://dc.lft.to/lastmile_qr_scan"}, "is_reserved": 0, "name": "d1af94902c0ca618c04c361a70b194d7", "lon": -77.005707, "type": "electric_scooter", "bike_id": "d1af94902c0ca618c04c361a70b194d7", "fusion_lon": 0.0, "lat": 38.885031166666664, "fusion_lat": 0.0}, {"is_disabled": 0, "rental_uris": {"android": "https://dc.lft.to/lastmile_qr_scan", "ios": "https://dc.lft.to/lastmile_qr_scan"}, "is_reserved": 0, "name": "2c93e50c6fbb1593050085e733b72502", "lon": -77.02539916666667, "type": "electric_scooter", "bike_id": "2c93e50c6fbb1593050085e733b72502", "fusion_lon": 0.0, "lat": 38.92407733333334, "fusion_lat": 0.0}, {"is_disabled": 0, "rental_uris": {"android": "https://dc.lft.to/lastmile_qr_scan", "ios": "https://dc.lft.to/lastmile_qr_scan"}, "is_reserved": 0, "name": "2b7baa7e076ebc9d62d6ecb9daa89e7d", "lon": -77.04206683333334, "type": "electric_scooter", "bike_id": "2b7baa7e076ebc9d62d6ecb9daa89e7d", "fusion_lon": 0.0, "lat": 38.922428, "fusion_lat": 0.0}, {"is_disabled": 0, "rental_uris": {"android": "https://dc.lft.to/lastmile_qr_scan", "ios": "https://dc.lft.to/lastmile_qr_scan"}, "is_reserved": 0, "name": "7f324b218f6ca05001035b5694d0d5f7", "lon": -77.070535, "type": "electric_bike", "bike_id": "7f324b218f6ca05001035b5694d0d5f7", "fusion_lon": 0.0, "lat": 38.824426, "fusion_lat": 0.0}, {"is_disabled": 0, "rental_uris": {"android": "https://dc.lft.to/lastmile_qr_scan", "ios": "https://dc.lft.to/lastmile_qr_scan"}, "is_reserved": 0, "name": "577965f14f729f2396dd650c57689b12", "lon": -77.030635, "type": "electric_scooter", "bike_id": "577965f14f729f2396dd650c57689b12", "fusion_lon": 0.0, "lat": 38.925841, "fusion_lat": 0.0}, {"is_disabled": 0, "rental_uris": {"android": "https://dc.lft.to/lastmile_qr_scan", "ios": "https://dc.lft.to/lastmile_qr_scan"}, "is_reserved": 0, "name": "d0990ee6ad34eef2a185247ece2ef71b", "lon": -76.9870995, "type": "electric_scooter", "bike_id": "d0990ee6ad34eef2a185247ece2ef71b", "fusion_lon": 0.0, "lat": 38.86535333333333, "fusion_lat": 0.0}, {"is_disabled": 0, "rental_uris": {"android": "https://dc.lft.to/lastmile_qr_scan", "ios": "https://dc.lft.to/lastmile_qr_scan"}, "is_reserved": 0, "name": "d01681929a56a1d855b302ad54a58181", "lon": -77.12819766666667, "type": "electric_bike", "bike_id": "d01681929a56a1d855b302ad54a58181", "fusion_lon": 0.0, "lat": 38.865365833333335, "fusion_lat": 0.0}, {"is_disabled": 0, "rental_uris": {"android": "https://dc.lft.to/lastmile_qr_scan", "ios": "https://dc.lft.to/lastmile_qr_scan"}, "is_reserved": 0, "name": "238f77b6963e12cb7f206193ade14c6b", "lon": -77.028452, "type": "electric_scooter", "bike_id": "238f77b6963e12cb7f206193ade14c6b", "fusion_lon": 0.0, "lat": 38.9044185, "fusion_lat": 0.0}, {"is_disabled": 0, "rental_uris": {"android": "https://dc.lft.to/lastmile_qr_scan", "ios": "https://dc.lft.to/lastmile_qr_scan"}, "is_reserved": 0, "name": "c8a2ff9179442024c2d332b02d5c6e0e", "lon": -77.025564, "type": "electric_scooter", "bike_id": "c8a2ff9179442024c2d332b02d5c6e0e", "fusion_lon": 0.0, "lat": 38.884237666666664, "fusion_lat": 0.0}, {"is_disabled": 0, "rental_uris": {"android": "https://dc.lft.to/lastmile_qr_scan", "ios": "https://dc.lft.to/lastmile_qr_scan"}, "is_reserved": 0, "name": "a682cc7e282529bfa28104c6a152835a", "lon": -77.04513333333334, "type": "electric_scooter", "bike_id": "a682cc7e282529bfa28104c6a152835a", "fusion_lon": 0.0, "lat": 38.886041166666665, "fusion_lat": 0.0}, {"is_disabled": 0, "rental_uris": {"android": "https://dc.lft.to/lastmile_qr_scan", "ios": "https://dc.lft.to/lastmile_qr_scan"}, "is_reserved": 0, "name": "6d9555f64960d130b71f83548df22974", "lon": -77.01776133333334, "type": "electric_scooter", "bike_id": "6d9555f64960d130b71f83548df22974", "fusion_lon": 0.0, "lat": 38.883231333333335, "fusion_lat": 0.0}, {"is_disabled": 0, "rental_uris": {"android": "https://dc.lft.to/lastmile_qr_scan", "ios": "https://dc.lft.to/lastmile_qr_scan"}, "is_reserved": 0, "name": "adbcde970e49d3b01c8f1241612ca419", "lon": -77.0547785, "type": "electric_scooter", "bike_id": "adbcde970e49d3b01c8f1241612ca419", "fusion_lon": 0.0, "lat": 38.901934, "fusion_lat": 0.0}, {"is_disabled": 0, "rental_uris": {"android": "https://dc.lft.to/lastmile_qr_scan", "ios": "https://dc.lft.to/lastmile_qr_scan"}, "is_reserved": 0, "name": "2339d5c4a7ce990feeea9f3598dde628", "lon": -77.04457216666667, "type": "electric_scooter", "bike_id": "2339d5c4a7ce990feeea9f3598dde628", "fusion_lon": 0.0, "lat": 38.918688333333336, "fusion_lat": 0.0}, {"is_disabled": 0, "rental_uris": {"android": "https://dc.lft.to/lastmile_qr_scan", "ios": "https://dc.lft.to/lastmile_qr_scan"}, "is_reserved": 0, "name": "6abc73fba5407c741a8f18ae297c5a5c", "lon": -77.00087133333334, "type": "electric_scooter", "bike_id": "6abc73fba5407c741a8f18ae297c5a5c", "fusion_lon": 0.0, "lat": 38.9255275, "fusion_lat": 0.0}, {"is_disabled": 0, "rental_uris": {"android": "https://dc.lft.to/lastmile_qr_scan", "ios": "https://dc.lft.to/lastmile_qr_scan"}, "is_reserved": 0, "name": "bd8265d66d79cad4a15bf2c19d58b277", "lon": -76.97334766666667, "type": "electric_bike", "bike_id": "bd8265d66d79cad4a15bf2c19d58b277", "fusion_lon": 0.0, "lat": 38.850668166666665, "fusion_lat": 0.0}, {"is_disabled": 0, "rental_uris": {"android": "https://dc.lft.to/lastmile_qr_scan", "ios": "https://dc.lft.to/lastmile_qr_scan"}, "is_reserved": 0, "name": "886a646229fe1eb62568afacda9e5b40", "lon": -77.02390366666667, "type": "electric_scooter", "bike_id": "886a646229fe1eb62568afacda9e5b40", "fusion_lon": 0.0, "lat": 38.9070625, "fusion_lat": 0.0}, {"is_disabled": 0, "rental_uris": {"android": "https://dc.lft.to/lastmile_qr_scan", "ios": "https://dc.lft.to/lastmile_qr_scan"}, "is_reserved": 0, "name": "76370f36f4c165b583b839d8f1558d4e", "lon": -77.03852483333333, "type": "electric_scooter", "bike_id": "76370f36f4c165b583b839d8f1558d4e", "fusion_lon": 0.0, "lat": 38.909269, "fusion_lat": 0.0}, {"is_disabled": 0, "rental_uris": {"android": "https://dc.lft.to/lastmile_qr_scan", "ios": "https://dc.lft.to/lastmile_qr_scan"}, "is_reserved": 0, "name": "95bf1c25730c1467e58e9e99f8f4ff98", "lon": -77.01288066666666, "type": "electric_scooter", "bike_id": "95bf1c25730c1467e58e9e99f8f4ff98", "fusion_lon": 0.0, "lat": 38.920225333333335, "fusion_lat": 0.0}, {"is_disabled": 0, "rental_uris": {"android": "https://dc.lft.to/lastmile_qr_scan", "ios": "https://dc.lft.to/lastmile_qr_scan"}, "is_reserved": 0, "name": "6ac7daa3be15796c0830aa83f17cb60f", "lon": -77.02486333333333, "type": "electric_scooter", "bike_id": "6ac7daa3be15796c0830aa83f17cb60f", "fusion_lon": 0.0, "lat": 38.916223333333335, "fusion_lat": 0.0}, {"is_disabled": 0, "rental_uris": {"android": "https://dc.lft.to/lastmile_qr_scan", "ios": "https://dc.lft.to/lastmile_qr_scan"}, "is_reserved": 0, "name": "bf63e2a42a82b1a1ca06efd8ba873111", "lon": -77.02345, "type": "electric_scooter", "bike_id": "bf63e2a42a82b1a1ca06efd8ba873111", "fusion_lon": 0.0, "lat": 38.93146816666667, "fusion_lat": 0.0}, {"is_disabled": 0, "rental_uris": {"android": "https://dc.lft.to/lastmile_qr_scan", "ios": "https://dc.lft.to/lastmile_qr_scan"}, "is_reserved": 0, "name": "f37f0e09cdb87fc35485f67b8ba9e5f7", "lon": -77.03616533333333, "type": "electric_scooter", "bike_id": "f37f0e09cdb87fc35485f67b8ba9e5f7", "fusion_lon": 0.0, "lat": 38.931468833333334, "fusion_lat": 0.0}, {"is_disabled": 0, "rental_uris": {"android": "https://dc.lft.to/lastmile_qr_scan", "ios": "https://dc.lft.to/lastmile_qr_scan"}, "is_reserved": 0, "name": "1aefb9c6dfc66248a636db8dfe670884", "lon": -77.05096666666667, "type": "electric_scooter", "bike_id": "1aefb9c6dfc66248a636db8dfe670884", "fusion_lon": 0.0, "lat": 38.92340433333333, "fusion_lat": 0.0}, {"is_disabled": 0, "rental_uris": {"android": "https://dc.lft.to/lastmile_qr_scan", "ios": "https://dc.lft.to/lastmile_qr_scan"}, "is_reserved": 0, "name": "7735b73aae25f04631cb61b3caf2ef69", "lon": -77.03522083333333, "type": "electric_scooter", "bike_id": "7735b73aae25f04631cb61b3caf2ef69", "fusion_lon": 0.0, "lat": 38.92257766666667, "fusion_lat": 0.0}, {"is_disabled": 0, "rental_uris": {"android": "https://dc.lft.to/lastmile_qr_scan", "ios": "https://dc.lft.to/lastmile_qr_scan"}, "is_reserved": 0, "name": "869011d99e455cb5aa0c55392824a2e7", "lon": -77.043673, "type": "electric_scooter", "bike_id": "869011d99e455cb5aa0c55392824a2e7", "fusion_lon": 0.0, "lat": 38.90507566666667, "fusion_lat": 0.0}, {"is_disabled": 0, "rental_uris": {"android": "https://dc.lft.to/lastmile_qr_scan", "ios": "https://dc.lft.to/lastmile_qr_scan"}, "is_reserved": 0, "name": "a7cf3a48f631df817a80f4163325f298", "lon": -77.02911616666667, "type": "electric_scooter", "bike_id": "a7cf3a48f631df817a80f4163325f298", "fusion_lon": 0.0, "lat": 38.9102945, "fusion_lat": 0.0}, {"is_disabled": 0, "rental_uris": {"android": "https://dc.lft.to/lastmile_qr_scan", "ios": "https://dc.lft.to/lastmile_qr_scan"}, "is_reserved": 0, "name": "e07854175d41ec8d977cbb0808d13ef6", "lon": -77.0403185, "type": "electric_scooter", "bike_id": "e07854175d41ec8d977cbb0808d13ef6", "fusion_lon": 0.0, "lat": 38.921968, "fusion_lat": 0.0}, {"is_disabled": 0, "rental_uris": {"android": "https://dc.lft.to/lastmile_qr_scan", "ios": "https://dc.lft.to/lastmile_qr_scan"}, "is_reserved": 0, "name": "f743184e2bf8b82c9d7bec43766cffba", "lon": -77.03916316666667, "type": "electric_scooter", "bike_id": "f743184e2bf8b82c9d7bec43766cffba", "fusion_lon": 0.0, "lat": 38.89956733333333, "fusion_lat": 0.0}, {"is_disabled": 0, "rental_uris": {"android": "https://dc.lft.to/lastmile_qr_scan", "ios": "https://dc.lft.to/lastmile_qr_scan"}, "is_reserved": 0, "name": "9fcc9f3050d24386c67f70e35509b954", "lon": -77.02510766666667, "type": "electric_scooter", "bike_id": "9fcc9f3050d24386c67f70e35509b954", "fusion_lon": 0.0, "lat": 38.91928716666666, "fusion_lat": 0.0}, {"is_disabled": 0, "rental_uris": {"android": "https://dc.lft.to/lastmile_qr_scan", "ios": "https://dc.lft.to/lastmile_qr_scan"}, "is_reserved": 0, "name": "f5cc223b39803f4d9630f2f1979c49cb", "lon": -77.02926416666666, "type": "electric_bike", "bike_id": "f5cc223b39803f4d9630f2f1979c49cb", "fusion_lon": 0.0, "lat": 38.90570366666667, "fusion_lat": 0.0}, {"is_disabled": 0, "rental_uris": {"android": "https://dc.lft.to/lastmile_qr_scan", "ios": "https://dc.lft.to/lastmile_qr_scan"}, "is_reserved": 0, "name": "79d3c97092aaa627eb411d1d53c7bad6", "lon": -77.1780345, "type": "electric_bike", "bike_id": "79d3c97092aaa627eb411d1d53c7bad6", "fusion_lon": 0.0, "lat": 39.0884315, "fusion_lat": 0.0}, {"is_disabled": 0, "rental_uris": {"android": "https://dc.lft.to/lastmile_qr_scan", "ios": "https://dc.lft.to/lastmile_qr_scan"}, "is_reserved": 0, "name": "19fea4851df85d217b0124ac07f84542", "lon": -77.02837883333333, "type": "electric_scooter", "bike_id": "19fea4851df85d217b0124ac07f84542", "fusion_lon": 0.0, "lat": 38.931911666666664, "fusion_lat": 0.0}, {"is_disabled": 0, "rental_uris": {"android": "https://dc.lft.to/lastmile_qr_scan", "ios": "https://dc.lft.to/lastmile_qr_scan"}, "is_reserved": 0, "name": "aedf85dcad16fdd0c31ed43e836506d2", "lon": -77.00370183333334, "type": "electric_scooter", "bike_id": "aedf85dcad16fdd0c31ed43e836506d2", "fusion_lon": 0.0, "lat": 38.87756383333333, "fusion_lat": 0.0}, {"is_disabled": 0, "rental_uris": {"android": "https://dc.lft.to/lastmile_qr_scan", "ios": "https://dc.lft.to/lastmile_qr_scan"}, "is_reserved": 0, "name": "9dbe261a8c1d1d95755250ad1fbf0082", "lon": -77.051243, "type": "electric_scooter", "bike_id": "9dbe261a8c1d1d95755250ad1fbf0082", "fusion_lon": 0.0, "lat": 38.92341416666667, "fusion_lat": 0.0}, {"is_disabled": 0, "rental_uris": {"android": "https://dc.lft.to/lastmile_qr_scan", "ios": "https://dc.lft.to/lastmile_qr_scan"}, "is_reserved": 0, "name": "3eff73db403e2de8d41bf7554067df7a", "lon": -76.98881666666666, "type": "electric_scooter", "bike_id": "3eff73db403e2de8d41bf7554067df7a", "fusion_lon": 0.0, "lat": 38.866747333333336, "fusion_lat": 0.0}, {"is_disabled": 0, "rental_uris": {"android": "https://dc.lft.to/lastmile_qr_scan", "ios": "https://dc.lft.to/lastmile_qr_scan"}, "is_reserved": 0, "name": "035a865124307ec83982564e2a7b5014", "lon": -77.05027416666667, "type": "electric_scooter", "bike_id": "035a865124307ec83982564e2a7b5014", "fusion_lon": 0.0, "lat": 38.89786683333333, "fusion_lat": 0.0}, {"is_disabled": 0, "rental_uris": {"android": "https://dc.lft.to/lastmile_qr_scan", "ios": "https://dc.lft.to/lastmile_qr_scan"}, "is_reserved": 0, "name": "67b8846c910bf2285b83571059a9a9ce", "lon": -77.032763, "type": "electric_scooter", "bike_id": "67b8846c910bf2285b83571059a9a9ce", "fusion_lon": 0.0, "lat": 38.913335333333336, "fusion_lat": 0.0}, {"is_disabled": 0, "rental_uris": {"android": "https://dc.lft.to/lastmile_qr_scan", "ios": "https://dc.lft.to/lastmile_qr_scan"}, "is_reserved": 0, "name": "057480c5afeb845176d5bdb2e0ab2948", "lon": -76.990063, "type": "electric_scooter", "bike_id": "057480c5afeb845176d5bdb2e0ab2948", "fusion_lon": 0.0, "lat": 38.8650675, "fusion_lat": 0.0}, {"is_disabled": 0, "rental_uris": {"android": "https://dc.lft.to/lastmile_qr_scan", "ios": "https://dc.lft.to/lastmile_qr_scan"}, "is_reserved": 0, "name": "c2af8799a862c27eac704ac7f3596831", "lon": -77.03297566666667, "type": "electric_scooter", "bike_id": "c2af8799a862c27eac704ac7f3596831", "fusion_lon": 0.0, "lat": 38.92053466666667, "fusion_lat": 0.0}, {"is_disabled": 0, "rental_uris": {"android": "https://dc.lft.to/lastmile_qr_scan", "ios": "https://dc.lft.to/lastmile_qr_scan"}, "is_reserved": 0, "name": "b9cb139e2db5ecd9a74627793528f9bb", "lon": -77.04354416666666, "type": "electric_scooter", "bike_id": "b9cb139e2db5ecd9a74627793528f9bb", "fusion_lon": 0.0, "lat": 38.89842066666667, "fusion_lat": 0.0}, {"is_disabled": 0, "rental_uris": {"android": "https://dc.lft.to/lastmile_qr_scan", "ios": "https://dc.lft.to/lastmile_qr_scan"}, "is_reserved": 0, "name": "7c835675aea040924abfadf2f3629741", "lon": -76.99631316666667, "type": "electric_scooter", "bike_id": "7c835675aea040924abfadf2f3629741", "fusion_lon": 0.0, "lat": 38.90036966666667, "fusion_lat": 0.0}, {"is_disabled": 0, "rental_uris": {"android": "https://dc.lft.to/lastmile_qr_scan", "ios": "https://dc.lft.to/lastmile_qr_scan"}, "is_reserved": 0, "name": "06650df3fb35abc252e3e5a9a918b343", "lon": -76.95421033333334, "type": "electric_scooter", "bike_id": "06650df3fb35abc252e3e5a9a918b343", "fusion_lon": 0.0, "lat": 38.884124166666666, "fusion_lat": 0.0}, {"is_disabled": 0, "rental_uris": {"android": "https://dc.lft.to/lastmile_qr_scan", "ios": "https://dc.lft.to/lastmile_qr_scan"}, "is_reserved": 0, "name": "c133c37d7359673eb58f4138e490ac77", "lon": -77.03158516666667, "type": "electric_scooter", "bike_id": "c133c37d7359673eb58f4138e490ac77", "fusion_lon": 0.0, "lat": 38.92858433333333, "fusion_lat": 0.0}, {"is_disabled": 0, "rental_uris": {"android": "https://dc.lft.to/lastmile_qr_scan", "ios": "https://dc.lft.to/lastmile_qr_scan"}, "is_reserved": 0, "name": "770245d7de9e35705ca1a99758894153", "lon": -77.04694033333334, "type": "electric_scooter", "bike_id": "770245d7de9e35705ca1a99758894153", "fusion_lon": 0.0, "lat": 38.8974715, "fusion_lat": 0.0}, {"is_disabled": 0, "rental_uris": {"android": "https://dc.lft.to/lastmile_qr_scan", "ios": "https://dc.lft.to/lastmile_qr_scan"}, "is_reserved": 0, "name": "46a6ff913458c6e2425ee7214860116d", "lon": -77.036351, "type": "electric_scooter", "bike_id": "46a6ff913458c6e2425ee7214860116d", "fusion_lon": 0.0, "lat": 38.930465166666664, "fusion_lat": 0.0}, {"is_disabled": 0, "rental_uris": {"android": "https://dc.lft.to/lastmile_qr_scan", "ios": "https://dc.lft.to/lastmile_qr_scan"}, "is_reserved": 0, "name": "aa009c4ce581ead4eccf28b6dcc4c7cc", "lon": -77.00148033333333, "type": "electric_scooter", "bike_id": "aa009c4ce581ead4eccf28b6dcc4c7cc", "fusion_lon": 0.0, "lat": 38.873841166666665, "fusion_lat": 0.0}, {"is_disabled": 0, "rental_uris": {"android": "https://dc.lft.to/lastmile_qr_scan", "ios": "https://dc.lft.to/lastmile_qr_scan"}, "is_reserved": 0, "name": "aeda472083bf07ff5413ed660793da38", "lon": -77.04936916666666, "type": "electric_scooter", "bike_id": "aeda472083bf07ff5413ed660793da38", "fusion_lon": 0.0, "lat": 38.907255, "fusion_lat": 0.0}, {"is_disabled": 0, "rental_uris": {"android": "https://dc.lft.to/lastmile_qr_scan", "ios": "https://dc.lft.to/lastmile_qr_scan"}, "is_reserved": 0, "name": "b2d3ee61e59e2c8680bf1428c8a9620b", "lon": -77.024787, "type": "electric_scooter", "bike_id": "b2d3ee61e59e2c8680bf1428c8a9620b", "fusion_lon": 0.0, "lat": 38.93863533333333, "fusion_lat": 0.0}, {"is_disabled": 0, "rental_uris": {"android": "https://dc.lft.to/lastmile_qr_scan", "ios": "https://dc.lft.to/lastmile_qr_scan"}, "is_reserved": 0, "name": "263442b7c2a7001935039fe2c0d7b851", "lon": -77.0119205, "type": "electric_scooter", "bike_id": "263442b7c2a7001935039fe2c0d7b851", "fusion_lon": 0.0, "lat": 38.9036945, "fusion_lat": 0.0}, {"is_disabled": 0, "rental_uris": {"android": "https://dc.lft.to/lastmile_qr_scan", "ios": "https://dc.lft.to/lastmile_qr_scan"}, "is_reserved": 0, "name": "39e814fed190061a48f5f8115390fc98", "lon": -77.028876, "type": "electric_scooter", "bike_id": "39e814fed190061a48f5f8115390fc98", "fusion_lon": 0.0, "lat": 38.901398, "fusion_lat": 0.0}, {"is_disabled": 0, "rental_uris": {"android": "https://dc.lft.to/lastmile_qr_scan", "ios": "https://dc.lft.to/lastmile_qr_scan"}, "is_reserved": 0, "name": "e3b6b4bb224fa0f7799b70065ffc8467", "lon": -77.03383166666667, "type": "electric_scooter", "bike_id": "e3b6b4bb224fa0f7799b70065ffc8467", "fusion_lon": 0.0, "lat": 38.92158216666667, "fusion_lat": 0.0}, {"is_disabled": 0, "rental_uris": {"android": "https://dc.lft.to/lastmile_qr_scan", "ios": "https://dc.lft.to/lastmile_qr_scan"}, "is_reserved": 0, "name": "895abeef8a708bdee9834c527e9406e5", "lon": -77.02810566666666, "type": "electric_scooter", "bike_id": "895abeef8a708bdee9834c527e9406e5", "fusion_lon": 0.0, "lat": 38.96214466666667, "fusion_lat": 0.0}, {"is_disabled": 0, "rental_uris": {"android": "https://dc.lft.to/lastmile_qr_scan", "ios": "https://dc.lft.to/lastmile_qr_scan"}, "is_reserved": 0, "name": "f1010d749ba6032c63984a48996e9bde", "lon": -77.03634233333334, "type": "electric_scooter", "bike_id": "f1010d749ba6032c63984a48996e9bde", "fusion_lon": 0.0, "lat": 38.94285633333333, "fusion_lat": 0.0}, {"is_disabled": 0, "rental_uris": {"android": "https://dc.lft.to/lastmile_qr_scan", "ios": "https://dc.lft.to/lastmile_qr_scan"}, "is_reserved": 0, "name": "b2918dc7ca1c8cb28f518dea0c41220e", "lon": -77.03178133333333, "type": "electric_scooter", "bike_id": "b2918dc7ca1c8cb28f518dea0c41220e", "fusion_lon": 0.0, "lat": 38.914171, "fusion_lat": 0.0}, {"is_disabled": 0, "rental_uris": {"android": "https://dc.lft.to/lastmile_qr_scan", "ios": "https://dc.lft.to/lastmile_qr_scan"}, "is_reserved": 0, "name": "4090372b0603c59b88f07c8b6f21bb3d", "lon": -77.0269305, "type": "electric_scooter", "bike_id": "4090372b0603c59b88f07c8b6f21bb3d", "fusion_lon": 0.0, "lat": 38.90629666666667, "fusion_lat": 0.0}, {"is_disabled": 0, "rental_uris": {"android": "https://dc.lft.to/lastmile_qr_scan", "ios": "https://dc.lft.to/lastmile_qr_scan"}, "is_reserved": 0, "name": "6de9ad2eae76a3aa472a279c6441d4c9", "lon": -77.0067605, "type": "electric_bike", "bike_id": "6de9ad2eae76a3aa472a279c6441d4c9", "fusion_lon": 0.0, "lat": 38.94513233333333, "fusion_lat": 0.0}, {"is_disabled": 0, "rental_uris": {"android": "https://dc.lft.to/lastmile_qr_scan", "ios": "https://dc.lft.to/lastmile_qr_scan"}, "is_reserved": 0, "name": "644df011cc2757fcba3af713c8de5594", "lon": -77.02703033333333, "type": "electric_scooter", "bike_id": "644df011cc2757fcba3af713c8de5594", "fusion_lon": 0.0, "lat": 38.949831, "fusion_lat": 0.0}, {"is_disabled": 0, "rental_uris": {"android": "https://dc.lft.to/lastmile_qr_scan", "ios": "https://dc.lft.to/lastmile_qr_scan"}, "is_reserved": 0, "name": "9241007d2ad3fcd6ea4a70de12c1b120", "lon": -76.98831533333333, "type": "electric_bike", "bike_id": "9241007d2ad3fcd6ea4a70de12c1b120", "fusion_lon": 0.0, "lat": 38.98562783333333, "fusion_lat": 0.0}, {"is_disabled": 0, "rental_uris": {"android": "https://dc.lft.to/lastmile_qr_scan", "ios": "https://dc.lft.to/lastmile_qr_scan"}, "is_reserved": 0, "name": "d70f28ed8fb27f680ee2753aecf4712d", "lon": -77.0303555, "type": "electric_scooter", "bike_id": "d70f28ed8fb27f680ee2753aecf4712d", "fusion_lon": 0.0, "lat": 38.93117783333334, "fusion_lat": 0.0}, {"is_disabled": 0, "rental_uris": {"android": "https://dc.lft.to/lastmile_qr_scan", "ios": "https://dc.lft.to/lastmile_qr_scan"}, "is_reserved": 0, "name": "9f441e43b3bebb9e9a22f2267d0ac7f1", "lon": -77.04700033333333, "type": "electric_scooter", "bike_id": "9f441e43b3bebb9e9a22f2267d0ac7f1", "fusion_lon": 0.0, "lat": 38.897454333333336, "fusion_lat": 0.0}, {"is_disabled": 0, "rental_uris": {"android": "https://dc.lft.to/lastmile_qr_scan", "ios": "https://dc.lft.to/lastmile_qr_scan"}, "is_reserved": 0, "name": "96659d95d3f454e6d0956c44251b06e2", "lon": -77.02747566666666, "type": "electric_scooter", "bike_id": "96659d95d3f454e6d0956c44251b06e2", "fusion_lon": 0.0, "lat": 38.943104, "fusion_lat": 0.0}, {"is_disabled": 0, "rental_uris": {"android": "https://dc.lft.to/lastmile_qr_scan", "ios": "https://dc.lft.to/lastmile_qr_scan"}, "is_reserved": 0, "name": "5708bae8636440cb3328bfdd3c136c63", "lon": -77.0727285, "type": "electric_scooter", "bike_id": "5708bae8636440cb3328bfdd3c136c63", "fusion_lon": 0.0, "lat": 38.93470666666666, "fusion_lat": 0.0}, {"is_disabled": 0, "rental_uris": {"android": "https://dc.lft.to/lastmile_qr_scan", "ios": "https://dc.lft.to/lastmile_qr_scan"}, "is_reserved": 0, "name": "f2ba9999063b95d2c7387c415c1a6ca4", "lon": -77.04625883333334, "type": "electric_scooter", "bike_id": "f2ba9999063b95d2c7387c415c1a6ca4", "fusion_lon": 0.0, "lat": 38.92317233333333, "fusion_lat": 0.0}, {"is_disabled": 0, "rental_uris": {"android": "https://dc.lft.to/lastmile_qr_scan", "ios": "https://dc.lft.to/lastmile_qr_scan"}, "is_reserved": 0, "name": "5a575f47005f2f35d71bc757084d02a1", "lon": -77.10656033333333, "type": "electric_bike", "bike_id": "5a575f47005f2f35d71bc757084d02a1", "fusion_lon": 0.0, "lat": 39.030007, "fusion_lat": 0.0}, {"is_disabled": 0, "rental_uris": {"android": "https://dc.lft.to/lastmile_qr_scan", "ios": "https://dc.lft.to/lastmile_qr_scan"}, "is_reserved": 0, "name": "c09fae6ad8529a59f78bbf61166948e1", "lon": -77.0284315, "type": "electric_scooter", "bike_id": "c09fae6ad8529a59f78bbf61166948e1", "fusion_lon": 0.0, "lat": 38.933006666666664, "fusion_lat": 0.0}, {"is_disabled": 0, "rental_uris": {"android": "https://dc.lft.to/lastmile_qr_scan", "ios": "https://dc.lft.to/lastmile_qr_scan"}, "is_reserved": 0, "name": "d2d96eca8061d094ebdbac517e6950c7", "lon": -77.05093916666667, "type": "electric_scooter", "bike_id": "d2d96eca8061d094ebdbac517e6950c7", "fusion_lon": 0.0, "lat": 38.90541966666667, "fusion_lat": 0.0}, {"is_disabled": 0, "rental_uris": {"android": "https://dc.lft.to/lastmile_qr_scan", "ios": "https://dc.lft.to/lastmile_qr_scan"}, "is_reserved": 0, "name": "7e986e47291407382f1afa15b7af2af4", "lon": -76.98067566666667, "type": "electric_scooter", "bike_id": "7e986e47291407382f1afa15b7af2af4", "fusion_lon": 0.0, "lat": 38.916795666666665, "fusion_lat": 0.0}, {"is_disabled": 0, "rental_uris": {"android": "https://dc.lft.to/lastmile_qr_scan", "ios": "https://dc.lft.to/lastmile_qr_scan"}, "is_reserved": 0, "name": "db4b34c3c2f8a2a355a72853d643c7a6", "lon": -77.0175825, "type": "electric_scooter", "bike_id": "db4b34c3c2f8a2a355a72853d643c7a6", "fusion_lon": 0.0, "lat": 38.90263866666667, "fusion_lat": 0.0}, {"is_disabled": 0, "rental_uris": {"android": "https://dc.lft.to/lastmile_qr_scan", "ios": "https://dc.lft.to/lastmile_qr_scan"}, "is_reserved": 0, "name": "36f79fc73a44bd9bcd141ca8b08c15cf", "lon": -77.03350866666666, "type": "electric_scooter", "bike_id": "36f79fc73a44bd9bcd141ca8b08c15cf", "fusion_lon": 0.0, "lat": 38.922385166666665, "fusion_lat": 0.0}, {"is_disabled": 0, "rental_uris": {"android": "https://dc.lft.to/lastmile_qr_scan", "ios": "https://dc.lft.to/lastmile_qr_scan"}, "is_reserved": 0, "name": "fe9e5e15bc96dd7cf1f9f1e894ac5795", "lon": -77.0386125, "type": "electric_scooter", "bike_id": "fe9e5e15bc96dd7cf1f9f1e894ac5795", "fusion_lon": 0.0, "lat": 38.90372716666667, "fusion_lat": 0.0}, {"is_disabled": 0, "rental_uris": {"android": "https://dc.lft.to/lastmile_qr_scan", "ios": "https://dc.lft.to/lastmile_qr_scan"}, "is_reserved": 0, "name": "42061385435c7f0cc84246377c441edd", "lon": -77.04012366666667, "type": "electric_scooter", "bike_id": "42061385435c7f0cc84246377c441edd", "fusion_lon": 0.0, "lat": 38.9179545, "fusion_lat": 0.0}, {"is_disabled": 0, "rental_uris": {"android": "https://dc.lft.to/lastmile_qr_scan", "ios": "https://dc.lft.to/lastmile_qr_scan"}, "is_reserved": 0, "name": "0cbf88b2cd4e434ce5caabae3d156f81", "lon": -77.03176, "type": "electric_scooter", "bike_id": "0cbf88b2cd4e434ce5caabae3d156f81", "fusion_lon": 0.0, "lat": 38.91414266666666, "fusion_lat": 0.0}, {"is_disabled": 0, "rental_uris": {"android": "https://dc.lft.to/lastmile_qr_scan", "ios": "https://dc.lft.to/lastmile_qr_scan"}, "is_reserved": 0, "name": "9409942f7236f56391fd2d800dbf1245", "lon": -77.012893, "type": "electric_scooter", "bike_id": "9409942f7236f56391fd2d800dbf1245", "fusion_lon": 0.0, "lat": 38.900839500000004, "fusion_lat": 0.0}, {"is_disabled": 0, "rental_uris": {"android": "https://dc.lft.to/lastmile_qr_scan", "ios": "https://dc.lft.to/lastmile_qr_scan"}, "is_reserved": 0, "name": "dc3ad15213cd812c50242092daf8db42", "lon": -77.01701433333334, "type": "electric_scooter", "bike_id": "dc3ad15213cd812c50242092daf8db42", "fusion_lon": 0.0, "lat": 38.975074, "fusion_lat": 0.0}, {"is_disabled": 0, "rental_uris": {"android": "https://dc.lft.to/lastmile_qr_scan", "ios": "https://dc.lft.to/lastmile_qr_scan"}, "is_reserved": 0, "name": "074252a00ead45c24a6e094bc3b41218", "lon": -77.034421, "type": "electric_scooter", "bike_id": "074252a00ead45c24a6e094bc3b41218", "fusion_lon": 0.0, "lat": 38.90559566666667, "fusion_lat": 0.0}, {"is_disabled": 0, "rental_uris": {"android": "https://dc.lft.to/lastmile_qr_scan", "ios": "https://dc.lft.to/lastmile_qr_scan"}, "is_reserved": 0, "name": "42d37623f20b2a0a5a2f68e854d4cc32", "lon": -76.98784883333333, "type": "electric_scooter", "bike_id": "42d37623f20b2a0a5a2f68e854d4cc32", "fusion_lon": 0.0, "lat": 38.844726, "fusion_lat": 0.0}, {"is_disabled": 0, "rental_uris": {"android": "https://dc.lft.to/lastmile_qr_scan", "ios": "https://dc.lft.to/lastmile_qr_scan"}, "is_reserved": 0, "name": "b5c16b52cefe4a3a37807393f0f4f04c", "lon": -77.00790466666666, "type": "electric_scooter", "bike_id": "b5c16b52cefe4a3a37807393f0f4f04c", "fusion_lon": 0.0, "lat": 38.907412, "fusion_lat": 0.0}, {"is_disabled": 0, "rental_uris": {"android": "https://dc.lft.to/lastmile_qr_scan", "ios": "https://dc.lft.to/lastmile_qr_scan"}, "is_reserved": 0, "name": "25c427e5eefe18e474ba26928a03df4b", "lon": -77.020012, "type": "electric_scooter", "bike_id": "25c427e5eefe18e474ba26928a03df4b", "fusion_lon": 0.0, "lat": 38.87786533333333, "fusion_lat": 0.0}, {"is_disabled": 0, "rental_uris": {"android": "https://dc.lft.to/lastmile_qr_scan", "ios": "https://dc.lft.to/lastmile_qr_scan"}, "is_reserved": 0, "name": "d78b58b3c78cea113d519c9c28d9510f", "lon": -77.0238035, "type": "electric_scooter", "bike_id": "d78b58b3c78cea113d519c9c28d9510f", "fusion_lon": 0.0, "lat": 38.91674916666667, "fusion_lat": 0.0}, {"is_disabled": 0, "rental_uris": {"android": "https://dc.lft.to/lastmile_qr_scan", "ios": "https://dc.lft.to/lastmile_qr_scan"}, "is_reserved": 0, "name": "6b5fb58654830277b331102af7e0ec2f", "lon": -77.03201, "type": "electric_scooter", "bike_id": "6b5fb58654830277b331102af7e0ec2f", "fusion_lon": 0.0, "lat": 38.9180185, "fusion_lat": 0.0}, {"is_disabled": 0, "rental_uris": {"android": "https://dc.lft.to/lastmile_qr_scan", "ios": "https://dc.lft.to/lastmile_qr_scan"}, "is_reserved": 0, "name": "7f438178d29b816c6f0d5cbd2d054952", "lon": -77.02405416666667, "type": "electric_scooter", "bike_id": "7f438178d29b816c6f0d5cbd2d054952", "fusion_lon": 0.0, "lat": 38.931149, "fusion_lat": 0.0}, {"is_disabled": 0, "rental_uris": {"android": "https://dc.lft.to/lastmile_qr_scan", "ios": "https://dc.lft.to/lastmile_qr_scan"}, "is_reserved": 0, "name": "934b9458bc052552833fe63ca7ca0062", "lon": -77.01019033333333, "type": "electric_scooter", "bike_id": "934b9458bc052552833fe63ca7ca0062", "fusion_lon": 0.0, "lat": 38.9062405, "fusion_lat": 0.0}, {"is_disabled": 0, "rental_uris": {"android": "https://dc.lft.to/lastmile_qr_scan", "ios": "https://dc.lft.to/lastmile_qr_scan"}, "is_reserved": 0, "name": "8838d2b2721c02b1494d6d8a0f33e3f4", "lon": -77.03846233333333, "type": "electric_scooter", "bike_id": "8838d2b2721c02b1494d6d8a0f33e3f4", "fusion_lon": 0.0, "lat": 38.92655666666667, "fusion_lat": 0.0}, {"is_disabled": 0, "rental_uris": {"android": "https://dc.lft.to/lastmile_qr_scan", "ios": "https://dc.lft.to/lastmile_qr_scan"}, "is_reserved": 0, "name": "363a69d542232abca3e4f2bf1769fc4d", "lon": -77.02351033333333, "type": "electric_scooter", "bike_id": "363a69d542232abca3e4f2bf1769fc4d", "fusion_lon": 0.0, "lat": 38.922683666666664, "fusion_lat": 0.0}, {"is_disabled": 0, "rental_uris": {"android": "https://dc.lft.to/lastmile_qr_scan", "ios": "https://dc.lft.to/lastmile_qr_scan"}, "is_reserved": 0, "name": "45082c556aa1fa8f25c683217e581407", "lon": -77.00122766666667, "type": "electric_scooter", "bike_id": "45082c556aa1fa8f25c683217e581407", "fusion_lon": 0.0, "lat": 38.91249833333333, "fusion_lat": 0.0}, {"is_disabled": 0, "rental_uris": {"android": "https://dc.lft.to/lastmile_qr_scan", "ios": "https://dc.lft.to/lastmile_qr_scan"}, "is_reserved": 0, "name": "02414446574b212ba698a54f58a315b6", "lon": -77.04363633333334, "type": "electric_scooter", "bike_id": "02414446574b212ba698a54f58a315b6", "fusion_lon": 0.0, "lat": 38.898480666666664, "fusion_lat": 0.0}, {"is_disabled": 0, "rental_uris": {"android": "https://dc.lft.to/lastmile_qr_scan", "ios": "https://dc.lft.to/lastmile_qr_scan"}, "is_reserved": 0, "name": "cfc00e43c5653f51f6d28f791dd8c1ce", "lon": -77.02815033333333, "type": "electric_scooter", "bike_id": "cfc00e43c5653f51f6d28f791dd8c1ce", "fusion_lon": 0.0, "lat": 38.931707833333334, "fusion_lat": 0.0}, {"is_disabled": 0, "rental_uris": {"android": "https://dc.lft.to/lastmile_qr_scan", "ios": "https://dc.lft.to/lastmile_qr_scan"}, "is_reserved": 0, "name": "af6d75bae800d535ede236eede8174d1", "lon": -76.9872445, "type": "electric_scooter", "bike_id": "af6d75bae800d535ede236eede8174d1", "fusion_lon": 0.0, "lat": 38.867130333333336, "fusion_lat": 0.0}, {"is_disabled": 0, "rental_uris": {"android": "https://dc.lft.to/lastmile_qr_scan", "ios": "https://dc.lft.to/lastmile_qr_scan"}, "is_reserved": 0, "name": "ee7a187a58e478b78846a1d4fbf80c59", "lon": -76.95208116666667, "type": "electric_bike", "bike_id": "ee7a187a58e478b78846a1d4fbf80c59", "fusion_lon": 0.0, "lat": 38.93672, "fusion_lat": 0.0}, {"is_disabled": 0, "rental_uris": {"android": "https://dc.lft.to/lastmile_qr_scan", "ios": "https://dc.lft.to/lastmile_qr_scan"}, "is_reserved": 0, "name": "5af908f377c9b2a3fae53ffa9a78c189", "lon": -77.04755766666666, "type": "electric_scooter", "bike_id": "5af908f377c9b2a3fae53ffa9a78c189", "fusion_lon": 0.0, "lat": 38.9072185, "fusion_lat": 0.0}, {"is_disabled": 0, "rental_uris": {"android": "https://dc.lft.to/lastmile_qr_scan", "ios": "https://dc.lft.to/lastmile_qr_scan"}, "is_reserved": 0, "name": "cdcc5e90ab2a7d38e94d37191f671735", "lon": -76.94156583333333, "type": "electric_scooter", "bike_id": "cdcc5e90ab2a7d38e94d37191f671735", "fusion_lon": 0.0, "lat": 38.883661333333336, "fusion_lat": 0.0}, {"is_disabled": 0, "rental_uris": {"android": "https://dc.lft.to/lastmile_qr_scan", "ios": "https://dc.lft.to/lastmile_qr_scan"}, "is_reserved": 0, "name": "b879a65ebfa18395db3be502d51420dd", "lon": -76.9373885, "type": "electric_scooter", "bike_id": "b879a65ebfa18395db3be502d51420dd", "fusion_lon": 0.0, "lat": 38.89015633333333, "fusion_lat": 0.0}, {"is_disabled": 0, "rental_uris": {"android": "https://dc.lft.to/lastmile_qr_scan", "ios": "https://dc.lft.to/lastmile_qr_scan"}, "is_reserved": 0, "name": "6ac676de3ad361ded00467766eb59a0d", "lon": -77.05328783333333, "type": "electric_scooter", "bike_id": "6ac676de3ad361ded00467766eb59a0d", "fusion_lon": 0.0, "lat": 38.90318366666666, "fusion_lat": 0.0}, {"is_disabled": 0, "rental_uris": {"android": "https://dc.lft.to/lastmile_qr_scan", "ios": "https://dc.lft.to/lastmile_qr_scan"}, "is_reserved": 0, "name": "f0c1b1b6374e40745fe7d37de5e5c6f7", "lon": -77.032209, "type": "electric_scooter", "bike_id": "f0c1b1b6374e40745fe7d37de5e5c6f7", "fusion_lon": 0.0, "lat": 38.924844666666665, "fusion_lat": 0.0}, {"is_disabled": 0, "rental_uris": {"android": "https://dc.lft.to/lastmile_qr_scan", "ios": "https://dc.lft.to/lastmile_qr_scan"}, "is_reserved": 0, "name": "fbe2c088a759007f91b6b8d4a16270b5", "lon": -77.05298116666667, "type": "electric_scooter", "bike_id": "fbe2c088a759007f91b6b8d4a16270b5", "fusion_lon": 0.0, "lat": 38.9034055, "fusion_lat": 0.0}, {"is_disabled": 0, "rental_uris": {"android": "https://dc.lft.to/lastmile_qr_scan", "ios": "https://dc.lft.to/lastmile_qr_scan"}, "is_reserved": 0, "name": "444449449a3b4c86ec99a99b6a3af19e", "lon": -77.02225266666666, "type": "electric_scooter", "bike_id": "444449449a3b4c86ec99a99b6a3af19e", "fusion_lon": 0.0, "lat": 38.91416816666667, "fusion_lat": 0.0}, {"is_disabled": 0, "rental_uris": {"android": "https://dc.lft.to/lastmile_qr_scan", "ios": "https://dc.lft.to/lastmile_qr_scan"}, "is_reserved": 0, "name": "56257761e16f287d98c8ac1ac117140d", "lon": -77.02257083333333, "type": "electric_scooter", "bike_id": "56257761e16f287d98c8ac1ac117140d", "fusion_lon": 0.0, "lat": 38.928239166666664, "fusion_lat": 0.0}, {"is_disabled": 0, "rental_uris": {"android": "https://dc.lft.to/lastmile_qr_scan", "ios": "https://dc.lft.to/lastmile_qr_scan"}, "is_reserved": 0, "name": "33a743eb3433db7635314af2b3340e82", "lon": -77.03658516666667, "type": "electric_scooter", "bike_id": "33a743eb3433db7635314af2b3340e82", "fusion_lon": 0.0, "lat": 38.92137316666667, "fusion_lat": 0.0}, {"is_disabled": 0, "rental_uris": {"android": "https://dc.lft.to/lastmile_qr_scan", "ios": "https://dc.lft.to/lastmile_qr_scan"}, "is_reserved": 0, "name": "e1051cbbc5b35e7f51744d56bfa5b483", "lon": -77.038115, "type": "electric_scooter", "bike_id": "e1051cbbc5b35e7f51744d56bfa5b483", "fusion_lon": 0.0, "lat": 38.93594133333333, "fusion_lat": 0.0}, {"is_disabled": 0, "rental_uris": {"android": "https://dc.lft.to/lastmile_qr_scan", "ios": "https://dc.lft.to/lastmile_qr_scan"}, "is_reserved": 0, "name": "f2810f25938b0752147f65f54859bc9b", "lon": -77.0610825, "type": "electric_scooter", "bike_id": "f2810f25938b0752147f65f54859bc9b", "fusion_lon": 0.0, "lat": 38.9436425, "fusion_lat": 0.0}, {"is_disabled": 0, "rental_uris": {"android": "https://dc.lft.to/lastmile_qr_scan", "ios": "https://dc.lft.to/lastmile_qr_scan"}, "is_reserved": 0, "name": "378b49786498b3e05693349d7388cef8", "lon": -77.0101515, "type": "electric_scooter", "bike_id": "378b49786498b3e05693349d7388cef8", "fusion_lon": 0.0, "lat": 38.86716583333333, "fusion_lat": 0.0}, {"is_disabled": 0, "rental_uris": {"android": "https://dc.lft.to/lastmile_qr_scan", "ios": "https://dc.lft.to/lastmile_qr_scan"}, "is_reserved": 0, "name": "0100ce07304b562826ffcd2a0e9ae1b8", "lon": -77.03059816666666, "type": "electric_scooter", "bike_id": "0100ce07304b562826ffcd2a0e9ae1b8", "fusion_lon": 0.0, "lat": 38.901273333333336, "fusion_lat": 0.0}, {"is_disabled": 0, "rental_uris": {"android": "https://dc.lft.to/lastmile_qr_scan", "ios": "https://dc.lft.to/lastmile_qr_scan"}, "is_reserved": 0, "name": "a5955461b63ff22b17f615595130d9f3", "lon": -77.05136983333334, "type": "electric_scooter", "bike_id": "a5955461b63ff22b17f615595130d9f3", "fusion_lon": 0.0, "lat": 38.907115833333336, "fusion_lat": 0.0}, {"is_disabled": 0, "rental_uris": {"android": "https://dc.lft.to/lastmile_qr_scan", "ios": "https://dc.lft.to/lastmile_qr_scan"}, "is_reserved": 0, "name": "3381369324133cf260a73e40c20ae583", "lon": -77.01422983333333, "type": "electric_scooter", "bike_id": "3381369324133cf260a73e40c20ae583", "fusion_lon": 0.0, "lat": 38.928416166666665, "fusion_lat": 0.0}, {"is_disabled": 0, "rental_uris": {"android": "https://dc.lft.to/lastmile_qr_scan", "ios": "https://dc.lft.to/lastmile_qr_scan"}, "is_reserved": 0, "name": "91104a2b6b2178648de037e47083f91b", "lon": -76.909682, "type": "electric_bike", "bike_id": "91104a2b6b2178648de037e47083f91b", "fusion_lon": 0.0, "lat": 38.85416883333333, "fusion_lat": 0.0}, {"is_disabled": 0, "rental_uris": {"android": "https://dc.lft.to/lastmile_qr_scan", "ios": "https://dc.lft.to/lastmile_qr_scan"}, "is_reserved": 0, "name": "37c8fc697275ee04def14c0d5649fbff", "lon": -76.965602, "type": "electric_scooter", "bike_id": "37c8fc697275ee04def14c0d5649fbff", "fusion_lon": 0.0, "lat": 38.91837666666667, "fusion_lat": 0.0}, {"is_disabled": 0, "rental_uris": {"android": "https://dc.lft.to/lastmile_qr_scan", "ios": "https://dc.lft.to/lastmile_qr_scan"}, "is_reserved": 0, "name": "6b6b61f778333a34cb764d250c6ad323", "lon": -77.02203033333333, "type": "electric_scooter", "bike_id": "6b6b61f778333a34cb764d250c6ad323", "fusion_lon": 0.0, "lat": 38.91125566666667, "fusion_lat": 0.0}, {"is_disabled": 0, "rental_uris": {"android": "https://dc.lft.to/lastmile_qr_scan", "ios": "https://dc.lft.to/lastmile_qr_scan"}, "is_reserved": 0, "name": "f9af0d477c2d41320e69fba14d094adf", "lon": -77.031342, "type": "electric_bike", "bike_id": "f9af0d477c2d41320e69fba14d094adf", "fusion_lon": 0.0, "lat": 38.962839, "fusion_lat": 0.0}, {"is_disabled": 0, "rental_uris": {"android": "https://dc.lft.to/lastmile_qr_scan", "ios": "https://dc.lft.to/lastmile_qr_scan"}, "is_reserved": 0, "name": "801d84fcdc051590e733d5e389c7fe77", "lon": -77.02267283333333, "type": "electric_scooter", "bike_id": "801d84fcdc051590e733d5e389c7fe77", "fusion_lon": 0.0, "lat": 38.92737433333333, "fusion_lat": 0.0}, {"is_disabled": 0, "rental_uris": {"android": "https://dc.lft.to/lastmile_qr_scan", "ios": "https://dc.lft.to/lastmile_qr_scan"}, "is_reserved": 0, "name": "922c3a9403d95384829bc69ee833f406", "lon": -76.9871195, "type": "electric_scooter", "bike_id": "922c3a9403d95384829bc69ee833f406", "fusion_lon": 0.0, "lat": 38.866978, "fusion_lat": 0.0}, {"is_disabled": 0, "rental_uris": {"android": "https://dc.lft.to/lastmile_qr_scan", "ios": "https://dc.lft.to/lastmile_qr_scan"}, "is_reserved": 0, "name": "21dabdd845dec5f866ed1ac8d4ba350f", "lon": -76.98870583333333, "type": "electric_scooter", "bike_id": "21dabdd845dec5f866ed1ac8d4ba350f", "fusion_lon": 0.0, "lat": 38.8921485, "fusion_lat": 0.0}, {"is_disabled": 0, "rental_uris": {"android": "https://dc.lft.to/lastmile_qr_scan", "ios": "https://dc.lft.to/lastmile_qr_scan"}, "is_reserved": 0, "name": "3a428510b1a24a5bcce2b07faf6fdbeb", "lon": -77.0266705, "type": "electric_scooter", "bike_id": "3a428510b1a24a5bcce2b07faf6fdbeb", "fusion_lon": 0.0, "lat": 38.8959955, "fusion_lat": 0.0}, {"is_disabled": 0, "rental_uris": {"android": "https://dc.lft.to/lastmile_qr_scan", "ios": "https://dc.lft.to/lastmile_qr_scan"}, "is_reserved": 0, "name": "cf531de1e7be141a0683b2e31897002e", "lon": -77.02950216666666, "type": "electric_scooter", "bike_id": "cf531de1e7be141a0683b2e31897002e", "fusion_lon": 0.0, "lat": 38.91772366666667, "fusion_lat": 0.0}, {"is_disabled": 0, "rental_uris": {"android": "https://dc.lft.to/lastmile_qr_scan", "ios": "https://dc.lft.to/lastmile_qr_scan"}, "is_reserved": 0, "name": "f8d4d62da357306b51f7e3a258bba3f4", "lon": -77.03212233333333, "type": "electric_scooter", "bike_id": "f8d4d62da357306b51f7e3a258bba3f4", "fusion_lon": 0.0, "lat": 38.9258255, "fusion_lat": 0.0}, {"is_disabled": 0, "rental_uris": {"android": "https://dc.lft.to/lastmile_qr_scan", "ios": "https://dc.lft.to/lastmile_qr_scan"}, "is_reserved": 0, "name": "4907e1cde5cfcdb3a268bfeaa2e6fb61", "lon": -76.99575033333333, "type": "electric_bike", "bike_id": "4907e1cde5cfcdb3a268bfeaa2e6fb61", "fusion_lon": 0.0, "lat": 39.007879333333335, "fusion_lat": 0.0}, {"is_disabled": 0, "rental_uris": {"android": "https://dc.lft.to/lastmile_qr_scan", "ios": "https://dc.lft.to/lastmile_qr_scan"}, "is_reserved": 0, "name": "38520bed228a0471ef801b6941719976", "lon": -77.04024783333334, "type": "electric_scooter", "bike_id": "38520bed228a0471ef801b6941719976", "fusion_lon": 0.0, "lat": 38.917110666666666, "fusion_lat": 0.0}, {"is_disabled": 0, "rental_uris": {"android": "https://dc.lft.to/lastmile_qr_scan", "ios": "https://dc.lft.to/lastmile_qr_scan"}, "is_reserved": 0, "name": "6cbc5d9703434c9801274494344e01b7", "lon": -77.04507483333333, "type": "electric_scooter", "bike_id": "6cbc5d9703434c9801274494344e01b7", "fusion_lon": 0.0, "lat": 38.906546666666664, "fusion_lat": 0.0}, {"is_disabled": 0, "rental_uris": {"android": "https://dc.lft.to/lastmile_qr_scan", "ios": "https://dc.lft.to/lastmile_qr_scan"}, "is_reserved": 0, "name": "f34d10cc6d65eb99ef80459aee3da40a", "lon": -77.02154033333333, "type": "electric_scooter", "bike_id": "f34d10cc6d65eb99ef80459aee3da40a", "fusion_lon": 0.0, "lat": 38.92608416666667, "fusion_lat": 0.0}, {"is_disabled": 0, "rental_uris": {"android": "https://dc.lft.to/lastmile_qr_scan", "ios": "https://dc.lft.to/lastmile_qr_scan"}, "is_reserved": 0, "name": "1781914b0d9236ee1990d384632941ad", "lon": -77.03773283333334, "type": "electric_bike", "bike_id": "1781914b0d9236ee1990d384632941ad", "fusion_lon": 0.0, "lat": 38.929396, "fusion_lat": 0.0}, {"is_disabled": 0, "rental_uris": {"android": "https://dc.lft.to/lastmile_qr_scan", "ios": "https://dc.lft.to/lastmile_qr_scan"}, "is_reserved": 0, "name": "7b9c631d6d5c074c9e4a21e38d2994b6", "lon": -77.02234683333333, "type": "electric_scooter", "bike_id": "7b9c631d6d5c074c9e4a21e38d2994b6", "fusion_lon": 0.0, "lat": 38.90561316666667, "fusion_lat": 0.0}, {"is_disabled": 0, "rental_uris": {"android": "https://dc.lft.to/lastmile_qr_scan", "ios": "https://dc.lft.to/lastmile_qr_scan"}, "is_reserved": 0, "name": "9d4f64834a87153409002a97c5384fe6", "lon": -76.999039, "type": "electric_scooter", "bike_id": "9d4f64834a87153409002a97c5384fe6", "fusion_lon": 0.0, "lat": 38.900313833333335, "fusion_lat": 0.0}, {"is_disabled": 0, "rental_uris": {"android": "https://dc.lft.to/lastmile_qr_scan", "ios": "https://dc.lft.to/lastmile_qr_scan"}, "is_reserved": 0, "name": "66f648cdceb29372505dbed433169f6b", "lon": -77.07898916666667, "type": "electric_bike", "bike_id": "66f648cdceb29372505dbed433169f6b", "fusion_lon": 0.0, "lat": 38.83939483333333, "fusion_lat": 0.0}, {"is_disabled": 0, "rental_uris": {"android": "https://dc.lft.to/lastmile_qr_scan", "ios": "https://dc.lft.to/lastmile_qr_scan"}, "is_reserved": 0, "name": "e03f45564466b6d1f13ef5a21eaff5ad", "lon": -77.040179, "type": "electric_scooter", "bike_id": "e03f45564466b6d1f13ef5a21eaff5ad", "fusion_lon": 0.0, "lat": 38.920821833333335, "fusion_lat": 0.0}, {"is_disabled": 0, "rental_uris": {"android": "https://dc.lft.to/lastmile_qr_scan", "ios": "https://dc.lft.to/lastmile_qr_scan"}, "is_reserved": 0, "name": "33eba5231d81cbe612d2736e88d3c647", "lon": -77.003431, "type": "electric_scooter", "bike_id": "33eba5231d81cbe612d2736e88d3c647", "fusion_lon": 0.0, "lat": 38.904643166666666, "fusion_lat": 0.0}, {"is_disabled": 0, "rental_uris": {"android": "https://dc.lft.to/lastmile_qr_scan", "ios": "https://dc.lft.to/lastmile_qr_scan"}, "is_reserved": 0, "name": "22bcf0dbb88cff608f8a3b4175c0c96b", "lon": -77.03669216666667, "type": "electric_scooter", "bike_id": "22bcf0dbb88cff608f8a3b4175c0c96b", "fusion_lon": 0.0, "lat": 38.922566333333336, "fusion_lat": 0.0}, {"is_disabled": 0, "rental_uris": {"android": "https://dc.lft.to/lastmile_qr_scan", "ios": "https://dc.lft.to/lastmile_qr_scan"}, "is_reserved": 0, "name": "f2c36351bbf4e1e4727611854a89a706", "lon": -77.07074583333333, "type": "electric_scooter", "bike_id": "f2c36351bbf4e1e4727611854a89a706", "fusion_lon": 0.0, "lat": 38.91947583333334, "fusion_lat": 0.0}, {"is_disabled": 0, "rental_uris": {"android": "https://dc.lft.to/lastmile_qr_scan", "ios": "https://dc.lft.to/lastmile_qr_scan"}, "is_reserved": 0, "name": "6446d47a53a011336fe78d95f941c818", "lon": -77.051323, "type": "electric_scooter", "bike_id": "6446d47a53a011336fe78d95f941c818", "fusion_lon": 0.0, "lat": 38.9059105, "fusion_lat": 0.0}, {"is_disabled": 0, "rental_uris": {"android": "https://dc.lft.to/lastmile_qr_scan", "ios": "https://dc.lft.to/lastmile_qr_scan"}, "is_reserved": 0, "name": "17ef5a91edd1bcdad3bc5b2ee560f4e6", "lon": -77.0346865, "type": "electric_scooter", "bike_id": "17ef5a91edd1bcdad3bc5b2ee560f4e6", "fusion_lon": 0.0, "lat": 38.921524, "fusion_lat": 0.0}, {"is_disabled": 0, "rental_uris": {"android": "https://dc.lft.to/lastmile_qr_scan", "ios": "https://dc.lft.to/lastmile_qr_scan"}, "is_reserved": 0, "name": "56f0e6d280f3b9c817991b570aa27f95", "lon": -76.95214466666667, "type": "electric_scooter", "bike_id": "56f0e6d280f3b9c817991b570aa27f95", "fusion_lon": 0.0, "lat": 38.89249133333333, "fusion_lat": 0.0}, {"is_disabled": 0, "rental_uris": {"android": "https://dc.lft.to/lastmile_qr_scan", "ios": "https://dc.lft.to/lastmile_qr_scan"}, "is_reserved": 0, "name": "79dd81fa6770d6c9b22dda0b764f36c1", "lon": -77.0436145, "type": "electric_scooter", "bike_id": "79dd81fa6770d6c9b22dda0b764f36c1", "fusion_lon": 0.0, "lat": 38.89840216666666, "fusion_lat": 0.0}, {"is_disabled": 0, "rental_uris": {"android": "https://dc.lft.to/lastmile_qr_scan", "ios": "https://dc.lft.to/lastmile_qr_scan"}, "is_reserved": 0, "name": "5382d7eed1c2f7401592de56687c71ae", "lon": -77.04652866666666, "type": "electric_scooter", "bike_id": "5382d7eed1c2f7401592de56687c71ae", "fusion_lon": 0.0, "lat": 38.90501966666667, "fusion_lat": 0.0}, {"is_disabled": 0, "rental_uris": {"android": "https://dc.lft.to/lastmile_qr_scan", "ios": "https://dc.lft.to/lastmile_qr_scan"}, "is_reserved": 0, "name": "86c77634c0a1ed28c371b9e328083b11", "lon": -76.98374716666666, "type": "electric_scooter", "bike_id": "86c77634c0a1ed28c371b9e328083b11", "fusion_lon": 0.0, "lat": 38.914975166666665, "fusion_lat": 0.0}, {"is_disabled": 0, "rental_uris": {"android": "https://dc.lft.to/lastmile_qr_scan", "ios": "https://dc.lft.to/lastmile_qr_scan"}, "is_reserved": 0, "name": "be090ada9cedb09a91f01d4db70b2587", "lon": -77.04454316666667, "type": "electric_scooter", "bike_id": "be090ada9cedb09a91f01d4db70b2587", "fusion_lon": 0.0, "lat": 38.918682833333335, "fusion_lat": 0.0}, {"is_disabled": 0, "rental_uris": {"android": "https://dc.lft.to/lastmile_qr_scan", "ios": "https://dc.lft.to/lastmile_qr_scan"}, "is_reserved": 0, "name": "015b149f9b51c6362c26c36a4309ee31", "lon": -77.04134433333333, "type": "electric_bike", "bike_id": "015b149f9b51c6362c26c36a4309ee31", "fusion_lon": 0.0, "lat": 38.94398483333333, "fusion_lat": 0.0}, {"is_disabled": 0, "rental_uris": {"android": "https://dc.lft.to/lastmile_qr_scan", "ios": "https://dc.lft.to/lastmile_qr_scan"}, "is_reserved": 0, "name": "2a01a9052274c50a32f9397f58c46d4c", "lon": -77.03367666666666, "type": "electric_scooter", "bike_id": "2a01a9052274c50a32f9397f58c46d4c", "fusion_lon": 0.0, "lat": 38.92152316666667, "fusion_lat": 0.0}, {"is_disabled": 0, "rental_uris": {"android": "https://dc.lft.to/lastmile_qr_scan", "ios": "https://dc.lft.to/lastmile_qr_scan"}, "is_reserved": 0, "name": "7ce5bade2400848486a694b0092722cd", "lon": -77.03216066666667, "type": "electric_scooter", "bike_id": "7ce5bade2400848486a694b0092722cd", "fusion_lon": 0.0, "lat": 38.90368316666667, "fusion_lat": 0.0}, {"is_disabled": 0, "rental_uris": {"android": "https://dc.lft.to/lastmile_qr_scan", "ios": "https://dc.lft.to/lastmile_qr_scan"}, "is_reserved": 0, "name": "9bebfae5bd8e87eec84c9712e7e5b09e", "lon": -77.02843383333334, "type": "electric_scooter", "bike_id": "9bebfae5bd8e87eec84c9712e7e5b09e", "fusion_lon": 0.0, "lat": 38.92572766666667, "fusion_lat": 0.0}, {"is_disabled": 0, "rental_uris": {"android": "https://dc.lft.to/lastmile_qr_scan", "ios": "https://dc.lft.to/lastmile_qr_scan"}, "is_reserved": 0, "name": "1785ae0832f5d7051205adfff6d9910b", "lon": -77.02389416666666, "type": "electric_scooter", "bike_id": "1785ae0832f5d7051205adfff6d9910b", "fusion_lon": 0.0, "lat": 38.9280055, "fusion_lat": 0.0}, {"is_disabled": 0, "rental_uris": {"android": "https://dc.lft.to/lastmile_qr_scan", "ios": "https://dc.lft.to/lastmile_qr_scan"}, "is_reserved": 0, "name": "ed86e70f36b993302448f78a1845921c", "lon": -77.0088785, "type": "electric_scooter", "bike_id": "ed86e70f36b993302448f78a1845921c", "fusion_lon": 0.0, "lat": 38.90578766666667, "fusion_lat": 0.0}, {"is_disabled": 0, "rental_uris": {"android": "https://dc.lft.to/lastmile_qr_scan", "ios": "https://dc.lft.to/lastmile_qr_scan"}, "is_reserved": 0, "name": "f262fb63189fa71ed6ab0ee1c7090024", "lon": -77.03378083333334, "type": "electric_scooter", "bike_id": "f262fb63189fa71ed6ab0ee1c7090024", "fusion_lon": 0.0, "lat": 38.9170635, "fusion_lat": 0.0}, {"is_disabled": 0, "rental_uris": {"android": "https://dc.lft.to/lastmile_qr_scan", "ios": "https://dc.lft.to/lastmile_qr_scan"}, "is_reserved": 0, "name": "17d25a0914212a4695a48e5e8a8ee4ec", "lon": -77.015029, "type": "electric_scooter", "bike_id": "17d25a0914212a4695a48e5e8a8ee4ec", "fusion_lon": 0.0, "lat": 38.91002783333333, "fusion_lat": 0.0}, {"is_disabled": 0, "rental_uris": {"android": "https://dc.lft.to/lastmile_qr_scan", "ios": "https://dc.lft.to/lastmile_qr_scan"}, "is_reserved": 0, "name": "4d639390235bd6a7a7d4166dd277382c", "lon": -77.04581316666666, "type": "electric_scooter", "bike_id": "4d639390235bd6a7a7d4166dd277382c", "fusion_lon": 0.0, "lat": 38.924196333333335, "fusion_lat": 0.0}, {"is_disabled": 0, "rental_uris": {"android": "https://dc.lft.to/lastmile_qr_scan", "ios": "https://dc.lft.to/lastmile_qr_scan"}, "is_reserved": 0, "name": "ece1b0cd15cb191852dbd3b16416d40a", "lon": -77.038418, "type": "electric_scooter", "bike_id": "ece1b0cd15cb191852dbd3b16416d40a", "fusion_lon": 0.0, "lat": 38.9147605, "fusion_lat": 0.0}, {"is_disabled": 0, "rental_uris": {"android": "https://dc.lft.to/lastmile_qr_scan", "ios": "https://dc.lft.to/lastmile_qr_scan"}, "is_reserved": 0, "name": "c7ddb49cb779f1b4eeafdfdb527a1deb", "lon": -77.03451166666666, "type": "electric_scooter", "bike_id": "c7ddb49cb779f1b4eeafdfdb527a1deb", "fusion_lon": 0.0, "lat": 38.90978716666667, "fusion_lat": 0.0}, {"is_disabled": 0, "rental_uris": {"android": "https://dc.lft.to/lastmile_qr_scan", "ios": "https://dc.lft.to/lastmile_qr_scan"}, "is_reserved": 0, "name": "e774160c7bc7ca5b3d5344c3c9453e42", "lon": -76.97881833333334, "type": "electric_scooter", "bike_id": "e774160c7bc7ca5b3d5344c3c9453e42", "fusion_lon": 0.0, "lat": 38.927250666666666, "fusion_lat": 0.0}, {"is_disabled": 0, "rental_uris": {"android": "https://dc.lft.to/lastmile_qr_scan", "ios": "https://dc.lft.to/lastmile_qr_scan"}, "is_reserved": 0, "name": "40493b5d9710e6c3991482636321ee5b", "lon": -77.012267, "type": "electric_scooter", "bike_id": "40493b5d9710e6c3991482636321ee5b", "fusion_lon": 0.0, "lat": 38.885838166666666, "fusion_lat": 0.0}, {"is_disabled": 0, "rental_uris": {"android": "https://dc.lft.to/lastmile_qr_scan", "ios": "https://dc.lft.to/lastmile_qr_scan"}, "is_reserved": 0, "name": "ec38198018b90a3235465186057432f2", "lon": -77.02343183333333, "type": "electric_scooter", "bike_id": "ec38198018b90a3235465186057432f2", "fusion_lon": 0.0, "lat": 38.916049666666666, "fusion_lat": 0.0}, {"is_disabled": 0, "rental_uris": {"android": "https://dc.lft.to/lastmile_qr_scan", "ios": "https://dc.lft.to/lastmile_qr_scan"}, "is_reserved": 0, "name": "71a8a3eb0b2f6caeaf2882124857dd74", "lon": -77.045599, "type": "electric_scooter", "bike_id": "71a8a3eb0b2f6caeaf2882124857dd74", "fusion_lon": 0.0, "lat": 38.91774233333334, "fusion_lat": 0.0}, {"is_disabled": 0, "rental_uris": {"android": "https://dc.lft.to/lastmile_qr_scan", "ios": "https://dc.lft.to/lastmile_qr_scan"}, "is_reserved": 0, "name": "424d6ba1a0f76a490dee866e377e290f", "lon": -77.02299816666667, "type": "electric_scooter", "bike_id": "424d6ba1a0f76a490dee866e377e290f", "fusion_lon": 0.0, "lat": 38.9160405, "fusion_lat": 0.0}, {"is_disabled": 0, "rental_uris": {"android": "https://dc.lft.to/lastmile_qr_scan", "ios": "https://dc.lft.to/lastmile_qr_scan"}, "is_reserved": 0, "name": "2c8167e7fcb25b08cb8912c490dc8c95", "lon": -77.10439833333334, "type": "electric_bike", "bike_id": "2c8167e7fcb25b08cb8912c490dc8c95", "fusion_lon": 0.0, "lat": 39.028680666666666, "fusion_lat": 0.0}, {"is_disabled": 0, "rental_uris": {"android": "https://dc.lft.to/lastmile_qr_scan", "ios": "https://dc.lft.to/lastmile_qr_scan"}, "is_reserved": 0, "name": "2d42abdecffbd41d12da321a6c5dcf10", "lon": -77.05442083333334, "type": "electric_scooter", "bike_id": "2d42abdecffbd41d12da321a6c5dcf10", "fusion_lon": 0.0, "lat": 38.896034666666665, "fusion_lat": 0.0}, {"is_disabled": 0, "rental_uris": {"android": "https://dc.lft.to/lastmile_qr_scan", "ios": "https://dc.lft.to/lastmile_qr_scan"}, "is_reserved": 0, "name": "0e40e850cf5415b728a5defaa3086f3c", "lon": -77.03663066666667, "type": "electric_scooter", "bike_id": "0e40e850cf5415b728a5defaa3086f3c", "fusion_lon": 0.0, "lat": 38.91246666666667, "fusion_lat": 0.0}, {"is_disabled": 0, "rental_uris": {"android": "https://dc.lft.to/lastmile_qr_scan", "ios": "https://dc.lft.to/lastmile_qr_scan"}, "is_reserved": 0, "name": "155e1403bfbd661ce7c911c6870a9c35", "lon": -77.046407, "type": "electric_scooter", "bike_id": "155e1403bfbd661ce7c911c6870a9c35", "fusion_lon": 0.0, "lat": 38.90563566666667, "fusion_lat": 0.0}, {"is_disabled": 0, "rental_uris": {"android": "https://dc.lft.to/lastmile_qr_scan", "ios": "https://dc.lft.to/lastmile_qr_scan"}, "is_reserved": 0, "name": "ccd0e7c740b1fe68e1de82c44e0a8384", "lon": -77.008797, "type": "electric_scooter", "bike_id": "ccd0e7c740b1fe68e1de82c44e0a8384", "fusion_lon": 0.0, "lat": 38.906818333333334, "fusion_lat": 0.0}, {"is_disabled": 0, "rental_uris": {"android": "https://dc.lft.to/lastmile_qr_scan", "ios": "https://dc.lft.to/lastmile_qr_scan"}, "is_reserved": 0, "name": "717d9a29c3ae6a2ab0f51301f241ba83", "lon": -77.03330966666667, "type": "electric_scooter", "bike_id": "717d9a29c3ae6a2ab0f51301f241ba83", "fusion_lon": 0.0, "lat": 38.898557, "fusion_lat": 0.0}, {"is_disabled": 0, "rental_uris": {"android": "https://dc.lft.to/lastmile_qr_scan", "ios": "https://dc.lft.to/lastmile_qr_scan"}, "is_reserved": 0, "name": "5db1d0b19a647e693af6f17b715acf42", "lon": -76.94824083333333, "type": "electric_scooter", "bike_id": "5db1d0b19a647e693af6f17b715acf42", "fusion_lon": 0.0, "lat": 38.88513533333333, "fusion_lat": 0.0}, {"is_disabled": 0, "rental_uris": {"android": "https://dc.lft.to/lastmile_qr_scan", "ios": "https://dc.lft.to/lastmile_qr_scan"}, "is_reserved": 0, "name": "a772886b5524e55fd529daaacda659c0", "lon": -77.03617533333333, "type": "electric_scooter", "bike_id": "a772886b5524e55fd529daaacda659c0", "fusion_lon": 0.0, "lat": 38.910453833333335, "fusion_lat": 0.0}, {"is_disabled": 0, "rental_uris": {"android": "https://dc.lft.to/lastmile_qr_scan", "ios": "https://dc.lft.to/lastmile_qr_scan"}, "is_reserved": 0, "name": "15858fcd04bb4d22647b1c36e094d6ef", "lon": -77.02004066666667, "type": "electric_scooter", "bike_id": "15858fcd04bb4d22647b1c36e094d6ef", "fusion_lon": 0.0, "lat": 38.915804666666666, "fusion_lat": 0.0}, {"is_disabled": 0, "rental_uris": {"android": "https://dc.lft.to/lastmile_qr_scan", "ios": "https://dc.lft.to/lastmile_qr_scan"}, "is_reserved": 0, "name": "dcf7d7241fd592dadf29c3401419cf61", "lon": -76.9751375, "type": "electric_bike", "bike_id": "dcf7d7241fd592dadf29c3401419cf61", "fusion_lon": 0.0, "lat": 38.90304033333334, "fusion_lat": 0.0}, {"is_disabled": 0, "rental_uris": {"android": "https://dc.lft.to/lastmile_qr_scan", "ios": "https://dc.lft.to/lastmile_qr_scan"}, "is_reserved": 0, "name": "ecdfda9e9b57a60c711d5c0147630ba8", "lon": -77.03875533333333, "type": "electric_scooter", "bike_id": "ecdfda9e9b57a60c711d5c0147630ba8", "fusion_lon": 0.0, "lat": 38.91562233333333, "fusion_lat": 0.0}, {"is_disabled": 0, "rental_uris": {"android": "https://dc.lft.to/lastmile_qr_scan", "ios": "https://dc.lft.to/lastmile_qr_scan"}, "is_reserved": 0, "name": "dd49aacaab3526325b89dcae0333e094", "lon": -77.00948466666667, "type": "electric_scooter", "bike_id": "dd49aacaab3526325b89dcae0333e094", "fusion_lon": 0.0, "lat": 38.894943166666664, "fusion_lat": 0.0}, {"is_disabled": 0, "rental_uris": {"android": "https://dc.lft.to/lastmile_qr_scan", "ios": "https://dc.lft.to/lastmile_qr_scan"}, "is_reserved": 0, "name": "388ade77db8aeff7280ab2ae346682f0", "lon": -77.08439533333333, "type": "electric_bike", "bike_id": "388ade77db8aeff7280ab2ae346682f0", "fusion_lon": 0.0, "lat": 38.810302666666665, "fusion_lat": 0.0}, {"is_disabled": 0, "rental_uris": {"android": "https://dc.lft.to/lastmile_qr_scan", "ios": "https://dc.lft.to/lastmile_qr_scan"}, "is_reserved": 0, "name": "a1ce449a4a71605dd840cc835e0ad5b3", "lon": -76.94828283333334, "type": "electric_scooter", "bike_id": "a1ce449a4a71605dd840cc835e0ad5b3", "fusion_lon": 0.0, "lat": 38.885183166666664, "fusion_lat": 0.0}, {"is_disabled": 0, "rental_uris": {"android": "https://dc.lft.to/lastmile_qr_scan", "ios": "https://dc.lft.to/lastmile_qr_scan"}, "is_reserved": 0, "name": "3b25bd99cf69a933b4e183a99bc6e56b", "lon": -76.97905766666666, "type": "electric_scooter", "bike_id": "3b25bd99cf69a933b4e183a99bc6e56b", "fusion_lon": 0.0, "lat": 38.904268333333334, "fusion_lat": 0.0}, {"is_disabled": 0, "rental_uris": {"android": "https://dc.lft.to/lastmile_qr_scan", "ios": "https://dc.lft.to/lastmile_qr_scan"}, "is_reserved": 0, "name": "e487db9e892f6ca910de9499623ab37e", "lon": -77.04285, "type": "electric_scooter", "bike_id": "e487db9e892f6ca910de9499623ab37e", "fusion_lon": 0.0, "lat": 38.91708716666667, "fusion_lat": 0.0}, {"is_disabled": 0, "rental_uris": {"android": "https://dc.lft.to/lastmile_qr_scan", "ios": "https://dc.lft.to/lastmile_qr_scan"}, "is_reserved": 0, "name": "2ef1c1a8b95cf5324bafe60546b30d7c", "lon": -77.00228033333333, "type": "electric_scooter", "bike_id": "2ef1c1a8b95cf5324bafe60546b30d7c", "fusion_lon": 0.0, "lat": 38.913417, "fusion_lat": 0.0}, {"is_disabled": 0, "rental_uris": {"android": "https://dc.lft.to/lastmile_qr_scan", "ios": "https://dc.lft.to/lastmile_qr_scan"}, "is_reserved": 0, "name": "3dccc8c29fe8b2af3a00210015d4f489", "lon": -77.02759433333334, "type": "electric_scooter", "bike_id": "3dccc8c29fe8b2af3a00210015d4f489", "fusion_lon": 0.0, "lat": 38.94304, "fusion_lat": 0.0}, {"is_disabled": 0, "rental_uris": {"android": "https://dc.lft.to/lastmile_qr_scan", "ios": "https://dc.lft.to/lastmile_qr_scan"}, "is_reserved": 0, "name": "6d65361d65d687c1ff9dca842a6630e2", "lon": -77.02337416666667, "type": "electric_scooter", "bike_id": "6d65361d65d687c1ff9dca842a6630e2", "fusion_lon": 0.0, "lat": 38.92234783333333, "fusion_lat": 0.0}, {"is_disabled": 0, "rental_uris": {"android": "https://dc.lft.to/lastmile_qr_scan", "ios": "https://dc.lft.to/lastmile_qr_scan"}, "is_reserved": 0, "name": "d41de7318d1123cd091288dbbb694fab", "lon": -77.03743716666666, "type": "electric_scooter", "bike_id": "d41de7318d1123cd091288dbbb694fab", "fusion_lon": 0.0, "lat": 38.906723, "fusion_lat": 0.0}, {"is_disabled": 0, "rental_uris": {"android": "https://dc.lft.to/lastmile_qr_scan", "ios": "https://dc.lft.to/lastmile_qr_scan"}, "is_reserved": 0, "name": "ad0b4c9ff5a0c1831eda54965414e1d6", "lon": -76.99035933333333, "type": "electric_scooter", "bike_id": "ad0b4c9ff5a0c1831eda54965414e1d6", "fusion_lon": 0.0, "lat": 38.898791333333335, "fusion_lat": 0.0}, {"is_disabled": 0, "rental_uris": {"android": "https://dc.lft.to/lastmile_qr_scan", "ios": "https://dc.lft.to/lastmile_qr_scan"}, "is_reserved": 0, "name": "1c30860a23f9f90a6f0b5eef68961a4f", "lon": -77.05529266666667, "type": "electric_scooter", "bike_id": "1c30860a23f9f90a6f0b5eef68961a4f", "fusion_lon": 0.0, "lat": 38.899807833333334, "fusion_lat": 0.0}, {"is_disabled": 0, "rental_uris": {"android": "https://dc.lft.to/lastmile_qr_scan", "ios": "https://dc.lft.to/lastmile_qr_scan"}, "is_reserved": 0, "name": "7c91f485547dcb1c15b0f81bcff4909a", "lon": -77.03854216666667, "type": "electric_scooter", "bike_id": "7c91f485547dcb1c15b0f81bcff4909a", "fusion_lon": 0.0, "lat": 38.926537333333336, "fusion_lat": 0.0}, {"is_disabled": 0, "rental_uris": {"android": "https://dc.lft.to/lastmile_qr_scan", "ios": "https://dc.lft.to/lastmile_qr_scan"}, "is_reserved": 0, "name": "6efcec189239f970586aa50a3ef4b258", "lon": -77.00338916666666, "type": "electric_scooter", "bike_id": "6efcec189239f970586aa50a3ef4b258", "fusion_lon": 0.0, "lat": 38.889880166666664, "fusion_lat": 0.0}, {"is_disabled": 0, "rental_uris": {"android": "https://dc.lft.to/lastmile_qr_scan", "ios": "https://dc.lft.to/lastmile_qr_scan"}, "is_reserved": 0, "name": "9546a012cec89dd02b2c22ef60c53cb2", "lon": -77.04179033333334, "type": "electric_scooter", "bike_id": "9546a012cec89dd02b2c22ef60c53cb2", "fusion_lon": 0.0, "lat": 38.9141495, "fusion_lat": 0.0}, {"is_disabled": 0, "rental_uris": {"android": "https://dc.lft.to/lastmile_qr_scan", "ios": "https://dc.lft.to/lastmile_qr_scan"}, "is_reserved": 0, "name": "38aa4abe4149fdb4e18661a3319c0074", "lon": -76.97504183333334, "type": "electric_bike", "bike_id": "38aa4abe4149fdb4e18661a3319c0074", "fusion_lon": 0.0, "lat": 38.9193315, "fusion_lat": 0.0}, {"is_disabled": 0, "rental_uris": {"android": "https://dc.lft.to/lastmile_qr_scan", "ios": "https://dc.lft.to/lastmile_qr_scan"}, "is_reserved": 0, "name": "f1dc4167ed4c67b813382d2f3ca3c98f", "lon": -76.99631483333333, "type": "electric_scooter", "bike_id": "f1dc4167ed4c67b813382d2f3ca3c98f", "fusion_lon": 0.0, "lat": 38.846196166666665, "fusion_lat": 0.0}, {"is_disabled": 0, "rental_uris": {"android": "https://dc.lft.to/lastmile_qr_scan", "ios": "https://dc.lft.to/lastmile_qr_scan"}, "is_reserved": 0, "name": "b6f5f70b95c947280a6133286d29c269", "lon": -77.02311583333334, "type": "electric_scooter", "bike_id": "b6f5f70b95c947280a6133286d29c269", "fusion_lon": 0.0, "lat": 38.908845666666664, "fusion_lat": 0.0}, {"is_disabled": 0, "rental_uris": {"android": "https://dc.lft.to/lastmile_qr_scan", "ios": "https://dc.lft.to/lastmile_qr_scan"}, "is_reserved": 0, "name": "f79773cfb2c12ee09319a0b0f8057045", "lon": -77.050031, "type": "electric_scooter", "bike_id": "f79773cfb2c12ee09319a0b0f8057045", "fusion_lon": 0.0, "lat": 38.91578716666667, "fusion_lat": 0.0}, {"is_disabled": 0, "rental_uris": {"android": "https://dc.lft.to/lastmile_qr_scan", "ios": "https://dc.lft.to/lastmile_qr_scan"}, "is_reserved": 0, "name": "2dc67ee6d62ebe5f419706fdfeebb019", "lon": -77.00536466666667, "type": "electric_scooter", "bike_id": "2dc67ee6d62ebe5f419706fdfeebb019", "fusion_lon": 0.0, "lat": 38.874685, "fusion_lat": 0.0}, {"is_disabled": 0, "rental_uris": {"android": "https://dc.lft.to/lastmile_qr_scan", "ios": "https://dc.lft.to/lastmile_qr_scan"}, "is_reserved": 0, "name": "1b9572c801aaffd7c20f66c2553a233b", "lon": -77.02502783333334, "type": "electric_scooter", "bike_id": "1b9572c801aaffd7c20f66c2553a233b", "fusion_lon": 0.0, "lat": 38.90412416666667, "fusion_lat": 0.0}, {"is_disabled": 0, "rental_uris": {"android": "https://dc.lft.to/lastmile_qr_scan", "ios": "https://dc.lft.to/lastmile_qr_scan"}, "is_reserved": 0, "name": "ac5f1a7cef4885f45677f0b5456a5603", "lon": -77.05010183333333, "type": "electric_scooter", "bike_id": "ac5f1a7cef4885f45677f0b5456a5603", "fusion_lon": 0.0, "lat": 38.90575316666666, "fusion_lat": 0.0}, {"is_disabled": 0, "rental_uris": {"android": "https://dc.lft.to/lastmile_qr_scan", "ios": "https://dc.lft.to/lastmile_qr_scan"}, "is_reserved": 0, "name": "fb77eb5c313ea8ab4c86315dc51aa7cf", "lon": -77.02164866666666, "type": "electric_scooter", "bike_id": "fb77eb5c313ea8ab4c86315dc51aa7cf", "fusion_lon": 0.0, "lat": 38.92613866666667, "fusion_lat": 0.0}, {"is_disabled": 0, "rental_uris": {"android": "https://dc.lft.to/lastmile_qr_scan", "ios": "https://dc.lft.to/lastmile_qr_scan"}, "is_reserved": 0, "name": "0281403cf38de50e9d09461bd6a7dce6", "lon": -77.04683483333334, "type": "electric_scooter", "bike_id": "0281403cf38de50e9d09461bd6a7dce6", "fusion_lon": 0.0, "lat": 38.921623333333336, "fusion_lat": 0.0}, {"is_disabled": 0, "rental_uris": {"android": "https://dc.lft.to/lastmile_qr_scan", "ios": "https://dc.lft.to/lastmile_qr_scan"}, "is_reserved": 0, "name": "9caa733a5595680990813bec0e37fad5", "lon": -76.9808365, "type": "electric_scooter", "bike_id": "9caa733a5595680990813bec0e37fad5", "fusion_lon": 0.0, "lat": 38.901663166666665, "fusion_lat": 0.0}, {"is_disabled": 0, "rental_uris": {"android": "https://dc.lft.to/lastmile_qr_scan", "ios": "https://dc.lft.to/lastmile_qr_scan"}, "is_reserved": 0, "name": "ff4e521af8dd621dbfff7b954b6601e8", "lon": -76.93754116666666, "type": "electric_scooter", "bike_id": "ff4e521af8dd621dbfff7b954b6601e8", "fusion_lon": 0.0, "lat": 38.8903835, "fusion_lat": 0.0}, {"is_disabled": 0, "rental_uris": {"android": "https://dc.lft.to/lastmile_qr_scan", "ios": "https://dc.lft.to/lastmile_qr_scan"}, "is_reserved": 0, "name": "762882a1340c0ffe767654f9fdf0a3d0", "lon": -77.03238083333333, "type": "electric_scooter", "bike_id": "762882a1340c0ffe767654f9fdf0a3d0", "fusion_lon": 0.0, "lat": 38.920608, "fusion_lat": 0.0}, {"is_disabled": 0, "rental_uris": {"android": "https://dc.lft.to/lastmile_qr_scan", "ios": "https://dc.lft.to/lastmile_qr_scan"}, "is_reserved": 0, "name": "5d1c195490cb8dc3adc8d7001c8aab5d", "lon": -77.017678, "type": "electric_scooter", "bike_id": "5d1c195490cb8dc3adc8d7001c8aab5d", "fusion_lon": 0.0, "lat": 38.90039066666667, "fusion_lat": 0.0}, {"is_disabled": 0, "rental_uris": {"android": "https://dc.lft.to/lastmile_qr_scan", "ios": "https://dc.lft.to/lastmile_qr_scan"}, "is_reserved": 0, "name": "4aef4ab281628cad8fc473d1130eb2bc", "lon": -77.03639733333333, "type": "electric_scooter", "bike_id": "4aef4ab281628cad8fc473d1130eb2bc", "fusion_lon": 0.0, "lat": 38.93174533333333, "fusion_lat": 0.0}, {"is_disabled": 0, "rental_uris": {"android": "https://dc.lft.to/lastmile_qr_scan", "ios": "https://dc.lft.to/lastmile_qr_scan"}, "is_reserved": 0, "name": "0ef89b0b2d919ec7d470e4e6b8047dc3", "lon": -77.03207616666667, "type": "electric_scooter", "bike_id": "0ef89b0b2d919ec7d470e4e6b8047dc3", "fusion_lon": 0.0, "lat": 38.9179535, "fusion_lat": 0.0}, {"is_disabled": 0, "rental_uris": {"android": "https://dc.lft.to/lastmile_qr_scan", "ios": "https://dc.lft.to/lastmile_qr_scan"}, "is_reserved": 0, "name": "899d5921c733a0f8806a210e826abd3a", "lon": -77.03559716666666, "type": "electric_scooter", "bike_id": "899d5921c733a0f8806a210e826abd3a", "fusion_lon": 0.0, "lat": 38.90477383333333, "fusion_lat": 0.0}, {"is_disabled": 0, "rental_uris": {"android": "https://dc.lft.to/lastmile_qr_scan", "ios": "https://dc.lft.to/lastmile_qr_scan"}, "is_reserved": 0, "name": "f474a1479f9483678d645902bf21cee0", "lon": -76.92890066666666, "type": "electric_bike", "bike_id": "f474a1479f9483678d645902bf21cee0", "fusion_lon": 0.0, "lat": 38.97843783333333, "fusion_lat": 0.0}, {"is_disabled": 0, "rental_uris": {"android": "https://dc.lft.to/lastmile_qr_scan", "ios": "https://dc.lft.to/lastmile_qr_scan"}, "is_reserved": 0, "name": "df643d00f2e8ea9785ee01843adc3225", "lon": -77.04244033333333, "type": "electric_scooter", "bike_id": "df643d00f2e8ea9785ee01843adc3225", "fusion_lon": 0.0, "lat": 38.91927883333334, "fusion_lat": 0.0}, {"is_disabled": 0, "rental_uris": {"android": "https://dc.lft.to/lastmile_qr_scan", "ios": "https://dc.lft.to/lastmile_qr_scan"}, "is_reserved": 0, "name": "8af76bdbae6f803ed637cd4b0ace9b0f", "lon": -77.01874266666667, "type": "electric_scooter", "bike_id": "8af76bdbae6f803ed637cd4b0ace9b0f", "fusion_lon": 0.0, "lat": 38.90057183333333, "fusion_lat": 0.0}, {"is_disabled": 0, "rental_uris": {"android": "https://dc.lft.to/lastmile_qr_scan", "ios": "https://dc.lft.to/lastmile_qr_scan"}, "is_reserved": 0, "name": "3b15fe8599f509e4d03c99af33eb9a97", "lon": -77.0386975, "type": "electric_scooter", "bike_id": "3b15fe8599f509e4d03c99af33eb9a97", "fusion_lon": 0.0, "lat": 38.901247, "fusion_lat": 0.0}, {"is_disabled": 0, "rental_uris": {"android": "https://dc.lft.to/lastmile_qr_scan", "ios": "https://dc.lft.to/lastmile_qr_scan"}, "is_reserved": 0, "name": "aa90474024ecc334b45bb1355c0eb6b2", "lon": -77.04172166666666, "type": "electric_scooter", "bike_id": "aa90474024ecc334b45bb1355c0eb6b2", "fusion_lon": 0.0, "lat": 38.913564, "fusion_lat": 0.0}, {"is_disabled": 0, "rental_uris": {"android": "https://dc.lft.to/lastmile_qr_scan", "ios": "https://dc.lft.to/lastmile_qr_scan"}, "is_reserved": 0, "name": "227ed0666b1bceb40cd3adc499bddb08", "lon": -76.99650566666666, "type": "electric_scooter", "bike_id": "227ed0666b1bceb40cd3adc499bddb08", "fusion_lon": 0.0, "lat": 38.88719716666667, "fusion_lat": 0.0}, {"is_disabled": 0, "rental_uris": {"android": "https://dc.lft.to/lastmile_qr_scan", "ios": "https://dc.lft.to/lastmile_qr_scan"}, "is_reserved": 0, "name": "01cbd2f845be2efcdc786bd83e33f2d6", "lon": -77.03420733333333, "type": "electric_scooter", "bike_id": "01cbd2f845be2efcdc786bd83e33f2d6", "fusion_lon": 0.0, "lat": 38.9119365, "fusion_lat": 0.0}, {"is_disabled": 0, "rental_uris": {"android": "https://dc.lft.to/lastmile_qr_scan", "ios": "https://dc.lft.to/lastmile_qr_scan"}, "is_reserved": 0, "name": "9152e7cce0744639fd9ee11837c3758c", "lon": -77.0386065, "type": "electric_scooter", "bike_id": "9152e7cce0744639fd9ee11837c3758c", "fusion_lon": 0.0, "lat": 38.916837, "fusion_lat": 0.0}, {"is_disabled": 0, "rental_uris": {"android": "https://dc.lft.to/lastmile_qr_scan", "ios": "https://dc.lft.to/lastmile_qr_scan"}, "is_reserved": 0, "name": "05e43112ed35dc21e5619092f864502f", "lon": -77.017752, "type": "electric_scooter", "bike_id": "05e43112ed35dc21e5619092f864502f", "fusion_lon": 0.0, "lat": 38.903906666666664, "fusion_lat": 0.0}, {"is_disabled": 0, "rental_uris": {"android": "https://dc.lft.to/lastmile_qr_scan", "ios": "https://dc.lft.to/lastmile_qr_scan"}, "is_reserved": 0, "name": "62948186165100b94cc8ca4781e9e6b6", "lon": -77.0325035, "type": "electric_scooter", "bike_id": "62948186165100b94cc8ca4781e9e6b6", "fusion_lon": 0.0, "lat": 38.90452233333333, "fusion_lat": 0.0}, {"is_disabled": 0, "rental_uris": {"android": "https://dc.lft.to/lastmile_qr_scan", "ios": "https://dc.lft.to/lastmile_qr_scan"}, "is_reserved": 0, "name": "d946ba3c33a61dac066c6c1c929f2305", "lon": -77.040514, "type": "electric_scooter", "bike_id": "d946ba3c33a61dac066c6c1c929f2305", "fusion_lon": 0.0, "lat": 38.905941166666665, "fusion_lat": 0.0}, {"is_disabled": 0, "rental_uris": {"android": "https://dc.lft.to/lastmile_qr_scan", "ios": "https://dc.lft.to/lastmile_qr_scan"}, "is_reserved": 0, "name": "3b79f7a5d4a2a5b491f5209124274212", "lon": -77.03175016666667, "type": "electric_scooter", "bike_id": "3b79f7a5d4a2a5b491f5209124274212", "fusion_lon": 0.0, "lat": 38.914213333333336, "fusion_lat": 0.0}, {"is_disabled": 0, "rental_uris": {"android": "https://dc.lft.to/lastmile_qr_scan", "ios": "https://dc.lft.to/lastmile_qr_scan"}, "is_reserved": 0, "name": "aaaa390c3719d6ac6cb1c91025571378", "lon": -77.05748483333333, "type": "electric_scooter", "bike_id": "aaaa390c3719d6ac6cb1c91025571378", "fusion_lon": 0.0, "lat": 38.93351333333333, "fusion_lat": 0.0}, {"is_disabled": 0, "rental_uris": {"android": "https://dc.lft.to/lastmile_qr_scan", "ios": "https://dc.lft.to/lastmile_qr_scan"}, "is_reserved": 0, "name": "4589ceed97bdc50a72b9787ff8f62bbd", "lon": -77.05787416666666, "type": "electric_scooter", "bike_id": "4589ceed97bdc50a72b9787ff8f62bbd", "fusion_lon": 0.0, "lat": 38.905056333333334, "fusion_lat": 0.0}, {"is_disabled": 0, "rental_uris": {"android": "https://dc.lft.to/lastmile_qr_scan", "ios": "https://dc.lft.to/lastmile_qr_scan"}, "is_reserved": 0, "name": "037a35886ce2a9a548f0e71afcba8e0b", "lon": -76.97533366666667, "type": "electric_scooter", "bike_id": "037a35886ce2a9a548f0e71afcba8e0b", "fusion_lon": 0.0, "lat": 38.922306166666665, "fusion_lat": 0.0}, {"is_disabled": 0, "rental_uris": {"android": "https://dc.lft.to/lastmile_qr_scan", "ios": "https://dc.lft.to/lastmile_qr_scan"}, "is_reserved": 0, "name": "cb8845e2150185a150143f003ad3d2c1", "lon": -77.01523166666666, "type": "electric_scooter", "bike_id": "cb8845e2150185a150143f003ad3d2c1", "fusion_lon": 0.0, "lat": 38.88485883333333, "fusion_lat": 0.0}, {"is_disabled": 0, "rental_uris": {"android": "https://dc.lft.to/lastmile_qr_scan", "ios": "https://dc.lft.to/lastmile_qr_scan"}, "is_reserved": 0, "name": "117cdac1bc4be6061542da04bef7b1e2", "lon": -77.03183566666667, "type": "electric_scooter", "bike_id": "117cdac1bc4be6061542da04bef7b1e2", "fusion_lon": 0.0, "lat": 38.916920166666664, "fusion_lat": 0.0}, {"is_disabled": 0, "rental_uris": {"android": "https://dc.lft.to/lastmile_qr_scan", "ios": "https://dc.lft.to/lastmile_qr_scan"}, "is_reserved": 0, "name": "22d315bc062c54a232438bec3535c6b9", "lon": -77.03810166666666, "type": "electric_scooter", "bike_id": "22d315bc062c54a232438bec3535c6b9", "fusion_lon": 0.0, "lat": 38.91559133333333, "fusion_lat": 0.0}, {"is_disabled": 0, "rental_uris": {"android": "https://dc.lft.to/lastmile_qr_scan", "ios": "https://dc.lft.to/lastmile_qr_scan"}, "is_reserved": 0, "name": "ad173f365eca1ccf8852a36df0447d1c", "lon": -77.05255066666666, "type": "electric_scooter", "bike_id": "ad173f365eca1ccf8852a36df0447d1c", "fusion_lon": 0.0, "lat": 38.927349166666666, "fusion_lat": 0.0}, {"is_disabled": 0, "rental_uris": {"android": "https://dc.lft.to/lastmile_qr_scan", "ios": "https://dc.lft.to/lastmile_qr_scan"}, "is_reserved": 0, "name": "4034329c65f9d7df3b9bfd3c7b4993fa", "lon": -77.05293533333334, "type": "electric_scooter", "bike_id": "4034329c65f9d7df3b9bfd3c7b4993fa", "fusion_lon": 0.0, "lat": 38.90338033333333, "fusion_lat": 0.0}, {"is_disabled": 0, "rental_uris": {"android": "https://dc.lft.to/lastmile_qr_scan", "ios": "https://dc.lft.to/lastmile_qr_scan"}, "is_reserved": 0, "name": "c7212893341f27221f19b3b7cd27294e", "lon": -77.02266933333334, "type": "electric_scooter", "bike_id": "c7212893341f27221f19b3b7cd27294e", "fusion_lon": 0.0, "lat": 38.92741783333334, "fusion_lat": 0.0}, {"is_disabled": 0, "rental_uris": {"android": "https://dc.lft.to/lastmile_qr_scan", "ios": "https://dc.lft.to/lastmile_qr_scan"}, "is_reserved": 0, "name": "c592adefb2d8025ec4c9c75aeac5770a", "lon": -77.01658783333333, "type": "electric_bike", "bike_id": "c592adefb2d8025ec4c9c75aeac5770a", "fusion_lon": 0.0, "lat": 38.95432733333333, "fusion_lat": 0.0}, {"is_disabled": 0, "rental_uris": {"android": "https://dc.lft.to/lastmile_qr_scan", "ios": "https://dc.lft.to/lastmile_qr_scan"}, "is_reserved": 0, "name": "2c96e9d9aef120dac47945efde22937f", "lon": -77.03268566666667, "type": "electric_scooter", "bike_id": "2c96e9d9aef120dac47945efde22937f", "fusion_lon": 0.0, "lat": 38.933306, "fusion_lat": 0.0}, {"is_disabled": 0, "rental_uris": {"android": "https://dc.lft.to/lastmile_qr_scan", "ios": "https://dc.lft.to/lastmile_qr_scan"}, "is_reserved": 0, "name": "c2525ac7cc762b2efe5e93775c993381", "lon": -76.98713016666666, "type": "electric_scooter", "bike_id": "c2525ac7cc762b2efe5e93775c993381", "fusion_lon": 0.0, "lat": 38.86698616666666, "fusion_lat": 0.0}, {"is_disabled": 0, "rental_uris": {"android": "https://dc.lft.to/lastmile_qr_scan", "ios": "https://dc.lft.to/lastmile_qr_scan"}, "is_reserved": 0, "name": "ba33b48f41c1ac2c95e5ed43cfd9c854", "lon": -77.0092295, "type": "electric_scooter", "bike_id": "ba33b48f41c1ac2c95e5ed43cfd9c854", "fusion_lon": 0.0, "lat": 38.897857, "fusion_lat": 0.0}, {"is_disabled": 0, "rental_uris": {"android": "https://dc.lft.to/lastmile_qr_scan", "ios": "https://dc.lft.to/lastmile_qr_scan"}, "is_reserved": 0, "name": "17232cb619008b433b41573ef3332861", "lon": -77.005987, "type": "electric_scooter", "bike_id": "17232cb619008b433b41573ef3332861", "fusion_lon": 0.0, "lat": 38.905655, "fusion_lat": 0.0}, {"is_disabled": 0, "rental_uris": {"android": "https://dc.lft.to/lastmile_qr_scan", "ios": "https://dc.lft.to/lastmile_qr_scan"}, "is_reserved": 0, "name": "bd842a2f08502c0bf3f1f06b3fbead7a", "lon": -77.02697133333334, "type": "electric_scooter", "bike_id": "bd842a2f08502c0bf3f1f06b3fbead7a", "fusion_lon": 0.0, "lat": 38.907349333333336, "fusion_lat": 0.0}, {"is_disabled": 0, "rental_uris": {"android": "https://dc.lft.to/lastmile_qr_scan", "ios": "https://dc.lft.to/lastmile_qr_scan"}, "is_reserved": 0, "name": "661291744a6bf088a2f9344ccf8d0930", "lon": -77.04158116666666, "type": "electric_scooter", "bike_id": "661291744a6bf088a2f9344ccf8d0930", "fusion_lon": 0.0, "lat": 38.9102845, "fusion_lat": 0.0}, {"is_disabled": 0, "rental_uris": {"android": "https://dc.lft.to/lastmile_qr_scan", "ios": "https://dc.lft.to/lastmile_qr_scan"}, "is_reserved": 0, "name": "b6fbf5fcfa7d79f9075ff7f4087ae810", "lon": -77.0420595, "type": "electric_scooter", "bike_id": "b6fbf5fcfa7d79f9075ff7f4087ae810", "fusion_lon": 0.0, "lat": 38.92964716666667, "fusion_lat": 0.0}, {"is_disabled": 0, "rental_uris": {"android": "https://dc.lft.to/lastmile_qr_scan", "ios": "https://dc.lft.to/lastmile_qr_scan"}, "is_reserved": 0, "name": "afcba12c3a16fbe995ac725df52821a6", "lon": -77.03088233333334, "type": "electric_scooter", "bike_id": "afcba12c3a16fbe995ac725df52821a6", "fusion_lon": 0.0, "lat": 38.92248416666666, "fusion_lat": 0.0}, {"is_disabled": 0, "rental_uris": {"android": "https://dc.lft.to/lastmile_qr_scan", "ios": "https://dc.lft.to/lastmile_qr_scan"}, "is_reserved": 0, "name": "3ab9d9334b35145f01501f96202b47d1", "lon": -76.92768783333334, "type": "electric_bike", "bike_id": "3ab9d9334b35145f01501f96202b47d1", "fusion_lon": 0.0, "lat": 38.96034566666667, "fusion_lat": 0.0}, {"is_disabled": 0, "rental_uris": {"android": "https://dc.lft.to/lastmile_qr_scan", "ios": "https://dc.lft.to/lastmile_qr_scan"}, "is_reserved": 0, "name": "c00328b29b662f1845270eecac476d00", "lon": -77.05235733333333, "type": "electric_scooter", "bike_id": "c00328b29b662f1845270eecac476d00", "fusion_lon": 0.0, "lat": 38.89799566666667, "fusion_lat": 0.0}, {"is_disabled": 0, "rental_uris": {"android": "https://dc.lft.to/lastmile_qr_scan", "ios": "https://dc.lft.to/lastmile_qr_scan"}, "is_reserved": 0, "name": "0e316c41f02a222ba887e435492037f5", "lon": -77.0021945, "type": "electric_bike", "bike_id": "0e316c41f02a222ba887e435492037f5", "fusion_lon": 0.0, "lat": 38.81934366666667, "fusion_lat": 0.0}, {"is_disabled": 0, "rental_uris": {"android": "https://dc.lft.to/lastmile_qr_scan", "ios": "https://dc.lft.to/lastmile_qr_scan"}, "is_reserved": 0, "name": "f7a02dec0b2f66245711048cf6026ac9", "lon": -77.01061983333334, "type": "electric_scooter", "bike_id": "f7a02dec0b2f66245711048cf6026ac9", "fusion_lon": 0.0, "lat": 38.866670666666664, "fusion_lat": 0.0}, {"is_disabled": 0, "rental_uris": {"android": "https://dc.lft.to/lastmile_qr_scan", "ios": "https://dc.lft.to/lastmile_qr_scan"}, "is_reserved": 0, "name": "fbc6ac783942daeb3e669f4841ff6a67", "lon": -76.960913, "type": "electric_bike", "bike_id": "fbc6ac783942daeb3e669f4841ff6a67", "fusion_lon": 0.0, "lat": 38.918604333333334, "fusion_lat": 0.0}, {"is_disabled": 0, "rental_uris": {"android": "https://dc.lft.to/lastmile_qr_scan", "ios": "https://dc.lft.to/lastmile_qr_scan"}, "is_reserved": 0, "name": "8a8baf8c4d7b185e70b6c607b8a952ec", "lon": -77.06386166666667, "type": "electric_bike", "bike_id": "8a8baf8c4d7b185e70b6c607b8a952ec", "fusion_lon": 0.0, "lat": 39.01734866666666, "fusion_lat": 0.0}, {"is_disabled": 0, "rental_uris": {"android": "https://dc.lft.to/lastmile_qr_scan", "ios": "https://dc.lft.to/lastmile_qr_scan"}, "is_reserved": 0, "name": "0708302746532c9b9c743efa2c27f70e", "lon": -76.98889333333334, "type": "electric_scooter", "bike_id": "0708302746532c9b9c743efa2c27f70e", "fusion_lon": 0.0, "lat": 38.866733833333335, "fusion_lat": 0.0}, {"is_disabled": 0, "rental_uris": {"android": "https://dc.lft.to/lastmile_qr_scan", "ios": "https://dc.lft.to/lastmile_qr_scan"}, "is_reserved": 0, "name": "70793ca9cfa9eaf125e236bb77b767e1", "lon": -77.02948733333334, "type": "electric_scooter", "bike_id": "70793ca9cfa9eaf125e236bb77b767e1", "fusion_lon": 0.0, "lat": 38.904673, "fusion_lat": 0.0}, {"is_disabled": 0, "rental_uris": {"android": "https://dc.lft.to/lastmile_qr_scan", "ios": "https://dc.lft.to/lastmile_qr_scan"}, "is_reserved": 0, "name": "e1ee6b3aedbaf14f48e41d6da8b0a98c", "lon": -77.030518, "type": "electric_scooter", "bike_id": "e1ee6b3aedbaf14f48e41d6da8b0a98c", "fusion_lon": 0.0, "lat": 38.901173, "fusion_lat": 0.0}, {"is_disabled": 0, "rental_uris": {"android": "https://dc.lft.to/lastmile_qr_scan", "ios": "https://dc.lft.to/lastmile_qr_scan"}, "is_reserved": 0, "name": "3ac55240bb59f5e9669f7a1eb2d1018d", "lon": -77.0085525, "type": "electric_scooter", "bike_id": "3ac55240bb59f5e9669f7a1eb2d1018d", "fusion_lon": 0.0, "lat": 38.8850195, "fusion_lat": 0.0}, {"is_disabled": 0, "rental_uris": {"android": "https://dc.lft.to/lastmile_qr_scan", "ios": "https://dc.lft.to/lastmile_qr_scan"}, "is_reserved": 0, "name": "6d6794ddcb896a4cb854ba2f02aaf625", "lon": -77.06707383333334, "type": "electric_scooter", "bike_id": "6d6794ddcb896a4cb854ba2f02aaf625", "fusion_lon": 0.0, "lat": 38.955890833333335, "fusion_lat": 0.0}, {"is_disabled": 0, "rental_uris": {"android": "https://dc.lft.to/lastmile_qr_scan", "ios": "https://dc.lft.to/lastmile_qr_scan"}, "is_reserved": 0, "name": "a5075e6fdac3e9d0163071a7103adf85", "lon": -77.02481983333334, "type": "electric_scooter", "bike_id": "a5075e6fdac3e9d0163071a7103adf85", "fusion_lon": 0.0, "lat": 38.930914, "fusion_lat": 0.0}, {"is_disabled": 0, "rental_uris": {"android": "https://dc.lft.to/lastmile_qr_scan", "ios": "https://dc.lft.to/lastmile_qr_scan"}, "is_reserved": 0, "name": "2404debb5e6029c1d6adba70eb85d21f", "lon": -77.0322625, "type": "electric_scooter", "bike_id": "2404debb5e6029c1d6adba70eb85d21f", "fusion_lon": 0.0, "lat": 38.90363, "fusion_lat": 0.0}, {"is_disabled": 0, "rental_uris": {"android": "https://dc.lft.to/lastmile_qr_scan", "ios": "https://dc.lft.to/lastmile_qr_scan"}, "is_reserved": 0, "name": "5b549a6af19efbe35b744a7e4dc2a4d2", "lon": -77.041249, "type": "electric_scooter", "bike_id": "5b549a6af19efbe35b744a7e4dc2a4d2", "fusion_lon": 0.0, "lat": 38.9225355, "fusion_lat": 0.0},