{"data": {"bikes": [{"is_disabled": 0, "is_reserved": 0, "fusion_lat": 0.0, "lat": 38.87449483333333, "fusion_lon": 0.0, "rental_uris": {"ios": "https://dc.lft.to/lastmile_qr_scan", "android": "https://dc.lft.to/lastmile_qr_scan"}, "lon": -77.00286833333334, "bike_id": "72d01175b341f729e6a95752f1db0eb9", "type": "electric_scooter", "name": "72d01175b341f729e6a95752f1db0eb9"}, {"is_disabled": 0, "is_reserved": 0, "fusion_lat": 0.0, "lat": 38.94720316666667, "fusion_lon": 0.0, "rental_uris": {"ios": "https://dc.lft.to/lastmile_qr_scan", "android": "https://dc.lft.to/lastmile_qr_scan"}, "lon": -77.02615183333333, "bike_id": "f5c25dcfc8c28817db28d82be9be54cb", "type": "electric_scooter", "name": "f5c25dcfc8c28817db28d82be9be54cb"}, {"is_disabled": 0, "is_reserved": 0, "fusion_lat": 0.0, "lat": 38.84478516666667, "fusion_lon": 0.0, "rental_uris": {"ios": "https://dc.lft.to/lastmile_qr_scan", "android": "https://dc.lft.to/lastmile_qr_scan"}, "lon": -76.99587966666667, "bike_id": "79e5ba8cb01064183714c8d197c169ad", "type": "electric_bike", "name": "79e5ba8cb01064183714c8d197c169ad"}, {"is_disabled": 0, "is_reserved": 0, "fusion_lat": 0.0, "lat": 38.8769705, "fusion_lon": 0.0, "rental_uris": {"ios": "https://dc.lft.to/lastmile_qr_scan", "android": "https://dc.lft.to/lastmile_qr_scan"}, "lon": -76.996248, "bike_id": "7f4c49be7c8b0184bd737c1923d1c68e", "type": "electric_scooter", "name": "7f4c49be7c8b0184bd737c1923d1c68e"}, {"is_disabled": 0, "is_reserved": 0, "fusion_lat": 0.0, "lat": 38.92237016666667, "fusion_lon": 0.0, "rental_uris": {"ios": "https://dc.lft.to/lastmile_qr_scan", "android": "https://dc.lft.to/lastmile_qr_scan"}, "lon": -77.036639, "bike_id": "70c7f67fa1ba9eb9e4f7bcff9a93cb34", "type": "electric_scooter", "name": "70c7f67fa1ba9eb9e4f7bcff9a93cb34"}, {"is_disabled": 0, "is_reserved": 0, "fusion_lat": 0.0, "lat": 38.93866833333333, "fusion_lon": 0.0, "rental_uris": {"ios": "https://dc.lft.to/lastmile_qr_scan", "android": "https://dc.lft.to/lastmile_qr_scan"}, "lon": -77.03044866666667, "bike_id": "7c841e967e476f10fbc539e73ec420cb", "type": "electric_scooter", "name": "7c841e967e476f10fbc539e73ec420cb"}, {"is_disabled": 0, "is_reserved": 0, "fusion_lat": 0.0, "lat": 38.88485383333333, "fusion_lon": 0.0, "rental_uris": {"ios": "https://dc.lft.to/lastmile_qr_scan", "android": "https://dc.lft.to/lastmile_qr_scan"}, "lon": -77.03178483333333, "bike_id": "ca1721fe010ecb949244feb8ed4edb02", "type": "electric_bike", "name": "ca1721fe010ecb949244feb8ed4edb02"}, {"is_disabled": 0, "is_reserved": 0, "fusion_lat": 0.0, "lat": 38.87920166666667, "fusion_lon": 0.0, "rental_uris": {"ios": "https://dc.lft.to/lastmile_qr_scan", "android": "https://dc.lft.to/lastmile_qr_scan"}, "lon": -77.004134, "bike_id": "28dba31cfbf39315a84e5b0053602937", "type": "electric_scooter", "name": "28dba31cfbf39315a84e5b0053602937"}, {"is_disabled": 0, "is_reserved": 0, "fusion_lat": 0.0, "lat": 38.963818333333336, "fusion_lon": 0.0, "rental_uris": {"ios": "https://dc.lft.to/lastmile_qr_scan", "android": "https://dc.lft.to/lastmile_qr_scan"}, "lon": -77.01977833333333, "bike_id": "df899e594af326b21ba7a3780f1d515f", "type": "electric_bike", "name": "df899e594af326b21ba7a3780f1d515f"}, {"is_disabled": 0, "is_reserved": 0, "fusion_lat": 0.0, "lat": 38.950969, "fusion_lon": 0.0, "rental_uris": {"ios": "https://dc.lft.to/lastmile_qr_scan", "android": "https://dc.lft.to/lastmile_qr_scan"}, "lon": -77.0220005, "bike_id": "1230c232e611da6e500b2c0a46daa008", "type": "electric_scooter", "name": "1230c232e611da6e500b2c0a46daa008"}, {"is_disabled": 0, "is_reserved": 0, "fusion_lat": 0.0, "lat": 38.930683333333334, "fusion_lon": 0.0, "rental_uris": {"ios": "https://dc.lft.to/lastmile_qr_scan", "android": "https://dc.lft.to/lastmile_qr_scan"}, "lon": -77.033636, "bike_id": "1477a709200a4671a0094c59ecc329d9", "type": "electric_scooter", "name": "1477a709200a4671a0094c59ecc329d9"}, {"is_disabled": 0, "is_reserved": 0, "fusion_lat": 0.0, "lat": 38.95735883333333, "fusion_lon": 0.0, "rental_uris": {"ios": "https://dc.lft.to/lastmile_qr_scan", "android": "https://dc.lft.to/lastmile_qr_scan"}, "lon": -77.024192, "bike_id": "7a4b7e5bdc63924497f68e37d583f7b0", "type": "electric_bike", "name": "7a4b7e5bdc63924497f68e37d583f7b0"}, {"is_disabled": 0, "is_reserved": 0, "fusion_lat": 0.0, "lat": 38.947903, "fusion_lon": 0.0, "rental_uris": {"ios": "https://dc.lft.to/lastmile_qr_scan", "android": "https://dc.lft.to/lastmile_qr_scan"}, "lon": -77.07893166666666, "bike_id": "56bd9631899870930963f4cc23ce3213", "type": "electric_scooter", "name": "56bd9631899870930963f4cc23ce3213"}, {"is_disabled": 0, "is_reserved": 0, "fusion_lat": 0.0, "lat": 38.91801, "fusion_lon": 0.0, "rental_uris": {"ios": "https://dc.lft.to/lastmile_qr_scan", "android": "https://dc.lft.to/lastmile_qr_scan"}, "lon": -77.0343715, "bike_id": "67719bd915357ad706e96f9159089f3b", "type": "electric_scooter", "name": "67719bd915357ad706e96f9159089f3b"}, {"is_disabled": 0, "is_reserved": 0, "fusion_lat": 0.0, "lat": 38.92278816666666, "fusion_lon": 0.0, "rental_uris": {"ios": "https://dc.lft.to/lastmile_qr_scan", "android": "https://dc.lft.to/lastmile_qr_scan"}, "lon": -77.02964983333334, "bike_id": "0b16301c703511ba7bf739154c46923d", "type": "electric_scooter", "name": "0b16301c703511ba7bf739154c46923d"}, {"is_disabled": 0, "is_reserved": 0, "fusion_lat": 0.0, "lat": 38.93662916666667, "fusion_lon": 0.0, "rental_uris": {"ios": "https://dc.lft.to/lastmile_qr_scan", "android": "https://dc.lft.to/lastmile_qr_scan"}, "lon": -77.0661195, "bike_id": "289e15bed6700a0e215ec163bbaba6ef", "type": "electric_scooter", "name": "289e15bed6700a0e215ec163bbaba6ef"}, {"is_disabled": 0, "is_reserved": 0, "fusion_lat": 0.0, "lat": 38.89510033333333, "fusion_lon": 0.0, "rental_uris": {"ios": "https://dc.lft.to/lastmile_qr_scan", "android": "https://dc.lft.to/lastmile_qr_scan"}, "lon": -77.02285616666667, "bike_id": "792a822accf272d5eb9ce0cec03e9ab4", "type": "electric_scooter", "name": "792a822accf272d5eb9ce0cec03e9ab4"}, {"is_disabled": 0, "is_reserved": 0, "fusion_lat": 0.0, "lat": 38.928935333333335, "fusion_lon": 0.0, "rental_uris": {"ios": "https://dc.lft.to/lastmile_qr_scan", "android": "https://dc.lft.to/lastmile_qr_scan"}, "lon": -77.01938683333333, "bike_id": "f53b2e27ae2d5dc5fb925ad583b4d5d0", "type": "electric_scooter", "name": "f53b2e27ae2d5dc5fb925ad583b4d5d0"}, {"is_disabled": 0, "is_reserved": 0, "fusion_lat": 0.0, "lat": 38.920848166666666, "fusion_lon": 0.0, "rental_uris": {"ios": "https://dc.lft.to/lastmile_qr_scan", "android": "https://dc.lft.to/lastmile_qr_scan"}, "lon": -77.024352, "bike_id": "2e668e8796a33d42377af1a9aeae5f95", "type": "electric_scooter", "name": "2e668e8796a33d42377af1a9aeae5f95"}, {"is_disabled": 0, "is_reserved": 0, "fusion_lat": 0.0, "lat": 38.928560166666664, "fusion_lon": 0.0, "rental_uris": {"ios": "https://dc.lft.to/lastmile_qr_scan", "android": "https://dc.lft.to/lastmile_qr_scan"}, "lon": -77.0373875, "bike_id": "6870e6f43d5a8aa89f16658ad3459d81", "type": "electric_scooter", "name": "6870e6f43d5a8aa89f16658ad3459d81"}, {"is_disabled": 0, "is_reserved": 0, "fusion_lat": 0.0, "lat": 38.95354583333334, "fusion_lon": 0.0, "rental_uris": {"ios": "https://dc.lft.to/lastmile_qr_scan", "android": "https://dc.lft.to/lastmile_qr_scan"}, "lon": -76.98088366666667, "bike_id": "76316ef443f59bfbeea83423bae0a614", "type": "electric_bike", "name": "76316ef443f59bfbeea83423bae0a614"}, {"is_disabled": 0, "is_reserved": 0, "fusion_lat": 0.0, "lat": 38.92758416666667, "fusion_lon": 0.0, "rental_uris": {"ios": "https://dc.lft.to/lastmile_qr_scan", "android": "https://dc.lft.to/lastmile_qr_scan"}, "lon": -77.0526955, "bike_id": "08f37233a02284339036b6096c8ded06", "type": "electric_scooter", "name": "08f37233a02284339036b6096c8ded06"}, {"is_disabled": 0, "is_reserved": 0, "fusion_lat": 0.0, "lat": 38.90512533333333, "fusion_lon": 0.0, "rental_uris": {"ios": "https://dc.lft.to/lastmile_qr_scan", "android": "https://dc.lft.to/lastmile_qr_scan"}, "lon": -76.9520345, "bike_id": "d89ca09b1203f0ca313fdf8135efeb16", "type": "electric_scooter", "name": "d89ca09b1203f0ca313fdf8135efeb16"}, {"is_disabled": 0, "is_reserved": 0, "fusion_lat": 0.0, "lat": 38.916577, "fusion_lon": 0.0, "rental_uris": {"ios": "https://dc.lft.to/lastmile_qr_scan", "android": "https://dc.lft.to/lastmile_qr_scan"}, "lon": -77.02297316666667, "bike_id": "35b0e0621471b858d352fe1fa955487c", "type": "electric_scooter", "name": "35b0e0621471b858d352fe1fa955487c"}, {"is_disabled": 0, "is_reserved": 0, "fusion_lat": 0.0, "lat": 38.955876, "fusion_lon": 0.0, "rental_uris": {"ios": "https://dc.lft.to/lastmile_qr_scan", "android": "https://dc.lft.to/lastmile_qr_scan"}, "lon": -77.017854, "bike_id": "fde0eb5e43bca1c0d283294c35499299", "type": "electric_scooter", "name": "fde0eb5e43bca1c0d283294c35499299"}, {"is_disabled": 0, "is_reserved": 0, "fusion_lat": 0.0, "lat": 39.02646, "fusion_lon": 0.0, "rental_uris": {"ios": "https://dc.lft.to/lastmile_qr_scan", "android": "https://dc.lft.to/lastmile_qr_scan"}, "lon": -77.03685916666667, "bike_id": "2460344f94e58dd115c5b5b0404b906e", "type": "electric_bike", "name": "2460344f94e58dd115c5b5b0404b906e"}, {"is_disabled": 0, "is_reserved": 0, "fusion_lat": 0.0, "lat": 38.92197866666667, "fusion_lon": 0.0, "rental_uris": {"ios": "https://dc.lft.to/lastmile_qr_scan", "android": "https://dc.lft.to/lastmile_qr_scan"}, "lon": -77.02043633333334, "bike_id": "8ebe15bf436f628f6e1addc8f28dfa4f", "type": "electric_scooter", "name": "8ebe15bf436f628f6e1addc8f28dfa4f"}, {"is_disabled": 0, "is_reserved": 0, "fusion_lat": 0.0, "lat": 38.9205245, "fusion_lon": 0.0, "rental_uris": {"ios": "https://dc.lft.to/lastmile_qr_scan", "android": "https://dc.lft.to/lastmile_qr_scan"}, "lon": -77.03116533333333, "bike_id": "e4644c0c10ba978620133a992f3caa78", "type": "electric_scooter", "name": "e4644c0c10ba978620133a992f3caa78"}, {"is_disabled": 0, "is_reserved": 0, "fusion_lat": 0.0, "lat": 38.9011715, "fusion_lon": 0.0, "rental_uris": {"ios": "https://dc.lft.to/lastmile_qr_scan", "android": "https://dc.lft.to/lastmile_qr_scan"}, "lon": -76.98117333333333, "bike_id": "9a45862fc91987806face4831e805506", "type": "electric_scooter", "name": "9a45862fc91987806face4831e805506"}, {"is_disabled": 0, "is_reserved": 0, "fusion_lat": 0.0, "lat": 38.8969655, "fusion_lon": 0.0, "rental_uris": {"ios": "https://dc.lft.to/lastmile_qr_scan", "android": "https://dc.lft.to/lastmile_qr_scan"}, "lon": -77.0241165, "bike_id": "721acdf1c83a4c4cf3d9b1572a0eec26", "type": "electric_bike", "name": "721acdf1c83a4c4cf3d9b1572a0eec26"}, {"is_disabled": 0, "is_reserved": 0, "fusion_lat": 0.0, "lat": 38.9014125, "fusion_lon": 0.0, "rental_uris": {"ios": "https://dc.lft.to/lastmile_qr_scan", "android": "https://dc.lft.to/lastmile_qr_scan"}, "lon": -76.9740535, "bike_id": "8eb938a51b75ed28487c556514db4869", "type": "electric_scooter", "name": "8eb938a51b75ed28487c556514db4869"}, {"is_disabled": 0, "is_reserved": 0, "fusion_lat": 0.0, "lat": 38.91406966666667, "fusion_lon": 0.0, "rental_uris": {"ios": "https://dc.lft.to/lastmile_qr_scan", "android": "https://dc.lft.to/lastmile_qr_scan"}, "lon": -77.05211216666666, "bike_id": "b1cef4787d7c08f95803209f3c37b2d8", "type": "electric_scooter", "name": "b1cef4787d7c08f95803209f3c37b2d8"}, {"is_disabled": 0, "is_reserved": 0, "fusion_lat": 0.0, "lat": 38.886224, "fusion_lon": 0.0, "rental_uris": {"ios": "https://dc.lft.to/lastmile_qr_scan", "android": "https://dc.lft.to/lastmile_qr_scan"}, "lon": -76.92628866666666, "bike_id": "309d288fc6d89c6edb2930507e7a3002", "type": "electric_scooter", "name": "309d288fc6d89c6edb2930507e7a3002"}, {"is_disabled": 0, "is_reserved": 0, "fusion_lat": 0.0, "lat": 38.943303, "fusion_lon": 0.0, "rental_uris": {"ios": "https://dc.lft.to/lastmile_qr_scan", "android": "https://dc.lft.to/lastmile_qr_scan"}, "lon": -77.02692616666667, "bike_id": "7e5d48e62f68c8da1ed46354cec2b30c", "type": "electric_scooter", "name": "7e5d48e62f68c8da1ed46354cec2b30c"}, {"is_disabled": 0, "is_reserved": 0, "fusion_lat": 0.0, "lat": 38.865434666666665, "fusion_lon": 0.0, "rental_uris": {"ios": "https://dc.lft.to/lastmile_qr_scan", "android": "https://dc.lft.to/lastmile_qr_scan"}, "lon": -76.97482966666666, "bike_id": "2a4c01a629ad8fc5aa07b688e85efafe", "type": "electric_bike", "name": "2a4c01a629ad8fc5aa07b688e85efafe"}, {"is_disabled": 0, "is_reserved": 0, "fusion_lat": 0.0, "lat": 38.92947083333333, "fusion_lon": 0.0, "rental_uris": {"ios": "https://dc.lft.to/lastmile_qr_scan", "android": "https://dc.lft.to/lastmile_qr_scan"}, "lon": -77.05516316666667, "bike_id": "88f8a3d3504893bfd51a752bed5b89aa", "type": "electric_scooter", "name": "88f8a3d3504893bfd51a752bed5b89aa"}, {"is_disabled": 0, "is_reserved": 0, "fusion_lat": 0.0, "lat": 38.856377, "fusion_lon": 0.0, "rental_uris": {"ios": "https://dc.lft.to/lastmile_qr_scan", "android": "https://dc.lft.to/lastmile_qr_scan"}, "lon": -77.06832733333333, "bike_id": "7fc730505a2f2a481efaa959303a3050", "type": "electric_bike", "name": "7fc730505a2f2a481efaa959303a3050"}, {"is_disabled": 0, "is_reserved": 0, "fusion_lat": 0.0, "lat": 38.88218666666667, "fusion_lon": 0.0, "rental_uris": {"ios": "https://dc.lft.to/lastmile_qr_scan", "android": "https://dc.lft.to/lastmile_qr_scan"}, "lon": -76.9974045, "bike_id": "14e3b40f5ae716a3ebac96d833220897", "type": "electric_scooter", "name": "14e3b40f5ae716a3ebac96d833220897"}, {"is_disabled": 0, "is_reserved": 0, "fusion_lat": 0.0, "lat": 38.946001, "fusion_lon": 0.0, "rental_uris": {"ios": "https://dc.lft.to/lastmile_qr_scan", "android": "https://dc.lft.to/lastmile_qr_scan"}, "lon": -77.02669333333333, "bike_id": "74e952f043ce929368587754f833ca30", "type": "electric_scooter", "name": "74e952f043ce929368587754f833ca30"}, {"is_disabled": 0, "is_reserved": 0, "fusion_lat": 0.0, "lat": 38.898852833333336, "fusion_lon": 0.0, "rental_uris": {"ios": "https://dc.lft.to/lastmile_qr_scan", "android": "https://dc.lft.to/lastmile_qr_scan"}, "lon": -77.02160983333333, "bike_id": "e57f15ca33a6ba6b728a901ea03f46de", "type": "electric_scooter", "name": "e57f15ca33a6ba6b728a901ea03f46de"}, {"is_disabled": 0, "is_reserved": 0, "fusion_lat": 0.0, "lat": 38.87610566666667, "fusion_lon": 0.0, "rental_uris": {"ios": "https://dc.lft.to/lastmile_qr_scan", "android": "https://dc.lft.to/lastmile_qr_scan"}, "lon": -77.00573183333333, "bike_id": "3b08fc55961f6add3a72c22ea34fb035", "type": "electric_scooter", "name": "3b08fc55961f6add3a72c22ea34fb035"}, {"is_disabled": 0, "is_reserved": 0, "fusion_lat": 0.0, "lat": 38.8243015, "fusion_lon": 0.0, "rental_uris": {"ios": "https://dc.lft.to/lastmile_qr_scan", "android": "https://dc.lft.to/lastmile_qr_scan"}, "lon": -77.12041783333333, "bike_id": "0fd213bd0e2693f8e65ea4e6142d9f44", "type": "electric_bike", "name": "0fd213bd0e2693f8e65ea4e6142d9f44"}, {"is_disabled": 0, "is_reserved": 0, "fusion_lat": 0.0, "lat": 38.915582, "fusion_lon": 0.0, "rental_uris": {"ios": "https://dc.lft.to/lastmile_qr_scan", "android": "https://dc.lft.to/lastmile_qr_scan"}, "lon": -77.051, "bike_id": "23f3f92989052322809bac999e6ba482", "type": "electric_scooter", "name": "23f3f92989052322809bac999e6ba482"}, {"is_disabled": 0, "is_reserved": 0, "fusion_lat": 0.0, "lat": 38.916092666666664, "fusion_lon": 0.0, "rental_uris": {"ios": "https://dc.lft.to/lastmile_qr_scan", "android": "https://dc.lft.to/lastmile_qr_scan"}, "lon": -77.0435275, "bike_id": "8e5fbe7458349d02a061c68678eaec1b", "type": "electric_scooter", "name": "8e5fbe7458349d02a061c68678eaec1b"}, {"is_disabled": 0, "is_reserved": 0, "fusion_lat": 0.0, "lat": 38.846727666666666, "fusion_lon": 0.0, "rental_uris": {"ios": "https://dc.lft.to/lastmile_qr_scan", "android": "https://dc.lft.to/lastmile_qr_scan"}, "lon": -77.1393065, "bike_id": "002f38e75b395c41ad3e87da02d2b052", "type": "electric_bike", "name": "002f38e75b395c41ad3e87da02d2b052"}, {"is_disabled": 0, "is_reserved": 0, "fusion_lat": 0.0, "lat": 38.917060166666666, "fusion_lon": 0.0, "rental_uris": {"ios": "https://dc.lft.to/lastmile_qr_scan", "android": "https://dc.lft.to/lastmile_qr_scan"}, "lon": -77.038628, "bike_id": "4e553207fe48783e693745e4801b2138", "type": "electric_scooter", "name": "4e553207fe48783e693745e4801b2138"}, {"is_disabled": 0, "is_reserved": 0, "fusion_lat": 0.0, "lat": 38.879497666666666, "fusion_lon": 0.0, "rental_uris": {"ios": "https://dc.lft.to/lastmile_qr_scan", "android": "https://dc.lft.to/lastmile_qr_scan"}, "lon": -77.00501016666666, "bike_id": "2c10b0c43d724a66c782a341083dc49f", "type": "electric_scooter", "name": "2c10b0c43d724a66c782a341083dc49f"}, {"is_disabled": 0, "is_reserved": 0, "fusion_lat": 0.0, "lat": 38.92557083333333, "fusion_lon": 0.0, "rental_uris": {"ios": "https://dc.lft.to/lastmile_qr_scan", "android": "https://dc.lft.to/lastmile_qr_scan"}, "lon": -77.03770133333333, "bike_id": "1925712129f9ca7bb4598fd54bd616ce", "type": "electric_scooter", "name": "1925712129f9ca7bb4598fd54bd616ce"}, {"is_disabled": 0, "is_reserved": 0, "fusion_lat": 0.0, "lat": 38.92867666666667, "fusion_lon": 0.0, "rental_uris": {"ios": "https://dc.lft.to/lastmile_qr_scan", "android": "https://dc.lft.to/lastmile_qr_scan"}, "lon": -77.07891016666666, "bike_id": "30793fadbdc34f6c508d6d2175900f41", "type": "electric_scooter", "name": "30793fadbdc34f6c508d6d2175900f41"}, {"is_disabled": 0, "is_reserved": 0, "fusion_lat": 0.0, "lat": 38.863671, "fusion_lon": 0.0, "rental_uris": {"ios": "https://dc.lft.to/lastmile_qr_scan", "android": "https://dc.lft.to/lastmile_qr_scan"}, "lon": -76.97008216666667, "bike_id": "af5c4a7798a5e92108a40e8ba7ebba93", "type": "electric_bike", "name": "af5c4a7798a5e92108a40e8ba7ebba93"}, {"is_disabled": 0, "is_reserved": 0, "fusion_lat": 0.0, "lat": 38.89243316666666, "fusion_lon": 0.0, "rental_uris": {"ios": "https://dc.lft.to/lastmile_qr_scan", "android": "https://dc.lft.to/lastmile_qr_scan"}, "lon": -77.03957966666667, "bike_id": "bd145311e50513358d2e3d6b7564c0a2", "type": "electric_scooter", "name": "bd145311e50513358d2e3d6b7564c0a2"}, {"is_disabled": 0, "is_reserved": 0, "fusion_lat": 0.0, "lat": 38.87651483333333, "fusion_lon": 0.0, "rental_uris": {"ios": "https://dc.lft.to/lastmile_qr_scan", "android": "https://dc.lft.to/lastmile_qr_scan"}, "lon": -77.0090355, "bike_id": "67cdc59b231685d0448100f2d80b47c2", "type": "electric_scooter", "name": "67cdc59b231685d0448100f2d80b47c2"}, {"is_disabled": 0, "is_reserved": 0, "fusion_lat": 0.0, "lat": 38.9063145, "fusion_lon": 0.0, "rental_uris": {"ios": "https://dc.lft.to/lastmile_qr_scan", "android": "https://dc.lft.to/lastmile_qr_scan"}, "lon": -77.02967516666666, "bike_id": "bfeb5ad45935e804441b39f61942d0ea", "type": "electric_scooter", "name": "bfeb5ad45935e804441b39f61942d0ea"}, {"is_disabled": 0, "is_reserved": 0, "fusion_lat": 0.0, "lat": 38.88359916666667, "fusion_lon": 0.0, "rental_uris": {"ios": "https://dc.lft.to/lastmile_qr_scan", "android": "https://dc.lft.to/lastmile_qr_scan"}, "lon": -76.92791066666666, "bike_id": "4d5d959c5f686682a1979a43bfb19ad6", "type": "electric_scooter", "name": "4d5d959c5f686682a1979a43bfb19ad6"}, {"is_disabled": 0, "is_reserved": 0, "fusion_lat": 0.0, "lat": 38.901951, "fusion_lon": 0.0, "rental_uris": {"ios": "https://dc.lft.to/lastmile_qr_scan", "android": "https://dc.lft.to/lastmile_qr_scan"}, "lon": -77.02528833333334, "bike_id": "819c8e3c50bcc7d899b882749ddbb06a", "type": "electric_scooter", "name": "819c8e3c50bcc7d899b882749ddbb06a"}, {"is_disabled": 0, "is_reserved": 0, "fusion_lat": 0.0, "lat": 38.902630333333335, "fusion_lon": 0.0, "rental_uris": {"ios": "https://dc.lft.to/lastmile_qr_scan", "android": "https://dc.lft.to/lastmile_qr_scan"}, "lon": -76.92850066666666, "bike_id": "172dcd935e7fe5d50982c723239063b6", "type": "electric_scooter", "name": "172dcd935e7fe5d50982c723239063b6"}, {"is_disabled": 0, "is_reserved": 0, "fusion_lat": 0.0, "lat": 38.90051283333333, "fusion_lon": 0.0, "rental_uris": {"ios": "https://dc.lft.to/lastmile_qr_scan", "android": "https://dc.lft.to/lastmile_qr_scan"}, "lon": -77.05090466666667, "bike_id": "878ae960ef97d4145ffd4ba2433b6c5b", "type": "electric_scooter", "name": "878ae960ef97d4145ffd4ba2433b6c5b"}, {"is_disabled": 0, "is_reserved": 0, "fusion_lat": 0.0, "lat": 38.92311816666667, "fusion_lon": 0.0, "rental_uris": {"ios": "https://dc.lft.to/lastmile_qr_scan", "android": "https://dc.lft.to/lastmile_qr_scan"}, "lon": -77.03803766666667, "bike_id": "97eb6bf8da95d4c8ebbfc2df5eebc947", "type": "electric_scooter", "name": "97eb6bf8da95d4c8ebbfc2df5eebc947"}, {"is_disabled": 0, "is_reserved": 0, "fusion_lat": 0.0, "lat": 38.91731516666667, "fusion_lon": 0.0, "rental_uris": {"ios": "https://dc.lft.to/lastmile_qr_scan", "android": "https://dc.lft.to/lastmile_qr_scan"}, "lon": -77.02597733333333, "bike_id": "83f6035b2754280537d2fb9822dedac4", "type": "electric_scooter", "name": "83f6035b2754280537d2fb9822dedac4"}, {"is_disabled": 0, "is_reserved": 0, "fusion_lat": 0.0, "lat": 38.87625633333333, "fusion_lon": 0.0, "rental_uris": {"ios": "https://dc.lft.to/lastmile_qr_scan", "android": "https://dc.lft.to/lastmile_qr_scan"}, "lon": -77.016088, "bike_id": "d1a4acfda9f6203163cbeb43e20065e1", "type": "electric_scooter", "name": "d1a4acfda9f6203163cbeb43e20065e1"}, {"is_disabled": 0, "is_reserved": 0, "fusion_lat": 0.0, "lat": 38.91265766666667, "fusion_lon": 0.0, "rental_uris": {"ios": "https://dc.lft.to/lastmile_qr_scan", "android": "https://dc.lft.to/lastmile_qr_scan"}, "lon": -77.047161, "bike_id": "ff0339bcd0843a9c8fadabc01ac935da", "type": "electric_scooter", "name": "ff0339bcd0843a9c8fadabc01ac935da"}, {"is_disabled": 0, "is_reserved": 0, "fusion_lat": 0.0, "lat": 38.8688785, "fusion_lon": 0.0, "rental_uris": {"ios": "https://dc.lft.to/lastmile_qr_scan", "android": "https://dc.lft.to/lastmile_qr_scan"}, "lon": -76.9900225, "bike_id": "94a89931eacfbe709d4f9a94822fb82f", "type": "electric_scooter", "name": "94a89931eacfbe709d4f9a94822fb82f"}, {"is_disabled": 0, "is_reserved": 0, "fusion_lat": 0.0, "lat": 38.896072333333336, "fusion_lon": 0.0, "rental_uris": {"ios": "https://dc.lft.to/lastmile_qr_scan", "android": "https://dc.lft.to/lastmile_qr_scan"}, "lon": -76.9831435, "bike_id": "0946739342c0c04b8b92cede14445e93", "type": "electric_scooter", "name": "0946739342c0c04b8b92cede14445e93"}, {"is_disabled": 0, "is_reserved": 0, "fusion_lat": 0.0, "lat": 38.896691, "fusion_lon": 0.0, "rental_uris": {"ios": "https://dc.lft.to/lastmile_qr_scan", "android": "https://dc.lft.to/lastmile_qr_scan"}, "lon": -76.94909933333334, "bike_id": "7e75903cf5f4a9ef2fd111d56503b283", "type": "electric_scooter", "name": "7e75903cf5f4a9ef2fd111d56503b283"}, {"is_disabled": 0, "is_reserved": 0, "fusion_lat": 0.0, "lat": 38.903615, "fusion_lon": 0.0, "rental_uris": {"ios": "https://dc.lft.to/lastmile_qr_scan", "android": "https://dc.lft.to/lastmile_qr_scan"}, "lon": -77.01654883333333, "bike_id": "7980636bb6df828f757e924db28bbd70", "type": "electric_scooter", "name": "7980636bb6df828f757e924db28bbd70"}, {"is_disabled": 0, "is_reserved": 0, "fusion_lat": 0.0, "lat": 38.903601, "fusion_lon": 0.0, "rental_uris": {"ios": "https://dc.lft.to/lastmile_qr_scan", "android": "https://dc.lft.to/lastmile_qr_scan"}, "lon": -77.00346, "bike_id": "a330430f174c7cc08fe5cb41c76c6d26", "type": "electric_scooter", "name": "a330430f174c7cc08fe5cb41c76c6d26"}, {"is_disabled": 0, "is_reserved": 0, "fusion_lat": 0.0, "lat": 38.911719833333336, "fusion_lon": 0.0, "rental_uris": {"ios": "https://dc.lft.to/lastmile_qr_scan", "android": "https://dc.lft.to/lastmile_qr_scan"}, "lon": -77.00450366666666, "bike_id": "79ff7c647d40d4b2160528ff716242ec", "type": "electric_scooter", "name": "79ff7c647d40d4b2160528ff716242ec"}, {"is_disabled": 0, "is_reserved": 0, "fusion_lat": 0.0, "lat": 38.91795233333333, "fusion_lon": 0.0, "rental_uris": {"ios": "https://dc.lft.to/lastmile_qr_scan", "android": "https://dc.lft.to/lastmile_qr_scan"}, "lon": -77.03442216666667, "bike_id": "5ff2d76cc843e796a6a02721b3e00df5", "type": "electric_scooter", "name": "5ff2d76cc843e796a6a02721b3e00df5"}, {"is_disabled": 0, "is_reserved": 0, "fusion_lat": 0.0, "lat": 38.93403883333333, "fusion_lon": 0.0, "rental_uris": {"ios": "https://dc.lft.to/lastmile_qr_scan", "android": "https://dc.lft.to/lastmile_qr_scan"}, "lon": -77.035188, "bike_id": "847236da99a67a3661951797d917f3e9", "type": "electric_scooter", "name": "847236da99a67a3661951797d917f3e9"}, {"is_disabled": 0, "is_reserved": 0, "fusion_lat": 0.0, "lat": 38.915707833333336, "fusion_lon": 0.0, "rental_uris": {"ios": "https://dc.lft.to/lastmile_qr_scan", "android": "https://dc.lft.to/lastmile_qr_scan"}, "lon": -77.03643716666667, "bike_id": "b98ca93a9169a22dd68a92f1b060893d", "type": "electric_scooter", "name": "b98ca93a9169a22dd68a92f1b060893d"}, {"is_disabled": 0, "is_reserved": 0, "fusion_lat": 0.0, "lat": 38.918372833333336, "fusion_lon": 0.0, "rental_uris": {"ios": "https://dc.lft.to/lastmile_qr_scan", "android": "https://dc.lft.to/lastmile_qr_scan"}, "lon": -77.02307516666667, "bike_id": "71869df327d588da2022036adbc5f86c", "type": "electric_scooter", "name": "71869df327d588da2022036adbc5f86c"}, {"is_disabled": 0, "is_reserved": 0, "fusion_lat": 0.0, "lat": 38.9055375, "fusion_lon": 0.0, "rental_uris": {"ios": "https://dc.lft.to/lastmile_qr_scan", "android": "https://dc.lft.to/lastmile_qr_scan"}, "lon": -77.0260085, "bike_id": "63faf805e38870547f839048636309ab", "type": "electric_scooter", "name": "63faf805e38870547f839048636309ab"}, {"is_disabled": 0, "is_reserved": 0, "fusion_lat": 0.0, "lat": 38.90055533333334, "fusion_lon": 0.0, "rental_uris": {"ios": "https://dc.lft.to/lastmile_qr_scan", "android": "https://dc.lft.to/lastmile_qr_scan"}, "lon": -77.049971, "bike_id": "9fcce8948d8323044e00fbc02ebc2d59", "type": "electric_scooter", "name": "9fcce8948d8323044e00fbc02ebc2d59"}, {"is_disabled": 0, "is_reserved": 0, "fusion_lat": 0.0, "lat": 38.93397366666667, "fusion_lon": 0.0, "rental_uris": {"ios": "https://dc.lft.to/lastmile_qr_scan", "android": "https://dc.lft.to/lastmile_qr_scan"}, "lon": -77.026224, "bike_id": "981bef66f06edcdce4ef4ec38fe5f62f", "type": "electric_scooter", "name": "981bef66f06edcdce4ef4ec38fe5f62f"}, {"is_disabled": 0, "is_reserved": 0, "fusion_lat": 0.0, "lat": 38.9045605, "fusion_lon": 0.0, "rental_uris": {"ios": "https://dc.lft.to/lastmile_qr_scan", "android": "https://dc.lft.to/lastmile_qr_scan"}, "lon": -76.93276666666667, "bike_id": "31b23f928beb59b6129fa60e4a29c3ec", "type": "electric_scooter", "name": "31b23f928beb59b6129fa60e4a29c3ec"}, {"is_disabled": 0, "is_reserved": 0, "fusion_lat": 0.0, "lat": 38.90669616666667, "fusion_lon": 0.0, "rental_uris": {"ios": "https://dc.lft.to/lastmile_qr_scan", "android": "https://dc.lft.to/lastmile_qr_scan"}, "lon": -77.03439466666667, "bike_id": "8b8c592555223bb234a49a639ea9ae38", "type": "electric_scooter", "name": "8b8c592555223bb234a49a639ea9ae38"}, {"is_disabled": 0, "is_reserved": 0, "fusion_lat": 0.0, "lat": 38.921983166666664, "fusion_lon": 0.0, "rental_uris": {"ios": "https://dc.lft.to/lastmile_qr_scan", "android": "https://dc.lft.to/lastmile_qr_scan"}, "lon": -77.0183665, "bike_id": "698e65135335a12866e81fe8e40e57e4", "type": "electric_scooter", "name": "698e65135335a12866e81fe8e40e57e4"}, {"is_disabled": 0, "is_reserved": 0, "fusion_lat": 0.0, "lat": 38.93979866666667, "fusion_lon": 0.0, "rental_uris": {"ios": "https://dc.lft.to/lastmile_qr_scan", "android": "https://dc.lft.to/lastmile_qr_scan"}, "lon": -77.028992, "bike_id": "84ff69dc6fff1fee768b40a9666a144b", "type": "electric_scooter", "name": "84ff69dc6fff1fee768b40a9666a144b"}, {"is_disabled": 0, "is_reserved": 0, "fusion_lat": 0.0, "lat": 38.900344, "fusion_lon": 0.0, "rental_uris": {"ios": "https://dc.lft.to/lastmile_qr_scan", "android": "https://dc.lft.to/lastmile_qr_scan"}, "lon": -77.03385366666667, "bike_id": "c79fd1f1948298acb71851cf39903e67", "type": "electric_scooter", "name": "c79fd1f1948298acb71851cf39903e67"}, {"is_disabled": 0, "is_reserved": 0, "fusion_lat": 0.0, "lat": 38.919199666666664, "fusion_lon": 0.0, "rental_uris": {"ios": "https://dc.lft.to/lastmile_qr_scan", "android": "https://dc.lft.to/lastmile_qr_scan"}, "lon": -77.03311983333333, "bike_id": "a22c726f08020ff26715ff21532fcc14", "type": "electric_scooter", "name": "a22c726f08020ff26715ff21532fcc14"}, {"is_disabled": 0, "is_reserved": 0, "fusion_lat": 0.0, "lat": 38.89989933333333, "fusion_lon": 0.0, "rental_uris": {"ios": "https://dc.lft.to/lastmile_qr_scan", "android": "https://dc.lft.to/lastmile_qr_scan"}, "lon": -77.01169516666667, "bike_id": "b50d0fea6f83193c1effbb134feb7b78", "type": "electric_scooter", "name": "b50d0fea6f83193c1effbb134feb7b78"}, {"is_disabled": 0, "is_reserved": 0, "fusion_lat": 0.0, "lat": 38.90729733333333, "fusion_lon": 0.0, "rental_uris": {"ios": "https://dc.lft.to/lastmile_qr_scan", "android": "https://dc.lft.to/lastmile_qr_scan"}, "lon": -77.025428, "bike_id": "34f9d50f5a23e063edfb0dc11035b02c", "type": "electric_scooter", "name": "34f9d50f5a23e063edfb0dc11035b02c"}, {"is_disabled": 0, "is_reserved": 0, "fusion_lat": 0.0, "lat": 38.90198516666667, "fusion_lon": 0.0, "rental_uris": {"ios": "https://dc.lft.to/lastmile_qr_scan", "android": "https://dc.lft.to/lastmile_qr_scan"}, "lon": -77.04878166666667, "bike_id": "fd919532563c8720082bd0991c2668cc", "type": "electric_scooter", "name": "fd919532563c8720082bd0991c2668cc"}, {"is_disabled": 0, "is_reserved": 0, "fusion_lat": 0.0, "lat": 38.80737416666667, "fusion_lon": 0.0, "rental_uris": {"ios": "https://dc.lft.to/lastmile_qr_scan", "android": "https://dc.lft.to/lastmile_qr_scan"}, "lon": -77.09683566666666, "bike_id": "c48a2ab9194299524dec20aa90132c3e", "type": "electric_bike", "name": "c48a2ab9194299524dec20aa90132c3e"}, {"is_disabled": 0, "is_reserved": 0, "fusion_lat": 0.0, "lat": 39.00006283333333, "fusion_lon": 0.0, "rental_uris": {"ios": "https://dc.lft.to/lastmile_qr_scan", "android": "https://dc.lft.to/lastmile_qr_scan"}, "lon": -76.91809666666667, "bike_id": "cc4e45fc29e9b72bb25a7e9d95d07e3a", "type": "electric_bike", "name": "cc4e45fc29e9b72bb25a7e9d95d07e3a"}, {"is_disabled": 0, "is_reserved": 0, "fusion_lat": 0.0, "lat": 38.932701333333334, "fusion_lon": 0.0, "rental_uris": {"ios": "https://dc.lft.to/lastmile_qr_scan", "android": "https://dc.lft.to/lastmile_qr_scan"}, "lon": -77.0348385, "bike_id": "de0f8415eb46dc13076441acea219677", "type": "electric_scooter", "name": "de0f8415eb46dc13076441acea219677"}, {"is_disabled": 0, "is_reserved": 0, "fusion_lat": 0.0, "lat": 38.93694166666667, "fusion_lon": 0.0, "rental_uris": {"ios": "https://dc.lft.to/lastmile_qr_scan", "android": "https://dc.lft.to/lastmile_qr_scan"}, "lon": -77.05601766666666, "bike_id": "74132101be55dc1ac839117cb06f2ea8", "type": "electric_scooter", "name": "74132101be55dc1ac839117cb06f2ea8"}, {"is_disabled": 0, "is_reserved": 0, "fusion_lat": 0.0, "lat": 38.89359733333333, "fusion_lon": 0.0, "rental_uris": {"ios": "https://dc.lft.to/lastmile_qr_scan", "android": "https://dc.lft.to/lastmile_qr_scan"}, "lon": -76.94106683333334, "bike_id": "95c1c8f98fdd447c1bda0b6fe7766f2e", "type": "electric_scooter", "name": "95c1c8f98fdd447c1bda0b6fe7766f2e"}, {"is_disabled": 0, "is_reserved": 0, "fusion_lat": 0.0, "lat": 38.93103383333333, "fusion_lon": 0.0, "rental_uris": {"ios": "https://dc.lft.to/lastmile_qr_scan", "android": "https://dc.lft.to/lastmile_qr_scan"}, "lon": -77.02660366666667, "bike_id": "48c529451ed1fefa98c14713c5b0e248", "type": "electric_scooter", "name": "48c529451ed1fefa98c14713c5b0e248"}, {"is_disabled": 0, "is_reserved": 0, "fusion_lat": 0.0, "lat": 38.896833666666666, "fusion_lon": 0.0, "rental_uris": {"ios": "https://dc.lft.to/lastmile_qr_scan", "android": "https://dc.lft.to/lastmile_qr_scan"}, "lon": -77.04909133333334, "bike_id": "36615a7c42eb35bf4c3160540d591706", "type": "electric_scooter", "name": "36615a7c42eb35bf4c3160540d591706"}, {"is_disabled": 0, "is_reserved": 0, "fusion_lat": 0.0, "lat": 38.965333333333334, "fusion_lon": 0.0, "rental_uris": {"ios": "https://dc.lft.to/lastmile_qr_scan", "android": "https://dc.lft.to/lastmile_qr_scan"}, "lon": -77.03415633333333, "bike_id": "d8fc4ad883f28c9080c4d384b0a1fb55", "type": "electric_bike", "name": "d8fc4ad883f28c9080c4d384b0a1fb55"}, {"is_disabled": 0, "is_reserved": 0, "fusion_lat": 0.0, "lat": 38.8666675, "fusion_lon": 0.0, "rental_uris": {"ios": "https://dc.lft.to/lastmile_qr_scan", "android": "https://dc.lft.to/lastmile_qr_scan"}, "lon": -77.010285, "bike_id": "137626ea57fa1ca7bb0fd869a8d403e3", "type": "electric_scooter", "name": "137626ea57fa1ca7bb0fd869a8d403e3"}, {"is_disabled": 0, "is_reserved": 0, "fusion_lat": 0.0, "lat": 38.87173216666667, "fusion_lon": 0.0, "rental_uris": {"ios": "https://dc.lft.to/lastmile_qr_scan", "android": "https://dc.lft.to/lastmile_qr_scan"}, "lon": -77.23391316666667, "bike_id": "b8473840a3c184341176d1135040e6cc", "type": "electric_bike", "name": "b8473840a3c184341176d1135040e6cc"}, {"is_disabled": 0, "is_reserved": 0, "fusion_lat": 0.0, "lat": 38.885298666666664, "fusion_lon": 0.0, "rental_uris": {"ios": "https://dc.lft.to/lastmile_qr_scan", "android": "https://dc.lft.to/lastmile_qr_scan"}, "lon": -76.99802016666666, "bike_id": "b96a52ab07f3aea5fc63b6572c6238e1", "type": "electric_scooter", "name": "b96a52ab07f3aea5fc63b6572c6238e1"}, {"is_disabled": 0, "is_reserved": 0, "fusion_lat": 0.0, "lat": 38.944466, "fusion_lon": 0.0, "rental_uris": {"ios": "https://dc.lft.to/lastmile_qr_scan", "android": "https://dc.lft.to/lastmile_qr_scan"}, "lon": -77.03281416666667, "bike_id": "1e293af33b852c1b73949f673022aa84", "type": "electric_scooter", "name": "1e293af33b852c1b73949f673022aa84"}, {"is_disabled": 0, "is_reserved": 0, "fusion_lat": 0.0, "lat": 38.90648433333333, "fusion_lon": 0.0, "rental_uris": {"ios": "https://dc.lft.to/lastmile_qr_scan", "android": "https://dc.lft.to/lastmile_qr_scan"}, "lon": -76.97944566666666, "bike_id": "ec39919341318e47d9e277b31364a370", "type": "electric_scooter", "name": "ec39919341318e47d9e277b31364a370"}, {"is_disabled": 0, "is_reserved": 0, "fusion_lat": 0.0, "lat": 38.89722183333333, "fusion_lon": 0.0, "rental_uris": {"ios": "https://dc.lft.to/lastmile_qr_scan", "android": "https://dc.lft.to/lastmile_qr_scan"}, "lon": -77.02377083333333, "bike_id": "fe77e28ef0ce2bc4cbbaa16ff8512b4f", "type": "electric_scooter", "name": "fe77e28ef0ce2bc4cbbaa16ff8512b4f"}, {"is_disabled": 0, "is_reserved": 0, "fusion_lat": 0.0, "lat": 38.90396166666667, "fusion_lon": 0.0, "rental_uris": {"ios": "https://dc.lft.to/lastmile_qr_scan", "android": "https://dc.lft.to/lastmile_qr_scan"}, "lon": -77.06298283333334, "bike_id": "a9fc5630ac39e7c285958aa5e3fd6f00", "type": "electric_scooter", "name": "a9fc5630ac39e7c285958aa5e3fd6f00"}, {"is_disabled": 0, "is_reserved": 0, "fusion_lat": 0.0, "lat": 38.91601166666667, "fusion_lon": 0.0, "rental_uris": {"ios": "https://dc.lft.to/lastmile_qr_scan", "android": "https://dc.lft.to/lastmile_qr_scan"}, "lon": -77.02284383333334, "bike_id": "c344a9d6001af4df2308886daf2800d9", "type": "electric_scooter", "name": "c344a9d6001af4df2308886daf2800d9"}, {"is_disabled": 0, "is_reserved": 0, "fusion_lat": 0.0, "lat": 38.909647666666665, "fusion_lon": 0.0, "rental_uris": {"ios": "https://dc.lft.to/lastmile_qr_scan", "android": "https://dc.lft.to/lastmile_qr_scan"}, "lon": -77.022831, "bike_id": "10821be63f8ec780168b56d578bf36ff", "type": "electric_bike", "name": "10821be63f8ec780168b56d578bf36ff"}, {"is_disabled": 0, "is_reserved": 0, "fusion_lat": 0.0, "lat": 38.928772, "fusion_lon": 0.0, "rental_uris": {"ios": "https://dc.lft.to/lastmile_qr_scan", "android": "https://dc.lft.to/lastmile_qr_scan"}, "lon": -77.03998733333333, "bike_id": "4b2d41330409ea26f6347d19d31322e5", "type": "electric_scooter", "name": "4b2d41330409ea26f6347d19d31322e5"}, {"is_disabled": 0, "is_reserved": 0, "fusion_lat": 0.0, "lat": 38.90506966666667, "fusion_lon": 0.0, "rental_uris": {"ios": "https://dc.lft.to/lastmile_qr_scan", "android": "https://dc.lft.to/lastmile_qr_scan"}, "lon": -77.009062, "bike_id": "bb47006ea1cc05855944b2149c6e856c", "type": "electric_scooter", "name": "bb47006ea1cc05855944b2149c6e856c"}, {"is_disabled": 0, "is_reserved": 0, "fusion_lat": 0.0, "lat": 38.9223755, "fusion_lon": 0.0, "rental_uris": {"ios": "https://dc.lft.to/lastmile_qr_scan", "android": "https://dc.lft.to/lastmile_qr_scan"}, "lon": -77.035258, "bike_id": "f4c27c87031b6cfdb35c0a6f36363a4d", "type": "electric_scooter", "name": "f4c27c87031b6cfdb35c0a6f36363a4d"}, {"is_disabled": 0, "is_reserved": 0, "fusion_lat": 0.0, "lat": 38.93364666666667, "fusion_lon": 0.0, "rental_uris": {"ios": "https://dc.lft.to/lastmile_qr_scan", "android": "https://dc.lft.to/lastmile_qr_scan"}, "lon": -77.028453, "bike_id": "3cb5329266e9c2ec58579bfc88e4fad2", "type": "electric_scooter", "name": "3cb5329266e9c2ec58579bfc88e4fad2"}, {"is_disabled": 0, "is_reserved": 0, "fusion_lat": 0.0, "lat": 38.904219, "fusion_lon": 0.0, "rental_uris": {"ios": "https://dc.lft.to/lastmile_qr_scan", "android": "https://dc.lft.to/lastmile_qr_scan"}, "lon": -77.06120933333334, "bike_id": "ac97061c9217c6c9046d6d547ceb8036", "type": "electric_scooter", "name": "ac97061c9217c6c9046d6d547ceb8036"}, {"is_disabled": 0, "is_reserved": 0, "fusion_lat": 0.0, "lat": 38.91956533333333, "fusion_lon": 0.0, "rental_uris": {"ios": "https://dc.lft.to/lastmile_qr_scan", "android": "https://dc.lft.to/lastmile_qr_scan"}, "lon": -77.02303983333333, "bike_id": "a6d9aec67e41382ba380b2ad07991b55", "type": "electric_scooter", "name": "a6d9aec67e41382ba380b2ad07991b55"}, {"is_disabled": 0, "is_reserved": 0, "fusion_lat": 0.0, "lat": 38.90813583333333, "fusion_lon": 0.0, "rental_uris": {"ios": "https://dc.lft.to/lastmile_qr_scan", "android": "https://dc.lft.to/lastmile_qr_scan"}, "lon": -77.02531966666666, "bike_id": "87ea50d940d7180bab98dedf7758e401", "type": "electric_scooter", "name": "87ea50d940d7180bab98dedf7758e401"}, {"is_disabled": 0, "is_reserved": 0, "fusion_lat": 0.0, "lat": 38.910548, "fusion_lon": 0.0, "rental_uris": {"ios": "https://dc.lft.to/lastmile_qr_scan", "android": "https://dc.lft.to/lastmile_qr_scan"}, "lon": -77.02305533333333, "bike_id": "0c42523d262a78bbba22039ce8172e35", "type": "electric_scooter", "name": "0c42523d262a78bbba22039ce8172e35"}, {"is_disabled": 0, "is_reserved": 0, "fusion_lat": 0.0, "lat": 38.93191933333333, "fusion_lon": 0.0, "rental_uris": {"ios": "https://dc.lft.to/lastmile_qr_scan", "android": "https://dc.lft.to/lastmile_qr_scan"}, "lon": -77.03446916666667, "bike_id": "3a97443ec936e59649e70fa6fbfdf7f7", "type": "electric_scooter", "name": "3a97443ec936e59649e70fa6fbfdf7f7"}, {"is_disabled": 0, "is_reserved": 0, "fusion_lat": 0.0, "lat": 38.921683, "fusion_lon": 0.0, "rental_uris": {"ios": "https://dc.lft.to/lastmile_qr_scan", "android": "https://dc.lft.to/lastmile_qr_scan"}, "lon": -77.032718, "bike_id": "de927b389ed2389ef70e5806050e63ff", "type": "electric_scooter", "name": "de927b389ed2389ef70e5806050e63ff"}, {"is_disabled": 0, "is_reserved": 0, "fusion_lat": 0.0, "lat": 38.91197116666667, "fusion_lon": 0.0, "rental_uris": {"ios": "https://dc.lft.to/lastmile_qr_scan", "android": "https://dc.lft.to/lastmile_qr_scan"}, "lon": -77.00176783333333, "bike_id": "cc678a6d3da160ff35434e5d861776e1", "type": "electric_scooter", "name": "cc678a6d3da160ff35434e5d861776e1"}, {"is_disabled": 0, "is_reserved": 0, "fusion_lat": 0.0, "lat": 38.92792766666667, "fusion_lon": 0.0, "rental_uris": {"ios": "https://dc.lft.to/lastmile_qr_scan", "android": "https://dc.lft.to/lastmile_qr_scan"}, "lon": -77.0272085, "bike_id": "a82b30ff9ea325d917b0fa64586e83ec", "type": "electric_bike", "name": "a82b30ff9ea325d917b0fa64586e83ec"}, {"is_disabled": 0, "is_reserved": 0, "fusion_lat": 0.0, "lat": 38.928115, "fusion_lon": 0.0, "rental_uris": {"ios": "https://dc.lft.to/lastmile_qr_scan", "android": "https://dc.lft.to/lastmile_qr_scan"}, "lon": -77.04353883333333, "bike_id": "ac9752894a3dbc82f0bcb71b77bc44a6", "type": "electric_scooter", "name": "ac9752894a3dbc82f0bcb71b77bc44a6"}, {"is_disabled": 0, "is_reserved": 0, "fusion_lat": 0.0, "lat": 38.891104166666665, "fusion_lon": 0.0, "rental_uris": {"ios": "https://dc.lft.to/lastmile_qr_scan", "android": "https://dc.lft.to/lastmile_qr_scan"}, "lon": -77.01439533333334, "bike_id": "a2eb942c83c47eb9d49d3f47d2f126b4", "type": "electric_scooter", "name": "a2eb942c83c47eb9d49d3f47d2f126b4"}, {"is_disabled": 0, "is_reserved": 0, "fusion_lat": 0.0, "lat": 38.902453666666666, "fusion_lon": 0.0, "rental_uris": {"ios": "https://dc.lft.to/lastmile_qr_scan", "android": "https://dc.lft.to/lastmile_qr_scan"}, "lon": -77.007709, "bike_id": "5b95b23911162b5a4dd7613691c89577", "type": "electric_scooter", "name": "5b95b23911162b5a4dd7613691c89577"}, {"is_disabled": 0, "is_reserved": 0, "fusion_lat": 0.0, "lat": 38.8608485, "fusion_lon": 0.0, "rental_uris": {"ios": "https://dc.lft.to/lastmile_qr_scan", "android": "https://dc.lft.to/lastmile_qr_scan"}, "lon": -76.983744, "bike_id": "be24ed1ef000f77818c07eb04dbeb560", "type": "electric_scooter", "name": "be24ed1ef000f77818c07eb04dbeb560"}, {"is_disabled": 0, "is_reserved": 0, "fusion_lat": 0.0, "lat": 38.92110383333333, "fusion_lon": 0.0, "rental_uris": {"ios": "https://dc.lft.to/lastmile_qr_scan", "android": "https://dc.lft.to/lastmile_qr_scan"}, "lon": -77.04169733333333, "bike_id": "d79b90c44310b36e127e580d21d37f0b", "type": "electric_scooter", "name": "d79b90c44310b36e127e580d21d37f0b"}, {"is_disabled": 0, "is_reserved": 0, "fusion_lat": 0.0, "lat": 38.876332, "fusion_lon": 0.0, "rental_uris": {"ios": "https://dc.lft.to/lastmile_qr_scan", "android": "https://dc.lft.to/lastmile_qr_scan"}, "lon": -77.00956316666667, "bike_id": "c6543a18315f478978e924941bce0bca", "type": "electric_scooter", "name": "c6543a18315f478978e924941bce0bca"}, {"is_disabled": 0, "is_reserved": 0, "fusion_lat": 0.0, "lat": 38.932236333333336, "fusion_lon": 0.0, "rental_uris": {"ios": "https://dc.lft.to/lastmile_qr_scan", "android": "https://dc.lft.to/lastmile_qr_scan"}, "lon": -76.99716333333333, "bike_id": "239d764c3a01ddb0b3605dad5c166a8f", "type": "electric_scooter", "name": "239d764c3a01ddb0b3605dad5c166a8f"}, {"is_disabled": 0, "is_reserved": 0, "fusion_lat": 0.0, "lat": 38.88577516666667, "fusion_lon": 0.0, "rental_uris": {"ios": "https://dc.lft.to/lastmile_qr_scan", "android": "https://dc.lft.to/lastmile_qr_scan"}, "lon": -77.012161, "bike_id": "2d12de94b7f2a69bd1f535605709f619", "type": "electric_scooter", "name": "2d12de94b7f2a69bd1f535605709f619"}, {"is_disabled": 0, "is_reserved": 0, "fusion_lat": 0.0, "lat": 38.9290075, "fusion_lon": 0.0, "rental_uris": {"ios": "https://dc.lft.to/lastmile_qr_scan", "android": "https://dc.lft.to/lastmile_qr_scan"}, "lon": -77.03744283333333, "bike_id": "63de3cc2aff50ea76043ff2d17824802", "type": "electric_scooter", "name": "63de3cc2aff50ea76043ff2d17824802"}, {"is_disabled": 0, "is_reserved": 0, "fusion_lat": 0.0, "lat": 38.91191933333333, "fusion_lon": 0.0, "rental_uris": {"ios": "https://dc.lft.to/lastmile_qr_scan", "android": "https://dc.lft.to/lastmile_qr_scan"}, "lon": -77.00177066666667, "bike_id": "d69c920e5937d17419187c1b1002b329", "type": "electric_scooter", "name": "d69c920e5937d17419187c1b1002b329"}, {"is_disabled": 0, "is_reserved": 0, "fusion_lat": 0.0, "lat": 38.88126166666667, "fusion_lon": 0.0, "rental_uris": {"ios": "https://dc.lft.to/lastmile_qr_scan", "android": "https://dc.lft.to/lastmile_qr_scan"}, "lon": -77.02270966666667, "bike_id": "b9d15b328c54160bc4c1c4dc881887f5", "type": "electric_scooter", "name": "b9d15b328c54160bc4c1c4dc881887f5"}, {"is_disabled": 0, "is_reserved": 0, "fusion_lat": 0.0, "lat": 38.88448433333333, "fusion_lon": 0.0, "rental_uris": {"ios": "https://dc.lft.to/lastmile_qr_scan", "android": "https://dc.lft.to/lastmile_qr_scan"}, "lon": -76.950957, "bike_id": "0573d48f7e1f540f429b1ce7c975668f", "type": "electric_scooter", "name": "0573d48f7e1f540f429b1ce7c975668f"}, {"is_disabled": 0, "is_reserved": 0, "fusion_lat": 0.0, "lat": 38.8984235, "fusion_lon": 0.0, "rental_uris": {"ios": "https://dc.lft.to/lastmile_qr_scan", "android": "https://dc.lft.to/lastmile_qr_scan"}, "lon": -77.02862966666666, "bike_id": "f8af79be62543245b6aa84422cf37ff5", "type": "electric_scooter", "name": "f8af79be62543245b6aa84422cf37ff5"}, {"is_disabled": 0, "is_reserved": 0, "fusion_lat": 0.0, "lat": 38.813320833333336, "fusion_lon": 0.0, "rental_uris": {"ios": "https://dc.lft.to/lastmile_qr_scan", "android": "https://dc.lft.to/lastmile_qr_scan"}, "lon": -77.05084366666667, "bike_id": "0dbd16f9ffeb4eed4269d77c61de1921", "type": "electric_bike", "name": "0dbd16f9ffeb4eed4269d77c61de1921"}, {"is_disabled": 0, "is_reserved": 0, "fusion_lat": 0.0, "lat": 38.94919083333333, "fusion_lon": 0.0, "rental_uris": {"ios": "https://dc.lft.to/lastmile_qr_scan", "android": "https://dc.lft.to/lastmile_qr_scan"}, "lon": -77.008035, "bike_id": "13e20a3072037c82824e25ef815749ea", "type": "electric_bike", "name": "13e20a3072037c82824e25ef815749ea"}, {"is_disabled": 0, "is_reserved": 0, "fusion_lat": 0.0, "lat": 38.90439966666667, "fusion_lon": 0.0, "rental_uris": {"ios": "https://dc.lft.to/lastmile_qr_scan", "android": "https://dc.lft.to/lastmile_qr_scan"}, "lon": -77.04835083333333, "bike_id": "a80eecce37fb7390f15c01bffbb62530", "type": "electric_scooter", "name": "a80eecce37fb7390f15c01bffbb62530"}, {"is_disabled": 0, "is_reserved": 0, "fusion_lat": 0.0, "lat": 38.928718833333335, "fusion_lon": 0.0, "rental_uris": {"ios": "https://dc.lft.to/lastmile_qr_scan", "android": "https://dc.lft.to/lastmile_qr_scan"}, "lon": -77.0341095, "bike_id": "5485ab775a072d43d69afbc856289873", "type": "electric_scooter", "name": "5485ab775a072d43d69afbc856289873"}, {"is_disabled": 0, "is_reserved": 0, "fusion_lat": 0.0, "lat": 38.949773666666665, "fusion_lon": 0.0, "rental_uris": {"ios": "https://dc.lft.to/lastmile_qr_scan", "android": "https://dc.lft.to/lastmile_qr_scan"}, "lon": -77.02446016666667, "bike_id": "6f294964292f1aee230567d5eae58cb3", "type": "electric_scooter", "name": "6f294964292f1aee230567d5eae58cb3"}, {"is_disabled": 0, "is_reserved": 0, "fusion_lat": 0.0, "lat": 38.907787166666665, "fusion_lon": 0.0, "rental_uris": {"ios": "https://dc.lft.to/lastmile_qr_scan", "android": "https://dc.lft.to/lastmile_qr_scan"}, "lon": -77.0447745, "bike_id": "6c016a968ce8bc363b35b4b6ddd95f97", "type": "electric_scooter", "name": "6c016a968ce8bc363b35b4b6ddd95f97"}, {"is_disabled": 0, "is_reserved": 0, "fusion_lat": 0.0, "lat": 38.903495666666664, "fusion_lon": 0.0, "rental_uris": {"ios": "https://dc.lft.to/lastmile_qr_scan", "android": "https://dc.lft.to/lastmile_qr_scan"}, "lon": -76.98277466666667, "bike_id": "fac3e4ff70f59f346ddebabde9decf78", "type": "electric_scooter", "name": "fac3e4ff70f59f346ddebabde9decf78"}, {"is_disabled": 0, "is_reserved": 0, "fusion_lat": 0.0, "lat": 38.88435533333333, "fusion_lon": 0.0, "rental_uris": {"ios": "https://dc.lft.to/lastmile_qr_scan", "android": "https://dc.lft.to/lastmile_qr_scan"}, "lon": -76.93556383333333, "bike_id": "dca7e5dbcea83800ef93c64040c86b68", "type": "electric_scooter", "name": "dca7e5dbcea83800ef93c64040c86b68"}, {"is_disabled": 0, "is_reserved": 0, "fusion_lat": 0.0, "lat": 38.92378333333333, "fusion_lon": 0.0, "rental_uris": {"ios": "https://dc.lft.to/lastmile_qr_scan", "android": "https://dc.lft.to/lastmile_qr_scan"}, "lon": -77.03121466666667, "bike_id": "6cf07cadf85873a8a3379a958e85faf8", "type": "electric_scooter", "name": "6cf07cadf85873a8a3379a958e85faf8"}, {"is_disabled": 0, "is_reserved": 0, "fusion_lat": 0.0, "lat": 38.88297766666667, "fusion_lon": 0.0, "rental_uris": {"ios": "https://dc.lft.to/lastmile_qr_scan", "android": "https://dc.lft.to/lastmile_qr_scan"}, "lon": -76.93199483333333, "bike_id": "7e787f104a9446beb6e4b60f7c08d881", "type": "electric_scooter", "name": "7e787f104a9446beb6e4b60f7c08d881"}, {"is_disabled": 0, "is_reserved": 0, "fusion_lat": 0.0, "lat": 38.90015966666667, "fusion_lon": 0.0, "rental_uris": {"ios": "https://dc.lft.to/lastmile_qr_scan", "android": "https://dc.lft.to/lastmile_qr_scan"}, "lon": -77.00095516666667, "bike_id": "62910959f6d6d7161e09a56160383653", "type": "electric_scooter", "name": "62910959f6d6d7161e09a56160383653"}, {"is_disabled": 0, "is_reserved": 0, "fusion_lat": 0.0, "lat": 38.8768075, "fusion_lon": 0.0, "rental_uris": {"ios": "https://dc.lft.to/lastmile_qr_scan", "android": "https://dc.lft.to/lastmile_qr_scan"}, "lon": -77.00059166666666, "bike_id": "ca8fd2cff4623108c2f48be54d75779e", "type": "electric_scooter", "name": "ca8fd2cff4623108c2f48be54d75779e"}, {"is_disabled": 0, "is_reserved": 0, "fusion_lat": 0.0, "lat": 38.83021683333333, "fusion_lon": 0.0, "rental_uris": {"ios": "https://dc.lft.to/lastmile_qr_scan", "android": "https://dc.lft.to/lastmile_qr_scan"}, "lon": -77.00829433333334, "bike_id": "b386baf652b85b33f1e320d6fafc9c57", "type": "electric_bike", "name": "b386baf652b85b33f1e320d6fafc9c57"}, {"is_disabled": 0, "is_reserved": 0, "fusion_lat": 0.0, "lat": 38.90478266666667, "fusion_lon": 0.0, "rental_uris": {"ios": "https://dc.lft.to/lastmile_qr_scan", "android": "https://dc.lft.to/lastmile_qr_scan"}, "lon": -77.008287, "bike_id": "4c8e7f51e4e279d3829012f855b8be22", "type": "electric_scooter", "name": "4c8e7f51e4e279d3829012f855b8be22"}, {"is_disabled": 0, "is_reserved": 0, "fusion_lat": 0.0, "lat": 38.845720166666666, "fusion_lon": 0.0, "rental_uris": {"ios": "https://dc.lft.to/lastmile_qr_scan", "android": "https://dc.lft.to/lastmile_qr_scan"}, "lon": -77.0745825, "bike_id": "8750bba3e5e09871063556429accfa17", "type": "electric_bike", "name": "8750bba3e5e09871063556429accfa17"}, {"is_disabled": 0, "is_reserved": 0, "fusion_lat": 0.0, "lat": 38.92346166666667, "fusion_lon": 0.0, "rental_uris": {"ios": "https://dc.lft.to/lastmile_qr_scan", "android": "https://dc.lft.to/lastmile_qr_scan"}, "lon": -77.03374666666667, "bike_id": "b4747f17717b43c567cf62a2e72ace2a", "type": "electric_scooter", "name": "b4747f17717b43c567cf62a2e72ace2a"}, {"is_disabled": 0, "is_reserved": 0, "fusion_lat": 0.0, "lat": 38.89970733333333, "fusion_lon": 0.0, "rental_uris": {"ios": "https://dc.lft.to/lastmile_qr_scan", "android": "https://dc.lft.to/lastmile_qr_scan"}, "lon": -76.937665, "bike_id": "b1f5ba206338946864f6c324914a6230", "type": "electric_scooter", "name": "b1f5ba206338946864f6c324914a6230"}, {"is_disabled": 0, "is_reserved": 0, "fusion_lat": 0.0, "lat": 38.92360466666667, "fusion_lon": 0.0, "rental_uris": {"ios": "https://dc.lft.to/lastmile_qr_scan", "android": "https://dc.lft.to/lastmile_qr_scan"}, "lon": -77.01921016666667, "bike_id": "fb7a8d0b26c2599f0aa417dc83de2cf2", "type": "electric_scooter", "name": "fb7a8d0b26c2599f0aa417dc83de2cf2"}, {"is_disabled": 0, "is_reserved": 0, "fusion_lat": 0.0, "lat": 38.90895716666667, "fusion_lon": 0.0, "rental_uris": {"ios": "https://dc.lft.to/lastmile_qr_scan", "android": "https://dc.lft.to/lastmile_qr_scan"}, "lon": -77.03393233333334, "bike_id": "439ca81d3d3c41a30e761d6f91869373", "type": "electric_scooter", "name": "439ca81d3d3c41a30e761d6f91869373"}, {"is_disabled": 0, "is_reserved": 0, "fusion_lat": 0.0, "lat": 38.8791575, "fusion_lon": 0.0, "rental_uris": {"ios": "https://dc.lft.to/lastmile_qr_scan", "android": "https://dc.lft.to/lastmile_qr_scan"}, "lon": -76.99148383333333, "bike_id": "c3e1ec06fb32eba50d96377e18185f91", "type": "electric_scooter", "name": "c3e1ec06fb32eba50d96377e18185f91"}, {"is_disabled": 0, "is_reserved": 0, "fusion_lat": 0.0, "lat": 38.84291066666667, "fusion_lon": 0.0, "rental_uris": {"ios": "https://dc.lft.to/lastmile_qr_scan", "android": "https://dc.lft.to/lastmile_qr_scan"}, "lon": -77.0638135, "bike_id": "ba3729d461b2b527ec2991834013a72a", "type": "electric_bike", "name": "ba3729d461b2b527ec2991834013a72a"}, {"is_disabled": 0, "is_reserved": 0, "fusion_lat": 0.0, "lat": 38.961588666666664, "fusion_lon": 0.0, "rental_uris": {"ios": "https://dc.lft.to/lastmile_qr_scan", "android": "https://dc.lft.to/lastmile_qr_scan"}, "lon": -77.0278725, "bike_id": "8ae53cb6ce699a97dab8731c251384bb", "type": "electric_scooter", "name": "8ae53cb6ce699a97dab8731c251384bb"}, {"is_disabled": 0, "is_reserved": 0, "fusion_lat": 0.0, "lat": 38.89729583333333, "fusion_lon": 0.0, "rental_uris": {"ios": "https://dc.lft.to/lastmile_qr_scan", "android": "https://dc.lft.to/lastmile_qr_scan"}, "lon": -77.04558383333334, "bike_id": "ef7535b0e751e3ad908faaf83d70bed8", "type": "electric_scooter", "name": "ef7535b0e751e3ad908faaf83d70bed8"}, {"is_disabled": 0, "is_reserved": 0, "fusion_lat": 0.0, "lat": 38.9019705, "fusion_lon": 0.0, "rental_uris": {"ios": "https://dc.lft.to/lastmile_qr_scan", "android": "https://dc.lft.to/lastmile_qr_scan"}, "lon": -77.02521483333334, "bike_id": "ed0f226743ec444f135ca1feed965fa4", "type": "electric_scooter", "name": "ed0f226743ec444f135ca1feed965fa4"}, {"is_disabled": 0, "is_reserved": 0, "fusion_lat": 0.0, "lat": 38.929734833333335, "fusion_lon": 0.0, "rental_uris": {"ios": "https://dc.lft.to/lastmile_qr_scan", "android": "https://dc.lft.to/lastmile_qr_scan"}, "lon": -77.02923333333334, "bike_id": "ea619a44e7ea60e5ee2a4da19033145f", "type": "electric_scooter", "name": "ea619a44e7ea60e5ee2a4da19033145f"}, {"is_disabled": 0, "is_reserved": 0, "fusion_lat": 0.0, "lat": 38.97284066666667, "fusion_lon": 0.0, "rental_uris": {"ios": "https://dc.lft.to/lastmile_qr_scan", "android": "https://dc.lft.to/lastmile_qr_scan"}, "lon": -77.03625016666666, "bike_id": "1519d5aa5785a7a6c558e7232e0fe2d3", "type": "electric_bike", "name": "1519d5aa5785a7a6c558e7232e0fe2d3"}, {"is_disabled": 0, "is_reserved": 0, "fusion_lat": 0.0, "lat": 38.91569166666667, "fusion_lon": 0.0, "rental_uris": {"ios": "https://dc.lft.to/lastmile_qr_scan", "android": "https://dc.lft.to/lastmile_qr_scan"}, "lon": -77.03643333333333, "bike_id": "7b75b2d40307aad1e9603eceed978694", "type": "electric_scooter", "name": "7b75b2d40307aad1e9603eceed978694"}, {"is_disabled": 0, "is_reserved": 0, "fusion_lat": 0.0, "lat": 38.95249033333333, "fusion_lon": 0.0, "rental_uris": {"ios": "https://dc.lft.to/lastmile_qr_scan", "android": "https://dc.lft.to/lastmile_qr_scan"}, "lon": -77.09624733333334, "bike_id": "835793e4bec8cfd86821307777773040", "type": "electric_bike", "name": "835793e4bec8cfd86821307777773040"}, {"is_disabled": 0, "is_reserved": 0, "fusion_lat": 0.0, "lat": 38.926590833333336, "fusion_lon": 0.0, "rental_uris": {"ios": "https://dc.lft.to/lastmile_qr_scan", "android": "https://dc.lft.to/lastmile_qr_scan"}, "lon": -76.99295566666666, "bike_id": "238e6240e255c2993e1b7968e55aaee9", "type": "electric_scooter", "name": "238e6240e255c2993e1b7968e55aaee9"}, {"is_disabled": 0, "is_reserved": 0, "fusion_lat": 0.0, "lat": 38.909911, "fusion_lon": 0.0, "rental_uris": {"ios": "https://dc.lft.to/lastmile_qr_scan", "android": "https://dc.lft.to/lastmile_qr_scan"}, "lon": -77.04005483333333, "bike_id": "a7c4d2010ef7b259749acdd400b8d425", "type": "electric_bike", "name": "a7c4d2010ef7b259749acdd400b8d425"}, {"is_disabled": 0, "is_reserved": 0, "fusion_lat": 0.0, "lat": 38.87460016666667, "fusion_lon": 0.0, "rental_uris": {"ios": "https://dc.lft.to/lastmile_qr_scan", "android": "https://dc.lft.to/lastmile_qr_scan"}, "lon": -77.00937783333333, "bike_id": "bc048ac2f8cd748a3b928ea5b3fcb269", "type": "electric_scooter", "name": "bc048ac2f8cd748a3b928ea5b3fcb269"}, {"is_disabled": 0, "is_reserved": 0, "fusion_lat": 0.0, "lat": 38.885465333333336, "fusion_lon": 0.0, "rental_uris": {"ios": "https://dc.lft.to/lastmile_qr_scan", "android": "https://dc.lft.to/lastmile_qr_scan"}, "lon": -76.95967416666667, "bike_id": "b0e34dfc922fead1663784b0b23c5898", "type": "electric_scooter", "name": "b0e34dfc922fead1663784b0b23c5898"}, {"is_disabled": 0, "is_reserved": 0, "fusion_lat": 0.0, "lat": 38.88299583333333, "fusion_lon": 0.0, "rental_uris": {"ios": "https://dc.lft.to/lastmile_qr_scan", "android": "https://dc.lft.to/lastmile_qr_scan"}, "lon": -77.0089555, "bike_id": "a80a458e2a04c7b75deca091962a1d55", "type": "electric_scooter", "name": "a80a458e2a04c7b75deca091962a1d55"}, {"is_disabled": 0, "is_reserved": 0, "fusion_lat": 0.0, "lat": 38.89672433333333, "fusion_lon": 0.0, "rental_uris": {"ios": "https://dc.lft.to/lastmile_qr_scan", "android": "https://dc.lft.to/lastmile_qr_scan"}, "lon": -76.93205166666667, "bike_id": "72955e7066e3e5c5dbcc0a1421d671dd", "type": "electric_scooter", "name": "72955e7066e3e5c5dbcc0a1421d671dd"}, {"is_disabled": 0, "is_reserved": 0, "fusion_lat": 0.0, "lat": 38.91807583333333, "fusion_lon": 0.0, "rental_uris": {"ios": "https://dc.lft.to/lastmile_qr_scan", "android": "https://dc.lft.to/lastmile_qr_scan"}, "lon": -77.02496433333333, "bike_id": "7ebe6e2efbe849e291e0a610f4ddf784", "type": "electric_scooter", "name": "7ebe6e2efbe849e291e0a610f4ddf784"}, {"is_disabled": 0, "is_reserved": 0, "fusion_lat": 0.0, "lat": 38.93673, "fusion_lon": 0.0, "rental_uris": {"ios": "https://dc.lft.to/lastmile_qr_scan", "android": "https://dc.lft.to/lastmile_qr_scan"}, "lon": -77.02284316666666, "bike_id": "0d3fe22e7d1760df3d3e537bb85d4945", "type": "electric_scooter", "name": "0d3fe22e7d1760df3d3e537bb85d4945"}, {"is_disabled": 0, "is_reserved": 0, "fusion_lat": 0.0, "lat": 38.935309, "fusion_lon": 0.0, "rental_uris": {"ios": "https://dc.lft.to/lastmile_qr_scan", "android": "https://dc.lft.to/lastmile_qr_scan"}, "lon": -77.02346483333334, "bike_id": "9b26d893509cfeb2a1bb152d8d8cecca", "type": "electric_scooter", "name": "9b26d893509cfeb2a1bb152d8d8cecca"}, {"is_disabled": 0, "is_reserved": 0, "fusion_lat": 0.0, "lat": 38.91602316666667, "fusion_lon": 0.0, "rental_uris": {"ios": "https://dc.lft.to/lastmile_qr_scan", "android": "https://dc.lft.to/lastmile_qr_scan"}, "lon": -77.02281383333333, "bike_id": "bdb701ac3da55a1e1c5e81702ee0a3bb", "type": "electric_scooter", "name": "bdb701ac3da55a1e1c5e81702ee0a3bb"}, {"is_disabled": 0, "is_reserved": 0, "fusion_lat": 0.0, "lat": 38.92656916666667, "fusion_lon": 0.0, "rental_uris": {"ios": "https://dc.lft.to/lastmile_qr_scan", "android": "https://dc.lft.to/lastmile_qr_scan"}, "lon": -77.0520285, "bike_id": "81948a19f9fd4d613d2f19c231f7f763", "type": "electric_scooter", "name": "81948a19f9fd4d613d2f19c231f7f763"}, {"is_disabled": 0, "is_reserved": 0, "fusion_lat": 0.0, "lat": 38.90509633333333, "fusion_lon": 0.0, "rental_uris": {"ios": "https://dc.lft.to/lastmile_qr_scan", "android": "https://dc.lft.to/lastmile_qr_scan"}, "lon": -76.95195933333333, "bike_id": "6c0c7079f1e222b931d929392c552c81", "type": "electric_scooter", "name": "6c0c7079f1e222b931d929392c552c81"}, {"is_disabled": 0, "is_reserved": 0, "fusion_lat": 0.0, "lat": 38.860118166666666, "fusion_lon": 0.0, "rental_uris": {"ios": "https://dc.lft.to/lastmile_qr_scan", "android": "https://dc.lft.to/lastmile_qr_scan"}, "lon": -77.0652645, "bike_id": "114667a8454bca087484ccec70b3f65e", "type": "electric_bike", "name": "114667a8454bca087484ccec70b3f65e"}, {"is_disabled": 0, "is_reserved": 0, "fusion_lat": 0.0, "lat": 38.953669, "fusion_lon": 0.0, "rental_uris": {"ios": "https://dc.lft.to/lastmile_qr_scan", "android": "https://dc.lft.to/lastmile_qr_scan"}, "lon": -76.99845233333333, "bike_id": "6fc1d51a8a4f4092c91da538aea9a116", "type": "electric_scooter", "name": "6fc1d51a8a4f4092c91da538aea9a116"}, {"is_disabled": 0, "is_reserved": 0, "fusion_lat": 0.0, "lat": 38.934582666666664, "fusion_lon": 0.0, "rental_uris": {"ios": "https://dc.lft.to/lastmile_qr_scan", "android": "https://dc.lft.to/lastmile_qr_scan"}, "lon": -77.024005, "bike_id": "d0158ea016d56e92f2185c1a1664c6f5", "type": "electric_scooter", "name": "d0158ea016d56e92f2185c1a1664c6f5"}, {"is_disabled": 0, "is_reserved": 0, "fusion_lat": 0.0, "lat": 38.8858145, "fusion_lon": 0.0, "rental_uris": {"ios": "https://dc.lft.to/lastmile_qr_scan", "android": "https://dc.lft.to/lastmile_qr_scan"}, "lon": -77.012299, "bike_id": "c0bb8ee2ef457b83fb9d7afa7c2278a6", "type": "electric_scooter", "name": "c0bb8ee2ef457b83fb9d7afa7c2278a6"}, {"is_disabled": 0, "is_reserved": 0, "fusion_lat": 0.0, "lat": 38.93194666666667, "fusion_lon": 0.0, "rental_uris": {"ios": "https://dc.lft.to/lastmile_qr_scan", "android": "https://dc.lft.to/lastmile_qr_scan"}, "lon": -77.02451016666667, "bike_id": "f991b259dce6bcc3a24231b32a380f63", "type": "electric_scooter", "name": "f991b259dce6bcc3a24231b32a380f63"}, {"is_disabled": 0, "is_reserved": 0, "fusion_lat": 0.0, "lat": 38.920745833333335, "fusion_lon": 0.0, "rental_uris": {"ios": "https://dc.lft.to/lastmile_qr_scan", "android": "https://dc.lft.to/lastmile_qr_scan"}, "lon": -77.00451116666666, "bike_id": "84b2c7a0056482de2cb3b08a53d0828c", "type": "electric_scooter", "name": "84b2c7a0056482de2cb3b08a53d0828c"}, {"is_disabled": 0, "is_reserved": 0, "fusion_lat": 0.0, "lat": 38.9084785, "fusion_lon": 0.0, "rental_uris": {"ios": "https://dc.lft.to/lastmile_qr_scan", "android": "https://dc.lft.to/lastmile_qr_scan"}, "lon": -77.02059283333334, "bike_id": "27d826ee9094238c8f58b1a3f0fe1bf6", "type": "electric_scooter", "name": "27d826ee9094238c8f58b1a3f0fe1bf6"}, {"is_disabled": 0, "is_reserved": 0, "fusion_lat": 0.0, "lat": 38.94602833333333, "fusion_lon": 0.0, "rental_uris": {"ios": "https://dc.lft.to/lastmile_qr_scan", "android": "https://dc.lft.to/lastmile_qr_scan"}, "lon": -77.0173725, "bike_id": "7d0c771ac5c83730c071fa33af92cec6", "type": "electric_bike", "name": "7d0c771ac5c83730c071fa33af92cec6"}, {"is_disabled": 0, "is_reserved": 0, "fusion_lat": 0.0, "lat": 38.936973333333334, "fusion_lon": 0.0, "rental_uris": {"ios": "https://dc.lft.to/lastmile_qr_scan", "android": "https://dc.lft.to/lastmile_qr_scan"}, "lon": -77.0559805, "bike_id": "1b2e21cb7c02e4fde6a48c958e8da867", "type": "electric_scooter", "name": "1b2e21cb7c02e4fde6a48c958e8da867"}, {"is_disabled": 0, "is_reserved": 0, "fusion_lat": 0.0, "lat": 38.928898833333335, "fusion_lon": 0.0, "rental_uris": {"ios": "https://dc.lft.to/lastmile_qr_scan", "android": "https://dc.lft.to/lastmile_qr_scan"}, "lon": -77.033652, "bike_id": "5913eb133046466a3066b2df3baa24cf", "type": "electric_scooter", "name": "5913eb133046466a3066b2df3baa24cf"}, {"is_disabled": 0, "is_reserved": 0, "fusion_lat": 0.0, "lat": 38.9530725, "fusion_lon": 0.0, "rental_uris": {"ios": "https://dc.lft.to/lastmile_qr_scan", "android": "https://dc.lft.to/lastmile_qr_scan"}, "lon": -77.02022483333333, "bike_id": "2d77b05c96fa707b13c23a76e185966d", "type": "electric_scooter", "name": "2d77b05c96fa707b13c23a76e185966d"}, {"is_disabled": 0, "is_reserved": 0, "fusion_lat": 0.0, "lat": 38.903791166666664, "fusion_lon": 0.0, "rental_uris": {"ios": "https://dc.lft.to/lastmile_qr_scan", "android": "https://dc.lft.to/lastmile_qr_scan"}, "lon": -77.0186125, "bike_id": "95a7d4ae192250cc09c2de62a8e51b72", "type": "electric_scooter", "name": "95a7d4ae192250cc09c2de62a8e51b72"}, {"is_disabled": 0, "is_reserved": 0, "fusion_lat": 0.0, "lat": 38.92549283333334, "fusion_lon": 0.0, "rental_uris": {"ios": "https://dc.lft.to/lastmile_qr_scan", "android": "https://dc.lft.to/lastmile_qr_scan"}, "lon": -77.0032385, "bike_id": "b8afd09c1791a3443d24b8208ad89d11", "type": "electric_scooter", "name": "b8afd09c1791a3443d24b8208ad89d11"}, {"is_disabled": 0, "is_reserved": 0, "fusion_lat": 0.0, "lat": 38.93063883333333, "fusion_lon": 0.0, "rental_uris": {"ios": "https://dc.lft.to/lastmile_qr_scan", "android": "https://dc.lft.to/lastmile_qr_scan"}, "lon": -77.040274, "bike_id": "809eac4d106055e5ae4632a042bfe258", "type": "electric_scooter", "name": "809eac4d106055e5ae4632a042bfe258"}, {"is_disabled": 0, "is_reserved": 0, "fusion_lat": 0.0, "lat": 38.936623833333336, "fusion_lon": 0.0, "rental_uris": {"ios": "https://dc.lft.to/lastmile_qr_scan", "android": "https://dc.lft.to/lastmile_qr_scan"}, "lon": -77.06611383333333, "bike_id": "a8aadd39848b7246c04ef12e36e516d2", "type": "electric_scooter", "name": "a8aadd39848b7246c04ef12e36e516d2"}, {"is_disabled": 0, "is_reserved": 0, "fusion_lat": 0.0, "lat": 38.897637, "fusion_lon": 0.0, "rental_uris": {"ios": "https://dc.lft.to/lastmile_qr_scan", "android": "https://dc.lft.to/lastmile_qr_scan"}, "lon": -77.02699016666666, "bike_id": "0f373e18939fca252f457e731dbbb55f", "type": "electric_scooter", "name": "0f373e18939fca252f457e731dbbb55f"}, {"is_disabled": 0, "is_reserved": 0, "fusion_lat": 0.0, "lat": 38.8778525, "fusion_lon": 0.0, "rental_uris": {"ios": "https://dc.lft.to/lastmile_qr_scan", "android": "https://dc.lft.to/lastmile_qr_scan"}, "lon": -77.00127283333333, "bike_id": "f8cc09001df9929b4515dfe82eca0846", "type": "electric_scooter", "name": "f8cc09001df9929b4515dfe82eca0846"}, {"is_disabled": 0, "is_reserved": 0, "fusion_lat": 0.0, "lat": 38.931151666666665, "fusion_lon": 0.0, "rental_uris": {"ios": "https://dc.lft.to/lastmile_qr_scan", "android": "https://dc.lft.to/lastmile_qr_scan"}, "lon": -77.02067783333334, "bike_id": "ff3d2a1b970a37ed33c5491965b1d7eb", "type": "electric_scooter", "name": "ff3d2a1b970a37ed33c5491965b1d7eb"}, {"is_disabled": 0, "is_reserved": 0, "fusion_lat": 0.0, "lat": 38.9194025, "fusion_lon": 0.0, "rental_uris": {"ios": "https://dc.lft.to/lastmile_qr_scan", "android": "https://dc.lft.to/lastmile_qr_scan"}, "lon": -77.04497733333334, "bike_id": "f729fda30b6631740ceb36eeae9c28cb", "type": "electric_scooter", "name": "f729fda30b6631740ceb36eeae9c28cb"}, {"is_disabled": 0, "is_reserved": 0, "fusion_lat": 0.0, "lat": 38.91627233333333, "fusion_lon": 0.0, "rental_uris": {"ios": "https://dc.lft.to/lastmile_qr_scan", "android": "https://dc.lft.to/lastmile_qr_scan"}, "lon": -77.008503, "bike_id": "1b95323d3e3613f126840a2fcbff37e7", "type": "electric_scooter", "name": "1b95323d3e3613f126840a2fcbff37e7"}, {"is_disabled": 0, "is_reserved": 0, "fusion_lat": 0.0, "lat": 38.905606, "fusion_lon": 0.0, "rental_uris": {"ios": "https://dc.lft.to/lastmile_qr_scan", "android": "https://dc.lft.to/lastmile_qr_scan"}, "lon": -77.00501466666667, "bike_id": "7d2d6bd8b384ea1415ee9edabff944b1", "type": "electric_scooter", "name": "7d2d6bd8b384ea1415ee9edabff944b1"}, {"is_disabled": 0, "is_reserved": 0, "fusion_lat": 0.0, "lat": 38.913322666666666, "fusion_lon": 0.0, "rental_uris": {"ios": "https://dc.lft.to/lastmile_qr_scan", "android": "https://dc.lft.to/lastmile_qr_scan"}, "lon": -77.01653566666667, "bike_id": "4e37ddb4b2ab0e7085f9e9d52c53ba97", "type": "electric_scooter", "name": "4e37ddb4b2ab0e7085f9e9d52c53ba97"}, {"is_disabled": 0, "is_reserved": 0, "fusion_lat": 0.0, "lat": 38.876197833333336, "fusion_lon": 0.0, "rental_uris": {"ios": "https://dc.lft.to/lastmile_qr_scan", "android": "https://dc.lft.to/lastmile_qr_scan"}, "lon": -77.00766583333333, "bike_id": "a5db90a7c9d749f8a6892df0133c03c0", "type": "electric_scooter", "name": "a5db90a7c9d749f8a6892df0133c03c0"}, {"is_disabled": 0, "is_reserved": 0, "fusion_lat": 0.0, "lat": 38.927665833333336, "fusion_lon": 0.0, "rental_uris": {"ios": "https://dc.lft.to/lastmile_qr_scan", "android": "https://dc.lft.to/lastmile_qr_scan"}, "lon": -77.0280075, "bike_id": "3e6be8b1e2496c7632ee2655f9d7f5c9", "type": "electric_scooter", "name": "3e6be8b1e2496c7632ee2655f9d7f5c9"}, {"is_disabled": 0, "is_reserved": 0, "fusion_lat": 0.0, "lat": 38.9187295, "fusion_lon": 0.0, "rental_uris": {"ios": "https://dc.lft.to/lastmile_qr_scan", "android": "https://dc.lft.to/lastmile_qr_scan"}, "lon": -77.035823, "bike_id": "4eb59822302cf339e57642cbdc8feddc", "type": "electric_scooter", "name": "4eb59822302cf339e57642cbdc8feddc"}, {"is_disabled": 0, "is_reserved": 0, "fusion_lat": 0.0, "lat": 38.9296695, "fusion_lon": 0.0, "rental_uris": {"ios": "https://dc.lft.to/lastmile_qr_scan", "android": "https://dc.lft.to/lastmile_qr_scan"}, "lon": -77.03080916666667, "bike_id": "e7b7c0611c37baf63039ec0e89b490ca", "type": "electric_scooter", "name": "e7b7c0611c37baf63039ec0e89b490ca"}, {"is_disabled": 0, "is_reserved": 0, "fusion_lat": 0.0, "lat": 38.899615833333336, "fusion_lon": 0.0, "rental_uris": {"ios": "https://dc.lft.to/lastmile_qr_scan", "android": "https://dc.lft.to/lastmile_qr_scan"}, "lon": -77.05059533333333, "bike_id": "7a17a05efb70051f0d9ff48ddbeffc42", "type": "electric_scooter", "name": "7a17a05efb70051f0d9ff48ddbeffc42"}, {"is_disabled": 0, "is_reserved": 0, "fusion_lat": 0.0, "lat": 38.911149333333334, "fusion_lon": 0.0, "rental_uris": {"ios": "https://dc.lft.to/lastmile_qr_scan", "android": "https://dc.lft.to/lastmile_qr_scan"}, "lon": -77.021752, "bike_id": "ce3b254e82a7973ae90ac90d903815f0", "type": "electric_scooter", "name": "ce3b254e82a7973ae90ac90d903815f0"}, {"is_disabled": 0, "is_reserved": 0, "fusion_lat": 0.0, "lat": 38.902694, "fusion_lon": 0.0, "rental_uris": {"ios": "https://dc.lft.to/lastmile_qr_scan", "android": "https://dc.lft.to/lastmile_qr_scan"}, "lon": -77.00217616666667, "bike_id": "85429d7eaabb94e66aefcf6d91ecaa24", "type": "electric_scooter", "name": "85429d7eaabb94e66aefcf6d91ecaa24"}, {"is_disabled": 0, "is_reserved": 0, "fusion_lat": 0.0, "lat": 38.95687366666667, "fusion_lon": 0.0, "rental_uris": {"ios": "https://dc.lft.to/lastmile_qr_scan", "android": "https://dc.lft.to/lastmile_qr_scan"}, "lon": -77.022291, "bike_id": "e531b73bcfc7311f1fbf88b7537af1ac", "type": "electric_scooter", "name": "e531b73bcfc7311f1fbf88b7537af1ac"}, {"is_disabled": 0, "is_reserved": 0, "fusion_lat": 0.0, "lat": 38.95753833333333, "fusion_lon": 0.0, "rental_uris": {"ios": "https://dc.lft.to/lastmile_qr_scan", "android": "https://dc.lft.to/lastmile_qr_scan"}, "lon": -77.02208666666667, "bike_id": "9d65aa02da31c5631cad1866db25be77", "type": "electric_scooter", "name": "9d65aa02da31c5631cad1866db25be77"}, {"is_disabled": 0, "is_reserved": 0, "fusion_lat": 0.0, "lat": 38.896255, "fusion_lon": 0.0, "rental_uris": {"ios": "https://dc.lft.to/lastmile_qr_scan", "android": "https://dc.lft.to/lastmile_qr_scan"}, "lon": -76.9075685, "bike_id": "5e80452e17e0b7096967328db73403bd", "type": "electric_bike", "name": "5e80452e17e0b7096967328db73403bd"}, {"is_disabled": 0, "is_reserved": 0, "fusion_lat": 0.0, "lat": 38.874959833333335, "fusion_lon": 0.0, "rental_uris": {"ios": "https://dc.lft.to/lastmile_qr_scan", "android": "https://dc.lft.to/lastmile_qr_scan"}, "lon": -77.00086916666666, "bike_id": "1b364c3302e21b93773308da5b62e4f2", "type": "electric_scooter", "name": "1b364c3302e21b93773308da5b62e4f2"}, {"is_disabled": 0, "is_reserved": 0, "fusion_lat": 0.0, "lat": 38.922987, "fusion_lon": 0.0, "rental_uris": {"ios": "https://dc.lft.to/lastmile_qr_scan", "android": "https://dc.lft.to/lastmile_qr_scan"}, "lon": -77.02975933333333, "bike_id": "a1eb32bfb7dfc2f085676f1f4a430e7d", "type": "electric_scooter", "name": "a1eb32bfb7dfc2f085676f1f4a430e7d"}, {"is_disabled": 0, "is_reserved": 0, "fusion_lat": 0.0, "lat": 38.885409833333334, "fusion_lon": 0.0, "rental_uris": {"ios": "https://dc.lft.to/lastmile_qr_scan", "android": "https://dc.lft.to/lastmile_qr_scan"}, "lon": -76.92371483333334, "bike_id": "bbf3c5e19d62ae4646235557249adbe2", "type": "electric_scooter", "name": "bbf3c5e19d62ae4646235557249adbe2"}, {"is_disabled": 0, "is_reserved": 0, "fusion_lat": 0.0, "lat": 38.913362, "fusion_lon": 0.0, "rental_uris": {"ios": "https://dc.lft.to/lastmile_qr_scan", "android": "https://dc.lft.to/lastmile_qr_scan"}, "lon": -77.0162675, "bike_id": "a420be4b2fb587c0635272bf74515887", "type": "electric_scooter", "name": "a420be4b2fb587c0635272bf74515887"}, {"is_disabled": 0, "is_reserved": 0, "fusion_lat": 0.0, "lat": 38.9220775, "fusion_lon": 0.0, "rental_uris": {"ios": "https://dc.lft.to/lastmile_qr_scan", "android": "https://dc.lft.to/lastmile_qr_scan"}, "lon": -77.081861, "bike_id": "c11392aadf2647736b07dbf8b1132945", "type": "electric_bike", "name": "c11392aadf2647736b07dbf8b1132945"}, {"is_disabled": 0, "is_reserved": 0, "fusion_lat": 0.0, "lat": 38.89428066666667, "fusion_lon": 0.0, "rental_uris": {"ios": "https://dc.lft.to/lastmile_qr_scan", "android": "https://dc.lft.to/lastmile_qr_scan"}, "lon": -77.01073116666667, "bike_id": "d6a6d15815f7f2060b772d11e8db30b9", "type": "electric_scooter", "name": "d6a6d15815f7f2060b772d11e8db30b9"}, {"is_disabled": 0, "is_reserved": 0, "fusion_lat": 0.0, "lat": 38.88534216666667, "fusion_lon": 0.0, "rental_uris": {"ios": "https://dc.lft.to/lastmile_qr_scan", "android": "https://dc.lft.to/lastmile_qr_scan"}, "lon": -76.9805545, "bike_id": "1af98ead6da356cc48cf0bfd119228e4", "type": "electric_scooter", "name": "1af98ead6da356cc48cf0bfd119228e4"}, {"is_disabled": 0, "is_reserved": 0, "fusion_lat": 0.0, "lat": 38.9417215, "fusion_lon": 0.0, "rental_uris": {"ios": "https://dc.lft.to/lastmile_qr_scan", "android": "https://dc.lft.to/lastmile_qr_scan"}, "lon": -77.02537983333333, "bike_id": "4fffb7055e222730f5d135853c10ab73", "type": "electric_scooter", "name": "4fffb7055e222730f5d135853c10ab73"}, {"is_disabled": 0, "is_reserved": 0, "fusion_lat": 0.0, "lat": 38.914107333333334, "fusion_lon": 0.0, "rental_uris": {"ios": "https://dc.lft.to/lastmile_qr_scan", "android": "https://dc.lft.to/lastmile_qr_scan"}, "lon": -77.021175, "bike_id": "0d2fa1a7dede1aad48dfd47378439ac8", "type": "electric_scooter", "name": "0d2fa1a7dede1aad48dfd47378439ac8"}, {"is_disabled": 0, "is_reserved": 0, "fusion_lat": 0.0, "lat": 38.9123035, "fusion_lon": 0.0, "rental_uris": {"ios": "https://dc.lft.to/lastmile_qr_scan", "android": "https://dc.lft.to/lastmile_qr_scan"}, "lon": -77.06399583333334, "bike_id": "401e748fe0eb08088c2f38fca2f2505d", "type": "electric_scooter", "name": "401e748fe0eb08088c2f38fca2f2505d"}, {"is_disabled": 0, "is_reserved": 0, "fusion_lat": 0.0, "lat": 38.908849000000004, "fusion_lon": 0.0, "rental_uris": {"ios": "https://dc.lft.to/lastmile_qr_scan", "android": "https://dc.lft.to/lastmile_qr_scan"}, "lon": -77.07428516666667, "bike_id": "acd5e14f130bd72565619acffde22db2", "type": "electric_scooter", "name": "acd5e14f130bd72565619acffde22db2"}, {"is_disabled": 0, "is_reserved": 0, "fusion_lat": 0.0, "lat": 38.924695666666665, "fusion_lon": 0.0, "rental_uris": {"ios": "https://dc.lft.to/lastmile_qr_scan", "android": "https://dc.lft.to/lastmile_qr_scan"}, "lon": -77.05233166666666, "bike_id": "bec10f3859e9e09e36409f6796e71f54", "type": "electric_scooter", "name": "bec10f3859e9e09e36409f6796e71f54"}, {"is_disabled": 0, "is_reserved": 0, "fusion_lat": 0.0, "lat": 38.906484, "fusion_lon": 0.0, "rental_uris": {"ios": "https://dc.lft.to/lastmile_qr_scan", "android": "https://dc.lft.to/lastmile_qr_scan"}, "lon": -76.97940933333334, "bike_id": "f309ecd19968976253c3fdfc59a89d42", "type": "electric_scooter", "name": "f309ecd19968976253c3fdfc59a89d42"}, {"is_disabled": 0, "is_reserved": 0, "fusion_lat": 0.0, "lat": 38.880393166666664, "fusion_lon": 0.0, "rental_uris": {"ios": "https://dc.lft.to/lastmile_qr_scan", "android": "https://dc.lft.to/lastmile_qr_scan"}, "lon": -76.92722666666667, "bike_id": "f1c749239981b93934aea6cb07d937b3", "type": "electric_scooter", "name": "f1c749239981b93934aea6cb07d937b3"}, {"is_disabled": 0, "is_reserved": 0, "fusion_lat": 0.0, "lat": 38.876323166666666, "fusion_lon": 0.0, "rental_uris": {"ios": "https://dc.lft.to/lastmile_qr_scan", "android": "https://dc.lft.to/lastmile_qr_scan"}, "lon": -77.00955216666667, "bike_id": "1366b4fbdaa35fb0d53bca48d7fc1438", "type": "electric_scooter", "name": "1366b4fbdaa35fb0d53bca48d7fc1438"}, {"is_disabled": 0, "is_reserved": 0, "fusion_lat": 0.0, "lat": 38.870693833333334, "fusion_lon": 0.0, "rental_uris": {"ios": "https://dc.lft.to/lastmile_qr_scan", "android": "https://dc.lft.to/lastmile_qr_scan"}, "lon": -76.98135416666666, "bike_id": "4865e605b7ca3b4e9ce80bdd659fabe4", "type": "electric_scooter", "name": "4865e605b7ca3b4e9ce80bdd659fabe4"}, {"is_disabled": 0, "is_reserved": 0, "fusion_lat": 0.0, "lat": 38.907282, "fusion_lon": 0.0, "rental_uris": {"ios": "https://dc.lft.to/lastmile_qr_scan", "android": "https://dc.lft.to/lastmile_qr_scan"}, "lon": -77.023262, "bike_id": "a155ee64cff3a2c7f798809780cbbb5c", "type": "electric_scooter", "name": "a155ee64cff3a2c7f798809780cbbb5c"}, {"is_disabled": 0, "is_reserved": 0, "fusion_lat": 0.0, "lat": 38.93035116666667, "fusion_lon": 0.0, "rental_uris": {"ios": "https://dc.lft.to/lastmile_qr_scan", "android": "https://dc.lft.to/lastmile_qr_scan"}, "lon": -77.06075783333333, "bike_id": "b2f5608f0baeb32ffbbf94eedb4216ab", "type": "electric_scooter", "name": "b2f5608f0baeb32ffbbf94eedb4216ab"}, {"is_disabled": 0, "is_reserved": 0, "fusion_lat": 0.0, "lat": 38.88514466666667, "fusion_lon": 0.0, "rental_uris": {"ios": "https://dc.lft.to/lastmile_qr_scan", "android": "https://dc.lft.to/lastmile_qr_scan"}, "lon": -77.02807133333333, "bike_id": "502bb329820dad4d860100750b17fba3", "type": "electric_scooter", "name": "502bb329820dad4d860100750b17fba3"}, {"is_disabled": 0, "is_reserved": 0, "fusion_lat": 0.0, "lat": 38.916064, "fusion_lon": 0.0, "rental_uris": {"ios": "https://dc.lft.to/lastmile_qr_scan", "android": "https://dc.lft.to/lastmile_qr_scan"}, "lon": -77.03857666666667, "bike_id": "d3e8e48a89239bd656eeaef96b3596b6", "type": "electric_scooter", "name": "d3e8e48a89239bd656eeaef96b3596b6"}, {"is_disabled": 0, "is_reserved": 0, "fusion_lat": 0.0, "lat": 38.914427, "fusion_lon": 0.0, "rental_uris": {"ios": "https://dc.lft.to/lastmile_qr_scan", "android": "https://dc.lft.to/lastmile_qr_scan"}, "lon": -77.0228855, "bike_id": "19249438300d2a702fdfcdcc093e05f1", "type": "electric_scooter", "name": "19249438300d2a702fdfcdcc093e05f1"}, {"is_disabled": 0, "is_reserved": 0, "fusion_lat": 0.0, "lat": 38.875767333333336, "fusion_lon": 0.0, "rental_uris": {"ios": "https://dc.lft.to/lastmile_qr_scan", "android": "https://dc.lft.to/lastmile_qr_scan"}, "lon": -77.23409933333333, "bike_id": "ad1c7e431fad3e3f2b00507bb2937e3c", "type": "electric_bike", "name": "ad1c7e431fad3e3f2b00507bb2937e3c"}, {"is_disabled": 0, "is_reserved": 0, "fusion_lat": 0.0, "lat": 38.927325, "fusion_lon": 0.0, "rental_uris": {"ios": "https://dc.lft.to/lastmile_qr_scan", "android": "https://dc.lft.to/lastmile_qr_scan"}, "lon": -77.0227275, "bike_id": "98551372d20c2cc9dd7c7bdb6d585f79", "type": "electric_scooter", "name": "98551372d20c2cc9dd7c7bdb6d585f79"}, {"is_disabled": 0, "is_reserved": 0, "fusion_lat": 0.0, "lat": 38.917357, "fusion_lon": 0.0, "rental_uris": {"ios": "https://dc.lft.to/lastmile_qr_scan", "android": "https://dc.lft.to/lastmile_qr_scan"}, "lon": -77.02605116666666, "bike_id": "5eafb7734fafd632875d59896b2925e4", "type": "electric_scooter", "name": "5eafb7734fafd632875d59896b2925e4"}, {"is_disabled": 0, "is_reserved": 0, "fusion_lat": 0.0, "lat": 38.9060695, "fusion_lon": 0.0, "rental_uris": {"ios": "https://dc.lft.to/lastmile_qr_scan", "android": "https://dc.lft.to/lastmile_qr_scan"}, "lon": -77.021095, "bike_id": "4a06e4beedab8e51a7cf2ed65f526c34", "type": "electric_scooter", "name": "4a06e4beedab8e51a7cf2ed65f526c34"}, {"is_disabled": 0, "is_reserved": 0, "fusion_lat": 0.0, "lat": 38.890863833333334, "fusion_lon": 0.0, "rental_uris": {"ios": "https://dc.lft.to/lastmile_qr_scan", "android": "https://dc.lft.to/lastmile_qr_scan"}, "lon": -76.95469616666666, "bike_id": "780669c03b877907ed40aa60312e9543", "type": "electric_bike", "name": "780669c03b877907ed40aa60312e9543"}, {"is_disabled": 0, "is_reserved": 0, "fusion_lat": 0.0, "lat": 38.9324025, "fusion_lon": 0.0, "rental_uris": {"ios": "https://dc.lft.to/lastmile_qr_scan", "android": "https://dc.lft.to/lastmile_qr_scan"}, "lon": -77.02031666666667, "bike_id": "50d62d62d175a1ff6b4c62dee6c516e7", "type": "electric_scooter", "name": "50d62d62d175a1ff6b4c62dee6c516e7"}, {"is_disabled": 0, "is_reserved": 0, "fusion_lat": 0.0, "lat": 38.919089666666665, "fusion_lon": 0.0, "rental_uris": {"ios": "https://dc.lft.to/lastmile_qr_scan", "android": "https://dc.lft.to/lastmile_qr_scan"}, "lon": -77.03443933333334, "bike_id": "3287b78637d9f4eb848b4dae0c9fb31b", "type": "electric_scooter", "name": "3287b78637d9f4eb848b4dae0c9fb31b"}, {"is_disabled": 0, "is_reserved": 0, "fusion_lat": 0.0, "lat": 38.93055533333333, "fusion_lon": 0.0, "rental_uris": {"ios": "https://dc.lft.to/lastmile_qr_scan", "android": "https://dc.lft.to/lastmile_qr_scan"}, "lon": -76.9732845, "bike_id": "edd178eaba7d0992daea2a8e69901544", "type": "electric_scooter", "name": "edd178eaba7d0992daea2a8e69901544"}, {"is_disabled": 0, "is_reserved": 0, "fusion_lat": 0.0, "lat": 38.92599583333333, "fusion_lon": 0.0, "rental_uris": {"ios": "https://dc.lft.to/lastmile_qr_scan", "android": "https://dc.lft.to/lastmile_qr_scan"}, "lon": -77.0249685, "bike_id": "2bab57ab4a286e2b1fc8fda3a49a8dd5", "type": "electric_scooter", "name": "2bab57ab4a286e2b1fc8fda3a49a8dd5"}, {"is_disabled": 0, "is_reserved": 0, "fusion_lat": 0.0, "lat": 38.956354833333336, "fusion_lon": 0.0, "rental_uris": {"ios": "https://dc.lft.to/lastmile_qr_scan", "android": "https://dc.lft.to/lastmile_qr_scan"}, "lon": -77.03631866666667, "bike_id": "73dbe4ede8c48164dea37a3449d3cc27", "type": "electric_scooter", "name": "73dbe4ede8c48164dea37a3449d3cc27"}, {"is_disabled": 0, "is_reserved": 0, "fusion_lat": 0.0, "lat": 38.9334545, "fusion_lon": 0.0, "rental_uris": {"ios": "https://dc.lft.to/lastmile_qr_scan", "android": "https://dc.lft.to/lastmile_qr_scan"}, "lon": -77.01935083333333, "bike_id": "88594af8700c43f5d35a4f02999c9da2", "type": "electric_scooter", "name": "88594af8700c43f5d35a4f02999c9da2"}, {"is_disabled": 0, "is_reserved": 0, "fusion_lat": 0.0, "lat": 38.89817583333333, "fusion_lon": 0.0, "rental_uris": {"ios": "https://dc.lft.to/lastmile_qr_scan", "android": "https://dc.lft.to/lastmile_qr_scan"}, "lon": -77.0020795, "bike_id": "05e975e5394255950fc11536a58d54e9", "type": "electric_scooter", "name": "05e975e5394255950fc11536a58d54e9"}, {"is_disabled": 0, "is_reserved": 0, "fusion_lat": 0.0, "lat": 38.89251266666667, "fusion_lon": 0.0, "rental_uris": {"ios": "https://dc.lft.to/lastmile_qr_scan", "android": "https://dc.lft.to/lastmile_qr_scan"}, "lon": -77.0395395, "bike_id": "422813bf9cc2a4c9f0c3118751c88505", "type": "electric_scooter", "name": "422813bf9cc2a4c9f0c3118751c88505"}, {"is_disabled": 0, "is_reserved": 0, "fusion_lat": 0.0, "lat": 38.92445433333334, "fusion_lon": 0.0, "rental_uris": {"ios": "https://dc.lft.to/lastmile_qr_scan", "android": "https://dc.lft.to/lastmile_qr_scan"}, "lon": -77.03405433333333, "bike_id": "0677450dd3835be54070de9081f19d6c", "type": "electric_scooter", "name": "0677450dd3835be54070de9081f19d6c"}, {"is_disabled": 0, "is_reserved": 0, "fusion_lat": 0.0, "lat": 38.920712333333334, "fusion_lon": 0.0, "rental_uris": {"ios": "https://dc.lft.to/lastmile_qr_scan", "android": "https://dc.lft.to/lastmile_qr_scan"}, "lon": -77.0256565, "bike_id": "972dc8bce892acb5033efd67f6ce3e06", "type": "electric_scooter", "name": "972dc8bce892acb5033efd67f6ce3e06"}, {"is_disabled": 0, "is_reserved": 0, "fusion_lat": 0.0, "lat": 38.942014, "fusion_lon": 0.0, "rental_uris": {"ios": "https://dc.lft.to/lastmile_qr_scan", "android": "https://dc.lft.to/lastmile_qr_scan"}, "lon": -77.02566316666666, "bike_id": "e63768614c04f9b391196345591d99a3", "type": "electric_scooter", "name": "e63768614c04f9b391196345591d99a3"}, {"is_disabled": 0, "is_reserved": 0, "fusion_lat": 0.0, "lat": 38.91774766666666, "fusion_lon": 0.0, "rental_uris": {"ios": "https://dc.lft.to/lastmile_qr_scan", "android": "https://dc.lft.to/lastmile_qr_scan"}, "lon": -77.02351333333333, "bike_id": "33e5fe34fd35259e2a5b7e1221685e87", "type": "electric_scooter", "name": "33e5fe34fd35259e2a5b7e1221685e87"}, {"is_disabled": 0, "is_reserved": 0, "fusion_lat": 0.0, "lat": 38.918180166666666, "fusion_lon": 0.0, "rental_uris": {"ios": "https://dc.lft.to/lastmile_qr_scan", "android": "https://dc.lft.to/lastmile_qr_scan"}, "lon": -77.027175, "bike_id": "6beb124f30c77119b3ce9c800b382a43", "type": "electric_scooter", "name": "6beb124f30c77119b3ce9c800b382a43"}, {"is_disabled": 0, "is_reserved": 0, "fusion_lat": 0.0, "lat": 38.87661283333333, "fusion_lon": 0.0, "rental_uris": {"ios": "https://dc.lft.to/lastmile_qr_scan", "android": "https://dc.lft.to/lastmile_qr_scan"}, "lon": -77.00895883333334, "bike_id": "90c6d81ab2169876ff91c4753be043cb", "type": "electric_scooter", "name": "90c6d81ab2169876ff91c4753be043cb"}, {"is_disabled": 0, "is_reserved": 0, "fusion_lat": 0.0, "lat": 38.92300483333333, "fusion_lon": 0.0, "rental_uris": {"ios": "https://dc.lft.to/lastmile_qr_scan", "android": "https://dc.lft.to/lastmile_qr_scan"}, "lon": -77.03413066666667, "bike_id": "eef775898af9fd82c46f980f3b7eff9a", "type": "electric_scooter", "name": "eef775898af9fd82c46f980f3b7eff9a"}, {"is_disabled": 0, "is_reserved": 0, "fusion_lat": 0.0, "lat": 38.9744205, "fusion_lon": 0.0, "rental_uris": {"ios": "https://dc.lft.to/lastmile_qr_scan", "android": "https://dc.lft.to/lastmile_qr_scan"}, "lon": -77.0961385, "bike_id": "0030f4720443f09096f90fde96319996", "type": "electric_bike", "name": "0030f4720443f09096f90fde96319996"}, {"is_disabled": 0, "is_reserved": 0, "fusion_lat": 0.0, "lat": 38.89848883333333, "fusion_lon": 0.0, "rental_uris": {"ios": "https://dc.lft.to/lastmile_qr_scan", "android": "https://dc.lft.to/lastmile_qr_scan"}, "lon": -77.002157, "bike_id": "c0c6ed5b59c40295aadc0115366cc02e", "type": "electric_scooter", "name": "c0c6ed5b59c40295aadc0115366cc02e"}, {"is_disabled": 0, "is_reserved": 0, "fusion_lat": 0.0, "lat": 38.89455983333333, "fusion_lon": 0.0, "rental_uris": {"ios": "https://dc.lft.to/lastmile_qr_scan", "android": "https://dc.lft.to/lastmile_qr_scan"}, "lon": -76.93677766666667, "bike_id": "cbec32a973d09cec5ecbd932b3fe2fda", "type": "electric_bike", "name": "cbec32a973d09cec5ecbd932b3fe2fda"}, {"is_disabled": 0, "is_reserved": 0, "fusion_lat": 0.0, "lat": 38.8849275, "fusion_lon": 0.0, "rental_uris": {"ios": "https://dc.lft.to/lastmile_qr_scan", "android": "https://dc.lft.to/lastmile_qr_scan"}, "lon": -77.02371366666667, "bike_id": "404be1042310380f99a62274ff276d89", "type": "electric_scooter", "name": "404be1042310380f99a62274ff276d89"}, {"is_disabled": 0, "is_reserved": 0, "fusion_lat": 0.0, "lat": 38.948471166666664, "fusion_lon": 0.0, "rental_uris": {"ios": "https://dc.lft.to/lastmile_qr_scan", "android": "https://dc.lft.to/lastmile_qr_scan"}, "lon": -77.0211505, "bike_id": "9269314dabc9119ccee679180d3d8503", "type": "electric_scooter", "name": "9269314dabc9119ccee679180d3d8503"}, {"is_disabled": 0, "is_reserved": 0, "fusion_lat": 0.0, "lat": 38.923505, "fusion_lon": 0.0, "rental_uris": {"ios": "https://dc.lft.to/lastmile_qr_scan", "android": "https://dc.lft.to/lastmile_qr_scan"}, "lon": -77.03322533333333, "bike_id": "b5b06360d47f70e58bc0011730907e93", "type": "electric_scooter", "name": "b5b06360d47f70e58bc0011730907e93"}, {"is_disabled": 0, "is_reserved": 0, "fusion_lat": 0.0, "lat": 38.92085683333333, "fusion_lon": 0.0, "rental_uris": {"ios": "https://dc.lft.to/lastmile_qr_scan", "android": "https://dc.lft.to/lastmile_qr_scan"}, "lon": -77.01747533333334, "bike_id": "fa3a7e5533d9cbacfe2c2deb69890087", "type": "electric_scooter", "name": "fa3a7e5533d9cbacfe2c2deb69890087"}, {"is_disabled": 0, "is_reserved": 0, "fusion_lat": 0.0, "lat": 38.871019833333335, "fusion_lon": 0.0, "rental_uris": {"ios": "https://dc.lft.to/lastmile_qr_scan", "android": "https://dc.lft.to/lastmile_qr_scan"}, "lon": -77.012057, "bike_id": "7c562435937214534111f8d207f97e1c", "type": "electric_scooter", "name": "7c562435937214534111f8d207f97e1c"}, {"is_disabled": 0, "is_reserved": 0, "fusion_lat": 0.0, "lat": 38.92220316666667, "fusion_lon": 0.0, "rental_uris": {"ios": "https://dc.lft.to/lastmile_qr_scan", "android": "https://dc.lft.to/lastmile_qr_scan"}, "lon": -77.03293833333333, "bike_id": "05cf2966ec80692480459495a642f9d3", "type": "electric_scooter", "name": "05cf2966ec80692480459495a642f9d3"}, {"is_disabled": 0, "is_reserved": 0, "fusion_lat": 0.0, "lat": 38.930256166666666, "fusion_lon": 0.0, "rental_uris": {"ios": "https://dc.lft.to/lastmile_qr_scan", "android": "https://dc.lft.to/lastmile_qr_scan"}, "lon": -77.03800566666666, "bike_id": "564eecbad0c44a3eb7828a08ad7fa6cc", "type": "electric_scooter", "name": "564eecbad0c44a3eb7828a08ad7fa6cc"}, {"is_disabled": 0, "is_reserved": 0, "fusion_lat": 0.0, "lat": 38.90470833333333, "fusion_lon": 0.0, "rental_uris": {"ios": "https://dc.lft.to/lastmile_qr_scan", "android": "https://dc.lft.to/lastmile_qr_scan"}, "lon": -76.95051166666667, "bike_id": "359c13e465699c183f8e6b88fd01de0f", "type": "electric_scooter", "name": "359c13e465699c183f8e6b88fd01de0f"}, {"is_disabled": 0, "is_reserved": 0, "fusion_lat": 0.0, "lat": 38.89707833333333, "fusion_lon": 0.0, "rental_uris": {"ios": "https://dc.lft.to/lastmile_qr_scan", "android": "https://dc.lft.to/lastmile_qr_scan"}, "lon": -77.04887, "bike_id": "343278ae5075118aa67f21dee5b72117", "type": "electric_scooter", "name": "343278ae5075118aa67f21dee5b72117"}, {"is_disabled": 0, "is_reserved": 0, "fusion_lat": 0.0, "lat": 38.85516883333333, "fusion_lon": 0.0, "rental_uris": {"ios": "https://dc.lft.to/lastmile_qr_scan", "android": "https://dc.lft.to/lastmile_qr_scan"}, "lon": -76.99150783333333, "bike_id": "0b183c5a9098483ceac942de78504a4a", "type": "electric_scooter", "name": "0b183c5a9098483ceac942de78504a4a"}, {"is_disabled": 0, "is_reserved": 0, "fusion_lat": 0.0, "lat": 38.924317, "fusion_lon": 0.0, "rental_uris": {"ios": "https://dc.lft.to/lastmile_qr_scan", "android": "https://dc.lft.to/lastmile_qr_scan"}, "lon": -77.02972283333334, "bike_id": "c5eaa0f43022da141f2eb62f335de0b5", "type": "electric_scooter", "name": "c5eaa0f43022da141f2eb62f335de0b5"}, {"is_disabled": 0, "is_reserved": 0, "fusion_lat": 0.0, "lat": 38.910314166666666, "fusion_lon": 0.0, "rental_uris": {"ios": "https://dc.lft.to/lastmile_qr_scan", "android": "https://dc.lft.to/lastmile_qr_scan"}, "lon": -76.92333916666666, "bike_id": "10f98708a26b4a0efac7c071e9c754d5", "type": "electric_bike", "name": "10f98708a26b4a0efac7c071e9c754d5"}, {"is_disabled": 0, "is_reserved": 0, "fusion_lat": 0.0, "lat": 38.90011666666667, "fusion_lon": 0.0, "rental_uris": {"ios": "https://dc.lft.to/lastmile_qr_scan", "android": "https://dc.lft.to/lastmile_qr_scan"}, "lon": -77.006839, "bike_id": "8824980185cbd954a5c3344d2989ac39", "type": "electric_scooter", "name": "8824980185cbd954a5c3344d2989ac39"}, {"is_disabled": 0, "is_reserved": 0, "fusion_lat": 0.0, "lat": 38.93243233333333, "fusion_lon": 0.0, "rental_uris": {"ios": "https://dc.lft.to/lastmile_qr_scan", "android": "https://dc.lft.to/lastmile_qr_scan"}, "lon": -77.02935533333333, "bike_id": "642d4b7b952dd0b112445d879e17c935", "type": "electric_scooter", "name": "642d4b7b952dd0b112445d879e17c935"}, {"is_disabled": 0, "is_reserved": 0, "fusion_lat": 0.0, "lat": 38.909196, "fusion_lon": 0.0, "rental_uris": {"ios": "https://dc.lft.to/lastmile_qr_scan", "android": "https://dc.lft.to/lastmile_qr_scan"}, "lon": -77.0494235, "bike_id": "4e3d86658695f346807bbd5c667a1a79", "type": "electric_scooter", "name": "4e3d86658695f346807bbd5c667a1a79"}, {"is_disabled": 0, "is_reserved": 0, "fusion_lat": 0.0, "lat": 38.913502666666666, "fusion_lon": 0.0, "rental_uris": {"ios": "https://dc.lft.to/lastmile_qr_scan", "android": "https://dc.lft.to/lastmile_qr_scan"}, "lon": -76.97139883333334, "bike_id": "1596841c03fd80ab5038dcd294684e01", "type": "electric_scooter", "name": "1596841c03fd80ab5038dcd294684e01"}, {"is_disabled": 0, "is_reserved": 0, "fusion_lat": 0.0, "lat": 38.925035, "fusion_lon": 0.0, "rental_uris": {"ios": "https://dc.lft.to/lastmile_qr_scan", "android": "https://dc.lft.to/lastmile_qr_scan"}, "lon": -77.02358533333333, "bike_id": "117978ea52face817519c5cf24520c3f", "type": "electric_scooter", "name": "117978ea52face817519c5cf24520c3f"}, {"is_disabled": 0, "is_reserved": 0, "fusion_lat": 0.0, "lat": 38.89932733333333, "fusion_lon": 0.0, "rental_uris": {"ios": "https://dc.lft.to/lastmile_qr_scan", "android": "https://dc.lft.to/lastmile_qr_scan"}, "lon": -77.014903, "bike_id": "2a6ebd79245a98c83353c45814289d1e", "type": "electric_scooter", "name": "2a6ebd79245a98c83353c45814289d1e"}, {"is_disabled": 0, "is_reserved": 0, "fusion_lat": 0.0, "lat": 38.92976733333333, "fusion_lon": 0.0, "rental_uris": {"ios": "https://dc.lft.to/lastmile_qr_scan", "android": "https://dc.lft.to/lastmile_qr_scan"}, "lon": -77.03888416666666, "bike_id": "4c03ea25dfa86d916422bb653f2cd129", "type": "electric_scooter", "name": "4c03ea25dfa86d916422bb653f2cd129"}, {"is_disabled": 0, "is_reserved": 0, "fusion_lat": 0.0, "lat": 38.88712183333333, "fusion_lon": 0.0, "rental_uris": {"ios": "https://dc.lft.to/lastmile_qr_scan", "android": "https://dc.lft.to/lastmile_qr_scan"}, "lon": -76.98345, "bike_id": "6694046ff1853b7d615c0aea8003aca6", "type": "electric_scooter", "name": "6694046ff1853b7d615c0aea8003aca6"}, {"is_disabled": 0, "is_reserved": 0, "fusion_lat": 0.0, "lat": 38.918361833333336, "fusion_lon": 0.0, "rental_uris": {"ios": "https://dc.lft.to/lastmile_qr_scan", "android": "https://dc.lft.to/lastmile_qr_scan"}, "lon": -77.02291716666667, "bike_id": "1ea5ec8f61bbd59fa59a79adfca9c203", "type": "electric_scooter", "name": "1ea5ec8f61bbd59fa59a79adfca9c203"}, {"is_disabled": 0, "is_reserved": 0, "fusion_lat": 0.0, "lat": 38.89893683333333, "fusion_lon": 0.0, "rental_uris": {"ios": "https://dc.lft.to/lastmile_qr_scan", "android": "https://dc.lft.to/lastmile_qr_scan"}, "lon": -77.019746, "bike_id": "2761e1755808fcdaa92ec30c7d858aab", "type": "electric_scooter", "name": "2761e1755808fcdaa92ec30c7d858aab"}, {"is_disabled": 0, "is_reserved": 0, "fusion_lat": 0.0, "lat": 38.909626, "fusion_lon": 0.0, "rental_uris": {"ios": "https://dc.lft.to/lastmile_qr_scan", "android": "https://dc.lft.to/lastmile_qr_scan"}, "lon": -77.02576433333333, "bike_id": "ba7e1e6193f83835a1bf5ec44d22fbf5", "type": "electric_scooter", "name": "ba7e1e6193f83835a1bf5ec44d22fbf5"}, {"is_disabled": 0, "is_reserved": 0, "fusion_lat": 0.0, "lat": 38.88027266666667, "fusion_lon": 0.0, "rental_uris": {"ios": "https://dc.lft.to/lastmile_qr_scan", "android": "https://dc.lft.to/lastmile_qr_scan"}, "lon": -76.94322633333333, "bike_id": "af725a1f72e0294279c409d08fdcf60a", "type": "electric_scooter", "name": "af725a1f72e0294279c409d08fdcf60a"}, {"is_disabled": 0, "is_reserved": 0, "fusion_lat": 0.0, "lat": 38.84620833333334, "fusion_lon": 0.0, "rental_uris": {"ios": "https://dc.lft.to/lastmile_qr_scan", "android": "https://dc.lft.to/lastmile_qr_scan"}, "lon": -76.97837966666667, "bike_id": "5e5f57ce61ed093a0ec6cd82a62cca3d", "type": "electric_bike", "name": "5e5f57ce61ed093a0ec6cd82a62cca3d"}, {"is_disabled": 0, "is_reserved": 0, "fusion_lat": 0.0, "lat": 38.90641733333333, "fusion_lon": 0.0, "rental_uris": {"ios": "https://dc.lft.to/lastmile_qr_scan", "android": "https://dc.lft.to/lastmile_qr_scan"}, "lon": -77.070196, "bike_id": "2f91bfdd47ecee65954c9c7843e7adcd", "type": "electric_scooter", "name": "2f91bfdd47ecee65954c9c7843e7adcd"}, {"is_disabled": 0, "is_reserved": 0, "fusion_lat": 0.0, "lat": 38.84646766666667, "fusion_lon": 0.0, "rental_uris": {"ios": "https://dc.lft.to/lastmile_qr_scan", "android": "https://dc.lft.to/lastmile_qr_scan"}, "lon": -77.00365583333334, "bike_id": "5dc072a70ab5473c0ab8724eb8960019", "type": "electric_scooter", "name": "5dc072a70ab5473c0ab8724eb8960019"}, {"is_disabled": 0, "is_reserved": 0, "fusion_lat": 0.0, "lat": 38.90033366666667, "fusion_lon": 0.0, "rental_uris": {"ios": "https://dc.lft.to/lastmile_qr_scan", "android": "https://dc.lft.to/lastmile_qr_scan"}, "lon": -77.01763483333333, "bike_id": "a67792221507bc7f8b3cdf29b1f62d20", "type": "electric_scooter", "name": "a67792221507bc7f8b3cdf29b1f62d20"}, {"is_disabled": 0, "is_reserved": 0, "fusion_lat": 0.0, "lat": 38.90568566666666, "fusion_lon": 0.0, "rental_uris": {"ios": "https://dc.lft.to/lastmile_qr_scan", "android": "https://dc.lft.to/lastmile_qr_scan"}, "lon": -77.04874583333333, "bike_id": "1dcb743a7088c0a36546d9495c0038dd", "type": "electric_scooter", "name": "1dcb743a7088c0a36546d9495c0038dd"}, {"is_disabled": 0, "is_reserved": 0, "fusion_lat": 0.0, "lat": 38.906195, "fusion_lon": 0.0, "rental_uris": {"ios": "https://dc.lft.to/lastmile_qr_scan", "android": "https://dc.lft.to/lastmile_qr_scan"}, "lon": -77.033946, "bike_id": "cdd68c7e20ef85d782ece02abc63ae3e", "type": "electric_scooter", "name": "cdd68c7e20ef85d782ece02abc63ae3e"}, {"is_disabled": 0, "is_reserved": 0, "fusion_lat": 0.0, "lat": 38.8954855, "fusion_lon": 0.0, "rental_uris": {"ios": "https://dc.lft.to/lastmile_qr_scan", "android": "https://dc.lft.to/lastmile_qr_scan"}, "lon": -77.015468, "bike_id": "f454e6d8a0ad51b5b194ee84b8b9c173", "type": "electric_scooter", "name": "f454e6d8a0ad51b5b194ee84b8b9c173"}, {"is_disabled": 0, "is_reserved": 0, "fusion_lat": 0.0, "lat": 38.92351466666667, "fusion_lon": 0.0, "rental_uris": {"ios": "https://dc.lft.to/lastmile_qr_scan", "android": "https://dc.lft.to/lastmile_qr_scan"}, "lon": -77.03545333333334, "bike_id": "957fbba6915dddb263bae400540d380f", "type": "electric_scooter", "name": "957fbba6915dddb263bae400540d380f"}, {"is_disabled": 0, "is_reserved": 0, "fusion_lat": 0.0, "lat": 38.92559416666667, "fusion_lon": 0.0, "rental_uris": {"ios": "https://dc.lft.to/lastmile_qr_scan", "android": "https://dc.lft.to/lastmile_qr_scan"}, "lon": -77.02281483333333, "bike_id": "eeff1477c7d9b0263cb25ccbcb1ffa6e", "type": "electric_scooter", "name": "eeff1477c7d9b0263cb25ccbcb1ffa6e"}, {"is_disabled": 0, "is_reserved": 0, "fusion_lat": 0.0, "lat": 38.87693816666667, "fusion_lon": 0.0, "rental_uris": {"ios": "https://dc.lft.to/lastmile_qr_scan", "android": "https://dc.lft.to/lastmile_qr_scan"}, "lon": -77.01758916666667, "bike_id": "6cb6a274c515c29a8cef76d0bd3cb694", "type": "electric_scooter", "name": "6cb6a274c515c29a8cef76d0bd3cb694"}, {"is_disabled": 0, "is_reserved": 0, "fusion_lat": 0.0, "lat": 38.929084, "fusion_lon": 0.0, "rental_uris": {"ios": "https://dc.lft.to/lastmile_qr_scan", "android": "https://dc.lft.to/lastmile_qr_scan"}, "lon": -77.02615383333334, "bike_id": "00fa8a398a46ae4b89ee9649de8f76a5", "type": "electric_scooter", "name": "00fa8a398a46ae4b89ee9649de8f76a5"}, {"is_disabled": 0, "is_reserved": 0, "fusion_lat": 0.0, "lat": 38.942012166666665, "fusion_lon": 0.0, "rental_uris": {"ios": "https://dc.lft.to/lastmile_qr_scan", "android": "https://dc.lft.to/lastmile_qr_scan"}, "lon": -77.0882455, "bike_id": "7546f6f5d4a3eba5da36c3058d0f87f5", "type": "electric_scooter", "name": "7546f6f5d4a3eba5da36c3058d0f87f5"}, {"is_disabled": 0, "is_reserved": 0, "fusion_lat": 0.0, "lat": 38.9511065, "fusion_lon": 0.0, "rental_uris": {"ios": "https://dc.lft.to/lastmile_qr_scan", "android": "https://dc.lft.to/lastmile_qr_scan"}, "lon": -77.01889133333333, "bike_id": "47475f1dd0149f92b78f000bdf050ff0", "type": "electric_scooter", "name": "47475f1dd0149f92b78f000bdf050ff0"}, {"is_disabled": 0, "is_reserved": 0, "fusion_lat": 0.0, "lat": 38.9215085, "fusion_lon": 0.0, "rental_uris": {"ios": "https://dc.lft.to/lastmile_qr_scan", "android": "https://dc.lft.to/lastmile_qr_scan"}, "lon": -77.03643766666667, "bike_id": "54d50f22c154ec6e6f2289465ea043bf", "type": "electric_scooter", "name": "54d50f22c154ec6e6f2289465ea043bf"}, {"is_disabled": 0, "is_reserved": 0, "fusion_lat": 0.0, "lat": 38.982131333333335, "fusion_lon": 0.0, "rental_uris": {"ios": "https://dc.lft.to/lastmile_qr_scan", "android": "https://dc.lft.to/lastmile_qr_scan"}, "lon": -76.978173, "bike_id": "a2b6f5df4f4586cc2e3a1fc1d28c3b13", "type": "electric_bike", "name": "a2b6f5df4f4586cc2e3a1fc1d28c3b13"}, {"is_disabled": 0, "is_reserved": 0, "fusion_lat": 0.0, "lat": 38.89365383333333, "fusion_lon": 0.0, "rental_uris": {"ios": "https://dc.lft.to/lastmile_qr_scan", "android": "https://dc.lft.to/lastmile_qr_scan"}, "lon": -77.044764, "bike_id": "95898cb6921cbb143548da651c0b911b", "type": "electric_scooter", "name": "95898cb6921cbb143548da651c0b911b"}, {"is_disabled": 0, "is_reserved": 0, "fusion_lat": 0.0, "lat": 38.935984833333336, "fusion_lon": 0.0, "rental_uris": {"ios": "https://dc.lft.to/lastmile_qr_scan", "android": "https://dc.lft.to/lastmile_qr_scan"}, "lon": -77.0559315, "bike_id": "1985dd794666b883b4f402090c3194c5", "type": "electric_scooter", "name": "1985dd794666b883b4f402090c3194c5"},