{"data": {"bikes": [{"bike_id": "0adfa7fc99e3b0ecfec60818b5a306a6", "fusion_lon": 0.0, "type": "electric_scooter", "name": "0adfa7fc99e3b0ecfec60818b5a306a6", "rental_uris": {"android": "https://dc.lft.to/lastmile_qr_scan", "ios": "https://dc.lft.to/lastmile_qr_scan"}, "fusion_lat": 0.0, "lat": 38.8940445, "is_disabled": 0, "lon": -76.98563266666666, "is_reserved": 0}, {"bike_id": "3fad70e8d669c7ccda013456ca4dd38e", "fusion_lon": 0.0, "type": "electric_scooter", "name": "3fad70e8d669c7ccda013456ca4dd38e", "rental_uris": {"android": "https://dc.lft.to/lastmile_qr_scan", "ios": "https://dc.lft.to/lastmile_qr_scan"}, "fusion_lat": 0.0, "lat": 38.925118833333336, "is_disabled": 0, "lon": -77.025849, "is_reserved": 0}, {"bike_id": "177ee59f1c5c9ffbb87b527d0ca37c7c", "fusion_lon": 0.0, "type": "electric_scooter", "name": "177ee59f1c5c9ffbb87b527d0ca37c7c", "rental_uris": {"android": "https://dc.lft.to/lastmile_qr_scan", "ios": "https://dc.lft.to/lastmile_qr_scan"}, "fusion_lat": 0.0, "lat": 38.93666016666667, "is_disabled": 0, "lon": -77.05935166666667, "is_reserved": 0}, {"bike_id": "82bb14657f96ab81342489b33ab3154d", "fusion_lon": 0.0, "type": "electric_scooter", "name": "82bb14657f96ab81342489b33ab3154d", "rental_uris": {"android": "https://dc.lft.to/lastmile_qr_scan", "ios": "https://dc.lft.to/lastmile_qr_scan"}, "fusion_lat": 0.0, "lat": 38.92776083333333, "is_disabled": 0, "lon": -77.027836, "is_reserved": 0}, {"bike_id": "66eadd8a3709f61687a60a37d32bf7df", "fusion_lon": 0.0, "type": "electric_scooter", "name": "66eadd8a3709f61687a60a37d32bf7df", "rental_uris": {"android": "https://dc.lft.to/lastmile_qr_scan", "ios": "https://dc.lft.to/lastmile_qr_scan"}, "fusion_lat": 0.0, "lat": 38.90431233333334, "is_disabled": 0, "lon": -77.02854316666667, "is_reserved": 0}, {"bike_id": "a5357ae2e15853a8199d791b7e5451f0", "fusion_lon": 0.0, "type": "electric_bike", "name": "a5357ae2e15853a8199d791b7e5451f0", "rental_uris": {"android": "https://dc.lft.to/lastmile_qr_scan", "ios": "https://dc.lft.to/lastmile_qr_scan"}, "fusion_lat": 0.0, "lat": 38.9491955, "is_disabled": 0, "lon": -77.00803183333333, "is_reserved": 0}, {"bike_id": "219a28c7505934fd957e9a4b9fa26684", "fusion_lon": 0.0, "type": "electric_scooter", "name": "219a28c7505934fd957e9a4b9fa26684", "rental_uris": {"android": "https://dc.lft.to/lastmile_qr_scan", "ios": "https://dc.lft.to/lastmile_qr_scan"}, "fusion_lat": 0.0, "lat": 38.951299666666664, "is_disabled": 0, "lon": -77.027222, "is_reserved": 0}, {"bike_id": "37e019c2ceae9f5e4c2b4f6797a807cd", "fusion_lon": 0.0, "type": "electric_scooter", "name": "37e019c2ceae9f5e4c2b4f6797a807cd", "rental_uris": {"android": "https://dc.lft.to/lastmile_qr_scan", "ios": "https://dc.lft.to/lastmile_qr_scan"}, "fusion_lat": 0.0, "lat": 38.9300705, "is_disabled": 0, "lon": -77.0210645, "is_reserved": 0}, {"bike_id": "ca886c7d67c3b478a4a84f9c2526bd4f", "fusion_lon": 0.0, "type": "electric_scooter", "name": "ca886c7d67c3b478a4a84f9c2526bd4f", "rental_uris": {"android": "https://dc.lft.to/lastmile_qr_scan", "ios": "https://dc.lft.to/lastmile_qr_scan"}, "fusion_lat": 0.0, "lat": 38.93590583333334, "is_disabled": 0, "lon": -77.03366266666667, "is_reserved": 0}, {"bike_id": "36242145793a2729c823770e8fba5be0", "fusion_lon": 0.0, "type": "electric_scooter", "name": "36242145793a2729c823770e8fba5be0", "rental_uris": {"android": "https://dc.lft.to/lastmile_qr_scan", "ios": "https://dc.lft.to/lastmile_qr_scan"}, "fusion_lat": 0.0, "lat": 38.9155585, "is_disabled": 0, "lon": -77.02426533333333, "is_reserved": 0}, {"bike_id": "f9ce3d54f142013e46df55fc11458003", "fusion_lon": 0.0, "type": "electric_scooter", "name": "f9ce3d54f142013e46df55fc11458003", "rental_uris": {"android": "https://dc.lft.to/lastmile_qr_scan", "ios": "https://dc.lft.to/lastmile_qr_scan"}, "fusion_lat": 0.0, "lat": 38.890876, "is_disabled": 0, "lon": -76.99786983333334, "is_reserved": 0}, {"bike_id": "3bc2d9e9f60bc8368026e54758424079", "fusion_lon": 0.0, "type": "electric_scooter", "name": "3bc2d9e9f60bc8368026e54758424079", "rental_uris": {"android": "https://dc.lft.to/lastmile_qr_scan", "ios": "https://dc.lft.to/lastmile_qr_scan"}, "fusion_lat": 0.0, "lat": 38.9341365, "is_disabled": 0, "lon": -77.0249855, "is_reserved": 0}, {"bike_id": "e88f1e607950e65e4fe8be4acd8c0917", "fusion_lon": 0.0, "type": "electric_scooter", "name": "e88f1e607950e65e4fe8be4acd8c0917", "rental_uris": {"android": "https://dc.lft.to/lastmile_qr_scan", "ios": "https://dc.lft.to/lastmile_qr_scan"}, "fusion_lat": 0.0, "lat": 38.907858, "is_disabled": 0, "lon": -77.00963833333333, "is_reserved": 0}, {"bike_id": "4f1e673339ca9b4c62c90166e28fb13b", "fusion_lon": 0.0, "type": "electric_scooter", "name": "4f1e673339ca9b4c62c90166e28fb13b", "rental_uris": {"android": "https://dc.lft.to/lastmile_qr_scan", "ios": "https://dc.lft.to/lastmile_qr_scan"}, "fusion_lat": 0.0, "lat": 38.860547333333336, "is_disabled": 0, "lon": -76.9907585, "is_reserved": 0}, {"bike_id": "11673f22909912b5c57fb2a5abca5e96", "fusion_lon": 0.0, "type": "electric_scooter", "name": "11673f22909912b5c57fb2a5abca5e96", "rental_uris": {"android": "https://dc.lft.to/lastmile_qr_scan", "ios": "https://dc.lft.to/lastmile_qr_scan"}, "fusion_lat": 0.0, "lat": 38.865063666666664, "is_disabled": 0, "lon": -76.990041, "is_reserved": 0}, {"bike_id": "7b9c9ce62fef5635027499cd79c1a3b7", "fusion_lon": 0.0, "type": "electric_scooter", "name": "7b9c9ce62fef5635027499cd79c1a3b7", "rental_uris": {"android": "https://dc.lft.to/lastmile_qr_scan", "ios": "https://dc.lft.to/lastmile_qr_scan"}, "fusion_lat": 0.0, "lat": 38.92330366666667, "is_disabled": 0, "lon": -77.03895933333334, "is_reserved": 0}, {"bike_id": "d72aae79cf47c1a9e08b5f7fe8284911", "fusion_lon": 0.0, "type": "electric_scooter", "name": "d72aae79cf47c1a9e08b5f7fe8284911", "rental_uris": {"android": "https://dc.lft.to/lastmile_qr_scan", "ios": "https://dc.lft.to/lastmile_qr_scan"}, "fusion_lat": 0.0, "lat": 38.91691333333333, "is_disabled": 0, "lon": -77.02815416666667, "is_reserved": 0}, {"bike_id": "8cc9cd2714088054e953074526fc8d56", "fusion_lon": 0.0, "type": "electric_scooter", "name": "8cc9cd2714088054e953074526fc8d56", "rental_uris": {"android": "https://dc.lft.to/lastmile_qr_scan", "ios": "https://dc.lft.to/lastmile_qr_scan"}, "fusion_lat": 0.0, "lat": 38.92839816666667, "is_disabled": 0, "lon": -76.99364216666666, "is_reserved": 0}, {"bike_id": "223399a2f9533f95ab81931d26edeff4", "fusion_lon": 0.0, "type": "electric_scooter", "name": "223399a2f9533f95ab81931d26edeff4", "rental_uris": {"android": "https://dc.lft.to/lastmile_qr_scan", "ios": "https://dc.lft.to/lastmile_qr_scan"}, "fusion_lat": 0.0, "lat": 38.904765833333336, "is_disabled": 0, "lon": -77.04026, "is_reserved": 0}, {"bike_id": "d2b28ee3a2fc3d1b8ce1b48e6bb28e08", "fusion_lon": 0.0, "type": "electric_scooter", "name": "d2b28ee3a2fc3d1b8ce1b48e6bb28e08", "rental_uris": {"android": "https://dc.lft.to/lastmile_qr_scan", "ios": "https://dc.lft.to/lastmile_qr_scan"}, "fusion_lat": 0.0, "lat": 38.90271766666667, "is_disabled": 0, "lon": -77.03834066666667, "is_reserved": 0}, {"bike_id": "65f9b9fbf3dcc68d17e9a9335496e04c", "fusion_lon": 0.0, "type": "electric_scooter", "name": "65f9b9fbf3dcc68d17e9a9335496e04c", "rental_uris": {"android": "https://dc.lft.to/lastmile_qr_scan", "ios": "https://dc.lft.to/lastmile_qr_scan"}, "fusion_lat": 0.0, "lat": 38.916593, "is_disabled": 0, "lon": -77.02403616666666, "is_reserved": 0}, {"bike_id": "2db12a73f567a2c74b699db409777211", "fusion_lon": 0.0, "type": "electric_scooter", "name": "2db12a73f567a2c74b699db409777211", "rental_uris": {"android": "https://dc.lft.to/lastmile_qr_scan", "ios": "https://dc.lft.to/lastmile_qr_scan"}, "fusion_lat": 0.0, "lat": 38.838379, "is_disabled": 0, "lon": -76.99983133333333, "is_reserved": 0}, {"bike_id": "411da2039f18282016f8b2c71d73ce09", "fusion_lon": 0.0, "type": "electric_scooter", "name": "411da2039f18282016f8b2c71d73ce09", "rental_uris": {"android": "https://dc.lft.to/lastmile_qr_scan", "ios": "https://dc.lft.to/lastmile_qr_scan"}, "fusion_lat": 0.0, "lat": 38.918341166666664, "is_disabled": 0, "lon": -77.0230345, "is_reserved": 0}, {"bike_id": "fbd8f187a8b766353c70cbe0c2535f39", "fusion_lon": 0.0, "type": "electric_scooter", "name": "fbd8f187a8b766353c70cbe0c2535f39", "rental_uris": {"android": "https://dc.lft.to/lastmile_qr_scan", "ios": "https://dc.lft.to/lastmile_qr_scan"}, "fusion_lat": 0.0, "lat": 38.92577083333333, "is_disabled": 0, "lon": -77.04371233333333, "is_reserved": 0}, {"bike_id": "54157c171eb063a1312b311e88368f87", "fusion_lon": 0.0, "type": "electric_scooter", "name": "54157c171eb063a1312b311e88368f87", "rental_uris": {"android": "https://dc.lft.to/lastmile_qr_scan", "ios": "https://dc.lft.to/lastmile_qr_scan"}, "fusion_lat": 0.0, "lat": 38.930804333333334, "is_disabled": 0, "lon": -77.032736, "is_reserved": 0}, {"bike_id": "799f265a56903bf9f522141e438bc513", "fusion_lon": 0.0, "type": "electric_bike", "name": "799f265a56903bf9f522141e438bc513", "rental_uris": {"android": "https://dc.lft.to/lastmile_qr_scan", "ios": "https://dc.lft.to/lastmile_qr_scan"}, "fusion_lat": 0.0, "lat": 38.911392166666666, "is_disabled": 0, "lon": -77.0657275, "is_reserved": 0}, {"bike_id": "443cec968edf7b136fd919c9b1c8b2da", "fusion_lon": 0.0, "type": "electric_scooter", "name": "443cec968edf7b136fd919c9b1c8b2da", "rental_uris": {"android": "https://dc.lft.to/lastmile_qr_scan", "ios": "https://dc.lft.to/lastmile_qr_scan"}, "fusion_lat": 0.0, "lat": 38.93562883333333, "is_disabled": 0, "lon": -77.02132533333334, "is_reserved": 0}, {"bike_id": "8b8c0da2ee33312475efe5ea3e730c11", "fusion_lon": 0.0, "type": "electric_scooter", "name": "8b8c0da2ee33312475efe5ea3e730c11", "rental_uris": {"android": "https://dc.lft.to/lastmile_qr_scan", "ios": "https://dc.lft.to/lastmile_qr_scan"}, "fusion_lat": 0.0, "lat": 38.909754666666664, "is_disabled": 0, "lon": -77.03379466666667, "is_reserved": 0}, {"bike_id": "9f3a84b4817f1c4deeb3dcb5d9559510", "fusion_lon": 0.0, "type": "electric_scooter", "name": "9f3a84b4817f1c4deeb3dcb5d9559510", "rental_uris": {"android": "https://dc.lft.to/lastmile_qr_scan", "ios": "https://dc.lft.to/lastmile_qr_scan"}, "fusion_lat": 0.0, "lat": 38.84291666666667, "is_disabled": 0, "lon": -76.9994795, "is_reserved": 0}, {"bike_id": "d3c97ff9db323323bdfa278f2cff1d2c", "fusion_lon": 0.0, "type": "electric_scooter", "name": "d3c97ff9db323323bdfa278f2cff1d2c", "rental_uris": {"android": "https://dc.lft.to/lastmile_qr_scan", "ios": "https://dc.lft.to/lastmile_qr_scan"}, "fusion_lat": 0.0, "lat": 38.920648666666665, "is_disabled": 0, "lon": -77.03812633333334, "is_reserved": 0}, {"bike_id": "7a97beb18796ef3be9a7564cb6a88330", "fusion_lon": 0.0, "type": "electric_scooter", "name": "7a97beb18796ef3be9a7564cb6a88330", "rental_uris": {"android": "https://dc.lft.to/lastmile_qr_scan", "ios": "https://dc.lft.to/lastmile_qr_scan"}, "fusion_lat": 0.0, "lat": 38.89848516666667, "is_disabled": 0, "lon": -77.03312833333334, "is_reserved": 0}, {"bike_id": "ffa82cb11b9bb9df16b07a0e35f0f5f1", "fusion_lon": 0.0, "type": "electric_scooter", "name": "ffa82cb11b9bb9df16b07a0e35f0f5f1", "rental_uris": {"android": "https://dc.lft.to/lastmile_qr_scan", "ios": "https://dc.lft.to/lastmile_qr_scan"}, "fusion_lat": 0.0, "lat": 38.87196516666667, "is_disabled": 0, "lon": -77.012477, "is_reserved": 0}, {"bike_id": "569fe460f3e02c6dc384e00dd5949d23", "fusion_lon": 0.0, "type": "electric_scooter", "name": "569fe460f3e02c6dc384e00dd5949d23", "rental_uris": {"android": "https://dc.lft.to/lastmile_qr_scan", "ios": "https://dc.lft.to/lastmile_qr_scan"}, "fusion_lat": 0.0, "lat": 38.9078665, "is_disabled": 0, "lon": -77.0451175, "is_reserved": 0}, {"bike_id": "7cab548640e4f3b19de39f284c7d44f5", "fusion_lon": 0.0, "type": "electric_scooter", "name": "7cab548640e4f3b19de39f284c7d44f5", "rental_uris": {"android": "https://dc.lft.to/lastmile_qr_scan", "ios": "https://dc.lft.to/lastmile_qr_scan"}, "fusion_lat": 0.0, "lat": 38.911905833333336, "is_disabled": 0, "lon": -77.005519, "is_reserved": 0}, {"bike_id": "13dd8c7cf85700f4fbea8237371d0e1a", "fusion_lon": 0.0, "type": "electric_scooter", "name": "13dd8c7cf85700f4fbea8237371d0e1a", "rental_uris": {"android": "https://dc.lft.to/lastmile_qr_scan", "ios": "https://dc.lft.to/lastmile_qr_scan"}, "fusion_lat": 0.0, "lat": 38.908409666666664, "is_disabled": 0, "lon": -77.026966, "is_reserved": 0}, {"bike_id": "e05f94839c0a202cf08ff61e9f780635", "fusion_lon": 0.0, "type": "electric_scooter", "name": "e05f94839c0a202cf08ff61e9f780635", "rental_uris": {"android": "https://dc.lft.to/lastmile_qr_scan", "ios": "https://dc.lft.to/lastmile_qr_scan"}, "fusion_lat": 0.0, "lat": 38.94927883333333, "is_disabled": 0, "lon": -77.01934516666667, "is_reserved": 0}, {"bike_id": "615670e738f5b045fec4779e3a46d0c6", "fusion_lon": 0.0, "type": "electric_scooter", "name": "615670e738f5b045fec4779e3a46d0c6", "rental_uris": {"android": "https://dc.lft.to/lastmile_qr_scan", "ios": "https://dc.lft.to/lastmile_qr_scan"}, "fusion_lat": 0.0, "lat": 38.9552245, "is_disabled": 0, "lon": -77.007394, "is_reserved": 0}, {"bike_id": "e0a9448e49cf7f4bb1cadd86189067a7", "fusion_lon": 0.0, "type": "electric_scooter", "name": "e0a9448e49cf7f4bb1cadd86189067a7", "rental_uris": {"android": "https://dc.lft.to/lastmile_qr_scan", "ios": "https://dc.lft.to/lastmile_qr_scan"}, "fusion_lat": 0.0, "lat": 38.905431666666665, "is_disabled": 0, "lon": -77.02199, "is_reserved": 0}, {"bike_id": "6f6189be0ba2dec0ad303d5d5678991b", "fusion_lon": 0.0, "type": "electric_scooter", "name": "6f6189be0ba2dec0ad303d5d5678991b", "rental_uris": {"android": "https://dc.lft.to/lastmile_qr_scan", "ios": "https://dc.lft.to/lastmile_qr_scan"}, "fusion_lat": 0.0, "lat": 38.924182, "is_disabled": 0, "lon": -77.02003016666667, "is_reserved": 0}, {"bike_id": "efbcb64c6eaf67ba37c58054ca68b2e8", "fusion_lon": 0.0, "type": "electric_scooter", "name": "efbcb64c6eaf67ba37c58054ca68b2e8", "rental_uris": {"android": "https://dc.lft.to/lastmile_qr_scan", "ios": "https://dc.lft.to/lastmile_qr_scan"}, "fusion_lat": 0.0, "lat": 38.902180666666666, "is_disabled": 0, "lon": -77.00211016666667, "is_reserved": 0}, {"bike_id": "f82792a74c5ab0edbe723b54b1b69492", "fusion_lon": 0.0, "type": "electric_scooter", "name": "f82792a74c5ab0edbe723b54b1b69492", "rental_uris": {"android": "https://dc.lft.to/lastmile_qr_scan", "ios": "https://dc.lft.to/lastmile_qr_scan"}, "fusion_lat": 0.0, "lat": 38.9520895, "is_disabled": 0, "lon": -77.06785433333333, "is_reserved": 0}, {"bike_id": "96763d6d693e8383a57573e38fb2fe64", "fusion_lon": 0.0, "type": "electric_scooter", "name": "96763d6d693e8383a57573e38fb2fe64", "rental_uris": {"android": "https://dc.lft.to/lastmile_qr_scan", "ios": "https://dc.lft.to/lastmile_qr_scan"}, "fusion_lat": 0.0, "lat": 38.949948, "is_disabled": 0, "lon": -77.01842166666667, "is_reserved": 0}, {"bike_id": "c36ab777539d8233b1bbb9ecffcd8668", "fusion_lon": 0.0, "type": "electric_scooter", "name": "c36ab777539d8233b1bbb9ecffcd8668", "rental_uris": {"android": "https://dc.lft.to/lastmile_qr_scan", "ios": "https://dc.lft.to/lastmile_qr_scan"}, "fusion_lat": 0.0, "lat": 38.930407, "is_disabled": 0, "lon": -77.0330335, "is_reserved": 0}, {"bike_id": "607579de0afac748610cc6463bf132d1", "fusion_lon": 0.0, "type": "electric_scooter", "name": "607579de0afac748610cc6463bf132d1", "rental_uris": {"android": "https://dc.lft.to/lastmile_qr_scan", "ios": "https://dc.lft.to/lastmile_qr_scan"}, "fusion_lat": 0.0, "lat": 38.9192045, "is_disabled": 0, "lon": -77.03171633333334, "is_reserved": 0}, {"bike_id": "99a24ddbde6f6a86c9b1092ead03cc2a", "fusion_lon": 0.0, "type": "electric_scooter", "name": "99a24ddbde6f6a86c9b1092ead03cc2a", "rental_uris": {"android": "https://dc.lft.to/lastmile_qr_scan", "ios": "https://dc.lft.to/lastmile_qr_scan"}, "fusion_lat": 0.0, "lat": 38.93962033333333, "is_disabled": 0, "lon": -77.02504616666667, "is_reserved": 0}, {"bike_id": "84346bf45a3cad1bd131b84dc4e04a96", "fusion_lon": 0.0, "type": "electric_scooter", "name": "84346bf45a3cad1bd131b84dc4e04a96", "rental_uris": {"android": "https://dc.lft.to/lastmile_qr_scan", "ios": "https://dc.lft.to/lastmile_qr_scan"}, "fusion_lat": 0.0, "lat": 38.9287495, "is_disabled": 0, "lon": -77.02817183333333, "is_reserved": 0}, {"bike_id": "fdc696cb17ff57eb4efd5ed5fffbe83a", "fusion_lon": 0.0, "type": "electric_scooter", "name": "fdc696cb17ff57eb4efd5ed5fffbe83a", "rental_uris": {"android": "https://dc.lft.to/lastmile_qr_scan", "ios": "https://dc.lft.to/lastmile_qr_scan"}, "fusion_lat": 0.0, "lat": 38.92128666666667, "is_disabled": 0, "lon": -77.04419766666666, "is_reserved": 0}, {"bike_id": "73f18fe050018c60ccc26639b3282895", "fusion_lon": 0.0, "type": "electric_scooter", "name": "73f18fe050018c60ccc26639b3282895", "rental_uris": {"android": "https://dc.lft.to/lastmile_qr_scan", "ios": "https://dc.lft.to/lastmile_qr_scan"}, "fusion_lat": 0.0, "lat": 38.90117333333333, "is_disabled": 0, "lon": -77.05003716666667, "is_reserved": 0}, {"bike_id": "27ed872133a53adfb4e908ee76f00664", "fusion_lon": 0.0, "type": "electric_scooter", "name": "27ed872133a53adfb4e908ee76f00664", "rental_uris": {"android": "https://dc.lft.to/lastmile_qr_scan", "ios": "https://dc.lft.to/lastmile_qr_scan"}, "fusion_lat": 0.0, "lat": 38.874598, "is_disabled": 0, "lon": -77.00599716666666, "is_reserved": 0}, {"bike_id": "c932bebcf5f89eaab7095194cfed0a85", "fusion_lon": 0.0, "type": "electric_scooter", "name": "c932bebcf5f89eaab7095194cfed0a85", "rental_uris": {"android": "https://dc.lft.to/lastmile_qr_scan", "ios": "https://dc.lft.to/lastmile_qr_scan"}, "fusion_lat": 0.0, "lat": 38.906468333333336, "is_disabled": 0, "lon": -77.01793983333333, "is_reserved": 0}, {"bike_id": "2fbf82268abd9b8ddca767de2b6e7cd0", "fusion_lon": 0.0, "type": "electric_scooter", "name": "2fbf82268abd9b8ddca767de2b6e7cd0", "rental_uris": {"android": "https://dc.lft.to/lastmile_qr_scan", "ios": "https://dc.lft.to/lastmile_qr_scan"}, "fusion_lat": 0.0, "lat": 38.91122933333333, "is_disabled": 0, "lon": -77.02200216666667, "is_reserved": 0}, {"bike_id": "28a365b06eaca758a39cb83773dc005f", "fusion_lon": 0.0, "type": "electric_scooter", "name": "28a365b06eaca758a39cb83773dc005f", "rental_uris": {"android": "https://dc.lft.to/lastmile_qr_scan", "ios": "https://dc.lft.to/lastmile_qr_scan"}, "fusion_lat": 0.0, "lat": 38.933298, "is_disabled": 0, "lon": -77.02350283333334, "is_reserved": 0}, {"bike_id": "a9200ad11108715c4b43cb8e84537c57", "fusion_lon": 0.0, "type": "electric_scooter", "name": "a9200ad11108715c4b43cb8e84537c57", "rental_uris": {"android": "https://dc.lft.to/lastmile_qr_scan", "ios": "https://dc.lft.to/lastmile_qr_scan"}, "fusion_lat": 0.0, "lat": 38.8748095, "is_disabled": 0, "lon": -77.006561, "is_reserved": 0}, {"bike_id": "17c5383aa1777e87cf6030b3dbb8ea99", "fusion_lon": 0.0, "type": "electric_scooter", "name": "17c5383aa1777e87cf6030b3dbb8ea99", "rental_uris": {"android": "https://dc.lft.to/lastmile_qr_scan", "ios": "https://dc.lft.to/lastmile_qr_scan"}, "fusion_lat": 0.0, "lat": 38.902451, "is_disabled": 0, "lon": -76.989748, "is_reserved": 0}, {"bike_id": "9211f1dc80945043116406212572ec91", "fusion_lon": 0.0, "type": "electric_scooter", "name": "9211f1dc80945043116406212572ec91", "rental_uris": {"android": "https://dc.lft.to/lastmile_qr_scan", "ios": "https://dc.lft.to/lastmile_qr_scan"}, "fusion_lat": 0.0, "lat": 38.900751666666665, "is_disabled": 0, "lon": -77.0482075, "is_reserved": 0}, {"bike_id": "8432d0fcf80e4c0e1dfaf5cb3a7906dd", "fusion_lon": 0.0, "type": "electric_bike", "name": "8432d0fcf80e4c0e1dfaf5cb3a7906dd", "rental_uris": {"android": "https://dc.lft.to/lastmile_qr_scan", "ios": "https://dc.lft.to/lastmile_qr_scan"}, "fusion_lat": 0.0, "lat": 38.81602516666667, "is_disabled": 0, "lon": -77.14121233333333, "is_reserved": 0}, {"bike_id": "a532163fc72d0b757ae13f2863e356a3", "fusion_lon": 0.0, "type": "electric_scooter", "name": "a532163fc72d0b757ae13f2863e356a3", "rental_uris": {"android": "https://dc.lft.to/lastmile_qr_scan", "ios": "https://dc.lft.to/lastmile_qr_scan"}, "fusion_lat": 0.0, "lat": 38.91235316666667, "is_disabled": 0, "lon": -77.03838983333333, "is_reserved": 0}, {"bike_id": "2c9a4d68eed0915134ed1696d4798dc0", "fusion_lon": 0.0, "type": "electric_scooter", "name": "2c9a4d68eed0915134ed1696d4798dc0", "rental_uris": {"android": "https://dc.lft.to/lastmile_qr_scan", "ios": "https://dc.lft.to/lastmile_qr_scan"}, "fusion_lat": 0.0, "lat": 38.92516033333333, "is_disabled": 0, "lon": -77.052304, "is_reserved": 0}, {"bike_id": "024dd8dc00e84d556e8cb620049c5661", "fusion_lon": 0.0, "type": "electric_scooter", "name": "024dd8dc00e84d556e8cb620049c5661", "rental_uris": {"android": "https://dc.lft.to/lastmile_qr_scan", "ios": "https://dc.lft.to/lastmile_qr_scan"}, "fusion_lat": 0.0, "lat": 38.89682916666667, "is_disabled": 0, "lon": -76.93533566666666, "is_reserved": 0}, {"bike_id": "c5bb9caa6e18b5e3e4723b9a1fba4bd9", "fusion_lon": 0.0, "type": "electric_bike", "name": "c5bb9caa6e18b5e3e4723b9a1fba4bd9", "rental_uris": {"android": "https://dc.lft.to/lastmile_qr_scan", "ios": "https://dc.lft.to/lastmile_qr_scan"}, "fusion_lat": 0.0, "lat": 38.830395333333335, "is_disabled": 0, "lon": -77.108983, "is_reserved": 0}, {"bike_id": "7b41a749a6688e3e23bac9f37a4dc71e", "fusion_lon": 0.0, "type": "electric_scooter", "name": "7b41a749a6688e3e23bac9f37a4dc71e", "rental_uris": {"android": "https://dc.lft.to/lastmile_qr_scan", "ios": "https://dc.lft.to/lastmile_qr_scan"}, "fusion_lat": 0.0, "lat": 38.91541866666667, "is_disabled": 0, "lon": -77.03859016666667, "is_reserved": 0}, {"bike_id": "6898d4dbf01cd54bafd190bca0e2e901", "fusion_lon": 0.0, "type": "electric_scooter", "name": "6898d4dbf01cd54bafd190bca0e2e901", "rental_uris": {"android": "https://dc.lft.to/lastmile_qr_scan", "ios": "https://dc.lft.to/lastmile_qr_scan"}, "fusion_lat": 0.0, "lat": 38.90408983333333, "is_disabled": 0, "lon": -77.00133733333334, "is_reserved": 0}, {"bike_id": "62ebf5ebd9a8cf632700c03a27927451", "fusion_lon": 0.0, "type": "electric_bike", "name": "62ebf5ebd9a8cf632700c03a27927451", "rental_uris": {"android": "https://dc.lft.to/lastmile_qr_scan", "ios": "https://dc.lft.to/lastmile_qr_scan"}, "fusion_lat": 0.0, "lat": 38.92600066666667, "is_disabled": 0, "lon": -77.02424733333334, "is_reserved": 0}, {"bike_id": "bd7ff75627ea8ad6155bfdea20b5f932", "fusion_lon": 0.0, "type": "electric_scooter", "name": "bd7ff75627ea8ad6155bfdea20b5f932", "rental_uris": {"android": "https://dc.lft.to/lastmile_qr_scan", "ios": "https://dc.lft.to/lastmile_qr_scan"}, "fusion_lat": 0.0, "lat": 38.90650483333334, "is_disabled": 0, "lon": -77.029573, "is_reserved": 0}, {"bike_id": "d65069283ab77629f50725d8480578b6", "fusion_lon": 0.0, "type": "electric_bike", "name": "d65069283ab77629f50725d8480578b6", "rental_uris": {"android": "https://dc.lft.to/lastmile_qr_scan", "ios": "https://dc.lft.to/lastmile_qr_scan"}, "fusion_lat": 0.0, "lat": 38.8918425, "is_disabled": 0, "lon": -76.95032416666666, "is_reserved": 0}, {"bike_id": "ec0cc3f4dd53f93745d015263a460f16", "fusion_lon": 0.0, "type": "electric_bike", "name": "ec0cc3f4dd53f93745d015263a460f16", "rental_uris": {"android": "https://dc.lft.to/lastmile_qr_scan", "ios": "https://dc.lft.to/lastmile_qr_scan"}, "fusion_lat": 0.0, "lat": 38.963068, "is_disabled": 0, "lon": -77.011042, "is_reserved": 0}, {"bike_id": "72866cb98a869900126ed12019bd570c", "fusion_lon": 0.0, "type": "electric_scooter", "name": "72866cb98a869900126ed12019bd570c", "rental_uris": {"android": "https://dc.lft.to/lastmile_qr_scan", "ios": "https://dc.lft.to/lastmile_qr_scan"}, "fusion_lat": 0.0, "lat": 38.902643166666664, "is_disabled": 0, "lon": -77.03440716666667, "is_reserved": 0}, {"bike_id": "6c7a7c47805dc31bade5c371f2c7ae7d", "fusion_lon": 0.0, "type": "electric_scooter", "name": "6c7a7c47805dc31bade5c371f2c7ae7d", "rental_uris": {"android": "https://dc.lft.to/lastmile_qr_scan", "ios": "https://dc.lft.to/lastmile_qr_scan"}, "fusion_lat": 0.0, "lat": 38.90479666666667, "is_disabled": 0, "lon": -76.97332166666666, "is_reserved": 0}, {"bike_id": "9ad18e8bb4aee4032ea05439af71e9aa", "fusion_lon": 0.0, "type": "electric_scooter", "name": "9ad18e8bb4aee4032ea05439af71e9aa", "rental_uris": {"android": "https://dc.lft.to/lastmile_qr_scan", "ios": "https://dc.lft.to/lastmile_qr_scan"}, "fusion_lat": 0.0, "lat": 38.91057033333333, "is_disabled": 0, "lon": -77.02193333333334, "is_reserved": 0}, {"bike_id": "4aef8143564c0f3949f9b4f3cf498216", "fusion_lon": 0.0, "type": "electric_scooter", "name": "4aef8143564c0f3949f9b4f3cf498216", "rental_uris": {"android": "https://dc.lft.to/lastmile_qr_scan", "ios": "https://dc.lft.to/lastmile_qr_scan"}, "fusion_lat": 0.0, "lat": 38.92103383333333, "is_disabled": 0, "lon": -77.0366175, "is_reserved": 0}, {"bike_id": "f229723c91a254a238462ffc35309af5", "fusion_lon": 0.0, "type": "electric_scooter", "name": "f229723c91a254a238462ffc35309af5", "rental_uris": {"android": "https://dc.lft.to/lastmile_qr_scan", "ios": "https://dc.lft.to/lastmile_qr_scan"}, "fusion_lat": 0.0, "lat": 38.902753, "is_disabled": 0, "lon": -77.03665483333333, "is_reserved": 0}, {"bike_id": "59fe9c639e793689da68f03596f829a9", "fusion_lon": 0.0, "type": "electric_bike", "name": "59fe9c639e793689da68f03596f829a9", "rental_uris": {"android": "https://dc.lft.to/lastmile_qr_scan", "ios": "https://dc.lft.to/lastmile_qr_scan"}, "fusion_lat": 0.0, "lat": 38.932132833333334, "is_disabled": 0, "lon": -77.0234585, "is_reserved": 0}, {"bike_id": "8d4e447920b91d090291fcca325451b0", "fusion_lon": 0.0, "type": "electric_scooter", "name": "8d4e447920b91d090291fcca325451b0", "rental_uris": {"android": "https://dc.lft.to/lastmile_qr_scan", "ios": "https://dc.lft.to/lastmile_qr_scan"}, "fusion_lat": 0.0, "lat": 38.91130583333333, "is_disabled": 0, "lon": -77.02190916666666, "is_reserved": 0}, {"bike_id": "427eeabe1d66c092fc9fbfff49445ada", "fusion_lon": 0.0, "type": "electric_scooter", "name": "427eeabe1d66c092fc9fbfff49445ada", "rental_uris": {"android": "https://dc.lft.to/lastmile_qr_scan", "ios": "https://dc.lft.to/lastmile_qr_scan"}, "fusion_lat": 0.0, "lat": 38.91886616666667, "is_disabled": 0, "lon": -77.03770383333334, "is_reserved": 0}, {"bike_id": "8d68a608b94f0866af9f7858277f99f9", "fusion_lon": 0.0, "type": "electric_scooter", "name": "8d68a608b94f0866af9f7858277f99f9", "rental_uris": {"android": "https://dc.lft.to/lastmile_qr_scan", "ios": "https://dc.lft.to/lastmile_qr_scan"}, "fusion_lat": 0.0, "lat": 38.9288235, "is_disabled": 0, "lon": -77.0271025, "is_reserved": 0}, {"bike_id": "4c9b89bff6f23591cc4e234a35e1059b", "fusion_lon": 0.0, "type": "electric_scooter", "name": "4c9b89bff6f23591cc4e234a35e1059b", "rental_uris": {"android": "https://dc.lft.to/lastmile_qr_scan", "ios": "https://dc.lft.to/lastmile_qr_scan"}, "fusion_lat": 0.0, "lat": 38.914277166666665, "is_disabled": 0, "lon": -77.038059, "is_reserved": 0}, {"bike_id": "b3e4deb04d573ed9d484b4961b165eda", "fusion_lon": 0.0, "type": "electric_scooter", "name": "b3e4deb04d573ed9d484b4961b165eda", "rental_uris": {"android": "https://dc.lft.to/lastmile_qr_scan", "ios": "https://dc.lft.to/lastmile_qr_scan"}, "fusion_lat": 0.0, "lat": 38.91831633333334, "is_disabled": 0, "lon": -77.03218166666667, "is_reserved": 0}, {"bike_id": "54dfb843cdde083c90c84a0e15a7bdae", "fusion_lon": 0.0, "type": "electric_bike", "name": "54dfb843cdde083c90c84a0e15a7bdae", "rental_uris": {"android": "https://dc.lft.to/lastmile_qr_scan", "ios": "https://dc.lft.to/lastmile_qr_scan"}, "fusion_lat": 0.0, "lat": 38.85063783333333, "is_disabled": 0, "lon": -76.97331866666667, "is_reserved": 0}, {"bike_id": "81c21186749abd6ae1a485dc20217438", "fusion_lon": 0.0, "type": "electric_scooter", "name": "81c21186749abd6ae1a485dc20217438", "rental_uris": {"android": "https://dc.lft.to/lastmile_qr_scan", "ios": "https://dc.lft.to/lastmile_qr_scan"}, "fusion_lat": 0.0, "lat": 38.910177, "is_disabled": 0, "lon": -77.05276116666667, "is_reserved": 0}, {"bike_id": "8d594784558593608449f85dc974d0c2", "fusion_lon": 0.0, "type": "electric_scooter", "name": "8d594784558593608449f85dc974d0c2", "rental_uris": {"android": "https://dc.lft.to/lastmile_qr_scan", "ios": "https://dc.lft.to/lastmile_qr_scan"}, "fusion_lat": 0.0, "lat": 38.900385, "is_disabled": 0, "lon": -77.0447025, "is_reserved": 0}, {"bike_id": "d2b6863b163e606880363c94e248b49e", "fusion_lon": 0.0, "type": "electric_bike", "name": "d2b6863b163e606880363c94e248b49e", "rental_uris": {"android": "https://dc.lft.to/lastmile_qr_scan", "ios": "https://dc.lft.to/lastmile_qr_scan"}, "fusion_lat": 0.0, "lat": 38.936692666666666, "is_disabled": 0, "lon": -76.9520815, "is_reserved": 0}, {"bike_id": "fa5139d795c5fddaf97d2dd0e9b38175", "fusion_lon": 0.0, "type": "electric_scooter", "name": "fa5139d795c5fddaf97d2dd0e9b38175", "rental_uris": {"android": "https://dc.lft.to/lastmile_qr_scan", "ios": "https://dc.lft.to/lastmile_qr_scan"}, "fusion_lat": 0.0, "lat": 38.896196333333336, "is_disabled": 0, "lon": -76.99931916666667, "is_reserved": 0}, {"bike_id": "1b0bbda0a5b38e8e2bb2c10e87db8c57", "fusion_lon": 0.0, "type": "electric_scooter", "name": "1b0bbda0a5b38e8e2bb2c10e87db8c57", "rental_uris": {"android": "https://dc.lft.to/lastmile_qr_scan", "ios": "https://dc.lft.to/lastmile_qr_scan"}, "fusion_lat": 0.0, "lat": 38.91601466666667, "is_disabled": 0, "lon": -77.0171675, "is_reserved": 0}, {"bike_id": "fafa31dd726157a7a20a398c7c8d89b7", "fusion_lon": 0.0, "type": "electric_scooter", "name": "fafa31dd726157a7a20a398c7c8d89b7", "rental_uris": {"android": "https://dc.lft.to/lastmile_qr_scan", "ios": "https://dc.lft.to/lastmile_qr_scan"}, "fusion_lat": 0.0, "lat": 38.929864, "is_disabled": 0, "lon": -77.02342016666667, "is_reserved": 0}, {"bike_id": "104be2921f5a3d6a32e74a1fbb0475f2", "fusion_lon": 0.0, "type": "electric_scooter", "name": "104be2921f5a3d6a32e74a1fbb0475f2", "rental_uris": {"android": "https://dc.lft.to/lastmile_qr_scan", "ios": "https://dc.lft.to/lastmile_qr_scan"}, "fusion_lat": 0.0, "lat": 38.90265266666667, "is_disabled": 0, "lon": -77.0543185, "is_reserved": 0}, {"bike_id": "a4d03f86022698cf15c0812beb759b5f", "fusion_lon": 0.0, "type": "electric_bike", "name": "a4d03f86022698cf15c0812beb759b5f", "rental_uris": {"android": "https://dc.lft.to/lastmile_qr_scan", "ios": "https://dc.lft.to/lastmile_qr_scan"}, "fusion_lat": 0.0, "lat": 38.875499833333336, "is_disabled": 0, "lon": -76.96494, "is_reserved": 0}, {"bike_id": "fbcdcd418906c3ef855defba13b76a4e", "fusion_lon": 0.0, "type": "electric_scooter", "name": "fbcdcd418906c3ef855defba13b76a4e", "rental_uris": {"android": "https://dc.lft.to/lastmile_qr_scan", "ios": "https://dc.lft.to/lastmile_qr_scan"}, "fusion_lat": 0.0, "lat": 38.91727316666667, "is_disabled": 0, "lon": -77.032101, "is_reserved": 0}, {"bike_id": "08d3ebab3f0150af166d6445736991d1", "fusion_lon": 0.0, "type": "electric_scooter", "name": "08d3ebab3f0150af166d6445736991d1", "rental_uris": {"android": "https://dc.lft.to/lastmile_qr_scan", "ios": "https://dc.lft.to/lastmile_qr_scan"}, "fusion_lat": 0.0, "lat": 38.9192305, "is_disabled": 0, "lon": -77.03405883333333, "is_reserved": 0}, {"bike_id": "820a712c84bb598eda9761fb031d0873", "fusion_lon": 0.0, "type": "electric_scooter", "name": "820a712c84bb598eda9761fb031d0873", "rental_uris": {"android": "https://dc.lft.to/lastmile_qr_scan", "ios": "https://dc.lft.to/lastmile_qr_scan"}, "fusion_lat": 0.0, "lat": 38.927662166666664, "is_disabled": 0, "lon": -77.0277725, "is_reserved": 0}, {"bike_id": "d7ce976f166b8e01d6199977515fa9e4", "fusion_lon": 0.0, "type": "electric_scooter", "name": "d7ce976f166b8e01d6199977515fa9e4", "rental_uris": {"android": "https://dc.lft.to/lastmile_qr_scan", "ios": "https://dc.lft.to/lastmile_qr_scan"}, "fusion_lat": 0.0, "lat": 38.898754333333336, "is_disabled": 0, "lon": -76.93185333333334, "is_reserved": 0}, {"bike_id": "6eb3664b8b5586c32485a6f91745b5a7", "fusion_lon": 0.0, "type": "electric_scooter", "name": "6eb3664b8b5586c32485a6f91745b5a7", "rental_uris": {"android": "https://dc.lft.to/lastmile_qr_scan", "ios": "https://dc.lft.to/lastmile_qr_scan"}, "fusion_lat": 0.0, "lat": 38.87686466666667, "is_disabled": 0, "lon": -77.01607933333334, "is_reserved": 0}, {"bike_id": "fea4c5dffa4045651c41c716d3145fe8", "fusion_lon": 0.0, "type": "electric_scooter", "name": "fea4c5dffa4045651c41c716d3145fe8", "rental_uris": {"android": "https://dc.lft.to/lastmile_qr_scan", "ios": "https://dc.lft.to/lastmile_qr_scan"}, "fusion_lat": 0.0, "lat": 38.90041933333333, "is_disabled": 0, "lon": -76.98848983333333, "is_reserved": 0}, {"bike_id": "c2ebc9048de0dfeb24a2927beda3f3dc", "fusion_lon": 0.0, "type": "electric_scooter", "name": "c2ebc9048de0dfeb24a2927beda3f3dc", "rental_uris": {"android": "https://dc.lft.to/lastmile_qr_scan", "ios": "https://dc.lft.to/lastmile_qr_scan"}, "fusion_lat": 0.0, "lat": 38.92377366666667, "is_disabled": 0, "lon": -77.0354845, "is_reserved": 0}, {"bike_id": "7605881e149f4e8ac3b039b0d37d0e6e", "fusion_lon": 0.0, "type": "electric_scooter", "name": "7605881e149f4e8ac3b039b0d37d0e6e", "rental_uris": {"android": "https://dc.lft.to/lastmile_qr_scan", "ios": "https://dc.lft.to/lastmile_qr_scan"}, "fusion_lat": 0.0, "lat": 38.90409416666667, "is_disabled": 0, "lon": -77.0013925, "is_reserved": 0}, {"bike_id": "ece86a89ec0965ef8f9986e65da255f2", "fusion_lon": 0.0, "type": "electric_scooter", "name": "ece86a89ec0965ef8f9986e65da255f2", "rental_uris": {"android": "https://dc.lft.to/lastmile_qr_scan", "ios": "https://dc.lft.to/lastmile_qr_scan"}, "fusion_lat": 0.0, "lat": 38.92866216666667, "is_disabled": 0, "lon": -77.0138305, "is_reserved": 0}, {"bike_id": "51ec475ddac7ef9413b5e489619da3a9", "fusion_lon": 0.0, "type": "electric_scooter", "name": "51ec475ddac7ef9413b5e489619da3a9", "rental_uris": {"android": "https://dc.lft.to/lastmile_qr_scan", "ios": "https://dc.lft.to/lastmile_qr_scan"}, "fusion_lat": 0.0, "lat": 38.88502283333333, "is_disabled": 0, "lon": -77.0336185, "is_reserved": 0}, {"bike_id": "d7ca22eea94adc4e403cca5d2bf81896", "fusion_lon": 0.0, "type": "electric_scooter", "name": "d7ca22eea94adc4e403cca5d2bf81896", "rental_uris": {"android": "https://dc.lft.to/lastmile_qr_scan", "ios": "https://dc.lft.to/lastmile_qr_scan"}, "fusion_lat": 0.0, "lat": 38.8922835, "is_disabled": 0, "lon": -77.050005, "is_reserved": 0}, {"bike_id": "a3ad47bb7b465894ea3d6d4acfd19175", "fusion_lon": 0.0, "type": "electric_bike", "name": "a3ad47bb7b465894ea3d6d4acfd19175", "rental_uris": {"android": "https://dc.lft.to/lastmile_qr_scan", "ios": "https://dc.lft.to/lastmile_qr_scan"}, "fusion_lat": 0.0, "lat": 38.85618183333333, "is_disabled": 0, "lon": -77.0854125, "is_reserved": 0}, {"bike_id": "feb484c564a8eeb0714409b3dfb27d6f", "fusion_lon": 0.0, "type": "electric_scooter", "name": "feb484c564a8eeb0714409b3dfb27d6f", "rental_uris": {"android": "https://dc.lft.to/lastmile_qr_scan", "ios": "https://dc.lft.to/lastmile_qr_scan"}, "fusion_lat": 0.0, "lat": 38.886061833333336, "is_disabled": 0, "lon": -76.99459366666666, "is_reserved": 0}, {"bike_id": "8d0a9f3c95f9190925ed46aa39fbae25", "fusion_lon": 0.0, "type": "electric_bike", "name": "8d0a9f3c95f9190925ed46aa39fbae25", "rental_uris": {"android": "https://dc.lft.to/lastmile_qr_scan", "ios": "https://dc.lft.to/lastmile_qr_scan"}, "fusion_lat": 0.0, "lat": 38.96222816666667, "is_disabled": 0, "lon": -77.02624766666666, "is_reserved": 0}, {"bike_id": "35f5bdcface53080d208572304a08b39", "fusion_lon": 0.0, "type": "electric_scooter", "name": "35f5bdcface53080d208572304a08b39", "rental_uris": {"android": "https://dc.lft.to/lastmile_qr_scan", "ios": "https://dc.lft.to/lastmile_qr_scan"}, "fusion_lat": 0.0, "lat": 38.86675, "is_disabled": 0, "lon": -76.98882483333334, "is_reserved": 0}, {"bike_id": "9c6a62e5918c031742d2b24d5df3a0e3", "fusion_lon": 0.0, "type": "electric_bike", "name": "9c6a62e5918c031742d2b24d5df3a0e3", "rental_uris": {"android": "https://dc.lft.to/lastmile_qr_scan", "ios": "https://dc.lft.to/lastmile_qr_scan"}, "fusion_lat": 0.0, "lat": 39.088923666666666, "is_disabled": 0, "lon": -77.1785395, "is_reserved": 0}, {"bike_id": "0692b0b63e8f1ab9628c35ab41919af6", "fusion_lon": 0.0, "type": "electric_scooter", "name": "0692b0b63e8f1ab9628c35ab41919af6", "rental_uris": {"android": "https://dc.lft.to/lastmile_qr_scan", "ios": "https://dc.lft.to/lastmile_qr_scan"}, "fusion_lat": 0.0, "lat": 38.94572816666667, "is_disabled": 0, "lon": -77.03459916666667, "is_reserved": 0}, {"bike_id": "0af7d5712ba7c3b38c9f7774cb8108f5", "fusion_lon": 0.0, "type": "electric_scooter", "name": "0af7d5712ba7c3b38c9f7774cb8108f5", "rental_uris": {"android": "https://dc.lft.to/lastmile_qr_scan", "ios": "https://dc.lft.to/lastmile_qr_scan"}, "fusion_lat": 0.0, "lat": 38.916819333333336, "is_disabled": 0, "lon": -77.02972333333334, "is_reserved": 0}, {"bike_id": "67f79a67a5a9b57a73f6b2495a4221df", "fusion_lon": 0.0, "type": "electric_scooter", "name": "67f79a67a5a9b57a73f6b2495a4221df", "rental_uris": {"android": "https://dc.lft.to/lastmile_qr_scan", "ios": "https://dc.lft.to/lastmile_qr_scan"}, "fusion_lat": 0.0, "lat": 38.94101466666667, "is_disabled": 0, "lon": -77.02540316666666, "is_reserved": 0}, {"bike_id": "110af4d8b04de5b2e66acbbdd19c3789", "fusion_lon": 0.0, "type": "electric_scooter", "name": "110af4d8b04de5b2e66acbbdd19c3789", "rental_uris": {"android": "https://dc.lft.to/lastmile_qr_scan", "ios": "https://dc.lft.to/lastmile_qr_scan"}, "fusion_lat": 0.0, "lat": 38.91555433333333, "is_disabled": 0, "lon": -77.02329133333333, "is_reserved": 0}, {"bike_id": "d5be8ab53cbea4083151ae0df79d1146", "fusion_lon": 0.0, "type": "electric_scooter", "name": "d5be8ab53cbea4083151ae0df79d1146", "rental_uris": {"android": "https://dc.lft.to/lastmile_qr_scan", "ios": "https://dc.lft.to/lastmile_qr_scan"}, "fusion_lat": 0.0, "lat": 38.9194215, "is_disabled": 0, "lon": -77.01351133333333, "is_reserved": 0}, {"bike_id": "6e58e88c143ae5872bebf2ffb99b7d4b", "fusion_lon": 0.0, "type": "electric_scooter", "name": "6e58e88c143ae5872bebf2ffb99b7d4b", "rental_uris": {"android": "https://dc.lft.to/lastmile_qr_scan", "ios": "https://dc.lft.to/lastmile_qr_scan"}, "fusion_lat": 0.0, "lat": 38.90866466666667, "is_disabled": 0, "lon": -77.012519, "is_reserved": 0}, {"bike_id": "e954ae881f7d4f248d9cba8556c98d36", "fusion_lon": 0.0, "type": "electric_scooter", "name": "e954ae881f7d4f248d9cba8556c98d36", "rental_uris": {"android": "https://dc.lft.to/lastmile_qr_scan", "ios": "https://dc.lft.to/lastmile_qr_scan"}, "fusion_lat": 0.0, "lat": 38.92280916666667, "is_disabled": 0, "lon": -76.994139, "is_reserved": 0}, {"bike_id": "cc3f9d0309cfffd703abee72143eca74", "fusion_lon": 0.0, "type": "electric_scooter", "name": "cc3f9d0309cfffd703abee72143eca74", "rental_uris": {"android": "https://dc.lft.to/lastmile_qr_scan", "ios": "https://dc.lft.to/lastmile_qr_scan"}, "fusion_lat": 0.0, "lat": 38.9001555, "is_disabled": 0, "lon": -76.98849933333334, "is_reserved": 0}, {"bike_id": "99a245e0123d0b4d3a5a842cd672e423", "fusion_lon": 0.0, "type": "electric_scooter", "name": "99a245e0123d0b4d3a5a842cd672e423", "rental_uris": {"android": "https://dc.lft.to/lastmile_qr_scan", "ios": "https://dc.lft.to/lastmile_qr_scan"}, "fusion_lat": 0.0, "lat": 38.874798166666665, "is_disabled": 0, "lon": -76.96518916666666, "is_reserved": 0}, {"bike_id": "6dca1c39ebe7b6b49639f74de4fcc304", "fusion_lon": 0.0, "type": "electric_scooter", "name": "6dca1c39ebe7b6b49639f74de4fcc304", "rental_uris": {"android": "https://dc.lft.to/lastmile_qr_scan", "ios": "https://dc.lft.to/lastmile_qr_scan"}, "fusion_lat": 0.0, "lat": 38.9333665, "is_disabled": 0, "lon": -77.032661, "is_reserved": 0}, {"bike_id": "1b8d1be6cd9c16b18c0ce3552d5931c7", "fusion_lon": 0.0, "type": "electric_scooter", "name": "1b8d1be6cd9c16b18c0ce3552d5931c7", "rental_uris": {"android": "https://dc.lft.to/lastmile_qr_scan", "ios": "https://dc.lft.to/lastmile_qr_scan"}, "fusion_lat": 0.0, "lat": 38.91214, "is_disabled": 0, "lon": -77.0384845, "is_reserved": 0}, {"bike_id": "687b26fdf622dbbdf5d788dfa3f493d0", "fusion_lon": 0.0, "type": "electric_scooter", "name": "687b26fdf622dbbdf5d788dfa3f493d0", "rental_uris": {"android": "https://dc.lft.to/lastmile_qr_scan", "ios": "https://dc.lft.to/lastmile_qr_scan"}, "fusion_lat": 0.0, "lat": 38.949982166666665, "is_disabled": 0, "lon": -77.02712283333334, "is_reserved": 0}, {"bike_id": "7e3fbf7a62a1f0f520e9a36ae08d25fd", "fusion_lon": 0.0, "type": "electric_scooter", "name": "7e3fbf7a62a1f0f520e9a36ae08d25fd", "rental_uris": {"android": "https://dc.lft.to/lastmile_qr_scan", "ios": "https://dc.lft.to/lastmile_qr_scan"}, "fusion_lat": 0.0, "lat": 38.917086166666664, "is_disabled": 0, "lon": -77.03865766666667, "is_reserved": 0}, {"bike_id": "a34ed9c69e8bc641d63a34bd8ddd5787", "fusion_lon": 0.0, "type": "electric_scooter", "name": "a34ed9c69e8bc641d63a34bd8ddd5787", "rental_uris": {"android": "https://dc.lft.to/lastmile_qr_scan", "ios": "https://dc.lft.to/lastmile_qr_scan"}, "fusion_lat": 0.0, "lat": 38.912001333333336, "is_disabled": 0, "lon": -77.0144645, "is_reserved": 0}, {"bike_id": "ff29f285f6801a436dd7e4e91d131d00", "fusion_lon": 0.0, "type": "electric_scooter", "name": "ff29f285f6801a436dd7e4e91d131d00", "rental_uris": {"android": "https://dc.lft.to/lastmile_qr_scan", "ios": "https://dc.lft.to/lastmile_qr_scan"}, "fusion_lat": 0.0, "lat": 38.914374333333335, "is_disabled": 0, "lon": -77.0180425, "is_reserved": 0}, {"bike_id": "3da86f8e113161fad5557a32d779ed04", "fusion_lon": 0.0, "type": "electric_scooter", "name": "3da86f8e113161fad5557a32d779ed04", "rental_uris": {"android": "https://dc.lft.to/lastmile_qr_scan", "ios": "https://dc.lft.to/lastmile_qr_scan"}, "fusion_lat": 0.0, "lat": 38.90345833333333, "is_disabled": 0, "lon": -76.98852283333333, "is_reserved": 0}, {"bike_id": "815824460058becf1b61ea9be48ceb46", "fusion_lon": 0.0, "type": "electric_scooter", "name": "815824460058becf1b61ea9be48ceb46", "rental_uris": {"android": "https://dc.lft.to/lastmile_qr_scan", "ios": "https://dc.lft.to/lastmile_qr_scan"}, "fusion_lat": 0.0, "lat": 38.907222833333336, "is_disabled": 0, "lon": -77.02373183333333, "is_reserved": 0}, {"bike_id": "1a4ce7603fb27814db44d3cfffc7da7e", "fusion_lon": 0.0, "type": "electric_scooter", "name": "1a4ce7603fb27814db44d3cfffc7da7e", "rental_uris": {"android": "https://dc.lft.to/lastmile_qr_scan", "ios": "https://dc.lft.to/lastmile_qr_scan"}, "fusion_lat": 0.0, "lat": 38.914041166666664, "is_disabled": 0, "lon": -77.04184266666667, "is_reserved": 0}, {"bike_id": "02313f400394afad222c4a5492daab5f", "fusion_lon": 0.0, "type": "electric_scooter", "name": "02313f400394afad222c4a5492daab5f", "rental_uris": {"android": "https://dc.lft.to/lastmile_qr_scan", "ios": "https://dc.lft.to/lastmile_qr_scan"}, "fusion_lat": 0.0, "lat": 38.90356883333333, "is_disabled": 0, "lon": -77.02690466666667, "is_reserved": 0}, {"bike_id": "9187dd2100ff20e57c02f70555c45495", "fusion_lon": 0.0, "type": "electric_scooter", "name": "9187dd2100ff20e57c02f70555c45495", "rental_uris": {"android": "https://dc.lft.to/lastmile_qr_scan", "ios": "https://dc.lft.to/lastmile_qr_scan"}, "fusion_lat": 0.0, "lat": 38.8922305, "is_disabled": 0, "lon": -77.02770816666667, "is_reserved": 0}, {"bike_id": "3d24d38a7e94585ac8dc7b3885d20611", "fusion_lon": 0.0, "type": "electric_scooter", "name": "3d24d38a7e94585ac8dc7b3885d20611", "rental_uris": {"android": "https://dc.lft.to/lastmile_qr_scan", "ios": "https://dc.lft.to/lastmile_qr_scan"}, "fusion_lat": 0.0, "lat": 38.910609, "is_disabled": 0, "lon": -77.03857133333334, "is_reserved": 0}, {"bike_id": "7a726e0081f583b3e44397d5a859dda8", "fusion_lon": 0.0, "type": "electric_scooter", "name": "7a726e0081f583b3e44397d5a859dda8", "rental_uris": {"android": "https://dc.lft.to/lastmile_qr_scan", "ios": "https://dc.lft.to/lastmile_qr_scan"}, "fusion_lat": 0.0, "lat": 38.924855666666666, "is_disabled": 0, "lon": -77.02899916666667, "is_reserved": 0}, {"bike_id": "9b43d3cc0a7457fa3a8d539314b97848", "fusion_lon": 0.0, "type": "electric_bike", "name": "9b43d3cc0a7457fa3a8d539314b97848", "rental_uris": {"android": "https://dc.lft.to/lastmile_qr_scan", "ios": "https://dc.lft.to/lastmile_qr_scan"}, "fusion_lat": 0.0, "lat": 38.864047666666664, "is_disabled": 0, "lon": -76.974468, "is_reserved": 0}, {"bike_id": "f95c2fa5fa2d6c0e22d3c8746033528c", "fusion_lon": 0.0, "type": "electric_scooter", "name": "f95c2fa5fa2d6c0e22d3c8746033528c", "rental_uris": {"android": "https://dc.lft.to/lastmile_qr_scan", "ios": "https://dc.lft.to/lastmile_qr_scan"}, "fusion_lat": 0.0, "lat": 38.907023333333335, "is_disabled": 0, "lon": -76.98700566666666, "is_reserved": 0}, {"bike_id": "f2969e7fbd1d5dc670f7c11fd23a78a0", "fusion_lon": 0.0, "type": "electric_scooter", "name": "f2969e7fbd1d5dc670f7c11fd23a78a0", "rental_uris": {"android": "https://dc.lft.to/lastmile_qr_scan", "ios": "https://dc.lft.to/lastmile_qr_scan"}, "fusion_lat": 0.0, "lat": 38.922293833333335, "is_disabled": 0, "lon": -77.03769816666667, "is_reserved": 0}, {"bike_id": "799789c1549d10b9ed0c74ccb9e6e8ed", "fusion_lon": 0.0, "type": "electric_scooter", "name": "799789c1549d10b9ed0c74ccb9e6e8ed", "rental_uris": {"android": "https://dc.lft.to/lastmile_qr_scan", "ios": "https://dc.lft.to/lastmile_qr_scan"}, "fusion_lat": 0.0, "lat": 38.90007, "is_disabled": 0, "lon": -77.04494766666667, "is_reserved": 0}, {"bike_id": "416f7315014c9b004f02ad954730185e", "fusion_lon": 0.0, "type": "electric_scooter", "name": "416f7315014c9b004f02ad954730185e", "rental_uris": {"android": "https://dc.lft.to/lastmile_qr_scan", "ios": "https://dc.lft.to/lastmile_qr_scan"}, "fusion_lat": 0.0, "lat": 38.93665033333333, "is_disabled": 0, "lon": -77.05936033333333, "is_reserved": 0}, {"bike_id": "0accd34e280df2ac20bc568332f821a6", "fusion_lon": 0.0, "type": "electric_scooter", "name": "0accd34e280df2ac20bc568332f821a6", "rental_uris": {"android": "https://dc.lft.to/lastmile_qr_scan", "ios": "https://dc.lft.to/lastmile_qr_scan"}, "fusion_lat": 0.0, "lat": 38.8874275, "is_disabled": 0, "lon": -77.02826866666666, "is_reserved": 0}, {"bike_id": "b1761a7a022be6fd926630794a7bf66f", "fusion_lon": 0.0, "type": "electric_scooter", "name": "b1761a7a022be6fd926630794a7bf66f", "rental_uris": {"android": "https://dc.lft.to/lastmile_qr_scan", "ios": "https://dc.lft.to/lastmile_qr_scan"}, "fusion_lat": 0.0, "lat": 38.937464, "is_disabled": 0, "lon": -77.034956, "is_reserved": 0}, {"bike_id": "a6624420292f0ad93e556f05fdf7c237", "fusion_lon": 0.0, "type": "electric_scooter", "name": "a6624420292f0ad93e556f05fdf7c237", "rental_uris": {"android": "https://dc.lft.to/lastmile_qr_scan", "ios": "https://dc.lft.to/lastmile_qr_scan"}, "fusion_lat": 0.0, "lat": 38.89483166666667, "is_disabled": 0, "lon": -77.04546966666666, "is_reserved": 0}, {"bike_id": "73e99d86d3b6b8002d153f5311403e8c", "fusion_lon": 0.0, "type": "electric_scooter", "name": "73e99d86d3b6b8002d153f5311403e8c", "rental_uris": {"android": "https://dc.lft.to/lastmile_qr_scan", "ios": "https://dc.lft.to/lastmile_qr_scan"}, "fusion_lat": 0.0, "lat": 38.892587166666665, "is_disabled": 0, "lon": -77.03230566666667, "is_reserved": 0}, {"bike_id": "3305531c0a8a431bcbad0e0a24d01a1f", "fusion_lon": 0.0, "type": "electric_bike", "name": "3305531c0a8a431bcbad0e0a24d01a1f", "rental_uris": {"android": "https://dc.lft.to/lastmile_qr_scan", "ios": "https://dc.lft.to/lastmile_qr_scan"}, "fusion_lat": 0.0, "lat": 38.89642033333333, "is_disabled": 0, "lon": -76.94786233333333, "is_reserved": 0}, {"bike_id": "13b15ed5f4a818687b63675786cd9e32", "fusion_lon": 0.0, "type": "electric_scooter", "name": "13b15ed5f4a818687b63675786cd9e32", "rental_uris": {"android": "https://dc.lft.to/lastmile_qr_scan", "ios": "https://dc.lft.to/lastmile_qr_scan"}, "fusion_lat": 0.0, "lat": 38.89837883333333, "is_disabled": 0, "lon": -77.03333583333334, "is_reserved": 0}, {"bike_id": "342e9a93430dc0ec0c09f9caeeeaed67", "fusion_lon": 0.0, "type": "electric_scooter", "name": "342e9a93430dc0ec0c09f9caeeeaed67", "rental_uris": {"android": "https://dc.lft.to/lastmile_qr_scan", "ios": "https://dc.lft.to/lastmile_qr_scan"}, "fusion_lat": 0.0, "lat": 38.90861683333333, "is_disabled": 0, "lon": -76.99961083333334, "is_reserved": 0}, {"bike_id": "252e3418313531f34dfe83bd1dff09b3", "fusion_lon": 0.0, "type": "electric_scooter", "name": "252e3418313531f34dfe83bd1dff09b3", "rental_uris": {"android": "https://dc.lft.to/lastmile_qr_scan", "ios": "https://dc.lft.to/lastmile_qr_scan"}, "fusion_lat": 0.0, "lat": 38.842890833333335, "is_disabled": 0, "lon": -76.99079183333333, "is_reserved": 0}, {"bike_id": "67aa2c3637c12c21ed63ef8c38075e6b", "fusion_lon": 0.0, "type": "electric_bike", "name": "67aa2c3637c12c21ed63ef8c38075e6b", "rental_uris": {"android": "https://dc.lft.to/lastmile_qr_scan", "ios": "https://dc.lft.to/lastmile_qr_scan"}, "fusion_lat": 0.0, "lat": 38.925760333333336, "is_disabled": 0, "lon": -76.98606833333334, "is_reserved": 0}, {"bike_id": "089eab8a801952eeefd64dc3e6ec947a", "fusion_lon": 0.0, "type": "electric_scooter", "name": "089eab8a801952eeefd64dc3e6ec947a", "rental_uris": {"android": "https://dc.lft.to/lastmile_qr_scan", "ios": "https://dc.lft.to/lastmile_qr_scan"}, "fusion_lat": 0.0, "lat": 38.939159333333336, "is_disabled": 0, "lon": -77.018966, "is_reserved": 0}, {"bike_id": "aaf7516499671d76169164284404b542", "fusion_lon": 0.0, "type": "electric_scooter", "name": "aaf7516499671d76169164284404b542", "rental_uris": {"android": "https://dc.lft.to/lastmile_qr_scan", "ios": "https://dc.lft.to/lastmile_qr_scan"}, "fusion_lat": 0.0, "lat": 38.91678783333333, "is_disabled": 0, "lon": -77.02975166666667, "is_reserved": 0}, {"bike_id": "3f9f218e7d8fcbff48c06a317986399f", "fusion_lon": 0.0, "type": "electric_scooter", "name": "3f9f218e7d8fcbff48c06a317986399f", "rental_uris": {"android": "https://dc.lft.to/lastmile_qr_scan", "ios": "https://dc.lft.to/lastmile_qr_scan"}, "fusion_lat": 0.0, "lat": 38.9203125, "is_disabled": 0, "lon": -76.970172, "is_reserved": 0}, {"bike_id": "f75d115b473ec05d84b809e50e94bf1f", "fusion_lon": 0.0, "type": "electric_scooter", "name": "f75d115b473ec05d84b809e50e94bf1f", "rental_uris": {"android": "https://dc.lft.to/lastmile_qr_scan", "ios": "https://dc.lft.to/lastmile_qr_scan"}, "fusion_lat": 0.0, "lat": 38.90123083333334, "is_disabled": 0, "lon": -77.033099, "is_reserved": 0}, {"bike_id": "99bc48f10ff49324bfea9df48e3ef330", "fusion_lon": 0.0, "type": "electric_scooter", "name": "99bc48f10ff49324bfea9df48e3ef330", "rental_uris": {"android": "https://dc.lft.to/lastmile_qr_scan", "ios": "https://dc.lft.to/lastmile_qr_scan"}, "fusion_lat": 0.0, "lat": 38.9262475, "is_disabled": 0, "lon": -77.04329883333334, "is_reserved": 0}, {"bike_id": "9d21d72fc8386901b4e0f0f879d7f2bb", "fusion_lon": 0.0, "type": "electric_scooter", "name": "9d21d72fc8386901b4e0f0f879d7f2bb", "rental_uris": {"android": "https://dc.lft.to/lastmile_qr_scan", "ios": "https://dc.lft.to/lastmile_qr_scan"}, "fusion_lat": 0.0, "lat": 38.918210333333334, "is_disabled": 0, "lon": -77.03844116666667, "is_reserved": 0}, {"bike_id": "0f775b3e7e2cf160d97f41f44c2e03b2", "fusion_lon": 0.0, "type": "electric_scooter", "name": "0f775b3e7e2cf160d97f41f44c2e03b2", "rental_uris": {"android": "https://dc.lft.to/lastmile_qr_scan", "ios": "https://dc.lft.to/lastmile_qr_scan"}, "fusion_lat": 0.0, "lat": 38.902367, "is_disabled": 0, "lon": -77.0396715, "is_reserved": 0}, {"bike_id": "e28309102b4b2ff5a186e7112c76741d", "fusion_lon": 0.0, "type": "electric_scooter", "name": "e28309102b4b2ff5a186e7112c76741d", "rental_uris": {"android": "https://dc.lft.to/lastmile_qr_scan", "ios": "https://dc.lft.to/lastmile_qr_scan"}, "fusion_lat": 0.0, "lat": 38.90081583333333, "is_disabled": 0, "lon": -76.9301865, "is_reserved": 0}, {"bike_id": "89e35a93dafa1bbbcd8cca19e22acffd", "fusion_lon": 0.0, "type": "electric_scooter", "name": "89e35a93dafa1bbbcd8cca19e22acffd", "rental_uris": {"android": "https://dc.lft.to/lastmile_qr_scan", "ios": "https://dc.lft.to/lastmile_qr_scan"}, "fusion_lat": 0.0, "lat": 38.88434183333333, "is_disabled": 0, "lon": -76.95751416666667, "is_reserved": 0}, {"bike_id": "189a993dd84cb198e8157aaac98d7552", "fusion_lon": 0.0, "type": "electric_scooter", "name": "189a993dd84cb198e8157aaac98d7552", "rental_uris": {"android": "https://dc.lft.to/lastmile_qr_scan", "ios": "https://dc.lft.to/lastmile_qr_scan"}, "fusion_lat": 0.0, "lat": 38.93362316666666, "is_disabled": 0, "lon": -77.07364933333334, "is_reserved": 0}, {"bike_id": "1c96a20d0673797ac880a339bc90c40f", "fusion_lon": 0.0, "type": "electric_scooter", "name": "1c96a20d0673797ac880a339bc90c40f", "rental_uris": {"android": "https://dc.lft.to/lastmile_qr_scan", "ios": "https://dc.lft.to/lastmile_qr_scan"}, "fusion_lat": 0.0, "lat": 38.95611866666667, "is_disabled": 0, "lon": -77.028138, "is_reserved": 0}, {"bike_id": "698116dc01c00c4cc59d7604b6898da3", "fusion_lon": 0.0, "type": "electric_scooter", "name": "698116dc01c00c4cc59d7604b6898da3", "rental_uris": {"android": "https://dc.lft.to/lastmile_qr_scan", "ios": "https://dc.lft.to/lastmile_qr_scan"}, "fusion_lat": 0.0, "lat": 38.90554483333333, "is_disabled": 0, "lon": -77.0109115, "is_reserved": 0}, {"bike_id": "f826a63a0e606ade8a0a2cbbb514e373", "fusion_lon": 0.0, "type": "electric_scooter", "name": "f826a63a0e606ade8a0a2cbbb514e373", "rental_uris": {"android": "https://dc.lft.to/lastmile_qr_scan", "ios": "https://dc.lft.to/lastmile_qr_scan"}, "fusion_lat": 0.0, "lat": 38.90282166666667, "is_disabled": 0, "lon": -77.03449016666667, "is_reserved": 0}, {"bike_id": "a5e4ec3c606c8c39b608f0b9a01aa072", "fusion_lon": 0.0, "type": "electric_bike", "name": "a5e4ec3c606c8c39b608f0b9a01aa072", "rental_uris": {"android": "https://dc.lft.to/lastmile_qr_scan", "ios": "https://dc.lft.to/lastmile_qr_scan"}, "fusion_lat": 0.0, "lat": 38.831924666666666, "is_disabled": 0, "lon": -77.07681516666666, "is_reserved": 0}, {"bike_id": "657f4df7dbd4d2239d1c8a765655fb05", "fusion_lon": 0.0, "type": "electric_bike", "name": "657f4df7dbd4d2239d1c8a765655fb05", "rental_uris": {"android": "https://dc.lft.to/lastmile_qr_scan", "ios": "https://dc.lft.to/lastmile_qr_scan"}, "fusion_lat": 0.0, "lat": 38.891885, "is_disabled": 0, "lon": -77.1226215, "is_reserved": 0}, {"bike_id": "216db34b3469cc3160383cb3acb8a0b8", "fusion_lon": 0.0, "type": "electric_scooter", "name": "216db34b3469cc3160383cb3acb8a0b8", "rental_uris": {"android": "https://dc.lft.to/lastmile_qr_scan", "ios": "https://dc.lft.to/lastmile_qr_scan"}, "fusion_lat": 0.0, "lat": 38.9018045, "is_disabled": 0, "lon": -77.02383666666667, "is_reserved": 0}, {"bike_id": "82ae00cd5060e01f7833a387a2baa3a4", "fusion_lon": 0.0, "type": "electric_scooter", "name": "82ae00cd5060e01f7833a387a2baa3a4", "rental_uris": {"android": "https://dc.lft.to/lastmile_qr_scan", "ios": "https://dc.lft.to/lastmile_qr_scan"}, "fusion_lat": 0.0, "lat": 38.90221916666667, "is_disabled": 0, "lon": -77.0475965, "is_reserved": 0}, {"bike_id": "bb2395eb61cb1992289f358f00d654cf", "fusion_lon": 0.0, "type": "electric_scooter", "name": "bb2395eb61cb1992289f358f00d654cf", "rental_uris": {"android": "https://dc.lft.to/lastmile_qr_scan", "ios": "https://dc.lft.to/lastmile_qr_scan"}, "fusion_lat": 0.0, "lat": 38.901101, "is_disabled": 0, "lon": -77.04876583333333, "is_reserved": 0}, {"bike_id": "53e8750e352795e8da72eea1b494f319", "fusion_lon": 0.0, "type": "electric_bike", "name": "53e8750e352795e8da72eea1b494f319", "rental_uris": {"android": "https://dc.lft.to/lastmile_qr_scan", "ios": "https://dc.lft.to/lastmile_qr_scan"}, "fusion_lat": 0.0, "lat": 38.828730666666665, "is_disabled": 0, "lon": -77.11227933333333, "is_reserved": 0}, {"bike_id": "910ff032a3c3022a03559e1c3cb68a4b", "fusion_lon": 0.0, "type": "electric_scooter", "name": "910ff032a3c3022a03559e1c3cb68a4b", "rental_uris": {"android": "https://dc.lft.to/lastmile_qr_scan", "ios": "https://dc.lft.to/lastmile_qr_scan"}, "fusion_lat": 0.0, "lat": 38.900808833333336, "is_disabled": 0, "lon": -77.05026, "is_reserved": 0}, {"bike_id": "422937fd6c7eef4863f15338203847c3", "fusion_lon": 0.0, "type": "electric_bike", "name": "422937fd6c7eef4863f15338203847c3", "rental_uris": {"android": "https://dc.lft.to/lastmile_qr_scan", "ios": "https://dc.lft.to/lastmile_qr_scan"}, "fusion_lat": 0.0, "lat": 38.95569033333334, "is_disabled": 0, "lon": -76.93545833333333, "is_reserved": 0}, {"bike_id": "317c6b0cb0e8d6c5bc78d32402156afd", "fusion_lon": 0.0, "type": "electric_scooter", "name": "317c6b0cb0e8d6c5bc78d32402156afd", "rental_uris": {"android": "https://dc.lft.to/lastmile_qr_scan", "ios": "https://dc.lft.to/lastmile_qr_scan"}, "fusion_lat": 0.0, "lat": 38.90237416666667, "is_disabled": 0, "lon": -77.0474025, "is_reserved": 0}, {"bike_id": "5cd025251ebd9e0016584d8065b38c10", "fusion_lon": 0.0, "type": "electric_scooter", "name": "5cd025251ebd9e0016584d8065b38c10", "rental_uris": {"android": "https://dc.lft.to/lastmile_qr_scan", "ios": "https://dc.lft.to/lastmile_qr_scan"}, "fusion_lat": 0.0, "lat": 38.919761666666666, "is_disabled": 0, "lon": -77.01205516666667, "is_reserved": 0}, {"bike_id": "8d979bff6f4a089acd338bf494f2bfe4", "fusion_lon": 0.0, "type": "electric_scooter", "name": "8d979bff6f4a089acd338bf494f2bfe4", "rental_uris": {"android": "https://dc.lft.to/lastmile_qr_scan", "ios": "https://dc.lft.to/lastmile_qr_scan"}, "fusion_lat": 0.0, "lat": 38.920885166666665, "is_disabled": 0, "lon": -77.07561166666666, "is_reserved": 0}, {"bike_id": "db9b0b9f33859212a4015ed712f4b90e", "fusion_lon": 0.0, "type": "electric_scooter", "name": "db9b0b9f33859212a4015ed712f4b90e", "rental_uris": {"android": "https://dc.lft.to/lastmile_qr_scan", "ios": "https://dc.lft.to/lastmile_qr_scan"}, "fusion_lat": 0.0, "lat": 38.924058333333335, "is_disabled": 0, "lon": -77.05628766666666, "is_reserved": 0}, {"bike_id": "1e59309f4b05a3cf96fac415b525650e", "fusion_lon": 0.0, "type": "electric_bike", "name": "1e59309f4b05a3cf96fac415b525650e", "rental_uris": {"android": "https://dc.lft.to/lastmile_qr_scan", "ios": "https://dc.lft.to/lastmile_qr_scan"}, "fusion_lat": 0.0, "lat": 38.94431866666667, "is_disabled": 0, "lon": -76.98732816666667, "is_reserved": 0}, {"bike_id": "f96e3d525c90d690197cb75872c2a972", "fusion_lon": 0.0, "type": "electric_scooter", "name": "f96e3d525c90d690197cb75872c2a972", "rental_uris": {"android": "https://dc.lft.to/lastmile_qr_scan", "ios": "https://dc.lft.to/lastmile_qr_scan"}, "fusion_lat": 0.0, "lat": 38.9001265, "is_disabled": 0, "lon": -77.00142116666666, "is_reserved": 0}, {"bike_id": "0eec9e9996e7aa0c7932b315ce8fb0b8", "fusion_lon": 0.0, "type": "electric_scooter", "name": "0eec9e9996e7aa0c7932b315ce8fb0b8", "rental_uris": {"android": "https://dc.lft.to/lastmile_qr_scan", "ios": "https://dc.lft.to/lastmile_qr_scan"}, "fusion_lat": 0.0, "lat": 38.9572345, "is_disabled": 0, "lon": -77.03568466666667, "is_reserved": 0}, {"bike_id": "243c86eb219c2077fc3e0624fd724a16", "fusion_lon": 0.0, "type": "electric_scooter", "name": "243c86eb219c2077fc3e0624fd724a16", "rental_uris": {"android": "https://dc.lft.to/lastmile_qr_scan", "ios": "https://dc.lft.to/lastmile_qr_scan"}, "fusion_lat": 0.0, "lat": 38.87657333333333, "is_disabled": 0, "lon": -77.0157635, "is_reserved": 0}, {"bike_id": "8fc8149bd4986172c6793d1b75e2e12e", "fusion_lon": 0.0, "type": "electric_bike", "name": "8fc8149bd4986172c6793d1b75e2e12e", "rental_uris": {"android": "https://dc.lft.to/lastmile_qr_scan", "ios": "https://dc.lft.to/lastmile_qr_scan"}, "fusion_lat": 0.0, "lat": 38.960212, "is_disabled": 0, "lon": -77.019994, "is_reserved": 0}, {"bike_id": "c339086b9dbf2680eccf5a3ca7d44011", "fusion_lon": 0.0, "type": "electric_scooter", "name": "c339086b9dbf2680eccf5a3ca7d44011", "rental_uris": {"android": "https://dc.lft.to/lastmile_qr_scan", "ios": "https://dc.lft.to/lastmile_qr_scan"}, "fusion_lat": 0.0, "lat": 38.923174, "is_disabled": 0, "lon": -77.0542995, "is_reserved": 0}, {"bike_id": "c55faa6a7abcba1c9aabbfba5b14ad74", "fusion_lon": 0.0, "type": "electric_scooter", "name": "c55faa6a7abcba1c9aabbfba5b14ad74", "rental_uris": {"android": "https://dc.lft.to/lastmile_qr_scan", "ios": "https://dc.lft.to/lastmile_qr_scan"}, "fusion_lat": 0.0, "lat": 38.871181166666666, "is_disabled": 0, "lon": -77.00753733333333, "is_reserved": 0}, {"bike_id": "28360cfc98223641182de08c4f45e790", "fusion_lon": 0.0, "type": "electric_bike", "name": "28360cfc98223641182de08c4f45e790", "rental_uris": {"android": "https://dc.lft.to/lastmile_qr_scan", "ios": "https://dc.lft.to/lastmile_qr_scan"}, "fusion_lat": 0.0, "lat": 38.95003116666667, "is_disabled": 0, "lon": -77.3530875, "is_reserved": 0}, {"bike_id": "fba5b5aee0e925906163770f1b74765a", "fusion_lon": 0.0, "type": "electric_scooter", "name": "fba5b5aee0e925906163770f1b74765a", "rental_uris": {"android": "https://dc.lft.to/lastmile_qr_scan", "ios": "https://dc.lft.to/lastmile_qr_scan"}, "fusion_lat": 0.0, "lat": 38.951372166666665, "is_disabled": 0, "lon": -77.02723616666667, "is_reserved": 0}, {"bike_id": "8bc587db54d5f7cb3b5fd77d29c76db5", "fusion_lon": 0.0, "type": "electric_scooter", "name": "8bc587db54d5f7cb3b5fd77d29c76db5", "rental_uris": {"android": "https://dc.lft.to/lastmile_qr_scan", "ios": "https://dc.lft.to/lastmile_qr_scan"}, "fusion_lat": 0.0, "lat": 38.89605783333333, "is_disabled": 0, "lon": -77.00931266666667, "is_reserved": 0}, {"bike_id": "fdfde272ae637c31bc7da2120bdcb07b", "fusion_lon": 0.0, "type": "electric_scooter", "name": "fdfde272ae637c31bc7da2120bdcb07b", "rental_uris": {"android": "https://dc.lft.to/lastmile_qr_scan", "ios": "https://dc.lft.to/lastmile_qr_scan"}, "fusion_lat": 0.0, "lat": 38.91527333333333, "is_disabled": 0, "lon": -77.019706, "is_reserved": 0}, {"bike_id": "9dbee8da796839072a33032b67b41757", "fusion_lon": 0.0, "type": "electric_scooter", "name": "9dbee8da796839072a33032b67b41757", "rental_uris": {"android": "https://dc.lft.to/lastmile_qr_scan", "ios": "https://dc.lft.to/lastmile_qr_scan"}, "fusion_lat": 0.0, "lat": 38.902686333333335, "is_disabled": 0, "lon": -77.0346195, "is_reserved": 0}, {"bike_id": "55b91185b8ccb3d5418410a7ee821a86", "fusion_lon": 0.0, "type": "electric_scooter", "name": "55b91185b8ccb3d5418410a7ee821a86", "rental_uris": {"android": "https://dc.lft.to/lastmile_qr_scan", "ios": "https://dc.lft.to/lastmile_qr_scan"}, "fusion_lat": 0.0, "lat": 38.85584166666666, "is_disabled": 0, "lon": -76.98562183333334, "is_reserved": 0}, {"bike_id": "eb62f5984c8015c3affaacc7dcaae43f", "fusion_lon": 0.0, "type": "electric_scooter", "name": "eb62f5984c8015c3affaacc7dcaae43f", "rental_uris": {"android": "https://dc.lft.to/lastmile_qr_scan", "ios": "https://dc.lft.to/lastmile_qr_scan"}, "fusion_lat": 0.0, "lat": 38.93481633333333, "is_disabled": 0, "lon": -77.07272183333333, "is_reserved": 0}, {"bike_id": "a6750c2f64d3898a14586c52f218c751", "fusion_lon": 0.0, "type": "electric_scooter", "name": "a6750c2f64d3898a14586c52f218c751", "rental_uris": {"android": "https://dc.lft.to/lastmile_qr_scan", "ios": "https://dc.lft.to/lastmile_qr_scan"}, "fusion_lat": 0.0, "lat": 38.90875716666667, "is_disabled": 0, "lon": -77.03455433333333, "is_reserved": 0}, {"bike_id": "a9902780e2390662d2dd5452350cb3bc", "fusion_lon": 0.0, "type": "electric_scooter", "name": "a9902780e2390662d2dd5452350cb3bc", "rental_uris": {"android": "https://dc.lft.to/lastmile_qr_scan", "ios": "https://dc.lft.to/lastmile_qr_scan"}, "fusion_lat": 0.0, "lat": 38.900387333333335, "is_disabled": 0, "lon": -77.0261655, "is_reserved": 0}, {"bike_id": "49f19b657fc5080452f26b52977cbf08", "fusion_lon": 0.0, "type": "electric_scooter", "name": "49f19b657fc5080452f26b52977cbf08", "rental_uris": {"android": "https://dc.lft.to/lastmile_qr_scan", "ios": "https://dc.lft.to/lastmile_qr_scan"}, "fusion_lat": 0.0, "lat": 38.908231666666666, "is_disabled": 0, "lon": -77.03671783333333, "is_reserved": 0}, {"bike_id": "672481df2313dfa1aca8ef6747ebb861", "fusion_lon": 0.0, "type": "electric_scooter", "name": "672481df2313dfa1aca8ef6747ebb861", "rental_uris": {"android": "https://dc.lft.to/lastmile_qr_scan", "ios": "https://dc.lft.to/lastmile_qr_scan"}, "fusion_lat": 0.0, "lat": 38.899728, "is_disabled": 0, "lon": -77.03352716666667, "is_reserved": 0}, {"bike_id": "1e4ec9f79e6966523859e3a0a59e9631", "fusion_lon": 0.0, "type": "electric_scooter", "name": "1e4ec9f79e6966523859e3a0a59e9631", "rental_uris": {"android": "https://dc.lft.to/lastmile_qr_scan", "ios": "https://dc.lft.to/lastmile_qr_scan"}, "fusion_lat": 0.0, "lat": 38.917103166666664, "is_disabled": 0, "lon": -77.032115, "is_reserved": 0}, {"bike_id": "62e99fd79ca3c577c50eb8737cc1f9a0", "fusion_lon": 0.0, "type": "electric_scooter", "name": "62e99fd79ca3c577c50eb8737cc1f9a0", "rental_uris": {"android": "https://dc.lft.to/lastmile_qr_scan", "ios": "https://dc.lft.to/lastmile_qr_scan"}, "fusion_lat": 0.0, "lat": 38.9234605, "is_disabled": 0, "lon": -77.040642, "is_reserved": 0}, {"bike_id": "71852e0d24265ba772476aac57d93b4e", "fusion_lon": 0.0, "type": "electric_scooter", "name": "71852e0d24265ba772476aac57d93b4e", "rental_uris": {"android": "https://dc.lft.to/lastmile_qr_scan", "ios": "https://dc.lft.to/lastmile_qr_scan"}, "fusion_lat": 0.0, "lat": 38.91324083333333, "is_disabled": 0, "lon": -77.01686533333333, "is_reserved": 0}, {"bike_id": "21ec81efe7a017297600c030b7eac3f2", "fusion_lon": 0.0, "type": "electric_scooter", "name": "21ec81efe7a017297600c030b7eac3f2", "rental_uris": {"android": "https://dc.lft.to/lastmile_qr_scan", "ios": "https://dc.lft.to/lastmile_qr_scan"}, "fusion_lat": 0.0, "lat": 38.8755, "is_disabled": 0, "lon": -76.96491016666667, "is_reserved": 0}, {"bike_id": "02bc3b53857e7d43667493497f063c88", "fusion_lon": 0.0, "type": "electric_bike", "name": "02bc3b53857e7d43667493497f063c88", "rental_uris": {"android": "https://dc.lft.to/lastmile_qr_scan", "ios": "https://dc.lft.to/lastmile_qr_scan"}, "fusion_lat": 0.0, "lat": 38.82729616666667, "is_disabled": 0, "lon": -77.00862, "is_reserved": 0}, {"bike_id": "9e454ad4e0f9e921e28f16eaadbf3ab7", "fusion_lon": 0.0, "type": "electric_scooter", "name": "9e454ad4e0f9e921e28f16eaadbf3ab7", "rental_uris": {"android": "https://dc.lft.to/lastmile_qr_scan", "ios": "https://dc.lft.to/lastmile_qr_scan"}, "fusion_lat": 0.0, "lat": 38.9432095, "is_disabled": 0, "lon": -77.07368866666667, "is_reserved": 0}, {"bike_id": "abf39128516aecfa9f67157a9c245eb4", "fusion_lon": 0.0, "type": "electric_scooter", "name": "abf39128516aecfa9f67157a9c245eb4", "rental_uris": {"android": "https://dc.lft.to/lastmile_qr_scan", "ios": "https://dc.lft.to/lastmile_qr_scan"}, "fusion_lat": 0.0, "lat": 38.92518483333333, "is_disabled": 0, "lon": -77.052334, "is_reserved": 0}, {"bike_id": "5fe361e90d06f4b9c8dc7d9fb6b7a662", "fusion_lon": 0.0, "type": "electric_scooter", "name": "5fe361e90d06f4b9c8dc7d9fb6b7a662", "rental_uris": {"android": "https://dc.lft.to/lastmile_qr_scan", "ios": "https://dc.lft.to/lastmile_qr_scan"}, "fusion_lat": 0.0, "lat": 38.895165, "is_disabled": 0, "lon": -76.94899866666667, "is_reserved": 0}, {"bike_id": "6d0d5f1aca3967ed9df60835e4a63909", "fusion_lon": 0.0, "type": "electric_scooter", "name": "6d0d5f1aca3967ed9df60835e4a63909", "rental_uris": {"android": "https://dc.lft.to/lastmile_qr_scan", "ios": "https://dc.lft.to/lastmile_qr_scan"}, "fusion_lat": 0.0, "lat": 38.919812, "is_disabled": 0, "lon": -77.03971733333333, "is_reserved": 0}, {"bike_id": "2c11dfea575b417ee9858ec1f3831068", "fusion_lon": 0.0, "type": "electric_scooter", "name": "2c11dfea575b417ee9858ec1f3831068", "rental_uris": {"android": "https://dc.lft.to/lastmile_qr_scan", "ios": "https://dc.lft.to/lastmile_qr_scan"}, "fusion_lat": 0.0, "lat": 38.905588, "is_disabled": 0, "lon": -77.005843, "is_reserved": 0}, {"bike_id": "ca10acd67a42b11ff73fc0fb30e8e066", "fusion_lon": 0.0, "type": "electric_scooter", "name": "ca10acd67a42b11ff73fc0fb30e8e066", "rental_uris": {"android": "https://dc.lft.to/lastmile_qr_scan", "ios": "https://dc.lft.to/lastmile_qr_scan"}, "fusion_lat": 0.0, "lat": 38.918747833333335, "is_disabled": 0, "lon": -77.0219645, "is_reserved": 0}, {"bike_id": "1181dac83d0ea5236ecf66ab7791a7ad", "fusion_lon": 0.0, "type": "electric_scooter", "name": "1181dac83d0ea5236ecf66ab7791a7ad", "rental_uris": {"android": "https://dc.lft.to/lastmile_qr_scan", "ios": "https://dc.lft.to/lastmile_qr_scan"}, "fusion_lat": 0.0, "lat": 38.910273, "is_disabled": 0, "lon": -77.02926066666667, "is_reserved": 0}, {"bike_id": "51e960b591755eab585c4204e1da49b1", "fusion_lon": 0.0, "type": "electric_scooter", "name": "51e960b591755eab585c4204e1da49b1", "rental_uris": {"android": "https://dc.lft.to/lastmile_qr_scan", "ios": "https://dc.lft.to/lastmile_qr_scan"}, "fusion_lat": 0.0, "lat": 38.892212666666666, "is_disabled": 0, "lon": -77.02687333333333, "is_reserved": 0}, {"bike_id": "1ee2c2e2810574de6e2ea65788bcc5de", "fusion_lon": 0.0, "type": "electric_scooter", "name": "1ee2c2e2810574de6e2ea65788bcc5de", "rental_uris": {"android": "https://dc.lft.to/lastmile_qr_scan", "ios": "https://dc.lft.to/lastmile_qr_scan"}, "fusion_lat": 0.0, "lat": 38.90086016666667, "is_disabled": 0, "lon": -76.938712, "is_reserved": 0}, {"bike_id": "d5cea778bc33eefb55c72ceab943d99d", "fusion_lon": 0.0, "type": "electric_scooter", "name": "d5cea778bc33eefb55c72ceab943d99d", "rental_uris": {"android": "https://dc.lft.to/lastmile_qr_scan", "ios": "https://dc.lft.to/lastmile_qr_scan"}, "fusion_lat": 0.0, "lat": 38.909466333333334, "is_disabled": 0, "lon": -77.02697166666667, "is_reserved": 0}, {"bike_id": "1ee6df74457aeeb4c2fa0941936d950d", "fusion_lon": 0.0, "type": "electric_scooter", "name": "1ee6df74457aeeb4c2fa0941936d950d", "rental_uris": {"android": "https://dc.lft.to/lastmile_qr_scan", "ios": "https://dc.lft.to/lastmile_qr_scan"}, "fusion_lat": 0.0, "lat": 38.909611166666664, "is_disabled": 0, "lon": -77.02381216666667, "is_reserved": 0}, {"bike_id": "4698979d40903bbc5e38dd4bcd5c114f", "fusion_lon": 0.0, "type": "electric_scooter", "name": "4698979d40903bbc5e38dd4bcd5c114f", "rental_uris": {"android": "https://dc.lft.to/lastmile_qr_scan", "ios": "https://dc.lft.to/lastmile_qr_scan"}, "fusion_lat": 0.0, "lat": 38.93060633333333, "is_disabled": 0, "lon": -77.04178283333333, "is_reserved": 0}, {"bike_id": "8979a472d5ba2b7378eee5757a0a6357", "fusion_lon": 0.0, "type": "electric_scooter", "name": "8979a472d5ba2b7378eee5757a0a6357", "rental_uris": {"android": "https://dc.lft.to/lastmile_qr_scan", "ios": "https://dc.lft.to/lastmile_qr_scan"}, "fusion_lat": 0.0, "lat": 38.902732, "is_disabled": 0, "lon": -77.009148, "is_reserved": 0}, {"bike_id": "989a93ee0efddae5f3d00915d84cbc5a", "fusion_lon": 0.0, "type": "electric_scooter", "name": "989a93ee0efddae5f3d00915d84cbc5a", "rental_uris": {"android": "https://dc.lft.to/lastmile_qr_scan", "ios": "https://dc.lft.to/lastmile_qr_scan"}, "fusion_lat": 0.0, "lat": 38.938664333333335, "is_disabled": 0, "lon": -77.026606, "is_reserved": 0}, {"bike_id": "300d321b8f9e3959a90fa7a19cdc210f", "fusion_lon": 0.0, "type": "electric_bike", "name": "300d321b8f9e3959a90fa7a19cdc210f", "rental_uris": {"android": "https://dc.lft.to/lastmile_qr_scan", "ios": "https://dc.lft.to/lastmile_qr_scan"}, "fusion_lat": 0.0, "lat": 38.854260333333336, "is_disabled": 0, "lon": -76.90941683333334, "is_reserved": 0}, {"bike_id": "e06bcb8c4b99dc6eeb49e6362756cf7a", "fusion_lon": 0.0, "type": "electric_scooter", "name": "e06bcb8c4b99dc6eeb49e6362756cf7a", "rental_uris": {"android": "https://dc.lft.to/lastmile_qr_scan", "ios": "https://dc.lft.to/lastmile_qr_scan"}, "fusion_lat": 0.0, "lat": 38.88746366666667, "is_disabled": 0, "lon": -77.01872316666666, "is_reserved": 0}, {"bike_id": "746be9b4987a3f40d5c4d6dc6b731754", "fusion_lon": 0.0, "type": "electric_scooter", "name": "746be9b4987a3f40d5c4d6dc6b731754", "rental_uris": {"android": "https://dc.lft.to/lastmile_qr_scan", "ios": "https://dc.lft.to/lastmile_qr_scan"}, "fusion_lat": 0.0, "lat": 38.89532666666667, "is_disabled": 0, "lon": -77.03350266666666, "is_reserved": 0}, {"bike_id": "0374ea2a653113e167c95b7e501e959c", "fusion_lon": 0.0, "type": "electric_scooter", "name": "0374ea2a653113e167c95b7e501e959c", "rental_uris": {"android": "https://dc.lft.to/lastmile_qr_scan", "ios": "https://dc.lft.to/lastmile_qr_scan"}, "fusion_lat": 0.0, "lat": 38.911042333333334, "is_disabled": 0, "lon": -77.07353316666666, "is_reserved": 0}, {"bike_id": "85db5c34d85687c56aca1221b5a92a90", "fusion_lon": 0.0, "type": "electric_scooter", "name": "85db5c34d85687c56aca1221b5a92a90", "rental_uris": {"android": "https://dc.lft.to/lastmile_qr_scan", "ios": "https://dc.lft.to/lastmile_qr_scan"}, "fusion_lat": 0.0, "lat": 38.90488466666667, "is_disabled": 0, "lon": -77.00716866666667, "is_reserved": 0}, {"bike_id": "f89012ccff8b42cc78f3bbf4e15ad83e", "fusion_lon": 0.0, "type": "electric_scooter", "name": "f89012ccff8b42cc78f3bbf4e15ad83e", "rental_uris": {"android": "https://dc.lft.to/lastmile_qr_scan", "ios": "https://dc.lft.to/lastmile_qr_scan"}, "fusion_lat": 0.0, "lat": 38.904297666666665, "is_disabled": 0, "lon": -77.051503, "is_reserved": 0}, {"bike_id": "b387bf8004d6ccdd20fe9159f43056f9", "fusion_lon": 0.0, "type": "electric_scooter", "name": "b387bf8004d6ccdd20fe9159f43056f9", "rental_uris": {"android": "https://dc.lft.to/lastmile_qr_scan", "ios": "https://dc.lft.to/lastmile_qr_scan"}, "fusion_lat": 0.0, "lat": 38.87995766666667, "is_disabled": 0, "lon": -76.98541133333333, "is_reserved": 0}, {"bike_id": "09900924ab09a40caafa80d611decbbc", "fusion_lon": 0.0, "type": "electric_scooter", "name": "09900924ab09a40caafa80d611decbbc", "rental_uris": {"android": "https://dc.lft.to/lastmile_qr_scan", "ios": "https://dc.lft.to/lastmile_qr_scan"}, "fusion_lat": 0.0, "lat": 38.919261166666665, "is_disabled": 0, "lon": -77.03177633333334, "is_reserved": 0}, {"bike_id": "42185a4feaf15e881c2f94565f75c4f9", "fusion_lon": 0.0, "type": "electric_scooter", "name": "42185a4feaf15e881c2f94565f75c4f9", "rental_uris": {"android": "https://dc.lft.to/lastmile_qr_scan", "ios": "https://dc.lft.to/lastmile_qr_scan"}, "fusion_lat": 0.0, "lat": 38.8922775, "is_disabled": 0, "lon": -77.028284, "is_reserved": 0}, {"bike_id": "0e48a8ea859f432f8433c1e39124c2a9", "fusion_lon": 0.0, "type": "electric_scooter", "name": "0e48a8ea859f432f8433c1e39124c2a9", "rental_uris": {"android": "https://dc.lft.to/lastmile_qr_scan", "ios": "https://dc.lft.to/lastmile_qr_scan"}, "fusion_lat": 0.0, "lat": 38.90791316666667, "is_disabled": 0, "lon": -76.94119283333333, "is_reserved": 0}, {"bike_id": "201293b4e2f1221c9df8a90ad79b518d", "fusion_lon": 0.0, "type": "electric_scooter", "name": "201293b4e2f1221c9df8a90ad79b518d", "rental_uris": {"android": "https://dc.lft.to/lastmile_qr_scan", "ios": "https://dc.lft.to/lastmile_qr_scan"}, "fusion_lat": 0.0, "lat": 38.91552216666667, "is_disabled": 0, "lon": -77.02203666666666, "is_reserved": 0}, {"bike_id": "cce1e5a176bafc318c551735c81e8599", "fusion_lon": 0.0, "type": "electric_scooter", "name": "cce1e5a176bafc318c551735c81e8599", "rental_uris": {"android": "https://dc.lft.to/lastmile_qr_scan", "ios": "https://dc.lft.to/lastmile_qr_scan"}, "fusion_lat": 0.0, "lat": 38.939206166666665, "is_disabled": 0, "lon": -77.06038883333333, "is_reserved": 0}, {"bike_id": "db2685870a1ce4e309c157af0d9c843a", "fusion_lon": 0.0, "type": "electric_scooter", "name": "db2685870a1ce4e309c157af0d9c843a", "rental_uris": {"android": "https://dc.lft.to/lastmile_qr_scan", "ios": "https://dc.lft.to/lastmile_qr_scan"}, "fusion_lat": 0.0, "lat": 38.89909933333333, "is_disabled": 0, "lon": -76.93339016666667, "is_reserved": 0}, {"bike_id": "72f83876c02d79301c4e9766f4b930ba", "fusion_lon": 0.0, "type": "electric_scooter", "name": "72f83876c02d79301c4e9766f4b930ba", "rental_uris": {"android": "https://dc.lft.to/lastmile_qr_scan", "ios": "https://dc.lft.to/lastmile_qr_scan"}, "fusion_lat": 0.0, "lat": 38.920508166666664, "is_disabled": 0, "lon": -77.024272, "is_reserved": 0}, {"bike_id": "c3e069b762efc83e711ec2f5acc1c19f", "fusion_lon": 0.0, "type": "electric_scooter", "name": "c3e069b762efc83e711ec2f5acc1c19f", "rental_uris": {"android": "https://dc.lft.to/lastmile_qr_scan", "ios": "https://dc.lft.to/lastmile_qr_scan"}, "fusion_lat": 0.0, "lat": 38.9078845, "is_disabled": 0, "lon": -77.04509383333334, "is_reserved": 0}, {"bike_id": "4f082bc9e8e86fff92e6481f5f753078", "fusion_lon": 0.0, "type": "electric_scooter", "name": "4f082bc9e8e86fff92e6481f5f753078", "rental_uris": {"android": "https://dc.lft.to/lastmile_qr_scan", "ios": "https://dc.lft.to/lastmile_qr_scan"}, "fusion_lat": 0.0, "lat": 38.90682483333333, "is_disabled": 0, "lon": -77.06288566666667, "is_reserved": 0}, {"bike_id": "62abfc15dec344542e910c8f85ca7ac7", "fusion_lon": 0.0, "type": "electric_scooter", "name": "62abfc15dec344542e910c8f85ca7ac7", "rental_uris": {"android": "https://dc.lft.to/lastmile_qr_scan", "ios": "https://dc.lft.to/lastmile_qr_scan"}, "fusion_lat": 0.0, "lat": 38.8933895, "is_disabled": 0, "lon": -77.02959316666667, "is_reserved": 0}, {"bike_id": "9da57c52bccd383c84026e312d7ec69e", "fusion_lon": 0.0, "type": "electric_scooter", "name": "9da57c52bccd383c84026e312d7ec69e", "rental_uris": {"android": "https://dc.lft.to/lastmile_qr_scan", "ios": "https://dc.lft.to/lastmile_qr_scan"}, "fusion_lat": 0.0, "lat": 38.91008216666667, "is_disabled": 0, "lon": -77.02193766666667, "is_reserved": 0}, {"bike_id": "6ac42f24233ca67d33af419f8ddf86a3", "fusion_lon": 0.0, "type": "electric_scooter", "name": "6ac42f24233ca67d33af419f8ddf86a3", "rental_uris": {"android": "https://dc.lft.to/lastmile_qr_scan", "ios": "https://dc.lft.to/lastmile_qr_scan"}, "fusion_lat": 0.0, "lat": 38.9101915, "is_disabled": 0, "lon": -77.00921066666666, "is_reserved": 0}, {"bike_id": "5dfa9efc2727cf98776be4be71ed1e85", "fusion_lon": 0.0, "type": "electric_scooter", "name": "5dfa9efc2727cf98776be4be71ed1e85", "rental_uris": {"android": "https://dc.lft.to/lastmile_qr_scan", "ios": "https://dc.lft.to/lastmile_qr_scan"}, "fusion_lat": 0.0, "lat": 38.89242866666667, "is_disabled": 0, "lon": -77.02184, "is_reserved": 0}, {"bike_id": "92cb5181b8d4ce2d46c6f5585db6ac61", "fusion_lon": 0.0, "type": "electric_scooter", "name": "92cb5181b8d4ce2d46c6f5585db6ac61", "rental_uris": {"android": "https://dc.lft.to/lastmile_qr_scan", "ios": "https://dc.lft.to/lastmile_qr_scan"}, "fusion_lat": 0.0, "lat": 38.8792175, "is_disabled": 0, "lon": -76.99164166666667, "is_reserved": 0}, {"bike_id": "75ed095dbd51257e0d96691310517daa", "fusion_lon": 0.0, "type": "electric_scooter", "name": "75ed095dbd51257e0d96691310517daa", "rental_uris": {"android": "https://dc.lft.to/lastmile_qr_scan", "ios": "https://dc.lft.to/lastmile_qr_scan"}, "fusion_lat": 0.0, "lat": 38.865113, "is_disabled": 0, "lon": -76.97347283333333, "is_reserved": 0}, {"bike_id": "6ef5c85b3390f06f5232e4079dc3fa24", "fusion_lon": 0.0, "type": "electric_scooter", "name": "6ef5c85b3390f06f5232e4079dc3fa24", "rental_uris": {"android": "https://dc.lft.to/lastmile_qr_scan", "ios": "https://dc.lft.to/lastmile_qr_scan"}, "fusion_lat": 0.0, "lat": 38.88988533333333, "is_disabled": 0, "lon": -76.92405083333334, "is_reserved": 0}, {"bike_id": "5ce37712dfce5551f6f474aaf46d65e4", "fusion_lon": 0.0, "type": "electric_scooter", "name": "5ce37712dfce5551f6f474aaf46d65e4", "rental_uris": {"android": "https://dc.lft.to/lastmile_qr_scan", "ios": "https://dc.lft.to/lastmile_qr_scan"}, "fusion_lat": 0.0, "lat": 38.9622945, "is_disabled": 0, "lon": -77.02975916666666, "is_reserved": 0}, {"bike_id": "36662b9b86158c6032fe3cbfdecf411a", "fusion_lon": 0.0, "type": "electric_scooter", "name": "36662b9b86158c6032fe3cbfdecf411a", "rental_uris": {"android": "https://dc.lft.to/lastmile_qr_scan", "ios": "https://dc.lft.to/lastmile_qr_scan"}, "fusion_lat": 0.0, "lat": 38.86220616666667, "is_disabled": 0, "lon": -76.9949905, "is_reserved": 0}, {"bike_id": "5112b5dd6b811962d745c2c8f7e4a6aa", "fusion_lon": 0.0, "type": "electric_scooter", "name": "5112b5dd6b811962d745c2c8f7e4a6aa", "rental_uris": {"android": "https://dc.lft.to/lastmile_qr_scan", "ios": "https://dc.lft.to/lastmile_qr_scan"}, "fusion_lat": 0.0, "lat": 38.906889166666666, "is_disabled": 0, "lon": -77.06138366666667, "is_reserved": 0}, {"bike_id": "601c2fb5ef2789590f9e2a35e17bcb56", "fusion_lon": 0.0, "type": "electric_scooter", "name": "601c2fb5ef2789590f9e2a35e17bcb56", "rental_uris": {"android": "https://dc.lft.to/lastmile_qr_scan", "ios": "https://dc.lft.to/lastmile_qr_scan"}, "fusion_lat": 0.0, "lat": 38.876390666666666, "is_disabled": 0, "lon": -77.0056285, "is_reserved": 0}, {"bike_id": "6dce7cfd042baca449f40a703ac33a14", "fusion_lon": 0.0, "type": "electric_scooter", "name": "6dce7cfd042baca449f40a703ac33a14", "rental_uris": {"android": "https://dc.lft.to/lastmile_qr_scan", "ios": "https://dc.lft.to/lastmile_qr_scan"}, "fusion_lat": 0.0, "lat": 38.91412833333333, "is_disabled": 0, "lon": -77.031596, "is_reserved": 0}, {"bike_id": "d8a7e7d2a19723772010fd7948ee4748", "fusion_lon": 0.0, "type": "electric_scooter", "name": "d8a7e7d2a19723772010fd7948ee4748", "rental_uris": {"android": "https://dc.lft.to/lastmile_qr_scan", "ios": "https://dc.lft.to/lastmile_qr_scan"}, "fusion_lat": 0.0, "lat": 38.90407066666667, "is_disabled": 0, "lon": -77.00135633333333, "is_reserved": 0}, {"bike_id": "fed6421fbbb2d4dc0b39c5c652716451", "fusion_lon": 0.0, "type": "electric_scooter", "name": "fed6421fbbb2d4dc0b39c5c652716451", "rental_uris": {"android": "https://dc.lft.to/lastmile_qr_scan", "ios": "https://dc.lft.to/lastmile_qr_scan"}, "fusion_lat": 0.0, "lat": 38.886347, "is_disabled": 0, "lon": -77.02155783333333, "is_reserved": 0}, {"bike_id": "a1a592a18c77a044a228818a2a46f6b4", "fusion_lon": 0.0, "type": "electric_scooter", "name": "a1a592a18c77a044a228818a2a46f6b4", "rental_uris": {"android": "https://dc.lft.to/lastmile_qr_scan", "ios": "https://dc.lft.to/lastmile_qr_scan"}, "fusion_lat": 0.0, "lat": 38.92431883333333, "is_disabled": 0, "lon": -77.04248266666667, "is_reserved": 0}, {"bike_id": "56b41545a7ab1b81894b1fed04351a87", "fusion_lon": 0.0, "type": "electric_scooter", "name": "56b41545a7ab1b81894b1fed04351a87", "rental_uris": {"android": "https://dc.lft.to/lastmile_qr_scan", "ios": "https://dc.lft.to/lastmile_qr_scan"}, "fusion_lat": 0.0, "lat": 38.9096095, "is_disabled": 0, "lon": -77.01377833333333, "is_reserved": 0}, {"bike_id": "14bb2490fddfa61d66913948a96f6920", "fusion_lon": 0.0, "type": "electric_bike", "name": "14bb2490fddfa61d66913948a96f6920", "rental_uris": {"android": "https://dc.lft.to/lastmile_qr_scan", "ios": "https://dc.lft.to/lastmile_qr_scan"}, "fusion_lat": 0.0, "lat": 38.852094, "is_disabled": 0, "lon": -77.10125133333334, "is_reserved": 0}, {"bike_id": "b07985f8ac46a3cd697cf566bae9bfef", "fusion_lon": 0.0, "type": "electric_bike", "name": "b07985f8ac46a3cd697cf566bae9bfef", "rental_uris": {"android": "https://dc.lft.to/lastmile_qr_scan", "ios": "https://dc.lft.to/lastmile_qr_scan"}, "fusion_lat": 0.0, "lat": 38.90318233333333, "is_disabled": 0, "lon": -76.99128533333334, "is_reserved": 0}, {"bike_id": "a66860e542ce0a82919076004cdfc427", "fusion_lon": 0.0, "type": "electric_bike", "name": "a66860e542ce0a82919076004cdfc427", "rental_uris": {"android": "https://dc.lft.to/lastmile_qr_scan", "ios": "https://dc.lft.to/lastmile_qr_scan"}, "fusion_lat": 0.0, "lat": 38.89812083333333, "is_disabled": 0, "lon": -77.005988, "is_reserved": 0}, {"bike_id": "76447dd93008abeac5568758085ca8aa", "fusion_lon": 0.0, "type": "electric_scooter", "name": "76447dd93008abeac5568758085ca8aa", "rental_uris": {"android": "https://dc.lft.to/lastmile_qr_scan", "ios": "https://dc.lft.to/lastmile_qr_scan"}, "fusion_lat": 0.0, "lat": 38.92248633333333, "is_disabled": 0, "lon": -77.03079783333334, "is_reserved": 0}, {"bike_id": "876cd1cb0723cd76309d9130921d1a34", "fusion_lon": 0.0, "type": "electric_scooter", "name": "876cd1cb0723cd76309d9130921d1a34", "rental_uris": {"android": "https://dc.lft.to/lastmile_qr_scan", "ios": "https://dc.lft.to/lastmile_qr_scan"}, "fusion_lat": 0.0, "lat": 38.91894533333333, "is_disabled": 0, "lon": -77.04119783333333, "is_reserved": 0}, {"bike_id": "ad9c0b61d86b5ccb03b17e391ffd3935", "fusion_lon": 0.0, "type": "electric_scooter", "name": "ad9c0b61d86b5ccb03b17e391ffd3935", "rental_uris": {"android": "https://dc.lft.to/lastmile_qr_scan", "ios": "https://dc.lft.to/lastmile_qr_scan"}, "fusion_lat": 0.0, "lat": 38.90389716666667, "is_disabled": 0, "lon": -77.03376366666667, "is_reserved": 0}, {"bike_id": "7f3d297d90efd591b324bd16b0b8c3e1", "fusion_lon": 0.0, "type": "electric_scooter", "name": "7f3d297d90efd591b324bd16b0b8c3e1", "rental_uris": {"android": "https://dc.lft.to/lastmile_qr_scan", "ios": "https://dc.lft.to/lastmile_qr_scan"}, "fusion_lat": 0.0, "lat": 38.87919933333333, "is_disabled": 0, "lon": -77.0236215, "is_reserved": 0}, {"bike_id": "d4262e42e018331f6a1817cc73c0cf75", "fusion_lon": 0.0, "type": "electric_scooter", "name": "d4262e42e018331f6a1817cc73c0cf75", "rental_uris": {"android": "https://dc.lft.to/lastmile_qr_scan", "ios": "https://dc.lft.to/lastmile_qr_scan"}, "fusion_lat": 0.0, "lat": 38.900005666666665, "is_disabled": 0, "lon": -76.984091, "is_reserved": 0}, {"bike_id": "8e51c9dbe37d7dbc8c6ac4e2c7fc095d", "fusion_lon": 0.0, "type": "electric_scooter", "name": "8e51c9dbe37d7dbc8c6ac4e2c7fc095d", "rental_uris": {"android": "https://dc.lft.to/lastmile_qr_scan", "ios": "https://dc.lft.to/lastmile_qr_scan"}, "fusion_lat": 0.0, "lat": 38.919189833333334, "is_disabled": 0, "lon": -77.03119216666667, "is_reserved": 0}, {"bike_id": "fcafbf98fe66cc318a94438d531d8da5", "fusion_lon": 0.0, "type": "electric_scooter", "name": "fcafbf98fe66cc318a94438d531d8da5", "rental_uris": {"android": "https://dc.lft.to/lastmile_qr_scan", "ios": "https://dc.lft.to/lastmile_qr_scan"}, "fusion_lat": 0.0, "lat": 38.906841166666666, "is_disabled": 0, "lon": -77.06341083333334, "is_reserved": 0}, {"bike_id": "bf9d296c55ab712c776745f9a0d44fa9", "fusion_lon": 0.0, "type": "electric_bike", "name": "bf9d296c55ab712c776745f9a0d44fa9", "rental_uris": {"android": "https://dc.lft.to/lastmile_qr_scan", "ios": "https://dc.lft.to/lastmile_qr_scan"}, "fusion_lat": 0.0, "lat": 38.950854166666666, "is_disabled": 0, "lon": -77.01230916666667, "is_reserved": 0}, {"bike_id": "a6f9ef18ca73ced68a6ed524f0a155b6", "fusion_lon": 0.0, "type": "electric_scooter", "name": "a6f9ef18ca73ced68a6ed524f0a155b6", "rental_uris": {"android": "https://dc.lft.to/lastmile_qr_scan", "ios": "https://dc.lft.to/lastmile_qr_scan"}, "fusion_lat": 0.0, "lat": 38.9289755, "is_disabled": 0, "lon": -76.9847445, "is_reserved": 0}, {"bike_id": "35c6640166f741bafbef51dfaa307014", "fusion_lon": 0.0, "type": "electric_scooter", "name": "35c6640166f741bafbef51dfaa307014", "rental_uris": {"android": "https://dc.lft.to/lastmile_qr_scan", "ios": "https://dc.lft.to/lastmile_qr_scan"}, "fusion_lat": 0.0, "lat": 38.890773333333335, "is_disabled": 0, "lon": -76.919259, "is_reserved": 0}, {"bike_id": "5e4ff29ec65e0ad98ecd8339be13c4b5", "fusion_lon": 0.0, "type": "electric_scooter", "name": "5e4ff29ec65e0ad98ecd8339be13c4b5", "rental_uris": {"android": "https://dc.lft.to/lastmile_qr_scan", "ios": "https://dc.lft.to/lastmile_qr_scan"}, "fusion_lat": 0.0, "lat": 38.93419383333333, "is_disabled": 0, "lon": -77.04403766666667, "is_reserved": 0}, {"bike_id": "1ef9de23edfc3c5f3f36cc303660f50a", "fusion_lon": 0.0, "type": "electric_scooter", "name": "1ef9de23edfc3c5f3f36cc303660f50a", "rental_uris": {"android": "https://dc.lft.to/lastmile_qr_scan", "ios": "https://dc.lft.to/lastmile_qr_scan"}, "fusion_lat": 0.0, "lat": 38.904653, "is_disabled": 0, "lon": -77.03473433333333, "is_reserved": 0}, {"bike_id": "fa3a8b87088a0ef01cf9de1861d9b68b", "fusion_lon": 0.0, "type": "electric_scooter", "name": "fa3a8b87088a0ef01cf9de1861d9b68b", "rental_uris": {"android": "https://dc.lft.to/lastmile_qr_scan", "ios": "https://dc.lft.to/lastmile_qr_scan"}, "fusion_lat": 0.0, "lat": 38.90567716666666, "is_disabled": 0, "lon": -77.03077566666667, "is_reserved": 0}, {"bike_id": "282fee25d2d20ae369f26b33d27c6eab", "fusion_lon": 0.0, "type": "electric_scooter", "name": "282fee25d2d20ae369f26b33d27c6eab", "rental_uris": {"android": "https://dc.lft.to/lastmile_qr_scan", "ios": "https://dc.lft.to/lastmile_qr_scan"}, "fusion_lat": 0.0, "lat": 38.921592, "is_disabled": 0, "lon": -77.04704133333334, "is_reserved": 0}, {"bike_id": "8391351146ef0ed64a7e12944a9ea933", "fusion_lon": 0.0, "type": "electric_scooter", "name": "8391351146ef0ed64a7e12944a9ea933", "rental_uris": {"android": "https://dc.lft.to/lastmile_qr_scan", "ios": "https://dc.lft.to/lastmile_qr_scan"}, "fusion_lat": 0.0, "lat": 38.920748833333334, "is_disabled": 0, "lon": -77.03824933333334, "is_reserved": 0}, {"bike_id": "62e2908bf0dc9525afdf99f1ea16af49", "fusion_lon": 0.0, "type": "electric_scooter", "name": "62e2908bf0dc9525afdf99f1ea16af49", "rental_uris": {"android": "https://dc.lft.to/lastmile_qr_scan", "ios": "https://dc.lft.to/lastmile_qr_scan"}, "fusion_lat": 0.0, "lat": 38.94032216666667, "is_disabled": 0, "lon": -77.02960516666667, "is_reserved": 0}, {"bike_id": "672bc82d5a61f5fa96be5fbd21bef8be", "fusion_lon": 0.0, "type": "electric_scooter", "name": "672bc82d5a61f5fa96be5fbd21bef8be", "rental_uris": {"android": "https://dc.lft.to/lastmile_qr_scan", "ios": "https://dc.lft.to/lastmile_qr_scan"}, "fusion_lat": 0.0, "lat": 38.911162166666664, "is_disabled": 0, "lon": -77.04500166666666, "is_reserved": 0}, {"bike_id": "240baaee3c6f452de3aecf52b9cc6a18", "fusion_lon": 0.0, "type": "electric_scooter", "name": "240baaee3c6f452de3aecf52b9cc6a18", "rental_uris": {"android": "https://dc.lft.to/lastmile_qr_scan", "ios": "https://dc.lft.to/lastmile_qr_scan"}, "fusion_lat": 0.0, "lat": 38.87705483333333, "is_disabled": 0, "lon": -77.01592283333333, "is_reserved": 0}, {"bike_id": "ed1b0afc642b4ba14fa37d2635ace57f", "fusion_lon": 0.0, "type": "electric_scooter", "name": "ed1b0afc642b4ba14fa37d2635ace57f", "rental_uris": {"android": "https://dc.lft.to/lastmile_qr_scan", "ios": "https://dc.lft.to/lastmile_qr_scan"}, "fusion_lat": 0.0, "lat": 38.90078166666667, "is_disabled": 0, "lon": -77.0483775, "is_reserved": 0}, {"bike_id": "6306cb89c663dfa286914042fcc2de6d", "fusion_lon": 0.0, "type": "electric_scooter", "name": "6306cb89c663dfa286914042fcc2de6d", "rental_uris": {"android": "https://dc.lft.to/lastmile_qr_scan", "ios": "https://dc.lft.to/lastmile_qr_scan"}, "fusion_lat": 0.0, "lat": 38.90030633333333, "is_disabled": 0, "lon": -76.9877715, "is_reserved": 0}, {"bike_id": "5c8604f725422ffd211e7c031b3461a6", "fusion_lon": 0.0, "type": "electric_scooter", "name": "5c8604f725422ffd211e7c031b3461a6", "rental_uris": {"android": "https://dc.lft.to/lastmile_qr_scan", "ios": "https://dc.lft.to/lastmile_qr_scan"}, "fusion_lat": 0.0, "lat": 38.9125495, "is_disabled": 0, "lon": -77.04962016666667, "is_reserved": 0}, {"bike_id": "13473ac9e12c0c07a4e6c49c8480c112", "fusion_lon": 0.0, "type": "electric_scooter", "name": "13473ac9e12c0c07a4e6c49c8480c112", "rental_uris": {"android": "https://dc.lft.to/lastmile_qr_scan", "ios": "https://dc.lft.to/lastmile_qr_scan"}, "fusion_lat": 0.0, "lat": 38.91550266666667, "is_disabled": 0, "lon": -77.0263445, "is_reserved": 0}, {"bike_id": "3b3236f54da183c0fc76f8e6b009d9a2", "fusion_lon": 0.0, "type": "electric_scooter", "name": "3b3236f54da183c0fc76f8e6b009d9a2", "rental_uris": {"android": "https://dc.lft.to/lastmile_qr_scan", "ios": "https://dc.lft.to/lastmile_qr_scan"}, "fusion_lat": 0.0, "lat": 38.86404916666667, "is_disabled": 0, "lon": -76.99027566666666, "is_reserved": 0}, {"bike_id": "37a1ea23e40a932f3eda5354eb7f8467", "fusion_lon": 0.0, "type": "electric_bike", "name": "37a1ea23e40a932f3eda5354eb7f8467", "rental_uris": {"android": "https://dc.lft.to/lastmile_qr_scan", "ios": "https://dc.lft.to/lastmile_qr_scan"}, "fusion_lat": 0.0, "lat": 38.8879855, "is_disabled": 0, "lon": -76.929967, "is_reserved": 0}, {"bike_id": "59cb5083d20477efa23a109076301156", "fusion_lon": 0.0, "type": "electric_scooter", "name": "59cb5083d20477efa23a109076301156", "rental_uris": {"android": "https://dc.lft.to/lastmile_qr_scan", "ios": "https://dc.lft.to/lastmile_qr_scan"}, "fusion_lat": 0.0, "lat": 38.94864966666667, "is_disabled": 0, "lon": -77.07932583333333, "is_reserved": 0}, {"bike_id": "30c6432564867c4cb1a49e88e7b4a5d9", "fusion_lon": 0.0, "type": "electric_scooter", "name": "30c6432564867c4cb1a49e88e7b4a5d9", "rental_uris": {"android": "https://dc.lft.to/lastmile_qr_scan", "ios": "https://dc.lft.to/lastmile_qr_scan"}, "fusion_lat": 0.0, "lat": 38.903593666666666, "is_disabled": 0, "lon": -77.00340183333333, "is_reserved": 0}, {"bike_id": "2255e17ad4e669d92c8452871e9106ed", "fusion_lon": 0.0, "type": "electric_bike", "name": "2255e17ad4e669d92c8452871e9106ed", "rental_uris": {"android": "https://dc.lft.to/lastmile_qr_scan", "ios": "https://dc.lft.to/lastmile_qr_scan"}, "fusion_lat": 0.0, "lat": 38.942906666666666, "is_disabled": 0, "lon": -77.06921883333334, "is_reserved": 0}, {"bike_id": "129678ee3e99481a73bac1ed528996d2", "fusion_lon": 0.0, "type": "electric_scooter", "name": "129678ee3e99481a73bac1ed528996d2", "rental_uris": {"android": "https://dc.lft.to/lastmile_qr_scan", "ios": "https://dc.lft.to/lastmile_qr_scan"}, "fusion_lat": 0.0, "lat": 38.87582833333333, "is_disabled": 0, "lon": -77.01416283333333, "is_reserved": 0}, {"bike_id": "7212a0414b27168b22ea48cc090e55b7", "fusion_lon": 0.0, "type": "electric_scooter", "name": "7212a0414b27168b22ea48cc090e55b7", "rental_uris": {"android": "https://dc.lft.to/lastmile_qr_scan", "ios": "https://dc.lft.to/lastmile_qr_scan"}, "fusion_lat": 0.0, "lat": 38.91988516666667, "is_disabled": 0, "lon": -77.03967166666666, "is_reserved": 0}, {"bike_id": "721073b12afbb9a2a7af11ff54a4349f", "fusion_lon": 0.0, "type": "electric_bike", "name": "721073b12afbb9a2a7af11ff54a4349f", "rental_uris": {"android": "https://dc.lft.to/lastmile_qr_scan", "ios": "https://dc.lft.to/lastmile_qr_scan"}, "fusion_lat": 0.0, "lat": 38.911689333333335, "is_disabled": 0, "lon": -77.00259616666666, "is_reserved": 0}, {"bike_id": "4e61f1d80609fb2098762d9eae801cc1", "fusion_lon": 0.0, "type": "electric_bike", "name": "4e61f1d80609fb2098762d9eae801cc1", "rental_uris": {"android": "https://dc.lft.to/lastmile_qr_scan", "ios": "https://dc.lft.to/lastmile_qr_scan"}, "fusion_lat": 0.0, "lat": 38.9283895, "is_disabled": 0, "lon": -77.02064566666667, "is_reserved": 0}, {"bike_id": "bca4e26731679c2d6276e42d0bfb1b18", "fusion_lon": 0.0, "type": "electric_scooter", "name": "bca4e26731679c2d6276e42d0bfb1b18", "rental_uris": {"android": "https://dc.lft.to/lastmile_qr_scan", "ios": "https://dc.lft.to/lastmile_qr_scan"}, "fusion_lat": 0.0, "lat": 38.92048066666667, "is_disabled": 0, "lon": -77.0339135, "is_reserved": 0}, {"bike_id": "77c31a70c93c947f3c2cef14dac804ac", "fusion_lon": 0.0, "type": "electric_bike", "name": "77c31a70c93c947f3c2cef14dac804ac", "rental_uris": {"android": "https://dc.lft.to/lastmile_qr_scan", "ios": "https://dc.lft.to/lastmile_qr_scan"}, "fusion_lat": 0.0, "lat": 38.82447283333333, "is_disabled": 0, "lon": -77.0704805, "is_reserved": 0}, {"bike_id": "e7d367ca4b344310cfea94158b3f37b1", "fusion_lon": 0.0, "type": "electric_bike", "name": "e7d367ca4b344310cfea94158b3f37b1", "rental_uris": {"android": "https://dc.lft.to/lastmile_qr_scan", "ios": "https://dc.lft.to/lastmile_qr_scan"}, "fusion_lat": 0.0, "lat": 38.79986, "is_disabled": 0, "lon": -77.12986383333333, "is_reserved": 0}, {"bike_id": "fbc3ecad418cf417acee27660093fab8", "fusion_lon": 0.0, "type": "electric_scooter", "name": "fbc3ecad418cf417acee27660093fab8", "rental_uris": {"android": "https://dc.lft.to/lastmile_qr_scan", "ios": "https://dc.lft.to/lastmile_qr_scan"}, "fusion_lat": 0.0, "lat": 38.906326, "is_disabled": 0, "lon": -77.004156, "is_reserved": 0}, {"bike_id": "3c3dd55b747af25f1c85b931ddbb4d77", "fusion_lon": 0.0, "type": "electric_scooter", "name": "3c3dd55b747af25f1c85b931ddbb4d77", "rental_uris": {"android": "https://dc.lft.to/lastmile_qr_scan", "ios": "https://dc.lft.to/lastmile_qr_scan"}, "fusion_lat": 0.0, "lat": 38.90521316666667, "is_disabled": 0, "lon": -77.01698766666667, "is_reserved": 0}, {"bike_id": "0ce0671806c2d180c49a052e5f7a2085", "fusion_lon": 0.0, "type": "electric_scooter", "name": "0ce0671806c2d180c49a052e5f7a2085", "rental_uris": {"android": "https://dc.lft.to/lastmile_qr_scan", "ios": "https://dc.lft.to/lastmile_qr_scan"}, "fusion_lat": 0.0, "lat": 38.896770333333336, "is_disabled": 0, "lon": -76.94719883333333, "is_reserved": 0}, {"bike_id": "ccfda4d8699cc3898300d78c3d61884b", "fusion_lon": 0.0, "type": "electric_bike", "name": "ccfda4d8699cc3898300d78c3d61884b", "rental_uris": {"android": "https://dc.lft.to/lastmile_qr_scan", "ios": "https://dc.lft.to/lastmile_qr_scan"}, "fusion_lat": 0.0, "lat": 38.87976966666667, "is_disabled": 0, "lon": -76.916027, "is_reserved": 0}, {"bike_id": "bb7aff9aa01111bb146de63d85c3821e", "fusion_lon": 0.0, "type": "electric_bike", "name": "bb7aff9aa01111bb146de63d85c3821e", "rental_uris": {"android": "https://dc.lft.to/lastmile_qr_scan", "ios": "https://dc.lft.to/lastmile_qr_scan"}, "fusion_lat": 0.0, "lat": 38.865357833333334, "is_disabled": 0, "lon": -77.12809783333333, "is_reserved": 0}, {"bike_id": "5f2f585998411e9aff88dea670134bb7", "fusion_lon": 0.0, "type": "electric_scooter", "name": "5f2f585998411e9aff88dea670134bb7", "rental_uris": {"android": "https://dc.lft.to/lastmile_qr_scan", "ios": "https://dc.lft.to/lastmile_qr_scan"}, "fusion_lat": 0.0, "lat": 38.90573216666667, "is_disabled": 0, "lon": -77.03991083333334, "is_reserved": 0}, {"bike_id": "496d5059d80b2bcc58081156c916aa92", "fusion_lon": 0.0, "type": "electric_scooter", "name": "496d5059d80b2bcc58081156c916aa92", "rental_uris": {"android": "https://dc.lft.to/lastmile_qr_scan", "ios": "https://dc.lft.to/lastmile_qr_scan"}, "fusion_lat": 0.0, "lat": 38.92901666666667, "is_disabled": 0, "lon": -77.063927, "is_reserved": 0}, {"bike_id": "770e2a797d7b814ff1788a699d575dc9", "fusion_lon": 0.0, "type": "electric_scooter", "name": "770e2a797d7b814ff1788a699d575dc9", "rental_uris": {"android": "https://dc.lft.to/lastmile_qr_scan", "ios": "https://dc.lft.to/lastmile_qr_scan"}, "fusion_lat": 0.0, "lat": 38.940288, "is_disabled": 0, "lon": -77.06891983333334, "is_reserved": 0}, {"bike_id": "88fc0e981d6861b2bd98644e98ff5375", "fusion_lon": 0.0, "type": "electric_scooter", "name": "88fc0e981d6861b2bd98644e98ff5375", "rental_uris": {"android": "https://dc.lft.to/lastmile_qr_scan", "ios": "https://dc.lft.to/lastmile_qr_scan"}, "fusion_lat": 0.0, "lat": 38.90520566666667, "is_disabled": 0, "lon": -77.04989616666667, "is_reserved": 0}, {"bike_id": "ec3babb3248574e8403acdd0c824c4a7", "fusion_lon": 0.0, "type": "electric_scooter", "name": "ec3babb3248574e8403acdd0c824c4a7", "rental_uris": {"android": "https://dc.lft.to/lastmile_qr_scan", "ios": "https://dc.lft.to/lastmile_qr_scan"}, "fusion_lat": 0.0, "lat": 38.915557166666666, "is_disabled": 0, "lon": -77.038407, "is_reserved": 0}, {"bike_id": "416856a5f9149976cd95662f4fc90b3f", "fusion_lon": 0.0, "type": "electric_scooter", "name": "416856a5f9149976cd95662f4fc90b3f", "rental_uris": {"android": "https://dc.lft.to/lastmile_qr_scan", "ios": "https://dc.lft.to/lastmile_qr_scan"}, "fusion_lat": 0.0, "lat": 38.86719466666667, "is_disabled": 0, "lon": -76.987223, "is_reserved": 0}, {"bike_id": "dc95f904a3d1640f7e3c1d6700e3bc38", "fusion_lon": 0.0, "type": "electric_scooter", "name": "dc95f904a3d1640f7e3c1d6700e3bc38", "rental_uris": {"android": "https://dc.lft.to/lastmile_qr_scan", "ios": "https://dc.lft.to/lastmile_qr_scan"}, "fusion_lat": 0.0, "lat": 38.924761833333335, "is_disabled": 0, "lon": -77.03483783333333, "is_reserved": 0}, {"bike_id": "9652322858a1a3d13075dd35ceb5624f", "fusion_lon": 0.0, "type": "electric_bike", "name": "9652322858a1a3d13075dd35ceb5624f", "rental_uris": {"android": "https://dc.lft.to/lastmile_qr_scan", "ios": "https://dc.lft.to/lastmile_qr_scan"}, "fusion_lat": 0.0, "lat": 38.854893, "is_disabled": 0, "lon": -77.1161505, "is_reserved": 0},