{"data": {"bikes": [{"rental_uris": {"ios": "https://dc.lft.to/lastmile_qr_scan", "android": "https://dc.lft.to/lastmile_qr_scan"}, "lon": -77.04803983333333, "type": "electric_scooter", "fusion_lat": 0.0, "lat": 38.896165333333336, "name": "883f3833e3b41e98b4e4f001518ba9d6", "fusion_lon": 0.0, "bike_id": "883f3833e3b41e98b4e4f001518ba9d6", "is_disabled": 0, "is_reserved": 0}, {"rental_uris": {"ios": "https://dc.lft.to/lastmile_qr_scan", "android": "https://dc.lft.to/lastmile_qr_scan"}, "lon": -77.04379433333334, "type": "electric_scooter", "fusion_lat": 0.0, "lat": 38.92068116666667, "name": "a7692afd8eaa27133af8e863b7121b52", "fusion_lon": 0.0, "bike_id": "a7692afd8eaa27133af8e863b7121b52", "is_disabled": 0, "is_reserved": 0}, {"rental_uris": {"ios": "https://dc.lft.to/lastmile_qr_scan", "android": "https://dc.lft.to/lastmile_qr_scan"}, "lon": -77.047627, "type": "electric_scooter", "fusion_lat": 0.0, "lat": 38.90262516666667, "name": "3bb41ce8bdc00a9039a84ad428569337", "fusion_lon": 0.0, "bike_id": "3bb41ce8bdc00a9039a84ad428569337", "is_disabled": 0, "is_reserved": 0}, {"rental_uris": {"ios": "https://dc.lft.to/lastmile_qr_scan", "android": "https://dc.lft.to/lastmile_qr_scan"}, "lon": -77.02972233333334, "type": "electric_scooter", "fusion_lat": 0.0, "lat": 38.88447816666667, "name": "17d2cdb35a6a1c642cbfd207c5a9529e", "fusion_lon": 0.0, "bike_id": "17d2cdb35a6a1c642cbfd207c5a9529e", "is_disabled": 0, "is_reserved": 0}, {"rental_uris": {"ios": "https://dc.lft.to/lastmile_qr_scan", "android": "https://dc.lft.to/lastmile_qr_scan"}, "lon": -77.03220133333333, "type": "electric_scooter", "fusion_lat": 0.0, "lat": 38.91725233333333, "name": "1fa4ea24eaf0b00503eaf5226c2c7ee9", "fusion_lon": 0.0, "bike_id": "1fa4ea24eaf0b00503eaf5226c2c7ee9", "is_disabled": 0, "is_reserved": 0}, {"rental_uris": {"ios": "https://dc.lft.to/lastmile_qr_scan", "android": "https://dc.lft.to/lastmile_qr_scan"}, "lon": -76.9781665, "type": "electric_scooter", "fusion_lat": 0.0, "lat": 38.90675016666667, "name": "d667e342eada81d5f54356ed044f05c0", "fusion_lon": 0.0, "bike_id": "d667e342eada81d5f54356ed044f05c0", "is_disabled": 0, "is_reserved": 0}, {"rental_uris": {"ios": "https://dc.lft.to/lastmile_qr_scan", "android": "https://dc.lft.to/lastmile_qr_scan"}, "lon": -77.11213333333333, "type": "electric_bike", "fusion_lat": 0.0, "lat": 38.81311016666667, "name": "883d2e02ba15cf697d849867935934b4", "fusion_lon": 0.0, "bike_id": "883d2e02ba15cf697d849867935934b4", "is_disabled": 0, "is_reserved": 0}, {"rental_uris": {"ios": "https://dc.lft.to/lastmile_qr_scan", "android": "https://dc.lft.to/lastmile_qr_scan"}, "lon": -76.93536783333333, "type": "electric_bike", "fusion_lat": 0.0, "lat": 38.9555075, "name": "96a0c5dbc50aa650298e746cab3a0810", "fusion_lon": 0.0, "bike_id": "96a0c5dbc50aa650298e746cab3a0810", "is_disabled": 0, "is_reserved": 0}, {"rental_uris": {"ios": "https://dc.lft.to/lastmile_qr_scan", "android": "https://dc.lft.to/lastmile_qr_scan"}, "lon": -77.1226225, "type": "electric_bike", "fusion_lat": 0.0, "lat": 38.8918715, "name": "78dcb5f931ab51eea9a3f6c09c908148", "fusion_lon": 0.0, "bike_id": "78dcb5f931ab51eea9a3f6c09c908148", "is_disabled": 0, "is_reserved": 0}, {"rental_uris": {"ios": "https://dc.lft.to/lastmile_qr_scan", "android": "https://dc.lft.to/lastmile_qr_scan"}, "lon": -77.04320233333333, "type": "electric_scooter", "fusion_lat": 0.0, "lat": 38.914859166666666, "name": "723551ce363cec49396eb84ca203743e", "fusion_lon": 0.0, "bike_id": "723551ce363cec49396eb84ca203743e", "is_disabled": 0, "is_reserved": 0}, {"rental_uris": {"ios": "https://dc.lft.to/lastmile_qr_scan", "android": "https://dc.lft.to/lastmile_qr_scan"}, "lon": -77.07683266666666, "type": "electric_bike", "fusion_lat": 0.0, "lat": 38.83192, "name": "0e36e50ddca2cbcdd219945e0e982266", "fusion_lon": 0.0, "bike_id": "0e36e50ddca2cbcdd219945e0e982266", "is_disabled": 0, "is_reserved": 0}, {"rental_uris": {"ios": "https://dc.lft.to/lastmile_qr_scan", "android": "https://dc.lft.to/lastmile_qr_scan"}, "lon": -77.01751216666666, "type": "electric_scooter", "fusion_lat": 0.0, "lat": 38.8768705, "name": "e919ab719d81876e8876d2818e8abce5", "fusion_lon": 0.0, "bike_id": "e919ab719d81876e8876d2818e8abce5", "is_disabled": 0, "is_reserved": 0}, {"rental_uris": {"ios": "https://dc.lft.to/lastmile_qr_scan", "android": "https://dc.lft.to/lastmile_qr_scan"}, "lon": -77.0391195, "type": "electric_scooter", "fusion_lat": 0.0, "lat": 38.923094166666665, "name": "a800b9a7eaf1298e49b4e84721c9a9d7", "fusion_lon": 0.0, "bike_id": "a800b9a7eaf1298e49b4e84721c9a9d7", "is_disabled": 0, "is_reserved": 0}, {"rental_uris": {"ios": "https://dc.lft.to/lastmile_qr_scan", "android": "https://dc.lft.to/lastmile_qr_scan"}, "lon": -76.98819333333333, "type": "electric_scooter", "fusion_lat": 0.0, "lat": 38.90338416666667, "name": "12d23c956546a1fd923d36ccb2ce3118", "fusion_lon": 0.0, "bike_id": "12d23c956546a1fd923d36ccb2ce3118", "is_disabled": 0, "is_reserved": 0}, {"rental_uris": {"ios": "https://dc.lft.to/lastmile_qr_scan", "android": "https://dc.lft.to/lastmile_qr_scan"}, "lon": -77.011773, "type": "electric_scooter", "fusion_lat": 0.0, "lat": 38.9065295, "name": "ad06bd6a104cc8f7abe953583115c32c", "fusion_lon": 0.0, "bike_id": "ad06bd6a104cc8f7abe953583115c32c", "is_disabled": 0, "is_reserved": 0}, {"rental_uris": {"ios": "https://dc.lft.to/lastmile_qr_scan", "android": "https://dc.lft.to/lastmile_qr_scan"}, "lon": -77.02153516666667, "type": "electric_scooter", "fusion_lat": 0.0, "lat": 38.91264833333334, "name": "0f278d7861c28cb0bc6d7eac8feb3945", "fusion_lon": 0.0, "bike_id": "0f278d7861c28cb0bc6d7eac8feb3945", "is_disabled": 0, "is_reserved": 0}, {"rental_uris": {"ios": "https://dc.lft.to/lastmile_qr_scan", "android": "https://dc.lft.to/lastmile_qr_scan"}, "lon": -77.05324316666666, "type": "electric_scooter", "fusion_lat": 0.0, "lat": 38.939663333333336, "name": "0ec80068a5b0b23de123c35e01798f3f", "fusion_lon": 0.0, "bike_id": "0ec80068a5b0b23de123c35e01798f3f", "is_disabled": 0, "is_reserved": 0}, {"rental_uris": {"ios": "https://dc.lft.to/lastmile_qr_scan", "android": "https://dc.lft.to/lastmile_qr_scan"}, "lon": -77.01786633333333, "type": "electric_scooter", "fusion_lat": 0.0, "lat": 38.903850166666665, "name": "47842b323480d65c8795740d26f978d8", "fusion_lon": 0.0, "bike_id": "47842b323480d65c8795740d26f978d8", "is_disabled": 0, "is_reserved": 0}, {"rental_uris": {"ios": "https://dc.lft.to/lastmile_qr_scan", "android": "https://dc.lft.to/lastmile_qr_scan"}, "lon": -77.01222716666666, "type": "electric_scooter", "fusion_lat": 0.0, "lat": 38.90979083333333, "name": "4ff4ca2f371c23f14af055cf16af5fbc", "fusion_lon": 0.0, "bike_id": "4ff4ca2f371c23f14af055cf16af5fbc", "is_disabled": 0, "is_reserved": 0}, {"rental_uris": {"ios": "https://dc.lft.to/lastmile_qr_scan", "android": "https://dc.lft.to/lastmile_qr_scan"}, "lon": -76.93307566666667, "type": "electric_scooter", "fusion_lat": 0.0, "lat": 38.898727, "name": "ea88bdd28cd5e3034b3a9072cb73a40e", "fusion_lon": 0.0, "bike_id": "ea88bdd28cd5e3034b3a9072cb73a40e", "is_disabled": 0, "is_reserved": 0}, {"rental_uris": {"ios": "https://dc.lft.to/lastmile_qr_scan", "android": "https://dc.lft.to/lastmile_qr_scan"}, "lon": -77.095472, "type": "electric_scooter", "fusion_lat": 0.0, "lat": 38.91656183333333, "name": "26d54bdb20ce411a6118802668fb145e", "fusion_lon": 0.0, "bike_id": "26d54bdb20ce411a6118802668fb145e", "is_disabled": 0, "is_reserved": 0}, {"rental_uris": {"ios": "https://dc.lft.to/lastmile_qr_scan", "android": "https://dc.lft.to/lastmile_qr_scan"}, "lon": -76.95755716666666, "type": "electric_scooter", "fusion_lat": 0.0, "lat": 38.884299, "name": "75ef8139c129aaa2cc00b7daf00b2a91", "fusion_lon": 0.0, "bike_id": "75ef8139c129aaa2cc00b7daf00b2a91", "is_disabled": 0, "is_reserved": 0}, {"rental_uris": {"ios": "https://dc.lft.to/lastmile_qr_scan", "android": "https://dc.lft.to/lastmile_qr_scan"}, "lon": -77.05557833333333, "type": "electric_scooter", "fusion_lat": 0.0, "lat": 38.925333, "name": "3dd81eb5ec9d24f458157138cfb81fda", "fusion_lon": 0.0, "bike_id": "3dd81eb5ec9d24f458157138cfb81fda", "is_disabled": 0, "is_reserved": 0}, {"rental_uris": {"ios": "https://dc.lft.to/lastmile_qr_scan", "android": "https://dc.lft.to/lastmile_qr_scan"}, "lon": -77.048132, "type": "electric_scooter", "fusion_lat": 0.0, "lat": 38.911093666666666, "name": "a18960767602346938ed3daaa39fdd57", "fusion_lon": 0.0, "bike_id": "a18960767602346938ed3daaa39fdd57", "is_disabled": 0, "is_reserved": 0}, {"rental_uris": {"ios": "https://dc.lft.to/lastmile_qr_scan", "android": "https://dc.lft.to/lastmile_qr_scan"}, "lon": -77.0554335, "type": "electric_scooter", "fusion_lat": 0.0, "lat": 38.8995885, "name": "dd3a97d6a6b322c384e3e196b27357e1", "fusion_lon": 0.0, "bike_id": "dd3a97d6a6b322c384e3e196b27357e1", "is_disabled": 0, "is_reserved": 0}, {"rental_uris": {"ios": "https://dc.lft.to/lastmile_qr_scan", "android": "https://dc.lft.to/lastmile_qr_scan"}, "lon": -77.03548883333333, "type": "electric_scooter", "fusion_lat": 0.0, "lat": 38.923853333333334, "name": "419a2e8903a71729614da1a386997966", "fusion_lon": 0.0, "bike_id": "419a2e8903a71729614da1a386997966", "is_disabled": 0, "is_reserved": 0}, {"rental_uris": {"ios": "https://dc.lft.to/lastmile_qr_scan", "android": "https://dc.lft.to/lastmile_qr_scan"}, "lon": -77.03836216666667, "type": "electric_scooter", "fusion_lat": 0.0, "lat": 38.907636, "name": "5ec2f24d19b56438c2722926b4e41bae", "fusion_lon": 0.0, "bike_id": "5ec2f24d19b56438c2722926b4e41bae", "is_disabled": 0, "is_reserved": 0}, {"rental_uris": {"ios": "https://dc.lft.to/lastmile_qr_scan", "android": "https://dc.lft.to/lastmile_qr_scan"}, "lon": -77.03568083333333, "type": "electric_scooter", "fusion_lat": 0.0, "lat": 38.939793, "name": "c471d57546e298d2fe62fbc6da9f52ac", "fusion_lon": 0.0, "bike_id": "c471d57546e298d2fe62fbc6da9f52ac", "is_disabled": 0, "is_reserved": 0}, {"rental_uris": {"ios": "https://dc.lft.to/lastmile_qr_scan", "android": "https://dc.lft.to/lastmile_qr_scan"}, "lon": -77.03925366666667, "type": "electric_scooter", "fusion_lat": 0.0, "lat": 38.92107766666667, "name": "7aac5c1c2f2abea2641184f3afd282f5", "fusion_lon": 0.0, "bike_id": "7aac5c1c2f2abea2641184f3afd282f5", "is_disabled": 0, "is_reserved": 0}, {"rental_uris": {"ios": "https://dc.lft.to/lastmile_qr_scan", "android": "https://dc.lft.to/lastmile_qr_scan"}, "lon": -77.08048966666667, "type": "electric_bike", "fusion_lat": 0.0, "lat": 38.848456666666664, "name": "7cb61962b8b8a9b91d8d147a892e1c6f", "fusion_lon": 0.0, "bike_id": "7cb61962b8b8a9b91d8d147a892e1c6f", "is_disabled": 0, "is_reserved": 0}, {"rental_uris": {"ios": "https://dc.lft.to/lastmile_qr_scan", "android": "https://dc.lft.to/lastmile_qr_scan"}, "lon": -76.98131516666666, "type": "electric_scooter", "fusion_lat": 0.0, "lat": 38.85706733333333, "name": "bcfb804ccb5cac0cb5444bd9f2383d57", "fusion_lon": 0.0, "bike_id": "bcfb804ccb5cac0cb5444bd9f2383d57", "is_disabled": 0, "is_reserved": 0}, {"rental_uris": {"ios": "https://dc.lft.to/lastmile_qr_scan", "android": "https://dc.lft.to/lastmile_qr_scan"}, "lon": -76.98748583333334, "type": "electric_scooter", "fusion_lat": 0.0, "lat": 38.910185166666665, "name": "2587fad8e7c4f71587703ed46b73703f", "fusion_lon": 0.0, "bike_id": "2587fad8e7c4f71587703ed46b73703f", "is_disabled": 0, "is_reserved": 0}, {"rental_uris": {"ios": "https://dc.lft.to/lastmile_qr_scan", "android": "https://dc.lft.to/lastmile_qr_scan"}, "lon": -76.93965266666666, "type": "electric_scooter", "fusion_lat": 0.0, "lat": 38.89971216666667, "name": "26f1431cb703e171e69f7136560e9b7f", "fusion_lon": 0.0, "bike_id": "26f1431cb703e171e69f7136560e9b7f", "is_disabled": 0, "is_reserved": 0}, {"rental_uris": {"ios": "https://dc.lft.to/lastmile_qr_scan", "android": "https://dc.lft.to/lastmile_qr_scan"}, "lon": -77.02953383333333, "type": "electric_scooter", "fusion_lat": 0.0, "lat": 38.91715133333334, "name": "3e595084b3abb910e081122d4ae6e29d", "fusion_lon": 0.0, "bike_id": "3e595084b3abb910e081122d4ae6e29d", "is_disabled": 0, "is_reserved": 0}, {"rental_uris": {"ios": "https://dc.lft.to/lastmile_qr_scan", "android": "https://dc.lft.to/lastmile_qr_scan"}, "lon": -76.99460116666667, "type": "electric_scooter", "fusion_lat": 0.0, "lat": 38.851625166666665, "name": "9c1a267a2ab27b128721afb0ef42f77a", "fusion_lon": 0.0, "bike_id": "9c1a267a2ab27b128721afb0ef42f77a", "is_disabled": 0, "is_reserved": 0}, {"rental_uris": {"ios": "https://dc.lft.to/lastmile_qr_scan", "android": "https://dc.lft.to/lastmile_qr_scan"}, "lon": -76.93811216666667, "type": "electric_scooter", "fusion_lat": 0.0, "lat": 38.89087983333334, "name": "58629bb1d968c6c6c079f979987cb4d7", "fusion_lon": 0.0, "bike_id": "58629bb1d968c6c6c079f979987cb4d7", "is_disabled": 0, "is_reserved": 0}, {"rental_uris": {"ios": "https://dc.lft.to/lastmile_qr_scan", "android": "https://dc.lft.to/lastmile_qr_scan"}, "lon": -76.98612833333334, "type": "electric_scooter", "fusion_lat": 0.0, "lat": 38.8783935, "name": "93eafd56365953517cf6daca03a4cde5", "fusion_lon": 0.0, "bike_id": "93eafd56365953517cf6daca03a4cde5", "is_disabled": 0, "is_reserved": 0}, {"rental_uris": {"ios": "https://dc.lft.to/lastmile_qr_scan", "android": "https://dc.lft.to/lastmile_qr_scan"}, "lon": -76.96107983333333, "type": "electric_bike", "fusion_lat": 0.0, "lat": 38.9496475, "name": "e3dd0d534e90a6b7ad7221485d67ac5b", "fusion_lon": 0.0, "bike_id": "e3dd0d534e90a6b7ad7221485d67ac5b", "is_disabled": 0, "is_reserved": 0}, {"rental_uris": {"ios": "https://dc.lft.to/lastmile_qr_scan", "android": "https://dc.lft.to/lastmile_qr_scan"}, "lon": -77.03419833333334, "type": "electric_scooter", "fusion_lat": 0.0, "lat": 38.924302, "name": "ec7f8b96f94a91f7d4212322e1831ef6", "fusion_lon": 0.0, "bike_id": "ec7f8b96f94a91f7d4212322e1831ef6", "is_disabled": 0, "is_reserved": 0}, {"rental_uris": {"ios": "https://dc.lft.to/lastmile_qr_scan", "android": "https://dc.lft.to/lastmile_qr_scan"}, "lon": -77.03174716666666, "type": "electric_scooter", "fusion_lat": 0.0, "lat": 38.914092333333336, "name": "5e4ade860a6223a4c5e91da7b30687d1", "fusion_lon": 0.0, "bike_id": "5e4ade860a6223a4c5e91da7b30687d1", "is_disabled": 0, "is_reserved": 0}, {"rental_uris": {"ios": "https://dc.lft.to/lastmile_qr_scan", "android": "https://dc.lft.to/lastmile_qr_scan"}, "lon": -77.03964316666666, "type": "electric_scooter", "fusion_lat": 0.0, "lat": 38.90289333333333, "name": "7a884e6114c0395f925015285932ad08", "fusion_lon": 0.0, "bike_id": "7a884e6114c0395f925015285932ad08", "is_disabled": 0, "is_reserved": 0}, {"rental_uris": {"ios": "https://dc.lft.to/lastmile_qr_scan", "android": "https://dc.lft.to/lastmile_qr_scan"}, "lon": -77.03672666666667, "type": "electric_scooter", "fusion_lat": 0.0, "lat": 38.9299435, "name": "beed7f690f1514ee72bb0d9dad81dc53", "fusion_lon": 0.0, "bike_id": "beed7f690f1514ee72bb0d9dad81dc53", "is_disabled": 0, "is_reserved": 0}, {"rental_uris": {"ios": "https://dc.lft.to/lastmile_qr_scan", "android": "https://dc.lft.to/lastmile_qr_scan"}, "lon": -77.0245815, "type": "electric_scooter", "fusion_lat": 0.0, "lat": 38.97937116666667, "name": "6bc8f5912fc7691b5d435d0dddd14887", "fusion_lon": 0.0, "bike_id": "6bc8f5912fc7691b5d435d0dddd14887", "is_disabled": 0, "is_reserved": 0}, {"rental_uris": {"ios": "https://dc.lft.to/lastmile_qr_scan", "android": "https://dc.lft.to/lastmile_qr_scan"}, "lon": -76.97332733333333, "type": "electric_bike", "fusion_lat": 0.0, "lat": 38.850641, "name": "9041f612a48c31e8f91f46bf0a468b6c", "fusion_lon": 0.0, "bike_id": "9041f612a48c31e8f91f46bf0a468b6c", "is_disabled": 0, "is_reserved": 0}, {"rental_uris": {"ios": "https://dc.lft.to/lastmile_qr_scan", "android": "https://dc.lft.to/lastmile_qr_scan"}, "lon": -77.02272433333333, "type": "electric_scooter", "fusion_lat": 0.0, "lat": 38.91675466666667, "name": "744ca713652ce15da3154465eaef1708", "fusion_lon": 0.0, "bike_id": "744ca713652ce15da3154465eaef1708", "is_disabled": 0, "is_reserved": 0}, {"rental_uris": {"ios": "https://dc.lft.to/lastmile_qr_scan", "android": "https://dc.lft.to/lastmile_qr_scan"}, "lon": -77.041322, "type": "electric_scooter", "fusion_lat": 0.0, "lat": 38.923486833333335, "name": "233e70593f3ceeaee85b58a3741428c5", "fusion_lon": 0.0, "bike_id": "233e70593f3ceeaee85b58a3741428c5", "is_disabled": 0, "is_reserved": 0}, {"rental_uris": {"ios": "https://dc.lft.to/lastmile_qr_scan", "android": "https://dc.lft.to/lastmile_qr_scan"}, "lon": -77.02709883333333, "type": "electric_scooter", "fusion_lat": 0.0, "lat": 38.906685, "name": "178b07b78d33af582c79272626a18384", "fusion_lon": 0.0, "bike_id": "178b07b78d33af582c79272626a18384", "is_disabled": 0, "is_reserved": 0}, {"rental_uris": {"ios": "https://dc.lft.to/lastmile_qr_scan", "android": "https://dc.lft.to/lastmile_qr_scan"}, "lon": -77.0301935, "type": "electric_scooter", "fusion_lat": 0.0, "lat": 38.91013866666667, "name": "237a3d0c3456e58d4415a7fdaaa1b1f3", "fusion_lon": 0.0, "bike_id": "237a3d0c3456e58d4415a7fdaaa1b1f3", "is_disabled": 0, "is_reserved": 0}, {"rental_uris": {"ios": "https://dc.lft.to/lastmile_qr_scan", "android": "https://dc.lft.to/lastmile_qr_scan"}, "lon": -77.047968, "type": "electric_scooter", "fusion_lat": 0.0, "lat": 38.9072405, "name": "fa0c19eb240a22a60d6ced7dbf0285c7", "fusion_lon": 0.0, "bike_id": "fa0c19eb240a22a60d6ced7dbf0285c7", "is_disabled": 0, "is_reserved": 0}, {"rental_uris": {"ios": "https://dc.lft.to/lastmile_qr_scan", "android": "https://dc.lft.to/lastmile_qr_scan"}, "lon": -77.030712, "type": "electric_scooter", "fusion_lat": 0.0, "lat": 38.904533666666666, "name": "0840e4f8b343db9a2e57b94e51e3b3ed", "fusion_lon": 0.0, "bike_id": "0840e4f8b343db9a2e57b94e51e3b3ed", "is_disabled": 0, "is_reserved": 0}, {"rental_uris": {"ios": "https://dc.lft.to/lastmile_qr_scan", "android": "https://dc.lft.to/lastmile_qr_scan"}, "lon": -77.046225, "type": "electric_scooter", "fusion_lat": 0.0, "lat": 38.90248533333333, "name": "7a7faaf0e65a78e17bc59ff3b0b21890", "fusion_lon": 0.0, "bike_id": "7a7faaf0e65a78e17bc59ff3b0b21890", "is_disabled": 0, "is_reserved": 0}, {"rental_uris": {"ios": "https://dc.lft.to/lastmile_qr_scan", "android": "https://dc.lft.to/lastmile_qr_scan"}, "lon": -77.05262733333333, "type": "electric_scooter", "fusion_lat": 0.0, "lat": 38.9101605, "name": "203be344f859e30abd9787a08eca50dd", "fusion_lon": 0.0, "bike_id": "203be344f859e30abd9787a08eca50dd", "is_disabled": 0, "is_reserved": 0}, {"rental_uris": {"ios": "https://dc.lft.to/lastmile_qr_scan", "android": "https://dc.lft.to/lastmile_qr_scan"}, "lon": -77.038106, "type": "electric_scooter", "fusion_lat": 0.0, "lat": 38.9219665, "name": "1c49d0702bd5a4ec3ac3664706e28168", "fusion_lon": 0.0, "bike_id": "1c49d0702bd5a4ec3ac3664706e28168", "is_disabled": 0, "is_reserved": 0}, {"rental_uris": {"ios": "https://dc.lft.to/lastmile_qr_scan", "android": "https://dc.lft.to/lastmile_qr_scan"}, "lon": -77.02580866666666, "type": "electric_scooter", "fusion_lat": 0.0, "lat": 38.91819916666667, "name": "93f4cf565990812f171de70c8c18a633", "fusion_lon": 0.0, "bike_id": "93f4cf565990812f171de70c8c18a633", "is_disabled": 0, "is_reserved": 0}, {"rental_uris": {"ios": "https://dc.lft.to/lastmile_qr_scan", "android": "https://dc.lft.to/lastmile_qr_scan"}, "lon": -76.99383033333334, "type": "electric_scooter", "fusion_lat": 0.0, "lat": 38.887510166666665, "name": "c60be428f8039524a91c26e3b1752089", "fusion_lon": 0.0, "bike_id": "c60be428f8039524a91c26e3b1752089", "is_disabled": 0, "is_reserved": 0}, {"rental_uris": {"ios": "https://dc.lft.to/lastmile_qr_scan", "android": "https://dc.lft.to/lastmile_qr_scan"}, "lon": -76.94418016666667, "type": "electric_scooter", "fusion_lat": 0.0, "lat": 38.897929500000004, "name": "6e60afdfecda820d9db03c643246ddd3", "fusion_lon": 0.0, "bike_id": "6e60afdfecda820d9db03c643246ddd3", "is_disabled": 0, "is_reserved": 0}, {"rental_uris": {"ios": "https://dc.lft.to/lastmile_qr_scan", "android": "https://dc.lft.to/lastmile_qr_scan"}, "lon": -76.98349583333334, "type": "electric_scooter", "fusion_lat": 0.0, "lat": 38.915357166666666, "name": "5cb34b12af05007fedd0ee19fae48ce6", "fusion_lon": 0.0, "bike_id": "5cb34b12af05007fedd0ee19fae48ce6", "is_disabled": 0, "is_reserved": 0}, {"rental_uris": {"ios": "https://dc.lft.to/lastmile_qr_scan", "android": "https://dc.lft.to/lastmile_qr_scan"}, "lon": -77.03453883333333, "type": "electric_scooter", "fusion_lat": 0.0, "lat": 38.918792, "name": "96893f59562b51082c71d32ab1f25da4", "fusion_lon": 0.0, "bike_id": "96893f59562b51082c71d32ab1f25da4", "is_disabled": 0, "is_reserved": 0}, {"rental_uris": {"ios": "https://dc.lft.to/lastmile_qr_scan", "android": "https://dc.lft.to/lastmile_qr_scan"}, "lon": -77.015849, "type": "electric_scooter", "fusion_lat": 0.0, "lat": 38.913553, "name": "97078431b248b012358327474ecd3fd5", "fusion_lon": 0.0, "bike_id": "97078431b248b012358327474ecd3fd5", "is_disabled": 0, "is_reserved": 0}, {"rental_uris": {"ios": "https://dc.lft.to/lastmile_qr_scan", "android": "https://dc.lft.to/lastmile_qr_scan"}, "lon": -77.06490666666667, "type": "electric_bike", "fusion_lat": 0.0, "lat": 38.96495383333333, "name": "72804e4cb2f27dc183b6279fdc5f4230", "fusion_lon": 0.0, "bike_id": "72804e4cb2f27dc183b6279fdc5f4230", "is_disabled": 0, "is_reserved": 0}, {"rental_uris": {"ios": "https://dc.lft.to/lastmile_qr_scan", "android": "https://dc.lft.to/lastmile_qr_scan"}, "lon": -77.03128766666667, "type": "electric_scooter", "fusion_lat": 0.0, "lat": 38.923720333333335, "name": "e17e8ac4343db68e152ef65153e6f3fc", "fusion_lon": 0.0, "bike_id": "e17e8ac4343db68e152ef65153e6f3fc", "is_disabled": 0, "is_reserved": 0}, {"rental_uris": {"ios": "https://dc.lft.to/lastmile_qr_scan", "android": "https://dc.lft.to/lastmile_qr_scan"}, "lon": -77.03206933333334, "type": "electric_scooter", "fusion_lat": 0.0, "lat": 38.9094975, "name": "33a7f59aa4785127542cce5e01608193", "fusion_lon": 0.0, "bike_id": "33a7f59aa4785127542cce5e01608193", "is_disabled": 0, "is_reserved": 0}, {"rental_uris": {"ios": "https://dc.lft.to/lastmile_qr_scan", "android": "https://dc.lft.to/lastmile_qr_scan"}, "lon": -77.0025515, "type": "electric_scooter", "fusion_lat": 0.0, "lat": 38.919238666666665, "name": "0b4055a8f61992ceb0045999d3a3b636", "fusion_lon": 0.0, "bike_id": "0b4055a8f61992ceb0045999d3a3b636", "is_disabled": 0, "is_reserved": 0}, {"rental_uris": {"ios": "https://dc.lft.to/lastmile_qr_scan", "android": "https://dc.lft.to/lastmile_qr_scan"}, "lon": -77.02396316666666, "type": "electric_scooter", "fusion_lat": 0.0, "lat": 38.9376435, "name": "3522c54b6c08e8116c7771ebbc80953f", "fusion_lon": 0.0, "bike_id": "3522c54b6c08e8116c7771ebbc80953f", "is_disabled": 0, "is_reserved": 0}, {"rental_uris": {"ios": "https://dc.lft.to/lastmile_qr_scan", "android": "https://dc.lft.to/lastmile_qr_scan"}, "lon": -76.98697316666667, "type": "electric_scooter", "fusion_lat": 0.0, "lat": 38.907040333333335, "name": "730cb525fb645f40d365f29ee2cddc0c", "fusion_lon": 0.0, "bike_id": "730cb525fb645f40d365f29ee2cddc0c", "is_disabled": 0, "is_reserved": 0}, {"rental_uris": {"ios": "https://dc.lft.to/lastmile_qr_scan", "android": "https://dc.lft.to/lastmile_qr_scan"}, "lon": -77.0417975, "type": "electric_scooter", "fusion_lat": 0.0, "lat": 38.9193945, "name": "003ce28eb89e0316c36aefbbb28cd433", "fusion_lon": 0.0, "bike_id": "003ce28eb89e0316c36aefbbb28cd433", "is_disabled": 0, "is_reserved": 0}, {"rental_uris": {"ios": "https://dc.lft.to/lastmile_qr_scan", "android": "https://dc.lft.to/lastmile_qr_scan"}, "lon": -77.01087683333333, "type": "electric_scooter", "fusion_lat": 0.0, "lat": 38.89486333333333, "name": "e3a096d252e7f30b70ec46637a63edde", "fusion_lon": 0.0, "bike_id": "e3a096d252e7f30b70ec46637a63edde", "is_disabled": 0, "is_reserved": 0}, {"rental_uris": {"ios": "https://dc.lft.to/lastmile_qr_scan", "android": "https://dc.lft.to/lastmile_qr_scan"}, "lon": -77.01483033333334, "type": "electric_scooter", "fusion_lat": 0.0, "lat": 38.88122516666667, "name": "9d7fe5ebc598e547de46f064d92756bd", "fusion_lon": 0.0, "bike_id": "9d7fe5ebc598e547de46f064d92756bd", "is_disabled": 0, "is_reserved": 0}, {"rental_uris": {"ios": "https://dc.lft.to/lastmile_qr_scan", "android": "https://dc.lft.to/lastmile_qr_scan"}, "lon": -77.03511133333333, "type": "electric_bike", "fusion_lat": 0.0, "lat": 38.965252166666666, "name": "744fa24ed7eba60b591d8cda90c4647f", "fusion_lon": 0.0, "bike_id": "744fa24ed7eba60b591d8cda90c4647f", "is_disabled": 0, "is_reserved": 0}, {"rental_uris": {"ios": "https://dc.lft.to/lastmile_qr_scan", "android": "https://dc.lft.to/lastmile_qr_scan"}, "lon": -77.040586, "type": "electric_scooter", "fusion_lat": 0.0, "lat": 38.90283616666667, "name": "f1946ee9669b3de153d7139827a8eb1f", "fusion_lon": 0.0, "bike_id": "f1946ee9669b3de153d7139827a8eb1f", "is_disabled": 0, "is_reserved": 0}, {"rental_uris": {"ios": "https://dc.lft.to/lastmile_qr_scan", "android": "https://dc.lft.to/lastmile_qr_scan"}, "lon": -77.03308183333333, "type": "electric_scooter", "fusion_lat": 0.0, "lat": 38.908342166666664, "name": "2391f23fe4d18c3a5e54373ac4db65c9", "fusion_lon": 0.0, "bike_id": "2391f23fe4d18c3a5e54373ac4db65c9", "is_disabled": 0, "is_reserved": 0}, {"rental_uris": {"ios": "https://dc.lft.to/lastmile_qr_scan", "android": "https://dc.lft.to/lastmile_qr_scan"}, "lon": -76.99969416666667, "type": "electric_scooter", "fusion_lat": 0.0, "lat": 38.9092865, "name": "6ec72df1a7f25db35b36915185afa2fd", "fusion_lon": 0.0, "bike_id": "6ec72df1a7f25db35b36915185afa2fd", "is_disabled": 0, "is_reserved": 0}, {"rental_uris": {"ios": "https://dc.lft.to/lastmile_qr_scan", "android": "https://dc.lft.to/lastmile_qr_scan"}, "lon": -77.032039, "type": "electric_scooter", "fusion_lat": 0.0, "lat": 38.918026166666664, "name": "8ccd4c9044291f4153bcf360b37ec774", "fusion_lon": 0.0, "bike_id": "8ccd4c9044291f4153bcf360b37ec774", "is_disabled": 0, "is_reserved": 0}, {"rental_uris": {"ios": "https://dc.lft.to/lastmile_qr_scan", "android": "https://dc.lft.to/lastmile_qr_scan"}, "lon": -76.9788375, "type": "electric_scooter", "fusion_lat": 0.0, "lat": 38.88507883333333, "name": "c58ae2b41d03973e68628e57615a0ab9", "fusion_lon": 0.0, "bike_id": "c58ae2b41d03973e68628e57615a0ab9", "is_disabled": 0, "is_reserved": 0}, {"rental_uris": {"ios": "https://dc.lft.to/lastmile_qr_scan", "android": "https://dc.lft.to/lastmile_qr_scan"}, "lon": -77.06463366666667, "type": "electric_scooter", "fusion_lat": 0.0, "lat": 38.9051965, "name": "afbeba90dcb780ac7ff0e386e339c38f", "fusion_lon": 0.0, "bike_id": "afbeba90dcb780ac7ff0e386e339c38f", "is_disabled": 0, "is_reserved": 0}, {"rental_uris": {"ios": "https://dc.lft.to/lastmile_qr_scan", "android": "https://dc.lft.to/lastmile_qr_scan"}, "lon": -77.01991783333334, "type": "electric_scooter", "fusion_lat": 0.0, "lat": 38.937817333333335, "name": "e79d658e89962c4c4d6023f8b11d6889", "fusion_lon": 0.0, "bike_id": "e79d658e89962c4c4d6023f8b11d6889", "is_disabled": 0, "is_reserved": 0}, {"rental_uris": {"ios": "https://dc.lft.to/lastmile_qr_scan", "android": "https://dc.lft.to/lastmile_qr_scan"}, "lon": -77.03145316666667, "type": "electric_scooter", "fusion_lat": 0.0, "lat": 38.912684, "name": "7715c627aeb3d5f4a0591a8fa7cc3e2d", "fusion_lon": 0.0, "bike_id": "7715c627aeb3d5f4a0591a8fa7cc3e2d", "is_disabled": 0, "is_reserved": 0}, {"rental_uris": {"ios": "https://dc.lft.to/lastmile_qr_scan", "android": "https://dc.lft.to/lastmile_qr_scan"}, "lon": -77.01026316666666, "type": "electric_scooter", "fusion_lat": 0.0, "lat": 38.91810566666667, "name": "6612b52ad6550928573b2763ad470ff4", "fusion_lon": 0.0, "bike_id": "6612b52ad6550928573b2763ad470ff4", "is_disabled": 0, "is_reserved": 0}, {"rental_uris": {"ios": "https://dc.lft.to/lastmile_qr_scan", "android": "https://dc.lft.to/lastmile_qr_scan"}, "lon": -77.04209483333334, "type": "electric_scooter", "fusion_lat": 0.0, "lat": 38.906599166666666, "name": "1fafb5b3a304fc19d8020973b0b434d0", "fusion_lon": 0.0, "bike_id": "1fafb5b3a304fc19d8020973b0b434d0", "is_disabled": 0, "is_reserved": 0}, {"rental_uris": {"ios": "https://dc.lft.to/lastmile_qr_scan", "android": "https://dc.lft.to/lastmile_qr_scan"}, "lon": -77.005745, "type": "electric_scooter", "fusion_lat": 0.0, "lat": 38.905674166666664, "name": "072ce2e5221609b5a9b9eeb28cfada8e", "fusion_lon": 0.0, "bike_id": "072ce2e5221609b5a9b9eeb28cfada8e", "is_disabled": 0, "is_reserved": 0}, {"rental_uris": {"ios": "https://dc.lft.to/lastmile_qr_scan", "android": "https://dc.lft.to/lastmile_qr_scan"}, "lon": -76.98995916666667, "type": "electric_scooter", "fusion_lat": 0.0, "lat": 38.90392383333333, "name": "62bcf235241f74a19720181ac91c3d8a", "fusion_lon": 0.0, "bike_id": "62bcf235241f74a19720181ac91c3d8a", "is_disabled": 0, "is_reserved": 0}, {"rental_uris": {"ios": "https://dc.lft.to/lastmile_qr_scan", "android": "https://dc.lft.to/lastmile_qr_scan"}, "lon": -77.04291983333333, "type": "electric_scooter", "fusion_lat": 0.0, "lat": 38.90657783333333, "name": "07b9f39c18757dee00b5690dd16ad58d", "fusion_lon": 0.0, "bike_id": "07b9f39c18757dee00b5690dd16ad58d", "is_disabled": 0, "is_reserved": 0}, {"rental_uris": {"ios": "https://dc.lft.to/lastmile_qr_scan", "android": "https://dc.lft.to/lastmile_qr_scan"}, "lon": -76.9955215, "type": "electric_scooter", "fusion_lat": 0.0, "lat": 38.862333666666665, "name": "6b09aa958c46195b613e0c67359f0b27", "fusion_lon": 0.0, "bike_id": "6b09aa958c46195b613e0c67359f0b27", "is_disabled": 0, "is_reserved": 0}, {"rental_uris": {"ios": "https://dc.lft.to/lastmile_qr_scan", "android": "https://dc.lft.to/lastmile_qr_scan"}, "lon": -77.03208433333333, "type": "electric_scooter", "fusion_lat": 0.0, "lat": 38.9153435, "name": "a16daa80561f0dcd4b60735150bb61bf", "fusion_lon": 0.0, "bike_id": "a16daa80561f0dcd4b60735150bb61bf", "is_disabled": 0, "is_reserved": 0}, {"rental_uris": {"ios": "https://dc.lft.to/lastmile_qr_scan", "android": "https://dc.lft.to/lastmile_qr_scan"}, "lon": -77.01997516666667, "type": "electric_scooter", "fusion_lat": 0.0, "lat": 38.89965933333333, "name": "69508c742f5756e7ba4affe0f2741f07", "fusion_lon": 0.0, "bike_id": "69508c742f5756e7ba4affe0f2741f07", "is_disabled": 0, "is_reserved": 0}, {"rental_uris": {"ios": "https://dc.lft.to/lastmile_qr_scan", "android": "https://dc.lft.to/lastmile_qr_scan"}, "lon": -76.99675033333334, "type": "electric_scooter", "fusion_lat": 0.0, "lat": 38.90033716666667, "name": "2e2849b1fc32d9a3ab51f9ffd0a9f86c", "fusion_lon": 0.0, "bike_id": "2e2849b1fc32d9a3ab51f9ffd0a9f86c", "is_disabled": 0, "is_reserved": 0}, {"rental_uris": {"ios": "https://dc.lft.to/lastmile_qr_scan", "android": "https://dc.lft.to/lastmile_qr_scan"}, "lon": -76.98581683333333, "type": "electric_scooter", "fusion_lat": 0.0, "lat": 38.899297, "name": "6a7ed82e684cb62a6b0dead82976415e", "fusion_lon": 0.0, "bike_id": "6a7ed82e684cb62a6b0dead82976415e", "is_disabled": 0, "is_reserved": 0}, {"rental_uris": {"ios": "https://dc.lft.to/lastmile_qr_scan", "android": "https://dc.lft.to/lastmile_qr_scan"}, "lon": -77.04818666666667, "type": "electric_scooter", "fusion_lat": 0.0, "lat": 38.92033583333333, "name": "4d53211e47e1df1020a9a748b0433bc8", "fusion_lon": 0.0, "bike_id": "4d53211e47e1df1020a9a748b0433bc8", "is_disabled": 0, "is_reserved": 0}, {"rental_uris": {"ios": "https://dc.lft.to/lastmile_qr_scan", "android": "https://dc.lft.to/lastmile_qr_scan"}, "lon": -77.04013483333334, "type": "electric_scooter", "fusion_lat": 0.0, "lat": 38.932547666666665, "name": "215692c163d2896cd54f7cac08ff0f02", "fusion_lon": 0.0, "bike_id": "215692c163d2896cd54f7cac08ff0f02", "is_disabled": 0, "is_reserved": 0}, {"rental_uris": {"ios": "https://dc.lft.to/lastmile_qr_scan", "android": "https://dc.lft.to/lastmile_qr_scan"}, "lon": -77.0007135, "type": "electric_scooter", "fusion_lat": 0.0, "lat": 38.92551366666667, "name": "de2023910bd4014d5d7b705d1a6171cd", "fusion_lon": 0.0, "bike_id": "de2023910bd4014d5d7b705d1a6171cd", "is_disabled": 0, "is_reserved": 0}, {"rental_uris": {"ios": "https://dc.lft.to/lastmile_qr_scan", "android": "https://dc.lft.to/lastmile_qr_scan"}, "lon": -76.99815833333334, "type": "electric_bike", "fusion_lat": 0.0, "lat": 38.84435466666667, "name": "404a9a63b147296685cccba115ffc85e", "fusion_lon": 0.0, "bike_id": "404a9a63b147296685cccba115ffc85e", "is_disabled": 0, "is_reserved": 0}, {"rental_uris": {"ios": "https://dc.lft.to/lastmile_qr_scan", "android": "https://dc.lft.to/lastmile_qr_scan"}, "lon": -77.02694916666667, "type": "electric_scooter", "fusion_lat": 0.0, "lat": 38.91578916666667, "name": "b01a2770d85850183cc1bb606c50cded", "fusion_lon": 0.0, "bike_id": "b01a2770d85850183cc1bb606c50cded", "is_disabled": 0, "is_reserved": 0}, {"rental_uris": {"ios": "https://dc.lft.to/lastmile_qr_scan", "android": "https://dc.lft.to/lastmile_qr_scan"}, "lon": -77.0412665, "type": "electric_scooter", "fusion_lat": 0.0, "lat": 38.929616333333335, "name": "ef60a498258a226e7f0cf254f9f5989f", "fusion_lon": 0.0, "bike_id": "ef60a498258a226e7f0cf254f9f5989f", "is_disabled": 0, "is_reserved": 0}, {"rental_uris": {"ios": "https://dc.lft.to/lastmile_qr_scan", "android": "https://dc.lft.to/lastmile_qr_scan"}, "lon": -77.07943333333333, "type": "electric_bike", "fusion_lat": 0.0, "lat": 38.893673166666666, "name": "a82bf38adb8f2ca28325595084ee9334", "fusion_lon": 0.0, "bike_id": "a82bf38adb8f2ca28325595084ee9334", "is_disabled": 0, "is_reserved": 0}, {"rental_uris": {"ios": "https://dc.lft.to/lastmile_qr_scan", "android": "https://dc.lft.to/lastmile_qr_scan"}, "lon": -77.0321215, "type": "electric_scooter", "fusion_lat": 0.0, "lat": 38.937564333333334, "name": "9c9fd2caf7f69d0e30f16688e9f472d5", "fusion_lon": 0.0, "bike_id": "9c9fd2caf7f69d0e30f16688e9f472d5", "is_disabled": 0, "is_reserved": 0}, {"rental_uris": {"ios": "https://dc.lft.to/lastmile_qr_scan", "android": "https://dc.lft.to/lastmile_qr_scan"}, "lon": -77.041919, "type": "electric_scooter", "fusion_lat": 0.0, "lat": 38.92019066666667, "name": "7ce01ae2860fa8a7dad7c89b607e63a4", "fusion_lon": 0.0, "bike_id": "7ce01ae2860fa8a7dad7c89b607e63a4", "is_disabled": 0, "is_reserved": 0}, {"rental_uris": {"ios": "https://dc.lft.to/lastmile_qr_scan", "android": "https://dc.lft.to/lastmile_qr_scan"}, "lon": -77.011277, "type": "electric_scooter", "fusion_lat": 0.0, "lat": 38.895318833333334, "name": "c390ef6421743ad6ad8dd114ac502603", "fusion_lon": 0.0, "bike_id": "c390ef6421743ad6ad8dd114ac502603", "is_disabled": 0, "is_reserved": 0}, {"rental_uris": {"ios": "https://dc.lft.to/lastmile_qr_scan", "android": "https://dc.lft.to/lastmile_qr_scan"}, "lon": -76.946523, "type": "electric_scooter", "fusion_lat": 0.0, "lat": 38.898272, "name": "76adde8efec549cb2a0213892209d64c", "fusion_lon": 0.0, "bike_id": "76adde8efec549cb2a0213892209d64c", "is_disabled": 0, "is_reserved": 0}, {"rental_uris": {"ios": "https://dc.lft.to/lastmile_qr_scan", "android": "https://dc.lft.to/lastmile_qr_scan"}, "lon": -77.02458866666667, "type": "electric_scooter", "fusion_lat": 0.0, "lat": 38.90627166666667, "name": "cb724060089c96531b23a530f90ddb99", "fusion_lon": 0.0, "bike_id": "cb724060089c96531b23a530f90ddb99", "is_disabled": 0, "is_reserved": 0}, {"rental_uris": {"ios": "https://dc.lft.to/lastmile_qr_scan", "android": "https://dc.lft.to/lastmile_qr_scan"}, "lon": -77.0335135, "type": "electric_scooter", "fusion_lat": 0.0, "lat": 38.90635783333333, "name": "c96796f9d4e7559db0684f56c064327c", "fusion_lon": 0.0, "bike_id": "c96796f9d4e7559db0684f56c064327c", "is_disabled": 0, "is_reserved": 0}, {"rental_uris": {"ios": "https://dc.lft.to/lastmile_qr_scan", "android": "https://dc.lft.to/lastmile_qr_scan"}, "lon": -77.04459133333333, "type": "electric_scooter", "fusion_lat": 0.0, "lat": 38.9188435, "name": "a38f24a05a650357bd01fa0ce18fce0e", "fusion_lon": 0.0, "bike_id": "a38f24a05a650357bd01fa0ce18fce0e", "is_disabled": 0, "is_reserved": 0}, {"rental_uris": {"ios": "https://dc.lft.to/lastmile_qr_scan", "android": "https://dc.lft.to/lastmile_qr_scan"}, "lon": -77.02613666666667, "type": "electric_scooter", "fusion_lat": 0.0, "lat": 38.91818683333333, "name": "b3af4629f8f0f4661515094bf5c3e04b", "fusion_lon": 0.0, "bike_id": "b3af4629f8f0f4661515094bf5c3e04b", "is_disabled": 0, "is_reserved": 0}, {"rental_uris": {"ios": "https://dc.lft.to/lastmile_qr_scan", "android": "https://dc.lft.to/lastmile_qr_scan"}, "lon": -77.002259, "type": "electric_bike", "fusion_lat": 0.0, "lat": 38.8237735, "name": "012f9ef988758f506f11aa7c76b3dcf4", "fusion_lon": 0.0, "bike_id": "012f9ef988758f506f11aa7c76b3dcf4", "is_disabled": 0, "is_reserved": 0}, {"rental_uris": {"ios": "https://dc.lft.to/lastmile_qr_scan", "android": "https://dc.lft.to/lastmile_qr_scan"}, "lon": -76.97669216666667, "type": "electric_bike", "fusion_lat": 0.0, "lat": 38.9663025, "name": "38e0574b1d1e58b4d43f8bfe9d108b3f", "fusion_lon": 0.0, "bike_id": "38e0574b1d1e58b4d43f8bfe9d108b3f", "is_disabled": 0, "is_reserved": 0}, {"rental_uris": {"ios": "https://dc.lft.to/lastmile_qr_scan", "android": "https://dc.lft.to/lastmile_qr_scan"}, "lon": -77.02723283333333, "type": "electric_scooter", "fusion_lat": 0.0, "lat": 38.899455333333336, "name": "310356ac8bbddf39b9884c965a8cf098", "fusion_lon": 0.0, "bike_id": "310356ac8bbddf39b9884c965a8cf098", "is_disabled": 0, "is_reserved": 0}, {"rental_uris": {"ios": "https://dc.lft.to/lastmile_qr_scan", "android": "https://dc.lft.to/lastmile_qr_scan"}, "lon": -76.99019616666666, "type": "electric_scooter", "fusion_lat": 0.0, "lat": 38.85872066666667, "name": "e210928748ea13760afce3a455ab1817", "fusion_lon": 0.0, "bike_id": "e210928748ea13760afce3a455ab1817", "is_disabled": 0, "is_reserved": 0}, {"rental_uris": {"ios": "https://dc.lft.to/lastmile_qr_scan", "android": "https://dc.lft.to/lastmile_qr_scan"}, "lon": -76.9499575, "type": "electric_scooter", "fusion_lat": 0.0, "lat": 38.89373116666667, "name": "3aa67da1411d1712b8caae76add151d1", "fusion_lon": 0.0, "bike_id": "3aa67da1411d1712b8caae76add151d1", "is_disabled": 0, "is_reserved": 0}, {"rental_uris": {"ios": "https://dc.lft.to/lastmile_qr_scan", "android": "https://dc.lft.to/lastmile_qr_scan"}, "lon": -77.03855633333333, "type": "electric_scooter", "fusion_lat": 0.0, "lat": 38.903099, "name": "583cd96dd54ed2539d130402ebddfcca", "fusion_lon": 0.0, "bike_id": "583cd96dd54ed2539d130402ebddfcca", "is_disabled": 0, "is_reserved": 0}, {"rental_uris": {"ios": "https://dc.lft.to/lastmile_qr_scan", "android": "https://dc.lft.to/lastmile_qr_scan"}, "lon": -77.03320783333334, "type": "electric_scooter", "fusion_lat": 0.0, "lat": 38.90150933333334, "name": "3b6cc3ad2af443f27777b9e0991637f5", "fusion_lon": 0.0, "bike_id": "3b6cc3ad2af443f27777b9e0991637f5", "is_disabled": 0, "is_reserved": 0}, {"rental_uris": {"ios": "https://dc.lft.to/lastmile_qr_scan", "android": "https://dc.lft.to/lastmile_qr_scan"}, "lon": -77.08266333333333, "type": "electric_scooter", "fusion_lat": 0.0, "lat": 38.930360666666665, "name": "7ac0acc5a360ac529cf6e5f6ee24722b", "fusion_lon": 0.0, "bike_id": "7ac0acc5a360ac529cf6e5f6ee24722b", "is_disabled": 0, "is_reserved": 0}, {"rental_uris": {"ios": "https://dc.lft.to/lastmile_qr_scan", "android": "https://dc.lft.to/lastmile_qr_scan"}, "lon": -77.03064566666667, "type": "electric_scooter", "fusion_lat": 0.0, "lat": 38.917094666666664, "name": "84dfef8881be897bffbef489a7616c2c", "fusion_lon": 0.0, "bike_id": "84dfef8881be897bffbef489a7616c2c", "is_disabled": 0, "is_reserved": 0}, {"rental_uris": {"ios": "https://dc.lft.to/lastmile_qr_scan", "android": "https://dc.lft.to/lastmile_qr_scan"}, "lon": -77.07198416666667, "type": "electric_scooter", "fusion_lat": 0.0, "lat": 38.9318905, "name": "a59d1696b1afd35210874a8b50ce94ab", "fusion_lon": 0.0, "bike_id": "a59d1696b1afd35210874a8b50ce94ab", "is_disabled": 0, "is_reserved": 0}, {"rental_uris": {"ios": "https://dc.lft.to/lastmile_qr_scan", "android": "https://dc.lft.to/lastmile_qr_scan"}, "lon": -77.18293166666666, "type": "electric_bike", "fusion_lat": 0.0, "lat": 38.88340316666667, "name": "94e9a85a57b092a12005e7e4b9b6b792", "fusion_lon": 0.0, "bike_id": "94e9a85a57b092a12005e7e4b9b6b792", "is_disabled": 0, "is_reserved": 0}, {"rental_uris": {"ios": "https://dc.lft.to/lastmile_qr_scan", "android": "https://dc.lft.to/lastmile_qr_scan"}, "lon": -77.05083216666667, "type": "electric_scooter", "fusion_lat": 0.0, "lat": 38.90064916666667, "name": "0b199a73d515b86a9831aa595e41341a", "fusion_lon": 0.0, "bike_id": "0b199a73d515b86a9831aa595e41341a", "is_disabled": 0, "is_reserved": 0}, {"rental_uris": {"ios": "https://dc.lft.to/lastmile_qr_scan", "android": "https://dc.lft.to/lastmile_qr_scan"}, "lon": -77.01793183333334, "type": "electric_scooter", "fusion_lat": 0.0, "lat": 38.9003725, "name": "da8d19a97aa367602f2b95b27f279f7c", "fusion_lon": 0.0, "bike_id": "da8d19a97aa367602f2b95b27f279f7c", "is_disabled": 0, "is_reserved": 0}, {"rental_uris": {"ios": "https://dc.lft.to/lastmile_qr_scan", "android": "https://dc.lft.to/lastmile_qr_scan"}, "lon": -76.97821766666667, "type": "electric_scooter", "fusion_lat": 0.0, "lat": 38.895169333333335, "name": "8fcb5e4b8044ea681cbc5941ce60c2b4", "fusion_lon": 0.0, "bike_id": "8fcb5e4b8044ea681cbc5941ce60c2b4", "is_disabled": 0, "is_reserved": 0}, {"rental_uris": {"ios": "https://dc.lft.to/lastmile_qr_scan", "android": "https://dc.lft.to/lastmile_qr_scan"}, "lon": -77.03698516666667, "type": "electric_bike", "fusion_lat": 0.0, "lat": 38.916991833333334, "name": "d593254bca646e58b81a17a7f5dff62a", "fusion_lon": 0.0, "bike_id": "d593254bca646e58b81a17a7f5dff62a", "is_disabled": 0, "is_reserved": 0}, {"rental_uris": {"ios": "https://dc.lft.to/lastmile_qr_scan", "android": "https://dc.lft.to/lastmile_qr_scan"}, "lon": -77.03465733333333, "type": "electric_scooter", "fusion_lat": 0.0, "lat": 38.9077135, "name": "a0b493f54f70b79588127aa7e6ff5b6e", "fusion_lon": 0.0, "bike_id": "a0b493f54f70b79588127aa7e6ff5b6e", "is_disabled": 0, "is_reserved": 0}, {"rental_uris": {"ios": "https://dc.lft.to/lastmile_qr_scan", "android": "https://dc.lft.to/lastmile_qr_scan"}, "lon": -77.02818416666666, "type": "electric_scooter", "fusion_lat": 0.0, "lat": 38.93175866666667, "name": "17c10246db21abe30c14551af99ed11b", "fusion_lon": 0.0, "bike_id": "17c10246db21abe30c14551af99ed11b", "is_disabled": 0, "is_reserved": 0}, {"rental_uris": {"ios": "https://dc.lft.to/lastmile_qr_scan", "android": "https://dc.lft.to/lastmile_qr_scan"}, "lon": -77.09750283333334, "type": "electric_bike", "fusion_lat": 0.0, "lat": 38.858517166666665, "name": "280afc9421a82ac213d3f43fc6fced49", "fusion_lon": 0.0, "bike_id": "280afc9421a82ac213d3f43fc6fced49", "is_disabled": 0, "is_reserved": 0}, {"rental_uris": {"ios": "https://dc.lft.to/lastmile_qr_scan", "android": "https://dc.lft.to/lastmile_qr_scan"}, "lon": -77.03446033333333, "type": "electric_scooter", "fusion_lat": 0.0, "lat": 38.918251833333336, "name": "39e36816f2c5ac6cf415435522229a34", "fusion_lon": 0.0, "bike_id": "39e36816f2c5ac6cf415435522229a34", "is_disabled": 0, "is_reserved": 0}, {"rental_uris": {"ios": "https://dc.lft.to/lastmile_qr_scan", "android": "https://dc.lft.to/lastmile_qr_scan"}, "lon": -77.022999, "type": "electric_scooter", "fusion_lat": 0.0, "lat": 38.917118, "name": "d3832f4d3c6371f7fc7e4f91e80ec15b", "fusion_lon": 0.0, "bike_id": "d3832f4d3c6371f7fc7e4f91e80ec15b", "is_disabled": 0, "is_reserved": 0}, {"rental_uris": {"ios": "https://dc.lft.to/lastmile_qr_scan", "android": "https://dc.lft.to/lastmile_qr_scan"}, "lon": -77.02234216666666, "type": "electric_scooter", "fusion_lat": 0.0, "lat": 38.911172, "name": "f0e8f0c7fa8fd8add30eae4fef5e8cf0", "fusion_lon": 0.0, "bike_id": "f0e8f0c7fa8fd8add30eae4fef5e8cf0", "is_disabled": 0, "is_reserved": 0}, {"rental_uris": {"ios": "https://dc.lft.to/lastmile_qr_scan", "android": "https://dc.lft.to/lastmile_qr_scan"}, "lon": -77.09872183333333, "type": "electric_bike", "fusion_lat": 0.0, "lat": 38.8537955, "name": "21c950f557189256e81507e4fdd6a729", "fusion_lon": 0.0, "bike_id": "21c950f557189256e81507e4fdd6a729", "is_disabled": 0, "is_reserved": 0}, {"rental_uris": {"ios": "https://dc.lft.to/lastmile_qr_scan", "android": "https://dc.lft.to/lastmile_qr_scan"}, "lon": -77.0269, "type": "electric_scooter", "fusion_lat": 0.0, "lat": 38.901573666666664, "name": "ee91892f959358822575340b508d0aaf", "fusion_lon": 0.0, "bike_id": "ee91892f959358822575340b508d0aaf", "is_disabled": 0, "is_reserved": 0}, {"rental_uris": {"ios": "https://dc.lft.to/lastmile_qr_scan", "android": "https://dc.lft.to/lastmile_qr_scan"}, "lon": -77.04051633333333, "type": "electric_scooter", "fusion_lat": 0.0, "lat": 38.927166166666666, "name": "593fe1bb5b12394548a21ab449189684", "fusion_lon": 0.0, "bike_id": "593fe1bb5b12394548a21ab449189684", "is_disabled": 0, "is_reserved": 0}, {"rental_uris": {"ios": "https://dc.lft.to/lastmile_qr_scan", "android": "https://dc.lft.to/lastmile_qr_scan"}, "lon": -77.027972, "type": "electric_scooter", "fusion_lat": 0.0, "lat": 38.92971333333333, "name": "6e1cff0f13d43d08062fca3b93a9dd44", "fusion_lon": 0.0, "bike_id": "6e1cff0f13d43d08062fca3b93a9dd44", "is_disabled": 0, "is_reserved": 0}, {"rental_uris": {"ios": "https://dc.lft.to/lastmile_qr_scan", "android": "https://dc.lft.to/lastmile_qr_scan"}, "lon": -77.04568366666666, "type": "electric_scooter", "fusion_lat": 0.0, "lat": 38.90858566666667, "name": "453d00cd96aca7ad414259159f6ae313", "fusion_lon": 0.0, "bike_id": "453d00cd96aca7ad414259159f6ae313", "is_disabled": 0, "is_reserved": 0}, {"rental_uris": {"ios": "https://dc.lft.to/lastmile_qr_scan", "android": "https://dc.lft.to/lastmile_qr_scan"}, "lon": -77.0412425, "type": "electric_bike", "fusion_lat": 0.0, "lat": 38.922479333333335, "name": "f8db1f36a7073273d4d63d05b7bc3a0c", "fusion_lon": 0.0, "bike_id": "f8db1f36a7073273d4d63d05b7bc3a0c", "is_disabled": 0, "is_reserved": 0}, {"rental_uris": {"ios": "https://dc.lft.to/lastmile_qr_scan", "android": "https://dc.lft.to/lastmile_qr_scan"}, "lon": -77.069413, "type": "electric_scooter", "fusion_lat": 0.0, "lat": 38.905080833333336, "name": "4909d894b4bcafe3f8795a7217754462", "fusion_lon": 0.0, "bike_id": "4909d894b4bcafe3f8795a7217754462", "is_disabled": 0, "is_reserved": 0}, {"rental_uris": {"ios": "https://dc.lft.to/lastmile_qr_scan", "android": "https://dc.lft.to/lastmile_qr_scan"}, "lon": -76.96524683333334, "type": "electric_scooter", "fusion_lat": 0.0, "lat": 38.87630733333334, "name": "0ed3be67c0ada11fd9d3b6113be537f5", "fusion_lon": 0.0, "bike_id": "0ed3be67c0ada11fd9d3b6113be537f5", "is_disabled": 0, "is_reserved": 0}, {"rental_uris": {"ios": "https://dc.lft.to/lastmile_qr_scan", "android": "https://dc.lft.to/lastmile_qr_scan"}, "lon": -77.02421016666666, "type": "electric_scooter", "fusion_lat": 0.0, "lat": 38.911083833333336, "name": "c54dad7929e10344eb09a2dc10ac320a", "fusion_lon": 0.0, "bike_id": "c54dad7929e10344eb09a2dc10ac320a", "is_disabled": 0, "is_reserved": 0}, {"rental_uris": {"ios": "https://dc.lft.to/lastmile_qr_scan", "android": "https://dc.lft.to/lastmile_qr_scan"}, "lon": -77.04485416666667, "type": "electric_bike", "fusion_lat": 0.0, "lat": 38.912894666666666, "name": "ce1f49227d604106c68f901acf2406e5", "fusion_lon": 0.0, "bike_id": "ce1f49227d604106c68f901acf2406e5", "is_disabled": 0, "is_reserved": 0}, {"rental_uris": {"ios": "https://dc.lft.to/lastmile_qr_scan", "android": "https://dc.lft.to/lastmile_qr_scan"}, "lon": -76.94761516666667, "type": "electric_scooter", "fusion_lat": 0.0, "lat": 38.900572, "name": "97ffdf45ee30c0856f54bc81fea713eb", "fusion_lon": 0.0, "bike_id": "97ffdf45ee30c0856f54bc81fea713eb", "is_disabled": 0, "is_reserved": 0}, {"rental_uris": {"ios": "https://dc.lft.to/lastmile_qr_scan", "android": "https://dc.lft.to/lastmile_qr_scan"}, "lon": -77.03116683333333, "type": "electric_bike", "fusion_lat": 0.0, "lat": 38.904356, "name": "99dc3bdce226fb2a71d3d7b172e38136", "fusion_lon": 0.0, "bike_id": "99dc3bdce226fb2a71d3d7b172e38136", "is_disabled": 0, "is_reserved": 0}, {"rental_uris": {"ios": "https://dc.lft.to/lastmile_qr_scan", "android": "https://dc.lft.to/lastmile_qr_scan"}, "lon": -77.01099883333333, "type": "electric_scooter", "fusion_lat": 0.0, "lat": 38.903562, "name": "f4d047eb030968a8b18f70e061e53d6d", "fusion_lon": 0.0, "bike_id": "f4d047eb030968a8b18f70e061e53d6d", "is_disabled": 0, "is_reserved": 0}, {"rental_uris": {"ios": "https://dc.lft.to/lastmile_qr_scan", "android": "https://dc.lft.to/lastmile_qr_scan"}, "lon": -77.02778983333333, "type": "electric_scooter", "fusion_lat": 0.0, "lat": 38.918033333333334, "name": "608697a77400b99308cf3797d2a44822", "fusion_lon": 0.0, "bike_id": "608697a77400b99308cf3797d2a44822", "is_disabled": 0, "is_reserved": 0}, {"rental_uris": {"ios": "https://dc.lft.to/lastmile_qr_scan", "android": "https://dc.lft.to/lastmile_qr_scan"}, "lon": -77.02784433333333, "type": "electric_scooter", "fusion_lat": 0.0, "lat": 38.9357805, "name": "7c9eb9946da4a0f29874b7ee85b64396", "fusion_lon": 0.0, "bike_id": "7c9eb9946da4a0f29874b7ee85b64396", "is_disabled": 0, "is_reserved": 0}, {"rental_uris": {"ios": "https://dc.lft.to/lastmile_qr_scan", "android": "https://dc.lft.to/lastmile_qr_scan"}, "lon": -77.02166116666666, "type": "electric_scooter", "fusion_lat": 0.0, "lat": 38.916114, "name": "55d8280ae4f196d7884f503727548b10", "fusion_lon": 0.0, "bike_id": "55d8280ae4f196d7884f503727548b10", "is_disabled": 0, "is_reserved": 0}, {"rental_uris": {"ios": "https://dc.lft.to/lastmile_qr_scan", "android": "https://dc.lft.to/lastmile_qr_scan"}, "lon": -77.05291266666667, "type": "electric_scooter", "fusion_lat": 0.0, "lat": 38.9277905, "name": "9b6684a41d972f779395b40dce709224", "fusion_lon": 0.0, "bike_id": "9b6684a41d972f779395b40dce709224", "is_disabled": 0, "is_reserved": 0}, {"rental_uris": {"ios": "https://dc.lft.to/lastmile_qr_scan", "android": "https://dc.lft.to/lastmile_qr_scan"}, "lon": -77.0378565, "type": "electric_scooter", "fusion_lat": 0.0, "lat": 38.90562083333333, "name": "e48a43e8cea1d7200797736ec135efcf", "fusion_lon": 0.0, "bike_id": "e48a43e8cea1d7200797736ec135efcf", "is_disabled": 0, "is_reserved": 0}, {"rental_uris": {"ios": "https://dc.lft.to/lastmile_qr_scan", "android": "https://dc.lft.to/lastmile_qr_scan"}, "lon": -77.03214916666667, "type": "electric_scooter", "fusion_lat": 0.0, "lat": 38.91139783333333, "name": "65a4e985fec639f345c34730dd4761ca", "fusion_lon": 0.0, "bike_id": "65a4e985fec639f345c34730dd4761ca", "is_disabled": 0, "is_reserved": 0}, {"rental_uris": {"ios": "https://dc.lft.to/lastmile_qr_scan", "android": "https://dc.lft.to/lastmile_qr_scan"}, "lon": -77.038106, "type": "electric_scooter", "fusion_lat": 0.0, "lat": 38.93608483333333, "name": "89032aac7d364f1e838ed9bae19879cd", "fusion_lon": 0.0, "bike_id": "89032aac7d364f1e838ed9bae19879cd", "is_disabled": 0, "is_reserved": 0}, {"rental_uris": {"ios": "https://dc.lft.to/lastmile_qr_scan", "android": "https://dc.lft.to/lastmile_qr_scan"}, "lon": -77.0058895, "type": "electric_scooter", "fusion_lat": 0.0, "lat": 38.90579283333334, "name": "889e98d5b3cf69aed9b569adb93d1de6", "fusion_lon": 0.0, "bike_id": "889e98d5b3cf69aed9b569adb93d1de6", "is_disabled": 0, "is_reserved": 0}, {"rental_uris": {"ios": "https://dc.lft.to/lastmile_qr_scan", "android": "https://dc.lft.to/lastmile_qr_scan"}, "lon": -77.12899516666667, "type": "electric_bike", "fusion_lat": 0.0, "lat": 38.863780166666665, "name": "be80b0d2639d13b117fa1e4856c988b7", "fusion_lon": 0.0, "bike_id": "be80b0d2639d13b117fa1e4856c988b7", "is_disabled": 0, "is_reserved": 0}, {"rental_uris": {"ios": "https://dc.lft.to/lastmile_qr_scan", "android": "https://dc.lft.to/lastmile_qr_scan"}, "lon": -77.02021583333334, "type": "electric_scooter", "fusion_lat": 0.0, "lat": 38.91645883333333, "name": "b9ab6747590ab41c2792bb7681581d41", "fusion_lon": 0.0, "bike_id": "b9ab6747590ab41c2792bb7681581d41", "is_disabled": 0, "is_reserved": 0}, {"rental_uris": {"ios": "https://dc.lft.to/lastmile_qr_scan", "android": "https://dc.lft.to/lastmile_qr_scan"}, "lon": -77.032148, "type": "electric_scooter", "fusion_lat": 0.0, "lat": 38.908962333333335, "name": "cdcfd33f3d6c3f2dc86a7e5c93919111", "fusion_lon": 0.0, "bike_id": "cdcfd33f3d6c3f2dc86a7e5c93919111", "is_disabled": 0, "is_reserved": 0}, {"rental_uris": {"ios": "https://dc.lft.to/lastmile_qr_scan", "android": "https://dc.lft.to/lastmile_qr_scan"}, "lon": -76.98262766666667, "type": "electric_scooter", "fusion_lat": 0.0, "lat": 38.863565, "name": "d679342cdabef2dbe9b250c9f1d358fb", "fusion_lon": 0.0, "bike_id": "d679342cdabef2dbe9b250c9f1d358fb", "is_disabled": 0, "is_reserved": 0}, {"rental_uris": {"ios": "https://dc.lft.to/lastmile_qr_scan", "android": "https://dc.lft.to/lastmile_qr_scan"}, "lon": -76.99384666666667, "type": "electric_scooter", "fusion_lat": 0.0, "lat": 38.89744616666667, "name": "e9d5dd84e879494193a381395d0f120d", "fusion_lon": 0.0, "bike_id": "e9d5dd84e879494193a381395d0f120d", "is_disabled": 0, "is_reserved": 0}, {"rental_uris": {"ios": "https://dc.lft.to/lastmile_qr_scan", "android": "https://dc.lft.to/lastmile_qr_scan"}, "lon": -77.05440816666666, "type": "electric_scooter", "fusion_lat": 0.0, "lat": 38.8960885, "name": "33a005300611d04bda62797aa977e02a", "fusion_lon": 0.0, "bike_id": "33a005300611d04bda62797aa977e02a", "is_disabled": 0, "is_reserved": 0}, {"rental_uris": {"ios": "https://dc.lft.to/lastmile_qr_scan", "android": "https://dc.lft.to/lastmile_qr_scan"}, "lon": -77.01125366666666, "type": "electric_scooter", "fusion_lat": 0.0, "lat": 38.89985033333333, "name": "c2912439cf20462adf0845d20893ec5b", "fusion_lon": 0.0, "bike_id": "c2912439cf20462adf0845d20893ec5b", "is_disabled": 0, "is_reserved": 0}, {"rental_uris": {"ios": "https://dc.lft.to/lastmile_qr_scan", "android": "https://dc.lft.to/lastmile_qr_scan"}, "lon": -77.0441385, "type": "electric_scooter", "fusion_lat": 0.0, "lat": 38.905714, "name": "68929de0aaf54b8e3f1a78b24899053e", "fusion_lon": 0.0, "bike_id": "68929de0aaf54b8e3f1a78b24899053e", "is_disabled": 0, "is_reserved": 0}, {"rental_uris": {"ios": "https://dc.lft.to/lastmile_qr_scan", "android": "https://dc.lft.to/lastmile_qr_scan"}, "lon": -77.03472166666667, "type": "electric_scooter", "fusion_lat": 0.0, "lat": 38.919902666666665, "name": "960cfd6692cdc8669415567a6872903d", "fusion_lon": 0.0, "bike_id": "960cfd6692cdc8669415567a6872903d", "is_disabled": 0, "is_reserved": 0}, {"rental_uris": {"ios": "https://dc.lft.to/lastmile_qr_scan", "android": "https://dc.lft.to/lastmile_qr_scan"}, "lon": -77.01655166666667, "type": "electric_scooter", "fusion_lat": 0.0, "lat": 38.9533165, "name": "0bd51f3dbc40c6c8ad0ffdab08000640", "fusion_lon": 0.0, "bike_id": "0bd51f3dbc40c6c8ad0ffdab08000640", "is_disabled": 0, "is_reserved": 0}, {"rental_uris": {"ios": "https://dc.lft.to/lastmile_qr_scan", "android": "https://dc.lft.to/lastmile_qr_scan"}, "lon": -77.04789466666666, "type": "electric_scooter", "fusion_lat": 0.0, "lat": 38.893687666666665, "name": "b55773947b8bf49acf867ad1f79b767b", "fusion_lon": 0.0, "bike_id": "b55773947b8bf49acf867ad1f79b767b", "is_disabled": 0, "is_reserved": 0}, {"rental_uris": {"ios": "https://dc.lft.to/lastmile_qr_scan", "android": "https://dc.lft.to/lastmile_qr_scan"}, "lon": -76.98937533333333, "type": "electric_bike", "fusion_lat": 0.0, "lat": 38.92861516666667, "name": "b4e643296f60931ac78e8a2860ad44f4", "fusion_lon": 0.0, "bike_id": "b4e643296f60931ac78e8a2860ad44f4", "is_disabled": 0, "is_reserved": 0}, {"rental_uris": {"ios": "https://dc.lft.to/lastmile_qr_scan", "android": "https://dc.lft.to/lastmile_qr_scan"}, "lon": -77.0411045, "type": "electric_scooter", "fusion_lat": 0.0, "lat": 38.916952, "name": "2d47b1621dc825759dad96aa35398868", "fusion_lon": 0.0, "bike_id": "2d47b1621dc825759dad96aa35398868", "is_disabled": 0, "is_reserved": 0}, {"rental_uris": {"ios": "https://dc.lft.to/lastmile_qr_scan", "android": "https://dc.lft.to/lastmile_qr_scan"}, "lon": -77.012218, "type": "electric_scooter", "fusion_lat": 0.0, "lat": 38.9127755, "name": "367a2e1ad842bf8fea35d398ccbc084a", "fusion_lon": 0.0, "bike_id": "367a2e1ad842bf8fea35d398ccbc084a", "is_disabled": 0, "is_reserved": 0}, {"rental_uris": {"ios": "https://dc.lft.to/lastmile_qr_scan", "android": "https://dc.lft.to/lastmile_qr_scan"}, "lon": -77.038586, "type": "electric_scooter", "fusion_lat": 0.0, "lat": 38.903180666666664, "name": "2a1f781ea4f066d0d1a3e9271e852fcd", "fusion_lon": 0.0, "bike_id": "2a1f781ea4f066d0d1a3e9271e852fcd", "is_disabled": 0, "is_reserved": 0}, {"rental_uris": {"ios": "https://dc.lft.to/lastmile_qr_scan", "android": "https://dc.lft.to/lastmile_qr_scan"}, "lon": -77.0301325, "type": "electric_scooter", "fusion_lat": 0.0, "lat": 38.912638666666666, "name": "477e7e1bffd190e399c855b19d15295c", "fusion_lon": 0.0, "bike_id": "477e7e1bffd190e399c855b19d15295c", "is_disabled": 0, "is_reserved": 0}, {"rental_uris": {"ios": "https://dc.lft.to/lastmile_qr_scan", "android": "https://dc.lft.to/lastmile_qr_scan"}, "lon": -76.9237365, "type": "electric_bike", "fusion_lat": 0.0, "lat": 38.88372733333333, "name": "f8337176a4e2780bafae131e91529ee5", "fusion_lon": 0.0, "bike_id": "f8337176a4e2780bafae131e91529ee5", "is_disabled": 0, "is_reserved": 0}, {"rental_uris": {"ios": "https://dc.lft.to/lastmile_qr_scan", "android": "https://dc.lft.to/lastmile_qr_scan"}, "lon": -77.0688385, "type": "electric_scooter", "fusion_lat": 0.0, "lat": 38.907660166666666, "name": "309fe2097fb6cd0c166ef10e7dadac27", "fusion_lon": 0.0, "bike_id": "309fe2097fb6cd0c166ef10e7dadac27", "is_disabled": 0, "is_reserved": 0}, {"rental_uris": {"ios": "https://dc.lft.to/lastmile_qr_scan", "android": "https://dc.lft.to/lastmile_qr_scan"}, "lon": -77.02194966666667, "type": "electric_scooter", "fusion_lat": 0.0, "lat": 38.92155833333333, "name": "07d897c9659b7cc9438bba240520a434", "fusion_lon": 0.0, "bike_id": "07d897c9659b7cc9438bba240520a434", "is_disabled": 0, "is_reserved": 0}, {"rental_uris": {"ios": "https://dc.lft.to/lastmile_qr_scan", "android": "https://dc.lft.to/lastmile_qr_scan"}, "lon": -76.93175016666666, "type": "electric_scooter", "fusion_lat": 0.0, "lat": 38.89887866666667, "name": "307bf04d47c71a860a4d5057719b9469", "fusion_lon": 0.0, "bike_id": "307bf04d47c71a860a4d5057719b9469", "is_disabled": 0, "is_reserved": 0}, {"rental_uris": {"ios": "https://dc.lft.to/lastmile_qr_scan", "android": "https://dc.lft.to/lastmile_qr_scan"}, "lon": -77.02807783333333, "type": "electric_bike", "fusion_lat": 0.0, "lat": 38.902721, "name": "4f3ca60fa19456e960a2914504b0fe6f", "fusion_lon": 0.0, "bike_id": "4f3ca60fa19456e960a2914504b0fe6f", "is_disabled": 0, "is_reserved": 0}, {"rental_uris": {"ios": "https://dc.lft.to/lastmile_qr_scan", "android": "https://dc.lft.to/lastmile_qr_scan"}, "lon": -76.98890383333334, "type": "electric_scooter", "fusion_lat": 0.0, "lat": 38.8665835, "name": "e46ef44079553b2bc239e868f7f2ab3f", "fusion_lon": 0.0, "bike_id": "e46ef44079553b2bc239e868f7f2ab3f", "is_disabled": 0, "is_reserved": 0}, {"rental_uris": {"ios": "https://dc.lft.to/lastmile_qr_scan", "android": "https://dc.lft.to/lastmile_qr_scan"}, "lon": -77.02978616666667, "type": "electric_scooter", "fusion_lat": 0.0, "lat": 38.93884366666666, "name": "ba9cac6c2f3494596d91633424495eac", "fusion_lon": 0.0, "bike_id": "ba9cac6c2f3494596d91633424495eac", "is_disabled": 0, "is_reserved": 0}, {"rental_uris": {"ios": "https://dc.lft.to/lastmile_qr_scan", "android": "https://dc.lft.to/lastmile_qr_scan"}, "lon": -77.047188, "type": "electric_scooter", "fusion_lat": 0.0, "lat": 38.9035265, "name": "2c292d27059399d63fea8d246116b92d", "fusion_lon": 0.0, "bike_id": "2c292d27059399d63fea8d246116b92d", "is_disabled": 0, "is_reserved": 0}, {"rental_uris": {"ios": "https://dc.lft.to/lastmile_qr_scan", "android": "https://dc.lft.to/lastmile_qr_scan"}, "lon": -77.11317533333333, "type": "electric_bike", "fusion_lat": 0.0, "lat": 38.855656, "name": "5673f6a9eb58dc203bb9776e10f03e5b", "fusion_lon": 0.0, "bike_id": "5673f6a9eb58dc203bb9776e10f03e5b", "is_disabled": 0, "is_reserved": 0}, {"rental_uris": {"ios": "https://dc.lft.to/lastmile_qr_scan", "android": "https://dc.lft.to/lastmile_qr_scan"}, "lon": -77.07084233333333, "type": "electric_bike", "fusion_lat": 0.0, "lat": 38.955567, "name": "84a743b3b47047bfaed886a521ca537d", "fusion_lon": 0.0, "bike_id": "84a743b3b47047bfaed886a521ca537d", "is_disabled": 0, "is_reserved": 0}, {"rental_uris": {"ios": "https://dc.lft.to/lastmile_qr_scan", "android": "https://dc.lft.to/lastmile_qr_scan"}, "lon": -77.02302883333333, "type": "electric_scooter", "fusion_lat": 0.0, "lat": 38.897325333333335, "name": "686625fa226412c57cbde3b446cdb411", "fusion_lon": 0.0, "bike_id": "686625fa226412c57cbde3b446cdb411", "is_disabled": 0, "is_reserved": 0}, {"rental_uris": {"ios": "https://dc.lft.to/lastmile_qr_scan", "android": "https://dc.lft.to/lastmile_qr_scan"}, "lon": -77.04065833333334, "type": "electric_scooter", "fusion_lat": 0.0, "lat": 38.9238565, "name": "e0d163cf245184018a73e05f0f535a86", "fusion_lon": 0.0, "bike_id": "e0d163cf245184018a73e05f0f535a86", "is_disabled": 0, "is_reserved": 0}, {"rental_uris": {"ios": "https://dc.lft.to/lastmile_qr_scan", "android": "https://dc.lft.to/lastmile_qr_scan"}, "lon": -76.97455933333333, "type": "electric_scooter", "fusion_lat": 0.0, "lat": 38.865438166666664, "name": "8eca8e4a80641a55f3877b64c1c7432f", "fusion_lon": 0.0, "bike_id": "8eca8e4a80641a55f3877b64c1c7432f", "is_disabled": 0, "is_reserved": 0}, {"rental_uris": {"ios": "https://dc.lft.to/lastmile_qr_scan", "android": "https://dc.lft.to/lastmile_qr_scan"}, "lon": -77.032188, "type": "electric_scooter", "fusion_lat": 0.0, "lat": 38.900298, "name": "68452a5874d4ccf051295617b20633df", "fusion_lon": 0.0, "bike_id": "68452a5874d4ccf051295617b20633df", "is_disabled": 0, "is_reserved": 0}, {"rental_uris": {"ios": "https://dc.lft.to/lastmile_qr_scan", "android": "https://dc.lft.to/lastmile_qr_scan"}, "lon": -77.05369816666666, "type": "electric_scooter", "fusion_lat": 0.0, "lat": 38.903831, "name": "9691c050906db49e1163887f68bacd11", "fusion_lon": 0.0, "bike_id": "9691c050906db49e1163887f68bacd11", "is_disabled": 0, "is_reserved": 0}, {"rental_uris": {"ios": "https://dc.lft.to/lastmile_qr_scan", "android": "https://dc.lft.to/lastmile_qr_scan"}, "lon": -77.047362, "type": "electric_scooter", "fusion_lat": 0.0, "lat": 38.89731116666667, "name": "6ac4914c5db87616af8d550d0a8777a1", "fusion_lon": 0.0, "bike_id": "6ac4914c5db87616af8d550d0a8777a1", "is_disabled": 0, "is_reserved": 0}, {"rental_uris": {"ios": "https://dc.lft.to/lastmile_qr_scan", "android": "https://dc.lft.to/lastmile_qr_scan"}, "lon": -77.059841, "type": "electric_scooter", "fusion_lat": 0.0, "lat": 38.9355285, "name": "53f549d56c12a75df38cb2e23d6b87e4", "fusion_lon": 0.0, "bike_id": "53f549d56c12a75df38cb2e23d6b87e4", "is_disabled": 0, "is_reserved": 0}, {"rental_uris": {"ios": "https://dc.lft.to/lastmile_qr_scan", "android": "https://dc.lft.to/lastmile_qr_scan"}, "lon": -77.03851183333333, "type": "electric_scooter", "fusion_lat": 0.0, "lat": 38.926485666666665, "name": "21bc589b0ae36e36e619faf3c4c85f21", "fusion_lon": 0.0, "bike_id": "21bc589b0ae36e36e619faf3c4c85f21", "is_disabled": 0, "is_reserved": 0}, {"rental_uris": {"ios": "https://dc.lft.to/lastmile_qr_scan", "android": "https://dc.lft.to/lastmile_qr_scan"}, "lon": -77.01214266666666, "type": "electric_scooter", "fusion_lat": 0.0, "lat": 38.914967833333336, "name": "81f1dc0156ebde531c8456f6818cf98f", "fusion_lon": 0.0, "bike_id": "81f1dc0156ebde531c8456f6818cf98f", "is_disabled": 0, "is_reserved": 0}, {"rental_uris": {"ios": "https://dc.lft.to/lastmile_qr_scan", "android": "https://dc.lft.to/lastmile_qr_scan"}, "lon": -77.0500175, "type": "electric_scooter", "fusion_lat": 0.0, "lat": 38.892328666666664, "name": "1fd1db3d7f3adecf416957a0f81ccdba", "fusion_lon": 0.0, "bike_id": "1fd1db3d7f3adecf416957a0f81ccdba", "is_disabled": 0, "is_reserved": 0}, {"rental_uris": {"ios": "https://dc.lft.to/lastmile_qr_scan", "android": "https://dc.lft.to/lastmile_qr_scan"}, "lon": -76.95472266666667, "type": "electric_bike", "fusion_lat": 0.0, "lat": 38.88645433333333, "name": "8cf1af68f3500f8fc0272047fcb98c40", "fusion_lon": 0.0, "bike_id": "8cf1af68f3500f8fc0272047fcb98c40", "is_disabled": 0, "is_reserved": 0}, {"rental_uris": {"ios": "https://dc.lft.to/lastmile_qr_scan", "android": "https://dc.lft.to/lastmile_qr_scan"}, "lon": -76.98796116666666, "type": "electric_bike", "fusion_lat": 0.0, "lat": 38.90419683333333, "name": "63a90972c92b6a949ce20470634eee36", "fusion_lon": 0.0, "bike_id": "63a90972c92b6a949ce20470634eee36", "is_disabled": 0, "is_reserved": 0}, {"rental_uris": {"ios": "https://dc.lft.to/lastmile_qr_scan", "android": "https://dc.lft.to/lastmile_qr_scan"}, "lon": -77.04217866666667, "type": "electric_scooter", "fusion_lat": 0.0, "lat": 38.91119166666667, "name": "713b944684357e58169e282c44367c71", "fusion_lon": 0.0, "bike_id": "713b944684357e58169e282c44367c71", "is_disabled": 0, "is_reserved": 0}, {"rental_uris": {"ios": "https://dc.lft.to/lastmile_qr_scan", "android": "https://dc.lft.to/lastmile_qr_scan"}, "lon": -77.00938416666666, "type": "electric_scooter", "fusion_lat": 0.0, "lat": 38.8719365, "name": "7aa906f92fc2e12986f8223f96020008", "fusion_lon": 0.0, "bike_id": "7aa906f92fc2e12986f8223f96020008", "is_disabled": 0, "is_reserved": 0}, {"rental_uris": {"ios": "https://dc.lft.to/lastmile_qr_scan", "android": "https://dc.lft.to/lastmile_qr_scan"}, "lon": -77.02209466666666, "type": "electric_scooter", "fusion_lat": 0.0, "lat": 38.908354833333334, "name": "f2ec47bb0949bad0a9d91f254a9c1722", "fusion_lon": 0.0, "bike_id": "f2ec47bb0949bad0a9d91f254a9c1722", "is_disabled": 0, "is_reserved": 0}, {"rental_uris": {"ios": "https://dc.lft.to/lastmile_qr_scan", "android": "https://dc.lft.to/lastmile_qr_scan"}, "lon": -77.017921, "type": "electric_scooter", "fusion_lat": 0.0, "lat": 38.903988166666664, "name": "9128cbc2e87eed691826eb2f276eec33", "fusion_lon": 0.0, "bike_id": "9128cbc2e87eed691826eb2f276eec33", "is_disabled": 0, "is_reserved": 0}, {"rental_uris": {"ios": "https://dc.lft.to/lastmile_qr_scan", "android": "https://dc.lft.to/lastmile_qr_scan"}, "lon": -77.0408845, "type": "electric_scooter", "fusion_lat": 0.0, "lat": 38.9198955, "name": "3b2e444c1c4fc08a87a3790157348dc2", "fusion_lon": 0.0, "bike_id": "3b2e444c1c4fc08a87a3790157348dc2", "is_disabled": 0, "is_reserved": 0}, {"rental_uris": {"ios": "https://dc.lft.to/lastmile_qr_scan", "android": "https://dc.lft.to/lastmile_qr_scan"}, "lon": -76.990668, "type": "electric_scooter", "fusion_lat": 0.0, "lat": 38.863566166666665, "name": "d3f7756fd940f3cf02cd3ee2d80b623f", "fusion_lon": 0.0, "bike_id": "d3f7756fd940f3cf02cd3ee2d80b623f", "is_disabled": 0, "is_reserved": 0}, {"rental_uris": {"ios": "https://dc.lft.to/lastmile_qr_scan", "android": "https://dc.lft.to/lastmile_qr_scan"}, "lon": -77.01509983333334, "type": "electric_scooter", "fusion_lat": 0.0, "lat": 38.8873985, "name": "0e0c860c2dd915cd1514fc4ccfca9f66", "fusion_lon": 0.0, "bike_id": "0e0c860c2dd915cd1514fc4ccfca9f66", "is_disabled": 0, "is_reserved": 0}, {"rental_uris": {"ios": "https://dc.lft.to/lastmile_qr_scan", "android": "https://dc.lft.to/lastmile_qr_scan"}, "lon": -77.02228266666667, "type": "electric_scooter", "fusion_lat": 0.0, "lat": 38.9126705, "name": "79e34ef5be3c2483618981adbbe73cc8", "fusion_lon": 0.0, "bike_id": "79e34ef5be3c2483618981adbbe73cc8", "is_disabled": 0, "is_reserved": 0}, {"rental_uris": {"ios": "https://dc.lft.to/lastmile_qr_scan", "android": "https://dc.lft.to/lastmile_qr_scan"}, "lon": -77.02434516666666, "type": "electric_scooter", "fusion_lat": 0.0, "lat": 38.922551166666665, "name": "c5ba56b78028c7bfd5170d995f22c0e9", "fusion_lon": 0.0, "bike_id": "c5ba56b78028c7bfd5170d995f22c0e9", "is_disabled": 0, "is_reserved": 0}, {"rental_uris": {"ios": "https://dc.lft.to/lastmile_qr_scan", "android": "https://dc.lft.to/lastmile_qr_scan"}, "lon": -77.06519166666666, "type": "electric_bike", "fusion_lat": 0.0, "lat": 38.90552316666667, "name": "f1b22caaa3c4d2e3a8adfbe698fb8cb1", "fusion_lon": 0.0, "bike_id": "f1b22caaa3c4d2e3a8adfbe698fb8cb1", "is_disabled": 0, "is_reserved": 0}, {"rental_uris": {"ios": "https://dc.lft.to/lastmile_qr_scan", "android": "https://dc.lft.to/lastmile_qr_scan"}, "lon": -76.98357, "type": "electric_scooter", "fusion_lat": 0.0, "lat": 38.91532266666667, "name": "256d567a36138a0641efa48539e3ffc8", "fusion_lon": 0.0, "bike_id": "256d567a36138a0641efa48539e3ffc8", "is_disabled": 0, "is_reserved": 0}, {"rental_uris": {"ios": "https://dc.lft.to/lastmile_qr_scan", "android": "https://dc.lft.to/lastmile_qr_scan"}, "lon": -77.04056283333334, "type": "electric_scooter", "fusion_lat": 0.0, "lat": 38.9174965, "name": "5273403e4cee80a171db557596a484ee", "fusion_lon": 0.0, "bike_id": "5273403e4cee80a171db557596a484ee", "is_disabled": 0, "is_reserved": 0}, {"rental_uris": {"ios": "https://dc.lft.to/lastmile_qr_scan", "android": "https://dc.lft.to/lastmile_qr_scan"}, "lon": -77.032082, "type": "electric_scooter", "fusion_lat": 0.0, "lat": 38.917290666666666, "name": "1f4a73e75cd2cdc04a84f877e7a36961", "fusion_lon": 0.0, "bike_id": "1f4a73e75cd2cdc04a84f877e7a36961", "is_disabled": 0, "is_reserved": 0}, {"rental_uris": {"ios": "https://dc.lft.to/lastmile_qr_scan", "android": "https://dc.lft.to/lastmile_qr_scan"}, "lon": -77.09172333333333, "type": "electric_bike", "fusion_lat": 0.0, "lat": 38.9675865, "name": "4cefc2118ca289d155ad14a8095f4627", "fusion_lon": 0.0, "bike_id": "4cefc2118ca289d155ad14a8095f4627", "is_disabled": 0, "is_reserved": 0}, {"rental_uris": {"ios": "https://dc.lft.to/lastmile_qr_scan", "android": "https://dc.lft.to/lastmile_qr_scan"}, "lon": -77.02964216666666, "type": "electric_scooter", "fusion_lat": 0.0, "lat": 38.91273616666667, "name": "e4b6bce70458b8550867f1b9910638cd", "fusion_lon": 0.0, "bike_id": "e4b6bce70458b8550867f1b9910638cd", "is_disabled": 0, "is_reserved": 0}, {"rental_uris": {"ios": "https://dc.lft.to/lastmile_qr_scan", "android": "https://dc.lft.to/lastmile_qr_scan"}, "lon": -77.13091033333333, "type": "electric_bike", "fusion_lat": 0.0, "lat": 38.8615975, "name": "467d36daa816d33588aabb5546251d62", "fusion_lon": 0.0, "bike_id": "467d36daa816d33588aabb5546251d62", "is_disabled": 0, "is_reserved": 0}, {"rental_uris": {"ios": "https://dc.lft.to/lastmile_qr_scan", "android": "https://dc.lft.to/lastmile_qr_scan"}, "lon": -77.04375816666666, "type": "electric_scooter", "fusion_lat": 0.0, "lat": 38.92065483333333, "name": "96cb1d1b8b24508fedacaaaa7e478c0a", "fusion_lon": 0.0, "bike_id": "96cb1d1b8b24508fedacaaaa7e478c0a", "is_disabled": 0, "is_reserved": 0}, {"rental_uris": {"ios": "https://dc.lft.to/lastmile_qr_scan", "android": "https://dc.lft.to/lastmile_qr_scan"}, "lon": -77.023234, "type": "electric_scooter", "fusion_lat": 0.0, "lat": 38.883482, "name": "4d0c8ec87515d8b9794fdc5db09cc94c", "fusion_lon": 0.0, "bike_id": "4d0c8ec87515d8b9794fdc5db09cc94c", "is_disabled": 0, "is_reserved": 0}, {"rental_uris": {"ios": "https://dc.lft.to/lastmile_qr_scan", "android": "https://dc.lft.to/lastmile_qr_scan"}, "lon": -77.025105, "type": "electric_bike", "fusion_lat": 0.0, "lat": 38.93415066666667, "name": "c9f7d7aa98504c7775e10b335ccce12f", "fusion_lon": 0.0, "bike_id": "c9f7d7aa98504c7775e10b335ccce12f", "is_disabled": 0, "is_reserved": 0}, {"rental_uris": {"ios": "https://dc.lft.to/lastmile_qr_scan", "android": "https://dc.lft.to/lastmile_qr_scan"}, "lon": -77.03457216666666, "type": "electric_scooter", "fusion_lat": 0.0, "lat": 38.91162283333333, "name": "f9062661480dbd421ccbbf5470c161eb", "fusion_lon": 0.0, "bike_id": "f9062661480dbd421ccbbf5470c161eb", "is_disabled": 0, "is_reserved": 0}, {"rental_uris": {"ios": "https://dc.lft.to/lastmile_qr_scan", "android": "https://dc.lft.to/lastmile_qr_scan"}, "lon": -76.99946483333333, "type": "electric_bike", "fusion_lat": 0.0, "lat": 38.923425333333334, "name": "013f4fad7924d5130cb00584ee36b86e", "fusion_lon": 0.0, "bike_id": "013f4fad7924d5130cb00584ee36b86e", "is_disabled": 0, "is_reserved": 0}, {"rental_uris": {"ios": "https://dc.lft.to/lastmile_qr_scan", "android": "https://dc.lft.to/lastmile_qr_scan"}, "lon": -77.04152816666667, "type": "electric_scooter", "fusion_lat": 0.0, "lat": 38.9172475, "name": "efbf853175d0cd383d55483a26beb06f", "fusion_lon": 0.0, "bike_id": "efbf853175d0cd383d55483a26beb06f", "is_disabled": 0, "is_reserved": 0}, {"rental_uris": {"ios": "https://dc.lft.to/lastmile_qr_scan", "android": "https://dc.lft.to/lastmile_qr_scan"}, "lon": -77.02796333333333, "type": "electric_scooter", "fusion_lat": 0.0, "lat": 38.930844666666665, "name": "87e465e940768da5017869e05c637fd5", "fusion_lon": 0.0, "bike_id": "87e465e940768da5017869e05c637fd5", "is_disabled": 0, "is_reserved": 0}, {"rental_uris": {"ios": "https://dc.lft.to/lastmile_qr_scan", "android": "https://dc.lft.to/lastmile_qr_scan"}, "lon": -77.03342466666666, "type": "electric_scooter", "fusion_lat": 0.0, "lat": 38.898145166666666, "name": "e1071e74122257efc15b1359e6f75b14", "fusion_lon": 0.0, "bike_id": "e1071e74122257efc15b1359e6f75b14", "is_disabled": 0, "is_reserved": 0}, {"rental_uris": {"ios": "https://dc.lft.to/lastmile_qr_scan", "android": "https://dc.lft.to/lastmile_qr_scan"}, "lon": -77.01530666666666, "type": "electric_scooter", "fusion_lat": 0.0, "lat": 38.87265383333333, "name": "796f5b22e0d6c937188a9cad452085ad", "fusion_lon": 0.0, "bike_id": "796f5b22e0d6c937188a9cad452085ad", "is_disabled": 0, "is_reserved": 0}, {"rental_uris": {"ios": "https://dc.lft.to/lastmile_qr_scan", "android": "https://dc.lft.to/lastmile_qr_scan"}, "lon": -77.039363, "type": "electric_scooter", "fusion_lat": 0.0, "lat": 38.921039666666665, "name": "db3dee20718c2b4423c8bb1866fc23b2", "fusion_lon": 0.0, "bike_id": "db3dee20718c2b4423c8bb1866fc23b2", "is_disabled": 0, "is_reserved": 0}, {"rental_uris": {"ios": "https://dc.lft.to/lastmile_qr_scan", "android": "https://dc.lft.to/lastmile_qr_scan"}, "lon": -76.99781033333333, "type": "electric_scooter", "fusion_lat": 0.0, "lat": 38.8442615, "name": "61f31a2858d7260549496590216726d0", "fusion_lon": 0.0, "bike_id": "61f31a2858d7260549496590216726d0", "is_disabled": 0, "is_reserved": 0}, {"rental_uris": {"ios": "https://dc.lft.to/lastmile_qr_scan", "android": "https://dc.lft.to/lastmile_qr_scan"}, "lon": -77.066005, "type": "electric_scooter", "fusion_lat": 0.0, "lat": 38.90527516666667, "name": "900f81f9fc9e4a9c9ee085d20b36423b", "fusion_lon": 0.0, "bike_id": "900f81f9fc9e4a9c9ee085d20b36423b", "is_disabled": 0, "is_reserved": 0}, {"rental_uris": {"ios": "https://dc.lft.to/lastmile_qr_scan", "android": "https://dc.lft.to/lastmile_qr_scan"}, "lon": -77.03467516666667, "type": "electric_scooter", "fusion_lat": 0.0, "lat": 38.907764666666665, "name": "3949d386d860a07d5ce07f489398e01e", "fusion_lon": 0.0, "bike_id": "3949d386d860a07d5ce07f489398e01e", "is_disabled": 0, "is_reserved": 0}, {"rental_uris": {"ios": "https://dc.lft.to/lastmile_qr_scan", "android": "https://dc.lft.to/lastmile_qr_scan"}, "lon": -77.00208533333333, "type": "electric_scooter", "fusion_lat": 0.0, "lat": 38.900782666666665, "name": "7b943df063b6a56733a0ed1424e074e2", "fusion_lon": 0.0, "bike_id": "7b943df063b6a56733a0ed1424e074e2", "is_disabled": 0, "is_reserved": 0}, {"rental_uris": {"ios": "https://dc.lft.to/lastmile_qr_scan", "android": "https://dc.lft.to/lastmile_qr_scan"}, "lon": -76.99002583333333, "type": "electric_scooter", "fusion_lat": 0.0, "lat": 38.86508366666666, "name": "177547aa78cb29a75af53f77a7d2c150", "fusion_lon": 0.0, "bike_id": "177547aa78cb29a75af53f77a7d2c150", "is_disabled": 0, "is_reserved": 0}, {"rental_uris": {"ios": "https://dc.lft.to/lastmile_qr_scan", "android": "https://dc.lft.to/lastmile_qr_scan"}, "lon": -77.03248533333333, "type": "electric_scooter", "fusion_lat": 0.0, "lat": 38.912693833333336, "name": "e77c0bf1bd3b5dd9cf1af1986e0cf62c", "fusion_lon": 0.0, "bike_id": "e77c0bf1bd3b5dd9cf1af1986e0cf62c", "is_disabled": 0, "is_reserved": 0}, {"rental_uris": {"ios": "https://dc.lft.to/lastmile_qr_scan", "android": "https://dc.lft.to/lastmile_qr_scan"}, "lon": -77.04235733333333, "type": "electric_scooter", "fusion_lat": 0.0, "lat": 38.92154, "name": "ee121b781d2caf65c9b9b6b77d19ae2b", "fusion_lon": 0.0, "bike_id": "ee121b781d2caf65c9b9b6b77d19ae2b", "is_disabled": 0, "is_reserved": 0}, {"rental_uris": {"ios": "https://dc.lft.to/lastmile_qr_scan", "android": "https://dc.lft.to/lastmile_qr_scan"}, "lon": -77.061168, "type": "electric_scooter", "fusion_lat": 0.0, "lat": 38.91294283333333, "name": "185ab0a3cd6875033b5e18f2b3e112fe", "fusion_lon": 0.0, "bike_id": "185ab0a3cd6875033b5e18f2b3e112fe", "is_disabled": 0, "is_reserved": 0}, {"rental_uris": {"ios": "https://dc.lft.to/lastmile_qr_scan", "android": "https://dc.lft.to/lastmile_qr_scan"}, "lon": -77.04006633333333, "type": "electric_scooter", "fusion_lat": 0.0, "lat": 38.9169655, "name": "edbef9575be71ba55c2ef82a59f670c9", "fusion_lon": 0.0, "bike_id": "edbef9575be71ba55c2ef82a59f670c9", "is_disabled": 0, "is_reserved": 0}, {"rental_uris": {"ios": "https://dc.lft.to/lastmile_qr_scan", "android": "https://dc.lft.to/lastmile_qr_scan"}, "lon": -77.032658, "type": "electric_scooter", "fusion_lat": 0.0, "lat": 38.93809516666666, "name": "8398fb641058058a7642302a91fe017f", "fusion_lon": 0.0, "bike_id": "8398fb641058058a7642302a91fe017f", "is_disabled": 0, "is_reserved": 0}, {"rental_uris": {"ios": "https://dc.lft.to/lastmile_qr_scan", "android": "https://dc.lft.to/lastmile_qr_scan"}, "lon": -77.00841616666666, "type": "electric_bike", "fusion_lat": 0.0, "lat": 38.9491835, "name": "e0e4799873c5c49d2e5de3c583532af0", "fusion_lon": 0.0, "bike_id": "e0e4799873c5c49d2e5de3c583532af0", "is_disabled": 0, "is_reserved": 0}, {"rental_uris": {"ios": "https://dc.lft.to/lastmile_qr_scan", "android": "https://dc.lft.to/lastmile_qr_scan"}, "lon": -77.04504633333333, "type": "electric_scooter", "fusion_lat": 0.0, "lat": 38.909553333333335, "name": "a51a3b4a1aeb5e95ba1a9fbf809f28d1", "fusion_lon": 0.0, "bike_id": "a51a3b4a1aeb5e95ba1a9fbf809f28d1", "is_disabled": 0, "is_reserved": 0}, {"rental_uris": {"ios": "https://dc.lft.to/lastmile_qr_scan", "android": "https://dc.lft.to/lastmile_qr_scan"}, "lon": -77.02845766666667, "type": "electric_scooter", "fusion_lat": 0.0, "lat": 38.9347325, "name": "bfa3cebfd9818f0a13cb917f632ed897", "fusion_lon": 0.0, "bike_id": "bfa3cebfd9818f0a13cb917f632ed897", "is_disabled": 0, "is_reserved": 0}, {"rental_uris": {"ios": "https://dc.lft.to/lastmile_qr_scan", "android": "https://dc.lft.to/lastmile_qr_scan"}, "lon": -77.03149766666667, "type": "electric_scooter", "fusion_lat": 0.0, "lat": 38.88302933333333, "name": "84ae73ea81f1b0806e6b9ef40896c8f3", "fusion_lon": 0.0, "bike_id": "84ae73ea81f1b0806e6b9ef40896c8f3", "is_disabled": 0, "is_reserved": 0}, {"rental_uris": {"ios": "https://dc.lft.to/lastmile_qr_scan", "android": "https://dc.lft.to/lastmile_qr_scan"}, "lon": -77.02428966666666, "type": "electric_scooter", "fusion_lat": 0.0, "lat": 38.92654016666667, "name": "a66f98c964dcd18dffa76548504c64e2", "fusion_lon": 0.0, "bike_id": "a66f98c964dcd18dffa76548504c64e2", "is_disabled": 0, "is_reserved": 0}, {"rental_uris": {"ios": "https://dc.lft.to/lastmile_qr_scan", "android": "https://dc.lft.to/lastmile_qr_scan"}, "lon": -77.02080566666666, "type": "electric_scooter", "fusion_lat": 0.0, "lat": 38.88487083333333, "name": "7704cbd0a008ea7aae2bbd7d5f095a2c", "fusion_lon": 0.0, "bike_id": "7704cbd0a008ea7aae2bbd7d5f095a2c", "is_disabled": 0, "is_reserved": 0}, {"rental_uris": {"ios": "https://dc.lft.to/lastmile_qr_scan", "android": "https://dc.lft.to/lastmile_qr_scan"}, "lon": -77.14123616666667, "type": "electric_bike", "fusion_lat": 0.0, "lat": 38.8160675, "name": "ed7ab79174a95aa736b530e2a3c11182", "fusion_lon": 0.0, "bike_id": "ed7ab79174a95aa736b530e2a3c11182", "is_disabled": 0, "is_reserved": 0}, {"rental_uris": {"ios": "https://dc.lft.to/lastmile_qr_scan", "android": "https://dc.lft.to/lastmile_qr_scan"}, "lon": -77.00407716666666, "type": "electric_scooter", "fusion_lat": 0.0, "lat": 38.8792395, "name": "6851f35baeea67f92fc1ecf6446c5aab", "fusion_lon": 0.0, "bike_id": "6851f35baeea67f92fc1ecf6446c5aab", "is_disabled": 0, "is_reserved": 0}, {"rental_uris": {"ios": "https://dc.lft.to/lastmile_qr_scan", "android": "https://dc.lft.to/lastmile_qr_scan"}, "lon": -76.99516483333333, "type": "electric_scooter", "fusion_lat": 0.0, "lat": 38.862573166666664, "name": "861afbaca73d2a3bc05d1732707d1b0f", "fusion_lon": 0.0, "bike_id": "861afbaca73d2a3bc05d1732707d1b0f", "is_disabled": 0, "is_reserved": 0}, {"rental_uris": {"ios": "https://dc.lft.to/lastmile_qr_scan", "android": "https://dc.lft.to/lastmile_qr_scan"}, "lon": -77.010942, "type": "electric_scooter", "fusion_lat": 0.0, "lat": 38.91631483333333, "name": "e1bb00f586ae0bc0f7a46a5df586505d", "fusion_lon": 0.0, "bike_id": "e1bb00f586ae0bc0f7a46a5df586505d", "is_disabled": 0, "is_reserved": 0}, {"rental_uris": {"ios": "https://dc.lft.to/lastmile_qr_scan", "android": "https://dc.lft.to/lastmile_qr_scan"}, "lon": -77.04355516666666, "type": "electric_scooter", "fusion_lat": 0.0, "lat": 38.9121905, "name": "e064d0ceffb42b1dc81741454c9c4488", "fusion_lon": 0.0, "bike_id": "e064d0ceffb42b1dc81741454c9c4488", "is_disabled": 0, "is_reserved": 0}, {"rental_uris": {"ios": "https://dc.lft.to/lastmile_qr_scan", "android": "https://dc.lft.to/lastmile_qr_scan"}, "lon": -77.03405333333333, "type": "electric_scooter", "fusion_lat": 0.0, "lat": 38.922656833333335, "name": "e85fac1ba79c57799ad9e7e23fe3e4ca", "fusion_lon": 0.0, "bike_id": "e85fac1ba79c57799ad9e7e23fe3e4ca", "is_disabled": 0, "is_reserved": 0}, {"rental_uris": {"ios": "https://dc.lft.to/lastmile_qr_scan", "android": "https://dc.lft.to/lastmile_qr_scan"}, "lon": -77.125061, "type": "electric_bike", "fusion_lat": 0.0, "lat": 39.0242545, "name": "105314f72086f3c0d2f6f9096d64eb43", "fusion_lon": 0.0, "bike_id": "105314f72086f3c0d2f6f9096d64eb43", "is_disabled": 0, "is_reserved": 0}, {"rental_uris": {"ios": "https://dc.lft.to/lastmile_qr_scan", "android": "https://dc.lft.to/lastmile_qr_scan"}, "lon": -77.05504933333333, "type": "electric_scooter", "fusion_lat": 0.0, "lat": 38.92970966666667, "name": "7a3b90c7d7808e5d236cc1cd120a5263", "fusion_lon": 0.0, "bike_id": "7a3b90c7d7808e5d236cc1cd120a5263", "is_disabled": 0, "is_reserved": 0}, {"rental_uris": {"ios": "https://dc.lft.to/lastmile_qr_scan", "android": "https://dc.lft.to/lastmile_qr_scan"}, "lon": -77.026966, "type": "electric_bike", "fusion_lat": 0.0, "lat": 38.91564066666667, "name": "8d89393aed5f9d48e01fa3a39457773a", "fusion_lon": 0.0, "bike_id": "8d89393aed5f9d48e01fa3a39457773a", "is_disabled": 0, "is_reserved": 0}, {"rental_uris": {"ios": "https://dc.lft.to/lastmile_qr_scan", "android": "https://dc.lft.to/lastmile_qr_scan"}, "lon": -77.04361616666667, "type": "electric_scooter", "fusion_lat": 0.0, "lat": 38.8967075, "name": "afbb18511427126fe79402d21c8d28d7", "fusion_lon": 0.0, "bike_id": "afbb18511427126fe79402d21c8d28d7", "is_disabled": 0, "is_reserved": 0}, {"rental_uris": {"ios": "https://dc.lft.to/lastmile_qr_scan", "android": "https://dc.lft.to/lastmile_qr_scan"}, "lon": -76.957614, "type": "electric_scooter", "fusion_lat": 0.0, "lat": 38.88433216666667, "name": "e62a037064741f59da23ee0a20091e68", "fusion_lon": 0.0, "bike_id": "e62a037064741f59da23ee0a20091e68", "is_disabled": 0, "is_reserved": 0}, {"rental_uris": {"ios": "https://dc.lft.to/lastmile_qr_scan", "android": "https://dc.lft.to/lastmile_qr_scan"}, "lon": -77.031688, "type": "electric_scooter", "fusion_lat": 0.0, "lat": 38.91407533333334, "name": "4fbf29a77ed7e39ac1127c9b9cdd6936", "fusion_lon": 0.0, "bike_id": "4fbf29a77ed7e39ac1127c9b9cdd6936", "is_disabled": 0, "is_reserved": 0}, {"rental_uris": {"ios": "https://dc.lft.to/lastmile_qr_scan", "android": "https://dc.lft.to/lastmile_qr_scan"}, "lon": -77.00806016666667, "type": "electric_scooter", "fusion_lat": 0.0, "lat": 38.90570016666667, "name": "ac4eef07c5019e3d6783ceff06db2618", "fusion_lon": 0.0, "bike_id": "ac4eef07c5019e3d6783ceff06db2618", "is_disabled": 0, "is_reserved": 0}, {"rental_uris": {"ios": "https://dc.lft.to/lastmile_qr_scan", "android": "https://dc.lft.to/lastmile_qr_scan"}, "lon": -76.94891116666666, "type": "electric_scooter", "fusion_lat": 0.0, "lat": 38.895357833333335, "name": "96a7557467e2542d733486f0fda4d1f9", "fusion_lon": 0.0, "bike_id": "96a7557467e2542d733486f0fda4d1f9", "is_disabled": 0, "is_reserved": 0}, {"rental_uris": {"ios": "https://dc.lft.to/lastmile_qr_scan", "android": "https://dc.lft.to/lastmile_qr_scan"}, "lon": -77.03438116666666, "type": "electric_scooter", "fusion_lat": 0.0, "lat": 38.9100175, "name": "431142de1275299c923aa2a4d07feecb", "fusion_lon": 0.0, "bike_id": "431142de1275299c923aa2a4d07feecb", "is_disabled": 0, "is_reserved": 0}, {"rental_uris": {"ios": "https://dc.lft.to/lastmile_qr_scan", "android": "https://dc.lft.to/lastmile_qr_scan"}, "lon": -77.02236816666667, "type": "electric_scooter", "fusion_lat": 0.0, "lat": 38.891978, "name": "9a85cc770eff0180faca62759729ffdc", "fusion_lon": 0.0, "bike_id": "9a85cc770eff0180faca62759729ffdc", "is_disabled": 0, "is_reserved": 0}, {"rental_uris": {"ios": "https://dc.lft.to/lastmile_qr_scan", "android": "https://dc.lft.to/lastmile_qr_scan"}, "lon": -77.02529716666666, "type": "electric_scooter", "fusion_lat": 0.0, "lat": 38.9430265, "name": "9276b02efbee2574e84cdc1f9733a110", "fusion_lon": 0.0, "bike_id": "9276b02efbee2574e84cdc1f9733a110", "is_disabled": 0, "is_reserved": 0}, {"rental_uris": {"ios": "https://dc.lft.to/lastmile_qr_scan", "android": "https://dc.lft.to/lastmile_qr_scan"}, "lon": -77.0200535, "type": "electric_scooter", "fusion_lat": 0.0, "lat": 38.91916833333333, "name": "a09bdcc8d05b46fa736f51f97af10b13", "fusion_lon": 0.0, "bike_id": "a09bdcc8d05b46fa736f51f97af10b13", "is_disabled": 0, "is_reserved": 0}, {"rental_uris": {"ios": "https://dc.lft.to/lastmile_qr_scan", "android": "https://dc.lft.to/lastmile_qr_scan"}, "lon": -77.02836616666667, "type": "electric_scooter", "fusion_lat": 0.0, "lat": 38.8964135, "name": "0a0eb0df1a4dd6d9db4d1f0b0b89245c", "fusion_lon": 0.0, "bike_id": "0a0eb0df1a4dd6d9db4d1f0b0b89245c", "is_disabled": 0, "is_reserved": 0}, {"rental_uris": {"ios": "https://dc.lft.to/lastmile_qr_scan", "android": "https://dc.lft.to/lastmile_qr_scan"}, "lon": -76.9947315, "type": "electric_scooter", "fusion_lat": 0.0, "lat": 38.8620865, "name": "4fa7727a77cf74cf064584bce2e68d64", "fusion_lon": 0.0, "bike_id": "4fa7727a77cf74cf064584bce2e68d64", "is_disabled": 0, "is_reserved": 0}, {"rental_uris": {"ios": "https://dc.lft.to/lastmile_qr_scan", "android": "https://dc.lft.to/lastmile_qr_scan"}, "lon": -77.0278715, "type": "electric_scooter", "fusion_lat": 0.0, "lat": 38.9169305, "name": "797ab697ee11b97de36d3b694ee54217", "fusion_lon": 0.0, "bike_id": "797ab697ee11b97de36d3b694ee54217", "is_disabled": 0, "is_reserved": 0}, {"rental_uris": {"ios": "https://dc.lft.to/lastmile_qr_scan", "android": "https://dc.lft.to/lastmile_qr_scan"}, "lon": -77.03640233333333, "type": "electric_scooter", "fusion_lat": 0.0, "lat": 38.90289966666667, "name": "55a0b30aafc4b1bf24c7642ca72eaacc", "fusion_lon": 0.0, "bike_id": "55a0b30aafc4b1bf24c7642ca72eaacc", "is_disabled": 0, "is_reserved": 0}, {"rental_uris": {"ios": "https://dc.lft.to/lastmile_qr_scan", "android": "https://dc.lft.to/lastmile_qr_scan"}, "lon": -76.95000116666667, "type": "electric_scooter", "fusion_lat": 0.0, "lat": 38.8937325, "name": "f572e9ea6cf110467bc3bb5bb1bd7d76", "fusion_lon": 0.0, "bike_id": "f572e9ea6cf110467bc3bb5bb1bd7d76", "is_disabled": 0, "is_reserved": 0}, {"rental_uris": {"ios": "https://dc.lft.to/lastmile_qr_scan", "android": "https://dc.lft.to/lastmile_qr_scan"}, "lon": -77.00704516666667, "type": "electric_scooter", "fusion_lat": 0.0, "lat": 38.905789, "name": "45f4aa3e99e1a7dd3bafe578fd5d4503", "fusion_lon": 0.0, "bike_id": "45f4aa3e99e1a7dd3bafe578fd5d4503", "is_disabled": 0, "is_reserved": 0}, {"rental_uris": {"ios": "https://dc.lft.to/lastmile_qr_scan", "android": "https://dc.lft.to/lastmile_qr_scan"}, "lon": -77.02379816666667, "type": "electric_scooter", "fusion_lat": 0.0, "lat": 38.9369485, "name": "a98abd8fe4910dcf0aece7be06ca9bc8", "fusion_lon": 0.0, "bike_id": "a98abd8fe4910dcf0aece7be06ca9bc8", "is_disabled": 0, "is_reserved": 0}, {"rental_uris": {"ios": "https://dc.lft.to/lastmile_qr_scan", "android": "https://dc.lft.to/lastmile_qr_scan"}, "lon": -77.063548, "type": "electric_scooter", "fusion_lat": 0.0, "lat": 38.94452833333333, "name": "ef993402fb3bdcf9db7797d087c37e2a", "fusion_lon": 0.0, "bike_id": "ef993402fb3bdcf9db7797d087c37e2a", "is_disabled": 0, "is_reserved": 0}, {"rental_uris": {"ios": "https://dc.lft.to/lastmile_qr_scan", "android": "https://dc.lft.to/lastmile_qr_scan"}, "lon": -77.110564, "type": "electric_bike", "fusion_lat": 0.0, "lat": 38.87075733333333, "name": "2a7312728461f153d053a77d910fd43c", "fusion_lon": 0.0, "bike_id": "2a7312728461f153d053a77d910fd43c", "is_disabled": 0, "is_reserved": 0}, {"rental_uris": {"ios": "https://dc.lft.to/lastmile_qr_scan", "android": "https://dc.lft.to/lastmile_qr_scan"}, "lon": -77.03181283333333, "type": "electric_scooter", "fusion_lat": 0.0, "lat": 38.9295995, "name": "110d835a64d29f1c14c76d9883320ac9", "fusion_lon": 0.0, "bike_id": "110d835a64d29f1c14c76d9883320ac9", "is_disabled": 0, "is_reserved": 0}, {"rental_uris": {"ios": "https://dc.lft.to/lastmile_qr_scan", "android": "https://dc.lft.to/lastmile_qr_scan"}, "lon": -76.99553533333334, "type": "electric_scooter", "fusion_lat": 0.0, "lat": 38.923154833333335, "name": "25dd59231c6b315bcd599c52e614fd46", "fusion_lon": 0.0, "bike_id": "25dd59231c6b315bcd599c52e614fd46", "is_disabled": 0, "is_reserved": 0}, {"rental_uris": {"ios": "https://dc.lft.to/lastmile_qr_scan", "android": "https://dc.lft.to/lastmile_qr_scan"}, "lon": -76.99000116666667, "type": "electric_scooter", "fusion_lat": 0.0, "lat": 38.8650655, "name": "bf18dd141528d90f0b7f8cf4bf1d51d2", "fusion_lon": 0.0, "bike_id": "bf18dd141528d90f0b7f8cf4bf1d51d2", "is_disabled": 0, "is_reserved": 0}, {"rental_uris": {"ios": "https://dc.lft.to/lastmile_qr_scan", "android": "https://dc.lft.to/lastmile_qr_scan"}, "lon": -76.99250066666667, "type": "electric_bike", "fusion_lat": 0.0, "lat": 38.9255015, "name": "acce7a97bf0144c53fb5520b7a9e3d4a", "fusion_lon": 0.0, "bike_id": "acce7a97bf0144c53fb5520b7a9e3d4a", "is_disabled": 0, "is_reserved": 0}, {"rental_uris": {"ios": "https://dc.lft.to/lastmile_qr_scan", "android": "https://dc.lft.to/lastmile_qr_scan"}, "lon": -77.08197833333334, "type": "electric_scooter", "fusion_lat": 0.0, "lat": 38.93323516666667, "name": "28ff777e7735f3cb05df1f7657743f82", "fusion_lon": 0.0, "bike_id": "28ff777e7735f3cb05df1f7657743f82", "is_disabled": 0, "is_reserved": 0}, {"rental_uris": {"ios": "https://dc.lft.to/lastmile_qr_scan", "android": "https://dc.lft.to/lastmile_qr_scan"}, "lon": -77.04040116666667, "type": "electric_scooter", "fusion_lat": 0.0, "lat": 38.92470633333333, "name": "e06f4b959ba00df05027f3465183f4cf", "fusion_lon": 0.0, "bike_id": "e06f4b959ba00df05027f3465183f4cf", "is_disabled": 0, "is_reserved": 0}, {"rental_uris": {"ios": "https://dc.lft.to/lastmile_qr_scan", "android": "https://dc.lft.to/lastmile_qr_scan"}, "lon": -76.98029283333334, "type": "electric_scooter", "fusion_lat": 0.0, "lat": 38.8876905, "name": "d93a5922415912909da3de992d23cc21", "fusion_lon": 0.0, "bike_id": "d93a5922415912909da3de992d23cc21", "is_disabled": 0, "is_reserved": 0}, {"rental_uris": {"ios": "https://dc.lft.to/lastmile_qr_scan", "android": "https://dc.lft.to/lastmile_qr_scan"}, "lon": -76.97280633333334, "type": "electric_bike", "fusion_lat": 0.0, "lat": 38.919748166666665, "name": "d38d9f46c7fbd0d5680e16943589bbd3", "fusion_lon": 0.0, "bike_id": "d38d9f46c7fbd0d5680e16943589bbd3", "is_disabled": 0, "is_reserved": 0}, {"rental_uris": {"ios": "https://dc.lft.to/lastmile_qr_scan", "android": "https://dc.lft.to/lastmile_qr_scan"}, "lon": -77.0175205, "type": "electric_scooter", "fusion_lat": 0.0, "lat": 38.8769505, "name": "c85853e5c1709bbfb8ffad08c4857c67", "fusion_lon": 0.0, "bike_id": "c85853e5c1709bbfb8ffad08c4857c67", "is_disabled": 0, "is_reserved": 0}, {"rental_uris": {"ios": "https://dc.lft.to/lastmile_qr_scan", "android": "https://dc.lft.to/lastmile_qr_scan"}, "lon": -77.02227916666666, "type": "electric_bike", "fusion_lat": 0.0, "lat": 38.956902, "name": "bbdc7e6e193a9379c32600f131164f70", "fusion_lon": 0.0, "bike_id": "bbdc7e6e193a9379c32600f131164f70", "is_disabled": 0, "is_reserved": 0}, {"rental_uris": {"ios": "https://dc.lft.to/lastmile_qr_scan", "android": "https://dc.lft.to/lastmile_qr_scan"}, "lon": -77.07210666666667, "type": "electric_scooter", "fusion_lat": 0.0, "lat": 38.93465883333333, "name": "ec1a52533c813beedd6a37f148fa5aea", "fusion_lon": 0.0, "bike_id": "ec1a52533c813beedd6a37f148fa5aea", "is_disabled": 0, "is_reserved": 0}, {"rental_uris": {"ios": "https://dc.lft.to/lastmile_qr_scan", "android": "https://dc.lft.to/lastmile_qr_scan"}, "lon": -77.0348235, "type": "electric_scooter", "fusion_lat": 0.0, "lat": 38.907815166666666, "name": "3030da5a4ab78facdba57dab71863137", "fusion_lon": 0.0, "bike_id": "3030da5a4ab78facdba57dab71863137", "is_disabled": 0, "is_reserved": 0}, {"rental_uris": {"ios": "https://dc.lft.to/lastmile_qr_scan", "android": "https://dc.lft.to/lastmile_qr_scan"}, "lon": -77.023899, "type": "electric_scooter", "fusion_lat": 0.0, "lat": 38.90186333333333, "name": "3c1e815e3739fd97202d67de94f2c8d3", "fusion_lon": 0.0, "bike_id": "3c1e815e3739fd97202d67de94f2c8d3", "is_disabled": 0, "is_reserved": 0}, {"rental_uris": {"ios": "https://dc.lft.to/lastmile_qr_scan", "android": "https://dc.lft.to/lastmile_qr_scan"}, "lon": -77.100928, "type": "electric_bike", "fusion_lat": 0.0, "lat": 38.9596195, "name": "f8f94b462d3e01285b1ffb5f7727bbc4", "fusion_lon": 0.0, "bike_id": "f8f94b462d3e01285b1ffb5f7727bbc4", "is_disabled": 0, "is_reserved": 0}, {"rental_uris": {"ios": "https://dc.lft.to/lastmile_qr_scan", "android": "https://dc.lft.to/lastmile_qr_scan"}, "lon": -76.987452, "type": "electric_bike", "fusion_lat": 0.0, "lat": 38.857928, "name": "3810443029d02bff70ebe23afe5c2c98", "fusion_lon": 0.0, "bike_id": "3810443029d02bff70ebe23afe5c2c98", "is_disabled": 0, "is_reserved": 0}, {"rental_uris": {"ios": "https://dc.lft.to/lastmile_qr_scan", "android": "https://dc.lft.to/lastmile_qr_scan"}, "lon": -77.01390166666667, "type": "electric_scooter", "fusion_lat": 0.0, "lat": 38.970151333333334, "name": "0214c9d2ce0ca1a0729c8c0e1b72db2a", "fusion_lon": 0.0, "bike_id": "0214c9d2ce0ca1a0729c8c0e1b72db2a", "is_disabled": 0, "is_reserved": 0}, {"rental_uris": {"ios": "https://dc.lft.to/lastmile_qr_scan", "android": "https://dc.lft.to/lastmile_qr_scan"}, "lon": -76.997939, "type": "electric_scooter", "fusion_lat": 0.0, "lat": 38.921802, "name": "aff2e5ab966ddabe1a9d35f7019d631e", "fusion_lon": 0.0, "bike_id": "aff2e5ab966ddabe1a9d35f7019d631e", "is_disabled": 0, "is_reserved": 0}, {"rental_uris": {"ios": "https://dc.lft.to/lastmile_qr_scan", "android": "https://dc.lft.to/lastmile_qr_scan"}, "lon": -76.978915, "type": "electric_scooter", "fusion_lat": 0.0, "lat": 38.90421883333333, "name": "aa2f21fcde213ef1539a3f85ea541ccb", "fusion_lon": 0.0, "bike_id": "aa2f21fcde213ef1539a3f85ea541ccb", "is_disabled": 0, "is_reserved": 0}, {"rental_uris": {"ios": "https://dc.lft.to/lastmile_qr_scan", "android": "https://dc.lft.to/lastmile_qr_scan"}, "lon": -77.024537, "type": "electric_scooter", "fusion_lat": 0.0, "lat": 38.90000333333333, "name": "7b301206a8d9d1e5fd33642ce798d6cf", "fusion_lon": 0.0, "bike_id": "7b301206a8d9d1e5fd33642ce798d6cf", "is_disabled": 0, "is_reserved": 0}, {"rental_uris": {"ios": "https://dc.lft.to/lastmile_qr_scan", "android": "https://dc.lft.to/lastmile_qr_scan"}, "lon": -77.04256366666667, "type": "electric_scooter", "fusion_lat": 0.0, "lat": 38.92214283333333, "name": "6119fe5762262468d191e4e53f4ac1b5", "fusion_lon": 0.0, "bike_id": "6119fe5762262468d191e4e53f4ac1b5", "is_disabled": 0, "is_reserved": 0}, {"rental_uris": {"ios": "https://dc.lft.to/lastmile_qr_scan", "android": "https://dc.lft.to/lastmile_qr_scan"}, "lon": -77.03190916666667, "type": "electric_scooter", "fusion_lat": 0.0, "lat": 38.897324833333336, "name": "9dc3c3f4c925cb466b9ebf500cc95a3a", "fusion_lon": 0.0, "bike_id": "9dc3c3f4c925cb466b9ebf500cc95a3a", "is_disabled": 0, "is_reserved": 0}, {"rental_uris": {"ios": "https://dc.lft.to/lastmile_qr_scan", "android": "https://dc.lft.to/lastmile_qr_scan"}, "lon": -76.985694, "type": "electric_scooter", "fusion_lat": 0.0, "lat": 38.89206883333333, "name": "df261f025bf37edf5b4ef4f0fe7d9245", "fusion_lon": 0.0, "bike_id": "df261f025bf37edf5b4ef4f0fe7d9245", "is_disabled": 0, "is_reserved": 0}, {"rental_uris": {"ios": "https://dc.lft.to/lastmile_qr_scan", "android": "https://dc.lft.to/lastmile_qr_scan"}, "lon": -77.02967233333334, "type": "electric_scooter", "fusion_lat": 0.0, "lat": 38.9169195, "name": "a3e5204b3b6ff485bd25090dd06de627", "fusion_lon": 0.0, "bike_id": "a3e5204b3b6ff485bd25090dd06de627", "is_disabled": 0, "is_reserved": 0}, {"rental_uris": {"ios": "https://dc.lft.to/lastmile_qr_scan", "android": "https://dc.lft.to/lastmile_qr_scan"}, "lon": -76.9849895, "type": "electric_scooter", "fusion_lat": 0.0, "lat": 38.86048683333333, "name": "976719f4f1e62781c8f1d16eeb374449", "fusion_lon": 0.0, "bike_id": "976719f4f1e62781c8f1d16eeb374449", "is_disabled": 0, "is_reserved": 0}, {"rental_uris": {"ios": "https://dc.lft.to/lastmile_qr_scan", "android": "https://dc.lft.to/lastmile_qr_scan"}, "lon": -77.04238466666666, "type": "electric_scooter", "fusion_lat": 0.0, "lat": 38.90614566666667, "name": "a09cbaf095ab55869d012f7a72b9ae7a", "fusion_lon": 0.0, "bike_id": "a09cbaf095ab55869d012f7a72b9ae7a", "is_disabled": 0, "is_reserved": 0}, {"rental_uris": {"ios": "https://dc.lft.to/lastmile_qr_scan", "android": "https://dc.lft.to/lastmile_qr_scan"}, "lon": -77.02721383333333, "type": "electric_bike", "fusion_lat": 0.0, "lat": 38.89495483333334, "name": "331e1f99097ce7ca77a26372e860a2b5", "fusion_lon": 0.0, "bike_id": "331e1f99097ce7ca77a26372e860a2b5", "is_disabled": 0, "is_reserved": 0}, {"rental_uris": {"ios": "https://dc.lft.to/lastmile_qr_scan", "android": "https://dc.lft.to/lastmile_qr_scan"}, "lon": -77.06349083333333, "type": "electric_scooter", "fusion_lat": 0.0, "lat": 38.944538, "name": "ec13318f755ea48f1185e730ff0501cb", "fusion_lon": 0.0, "bike_id": "ec13318f755ea48f1185e730ff0501cb", "is_disabled": 0, "is_reserved": 0}, {"rental_uris": {"ios": "https://dc.lft.to/lastmile_qr_scan", "android": "https://dc.lft.to/lastmile_qr_scan"}, "lon": -76.99601533333333, "type": "electric_scooter", "fusion_lat": 0.0, "lat": 38.845488, "name": "2d300a49a5ab39a3417fc0528cbb5a03", "fusion_lon": 0.0, "bike_id": "2d300a49a5ab39a3417fc0528cbb5a03", "is_disabled": 0, "is_reserved": 0}, {"rental_uris": {"ios": "https://dc.lft.to/lastmile_qr_scan", "android": "https://dc.lft.to/lastmile_qr_scan"}, "lon": -76.92993666666666, "type": "electric_bike", "fusion_lat": 0.0, "lat": 38.88797533333333, "name": "e216b7ff5894da6f668f42325dac0499", "fusion_lon": 0.0, "bike_id": "e216b7ff5894da6f668f42325dac0499", "is_disabled": 0, "is_reserved": 0}, {"rental_uris": {"ios": "https://dc.lft.to/lastmile_qr_scan", "android": "https://dc.lft.to/lastmile_qr_scan"}, "lon": -77.02008233333333, "type": "electric_scooter", "fusion_lat": 0.0, "lat": 38.885922, "name": "ee37acfb37538d929de277bb20196a51", "fusion_lon": 0.0, "bike_id": "ee37acfb37538d929de277bb20196a51", "is_disabled": 0, "is_reserved": 0}, {"rental_uris": {"ios": "https://dc.lft.to/lastmile_qr_scan", "android": "https://dc.lft.to/lastmile_qr_scan"}, "lon": -77.07811166666667, "type": "electric_scooter", "fusion_lat": 0.0, "lat": 38.94072283333333, "name": "969a98b5d236d7380826f5daa9875722", "fusion_lon": 0.0, "bike_id": "969a98b5d236d7380826f5daa9875722", "is_disabled": 0, "is_reserved": 0}, {"rental_uris": {"ios": "https://dc.lft.to/lastmile_qr_scan", "android": "https://dc.lft.to/lastmile_qr_scan"},