{"data": {"bikes": [{"lat": 38.882453, "is_disabled": 0, "type": "electric_bike", "lon": -76.96260266666667, "bike_id": "c81970a9fd357f2aa88e9fa9c6b1d42b", "fusion_lat": 0.0, "name": "c81970a9fd357f2aa88e9fa9c6b1d42b", "is_reserved": 0, "rental_uris": {"android": "https://dc.lft.to/lastmile_qr_scan", "ios": "https://dc.lft.to/lastmile_qr_scan"}, "fusion_lon": 0.0}, {"lat": 38.8706855, "is_disabled": 0, "type": "electric_bike", "lon": -76.97836766666667, "bike_id": "365dd69c63faf365d01bc37d2d93b63f", "fusion_lat": 0.0, "name": "365dd69c63faf365d01bc37d2d93b63f", "is_reserved": 0, "rental_uris": {"android": "https://dc.lft.to/lastmile_qr_scan", "ios": "https://dc.lft.to/lastmile_qr_scan"}, "fusion_lon": 0.0}, {"lat": 38.900409833333335, "is_disabled": 0, "type": "electric_scooter", "lon": -77.03318533333334, "bike_id": "fda9f8645461399dfd4961333011a041", "fusion_lat": 0.0, "name": "fda9f8645461399dfd4961333011a041", "is_reserved": 0, "rental_uris": {"android": "https://dc.lft.to/lastmile_qr_scan", "ios": "https://dc.lft.to/lastmile_qr_scan"}, "fusion_lon": 0.0}, {"lat": 38.906769833333335, "is_disabled": 0, "type": "electric_scooter", "lon": -77.03800233333334, "bike_id": "36f07db326c84b8ad0d3cb7c5bb6fe01", "fusion_lat": 0.0, "name": "36f07db326c84b8ad0d3cb7c5bb6fe01", "is_reserved": 0, "rental_uris": {"android": "https://dc.lft.to/lastmile_qr_scan", "ios": "https://dc.lft.to/lastmile_qr_scan"}, "fusion_lon": 0.0}, {"lat": 38.89220533333334, "is_disabled": 0, "type": "electric_scooter", "lon": -77.02210133333334, "bike_id": "fd881e7593cbe63c39bbd4214e87dd9f", "fusion_lat": 0.0, "name": "fd881e7593cbe63c39bbd4214e87dd9f", "is_reserved": 0, "rental_uris": {"android": "https://dc.lft.to/lastmile_qr_scan", "ios": "https://dc.lft.to/lastmile_qr_scan"}, "fusion_lon": 0.0}, {"lat": 38.8903345, "is_disabled": 0, "type": "electric_scooter", "lon": -76.9375055, "bike_id": "b7af4289b26d79fc3ce0d9bdfa04e180", "fusion_lat": 0.0, "name": "b7af4289b26d79fc3ce0d9bdfa04e180", "is_reserved": 0, "rental_uris": {"android": "https://dc.lft.to/lastmile_qr_scan", "ios": "https://dc.lft.to/lastmile_qr_scan"}, "fusion_lon": 0.0}, {"lat": 38.914600666666665, "is_disabled": 0, "type": "electric_scooter", "lon": -77.01429733333333, "bike_id": "ea7e84f62121dfc7a631d15e9db92878", "fusion_lat": 0.0, "name": "ea7e84f62121dfc7a631d15e9db92878", "is_reserved": 0, "rental_uris": {"android": "https://dc.lft.to/lastmile_qr_scan", "ios": "https://dc.lft.to/lastmile_qr_scan"}, "fusion_lon": 0.0}, {"lat": 38.914461333333335, "is_disabled": 0, "type": "electric_bike", "lon": -76.97224483333333, "bike_id": "d868effa4463eb524d706b7cc4bc4785", "fusion_lat": 0.0, "name": "d868effa4463eb524d706b7cc4bc4785", "is_reserved": 0, "rental_uris": {"android": "https://dc.lft.to/lastmile_qr_scan", "ios": "https://dc.lft.to/lastmile_qr_scan"}, "fusion_lon": 0.0}, {"lat": 38.9057655, "is_disabled": 0, "type": "electric_scooter", "lon": -77.02692933333333, "bike_id": "273cb6711416a35ec90b6e78c8bbecbf", "fusion_lat": 0.0, "name": "273cb6711416a35ec90b6e78c8bbecbf", "is_reserved": 0, "rental_uris": {"android": "https://dc.lft.to/lastmile_qr_scan", "ios": "https://dc.lft.to/lastmile_qr_scan"}, "fusion_lon": 0.0}, {"lat": 38.8839635, "is_disabled": 0, "type": "electric_scooter", "lon": -76.9855535, "bike_id": "0bfc75d22dd3ec8827c35b77429ac9e0", "fusion_lat": 0.0, "name": "0bfc75d22dd3ec8827c35b77429ac9e0", "is_reserved": 0, "rental_uris": {"android": "https://dc.lft.to/lastmile_qr_scan", "ios": "https://dc.lft.to/lastmile_qr_scan"}, "fusion_lon": 0.0}, {"lat": 38.92879966666667, "is_disabled": 0, "type": "electric_scooter", "lon": -77.037108, "bike_id": "f35337e4d2898de3876b217abf9db10a", "fusion_lat": 0.0, "name": "f35337e4d2898de3876b217abf9db10a", "is_reserved": 0, "rental_uris": {"android": "https://dc.lft.to/lastmile_qr_scan", "ios": "https://dc.lft.to/lastmile_qr_scan"}, "fusion_lon": 0.0}, {"lat": 38.926023666666666, "is_disabled": 0, "type": "electric_scooter", "lon": -77.0215905, "bike_id": "35f1783bbc0548317ff18e2b09f4956f", "fusion_lat": 0.0, "name": "35f1783bbc0548317ff18e2b09f4956f", "is_reserved": 0, "rental_uris": {"android": "https://dc.lft.to/lastmile_qr_scan", "ios": "https://dc.lft.to/lastmile_qr_scan"}, "fusion_lon": 0.0}, {"lat": 38.896191, "is_disabled": 0, "type": "electric_scooter", "lon": -77.03166483333334, "bike_id": "2fd3cdf4d49991ae053b674ceed57b2f", "fusion_lat": 0.0, "name": "2fd3cdf4d49991ae053b674ceed57b2f", "is_reserved": 0, "rental_uris": {"android": "https://dc.lft.to/lastmile_qr_scan", "ios": "https://dc.lft.to/lastmile_qr_scan"}, "fusion_lon": 0.0}, {"lat": 38.96607233333334, "is_disabled": 0, "type": "electric_scooter", "lon": -77.02052766666667, "bike_id": "db12644eab8a86885f277fc694538713", "fusion_lat": 0.0, "name": "db12644eab8a86885f277fc694538713", "is_reserved": 0, "rental_uris": {"android": "https://dc.lft.to/lastmile_qr_scan", "ios": "https://dc.lft.to/lastmile_qr_scan"}, "fusion_lon": 0.0}, {"lat": 38.903178, "is_disabled": 0, "type": "electric_scooter", "lon": -77.01176716666667, "bike_id": "3717a9a89a896ee19973a625a381264d", "fusion_lat": 0.0, "name": "3717a9a89a896ee19973a625a381264d", "is_reserved": 0, "rental_uris": {"android": "https://dc.lft.to/lastmile_qr_scan", "ios": "https://dc.lft.to/lastmile_qr_scan"}, "fusion_lon": 0.0}, {"lat": 38.906391, "is_disabled": 0, "type": "electric_scooter", "lon": -77.00600183333333, "bike_id": "4167101749c8c315e55727d20b8c378e", "fusion_lat": 0.0, "name": "4167101749c8c315e55727d20b8c378e", "is_reserved": 0, "rental_uris": {"android": "https://dc.lft.to/lastmile_qr_scan", "ios": "https://dc.lft.to/lastmile_qr_scan"}, "fusion_lon": 0.0}, {"lat": 38.90387116666667, "is_disabled": 0, "type": "electric_scooter", "lon": -77.02595466666666, "bike_id": "f13b5d5ac03409528f77dbb02163b852", "fusion_lat": 0.0, "name": "f13b5d5ac03409528f77dbb02163b852", "is_reserved": 0, "rental_uris": {"android": "https://dc.lft.to/lastmile_qr_scan", "ios": "https://dc.lft.to/lastmile_qr_scan"}, "fusion_lon": 0.0}, {"lat": 38.9315, "is_disabled": 0, "type": "electric_scooter", "lon": -77.03834333333333, "bike_id": "c1cafd1cc4016543503353013fbfa91c", "fusion_lat": 0.0, "name": "c1cafd1cc4016543503353013fbfa91c", "is_reserved": 0, "rental_uris": {"android": "https://dc.lft.to/lastmile_qr_scan", "ios": "https://dc.lft.to/lastmile_qr_scan"}, "fusion_lon": 0.0}, {"lat": 38.921995333333335, "is_disabled": 0, "type": "electric_scooter", "lon": -77.04252766666667, "bike_id": "c44733452d2b0db0d5088b7fe942d860", "fusion_lat": 0.0, "name": "c44733452d2b0db0d5088b7fe942d860", "is_reserved": 0, "rental_uris": {"android": "https://dc.lft.to/lastmile_qr_scan", "ios": "https://dc.lft.to/lastmile_qr_scan"}, "fusion_lon": 0.0}, {"lat": 38.893581, "is_disabled": 0, "type": "electric_scooter", "lon": -77.02207283333334, "bike_id": "2beb76974fc48fd5908935bcf53d974e", "fusion_lat": 0.0, "name": "2beb76974fc48fd5908935bcf53d974e", "is_reserved": 0, "rental_uris": {"android": "https://dc.lft.to/lastmile_qr_scan", "ios": "https://dc.lft.to/lastmile_qr_scan"}, "fusion_lon": 0.0}, {"lat": 38.86108866666667, "is_disabled": 0, "type": "electric_scooter", "lon": -76.98883216666667, "bike_id": "6d51cf07bd1cd6cefdace700f2485d21", "fusion_lat": 0.0, "name": "6d51cf07bd1cd6cefdace700f2485d21", "is_reserved": 0, "rental_uris": {"android": "https://dc.lft.to/lastmile_qr_scan", "ios": "https://dc.lft.to/lastmile_qr_scan"}, "fusion_lon": 0.0}, {"lat": 38.915631833333336, "is_disabled": 0, "type": "electric_scooter", "lon": -77.03146033333333, "bike_id": "f9257a41b163e4b481d0ef88f58ee0df", "fusion_lat": 0.0, "name": "f9257a41b163e4b481d0ef88f58ee0df", "is_reserved": 0, "rental_uris": {"android": "https://dc.lft.to/lastmile_qr_scan", "ios": "https://dc.lft.to/lastmile_qr_scan"}, "fusion_lon": 0.0}, {"lat": 38.9374265, "is_disabled": 0, "type": "electric_scooter", "lon": -77.03450183333334, "bike_id": "628bf7e871c2f1c2d4769fd90c1983a8", "fusion_lat": 0.0, "name": "628bf7e871c2f1c2d4769fd90c1983a8", "is_reserved": 0, "rental_uris": {"android": "https://dc.lft.to/lastmile_qr_scan", "ios": "https://dc.lft.to/lastmile_qr_scan"}, "fusion_lon": 0.0}, {"lat": 38.8961905, "is_disabled": 0, "type": "electric_scooter", "lon": -77.04485933333333, "bike_id": "8e56fca5931187633f0eb3f4354d0df9", "fusion_lat": 0.0, "name": "8e56fca5931187633f0eb3f4354d0df9", "is_reserved": 0, "rental_uris": {"android": "https://dc.lft.to/lastmile_qr_scan", "ios": "https://dc.lft.to/lastmile_qr_scan"}, "fusion_lon": 0.0}, {"lat": 38.92876733333333, "is_disabled": 0, "type": "electric_bike", "lon": -77.0124765, "bike_id": "f1dcb018cd6219a701e1f60b10bb7a1e", "fusion_lat": 0.0, "name": "f1dcb018cd6219a701e1f60b10bb7a1e", "is_reserved": 0, "rental_uris": {"android": "https://dc.lft.to/lastmile_qr_scan", "ios": "https://dc.lft.to/lastmile_qr_scan"}, "fusion_lon": 0.0}, {"lat": 38.91709216666667, "is_disabled": 0, "type": "electric_scooter", "lon": -77.03339333333334, "bike_id": "edaf7e5b7ee3405031cf10080ee05ae1", "fusion_lat": 0.0, "name": "edaf7e5b7ee3405031cf10080ee05ae1", "is_reserved": 0, "rental_uris": {"android": "https://dc.lft.to/lastmile_qr_scan", "ios": "https://dc.lft.to/lastmile_qr_scan"}, "fusion_lon": 0.0}, {"lat": 38.90679933333333, "is_disabled": 0, "type": "electric_scooter", "lon": -77.02697983333333, "bike_id": "30af6127f17f76a399fb5251a6bd9318", "fusion_lat": 0.0, "name": "30af6127f17f76a399fb5251a6bd9318", "is_reserved": 0, "rental_uris": {"android": "https://dc.lft.to/lastmile_qr_scan", "ios": "https://dc.lft.to/lastmile_qr_scan"}, "fusion_lon": 0.0}, {"lat": 38.9444135, "is_disabled": 0, "type": "electric_scooter", "lon": -77.06237816666666, "bike_id": "761f74ac8080a8ab06004a5f307d49a9", "fusion_lat": 0.0, "name": "761f74ac8080a8ab06004a5f307d49a9", "is_reserved": 0, "rental_uris": {"android": "https://dc.lft.to/lastmile_qr_scan", "ios": "https://dc.lft.to/lastmile_qr_scan"}, "fusion_lon": 0.0}, {"lat": 38.8949845, "is_disabled": 0, "type": "electric_scooter", "lon": -77.002087, "bike_id": "6536c1a7ab0b2472f0e2a659ca939bac", "fusion_lat": 0.0, "name": "6536c1a7ab0b2472f0e2a659ca939bac", "is_reserved": 0, "rental_uris": {"android": "https://dc.lft.to/lastmile_qr_scan", "ios": "https://dc.lft.to/lastmile_qr_scan"}, "fusion_lon": 0.0}, {"lat": 38.909512166666666, "is_disabled": 0, "type": "electric_scooter", "lon": -77.03446466666666, "bike_id": "2b3d6292c72e99f71f1c10d4a6e83221", "fusion_lat": 0.0, "name": "2b3d6292c72e99f71f1c10d4a6e83221", "is_reserved": 0, "rental_uris": {"android": "https://dc.lft.to/lastmile_qr_scan", "ios": "https://dc.lft.to/lastmile_qr_scan"}, "fusion_lon": 0.0}, {"lat": 38.907525166666666, "is_disabled": 0, "type": "electric_scooter", "lon": -76.9990655, "bike_id": "b8bd6fa1ca31ad9a2e0fab77de452804", "fusion_lat": 0.0, "name": "b8bd6fa1ca31ad9a2e0fab77de452804", "is_reserved": 0, "rental_uris": {"android": "https://dc.lft.to/lastmile_qr_scan", "ios": "https://dc.lft.to/lastmile_qr_scan"}, "fusion_lon": 0.0}, {"lat": 38.909566166666664, "is_disabled": 0, "type": "electric_scooter", "lon": -77.03255633333333, "bike_id": "b2ce48301e68cd00fda1796e82dac506", "fusion_lat": 0.0, "name": "b2ce48301e68cd00fda1796e82dac506", "is_reserved": 0, "rental_uris": {"android": "https://dc.lft.to/lastmile_qr_scan", "ios": "https://dc.lft.to/lastmile_qr_scan"}, "fusion_lon": 0.0}, {"lat": 38.912937166666666, "is_disabled": 0, "type": "electric_scooter", "lon": -77.00660666666667, "bike_id": "798c0603d441b225650c46f2803bf5fa", "fusion_lat": 0.0, "name": "798c0603d441b225650c46f2803bf5fa", "is_reserved": 0, "rental_uris": {"android": "https://dc.lft.to/lastmile_qr_scan", "ios": "https://dc.lft.to/lastmile_qr_scan"}, "fusion_lon": 0.0}, {"lat": 38.9057265, "is_disabled": 0, "type": "electric_scooter", "lon": -77.02694383333333, "bike_id": "cd53022dec57c20199b7f3eb73c2cbc5", "fusion_lat": 0.0, "name": "cd53022dec57c20199b7f3eb73c2cbc5", "is_reserved": 0, "rental_uris": {"android": "https://dc.lft.to/lastmile_qr_scan", "ios": "https://dc.lft.to/lastmile_qr_scan"}, "fusion_lon": 0.0}, {"lat": 38.90220766666667, "is_disabled": 0, "type": "electric_scooter", "lon": -77.05915866666666, "bike_id": "a312420b80c7eb139670de164d281059", "fusion_lat": 0.0, "name": "a312420b80c7eb139670de164d281059", "is_reserved": 0, "rental_uris": {"android": "https://dc.lft.to/lastmile_qr_scan", "ios": "https://dc.lft.to/lastmile_qr_scan"}, "fusion_lon": 0.0}, {"lat": 38.900900666666665, "is_disabled": 0, "type": "electric_scooter", "lon": -77.05598516666667, "bike_id": "03887d13b245bfc74100f25199f1dac9", "fusion_lat": 0.0, "name": "03887d13b245bfc74100f25199f1dac9", "is_reserved": 0, "rental_uris": {"android": "https://dc.lft.to/lastmile_qr_scan", "ios": "https://dc.lft.to/lastmile_qr_scan"}, "fusion_lon": 0.0}, {"lat": 38.91568566666667, "is_disabled": 0, "type": "electric_scooter", "lon": -77.022866, "bike_id": "33324925cc504f72926b98493be68422", "fusion_lat": 0.0, "name": "33324925cc504f72926b98493be68422", "is_reserved": 0, "rental_uris": {"android": "https://dc.lft.to/lastmile_qr_scan", "ios": "https://dc.lft.to/lastmile_qr_scan"}, "fusion_lon": 0.0}, {"lat": 38.865085, "is_disabled": 0, "type": "electric_scooter", "lon": -76.99005116666666, "bike_id": "23e0ca770accc027a999a40864b27bcb", "fusion_lat": 0.0, "name": "23e0ca770accc027a999a40864b27bcb", "is_reserved": 0, "rental_uris": {"android": "https://dc.lft.to/lastmile_qr_scan", "ios": "https://dc.lft.to/lastmile_qr_scan"}, "fusion_lon": 0.0}, {"lat": 38.90017616666667, "is_disabled": 0, "type": "electric_scooter", "lon": -77.00689383333334, "bike_id": "83cf7b58ef6139e29680598a7819cebd", "fusion_lat": 0.0, "name": "83cf7b58ef6139e29680598a7819cebd", "is_reserved": 0, "rental_uris": {"android": "https://dc.lft.to/lastmile_qr_scan", "ios": "https://dc.lft.to/lastmile_qr_scan"}, "fusion_lon": 0.0}, {"lat": 38.90335066666667, "is_disabled": 0, "type": "electric_scooter", "lon": -77.02609466666667, "bike_id": "ba847f3d7f612f686647d802685e09fa", "fusion_lat": 0.0, "name": "ba847f3d7f612f686647d802685e09fa", "is_reserved": 0, "rental_uris": {"android": "https://dc.lft.to/lastmile_qr_scan", "ios": "https://dc.lft.to/lastmile_qr_scan"}, "fusion_lon": 0.0}, {"lat": 38.892223333333334, "is_disabled": 0, "type": "electric_scooter", "lon": -77.02213, "bike_id": "60ca12692437fb4a4279389125ba26be", "fusion_lat": 0.0, "name": "60ca12692437fb4a4279389125ba26be", "is_reserved": 0, "rental_uris": {"android": "https://dc.lft.to/lastmile_qr_scan", "ios": "https://dc.lft.to/lastmile_qr_scan"}, "fusion_lon": 0.0}, {"lat": 38.9417735, "is_disabled": 0, "type": "electric_scooter", "lon": -77.02502033333333, "bike_id": "c9684cf227a8fa7706cd2826203ddf6e", "fusion_lat": 0.0, "name": "c9684cf227a8fa7706cd2826203ddf6e", "is_reserved": 0, "rental_uris": {"android": "https://dc.lft.to/lastmile_qr_scan", "ios": "https://dc.lft.to/lastmile_qr_scan"}, "fusion_lon": 0.0}, {"lat": 38.913659333333335, "is_disabled": 0, "type": "electric_scooter", "lon": -77.03355733333333, "bike_id": "e3e2db9b000f299e6670e123465e67ca", "fusion_lat": 0.0, "name": "e3e2db9b000f299e6670e123465e67ca", "is_reserved": 0, "rental_uris": {"android": "https://dc.lft.to/lastmile_qr_scan", "ios": "https://dc.lft.to/lastmile_qr_scan"}, "fusion_lon": 0.0}, {"lat": 38.8922625, "is_disabled": 0, "type": "electric_scooter", "lon": -76.93300383333333, "bike_id": "ea2dfdf04103124868146f4dddd0af7b", "fusion_lat": 0.0, "name": "ea2dfdf04103124868146f4dddd0af7b", "is_reserved": 0, "rental_uris": {"android": "https://dc.lft.to/lastmile_qr_scan", "ios": "https://dc.lft.to/lastmile_qr_scan"}, "fusion_lon": 0.0}, {"lat": 38.904968833333335, "is_disabled": 0, "type": "electric_scooter", "lon": -77.0487625, "bike_id": "bffddf1316f611ab50d2562de2baa469", "fusion_lat": 0.0, "name": "bffddf1316f611ab50d2562de2baa469", "is_reserved": 0, "rental_uris": {"android": "https://dc.lft.to/lastmile_qr_scan", "ios": "https://dc.lft.to/lastmile_qr_scan"}, "fusion_lon": 0.0}, {"lat": 38.90544366666666, "is_disabled": 0, "type": "electric_scooter", "lon": -77.03984883333334, "bike_id": "c9a49272d6d3c8a82b4a20b9ade6667a", "fusion_lat": 0.0, "name": "c9a49272d6d3c8a82b4a20b9ade6667a", "is_reserved": 0, "rental_uris": {"android": "https://dc.lft.to/lastmile_qr_scan", "ios": "https://dc.lft.to/lastmile_qr_scan"}, "fusion_lon": 0.0}, {"lat": 38.892873, "is_disabled": 0, "type": "electric_scooter", "lon": -76.958505, "bike_id": "8751a74b2ba5e003b90446c018feeeeb", "fusion_lat": 0.0, "name": "8751a74b2ba5e003b90446c018feeeeb", "is_reserved": 0, "rental_uris": {"android": "https://dc.lft.to/lastmile_qr_scan", "ios": "https://dc.lft.to/lastmile_qr_scan"}, "fusion_lon": 0.0}, {"lat": 38.909685333333336, "is_disabled": 0, "type": "electric_scooter", "lon": -76.99603866666666, "bike_id": "97a2342d337a68c4150f7bea4ed0e603", "fusion_lat": 0.0, "name": "97a2342d337a68c4150f7bea4ed0e603", "is_reserved": 0, "rental_uris": {"android": "https://dc.lft.to/lastmile_qr_scan", "ios": "https://dc.lft.to/lastmile_qr_scan"}, "fusion_lon": 0.0}, {"lat": 38.929531833333336, "is_disabled": 0, "type": "electric_scooter", "lon": -76.99090016666666, "bike_id": "23f350737f448daf878d215f947baeef", "fusion_lat": 0.0, "name": "23f350737f448daf878d215f947baeef", "is_reserved": 0, "rental_uris": {"android": "https://dc.lft.to/lastmile_qr_scan", "ios": "https://dc.lft.to/lastmile_qr_scan"}, "fusion_lon": 0.0}, {"lat": 38.88717616666667, "is_disabled": 0, "type": "electric_scooter", "lon": -76.99613066666667, "bike_id": "b5886c6ded0e3d98ba092eaf6f601c16", "fusion_lat": 0.0, "name": "b5886c6ded0e3d98ba092eaf6f601c16", "is_reserved": 0, "rental_uris": {"android": "https://dc.lft.to/lastmile_qr_scan", "ios": "https://dc.lft.to/lastmile_qr_scan"}, "fusion_lon": 0.0}, {"lat": 38.910988333333336, "is_disabled": 0, "type": "electric_scooter", "lon": -77.03206816666666, "bike_id": "5c5a21a807392dd578887b83600c5993", "fusion_lat": 0.0, "name": "5c5a21a807392dd578887b83600c5993", "is_reserved": 0, "rental_uris": {"android": "https://dc.lft.to/lastmile_qr_scan", "ios": "https://dc.lft.to/lastmile_qr_scan"}, "fusion_lon": 0.0}, {"lat": 38.898434, "is_disabled": 0, "type": "electric_scooter", "lon": -76.94633416666667, "bike_id": "8eef9b50c994e9aa4620885151ce449f", "fusion_lat": 0.0, "name": "8eef9b50c994e9aa4620885151ce449f", "is_reserved": 0, "rental_uris": {"android": "https://dc.lft.to/lastmile_qr_scan", "ios": "https://dc.lft.to/lastmile_qr_scan"}, "fusion_lon": 0.0}, {"lat": 38.89993666666667, "is_disabled": 0, "type": "electric_scooter", "lon": -76.99957183333333, "bike_id": "c5a9fd11c67d5683f440c9ed98dd0667", "fusion_lat": 0.0, "name": "c5a9fd11c67d5683f440c9ed98dd0667", "is_reserved": 0, "rental_uris": {"android": "https://dc.lft.to/lastmile_qr_scan", "ios": "https://dc.lft.to/lastmile_qr_scan"}, "fusion_lon": 0.0}, {"lat": 38.919968833333336, "is_disabled": 0, "type": "electric_scooter", "lon": -77.03221766666667, "bike_id": "d3a90cefd1dd665f9af14198174431fa", "fusion_lat": 0.0, "name": "d3a90cefd1dd665f9af14198174431fa", "is_reserved": 0, "rental_uris": {"android": "https://dc.lft.to/lastmile_qr_scan", "ios": "https://dc.lft.to/lastmile_qr_scan"}, "fusion_lon": 0.0}, {"lat": 38.915436666666665, "is_disabled": 0, "type": "electric_scooter", "lon": -77.07420816666666, "bike_id": "5ba8a24f002f267d4694d5f0fe17c662", "fusion_lat": 0.0, "name": "5ba8a24f002f267d4694d5f0fe17c662", "is_reserved": 0, "rental_uris": {"android": "https://dc.lft.to/lastmile_qr_scan", "ios": "https://dc.lft.to/lastmile_qr_scan"}, "fusion_lon": 0.0}, {"lat": 38.90675866666667, "is_disabled": 0, "type": "electric_scooter", "lon": -77.027128, "bike_id": "cd849f648c281111e6423be925622a98", "fusion_lat": 0.0, "name": "cd849f648c281111e6423be925622a98", "is_reserved": 0, "rental_uris": {"android": "https://dc.lft.to/lastmile_qr_scan", "ios": "https://dc.lft.to/lastmile_qr_scan"}, "fusion_lon": 0.0}, {"lat": 38.90979433333333, "is_disabled": 0, "type": "electric_scooter", "lon": -77.02181466666667, "bike_id": "6bb1eca0688fb630e1cc240a5d1ed90c", "fusion_lat": 0.0, "name": "6bb1eca0688fb630e1cc240a5d1ed90c", "is_reserved": 0, "rental_uris": {"android": "https://dc.lft.to/lastmile_qr_scan", "ios": "https://dc.lft.to/lastmile_qr_scan"}, "fusion_lon": 0.0}, {"lat": 38.98273566666667, "is_disabled": 0, "type": "electric_bike", "lon": -77.01770933333333, "bike_id": "c8def8e3610da7bc0ba62206055e7323", "fusion_lat": 0.0, "name": "c8def8e3610da7bc0ba62206055e7323", "is_reserved": 0, "rental_uris": {"android": "https://dc.lft.to/lastmile_qr_scan", "ios": "https://dc.lft.to/lastmile_qr_scan"}, "fusion_lon": 0.0}, {"lat": 38.9662965, "is_disabled": 0, "type": "electric_scooter", "lon": -77.0199945, "bike_id": "fd25497230738445a0c20e4c8ac5f8bd", "fusion_lat": 0.0, "name": "fd25497230738445a0c20e4c8ac5f8bd", "is_reserved": 0, "rental_uris": {"android": "https://dc.lft.to/lastmile_qr_scan", "ios": "https://dc.lft.to/lastmile_qr_scan"}, "fusion_lon": 0.0}, {"lat": 38.89454766666667, "is_disabled": 0, "type": "electric_scooter", "lon": -76.97804533333333, "bike_id": "5eac492025255fffd54ecd02bc93b62a", "fusion_lat": 0.0, "name": "5eac492025255fffd54ecd02bc93b62a", "is_reserved": 0, "rental_uris": {"android": "https://dc.lft.to/lastmile_qr_scan", "ios": "https://dc.lft.to/lastmile_qr_scan"}, "fusion_lon": 0.0}, {"lat": 38.916668666666666, "is_disabled": 0, "type": "electric_scooter", "lon": -77.02280316666666, "bike_id": "edea12ef999edf3392cf00bcea896cf5", "fusion_lat": 0.0, "name": "edea12ef999edf3392cf00bcea896cf5", "is_reserved": 0, "rental_uris": {"android": "https://dc.lft.to/lastmile_qr_scan", "ios": "https://dc.lft.to/lastmile_qr_scan"}, "fusion_lon": 0.0}, {"lat": 38.958817, "is_disabled": 0, "type": "electric_bike", "lon": -77.01033633333333, "bike_id": "83498a6ca85f30e45c51f74c83a4863b", "fusion_lat": 0.0, "name": "83498a6ca85f30e45c51f74c83a4863b", "is_reserved": 0, "rental_uris": {"android": "https://dc.lft.to/lastmile_qr_scan", "ios": "https://dc.lft.to/lastmile_qr_scan"}, "fusion_lon": 0.0}, {"lat": 38.89221966666667, "is_disabled": 0, "type": "electric_scooter", "lon": -77.02210566666666, "bike_id": "85df0c53d8e1178688c2b7139561b22a", "fusion_lat": 0.0, "name": "85df0c53d8e1178688c2b7139561b22a", "is_reserved": 0, "rental_uris": {"android": "https://dc.lft.to/lastmile_qr_scan", "ios": "https://dc.lft.to/lastmile_qr_scan"}, "fusion_lon": 0.0}, {"lat": 38.90277183333333, "is_disabled": 0, "type": "electric_scooter", "lon": -77.0306635, "bike_id": "571ee45a9b375e13a825ae885ebf9fa4", "fusion_lat": 0.0, "name": "571ee45a9b375e13a825ae885ebf9fa4", "is_reserved": 0, "rental_uris": {"android": "https://dc.lft.to/lastmile_qr_scan", "ios": "https://dc.lft.to/lastmile_qr_scan"}, "fusion_lon": 0.0}, {"lat": 38.9850955, "is_disabled": 0, "type": "electric_bike", "lon": -76.98194033333333, "bike_id": "44da64fc9fdbca13a4d3cc870981cb49", "fusion_lat": 0.0, "name": "44da64fc9fdbca13a4d3cc870981cb49", "is_reserved": 0, "rental_uris": {"android": "https://dc.lft.to/lastmile_qr_scan", "ios": "https://dc.lft.to/lastmile_qr_scan"}, "fusion_lon": 0.0}, {"lat": 38.91013616666667, "is_disabled": 0, "type": "electric_scooter", "lon": -77.032113, "bike_id": "6fe07dcee5142f6b329a41be24c016ec", "fusion_lat": 0.0, "name": "6fe07dcee5142f6b329a41be24c016ec", "is_reserved": 0, "rental_uris": {"android": "https://dc.lft.to/lastmile_qr_scan", "ios": "https://dc.lft.to/lastmile_qr_scan"}, "fusion_lon": 0.0}, {"lat": 38.928419833333336, "is_disabled": 0, "type": "electric_scooter", "lon": -77.01385, "bike_id": "1d37193c09c779f80e8e313e2814ac7c", "fusion_lat": 0.0, "name": "1d37193c09c779f80e8e313e2814ac7c", "is_reserved": 0, "rental_uris": {"android": "https://dc.lft.to/lastmile_qr_scan", "ios": "https://dc.lft.to/lastmile_qr_scan"}, "fusion_lon": 0.0}, {"lat": 38.805741, "is_disabled": 0, "type": "electric_bike", "lon": -77.06860383333333, "bike_id": "a7771e7c9b47c790e6abb64f61646bce", "fusion_lat": 0.0, "name": "a7771e7c9b47c790e6abb64f61646bce", "is_reserved": 0, "rental_uris": {"android": "https://dc.lft.to/lastmile_qr_scan", "ios": "https://dc.lft.to/lastmile_qr_scan"}, "fusion_lon": 0.0}, {"lat": 38.901052, "is_disabled": 0, "type": "electric_bike", "lon": -77.048877, "bike_id": "b70d79bc7ea35c26362aa2fc176b54c8", "fusion_lat": 0.0, "name": "b70d79bc7ea35c26362aa2fc176b54c8", "is_reserved": 0, "rental_uris": {"android": "https://dc.lft.to/lastmile_qr_scan", "ios": "https://dc.lft.to/lastmile_qr_scan"}, "fusion_lon": 0.0}, {"lat": 38.9095225, "is_disabled": 0, "type": "electric_scooter", "lon": -77.03465983333334, "bike_id": "3e6881b3142b452f10ab62ce8e85a992", "fusion_lat": 0.0, "name": "3e6881b3142b452f10ab62ce8e85a992", "is_reserved": 0, "rental_uris": {"android": "https://dc.lft.to/lastmile_qr_scan", "ios": "https://dc.lft.to/lastmile_qr_scan"}, "fusion_lon": 0.0}, {"lat": 38.86365333333333, "is_disabled": 0, "type": "electric_scooter", "lon": -76.9903105, "bike_id": "eee3fed98c751320e15af3b686d7c5ac", "fusion_lat": 0.0, "name": "eee3fed98c751320e15af3b686d7c5ac", "is_reserved": 0, "rental_uris": {"android": "https://dc.lft.to/lastmile_qr_scan", "ios": "https://dc.lft.to/lastmile_qr_scan"}, "fusion_lon": 0.0}, {"lat": 38.930588, "is_disabled": 0, "type": "electric_scooter", "lon": -77.02320583333334, "bike_id": "94612757a4f607c8ab9a823ba959f815", "fusion_lat": 0.0, "name": "94612757a4f607c8ab9a823ba959f815", "is_reserved": 0, "rental_uris": {"android": "https://dc.lft.to/lastmile_qr_scan", "ios": "https://dc.lft.to/lastmile_qr_scan"}, "fusion_lon": 0.0}, {"lat": 38.92235683333333, "is_disabled": 0, "type": "electric_scooter", "lon": -77.043576, "bike_id": "b2290e6c2f5e178d074c0576eafd29d9", "fusion_lat": 0.0, "name": "b2290e6c2f5e178d074c0576eafd29d9", "is_reserved": 0, "rental_uris": {"android": "https://dc.lft.to/lastmile_qr_scan", "ios": "https://dc.lft.to/lastmile_qr_scan"}, "fusion_lon": 0.0}, {"lat": 38.919507333333335, "is_disabled": 0, "type": "electric_scooter", "lon": -76.96980183333334, "bike_id": "ec30d28a8b19597c25593b6660b2dd03", "fusion_lat": 0.0, "name": "ec30d28a8b19597c25593b6660b2dd03", "is_reserved": 0, "rental_uris": {"android": "https://dc.lft.to/lastmile_qr_scan", "ios": "https://dc.lft.to/lastmile_qr_scan"}, "fusion_lon": 0.0}, {"lat": 38.90239316666667, "is_disabled": 0, "type": "electric_scooter", "lon": -77.04373083333333, "bike_id": "c752ef27b2ed610c830f831db3a7e6c4", "fusion_lat": 0.0, "name": "c752ef27b2ed610c830f831db3a7e6c4", "is_reserved": 0, "rental_uris": {"android": "https://dc.lft.to/lastmile_qr_scan", "ios": "https://dc.lft.to/lastmile_qr_scan"}, "fusion_lon": 0.0}, {"lat": 38.8848575, "is_disabled": 0, "type": "electric_scooter", "lon": -77.03475883333333, "bike_id": "a856d4973165a816b536e47488ce0e1a", "fusion_lat": 0.0, "name": "a856d4973165a816b536e47488ce0e1a", "is_reserved": 0, "rental_uris": {"android": "https://dc.lft.to/lastmile_qr_scan", "ios": "https://dc.lft.to/lastmile_qr_scan"}, "fusion_lon": 0.0}, {"lat": 38.92716733333334, "is_disabled": 0, "type": "electric_scooter", "lon": -77.022832, "bike_id": "e0f1d92c6c86b68ce0b391b1a31a1e78", "fusion_lat": 0.0, "name": "e0f1d92c6c86b68ce0b391b1a31a1e78", "is_reserved": 0, "rental_uris": {"android": "https://dc.lft.to/lastmile_qr_scan", "ios": "https://dc.lft.to/lastmile_qr_scan"}, "fusion_lon": 0.0}, {"lat": 38.90957683333333, "is_disabled": 0, "type": "electric_scooter", "lon": -77.03380966666667, "bike_id": "4aa679c6d72b28b8b16260e8fcdb96ea", "fusion_lat": 0.0, "name": "4aa679c6d72b28b8b16260e8fcdb96ea", "is_reserved": 0, "rental_uris": {"android": "https://dc.lft.to/lastmile_qr_scan", "ios": "https://dc.lft.to/lastmile_qr_scan"}, "fusion_lon": 0.0}, {"lat": 38.91329733333333, "is_disabled": 0, "type": "electric_scooter", "lon": -77.03191983333333, "bike_id": "33d0b8d6cf5c6cb053033d2e93cbf6a8", "fusion_lat": 0.0, "name": "33d0b8d6cf5c6cb053033d2e93cbf6a8", "is_reserved": 0, "rental_uris": {"android": "https://dc.lft.to/lastmile_qr_scan", "ios": "https://dc.lft.to/lastmile_qr_scan"}, "fusion_lon": 0.0}, {"lat": 38.802258, "is_disabled": 0, "type": "electric_bike", "lon": -77.07914066666666, "bike_id": "3f07a88ac9ca1a0675e22469b69f5a11", "fusion_lat": 0.0, "name": "3f07a88ac9ca1a0675e22469b69f5a11", "is_reserved": 0, "rental_uris": {"android": "https://dc.lft.to/lastmile_qr_scan", "ios": "https://dc.lft.to/lastmile_qr_scan"}, "fusion_lon": 0.0}, {"lat": 38.966657833333336, "is_disabled": 0, "type": "electric_bike", "lon": -76.974473, "bike_id": "1d4f215a51f67ca523c2ebb5b0cb1efd", "fusion_lat": 0.0, "name": "1d4f215a51f67ca523c2ebb5b0cb1efd", "is_reserved": 0, "rental_uris": {"android": "https://dc.lft.to/lastmile_qr_scan", "ios": "https://dc.lft.to/lastmile_qr_scan"}, "fusion_lon": 0.0}, {"lat": 38.877754, "is_disabled": 0, "type": "electric_scooter", "lon": -77.017687, "bike_id": "25d622e72779f35d89ff96f6ab2c9c7c", "fusion_lat": 0.0, "name": "25d622e72779f35d89ff96f6ab2c9c7c", "is_reserved": 0, "rental_uris": {"android": "https://dc.lft.to/lastmile_qr_scan", "ios": "https://dc.lft.to/lastmile_qr_scan"}, "fusion_lon": 0.0}, {"lat": 38.892203, "is_disabled": 0, "type": "electric_bike", "lon": -77.03218483333333, "bike_id": "058367e52f47d30a6a70d413478556d3", "fusion_lat": 0.0, "name": "058367e52f47d30a6a70d413478556d3", "is_reserved": 0, "rental_uris": {"android": "https://dc.lft.to/lastmile_qr_scan", "ios": "https://dc.lft.to/lastmile_qr_scan"}, "fusion_lon": 0.0}, {"lat": 38.90814433333333, "is_disabled": 0, "type": "electric_scooter", "lon": -77.038597, "bike_id": "780b7fdf6b9c4075ceb3ea4443dfa4f9", "fusion_lat": 0.0, "name": "780b7fdf6b9c4075ceb3ea4443dfa4f9", "is_reserved": 0, "rental_uris": {"android": "https://dc.lft.to/lastmile_qr_scan", "ios": "https://dc.lft.to/lastmile_qr_scan"}, "fusion_lon": 0.0}, {"lat": 38.892236833333335, "is_disabled": 0, "type": "electric_bike", "lon": -77.034441, "bike_id": "dd1c9b1afbf9c8917e4e93415ab45390", "fusion_lat": 0.0, "name": "dd1c9b1afbf9c8917e4e93415ab45390", "is_reserved": 0, "rental_uris": {"android": "https://dc.lft.to/lastmile_qr_scan", "ios": "https://dc.lft.to/lastmile_qr_scan"}, "fusion_lon": 0.0}, {"lat": 38.906295, "is_disabled": 0, "type": "electric_scooter", "lon": -77.0337745, "bike_id": "4c56fb4c4cab97310387f10ec77dd965", "fusion_lat": 0.0, "name": "4c56fb4c4cab97310387f10ec77dd965", "is_reserved": 0, "rental_uris": {"android": "https://dc.lft.to/lastmile_qr_scan", "ios": "https://dc.lft.to/lastmile_qr_scan"}, "fusion_lon": 0.0}, {"lat": 38.90682016666667, "is_disabled": 0, "type": "electric_scooter", "lon": -77.03769533333333, "bike_id": "2d8707342995ee35ea4c2197cd8ccc8a", "fusion_lat": 0.0, "name": "2d8707342995ee35ea4c2197cd8ccc8a", "is_reserved": 0, "rental_uris": {"android": "https://dc.lft.to/lastmile_qr_scan", "ios": "https://dc.lft.to/lastmile_qr_scan"}, "fusion_lon": 0.0}, {"lat": 38.8962385, "is_disabled": 0, "type": "electric_scooter", "lon": -77.02658716666667, "bike_id": "4196eb3b4d43344eb178bf9d9633fa56", "fusion_lat": 0.0, "name": "4196eb3b4d43344eb178bf9d9633fa56", "is_reserved": 0, "rental_uris": {"android": "https://dc.lft.to/lastmile_qr_scan", "ios": "https://dc.lft.to/lastmile_qr_scan"}, "fusion_lon": 0.0}, {"lat": 38.91792916666667, "is_disabled": 0, "type": "electric_scooter", "lon": -77.034319, "bike_id": "72dc310e09e926b58d312f3a53ba3338", "fusion_lat": 0.0, "name": "72dc310e09e926b58d312f3a53ba3338", "is_reserved": 0, "rental_uris": {"android": "https://dc.lft.to/lastmile_qr_scan", "ios": "https://dc.lft.to/lastmile_qr_scan"}, "fusion_lon": 0.0}, {"lat": 38.92155433333333, "is_disabled": 0, "type": "electric_scooter", "lon": -77.0351485, "bike_id": "d05662fe4aef3e1ba78624a784f9eb4a", "fusion_lat": 0.0, "name": "d05662fe4aef3e1ba78624a784f9eb4a", "is_reserved": 0, "rental_uris": {"android": "https://dc.lft.to/lastmile_qr_scan", "ios": "https://dc.lft.to/lastmile_qr_scan"}, "fusion_lon": 0.0}, {"lat": 38.918005, "is_disabled": 0, "type": "electric_scooter", "lon": -77.04015166666667, "bike_id": "b7e39d1106bd99b7822918d852e33a28", "fusion_lat": 0.0, "name": "b7e39d1106bd99b7822918d852e33a28", "is_reserved": 0, "rental_uris": {"android": "https://dc.lft.to/lastmile_qr_scan", "ios": "https://dc.lft.to/lastmile_qr_scan"}, "fusion_lon": 0.0}, {"lat": 38.902433, "is_disabled": 0, "type": "electric_scooter", "lon": -77.017971, "bike_id": "5dee86a4fb6ede9b7a72e8acd4c48d33", "fusion_lat": 0.0, "name": "5dee86a4fb6ede9b7a72e8acd4c48d33", "is_reserved": 0, "rental_uris": {"android": "https://dc.lft.to/lastmile_qr_scan", "ios": "https://dc.lft.to/lastmile_qr_scan"}, "fusion_lon": 0.0}, {"lat": 38.905925333333336, "is_disabled": 0, "type": "electric_scooter", "lon": -77.04345266666667, "bike_id": "b9338de2cf16898ec0d1e697ec339b3a", "fusion_lat": 0.0, "name": "b9338de2cf16898ec0d1e697ec339b3a", "is_reserved": 0, "rental_uris": {"android": "https://dc.lft.to/lastmile_qr_scan", "ios": "https://dc.lft.to/lastmile_qr_scan"}, "fusion_lon": 0.0}, {"lat": 38.95788233333333, "is_disabled": 0, "type": "electric_scooter", "lon": -77.02745016666667, "bike_id": "6aabc65640b7e1c2c20e7e8c11e24761", "fusion_lat": 0.0, "name": "6aabc65640b7e1c2c20e7e8c11e24761", "is_reserved": 0, "rental_uris": {"android": "https://dc.lft.to/lastmile_qr_scan", "ios": "https://dc.lft.to/lastmile_qr_scan"}, "fusion_lon": 0.0}, {"lat": 38.8593, "is_disabled": 0, "type": "electric_scooter", "lon": -76.99704383333334, "bike_id": "39b91281d8299b896bef7dc089cd407d", "fusion_lat": 0.0, "name": "39b91281d8299b896bef7dc089cd407d", "is_reserved": 0, "rental_uris": {"android": "https://dc.lft.to/lastmile_qr_scan", "ios": "https://dc.lft.to/lastmile_qr_scan"}, "fusion_lon": 0.0}, {"lat": 38.88746866666666, "is_disabled": 0, "type": "electric_scooter", "lon": -77.03228466666667, "bike_id": "ebc560047732d861d5845a88e06fc8e3", "fusion_lat": 0.0, "name": "ebc560047732d861d5845a88e06fc8e3", "is_reserved": 0, "rental_uris": {"android": "https://dc.lft.to/lastmile_qr_scan", "ios": "https://dc.lft.to/lastmile_qr_scan"}, "fusion_lon": 0.0}, {"lat": 38.9067875, "is_disabled": 0, "type": "electric_scooter", "lon": -77.05017616666666, "bike_id": "bc9149d11db1674e41ffe4fb41ee38de", "fusion_lat": 0.0, "name": "bc9149d11db1674e41ffe4fb41ee38de", "is_reserved": 0, "rental_uris": {"android": "https://dc.lft.to/lastmile_qr_scan", "ios": "https://dc.lft.to/lastmile_qr_scan"}, "fusion_lon": 0.0}, {"lat": 38.91779866666667, "is_disabled": 0, "type": "electric_scooter", "lon": -77.02310233333333, "bike_id": "b7d7879df75676617653bf5691b0e6df", "fusion_lat": 0.0, "name": "b7d7879df75676617653bf5691b0e6df", "is_reserved": 0, "rental_uris": {"android": "https://dc.lft.to/lastmile_qr_scan", "ios": "https://dc.lft.to/lastmile_qr_scan"}, "fusion_lon": 0.0}, {"lat": 38.8960985, "is_disabled": 0, "type": "electric_scooter", "lon": -77.05470716666666, "bike_id": "c9ede00656d9a04c4861339a9c32060c", "fusion_lat": 0.0, "name": "c9ede00656d9a04c4861339a9c32060c", "is_reserved": 0, "rental_uris": {"android": "https://dc.lft.to/lastmile_qr_scan", "ios": "https://dc.lft.to/lastmile_qr_scan"}, "fusion_lon": 0.0}, {"lat": 38.9170755, "is_disabled": 0, "type": "electric_scooter", "lon": -77.0404055, "bike_id": "64f61e30df18a76727025881ec3b432d", "fusion_lat": 0.0, "name": "64f61e30df18a76727025881ec3b432d", "is_reserved": 0, "rental_uris": {"android": "https://dc.lft.to/lastmile_qr_scan", "ios": "https://dc.lft.to/lastmile_qr_scan"}, "fusion_lon": 0.0}, {"lat": 38.933762333333334, "is_disabled": 0, "type": "electric_scooter", "lon": -77.05760533333333, "bike_id": "5874ac687f32715f5633662f1c026930", "fusion_lat": 0.0, "name": "5874ac687f32715f5633662f1c026930", "is_reserved": 0, "rental_uris": {"android": "https://dc.lft.to/lastmile_qr_scan", "ios": "https://dc.lft.to/lastmile_qr_scan"}, "fusion_lon": 0.0}, {"lat": 38.91037266666667, "is_disabled": 0, "type": "electric_scooter", "lon": -77.03206116666667, "bike_id": "4f8c4d193cd6c00a43a280cede05d61b", "fusion_lat": 0.0, "name": "4f8c4d193cd6c00a43a280cede05d61b", "is_reserved": 0, "rental_uris": {"android": "https://dc.lft.to/lastmile_qr_scan", "ios": "https://dc.lft.to/lastmile_qr_scan"}, "fusion_lon": 0.0}, {"lat": 38.911071, "is_disabled": 0, "type": "electric_scooter", "lon": -77.04835366666667, "bike_id": "281668f765ec6cd862a32654e6ce2204", "fusion_lat": 0.0, "name": "281668f765ec6cd862a32654e6ce2204", "is_reserved": 0, "rental_uris": {"android": "https://dc.lft.to/lastmile_qr_scan", "ios": "https://dc.lft.to/lastmile_qr_scan"}, "fusion_lon": 0.0}, {"lat": 38.87809683333333, "is_disabled": 0, "type": "electric_bike", "lon": -77.01759916666667, "bike_id": "df063bc8908449e981870fe33f07f6d2", "fusion_lat": 0.0, "name": "df063bc8908449e981870fe33f07f6d2", "is_reserved": 0, "rental_uris": {"android": "https://dc.lft.to/lastmile_qr_scan", "ios": "https://dc.lft.to/lastmile_qr_scan"}, "fusion_lon": 0.0}, {"lat": 38.89972983333333, "is_disabled": 0, "type": "electric_scooter", "lon": -77.02578566666666, "bike_id": "c48345e0796ad06a6d1a65e5075aa4ad", "fusion_lat": 0.0, "name": "c48345e0796ad06a6d1a65e5075aa4ad", "is_reserved": 0, "rental_uris": {"android": "https://dc.lft.to/lastmile_qr_scan", "ios": "https://dc.lft.to/lastmile_qr_scan"}, "fusion_lon": 0.0}, {"lat": 38.903584333333335, "is_disabled": 0, "type": "electric_scooter", "lon": -77.03437983333333, "bike_id": "a483e1a726fc8c6eccc59a2a82a3bbef", "fusion_lat": 0.0, "name": "a483e1a726fc8c6eccc59a2a82a3bbef", "is_reserved": 0, "rental_uris": {"android": "https://dc.lft.to/lastmile_qr_scan", "ios": "https://dc.lft.to/lastmile_qr_scan"}, "fusion_lon": 0.0}, {"lat": 38.910368, "is_disabled": 0, "type": "electric_scooter", "lon": -77.03867216666667, "bike_id": "b2f3e7c1b4b44768c745e2ffded5f713", "fusion_lat": 0.0, "name": "b2f3e7c1b4b44768c745e2ffded5f713", "is_reserved": 0, "rental_uris": {"android": "https://dc.lft.to/lastmile_qr_scan", "ios": "https://dc.lft.to/lastmile_qr_scan"}, "fusion_lon": 0.0}, {"lat": 38.901445333333335, "is_disabled": 0, "type": "electric_scooter", "lon": -77.02833216666667, "bike_id": "4ab9761d81e5b32eec49586b9b26399d", "fusion_lat": 0.0, "name": "4ab9761d81e5b32eec49586b9b26399d", "is_reserved": 0, "rental_uris": {"android": "https://dc.lft.to/lastmile_qr_scan", "ios": "https://dc.lft.to/lastmile_qr_scan"}, "fusion_lon": 0.0}, {"lat": 38.9141525, "is_disabled": 0, "type": "electric_scooter", "lon": -77.02610783333333, "bike_id": "15cf1c022ccbecffc3d6625501f7ffcb", "fusion_lat": 0.0, "name": "15cf1c022ccbecffc3d6625501f7ffcb", "is_reserved": 0, "rental_uris": {"android": "https://dc.lft.to/lastmile_qr_scan", "ios": "https://dc.lft.to/lastmile_qr_scan"}, "fusion_lon": 0.0}, {"lat": 38.92364166666667, "is_disabled": 0, "type": "electric_scooter", "lon": -77.0513185, "bike_id": "6206916dd7442f6d2cc821d8403ff1dd", "fusion_lat": 0.0, "name": "6206916dd7442f6d2cc821d8403ff1dd", "is_reserved": 0, "rental_uris": {"android": "https://dc.lft.to/lastmile_qr_scan", "ios": "https://dc.lft.to/lastmile_qr_scan"}, "fusion_lon": 0.0}, {"lat": 38.895694166666665, "is_disabled": 0, "type": "electric_scooter", "lon": -77.028326, "bike_id": "521a2291fdf261b4c815629cbbe11632", "fusion_lat": 0.0, "name": "521a2291fdf261b4c815629cbbe11632", "is_reserved": 0, "rental_uris": {"android": "https://dc.lft.to/lastmile_qr_scan", "ios": "https://dc.lft.to/lastmile_qr_scan"}, "fusion_lon": 0.0}, {"lat": 38.880197833333334, "is_disabled": 0, "type": "electric_scooter", "lon": -76.96014616666666, "bike_id": "91475d4c8e3981d67bc6e1d23e89add1", "fusion_lat": 0.0, "name": "91475d4c8e3981d67bc6e1d23e89add1", "is_reserved": 0, "rental_uris": {"android": "https://dc.lft.to/lastmile_qr_scan", "ios": "https://dc.lft.to/lastmile_qr_scan"}, "fusion_lon": 0.0}, {"lat": 38.9386085, "is_disabled": 0, "type": "electric_scooter", "lon": -77.030865, "bike_id": "3ebad39ca07f4832b790b506fcef2590", "fusion_lat": 0.0, "name": "3ebad39ca07f4832b790b506fcef2590", "is_reserved": 0, "rental_uris": {"android": "https://dc.lft.to/lastmile_qr_scan", "ios": "https://dc.lft.to/lastmile_qr_scan"}, "fusion_lon": 0.0}, {"lat": 38.93873133333334, "is_disabled": 0, "type": "electric_scooter", "lon": -77.031232, "bike_id": "7872e02b964b4157debd138736ec1632", "fusion_lat": 0.0, "name": "7872e02b964b4157debd138736ec1632", "is_reserved": 0, "rental_uris": {"android": "https://dc.lft.to/lastmile_qr_scan", "ios": "https://dc.lft.to/lastmile_qr_scan"}, "fusion_lon": 0.0}, {"lat": 38.866509666666666, "is_disabled": 0, "type": "electric_scooter", "lon": -76.98886116666667, "bike_id": "846bb8bf7fd547eefab4df047b045ab1", "fusion_lat": 0.0, "name": "846bb8bf7fd547eefab4df047b045ab1", "is_reserved": 0, "rental_uris": {"android": "https://dc.lft.to/lastmile_qr_scan", "ios": "https://dc.lft.to/lastmile_qr_scan"}, "fusion_lon": 0.0}, {"lat": 38.925468, "is_disabled": 0, "type": "electric_scooter", "lon": -77.0527365, "bike_id": "5cf721cfd7c299d0dd08d5d84b67f762", "fusion_lat": 0.0, "name": "5cf721cfd7c299d0dd08d5d84b67f762", "is_reserved": 0, "rental_uris": {"android": "https://dc.lft.to/lastmile_qr_scan", "ios": "https://dc.lft.to/lastmile_qr_scan"}, "fusion_lon": 0.0}, {"lat": 38.90220033333333, "is_disabled": 0, "type": "electric_scooter", "lon": -77.01888583333333, "bike_id": "ba1ec46a4f395a7b2850d4640479ffd7", "fusion_lat": 0.0, "name": "ba1ec46a4f395a7b2850d4640479ffd7", "is_reserved": 0, "rental_uris": {"android": "https://dc.lft.to/lastmile_qr_scan", "ios": "https://dc.lft.to/lastmile_qr_scan"}, "fusion_lon": 0.0}, {"lat": 38.911228, "is_disabled": 0, "type": "electric_scooter", "lon": -77.02692783333333, "bike_id": "adca4a694e03fb5fa7e8c83d1252dd14", "fusion_lat": 0.0, "name": "adca4a694e03fb5fa7e8c83d1252dd14", "is_reserved": 0, "rental_uris": {"android": "https://dc.lft.to/lastmile_qr_scan", "ios": "https://dc.lft.to/lastmile_qr_scan"}, "fusion_lon": 0.0}, {"lat": 38.9174785, "is_disabled": 0, "type": "electric_scooter", "lon": -77.0415605, "bike_id": "1f444e79e791a0b8c769ba73678a249a", "fusion_lat": 0.0, "name": "1f444e79e791a0b8c769ba73678a249a", "is_reserved": 0, "rental_uris": {"android": "https://dc.lft.to/lastmile_qr_scan", "ios": "https://dc.lft.to/lastmile_qr_scan"}, "fusion_lon": 0.0}, {"lat": 38.9219925, "is_disabled": 0, "type": "electric_scooter", "lon": -77.042313, "bike_id": "8c4d5cda9615d242f236d4fd8b3856e8", "fusion_lat": 0.0, "name": "8c4d5cda9615d242f236d4fd8b3856e8", "is_reserved": 0, "rental_uris": {"android": "https://dc.lft.to/lastmile_qr_scan", "ios": "https://dc.lft.to/lastmile_qr_scan"}, "fusion_lon": 0.0}, {"lat": 38.8887705, "is_disabled": 0, "type": "electric_scooter", "lon": -77.01276333333334, "bike_id": "d4b8a315e1a8360cafdc2fac65032d79", "fusion_lat": 0.0, "name": "d4b8a315e1a8360cafdc2fac65032d79", "is_reserved": 0, "rental_uris": {"android": "https://dc.lft.to/lastmile_qr_scan", "ios": "https://dc.lft.to/lastmile_qr_scan"}, "fusion_lon": 0.0}, {"lat": 38.91250683333333, "is_disabled": 0, "type": "electric_scooter", "lon": -77.02531816666666, "bike_id": "54033d66d819d5992b8e395faae8dfa5", "fusion_lat": 0.0, "name": "54033d66d819d5992b8e395faae8dfa5", "is_reserved": 0, "rental_uris": {"android": "https://dc.lft.to/lastmile_qr_scan", "ios": "https://dc.lft.to/lastmile_qr_scan"}, "fusion_lon": 0.0}, {"lat": 38.909144833333336, "is_disabled": 0, "type": "electric_scooter", "lon": -77.04409266666667, "bike_id": "fa0c7e8cb1708e19f16bae60f7fb71cd", "fusion_lat": 0.0, "name": "fa0c7e8cb1708e19f16bae60f7fb71cd", "is_reserved": 0, "rental_uris": {"android": "https://dc.lft.to/lastmile_qr_scan", "ios": "https://dc.lft.to/lastmile_qr_scan"}, "fusion_lon": 0.0}, {"lat": 38.917798, "is_disabled": 0, "type": "electric_scooter", "lon": -77.03640216666666, "bike_id": "9d080ad0e7aa3668745133eab46345a3", "fusion_lat": 0.0, "name": "9d080ad0e7aa3668745133eab46345a3", "is_reserved": 0, "rental_uris": {"android": "https://dc.lft.to/lastmile_qr_scan", "ios": "https://dc.lft.to/lastmile_qr_scan"}, "fusion_lon": 0.0}, {"lat": 38.855281, "is_disabled": 0, "type": "electric_bike", "lon": -77.11556583333333, "bike_id": "78e6afbd965d60a393934e3ae4666571", "fusion_lat": 0.0, "name": "78e6afbd965d60a393934e3ae4666571", "is_reserved": 0, "rental_uris": {"android": "https://dc.lft.to/lastmile_qr_scan", "ios": "https://dc.lft.to/lastmile_qr_scan"}, "fusion_lon": 0.0}, {"lat": 38.9296365, "is_disabled": 0, "type": "electric_scooter", "lon": -77.02785066666667, "bike_id": "ebcaec8d53c07c5dce0c905f43c58af7", "fusion_lat": 0.0, "name": "ebcaec8d53c07c5dce0c905f43c58af7", "is_reserved": 0, "rental_uris": {"android": "https://dc.lft.to/lastmile_qr_scan", "ios": "https://dc.lft.to/lastmile_qr_scan"}, "fusion_lon": 0.0}, {"lat": 38.904709833333335, "is_disabled": 0, "type": "electric_scooter", "lon": -77.00214916666667, "bike_id": "a0bb3fa63c15c17da47c1b5810938e48", "fusion_lat": 0.0, "name": "a0bb3fa63c15c17da47c1b5810938e48", "is_reserved": 0, "rental_uris": {"android": "https://dc.lft.to/lastmile_qr_scan", "ios": "https://dc.lft.to/lastmile_qr_scan"}, "fusion_lon": 0.0}, {"lat": 38.9244065, "is_disabled": 0, "type": "electric_scooter", "lon": -77.04030233333333, "bike_id": "4cb3a45b117110d8909a46eeb1957a6b", "fusion_lat": 0.0, "name": "4cb3a45b117110d8909a46eeb1957a6b", "is_reserved": 0, "rental_uris": {"android": "https://dc.lft.to/lastmile_qr_scan", "ios": "https://dc.lft.to/lastmile_qr_scan"}, "fusion_lon": 0.0}, {"lat": 38.9241175, "is_disabled": 0, "type": "electric_scooter", "lon": -77.0273715, "bike_id": "a1de45040929df08601642f2abac6235", "fusion_lat": 0.0, "name": "a1de45040929df08601642f2abac6235", "is_reserved": 0, "rental_uris": {"android": "https://dc.lft.to/lastmile_qr_scan", "ios": "https://dc.lft.to/lastmile_qr_scan"}, "fusion_lon": 0.0}, {"lat": 38.8699545, "is_disabled": 0, "type": "electric_bike", "lon": -77.0656775, "bike_id": "3fc066cedea128b2ce821a0afc0ab734", "fusion_lat": 0.0, "name": "3fc066cedea128b2ce821a0afc0ab734", "is_reserved": 0, "rental_uris": {"android": "https://dc.lft.to/lastmile_qr_scan", "ios": "https://dc.lft.to/lastmile_qr_scan"}, "fusion_lon": 0.0}, {"lat": 38.90154966666667, "is_disabled": 0, "type": "electric_scooter", "lon": -77.043495, "bike_id": "591ddfeda1cb8eeff5c4daea130859d6", "fusion_lat": 0.0, "name": "591ddfeda1cb8eeff5c4daea130859d6", "is_reserved": 0, "rental_uris": {"android": "https://dc.lft.to/lastmile_qr_scan", "ios": "https://dc.lft.to/lastmile_qr_scan"}, "fusion_lon": 0.0}, {"lat": 38.914266, "is_disabled": 0, "type": "electric_scooter", "lon": -77.03181983333333, "bike_id": "49750cec4f596cbcd6731f847b2e6f9e", "fusion_lat": 0.0, "name": "49750cec4f596cbcd6731f847b2e6f9e", "is_reserved": 0, "rental_uris": {"android": "https://dc.lft.to/lastmile_qr_scan", "ios": "https://dc.lft.to/lastmile_qr_scan"}, "fusion_lon": 0.0}, {"lat": 38.88409433333333, "is_disabled": 0, "type": "electric_scooter", "lon": -77.01529583333334, "bike_id": "8f7bc2cd8fa52501423a9f35a304694f", "fusion_lat": 0.0, "name": "8f7bc2cd8fa52501423a9f35a304694f", "is_reserved": 0, "rental_uris": {"android": "https://dc.lft.to/lastmile_qr_scan", "ios": "https://dc.lft.to/lastmile_qr_scan"}, "fusion_lon": 0.0}, {"lat": 38.911964166666664, "is_disabled": 0, "type": "electric_scooter", "lon": -77.03183916666667, "bike_id": "d31a5f52723bb61d3dbbc333a4f6d860", "fusion_lat": 0.0, "name": "d31a5f52723bb61d3dbbc333a4f6d860", "is_reserved": 0, "rental_uris": {"android": "https://dc.lft.to/lastmile_qr_scan", "ios": "https://dc.lft.to/lastmile_qr_scan"}, "fusion_lon": 0.0}, {"lat": 38.862574, "is_disabled": 0, "type": "electric_scooter", "lon": -76.9951765, "bike_id": "257e43b16861d42c07bdd31f156bdda6", "fusion_lat": 0.0, "name": "257e43b16861d42c07bdd31f156bdda6", "is_reserved": 0, "rental_uris": {"android": "https://dc.lft.to/lastmile_qr_scan", "ios": "https://dc.lft.to/lastmile_qr_scan"}, "fusion_lon": 0.0}, {"lat": 38.87629033333333, "is_disabled": 0, "type": "electric_scooter", "lon": -76.96530233333333, "bike_id": "617840de4b7a22900353bbc4f5be4bdc", "fusion_lat": 0.0, "name": "617840de4b7a22900353bbc4f5be4bdc", "is_reserved": 0, "rental_uris": {"android": "https://dc.lft.to/lastmile_qr_scan", "ios": "https://dc.lft.to/lastmile_qr_scan"}, "fusion_lon": 0.0}, {"lat": 38.93496066666667, "is_disabled": 0, "type": "electric_bike", "lon": -77.03213883333333, "bike_id": "d77a713b89be204bcd77b54fc5e14d24", "fusion_lat": 0.0, "name": "d77a713b89be204bcd77b54fc5e14d24", "is_reserved": 0, "rental_uris": {"android": "https://dc.lft.to/lastmile_qr_scan", "ios": "https://dc.lft.to/lastmile_qr_scan"}, "fusion_lon": 0.0}, {"lat": 38.932332, "is_disabled": 0, "type": "electric_scooter", "lon": -77.0388775, "bike_id": "41b9a3fb621e1dd32a173bf6abb42eda", "fusion_lat": 0.0, "name": "41b9a3fb621e1dd32a173bf6abb42eda", "is_reserved": 0, "rental_uris": {"android": "https://dc.lft.to/lastmile_qr_scan", "ios": "https://dc.lft.to/lastmile_qr_scan"}, "fusion_lon": 0.0}, {"lat": 38.899976833333334, "is_disabled": 0, "type": "electric_scooter", "lon": -76.99853616666667, "bike_id": "da697b1e0c69d54aa42ff2ad23e65fad", "fusion_lat": 0.0, "name": "da697b1e0c69d54aa42ff2ad23e65fad", "is_reserved": 0, "rental_uris": {"android": "https://dc.lft.to/lastmile_qr_scan", "ios": "https://dc.lft.to/lastmile_qr_scan"}, "fusion_lon": 0.0}, {"lat": 38.923606166666666, "is_disabled": 0, "type": "electric_scooter", "lon": -77.05129116666667, "bike_id": "bbe0463e52375c7e0c3d9832f3b6c767", "fusion_lat": 0.0, "name": "bbe0463e52375c7e0c3d9832f3b6c767", "is_reserved": 0, "rental_uris": {"android": "https://dc.lft.to/lastmile_qr_scan", "ios": "https://dc.lft.to/lastmile_qr_scan"}, "fusion_lon": 0.0}, {"lat": 38.90255116666667, "is_disabled": 0, "type": "electric_scooter", "lon": -77.04364866666667, "bike_id": "988cc5851247e4201095db2ff4b0b4db", "fusion_lat": 0.0, "name": "988cc5851247e4201095db2ff4b0b4db", "is_reserved": 0, "rental_uris": {"android": "https://dc.lft.to/lastmile_qr_scan", "ios": "https://dc.lft.to/lastmile_qr_scan"}, "fusion_lon": 0.0}, {"lat": 38.93577766666667, "is_disabled": 0, "type": "electric_scooter", "lon": -77.02124233333333, "bike_id": "69efc895c8f02c579f1c94a44888c6d9", "fusion_lat": 0.0, "name": "69efc895c8f02c579f1c94a44888c6d9", "is_reserved": 0, "rental_uris": {"android": "https://dc.lft.to/lastmile_qr_scan", "ios": "https://dc.lft.to/lastmile_qr_scan"}, "fusion_lon": 0.0}, {"lat": 38.8968335, "is_disabled": 0, "type": "electric_scooter", "lon": -77.004935, "bike_id": "12da4638c6d03233af36ec76bc7acd0c", "fusion_lat": 0.0, "name": "12da4638c6d03233af36ec76bc7acd0c", "is_reserved": 0, "rental_uris": {"android": "https://dc.lft.to/lastmile_qr_scan", "ios": "https://dc.lft.to/lastmile_qr_scan"}, "fusion_lon": 0.0}, {"lat": 38.918191666666665, "is_disabled": 0, "type": "electric_scooter", "lon": -77.02950816666667, "bike_id": "42810a1efdcb6367cf1eac046d11c224", "fusion_lat": 0.0, "name": "42810a1efdcb6367cf1eac046d11c224", "is_reserved": 0, "rental_uris": {"android": "https://dc.lft.to/lastmile_qr_scan", "ios": "https://dc.lft.to/lastmile_qr_scan"}, "fusion_lon": 0.0}, {"lat": 38.924672666666666, "is_disabled": 0, "type": "electric_scooter", "lon": -77.05231966666666, "bike_id": "65f02eac37bc688a42499d32b388ac99", "fusion_lat": 0.0, "name": "65f02eac37bc688a42499d32b388ac99", "is_reserved": 0, "rental_uris": {"android": "https://dc.lft.to/lastmile_qr_scan", "ios": "https://dc.lft.to/lastmile_qr_scan"}, "fusion_lon": 0.0}, {"lat": 38.85422233333333, "is_disabled": 0, "type": "electric_bike", "lon": -76.90964066666666, "bike_id": "e2c1ed5114eb8057461664bf660b3dd6", "fusion_lat": 0.0, "name": "e2c1ed5114eb8057461664bf660b3dd6", "is_reserved": 0, "rental_uris": {"android": "https://dc.lft.to/lastmile_qr_scan", "ios": "https://dc.lft.to/lastmile_qr_scan"}, "fusion_lon": 0.0}, {"lat": 38.887382833333334, "is_disabled": 0, "type": "electric_scooter", "lon": -77.00337166666667, "bike_id": "803519901b30a9ead6cc04c32d6ca579", "fusion_lat": 0.0, "name": "803519901b30a9ead6cc04c32d6ca579", "is_reserved": 0, "rental_uris": {"android": "https://dc.lft.to/lastmile_qr_scan", "ios": "https://dc.lft.to/lastmile_qr_scan"}, "fusion_lon": 0.0}, {"lat": 38.91722033333333, "is_disabled": 0, "type": "electric_scooter", "lon": -77.0365975, "bike_id": "15a4bda3fc5ac44fe34ead0d9fb36613", "fusion_lat": 0.0, "name": "15a4bda3fc5ac44fe34ead0d9fb36613", "is_reserved": 0, "rental_uris": {"android": "https://dc.lft.to/lastmile_qr_scan", "ios": "https://dc.lft.to/lastmile_qr_scan"}, "fusion_lon": 0.0}, {"lat": 38.87064683333333, "is_disabled": 0, "type": "electric_scooter", "lon": -77.00840483333333, "bike_id": "d7ba165ca916465ac6590af976ed5ede", "fusion_lat": 0.0, "name": "d7ba165ca916465ac6590af976ed5ede", "is_reserved": 0, "rental_uris": {"android": "https://dc.lft.to/lastmile_qr_scan", "ios": "https://dc.lft.to/lastmile_qr_scan"}, "fusion_lon": 0.0}, {"lat": 38.89888, "is_disabled": 0, "type": "electric_scooter", "lon": -77.04030033333333, "bike_id": "7242054ccbe63aca6f4b59f841a88a9d", "fusion_lat": 0.0, "name": "7242054ccbe63aca6f4b59f841a88a9d", "is_reserved": 0, "rental_uris": {"android": "https://dc.lft.to/lastmile_qr_scan", "ios": "https://dc.lft.to/lastmile_qr_scan"}, "fusion_lon": 0.0}, {"lat": 38.908123833333335, "is_disabled": 0, "type": "electric_scooter", "lon": -77.043572, "bike_id": "3db946e51bfcb27af3f298df783a3c0c", "fusion_lat": 0.0, "name": "3db946e51bfcb27af3f298df783a3c0c", "is_reserved": 0, "rental_uris": {"android": "https://dc.lft.to/lastmile_qr_scan", "ios": "https://dc.lft.to/lastmile_qr_scan"}, "fusion_lon": 0.0}, {"lat": 38.920438833333336, "is_disabled": 0, "type": "electric_scooter", "lon": -77.024241, "bike_id": "bf54b1e8f1bfd635cd30f887fb44f89f", "fusion_lat": 0.0, "name": "bf54b1e8f1bfd635cd30f887fb44f89f", "is_reserved": 0, "rental_uris": {"android": "https://dc.lft.to/lastmile_qr_scan", "ios": "https://dc.lft.to/lastmile_qr_scan"}, "fusion_lon": 0.0}, {"lat": 38.90265483333334, "is_disabled": 0, "type": "electric_scooter", "lon": -77.01751333333333, "bike_id": "800ed9b1b4394dde8f3f1179d5462942", "fusion_lat": 0.0, "name": "800ed9b1b4394dde8f3f1179d5462942", "is_reserved": 0, "rental_uris": {"android": "https://dc.lft.to/lastmile_qr_scan", "ios": "https://dc.lft.to/lastmile_qr_scan"}, "fusion_lon": 0.0}, {"lat": 39.00008066666667, "is_disabled": 0, "type": "electric_bike", "lon": -76.91078766666666, "bike_id": "6eeb2ecb74e57fa20a15e1167d2b6a8c", "fusion_lat": 0.0, "name": "6eeb2ecb74e57fa20a15e1167d2b6a8c", "is_reserved": 0, "rental_uris": {"android": "https://dc.lft.to/lastmile_qr_scan", "ios": "https://dc.lft.to/lastmile_qr_scan"}, "fusion_lon": 0.0}, {"lat": 38.863880333333334, "is_disabled": 0, "type": "electric_bike", "lon": -76.989897, "bike_id": "b4ee4158e20565dcb630fd07f7b13c4b", "fusion_lat": 0.0, "name": "b4ee4158e20565dcb630fd07f7b13c4b", "is_reserved": 0, "rental_uris": {"android": "https://dc.lft.to/lastmile_qr_scan", "ios": "https://dc.lft.to/lastmile_qr_scan"}, "fusion_lon": 0.0}, {"lat": 38.930576333333335, "is_disabled": 0, "type": "electric_scooter", "lon": -77.04113733333334, "bike_id": "c2b83a262b65d10e73b9d2511e62b463", "fusion_lat": 0.0, "name": "c2b83a262b65d10e73b9d2511e62b463", "is_reserved": 0, "rental_uris": {"android": "https://dc.lft.to/lastmile_qr_scan", "ios": "https://dc.lft.to/lastmile_qr_scan"}, "fusion_lon": 0.0}, {"lat": 38.8874855, "is_disabled": 0, "type": "electric_scooter", "lon": -77.03230066666667, "bike_id": "9ff55caf633a736f2ea0dbbdc68eb619", "fusion_lat": 0.0, "name": "9ff55caf633a736f2ea0dbbdc68eb619", "is_reserved": 0, "rental_uris": {"android": "https://dc.lft.to/lastmile_qr_scan", "ios": "https://dc.lft.to/lastmile_qr_scan"}, "fusion_lon": 0.0}, {"lat": 38.9627955, "is_disabled": 0, "type": "electric_bike", "lon": -76.9829545, "bike_id": "91bea3beb6b572bcb94cfde30a49c858", "fusion_lat": 0.0, "name": "91bea3beb6b572bcb94cfde30a49c858", "is_reserved": 0, "rental_uris": {"android": "https://dc.lft.to/lastmile_qr_scan", "ios": "https://dc.lft.to/lastmile_qr_scan"}, "fusion_lon": 0.0}, {"lat": 38.86556783333333, "is_disabled": 0, "type": "electric_scooter", "lon": -76.97405616666667, "bike_id": "91af6bd8fbfe232d19e615088c8b70c3", "fusion_lat": 0.0, "name": "91af6bd8fbfe232d19e615088c8b70c3", "is_reserved": 0, "rental_uris": {"android": "https://dc.lft.to/lastmile_qr_scan", "ios": "https://dc.lft.to/lastmile_qr_scan"}, "fusion_lon": 0.0}, {"lat": 38.9080915, "is_disabled": 0, "type": "electric_scooter", "lon": -77.04339983333334, "bike_id": "b96e62d84215d68dc9d0d6a0961a65ed", "fusion_lat": 0.0, "name": "b96e62d84215d68dc9d0d6a0961a65ed", "is_reserved": 0, "rental_uris": {"android": "https://dc.lft.to/lastmile_qr_scan", "ios": "https://dc.lft.to/lastmile_qr_scan"}, "fusion_lon": 0.0}, {"lat": 38.900606, "is_disabled": 0, "type": "electric_scooter", "lon": -77.007539, "bike_id": "e124a647628842849826d5fc1609aecb", "fusion_lat": 0.0, "name": "e124a647628842849826d5fc1609aecb", "is_reserved": 0, "rental_uris": {"android": "https://dc.lft.to/lastmile_qr_scan", "ios": "https://dc.lft.to/lastmile_qr_scan"}, "fusion_lon": 0.0}, {"lat": 38.892225833333335, "is_disabled": 0, "type": "electric_scooter", "lon": -77.02779966666667, "bike_id": "bc423c65ce1b11fa0ec9c67c3bd61388", "fusion_lat": 0.0, "name": "bc423c65ce1b11fa0ec9c67c3bd61388", "is_reserved": 0, "rental_uris": {"android": "https://dc.lft.to/lastmile_qr_scan", "ios": "https://dc.lft.to/lastmile_qr_scan"}, "fusion_lon": 0.0}, {"lat": 38.91118983333333, "is_disabled": 0, "type": "electric_scooter", "lon": -77.0329245, "bike_id": "469f69cc533ac8ca312a535aaa2b7334", "fusion_lat": 0.0, "name": "469f69cc533ac8ca312a535aaa2b7334", "is_reserved": 0, "rental_uris": {"android": "https://dc.lft.to/lastmile_qr_scan", "ios": "https://dc.lft.to/lastmile_qr_scan"}, "fusion_lon": 0.0}, {"lat": 38.897904, "is_disabled": 0, "type": "electric_scooter", "lon": -77.02707083333334, "bike_id": "dfe7e4c81de0130c87e64cd75c20da4e", "fusion_lat": 0.0, "name": "dfe7e4c81de0130c87e64cd75c20da4e", "is_reserved": 0, "rental_uris": {"android": "https://dc.lft.to/lastmile_qr_scan", "ios": "https://dc.lft.to/lastmile_qr_scan"}, "fusion_lon": 0.0}, {"lat": 38.901380833333334, "is_disabled": 0, "type": "electric_scooter", "lon": -77.03097616666666, "bike_id": "f3d2ff66fe2b644322c6e4075acb02b0", "fusion_lat": 0.0, "name": "f3d2ff66fe2b644322c6e4075acb02b0", "is_reserved": 0, "rental_uris": {"android": "https://dc.lft.to/lastmile_qr_scan", "ios": "https://dc.lft.to/lastmile_qr_scan"}, "fusion_lon": 0.0}, {"lat": 38.92039966666667, "is_disabled": 0, "type": "electric_scooter", "lon": -77.04183083333334, "bike_id": "7323df153c7752a6c4887a29b4313e35", "fusion_lat": 0.0, "name": "7323df153c7752a6c4887a29b4313e35", "is_reserved": 0, "rental_uris": {"android": "https://dc.lft.to/lastmile_qr_scan", "ios": "https://dc.lft.to/lastmile_qr_scan"}, "fusion_lon": 0.0}, {"lat": 38.858115166666664, "is_disabled": 0, "type": "electric_scooter", "lon": -76.98732983333333, "bike_id": "da4ada6f4105b3fe08d162e7d7fd19fd", "fusion_lat": 0.0, "name": "da4ada6f4105b3fe08d162e7d7fd19fd", "is_reserved": 0, "rental_uris": {"android": "https://dc.lft.to/lastmile_qr_scan", "ios": "https://dc.lft.to/lastmile_qr_scan"}, "fusion_lon": 0.0}, {"lat": 38.90654816666667, "is_disabled": 0, "type": "electric_scooter", "lon": -77.074252, "bike_id": "e326dbef9dc9348d808fbd27f59bee5c", "fusion_lat": 0.0, "name": "e326dbef9dc9348d808fbd27f59bee5c", "is_reserved": 0, "rental_uris": {"android": "https://dc.lft.to/lastmile_qr_scan", "ios": "https://dc.lft.to/lastmile_qr_scan"}, "fusion_lon": 0.0}, {"lat": 38.92278566666667, "is_disabled": 0, "type": "electric_scooter", "lon": -77.0447935, "bike_id": "f9ef9aaadd83fdcd03d3d86ea6b1d82f", "fusion_lat": 0.0, "name": "f9ef9aaadd83fdcd03d3d86ea6b1d82f", "is_reserved": 0, "rental_uris": {"android": "https://dc.lft.to/lastmile_qr_scan", "ios": "https://dc.lft.to/lastmile_qr_scan"}, "fusion_lon": 0.0}, {"lat": 38.923992166666665, "is_disabled": 0, "type": "electric_scooter", "lon": -77.035354, "bike_id": "e43f529d3e9186c2a60ba12ae9ec806d", "fusion_lat": 0.0, "name": "e43f529d3e9186c2a60ba12ae9ec806d", "is_reserved": 0, "rental_uris": {"android": "https://dc.lft.to/lastmile_qr_scan", "ios": "https://dc.lft.to/lastmile_qr_scan"}, "fusion_lon": 0.0}, {"lat": 38.91549766666667, "is_disabled": 0, "type": "electric_scooter", "lon": -77.03854333333334, "bike_id": "244f57b9cde549c1814f4ff4736eb9e2", "fusion_lat": 0.0, "name": "244f57b9cde549c1814f4ff4736eb9e2", "is_reserved": 0, "rental_uris": {"android": "https://dc.lft.to/lastmile_qr_scan", "ios": "https://dc.lft.to/lastmile_qr_scan"}, "fusion_lon": 0.0}, {"lat": 38.91194183333333, "is_disabled": 0, "type": "electric_scooter", "lon": -77.03661983333333, "bike_id": "61505609b441db47590864558732c675", "fusion_lat": 0.0, "name": "61505609b441db47590864558732c675", "is_reserved": 0, "rental_uris": {"android": "https://dc.lft.to/lastmile_qr_scan", "ios": "https://dc.lft.to/lastmile_qr_scan"}, "fusion_lon": 0.0}, {"lat": 38.921546166666666, "is_disabled": 0, "type": "electric_scooter", "lon": -77.03514583333333, "bike_id": "25c78790403824be39613d92385f6fed", "fusion_lat": 0.0, "name": "25c78790403824be39613d92385f6fed", "is_reserved": 0, "rental_uris": {"android": "https://dc.lft.to/lastmile_qr_scan", "ios": "https://dc.lft.to/lastmile_qr_scan"}, "fusion_lon": 0.0}, {"lat": 38.90013116666667, "is_disabled": 0, "type": "electric_scooter", "lon": -77.046547, "bike_id": "df2fc9a00ca7a9f7d223732e8b4979f8", "fusion_lat": 0.0, "name": "df2fc9a00ca7a9f7d223732e8b4979f8", "is_reserved": 0, "rental_uris": {"android": "https://dc.lft.to/lastmile_qr_scan", "ios": "https://dc.lft.to/lastmile_qr_scan"}, "fusion_lon": 0.0}, {"lat": 38.923593333333336, "is_disabled": 0, "type": "electric_scooter", "lon": -77.05052466666666, "bike_id": "54972ddcf16bf4359143611ab0785830", "fusion_lat": 0.0, "name": "54972ddcf16bf4359143611ab0785830", "is_reserved": 0, "rental_uris": {"android": "https://dc.lft.to/lastmile_qr_scan", "ios": "https://dc.lft.to/lastmile_qr_scan"}, "fusion_lon": 0.0}, {"lat": 38.9013405, "is_disabled": 0, "type": "electric_scooter", "lon": -77.049939, "bike_id": "1ff0d0c11cf4cf0f04716aa26f8bcec2", "fusion_lat": 0.0, "name": "1ff0d0c11cf4cf0f04716aa26f8bcec2", "is_reserved": 0, "rental_uris": {"android": "https://dc.lft.to/lastmile_qr_scan", "ios": "https://dc.lft.to/lastmile_qr_scan"}, "fusion_lon": 0.0}, {"lat": 38.89448083333333, "is_disabled": 0, "type": "electric_bike", "lon": -77.158232, "bike_id": "ea6613c41b270ed05ae5ab2b81ecef4a", "fusion_lat": 0.0, "name": "ea6613c41b270ed05ae5ab2b81ecef4a", "is_reserved": 0, "rental_uris": {"android": "https://dc.lft.to/lastmile_qr_scan", "ios": "https://dc.lft.to/lastmile_qr_scan"}, "fusion_lon": 0.0}, {"lat": 38.906365666666666, "is_disabled": 0, "type": "electric_scooter", "lon": -77.06285916666667, "bike_id": "743f407a9a943c4326c68e07c027c476", "fusion_lat": 0.0, "name": "743f407a9a943c4326c68e07c027c476", "is_reserved": 0, "rental_uris": {"android": "https://dc.lft.to/lastmile_qr_scan", "ios": "https://dc.lft.to/lastmile_qr_scan"}, "fusion_lon": 0.0}, {"lat": 38.9173, "is_disabled": 0, "type": "electric_scooter", "lon": -77.03213566666666, "bike_id": "f2102434df346c416bb22559d0ba6a35", "fusion_lat": 0.0, "name": "f2102434df346c416bb22559d0ba6a35", "is_reserved": 0, "rental_uris": {"android": "https://dc.lft.to/lastmile_qr_scan", "ios": "https://dc.lft.to/lastmile_qr_scan"}, "fusion_lon": 0.0}, {"lat": 38.931912833333335, "is_disabled": 0, "type": "electric_scooter", "lon": -77.028309, "bike_id": "f47ee87e14653296e2062a9db0f4a771", "fusion_lat": 0.0, "name": "f47ee87e14653296e2062a9db0f4a771", "is_reserved": 0, "rental_uris": {"android": "https://dc.lft.to/lastmile_qr_scan", "ios": "https://dc.lft.to/lastmile_qr_scan"}, "fusion_lon": 0.0}, {"lat": 38.91800466666667, "is_disabled": 0, "type": "electric_scooter", "lon": -77.04018516666666, "bike_id": "59197929acb56b693c572d24a763bc53", "fusion_lat": 0.0, "name": "59197929acb56b693c572d24a763bc53", "is_reserved": 0, "rental_uris": {"android": "https://dc.lft.to/lastmile_qr_scan", "ios": "https://dc.lft.to/lastmile_qr_scan"}, "fusion_lon": 0.0}, {"lat": 38.90776133333333, "is_disabled": 0, "type": "electric_scooter", "lon": -77.03862233333334, "bike_id": "6f69cee84666b27e618ecb8a9735ee02", "fusion_lat": 0.0, "name": "6f69cee84666b27e618ecb8a9735ee02", "is_reserved": 0, "rental_uris": {"android": "https://dc.lft.to/lastmile_qr_scan", "ios": "https://dc.lft.to/lastmile_qr_scan"}, "fusion_lon": 0.0}, {"lat": 38.90756983333333, "is_disabled": 0, "type": "electric_scooter", "lon": -77.00332616666667, "bike_id": "b53ac7ebeab7d3efe2e7c6c7950d16d9", "fusion_lat": 0.0, "name": "b53ac7ebeab7d3efe2e7c6c7950d16d9", "is_reserved": 0, "rental_uris": {"android": "https://dc.lft.to/lastmile_qr_scan", "ios": "https://dc.lft.to/lastmile_qr_scan"}, "fusion_lon": 0.0}, {"lat": 38.93731966666667, "is_disabled": 0, "type": "electric_scooter", "lon": -77.036203, "bike_id": "04dd2f9db7c5617f64f42694e8b57063", "fusion_lat": 0.0, "name": "04dd2f9db7c5617f64f42694e8b57063", "is_reserved": 0, "rental_uris": {"android": "https://dc.lft.to/lastmile_qr_scan", "ios": "https://dc.lft.to/lastmile_qr_scan"}, "fusion_lon": 0.0}, {"lat": 38.82785483333333, "is_disabled": 0, "type": "electric_bike", "lon": -77.00915266666667, "bike_id": "8b89e9a7f698660af6d678c68a6f3b56", "fusion_lat": 0.0, "name": "8b89e9a7f698660af6d678c68a6f3b56", "is_reserved": 0, "rental_uris": {"android": "https://dc.lft.to/lastmile_qr_scan", "ios": "https://dc.lft.to/lastmile_qr_scan"}, "fusion_lon": 0.0}, {"lat": 38.905604833333335, "is_disabled": 0, "type": "electric_scooter", "lon": -77.02792833333334, "bike_id": "5f75bd9bf7553155956c045ce945d357", "fusion_lat": 0.0, "name": "5f75bd9bf7553155956c045ce945d357", "is_reserved": 0, "rental_uris": {"android": "https://dc.lft.to/lastmile_qr_scan", "ios": "https://dc.lft.to/lastmile_qr_scan"}, "fusion_lon": 0.0}, {"lat": 38.986491666666666, "is_disabled": 0, "type": "electric_bike", "lon": -77.05636766666667, "bike_id": "7e44a5f5071471ef11723ac9d8479bc0", "fusion_lat": 0.0, "name": "7e44a5f5071471ef11723ac9d8479bc0", "is_reserved": 0, "rental_uris": {"android": "https://dc.lft.to/lastmile_qr_scan", "ios": "https://dc.lft.to/lastmile_qr_scan"}, "fusion_lon": 0.0}, {"lat": 38.923746333333334, "is_disabled": 0, "type": "electric_scooter", "lon": -77.03130083333333, "bike_id": "7858e2a952eab85c696e079944f714de", "fusion_lat": 0.0, "name": "7858e2a952eab85c696e079944f714de", "is_reserved": 0, "rental_uris": {"android": "https://dc.lft.to/lastmile_qr_scan", "ios": "https://dc.lft.to/lastmile_qr_scan"}, "fusion_lon": 0.0}, {"lat": 38.92766183333333, "is_disabled": 0, "type": "electric_scooter", "lon": -77.02621133333334, "bike_id": "9ac38bd410aae0abca03c2b5d1a0d2d0", "fusion_lat": 0.0, "name": "9ac38bd410aae0abca03c2b5d1a0d2d0", "is_reserved": 0, "rental_uris": {"android": "https://dc.lft.to/lastmile_qr_scan", "ios": "https://dc.lft.to/lastmile_qr_scan"}, "fusion_lon": 0.0}, {"lat": 38.922488, "is_disabled": 0, "type": "electric_scooter", "lon": -77.03468016666666, "bike_id": "0f0290e51220d039c3ef1d423c9becc3", "fusion_lat": 0.0, "name": "0f0290e51220d039c3ef1d423c9becc3", "is_reserved": 0, "rental_uris": {"android": "https://dc.lft.to/lastmile_qr_scan", "ios": "https://dc.lft.to/lastmile_qr_scan"}, "fusion_lon": 0.0}, {"lat": 38.9030865, "is_disabled": 0, "type": "electric_scooter", "lon": -77.0417925, "bike_id": "6357a378dd59cf91052ea21e915db39d", "fusion_lat": 0.0, "name": "6357a378dd59cf91052ea21e915db39d", "is_reserved": 0, "rental_uris": {"android": "https://dc.lft.to/lastmile_qr_scan", "ios": "https://dc.lft.to/lastmile_qr_scan"}, "fusion_lon": 0.0}, {"lat": 38.90262233333333, "is_disabled": 0, "type": "electric_scooter", "lon": -77.01753316666667, "bike_id": "296e9ddb1c2969f1feb09524e2518995", "fusion_lat": 0.0, "name": "296e9ddb1c2969f1feb09524e2518995", "is_reserved": 0, "rental_uris": {"android": "https://dc.lft.to/lastmile_qr_scan", "ios": "https://dc.lft.to/lastmile_qr_scan"}, "fusion_lon": 0.0}, {"lat": 38.904585166666664, "is_disabled": 0, "type": "electric_scooter", "lon": -77.0628935, "bike_id": "7e404f5480a06a2cdc02075ac8e704eb", "fusion_lat": 0.0, "name": "7e404f5480a06a2cdc02075ac8e704eb", "is_reserved": 0, "rental_uris": {"android": "https://dc.lft.to/lastmile_qr_scan", "ios": "https://dc.lft.to/lastmile_qr_scan"}, "fusion_lon": 0.0}, {"lat": 38.8715035, "is_disabled": 0, "type": "electric_bike", "lon": -76.93648666666667, "bike_id": "90b8b8ace657bc2648030cc89d6853e6", "fusion_lat": 0.0, "name": "90b8b8ace657bc2648030cc89d6853e6", "is_reserved": 0, "rental_uris": {"android": "https://dc.lft.to/lastmile_qr_scan", "ios": "https://dc.lft.to/lastmile_qr_scan"}, "fusion_lon": 0.0}, {"lat": 38.8808315, "is_disabled": 0, "type": "electric_scooter", "lon": -77.025646, "bike_id": "5b02c6d15e5ef4f500b5313ffd2fa8db", "fusion_lat": 0.0, "name": "5b02c6d15e5ef4f500b5313ffd2fa8db", "is_reserved": 0, "rental_uris": {"android": "https://dc.lft.to/lastmile_qr_scan", "ios": "https://dc.lft.to/lastmile_qr_scan"}, "fusion_lon": 0.0}, {"lat": 38.89220733333333, "is_disabled": 0, "type": "electric_scooter", "lon": -77.0419955, "bike_id": "eec122eeb6f2ea7c4b39b2cfc87ac691", "fusion_lat": 0.0, "name": "eec122eeb6f2ea7c4b39b2cfc87ac691", "is_reserved": 0, "rental_uris": {"android": "https://dc.lft.to/lastmile_qr_scan", "ios": "https://dc.lft.to/lastmile_qr_scan"}, "fusion_lon": 0.0}, {"lat": 38.9231265, "is_disabled": 0, "type": "electric_scooter", "lon": -77.04222416666667, "bike_id": "05ac12f90a3377d93c52d37c2395e6a4", "fusion_lat": 0.0, "name": "05ac12f90a3377d93c52d37c2395e6a4", "is_reserved": 0, "rental_uris": {"android": "https://dc.lft.to/lastmile_qr_scan", "ios": "https://dc.lft.to/lastmile_qr_scan"}, "fusion_lon": 0.0}, {"lat": 38.883636, "is_disabled": 0, "type": "electric_scooter", "lon": -76.99509883333333, "bike_id": "a7d9f1a7f84a8c32066794b8b2e7fcb1", "fusion_lat": 0.0, "name": "a7d9f1a7f84a8c32066794b8b2e7fcb1", "is_reserved": 0, "rental_uris": {"android": "https://dc.lft.to/lastmile_qr_scan", "ios": "https://dc.lft.to/lastmile_qr_scan"}, "fusion_lon": 0.0}, {"lat": 38.89489316666667, "is_disabled": 0, "type": "electric_scooter", "lon": -76.99501066666667, "bike_id": "913a14bd002d33dd51c29f4c0854d378", "fusion_lat": 0.0, "name": "913a14bd002d33dd51c29f4c0854d378", "is_reserved": 0, "rental_uris": {"android": "https://dc.lft.to/lastmile_qr_scan", "ios": "https://dc.lft.to/lastmile_qr_scan"}, "fusion_lon": 0.0}, {"lat": 38.89221033333333, "is_disabled": 0, "type": "electric_scooter", "lon": -77.04512966666667, "bike_id": "4a54689c83835741a9cf54b9a49c5367", "fusion_lat": 0.0, "name": "4a54689c83835741a9cf54b9a49c5367", "is_reserved": 0, "rental_uris": {"android": "https://dc.lft.to/lastmile_qr_scan", "ios": "https://dc.lft.to/lastmile_qr_scan"}, "fusion_lon": 0.0}, {"lat": 38.863632333333335, "is_disabled": 0, "type": "electric_scooter", "lon": -76.99031016666666, "bike_id": "1e15ef96a9720a5173e768a5b397f341", "fusion_lat": 0.0, "name": "1e15ef96a9720a5173e768a5b397f341", "is_reserved": 0, "rental_uris": {"android": "https://dc.lft.to/lastmile_qr_scan", "ios": "https://dc.lft.to/lastmile_qr_scan"}, "fusion_lon": 0.0}, {"lat": 38.896252833333335, "is_disabled": 0, "type": "electric_scooter", "lon": -77.02854183333334, "bike_id": "07ac106d24e99bd1c98fc33c7a23ee3d", "fusion_lat": 0.0, "name": "07ac106d24e99bd1c98fc33c7a23ee3d", "is_reserved": 0, "rental_uris": {"android": "https://dc.lft.to/lastmile_qr_scan", "ios": "https://dc.lft.to/lastmile_qr_scan"}, "fusion_lon": 0.0}, {"lat": 38.89005133333333, "is_disabled": 0, "type": "electric_scooter", "lon": -76.93741683333333, "bike_id": "2f397f59ca5c05474272e37de74791c6", "fusion_lat": 0.0, "name": "2f397f59ca5c05474272e37de74791c6", "is_reserved": 0, "rental_uris": {"android": "https://dc.lft.to/lastmile_qr_scan", "ios": "https://dc.lft.to/lastmile_qr_scan"}, "fusion_lon": 0.0}, {"lat": 38.911219, "is_disabled": 0, "type": "electric_scooter", "lon": -77.03841483333333, "bike_id": "c80c27d30f94cadd2a870ca8041f3278", "fusion_lat": 0.0, "name": "c80c27d30f94cadd2a870ca8041f3278", "is_reserved": 0, "rental_uris": {"android": "https://dc.lft.to/lastmile_qr_scan", "ios": "https://dc.lft.to/lastmile_qr_scan"}, "fusion_lon": 0.0}, {"lat": 38.920716166666665, "is_disabled": 0, "type": "electric_scooter", "lon": -77.02533416666667, "bike_id": "467a58195a64f3a768db6c7933074c48", "fusion_lat": 0.0, "name": "467a58195a64f3a768db6c7933074c48", "is_reserved": 0, "rental_uris": {"android": "https://dc.lft.to/lastmile_qr_scan", "ios": "https://dc.lft.to/lastmile_qr_scan"}, "fusion_lon": 0.0}, {"lat": 38.914269166666664, "is_disabled": 0, "type": "electric_scooter", "lon": -77.03180433333333, "bike_id": "4727b7a35ad649b257cfe28ec43e009e", "fusion_lat": 0.0, "name": "4727b7a35ad649b257cfe28ec43e009e", "is_reserved": 0, "rental_uris": {"android": "https://dc.lft.to/lastmile_qr_scan", "ios": "https://dc.lft.to/lastmile_qr_scan"}, "fusion_lon": 0.0}, {"lat": 38.92448666666667, "is_disabled": 0, "type": "electric_scooter", "lon": -77.04020733333333, "bike_id": "67afbf4a77ef5d83c29159bf037921d8", "fusion_lat": 0.0, "name": "67afbf4a77ef5d83c29159bf037921d8", "is_reserved": 0, "rental_uris": {"android": "https://dc.lft.to/lastmile_qr_scan", "ios": "https://dc.lft.to/lastmile_qr_scan"}, "fusion_lon": 0.0}, {"lat": 38.894746833333336, "is_disabled": 0, "type": "electric_scooter", "lon": -77.009883, "bike_id": "f07f2752e88c5eb3d1719338eb99549c", "fusion_lat": 0.0, "name": "f07f2752e88c5eb3d1719338eb99549c", "is_reserved": 0, "rental_uris": {"android": "https://dc.lft.to/lastmile_qr_scan", "ios": "https://dc.lft.to/lastmile_qr_scan"}, "fusion_lon": 0.0}, {"lat": 38.900659, "is_disabled": 0, "type": "electric_scooter", "lon": -77.002103, "bike_id": "3f7b0bdd6295aafc354d77a4754006f1", "fusion_lat": 0.0, "name": "3f7b0bdd6295aafc354d77a4754006f1", "is_reserved": 0, "rental_uris": {"android": "https://dc.lft.to/lastmile_qr_scan", "ios": "https://dc.lft.to/lastmile_qr_scan"}, "fusion_lon": 0.0}, {"lat": 38.85522, "is_disabled": 0, "type": "electric_bike", "lon": -76.98443533333334, "bike_id": "34a42af31b8bf9575f5172c58b70d44c", "fusion_lat": 0.0, "name": "34a42af31b8bf9575f5172c58b70d44c", "is_reserved": 0, "rental_uris": {"android": "https://dc.lft.to/lastmile_qr_scan", "ios": "https://dc.lft.to/lastmile_qr_scan"}, "fusion_lon": 0.0}, {"lat": 38.87242116666667, "is_disabled": 0, "type": "electric_scooter", "lon": -76.977232, "bike_id": "690d5d78e7114ee1cca30355b3228d45", "fusion_lat": 0.0, "name": "690d5d78e7114ee1cca30355b3228d45", "is_reserved": 0, "rental_uris": {"android": "https://dc.lft.to/lastmile_qr_scan", "ios": "https://dc.lft.to/lastmile_qr_scan"}, "fusion_lon": 0.0}, {"lat": 38.90270916666667, "is_disabled": 0, "type": "electric_scooter", "lon": -77.03066733333333, "bike_id": "3f435fbb47f610a80203216fa4fedae8", "fusion_lat": 0.0, "name": "3f435fbb47f610a80203216fa4fedae8", "is_reserved": 0, "rental_uris": {"android": "https://dc.lft.to/lastmile_qr_scan", "ios": "https://dc.lft.to/lastmile_qr_scan"}, "fusion_lon": 0.0}, {"lat": 38.912688833333334, "is_disabled": 0, "type": "electric_scooter", "lon": -77.02224633333333, "bike_id": "d3115a99da487fe2a3e513b9be330fce", "fusion_lat": 0.0, "name": "d3115a99da487fe2a3e513b9be330fce", "is_reserved": 0, "rental_uris": {"android": "https://dc.lft.to/lastmile_qr_scan", "ios": "https://dc.lft.to/lastmile_qr_scan"}, "fusion_lon": 0.0}, {"lat": 38.9025225, "is_disabled": 0, "type": "electric_scooter", "lon": -77.04269533333333, "bike_id": "3c34c4cddf0fb1ca1855ee8e2323b86f", "fusion_lat": 0.0, "name": "3c34c4cddf0fb1ca1855ee8e2323b86f", "is_reserved": 0, "rental_uris": {"android": "https://dc.lft.to/lastmile_qr_scan", "ios": "https://dc.lft.to/lastmile_qr_scan"}, "fusion_lon": 0.0}, {"lat": 38.9085305, "is_disabled": 0, "type": "electric_scooter", "lon": -77.04766833333333, "bike_id": "4d94a4460de8d39c3ad1e37aa7d2ab68", "fusion_lat": 0.0, "name": "4d94a4460de8d39c3ad1e37aa7d2ab68", "is_reserved": 0, "rental_uris": {"android": "https://dc.lft.to/lastmile_qr_scan", "ios": "https://dc.lft.to/lastmile_qr_scan"}, "fusion_lon": 0.0}, {"lat": 38.889276833333334, "is_disabled": 0, "type": "electric_scooter", "lon": -76.97374533333333, "bike_id": "a5a00517b7429ce582d74634dec32938", "fusion_lat": 0.0, "name": "a5a00517b7429ce582d74634dec32938", "is_reserved": 0, "rental_uris": {"android": "https://dc.lft.to/lastmile_qr_scan", "ios": "https://dc.lft.to/lastmile_qr_scan"}, "fusion_lon": 0.0}, {"lat": 38.870786333333335, "is_disabled": 0, "type": "electric_scooter", "lon": -76.96862433333334, "bike_id": "79628684c5f9481f0c5cd53f9cef9ac8", "fusion_lat": 0.0, "name": "79628684c5f9481f0c5cd53f9cef9ac8", "is_reserved": 0, "rental_uris": {"android": "https://dc.lft.to/lastmile_qr_scan", "ios": "https://dc.lft.to/lastmile_qr_scan"}, "fusion_lon": 0.0}, {"lat": 38.90135033333333, "is_disabled": 0, "type": "electric_scooter", "lon": -77.01994583333334, "bike_id": "0300e4fd6b3333d332863200551b26a3", "fusion_lat": 0.0, "name": "0300e4fd6b3333d332863200551b26a3", "is_reserved": 0, "rental_uris": {"android": "https://dc.lft.to/lastmile_qr_scan", "ios": "https://dc.lft.to/lastmile_qr_scan"}, "fusion_lon": 0.0}, {"lat": 38.944065333333334, "is_disabled": 0, "type": "electric_scooter", "lon": -77.026445, "bike_id": "90e4e2e79d022ee557e83a2158c58245", "fusion_lat": 0.0, "name": "90e4e2e79d022ee557e83a2158c58245", "is_reserved": 0, "rental_uris": {"android": "https://dc.lft.to/lastmile_qr_scan", "ios": "https://dc.lft.to/lastmile_qr_scan"}, "fusion_lon": 0.0}, {"lat": 38.91712866666667, "is_disabled": 0, "type": "electric_scooter", "lon": -77.0335225, "bike_id": "f6ad37d3ed5903240bdd85933cfcef6c", "fusion_lat": 0.0, "name": "f6ad37d3ed5903240bdd85933cfcef6c", "is_reserved": 0, "rental_uris": {"android": "https://dc.lft.to/lastmile_qr_scan", "ios": "https://dc.lft.to/lastmile_qr_scan"}, "fusion_lon": 0.0}, {"lat": 38.907285, "is_disabled": 0, "type": "electric_scooter", "lon": -76.99682333333334, "bike_id": "ad31ccb17117c026eee97200c253a793", "fusion_lat": 0.0, "name": "ad31ccb17117c026eee97200c253a793", "is_reserved": 0, "rental_uris": {"android": "https://dc.lft.to/lastmile_qr_scan", "ios": "https://dc.lft.to/lastmile_qr_scan"}, "fusion_lon": 0.0}, {"lat": 38.915625166666665, "is_disabled": 0, "type": "electric_scooter", "lon": -77.02007016666667, "bike_id": "c7f4a85ae893970065ab6cad0774f554", "fusion_lat": 0.0, "name": "c7f4a85ae893970065ab6cad0774f554", "is_reserved": 0, "rental_uris": {"android": "https://dc.lft.to/lastmile_qr_scan", "ios": "https://dc.lft.to/lastmile_qr_scan"}, "fusion_lon": 0.0}, {"lat": 38.906743666666664, "is_disabled": 0, "type": "electric_scooter", "lon": -77.03824266666666, "bike_id": "9d15371f6d1bb8c4b769407c335e9ae0", "fusion_lat": 0.0, "name": "9d15371f6d1bb8c4b769407c335e9ae0", "is_reserved": 0, "rental_uris": {"android": "https://dc.lft.to/lastmile_qr_scan", "ios": "https://dc.lft.to/lastmile_qr_scan"}, "fusion_lon": 0.0}, {"lat": 38.91756866666667, "is_disabled": 0, "type": "electric_scooter", "lon": -77.038425, "bike_id": "04c56627ce8a250c81a68e15a7d22313", "fusion_lat": 0.0, "name": "04c56627ce8a250c81a68e15a7d22313", "is_reserved": 0, "rental_uris": {"android": "https://dc.lft.to/lastmile_qr_scan", "ios": "https://dc.lft.to/lastmile_qr_scan"}, "fusion_lon": 0.0}, {"lat": 38.92362583333333, "is_disabled": 0, "type": "electric_scooter", "lon": -77.0512795, "bike_id": "cff7ca75a0d0f93a81393b27a3f2beac", "fusion_lat": 0.0, "name": "cff7ca75a0d0f93a81393b27a3f2beac", "is_reserved": 0, "rental_uris": {"android": "https://dc.lft.to/lastmile_qr_scan", "ios": "https://dc.lft.to/lastmile_qr_scan"}, "fusion_lon": 0.0}, {"lat": 38.893921, "is_disabled": 0, "type": "electric_scooter", "lon": -76.94998083333333, "bike_id": "7a224a44311fc1eeab64148e2c2baa14", "fusion_lat": 0.0, "name": "7a224a44311fc1eeab64148e2c2baa14", "is_reserved": 0, "rental_uris": {"android": "https://dc.lft.to/lastmile_qr_scan", "ios": "https://dc.lft.to/lastmile_qr_scan"}, "fusion_lon": 0.0}, {"lat": 38.906236166666666, "is_disabled": 0, "type": "electric_scooter", "lon": -77.02178883333333, "bike_id": "4ece6579793ef7b148db48151333c32a", "fusion_lat": 0.0, "name": "4ece6579793ef7b148db48151333c32a", "is_reserved": 0, "rental_uris": {"android": "https://dc.lft.to/lastmile_qr_scan", "ios": "https://dc.lft.to/lastmile_qr_scan"}, "fusion_lon": 0.0}, {"lat": 38.918052, "is_disabled": 0, "type": "electric_scooter", "lon": -77.0403525, "bike_id": "21bc3400f2bf82798bb9974d839677a1", "fusion_lat": 0.0, "name": "21bc3400f2bf82798bb9974d839677a1", "is_reserved": 0, "rental_uris": {"android": "https://dc.lft.to/lastmile_qr_scan", "ios": "https://dc.lft.to/lastmile_qr_scan"}, "fusion_lon": 0.0}, {"lat": 38.911081, "is_disabled": 0, "type": "electric_scooter", "lon": -77.031492, "bike_id": "36d6231b5b50fb210209579bb6db30b6", "fusion_lat": 0.0, "name": "36d6231b5b50fb210209579bb6db30b6", "is_reserved": 0, "rental_uris": {"android": "https://dc.lft.to/lastmile_qr_scan", "ios": "https://dc.lft.to/lastmile_qr_scan"}, "fusion_lon": 0.0}, {"lat": 38.92200783333333, "is_disabled": 0, "type": "electric_scooter", "lon": -77.04253433333334, "bike_id": "9f5d2e0dfed47bff77267f3b2990c425", "fusion_lat": 0.0, "name": "9f5d2e0dfed47bff77267f3b2990c425", "is_reserved": 0, "rental_uris": {"android": "https://dc.lft.to/lastmile_qr_scan", "ios": "https://dc.lft.to/lastmile_qr_scan"}, "fusion_lon": 0.0}, {"lat": 38.8906, "is_disabled": 0, "type": "electric_scooter", "lon": -77.02287966666667, "bike_id": "861924167562f218cdad2adb56f8f2b2", "fusion_lat": 0.0, "name": "861924167562f218cdad2adb56f8f2b2", "is_reserved": 0, "rental_uris": {"android": "https://dc.lft.to/lastmile_qr_scan", "ios": "https://dc.lft.to/lastmile_qr_scan"}, "fusion_lon": 0.0}, {"lat": 38.9112325, "is_disabled": 0, "type": "electric_scooter", "lon": -77.03143916666667, "bike_id": "bdcc67afc53388f94701c43674cf5992", "fusion_lat": 0.0, "name": "bdcc67afc53388f94701c43674cf5992", "is_reserved": 0, "rental_uris": {"android": "https://dc.lft.to/lastmile_qr_scan", "ios": "https://dc.lft.to/lastmile_qr_scan"}, "fusion_lon": 0.0}, {"lat": 38.94417216666667, "is_disabled": 0, "type": "electric_scooter", "lon": -77.0551865, "bike_id": "d54fb9de75956adaee8048f484f0eb68", "fusion_lat": 0.0, "name": "d54fb9de75956adaee8048f484f0eb68", "is_reserved": 0, "rental_uris": {"android": "https://dc.lft.to/lastmile_qr_scan", "ios": "https://dc.lft.to/lastmile_qr_scan"}, "fusion_lon": 0.0}, {"lat": 38.863808166666665, "is_disabled": 0, "type": "electric_scooter", "lon": -76.99248933333334, "bike_id": "d902a349096851f49bf2983efdb80490", "fusion_lat": 0.0, "name": "d902a349096851f49bf2983efdb80490", "is_reserved": 0, "rental_uris": {"android": "https://dc.lft.to/lastmile_qr_scan", "ios": "https://dc.lft.to/lastmile_qr_scan"}, "fusion_lon": 0.0}, {"lat": 38.97838266666667, "is_disabled": 0, "type": "electric_bike", "lon": -77.02650383333334, "bike_id": "8df16413fdca47e5f6934a34e557a565", "fusion_lat": 0.0, "name": "8df16413fdca47e5f6934a34e557a565", "is_reserved": 0, "rental_uris": {"android": "https://dc.lft.to/lastmile_qr_scan", "ios": "https://dc.lft.to/lastmile_qr_scan"}, "fusion_lon": 0.0}, {"lat": 38.918552, "is_disabled": 0, "type": "electric_scooter", "lon": -77.04039216666666, "bike_id": "4e7cd74493eef4e75f293319ef16fdf0", "fusion_lat": 0.0, "name": "4e7cd74493eef4e75f293319ef16fdf0", "is_reserved": 0, "rental_uris": {"android": "https://dc.lft.to/lastmile_qr_scan", "ios": "https://dc.lft.to/lastmile_qr_scan"}, "fusion_lon": 0.0}, {"lat": 38.903316833333335, "is_disabled": 0, "type": "electric_scooter", "lon": -77.02179716666667, "bike_id": "d900621b3f06b785de98f2d01c92dde2", "fusion_lat": 0.0, "name": "d900621b3f06b785de98f2d01c92dde2", "is_reserved": 0, "rental_uris": {"android": "https://dc.lft.to/lastmile_qr_scan", "ios": "https://dc.lft.to/lastmile_qr_scan"}, "fusion_lon": 0.0}, {"lat": 38.92356433333333, "is_disabled": 0, "type": "electric_scooter", "lon": -77.0438965, "bike_id": "4be403ad5c74409286de8d473a490b08", "fusion_lat": 0.0, "name": "4be403ad5c74409286de8d473a490b08", "is_reserved": 0, "rental_uris": {"android": "https://dc.lft.to/lastmile_qr_scan", "ios": "https://dc.lft.to/lastmile_qr_scan"}, "fusion_lon": 0.0}, {"lat": 38.916649166666666, "is_disabled": 0, "type": "electric_scooter", "lon": -77.02181533333334, "bike_id": "53de5c841d7d4217cd69a6807b9e0374", "fusion_lat": 0.0, "name": "53de5c841d7d4217cd69a6807b9e0374", "is_reserved": 0, "rental_uris": {"android": "https://dc.lft.to/lastmile_qr_scan", "ios": "https://dc.lft.to/lastmile_qr_scan"}, "fusion_lon": 0.0}, {"lat": 38.854604, "is_disabled": 0, "type": "electric_scooter", "lon": -76.9723455, "bike_id": "39a1c67397ba333700ef355677837181", "fusion_lat": 0.0, "name": "39a1c67397ba333700ef355677837181", "is_reserved": 0, "rental_uris": {"android": "https://dc.lft.to/lastmile_qr_scan", "ios": "https://dc.lft.to/lastmile_qr_scan"}, "fusion_lon": 0.0}, {"lat": 38.9214915, "is_disabled": 0, "type": "electric_scooter", "lon": -77.03868866666667, "bike_id": "a43f33d6e70a2a831d9ef8090c9a970c", "fusion_lat": 0.0, "name": "a43f33d6e70a2a831d9ef8090c9a970c", "is_reserved": 0, "rental_uris": {"android": "https://dc.lft.to/lastmile_qr_scan", "ios": "https://dc.lft.to/lastmile_qr_scan"}, "fusion_lon": 0.0}, {"lat": 38.91125916666667, "is_disabled": 0, "type": "electric_scooter", "lon": -77.02690466666667, "bike_id": "a4c1c1b45b8edd69e8a6e46078d66997", "fusion_lat": 0.0, "name": "a4c1c1b45b8edd69e8a6e46078d66997", "is_reserved": 0, "rental_uris": {"android": "https://dc.lft.to/lastmile_qr_scan", "ios": "https://dc.lft.to/lastmile_qr_scan"}, "fusion_lon": 0.0}, {"lat": 38.902835833333334, "is_disabled": 0, "type": "electric_bike", "lon": -77.06345933333333, "bike_id": "e592fa8fb3bf517e8e33b28b72d2d494", "fusion_lat": 0.0, "name": "e592fa8fb3bf517e8e33b28b72d2d494", "is_reserved": 0, "rental_uris": {"android": "https://dc.lft.to/lastmile_qr_scan", "ios": "https://dc.lft.to/lastmile_qr_scan"}, "fusion_lon": 0.0}, {"lat": 38.913502333333334, "is_disabled": 0, "type": "electric_scooter", "lon": -77.03208366666667, "bike_id": "d8753cbefefab99d8caa93cabb0c56cb", "fusion_lat": 0.0, "name": "d8753cbefefab99d8caa93cabb0c56cb", "is_reserved": 0, "rental_uris": {"android": "https://dc.lft.to/lastmile_qr_scan", "ios": "https://dc.lft.to/lastmile_qr_scan"}, "fusion_lon": 0.0}, {"lat": 38.9095985, "is_disabled": 0, "type": "electric_scooter", "lon": -77.03814783333333, "bike_id": "51ef11c3987df5f99a74d28c28ad776c", "fusion_lat": 0.0, "name": "51ef11c3987df5f99a74d28c28ad776c", "is_reserved": 0, "rental_uris": {"android": "https://dc.lft.to/lastmile_qr_scan", "ios": "https://dc.lft.to/lastmile_qr_scan"}, "fusion_lon": 0.0}, {"lat": 38.91034033333333, "is_disabled": 0, "type": "electric_scooter", "lon": -76.993439, "bike_id": "999418d4044aab2bf76aa7c18c5c51da", "fusion_lat": 0.0, "name": "999418d4044aab2bf76aa7c18c5c51da", "is_reserved": 0, "rental_uris": {"android": "https://dc.lft.to/lastmile_qr_scan", "ios": "https://dc.lft.to/lastmile_qr_scan"}, "fusion_lon": 0.0}, {"lat": 38.8766925, "is_disabled": 0, "type": "electric_scooter", "lon": -77.00409066666667, "bike_id": "e037bb0d6bd4db4eb1e062d56d028e98", "fusion_lat": 0.0, "name": "e037bb0d6bd4db4eb1e062d56d028e98", "is_reserved": 0, "rental_uris": {"android": "https://dc.lft.to/lastmile_qr_scan", "ios": "https://dc.lft.to/lastmile_qr_scan"}, "fusion_lon": 0.0}, {"lat": 38.99820583333333, "is_disabled": 0, "type": "electric_bike", "lon": -76.88372633333333, "bike_id": "2c062ed90be836fa20811f19c1904268", "fusion_lat": 0.0, "name": "2c062ed90be836fa20811f19c1904268", "is_reserved": 0, "rental_uris": {"android": "https://dc.lft.to/lastmile_qr_scan", "ios": "https://dc.lft.to/lastmile_qr_scan"}, "fusion_lon": 0.0}, {"lat": 38.892064, "is_disabled": 0, "type": "electric_scooter", "lon": -76.9856875, "bike_id": "7f9325694f525baf06bbc37489059e5c", "fusion_lat": 0.0, "name": "7f9325694f525baf06bbc37489059e5c", "is_reserved": 0, "rental_uris": {"android": "https://dc.lft.to/lastmile_qr_scan", "ios": "https://dc.lft.to/lastmile_qr_scan"}, "fusion_lon": 0.0}, {"lat": 38.92316866666667, "is_disabled": 0, "type": "electric_scooter", "lon": -77.03658266666666, "bike_id": "2bd6e3b2a67333c770587cd48436412e", "fusion_lat": 0.0, "name": "2bd6e3b2a67333c770587cd48436412e", "is_reserved": 0, "rental_uris": {"android": "https://dc.lft.to/lastmile_qr_scan", "ios": "https://dc.lft.to/lastmile_qr_scan"}, "fusion_lon": 0.0}, {"lat": 38.895262, "is_disabled": 0, "type": "electric_scooter", "lon": -76.94890616666666, "bike_id": "613b48ab169ebdd696a4202b8c027701", "fusion_lat": 0.0, "name": "613b48ab169ebdd696a4202b8c027701", "is_reserved": 0, "rental_uris": {"android": "https://dc.lft.to/lastmile_qr_scan", "ios": "https://dc.lft.to/lastmile_qr_scan"}, "fusion_lon": 0.0}, {"lat": 39.024293, "is_disabled": 0, "type": "electric_bike", "lon": -77.13101383333333, "bike_id": "26fd302b55ea5c74394e81c9d3bcbf71", "fusion_lat": 0.0, "name": "26fd302b55ea5c74394e81c9d3bcbf71", "is_reserved": 0, "rental_uris": {"android": "https://dc.lft.to/lastmile_qr_scan", "ios": "https://dc.lft.to/lastmile_qr_scan"}, "fusion_lon": 0.0}, {"lat": 38.94311183333333, "is_disabled": 0, "type": "electric_scooter", "lon": -77.0617285, "bike_id": "de7b2f8ced3747cf527a281655f67a50", "fusion_lat": 0.0, "name": "de7b2f8ced3747cf527a281655f67a50", "is_reserved": 0, "rental_uris": {"android": "https://dc.lft.to/lastmile_qr_scan", "ios": "https://dc.lft.to/lastmile_qr_scan"}, "fusion_lon": 0.0}, {"lat": 38.9386445, "is_disabled": 0, "type": "electric_scooter", "lon": -77.03089316666667, "bike_id": "79fc07de78dec23f6ccf8aa3f5ed7983", "fusion_lat": 0.0, "name": "79fc07de78dec23f6ccf8aa3f5ed7983", "is_reserved": 0, "rental_uris": {"android": "https://dc.lft.to/lastmile_qr_scan", "ios": "https://dc.lft.to/lastmile_qr_scan"}, "fusion_lon": 0.0}, {"lat": 38.913857166666666, "is_disabled": 0, "type": "electric_scooter", "lon": -77.01701583333333, "bike_id": "547284565d1810599a40b309ca3d2a1c", "fusion_lat": 0.0, "name": "547284565d1810599a40b309ca3d2a1c", "is_reserved": 0, "rental_uris": {"android": "https://dc.lft.to/lastmile_qr_scan", "ios": "https://dc.lft.to/lastmile_qr_scan"}, "fusion_lon": 0.0}, {"lat": 39.03044666666667, "is_disabled": 0, "type": "electric_bike", "lon": -77.09481633333333, "bike_id": "ee247a2e4f4d4aa67d2d4cec79113e6a", "fusion_lat": 0.0, "name": "ee247a2e4f4d4aa67d2d4cec79113e6a", "is_reserved": 0, "rental_uris": {"android": "https://dc.lft.to/lastmile_qr_scan", "ios": "https://dc.lft.to/lastmile_qr_scan"}, "fusion_lon": 0.0}, {"lat": 38.92642283333333, "is_disabled": 0, "type": "electric_bike", "lon": -77.02838266666667, "bike_id": "6ddd1dfa8907069ca8edd40b1ea67366", "fusion_lat": 0.0, "name": "6ddd1dfa8907069ca8edd40b1ea67366", "is_reserved": 0, "rental_uris": {"android": "https://dc.lft.to/lastmile_qr_scan", "ios": "https://dc.lft.to/lastmile_qr_scan"}, "fusion_lon": 0.0}, {"lat": 38.946326, "is_disabled": 0, "type": "electric_scooter", "lon": -77.01846433333333, "bike_id": "9ab111703b203787cc7c746b073e12ec", "fusion_lat": 0.0, "name": "9ab111703b203787cc7c746b073e12ec", "is_reserved": 0, "rental_uris": {"android": "https://dc.lft.to/lastmile_qr_scan", "ios": "https://dc.lft.to/lastmile_qr_scan"}, "fusion_lon": 0.0}, {"lat": 38.90728933333333, "is_disabled": 0, "type": "electric_scooter", "lon": -77.02757816666667, "bike_id": "0500ee10ddde3988336f148f4697ffb9", "fusion_lat": 0.0, "name": "0500ee10ddde3988336f148f4697ffb9", "is_reserved": 0, "rental_uris": {"android": "https://dc.lft.to/lastmile_qr_scan", "ios": "https://dc.lft.to/lastmile_qr_scan"}, "fusion_lon": 0.0}, {"lat": 38.95186366666667, "is_disabled": 0, "type": "electric_bike", "lon": -76.9354325, "bike_id": "4dd0923a483d786dbbfaf6775f662fa8", "fusion_lat": 0.0, "name": "4dd0923a483d786dbbfaf6775f662fa8", "is_reserved": 0, "rental_uris": {"android": "https://dc.lft.to/lastmile_qr_scan", "ios": "https://dc.lft.to/lastmile_qr_scan"}, "fusion_lon": 0.0}, {"lat": 38.89623433333333, "is_disabled": 0, "type": "electric_scooter", "lon": -76.99848983333334, "bike_id": "7ea959d426fec6ecdfc8dab4471990fc", "fusion_lat": 0.0, "name": "7ea959d426fec6ecdfc8dab4471990fc", "is_reserved": 0, "rental_uris": {"android": "https://dc.lft.to/lastmile_qr_scan", "ios": "https://dc.lft.to/lastmile_qr_scan"}, "fusion_lon": 0.0}, {"lat": 38.90961016666667, "is_disabled": 0, "type": "electric_scooter", "lon": -77.03830916666666, "bike_id": "e59a01954bb0e0a926f312b9e68931f2", "fusion_lat": 0.0, "name": "e59a01954bb0e0a926f312b9e68931f2", "is_reserved": 0, "rental_uris": {"android": "https://dc.lft.to/lastmile_qr_scan", "ios": "https://dc.lft.to/lastmile_qr_scan"}, "fusion_lon": 0.0}, {"lat": 38.907337166666665, "is_disabled": 0, "type": "electric_scooter", "lon": -77.0276535, "bike_id": "604423125ac0cba85cb5bbb54c56347f", "fusion_lat": 0.0, "name": "604423125ac0cba85cb5bbb54c56347f", "is_reserved": 0, "rental_uris": {"android": "https://dc.lft.to/lastmile_qr_scan", "ios": "https://dc.lft.to/lastmile_qr_scan"}, "fusion_lon": 0.0}, {"lat": 38.9092075, "is_disabled": 0, "type": "electric_scooter", "lon": -77.08023483333334, "bike_id": "98e83cb69e8d466839d9eeb6b4f6e6a1", "fusion_lat": 0.0, "name": "98e83cb69e8d466839d9eeb6b4f6e6a1", "is_reserved": 0, "rental_uris": {"android": "https://dc.lft.to/lastmile_qr_scan", "ios": "https://dc.lft.to/lastmile_qr_scan"}, "fusion_lon": 0.0}, {"lat": 38.86748016666667, "is_disabled": 0, "type": "electric_scooter", "lon": -76.97664516666667, "bike_id": "e9367986ca19342e6c8d43d7fda5781f", "fusion_lat": 0.0, "name": "e9367986ca19342e6c8d43d7fda5781f", "is_reserved": 0, "rental_uris": {"android": "https://dc.lft.to/lastmile_qr_scan", "ios": "https://dc.lft.to/lastmile_qr_scan"}, "fusion_lon": 0.0}, {"lat": 38.87730083333334, "is_disabled": 0, "type": "electric_bike", "lon": -77.11851, "bike_id": "951f1a65573618f6c616b4cb8bd1f6bc", "fusion_lat": 0.0, "name": "951f1a65573618f6c616b4cb8bd1f6bc", "is_reserved": 0, "rental_uris": {"android": "https://dc.lft.to/lastmile_qr_scan", "ios": "https://dc.lft.to/lastmile_qr_scan"}, "fusion_lon": 0.0}, {"lat": 38.919921333333335, "is_disabled": 0, "type": "electric_scooter", "lon": -77.03960616666667, "bike_id": "1b277a33ba2d60dd34807da58c96c289", "fusion_lat": 0.0, "name": "1b277a33ba2d60dd34807da58c96c289", "is_reserved": 0, "rental_uris": {"android": "https://dc.lft.to/lastmile_qr_scan", "ios": "https://dc.lft.to/lastmile_qr_scan"}, "fusion_lon": 0.0}, {"lat": 38.885354666666665, "is_disabled": 0, "type": "electric_scooter", "lon": -76.998295, "bike_id": "8e0659c9622fae7636f6b3e0e8ce9ff4", "fusion_lat": 0.0, "name": "8e0659c9622fae7636f6b3e0e8ce9ff4", "is_reserved": 0, "rental_uris": {"android": "https://dc.lft.to/lastmile_qr_scan", "ios": "https://dc.lft.to/lastmile_qr_scan"}, "fusion_lon": 0.0}, {"lat": 38.867103666666665, "is_disabled": 0, "type": "electric_scooter", "lon": -76.98726783333333, "bike_id": "f08d78e04d9c58d6e9bd2f4e2eda8490", "fusion_lat": 0.0, "name": "f08d78e04d9c58d6e9bd2f4e2eda8490", "is_reserved": 0, "rental_uris": {"android": "https://dc.lft.to/lastmile_qr_scan", "ios": "https://dc.lft.to/lastmile_qr_scan"}, "fusion_lon": 0.0}, {"lat": 38.845033, "is_disabled": 0, "type": "electric_bike", "lon": -76.99354666666666, "bike_id": "3c1a1d9bac8d9c9ae3097697e3630e29", "fusion_lat": 0.0, "name": "3c1a1d9bac8d9c9ae3097697e3630e29", "is_reserved": 0, "rental_uris": {"android": "https://dc.lft.to/lastmile_qr_scan", "ios": "https://dc.lft.to/lastmile_qr_scan"}, "fusion_lon": 0.0}, {"lat": 38.9025675, "is_disabled": 0, "type": "electric_scooter", "lon": -77.037768, "bike_id": "c4c2b96a6a039191ef3da9887bc03939", "fusion_lat": 0.0, "name": "c4c2b96a6a039191ef3da9887bc03939", "is_reserved": 0, "rental_uris": {"android": "https://dc.lft.to/lastmile_qr_scan", "ios": "https://dc.lft.to/lastmile_qr_scan"}, "fusion_lon": 0.0}, {"lat": 38.92547233333333, "is_disabled": 0, "type": "electric_scooter", "lon": -77.05269516666667, "bike_id": "8a87cec90c6d7a759d1fcb388a67b0dc", "fusion_lat": 0.0, "name": "8a87cec90c6d7a759d1fcb388a67b0dc", "is_reserved": 0, "rental_uris": {"android": "https://dc.lft.to/lastmile_qr_scan", "ios": "https://dc.lft.to/lastmile_qr_scan"}, "fusion_lon": 0.0}, {"lat": 38.9126145, "is_disabled": 0, "type": "electric_scooter", "lon": -77.03139616666667, "bike_id": "a48b1604f4a72a906d7e63c2e3385910", "fusion_lat": 0.0, "name": "a48b1604f4a72a906d7e63c2e3385910", "is_reserved": 0, "rental_uris": {"android": "https://dc.lft.to/lastmile_qr_scan", "ios": "https://dc.lft.to/lastmile_qr_scan"}, "fusion_lon": 0.0}, {"lat": 38.912808, "is_disabled": 0, "type": "electric_scooter", "lon": -77.045121, "bike_id": "291de1acf120fec53b1a7b0eb1678f2d", "fusion_lat": 0.0, "name": "291de1acf120fec53b1a7b0eb1678f2d", "is_reserved": 0, "rental_uris": {"android": "https://dc.lft.to/lastmile_qr_scan", "ios": "https://dc.lft.to/lastmile_qr_scan"}, "fusion_lon": 0.0}, {"lat": 38.901320166666665, "is_disabled": 0, "type": "electric_scooter", "lon": -77.0418085, "bike_id": "f4b0c9e665d6ff77b329f7be9d848fbf", "fusion_lat": 0.0, "name": "f4b0c9e665d6ff77b329f7be9d848fbf", "is_reserved": 0, "rental_uris": {"android": "https://dc.lft.to/lastmile_qr_scan", "ios": "https://dc.lft.to/lastmile_qr_scan"}, "fusion_lon": 0.0}, {"lat": 38.9058555, "is_disabled": 0, "type": "electric_scooter", "lon": -76.98622133333333, "bike_id": "7fab62db55fab139c49beaf97358a9ae", "fusion_lat": 0.0, "name": "7fab62db55fab139c49beaf97358a9ae", "is_reserved": 0, "rental_uris": {"android": "https://dc.lft.to/lastmile_qr_scan", "ios": "https://dc.lft.to/lastmile_qr_scan"}, "fusion_lon": 0.0}, {"lat": 38.90680283333333, "is_disabled": 0, "type": "electric_scooter", "lon": -77.026941, "bike_id": "6bc6281c109481fbe70b108ca7ef3f6f", "fusion_lat": 0.0, "name": "6bc6281c109481fbe70b108ca7ef3f6f", "is_reserved": 0, "rental_uris": {"android": "https://dc.lft.to/lastmile_qr_scan", "ios": "https://dc.lft.to/lastmile_qr_scan"}, "fusion_lon": 0.0}, {"lat": 38.90068316666667, "is_disabled": 0, "type": "electric_scooter", "lon": -77.02622333333333, "bike_id": "9f43319c740231aec941a6330d70c2a1", "fusion_lat": 0.0, "name": "9f43319c740231aec941a6330d70c2a1", "is_reserved": 0, "rental_uris": {"android": "https://dc.lft.to/lastmile_qr_scan", "ios": "https://dc.lft.to/lastmile_qr_scan"}, "fusion_lon": 0.0}, {"lat": 38.89223716666667, "is_disabled": 0, "type": "electric_scooter", "lon": -77.04642666666666, "bike_id": "4c80de418ae5a571532fc60762662e04", "fusion_lat": 0.0, "name": "4c80de418ae5a571532fc60762662e04", "is_reserved": 0, "rental_uris": {"android": "https://dc.lft.to/lastmile_qr_scan", "ios": "https://dc.lft.to/lastmile_qr_scan"}, "fusion_lon": 0.0}, {"lat": 38.9169355, "is_disabled": 0, "type": "electric_scooter", "lon": -77.0428005, "bike_id": "836b0cb18d290764d0b9c8dd91d2fb8a", "fusion_lat": 0.0, "name": "836b0cb18d290764d0b9c8dd91d2fb8a", "is_reserved": 0, "rental_uris": {"android": "https://dc.lft.to/lastmile_qr_scan", "ios": "https://dc.lft.to/lastmile_qr_scan"}, "fusion_lon": 0.0}, {"lat": 38.9216895, "is_disabled": 0, "type": "electric_scooter", "lon": -77.03231116666667, "bike_id": "d17c7f51025984a279d2633bd72d5eb7", "fusion_lat": 0.0, "name": "d17c7f51025984a279d2633bd72d5eb7", "is_reserved": 0, "rental_uris": {"android": "https://dc.lft.to/lastmile_qr_scan", "ios": "https://dc.lft.to/lastmile_qr_scan"}, "fusion_lon": 0.0}, {"lat": 38.892202833333336, "is_disabled": 0, "type": "electric_scooter", "lon": -77.0232015, "bike_id": "97d1a10cc72ecf2acd2e6aa413575fa6", "fusion_lat": 0.0, "name": "97d1a10cc72ecf2acd2e6aa413575fa6", "is_reserved": 0, "rental_uris": {"android": "https://dc.lft.to/lastmile_qr_scan", "ios": "https://dc.lft.to/lastmile_qr_scan"}, "fusion_lon": 0.0},