{"data": {"bikes": [{"rental_uris": {"android": "https://dc.lft.to/lastmile_qr_scan", "ios": "https://dc.lft.to/lastmile_qr_scan"}, "type": "electric_scooter", "lon": -77.06793516666667, "name": "985890115c0ef0a57d8312c9420e91d5", "bike_id": "985890115c0ef0a57d8312c9420e91d5", "fusion_lat": 0.0, "is_reserved": 0, "lat": 38.91083166666667, "fusion_lon": 0.0, "is_disabled": 0}, {"rental_uris": {"android": "https://dc.lft.to/lastmile_qr_scan", "ios": "https://dc.lft.to/lastmile_qr_scan"}, "type": "electric_bike", "lon": -77.1002605, "name": "e647232ac26f1c688304a98390c02ff8", "bike_id": "e647232ac26f1c688304a98390c02ff8", "fusion_lat": 0.0, "is_reserved": 0, "lat": 38.9906425, "fusion_lon": 0.0, "is_disabled": 0}, {"rental_uris": {"android": "https://dc.lft.to/lastmile_qr_scan", "ios": "https://dc.lft.to/lastmile_qr_scan"}, "type": "electric_scooter", "lon": -77.02456916666667, "name": "fcc5845236d6edfa02d5266ae1618fa2", "bike_id": "fcc5845236d6edfa02d5266ae1618fa2", "fusion_lat": 0.0, "is_reserved": 0, "lat": 38.9064065, "fusion_lon": 0.0, "is_disabled": 0}, {"rental_uris": {"android": "https://dc.lft.to/lastmile_qr_scan", "ios": "https://dc.lft.to/lastmile_qr_scan"}, "type": "electric_scooter", "lon": -77.030483, "name": "21c302408351bec92c913b6a675eec25", "bike_id": "21c302408351bec92c913b6a675eec25", "fusion_lat": 0.0, "is_reserved": 0, "lat": 38.88410833333333, "fusion_lon": 0.0, "is_disabled": 0}, {"rental_uris": {"android": "https://dc.lft.to/lastmile_qr_scan", "ios": "https://dc.lft.to/lastmile_qr_scan"}, "type": "electric_scooter", "lon": -77.00255833333334, "name": "71bd3a959e84f904eddecf908330a393", "bike_id": "71bd3a959e84f904eddecf908330a393", "fusion_lat": 0.0, "is_reserved": 0, "lat": 38.901266666666665, "fusion_lon": 0.0, "is_disabled": 0}, {"rental_uris": {"android": "https://dc.lft.to/lastmile_qr_scan", "ios": "https://dc.lft.to/lastmile_qr_scan"}, "type": "electric_scooter", "lon": -77.0133535, "name": "32fbb2493deb27b1b7c48ed200a0064f", "bike_id": "32fbb2493deb27b1b7c48ed200a0064f", "fusion_lat": 0.0, "is_reserved": 0, "lat": 38.881291166666664, "fusion_lon": 0.0, "is_disabled": 0}, {"rental_uris": {"android": "https://dc.lft.to/lastmile_qr_scan", "ios": "https://dc.lft.to/lastmile_qr_scan"}, "type": "electric_scooter", "lon": -77.01960833333334, "name": "7fe4e135e1c18c2258d6a43ac0fc6920", "bike_id": "7fe4e135e1c18c2258d6a43ac0fc6920", "fusion_lat": 0.0, "is_reserved": 0, "lat": 38.8784385, "fusion_lon": 0.0, "is_disabled": 0}, {"rental_uris": {"android": "https://dc.lft.to/lastmile_qr_scan", "ios": "https://dc.lft.to/lastmile_qr_scan"}, "type": "electric_scooter", "lon": -77.03879133333334, "name": "1d103439fdd1ad1cbd7acfb4521fcfa5", "bike_id": "1d103439fdd1ad1cbd7acfb4521fcfa5", "fusion_lat": 0.0, "is_reserved": 0, "lat": 38.9326815, "fusion_lon": 0.0, "is_disabled": 0}, {"rental_uris": {"android": "https://dc.lft.to/lastmile_qr_scan", "ios": "https://dc.lft.to/lastmile_qr_scan"}, "type": "electric_scooter", "lon": -77.02385883333334, "name": "dd79815b6bbf86869d659b5127e235f7", "bike_id": "dd79815b6bbf86869d659b5127e235f7", "fusion_lat": 0.0, "is_reserved": 0, "lat": 38.92079283333333, "fusion_lon": 0.0, "is_disabled": 0}, {"rental_uris": {"android": "https://dc.lft.to/lastmile_qr_scan", "ios": "https://dc.lft.to/lastmile_qr_scan"}, "type": "electric_scooter", "lon": -77.03848733333334, "name": "881b8d8e3f668081170c67117c29c77b", "bike_id": "881b8d8e3f668081170c67117c29c77b", "fusion_lat": 0.0, "is_reserved": 0, "lat": 38.915555166666664, "fusion_lon": 0.0, "is_disabled": 0}, {"rental_uris": {"android": "https://dc.lft.to/lastmile_qr_scan", "ios": "https://dc.lft.to/lastmile_qr_scan"}, "type": "electric_bike", "lon": -77.048984, "name": "f18a8f40547e40ba98098c2ecea414d6", "bike_id": "f18a8f40547e40ba98098c2ecea414d6", "fusion_lat": 0.0, "is_reserved": 0, "lat": 38.87493216666667, "fusion_lon": 0.0, "is_disabled": 0}, {"rental_uris": {"android": "https://dc.lft.to/lastmile_qr_scan", "ios": "https://dc.lft.to/lastmile_qr_scan"}, "type": "electric_scooter", "lon": -77.02479683333334, "name": "998329651838d7e7ab3683ccf6afbbd7", "bike_id": "998329651838d7e7ab3683ccf6afbbd7", "fusion_lat": 0.0, "is_reserved": 0, "lat": 38.938798, "fusion_lon": 0.0, "is_disabled": 0}, {"rental_uris": {"android": "https://dc.lft.to/lastmile_qr_scan", "ios": "https://dc.lft.to/lastmile_qr_scan"}, "type": "electric_scooter", "lon": -77.01909066666667, "name": "86ca41a1e7e9e02754466daed36571fd", "bike_id": "86ca41a1e7e9e02754466daed36571fd", "fusion_lat": 0.0, "is_reserved": 0, "lat": 38.92339783333333, "fusion_lon": 0.0, "is_disabled": 0}, {"rental_uris": {"android": "https://dc.lft.to/lastmile_qr_scan", "ios": "https://dc.lft.to/lastmile_qr_scan"}, "type": "electric_scooter", "lon": -77.0320225, "name": "59b26aa417a106b90beaf87cf90bbb62", "bike_id": "59b26aa417a106b90beaf87cf90bbb62", "fusion_lat": 0.0, "is_reserved": 0, "lat": 38.91897066666667, "fusion_lon": 0.0, "is_disabled": 0}, {"rental_uris": {"android": "https://dc.lft.to/lastmile_qr_scan", "ios": "https://dc.lft.to/lastmile_qr_scan"}, "type": "electric_scooter", "lon": -77.02289483333334, "name": "55acfc8585c17e516d1994b3d0795f00", "bike_id": "55acfc8585c17e516d1994b3d0795f00", "fusion_lat": 0.0, "is_reserved": 0, "lat": 38.915715166666665, "fusion_lon": 0.0, "is_disabled": 0}, {"rental_uris": {"android": "https://dc.lft.to/lastmile_qr_scan", "ios": "https://dc.lft.to/lastmile_qr_scan"}, "type": "electric_scooter", "lon": -77.03176583333334, "name": "11500cdcc84aab22789022a2ae8556e6", "bike_id": "11500cdcc84aab22789022a2ae8556e6", "fusion_lat": 0.0, "is_reserved": 0, "lat": 38.91893666666667, "fusion_lon": 0.0, "is_disabled": 0}, {"rental_uris": {"android": "https://dc.lft.to/lastmile_qr_scan", "ios": "https://dc.lft.to/lastmile_qr_scan"}, "type": "electric_scooter", "lon": -77.03273583333333, "name": "491f7121c3dbc1c9266c8d01be3c5650", "bike_id": "491f7121c3dbc1c9266c8d01be3c5650", "fusion_lat": 0.0, "is_reserved": 0, "lat": 38.932449166666665, "fusion_lon": 0.0, "is_disabled": 0}, {"rental_uris": {"android": "https://dc.lft.to/lastmile_qr_scan", "ios": "https://dc.lft.to/lastmile_qr_scan"}, "type": "electric_scooter", "lon": -77.01182, "name": "84ee9a1335c80d92e41151a36929be0f", "bike_id": "84ee9a1335c80d92e41151a36929be0f", "fusion_lat": 0.0, "is_reserved": 0, "lat": 38.89739383333333, "fusion_lon": 0.0, "is_disabled": 0}, {"rental_uris": {"android": "https://dc.lft.to/lastmile_qr_scan", "ios": "https://dc.lft.to/lastmile_qr_scan"}, "type": "electric_scooter", "lon": -77.0393245, "name": "5b4c044ae9d9c91b9c8d5cce96f9c98e", "bike_id": "5b4c044ae9d9c91b9c8d5cce96f9c98e", "fusion_lat": 0.0, "is_reserved": 0, "lat": 38.9139025, "fusion_lon": 0.0, "is_disabled": 0}, {"rental_uris": {"android": "https://dc.lft.to/lastmile_qr_scan", "ios": "https://dc.lft.to/lastmile_qr_scan"}, "type": "electric_scooter", "lon": -77.01605216666667, "name": "338944bd909b7dd2baee4b0c6a071754", "bike_id": "338944bd909b7dd2baee4b0c6a071754", "fusion_lat": 0.0, "is_reserved": 0, "lat": 38.9059135, "fusion_lon": 0.0, "is_disabled": 0}, {"rental_uris": {"android": "https://dc.lft.to/lastmile_qr_scan", "ios": "https://dc.lft.to/lastmile_qr_scan"}, "type": "electric_scooter", "lon": -77.03630016666666, "name": "7489af311210dcee083b97d95821a286", "bike_id": "7489af311210dcee083b97d95821a286", "fusion_lat": 0.0, "is_reserved": 0, "lat": 38.93280016666667, "fusion_lon": 0.0, "is_disabled": 0}, {"rental_uris": {"android": "https://dc.lft.to/lastmile_qr_scan", "ios": "https://dc.lft.to/lastmile_qr_scan"}, "type": "electric_scooter", "lon": -77.0137495, "name": "73b68711eba548df49ced0b7d5884cb7", "bike_id": "73b68711eba548df49ced0b7d5884cb7", "fusion_lat": 0.0, "is_reserved": 0, "lat": 38.91508133333333, "fusion_lon": 0.0, "is_disabled": 0}, {"rental_uris": {"android": "https://dc.lft.to/lastmile_qr_scan", "ios": "https://dc.lft.to/lastmile_qr_scan"}, "type": "electric_bike", "lon": -77.0237145, "name": "044dc4774e2d52ec31a52a1ff90d1e32", "bike_id": "044dc4774e2d52ec31a52a1ff90d1e32", "fusion_lat": 0.0, "is_reserved": 0, "lat": 38.953004166666666, "fusion_lon": 0.0, "is_disabled": 0}, {"rental_uris": {"android": "https://dc.lft.to/lastmile_qr_scan", "ios": "https://dc.lft.to/lastmile_qr_scan"}, "type": "electric_scooter", "lon": -77.003434, "name": "ff890dd01d8e7598d4946746cb9eab6c", "bike_id": "ff890dd01d8e7598d4946746cb9eab6c", "fusion_lat": 0.0, "is_reserved": 0, "lat": 38.922717, "fusion_lon": 0.0, "is_disabled": 0}, {"rental_uris": {"android": "https://dc.lft.to/lastmile_qr_scan", "ios": "https://dc.lft.to/lastmile_qr_scan"}, "type": "electric_scooter", "lon": -77.04122233333334, "name": "492bfa66f79c198b26b07091bd9bfedf", "bike_id": "492bfa66f79c198b26b07091bd9bfedf", "fusion_lat": 0.0, "is_reserved": 0, "lat": 38.921415833333334, "fusion_lon": 0.0, "is_disabled": 0}, {"rental_uris": {"android": "https://dc.lft.to/lastmile_qr_scan", "ios": "https://dc.lft.to/lastmile_qr_scan"}, "type": "electric_scooter", "lon": -77.065681, "name": "4ab32a151913f58be1cda549ba427558", "bike_id": "4ab32a151913f58be1cda549ba427558", "fusion_lat": 0.0, "is_reserved": 0, "lat": 38.905142, "fusion_lon": 0.0, "is_disabled": 0}, {"rental_uris": {"android": "https://dc.lft.to/lastmile_qr_scan", "ios": "https://dc.lft.to/lastmile_qr_scan"}, "type": "electric_scooter", "lon": -77.03204633333333, "name": "e5ca17bcd9b53bffe2659d5ddef72231", "bike_id": "e5ca17bcd9b53bffe2659d5ddef72231", "fusion_lat": 0.0, "is_reserved": 0, "lat": 38.916320166666665, "fusion_lon": 0.0, "is_disabled": 0}, {"rental_uris": {"android": "https://dc.lft.to/lastmile_qr_scan", "ios": "https://dc.lft.to/lastmile_qr_scan"}, "type": "electric_bike", "lon": -76.9096305, "name": "37a662cb7f91ce608fe3bbb5ffc74600", "bike_id": "37a662cb7f91ce608fe3bbb5ffc74600", "fusion_lat": 0.0, "is_reserved": 0, "lat": 38.854282, "fusion_lon": 0.0, "is_disabled": 0}, {"rental_uris": {"android": "https://dc.lft.to/lastmile_qr_scan", "ios": "https://dc.lft.to/lastmile_qr_scan"}, "type": "electric_scooter", "lon": -77.06784966666666, "name": "f13886841823b6b84b6b9d696b1a575d", "bike_id": "f13886841823b6b84b6b9d696b1a575d", "fusion_lat": 0.0, "is_reserved": 0, "lat": 38.9051945, "fusion_lon": 0.0, "is_disabled": 0}, {"rental_uris": {"android": "https://dc.lft.to/lastmile_qr_scan", "ios": "https://dc.lft.to/lastmile_qr_scan"}, "type": "electric_scooter", "lon": -77.04175333333333, "name": "a64f436a8a244bc9d86586d98404523f", "bike_id": "a64f436a8a244bc9d86586d98404523f", "fusion_lat": 0.0, "is_reserved": 0, "lat": 38.912695166666666, "fusion_lon": 0.0, "is_disabled": 0}, {"rental_uris": {"android": "https://dc.lft.to/lastmile_qr_scan", "ios": "https://dc.lft.to/lastmile_qr_scan"}, "type": "electric_scooter", "lon": -76.9375295, "name": "0f4a4f5368f6f2f80b1bb67aa0556566", "bike_id": "0f4a4f5368f6f2f80b1bb67aa0556566", "fusion_lat": 0.0, "is_reserved": 0, "lat": 38.890389, "fusion_lon": 0.0, "is_disabled": 0}, {"rental_uris": {"android": "https://dc.lft.to/lastmile_qr_scan", "ios": "https://dc.lft.to/lastmile_qr_scan"}, "type": "electric_scooter", "lon": -77.02593016666667, "name": "6736ca4d137bf6384201b6e9f1c534fe", "bike_id": "6736ca4d137bf6384201b6e9f1c534fe", "fusion_lat": 0.0, "is_reserved": 0, "lat": 38.90493816666667, "fusion_lon": 0.0, "is_disabled": 0}, {"rental_uris": {"android": "https://dc.lft.to/lastmile_qr_scan", "ios": "https://dc.lft.to/lastmile_qr_scan"}, "type": "electric_scooter", "lon": -77.04157783333333, "name": "475f78fee48734bd7aed55ed68ee249f", "bike_id": "475f78fee48734bd7aed55ed68ee249f", "fusion_lat": 0.0, "is_reserved": 0, "lat": 38.892667333333335, "fusion_lon": 0.0, "is_disabled": 0}, {"rental_uris": {"android": "https://dc.lft.to/lastmile_qr_scan", "ios": "https://dc.lft.to/lastmile_qr_scan"}, "type": "electric_scooter", "lon": -77.02198683333333, "name": "be5080d90b164eb6c046a057573a6a0d", "bike_id": "be5080d90b164eb6c046a057573a6a0d", "fusion_lat": 0.0, "is_reserved": 0, "lat": 38.89499333333333, "fusion_lon": 0.0, "is_disabled": 0}, {"rental_uris": {"android": "https://dc.lft.to/lastmile_qr_scan", "ios": "https://dc.lft.to/lastmile_qr_scan"}, "type": "electric_scooter", "lon": -76.98593066666666, "name": "6845a4a70acd60326ee508eb7e5365d1", "bike_id": "6845a4a70acd60326ee508eb7e5365d1", "fusion_lat": 0.0, "is_reserved": 0, "lat": 38.900161833333335, "fusion_lon": 0.0, "is_disabled": 0}, {"rental_uris": {"android": "https://dc.lft.to/lastmile_qr_scan", "ios": "https://dc.lft.to/lastmile_qr_scan"}, "type": "electric_scooter", "lon": -77.0267715, "name": "dcac966e18cf8cb879235a2690b23e67", "bike_id": "dcac966e18cf8cb879235a2690b23e67", "fusion_lat": 0.0, "is_reserved": 0, "lat": 38.90963883333333, "fusion_lon": 0.0, "is_disabled": 0}, {"rental_uris": {"android": "https://dc.lft.to/lastmile_qr_scan", "ios": "https://dc.lft.to/lastmile_qr_scan"}, "type": "electric_scooter", "lon": -77.03214033333333, "name": "1830bf10915240aca6951e5960d26b63", "bike_id": "1830bf10915240aca6951e5960d26b63", "fusion_lat": 0.0, "is_reserved": 0, "lat": 38.915797, "fusion_lon": 0.0, "is_disabled": 0}, {"rental_uris": {"android": "https://dc.lft.to/lastmile_qr_scan", "ios": "https://dc.lft.to/lastmile_qr_scan"}, "type": "electric_bike", "lon": -77.02879183333333, "name": "16bd659744d0030fe806364370fc191b", "bike_id": "16bd659744d0030fe806364370fc191b", "fusion_lat": 0.0, "is_reserved": 0, "lat": 38.979481, "fusion_lon": 0.0, "is_disabled": 0}, {"rental_uris": {"android": "https://dc.lft.to/lastmile_qr_scan", "ios": "https://dc.lft.to/lastmile_qr_scan"}, "type": "electric_scooter", "lon": -77.04606866666667, "name": "36b0b6c98960a2827feaf38c1c91732d", "bike_id": "36b0b6c98960a2827feaf38c1c91732d", "fusion_lat": 0.0, "is_reserved": 0, "lat": 38.90676633333333, "fusion_lon": 0.0, "is_disabled": 0}, {"rental_uris": {"android": "https://dc.lft.to/lastmile_qr_scan", "ios": "https://dc.lft.to/lastmile_qr_scan"}, "type": "electric_scooter", "lon": -77.02412066666666, "name": "0dcf35234d7599e6e0162edbfa7256db", "bike_id": "0dcf35234d7599e6e0162edbfa7256db", "fusion_lat": 0.0, "is_reserved": 0, "lat": 38.957367, "fusion_lon": 0.0, "is_disabled": 0}, {"rental_uris": {"android": "https://dc.lft.to/lastmile_qr_scan", "ios": "https://dc.lft.to/lastmile_qr_scan"}, "type": "electric_scooter", "lon": -76.94826066666667, "name": "37ff0adecd6e2a09e733c54020fef507", "bike_id": "37ff0adecd6e2a09e733c54020fef507", "fusion_lat": 0.0, "is_reserved": 0, "lat": 38.8851555, "fusion_lon": 0.0, "is_disabled": 0}, {"rental_uris": {"android": "https://dc.lft.to/lastmile_qr_scan", "ios": "https://dc.lft.to/lastmile_qr_scan"}, "type": "electric_scooter", "lon": -77.03839566666667, "name": "0e98258475f54152a68b2038de8081f3", "bike_id": "0e98258475f54152a68b2038de8081f3", "fusion_lat": 0.0, "is_reserved": 0, "lat": 38.91211916666666, "fusion_lon": 0.0, "is_disabled": 0}, {"rental_uris": {"android": "https://dc.lft.to/lastmile_qr_scan", "ios": "https://dc.lft.to/lastmile_qr_scan"}, "type": "electric_scooter", "lon": -77.01946216666667, "name": "280cbdbde30a3707a4d1e9f39caafac4", "bike_id": "280cbdbde30a3707a4d1e9f39caafac4", "fusion_lat": 0.0, "is_reserved": 0, "lat": 38.9225925, "fusion_lon": 0.0, "is_disabled": 0}, {"rental_uris": {"android": "https://dc.lft.to/lastmile_qr_scan", "ios": "https://dc.lft.to/lastmile_qr_scan"}, "type": "electric_scooter", "lon": -77.06275233333334, "name": "cebad36c165ee1873125903e152f9b65", "bike_id": "cebad36c165ee1873125903e152f9b65", "fusion_lat": 0.0, "is_reserved": 0, "lat": 38.906232833333334, "fusion_lon": 0.0, "is_disabled": 0}, {"rental_uris": {"android": "https://dc.lft.to/lastmile_qr_scan", "ios": "https://dc.lft.to/lastmile_qr_scan"}, "type": "electric_scooter", "lon": -76.9948085, "name": "47fae804da23f97570e87df909ae75f4", "bike_id": "47fae804da23f97570e87df909ae75f4", "fusion_lat": 0.0, "is_reserved": 0, "lat": 38.8773925, "fusion_lon": 0.0, "is_disabled": 0}, {"rental_uris": {"android": "https://dc.lft.to/lastmile_qr_scan", "ios": "https://dc.lft.to/lastmile_qr_scan"}, "type": "electric_scooter", "lon": -76.98991583333333, "name": "e30e4f64f8c5a4e5822b6d3a084065e7", "bike_id": "e30e4f64f8c5a4e5822b6d3a084065e7", "fusion_lat": 0.0, "is_reserved": 0, "lat": 38.86447033333334, "fusion_lon": 0.0, "is_disabled": 0}, {"rental_uris": {"android": "https://dc.lft.to/lastmile_qr_scan", "ios": "https://dc.lft.to/lastmile_qr_scan"}, "type": "electric_scooter", "lon": -76.946329, "name": "3bab00e9519f738fa5b5e8a8362a1fe4", "bike_id": "3bab00e9519f738fa5b5e8a8362a1fe4", "fusion_lat": 0.0, "is_reserved": 0, "lat": 38.89847916666667, "fusion_lon": 0.0, "is_disabled": 0}, {"rental_uris": {"android": "https://dc.lft.to/lastmile_qr_scan", "ios": "https://dc.lft.to/lastmile_qr_scan"}, "type": "electric_scooter", "lon": -77.0235195, "name": "8773b7110f7c93a192e99882d61e9314", "bike_id": "8773b7110f7c93a192e99882d61e9314", "fusion_lat": 0.0, "is_reserved": 0, "lat": 38.892228, "fusion_lon": 0.0, "is_disabled": 0}, {"rental_uris": {"android": "https://dc.lft.to/lastmile_qr_scan", "ios": "https://dc.lft.to/lastmile_qr_scan"}, "type": "electric_bike", "lon": -77.10997166666667, "name": "d52ebf836a09e83cec53449fbda9ceaf", "bike_id": "d52ebf836a09e83cec53449fbda9ceaf", "fusion_lat": 0.0, "is_reserved": 0, "lat": 38.8705145, "fusion_lon": 0.0, "is_disabled": 0}, {"rental_uris": {"android": "https://dc.lft.to/lastmile_qr_scan", "ios": "https://dc.lft.to/lastmile_qr_scan"}, "type": "electric_scooter", "lon": -77.02161633333333, "name": "2cb9f7f908667ac8e55f4976c8f78b30", "bike_id": "2cb9f7f908667ac8e55f4976c8f78b30", "fusion_lat": 0.0, "is_reserved": 0, "lat": 38.88497133333333, "fusion_lon": 0.0, "is_disabled": 0}, {"rental_uris": {"android": "https://dc.lft.to/lastmile_qr_scan", "ios": "https://dc.lft.to/lastmile_qr_scan"}, "type": "electric_scooter", "lon": -77.04168116666666, "name": "6ea108d2345963f63ed94a7bc477ac45", "bike_id": "6ea108d2345963f63ed94a7bc477ac45", "fusion_lat": 0.0, "is_reserved": 0, "lat": 38.913439833333335, "fusion_lon": 0.0, "is_disabled": 0}, {"rental_uris": {"android": "https://dc.lft.to/lastmile_qr_scan", "ios": "https://dc.lft.to/lastmile_qr_scan"}, "type": "electric_scooter", "lon": -77.03676233333333, "name": "b90566087d2ec379f0a78c1d1cc2516d", "bike_id": "b90566087d2ec379f0a78c1d1cc2516d", "fusion_lat": 0.0, "is_reserved": 0, "lat": 38.93665383333333, "fusion_lon": 0.0, "is_disabled": 0}, {"rental_uris": {"android": "https://dc.lft.to/lastmile_qr_scan", "ios": "https://dc.lft.to/lastmile_qr_scan"}, "type": "electric_scooter", "lon": -77.01927616666667, "name": "8fd5d0162b31546363b9a69ec3a1330e", "bike_id": "8fd5d0162b31546363b9a69ec3a1330e", "fusion_lat": 0.0, "is_reserved": 0, "lat": 38.935761166666666, "fusion_lon": 0.0, "is_disabled": 0}, {"rental_uris": {"android": "https://dc.lft.to/lastmile_qr_scan", "ios": "https://dc.lft.to/lastmile_qr_scan"}, "type": "electric_scooter", "lon": -77.0251065, "name": "d9b8e8868e23a39e75d98b0949a421ac", "bike_id": "d9b8e8868e23a39e75d98b0949a421ac", "fusion_lat": 0.0, "is_reserved": 0, "lat": 38.9015905, "fusion_lon": 0.0, "is_disabled": 0}, {"rental_uris": {"android": "https://dc.lft.to/lastmile_qr_scan", "ios": "https://dc.lft.to/lastmile_qr_scan"}, "type": "electric_scooter", "lon": -77.00544916666666, "name": "00025c4dff9d0c102f0e575ff26bde2d", "bike_id": "00025c4dff9d0c102f0e575ff26bde2d", "fusion_lat": 0.0, "is_reserved": 0, "lat": 38.878560666666665, "fusion_lon": 0.0, "is_disabled": 0}, {"rental_uris": {"android": "https://dc.lft.to/lastmile_qr_scan", "ios": "https://dc.lft.to/lastmile_qr_scan"}, "type": "electric_scooter", "lon": -76.96428083333333, "name": "e4b10043fe24c9c7d68850feb2254685", "bike_id": "e4b10043fe24c9c7d68850feb2254685", "fusion_lat": 0.0, "is_reserved": 0, "lat": 38.93449233333333, "fusion_lon": 0.0, "is_disabled": 0}, {"rental_uris": {"android": "https://dc.lft.to/lastmile_qr_scan", "ios": "https://dc.lft.to/lastmile_qr_scan"}, "type": "electric_scooter", "lon": -77.03452716666666, "name": "7484e6b9d718d3515e85b156fef40340", "bike_id": "7484e6b9d718d3515e85b156fef40340", "fusion_lat": 0.0, "is_reserved": 0, "lat": 38.918169666666664, "fusion_lon": 0.0, "is_disabled": 0}, {"rental_uris": {"android": "https://dc.lft.to/lastmile_qr_scan", "ios": "https://dc.lft.to/lastmile_qr_scan"}, "type": "electric_scooter", "lon": -77.0269445, "name": "8b09ca6878043e6568ff8ce52614e208", "bike_id": "8b09ca6878043e6568ff8ce52614e208", "fusion_lat": 0.0, "is_reserved": 0, "lat": 38.9182675, "fusion_lon": 0.0, "is_disabled": 0}, {"rental_uris": {"android": "https://dc.lft.to/lastmile_qr_scan", "ios": "https://dc.lft.to/lastmile_qr_scan"}, "type": "electric_scooter", "lon": -77.04466566666666, "name": "9fadf4331ee6e8dc3116202344291a70", "bike_id": "9fadf4331ee6e8dc3116202344291a70", "fusion_lat": 0.0, "is_reserved": 0, "lat": 38.91866233333333, "fusion_lon": 0.0, "is_disabled": 0}, {"rental_uris": {"android": "https://dc.lft.to/lastmile_qr_scan", "ios": "https://dc.lft.to/lastmile_qr_scan"}, "type": "electric_scooter", "lon": -77.03450516666666, "name": "cd8815ca345a62514e9310612b248871", "bike_id": "cd8815ca345a62514e9310612b248871", "fusion_lat": 0.0, "is_reserved": 0, "lat": 38.9029955, "fusion_lon": 0.0, "is_disabled": 0}, {"rental_uris": {"android": "https://dc.lft.to/lastmile_qr_scan", "ios": "https://dc.lft.to/lastmile_qr_scan"}, "type": "electric_scooter", "lon": -77.023405, "name": "cc32224eef33c4e67e0a9fbf07cc25af", "bike_id": "cc32224eef33c4e67e0a9fbf07cc25af", "fusion_lat": 0.0, "is_reserved": 0, "lat": 38.9620985, "fusion_lon": 0.0, "is_disabled": 0}, {"rental_uris": {"android": "https://dc.lft.to/lastmile_qr_scan", "ios": "https://dc.lft.to/lastmile_qr_scan"}, "type": "electric_scooter", "lon": -77.045589, "name": "118da76d86344e13c2d56383c5e00010", "bike_id": "118da76d86344e13c2d56383c5e00010", "fusion_lat": 0.0, "is_reserved": 0, "lat": 38.91946433333333, "fusion_lon": 0.0, "is_disabled": 0}, {"rental_uris": {"android": "https://dc.lft.to/lastmile_qr_scan", "ios": "https://dc.lft.to/lastmile_qr_scan"}, "type": "electric_scooter", "lon": -77.03066133333333, "name": "187f8aa14a64e10cc546faa606290fc9", "bike_id": "187f8aa14a64e10cc546faa606290fc9", "fusion_lat": 0.0, "is_reserved": 0, "lat": 38.922449, "fusion_lon": 0.0, "is_disabled": 0}, {"rental_uris": {"android": "https://dc.lft.to/lastmile_qr_scan", "ios": "https://dc.lft.to/lastmile_qr_scan"}, "type": "electric_scooter", "lon": -77.03506166666666, "name": "9cf79937e1a803bf731bdbf0c627903f", "bike_id": "9cf79937e1a803bf731bdbf0c627903f", "fusion_lat": 0.0, "is_reserved": 0, "lat": 38.903749, "fusion_lon": 0.0, "is_disabled": 0}, {"rental_uris": {"android": "https://dc.lft.to/lastmile_qr_scan", "ios": "https://dc.lft.to/lastmile_qr_scan"}, "type": "electric_scooter", "lon": -76.9949235, "name": "939b4850ac55101069322ba693af59ba", "bike_id": "939b4850ac55101069322ba693af59ba", "fusion_lat": 0.0, "is_reserved": 0, "lat": 38.862223666666665, "fusion_lon": 0.0, "is_disabled": 0}, {"rental_uris": {"android": "https://dc.lft.to/lastmile_qr_scan", "ios": "https://dc.lft.to/lastmile_qr_scan"}, "type": "electric_scooter", "lon": -77.0339035, "name": "caf3348affd9ccaa7a3bd36e06fba123", "bike_id": "caf3348affd9ccaa7a3bd36e06fba123", "fusion_lat": 0.0, "is_reserved": 0, "lat": 38.9204575, "fusion_lon": 0.0, "is_disabled": 0}, {"rental_uris": {"android": "https://dc.lft.to/lastmile_qr_scan", "ios": "https://dc.lft.to/lastmile_qr_scan"}, "type": "electric_scooter", "lon": -77.0297775, "name": "6842113e2e2249ea152ad10468fc14df", "bike_id": "6842113e2e2249ea152ad10468fc14df", "fusion_lat": 0.0, "is_reserved": 0, "lat": 38.96229266666667, "fusion_lon": 0.0, "is_disabled": 0}, {"rental_uris": {"android": "https://dc.lft.to/lastmile_qr_scan", "ios": "https://dc.lft.to/lastmile_qr_scan"}, "type": "electric_bike", "lon": -77.02119683333333, "name": "1ab6f020cd988a32ab9b37d7a208047a", "bike_id": "1ab6f020cd988a32ab9b37d7a208047a", "fusion_lat": 0.0, "is_reserved": 0, "lat": 38.935982, "fusion_lon": 0.0, "is_disabled": 0}, {"rental_uris": {"android": "https://dc.lft.to/lastmile_qr_scan", "ios": "https://dc.lft.to/lastmile_qr_scan"}, "type": "electric_bike", "lon": -77.10128833333333, "name": "4fa3899b4b18e1d1e14b8cfd66c37c4a", "bike_id": "4fa3899b4b18e1d1e14b8cfd66c37c4a", "fusion_lat": 0.0, "is_reserved": 0, "lat": 38.852113333333335, "fusion_lon": 0.0, "is_disabled": 0}, {"rental_uris": {"android": "https://dc.lft.to/lastmile_qr_scan", "ios": "https://dc.lft.to/lastmile_qr_scan"}, "type": "electric_scooter", "lon": -77.043872, "name": "b80360c59cba613c2da1833f285992b6", "bike_id": "b80360c59cba613c2da1833f285992b6", "fusion_lat": 0.0, "is_reserved": 0, "lat": 38.923636333333334, "fusion_lon": 0.0, "is_disabled": 0}, {"rental_uris": {"android": "https://dc.lft.to/lastmile_qr_scan", "ios": "https://dc.lft.to/lastmile_qr_scan"}, "type": "electric_scooter", "lon": -76.93263433333334, "name": "47075081a9b2892bc52fb5496df61926", "bike_id": "47075081a9b2892bc52fb5496df61926", "fusion_lat": 0.0, "is_reserved": 0, "lat": 38.88774883333333, "fusion_lon": 0.0, "is_disabled": 0}, {"rental_uris": {"android": "https://dc.lft.to/lastmile_qr_scan", "ios": "https://dc.lft.to/lastmile_qr_scan"}, "type": "electric_scooter", "lon": -77.0465885, "name": "8a68bf267b7d6b93fbd3d544c834483c", "bike_id": "8a68bf267b7d6b93fbd3d544c834483c", "fusion_lat": 0.0, "is_reserved": 0, "lat": 38.89342533333333, "fusion_lon": 0.0, "is_disabled": 0}, {"rental_uris": {"android": "https://dc.lft.to/lastmile_qr_scan", "ios": "https://dc.lft.to/lastmile_qr_scan"}, "type": "electric_scooter", "lon": -77.00361733333334, "name": "753b224462a08f1619cd10e9b391491a", "bike_id": "753b224462a08f1619cd10e9b391491a", "fusion_lat": 0.0, "is_reserved": 0, "lat": 38.917608333333334, "fusion_lon": 0.0, "is_disabled": 0}, {"rental_uris": {"android": "https://dc.lft.to/lastmile_qr_scan", "ios": "https://dc.lft.to/lastmile_qr_scan"}, "type": "electric_scooter", "lon": -76.9861055, "name": "75fc3dbe8b98cf29c4e7a922d811f21a", "bike_id": "75fc3dbe8b98cf29c4e7a922d811f21a", "fusion_lat": 0.0, "is_reserved": 0, "lat": 38.906998333333334, "fusion_lon": 0.0, "is_disabled": 0}, {"rental_uris": {"android": "https://dc.lft.to/lastmile_qr_scan", "ios": "https://dc.lft.to/lastmile_qr_scan"}, "type": "electric_scooter", "lon": -77.03255783333333, "name": "ee4b86a577a8af5a20f53ddadaefac7a", "bike_id": "ee4b86a577a8af5a20f53ddadaefac7a", "fusion_lat": 0.0, "is_reserved": 0, "lat": 38.92837, "fusion_lon": 0.0, "is_disabled": 0}, {"rental_uris": {"android": "https://dc.lft.to/lastmile_qr_scan", "ios": "https://dc.lft.to/lastmile_qr_scan"}, "type": "electric_scooter", "lon": -77.03891016666667, "name": "39da613aa92dc0096fe190123e1fa1c9", "bike_id": "39da613aa92dc0096fe190123e1fa1c9", "fusion_lat": 0.0, "is_reserved": 0, "lat": 38.93243983333333, "fusion_lon": 0.0, "is_disabled": 0}, {"rental_uris": {"android": "https://dc.lft.to/lastmile_qr_scan", "ios": "https://dc.lft.to/lastmile_qr_scan"}, "type": "electric_scooter", "lon": -77.01117483333333, "name": "1b9ffd904809c83932df04ff2fd7ff2d", "bike_id": "1b9ffd904809c83932df04ff2fd7ff2d", "fusion_lat": 0.0, "is_reserved": 0, "lat": 38.87070516666667, "fusion_lon": 0.0, "is_disabled": 0}, {"rental_uris": {"android": "https://dc.lft.to/lastmile_qr_scan", "ios": "https://dc.lft.to/lastmile_qr_scan"}, "type": "electric_scooter", "lon": -77.02384216666667, "name": "6cf6ad42c0d147c26afc6df0b67274ea", "bike_id": "6cf6ad42c0d147c26afc6df0b67274ea", "fusion_lat": 0.0, "is_reserved": 0, "lat": 38.90716716666667, "fusion_lon": 0.0, "is_disabled": 0}, {"rental_uris": {"android": "https://dc.lft.to/lastmile_qr_scan", "ios": "https://dc.lft.to/lastmile_qr_scan"}, "type": "electric_scooter", "lon": -76.95110933333333, "name": "579282f58e53ab68f9422ab6ba808cd9", "bike_id": "579282f58e53ab68f9422ab6ba808cd9", "fusion_lat": 0.0, "is_reserved": 0, "lat": 38.887904166666665, "fusion_lon": 0.0, "is_disabled": 0}, {"rental_uris": {"android": "https://dc.lft.to/lastmile_qr_scan", "ios": "https://dc.lft.to/lastmile_qr_scan"}, "type": "electric_scooter", "lon": -76.98879716666667, "name": "f88c530b78e77de94abf10fe503dc6ca", "bike_id": "f88c530b78e77de94abf10fe503dc6ca", "fusion_lat": 0.0, "is_reserved": 0, "lat": 38.906380166666665, "fusion_lon": 0.0, "is_disabled": 0}, {"rental_uris": {"android": "https://dc.lft.to/lastmile_qr_scan", "ios": "https://dc.lft.to/lastmile_qr_scan"}, "type": "electric_scooter", "lon": -77.0433905, "name": "efbc6a7f195262ebc940ff38ea1a0a6b", "bike_id": "efbc6a7f195262ebc940ff38ea1a0a6b", "fusion_lat": 0.0, "is_reserved": 0, "lat": 38.90512616666667, "fusion_lon": 0.0, "is_disabled": 0}, {"rental_uris": {"android": "https://dc.lft.to/lastmile_qr_scan", "ios": "https://dc.lft.to/lastmile_qr_scan"}, "type": "electric_scooter", "lon": -77.04154566666666, "name": "b31d33f539e047d1299d3631b30e97f9", "bike_id": "b31d33f539e047d1299d3631b30e97f9", "fusion_lat": 0.0, "is_reserved": 0, "lat": 38.916117666666665, "fusion_lon": 0.0, "is_disabled": 0}, {"rental_uris": {"android": "https://dc.lft.to/lastmile_qr_scan", "ios": "https://dc.lft.to/lastmile_qr_scan"}, "type": "electric_bike", "lon": -76.98161516666667, "name": "d20fb0aa9cd50073b8f540df5fb3d8f3", "bike_id": "d20fb0aa9cd50073b8f540df5fb3d8f3", "fusion_lat": 0.0, "is_reserved": 0, "lat": 38.9596365, "fusion_lon": 0.0, "is_disabled": 0}, {"rental_uris": {"android": "https://dc.lft.to/lastmile_qr_scan", "ios": "https://dc.lft.to/lastmile_qr_scan"}, "type": "electric_scooter", "lon": -77.015188, "name": "6e866ac8a635330f76b4336e2cf1b922", "bike_id": "6e866ac8a635330f76b4336e2cf1b922", "fusion_lat": 0.0, "is_reserved": 0, "lat": 38.913578333333334, "fusion_lon": 0.0, "is_disabled": 0}, {"rental_uris": {"android": "https://dc.lft.to/lastmile_qr_scan", "ios": "https://dc.lft.to/lastmile_qr_scan"}, "type": "electric_bike", "lon": -77.080439, "name": "5af492749517cc64dc1c9db10567b3a3", "bike_id": "5af492749517cc64dc1c9db10567b3a3", "fusion_lat": 0.0, "is_reserved": 0, "lat": 38.84848783333333, "fusion_lon": 0.0, "is_disabled": 0}, {"rental_uris": {"android": "https://dc.lft.to/lastmile_qr_scan", "ios": "https://dc.lft.to/lastmile_qr_scan"}, "type": "electric_scooter", "lon": -77.02685583333333, "name": "aa16c7b3f6ab7317b297835afe7c3cf3", "bike_id": "aa16c7b3f6ab7317b297835afe7c3cf3", "fusion_lat": 0.0, "is_reserved": 0, "lat": 38.9840535, "fusion_lon": 0.0, "is_disabled": 0}, {"rental_uris": {"android": "https://dc.lft.to/lastmile_qr_scan", "ios": "https://dc.lft.to/lastmile_qr_scan"}, "type": "electric_scooter", "lon": -77.04665216666666, "name": "77d8f26b14839aff8e710e2060c631e2", "bike_id": "77d8f26b14839aff8e710e2060c631e2", "fusion_lat": 0.0, "is_reserved": 0, "lat": 38.8990905, "fusion_lon": 0.0, "is_disabled": 0}, {"rental_uris": {"android": "https://dc.lft.to/lastmile_qr_scan", "ios": "https://dc.lft.to/lastmile_qr_scan"}, "type": "electric_scooter", "lon": -76.98474516666667, "name": "9c68f6b9554ba372faaf7de5bd35ff23", "bike_id": "9c68f6b9554ba372faaf7de5bd35ff23", "fusion_lat": 0.0, "is_reserved": 0, "lat": 38.9085905, "fusion_lon": 0.0, "is_disabled": 0}, {"rental_uris": {"android": "https://dc.lft.to/lastmile_qr_scan", "ios": "https://dc.lft.to/lastmile_qr_scan"}, "type": "electric_bike", "lon": -77.08619866666666, "name": "aef9e004dab30345fc75f3fa8b46c5ec", "bike_id": "aef9e004dab30345fc75f3fa8b46c5ec", "fusion_lat": 0.0, "is_reserved": 0, "lat": 38.874102666666666, "fusion_lon": 0.0, "is_disabled": 0}, {"rental_uris": {"android": "https://dc.lft.to/lastmile_qr_scan", "ios": "https://dc.lft.to/lastmile_qr_scan"}, "type": "electric_scooter", "lon": -77.02189733333333, "name": "c96b67999dae48089ad02c28097c5041", "bike_id": "c96b67999dae48089ad02c28097c5041", "fusion_lat": 0.0, "is_reserved": 0, "lat": 38.8961865, "fusion_lon": 0.0, "is_disabled": 0}, {"rental_uris": {"android": "https://dc.lft.to/lastmile_qr_scan", "ios": "https://dc.lft.to/lastmile_qr_scan"}, "type": "electric_bike", "lon": -76.95677816666667, "name": "ab2823707947dbaf4193bb891cab8e89", "bike_id": "ab2823707947dbaf4193bb891cab8e89", "fusion_lat": 0.0, "is_reserved": 0, "lat": 38.94733383333333, "fusion_lon": 0.0, "is_disabled": 0}, {"rental_uris": {"android": "https://dc.lft.to/lastmile_qr_scan", "ios": "https://dc.lft.to/lastmile_qr_scan"}, "type": "electric_scooter", "lon": -76.994603, "name": "f602b1acbf1771072417a57c42a13725", "bike_id": "f602b1acbf1771072417a57c42a13725", "fusion_lat": 0.0, "is_reserved": 0, "lat": 38.85162533333333, "fusion_lon": 0.0, "is_disabled": 0}, {"rental_uris": {"android": "https://dc.lft.to/lastmile_qr_scan", "ios": "https://dc.lft.to/lastmile_qr_scan"}, "type": "electric_scooter", "lon": -77.043696, "name": "81133ba92df937928652df84301ef316", "bike_id": "81133ba92df937928652df84301ef316", "fusion_lat": 0.0, "is_reserved": 0, "lat": 38.9257425, "fusion_lon": 0.0, "is_disabled": 0}, {"rental_uris": {"android": "https://dc.lft.to/lastmile_qr_scan", "ios": "https://dc.lft.to/lastmile_qr_scan"}, "type": "electric_scooter", "lon": -77.01221583333333, "name": "1b1df6b9eba05b91ebd844256fa56123", "bike_id": "1b1df6b9eba05b91ebd844256fa56123", "fusion_lat": 0.0, "is_reserved": 0, "lat": 38.91351866666667, "fusion_lon": 0.0, "is_disabled": 0}, {"rental_uris": {"android": "https://dc.lft.to/lastmile_qr_scan", "ios": "https://dc.lft.to/lastmile_qr_scan"}, "type": "electric_scooter", "lon": -77.06782433333333, "name": "2ab1e01b3c84d326cf55ff2c8462267f", "bike_id": "2ab1e01b3c84d326cf55ff2c8462267f", "fusion_lat": 0.0, "is_reserved": 0, "lat": 38.95210316666667, "fusion_lon": 0.0, "is_disabled": 0}, {"rental_uris": {"android": "https://dc.lft.to/lastmile_qr_scan", "ios": "https://dc.lft.to/lastmile_qr_scan"}, "type": "electric_scooter", "lon": -77.00737983333333, "name": "7654e99bbb714e2071e64e94076844a5", "bike_id": "7654e99bbb714e2071e64e94076844a5", "fusion_lat": 0.0, "is_reserved": 0, "lat": 38.955256, "fusion_lon": 0.0, "is_disabled": 0}, {"rental_uris": {"android": "https://dc.lft.to/lastmile_qr_scan", "ios": "https://dc.lft.to/lastmile_qr_scan"}, "type": "electric_scooter", "lon": -77.020088, "name": "d8835f0b8080d4956ad69d09737645f0", "bike_id": "d8835f0b8080d4956ad69d09737645f0", "fusion_lat": 0.0, "is_reserved": 0, "lat": 38.92408433333333, "fusion_lon": 0.0, "is_disabled": 0}, {"rental_uris": {"android": "https://dc.lft.to/lastmile_qr_scan", "ios": "https://dc.lft.to/lastmile_qr_scan"}, "type": "electric_scooter", "lon": -77.032753, "name": "73671cc4b8b838ab615727a607919772", "bike_id": "73671cc4b8b838ab615727a607919772", "fusion_lat": 0.0, "is_reserved": 0, "lat": 38.91906933333333, "fusion_lon": 0.0, "is_disabled": 0}, {"rental_uris": {"android": "https://dc.lft.to/lastmile_qr_scan", "ios": "https://dc.lft.to/lastmile_qr_scan"}, "type": "electric_scooter", "lon": -77.00961666666667, "name": "2e37cf8cc978439d13ee15506840a84f", "bike_id": "2e37cf8cc978439d13ee15506840a84f", "fusion_lat": 0.0, "is_reserved": 0, "lat": 38.881313, "fusion_lon": 0.0, "is_disabled": 0}, {"rental_uris": {"android": "https://dc.lft.to/lastmile_qr_scan", "ios": "https://dc.lft.to/lastmile_qr_scan"}, "type": "electric_scooter", "lon": -77.02501083333334, "name": "d463d8c886af1bd4ebc761b76a0eb58d", "bike_id": "d463d8c886af1bd4ebc761b76a0eb58d", "fusion_lat": 0.0, "is_reserved": 0, "lat": 38.942048666666665, "fusion_lon": 0.0, "is_disabled": 0}, {"rental_uris": {"android": "https://dc.lft.to/lastmile_qr_scan", "ios": "https://dc.lft.to/lastmile_qr_scan"}, "type": "electric_scooter", "lon": -76.9906895, "name": "6d15c5d387322c8841faf27bb9cb738c", "bike_id": "6d15c5d387322c8841faf27bb9cb738c", "fusion_lat": 0.0, "is_reserved": 0, "lat": 38.92943483333333, "fusion_lon": 0.0, "is_disabled": 0}, {"rental_uris": {"android": "https://dc.lft.to/lastmile_qr_scan", "ios": "https://dc.lft.to/lastmile_qr_scan"}, "type": "electric_scooter", "lon": -77.03856466666667, "name": "bba908f69d494b83d72877b1c80aea05", "bike_id": "bba908f69d494b83d72877b1c80aea05", "fusion_lat": 0.0, "is_reserved": 0, "lat": 38.915507, "fusion_lon": 0.0, "is_disabled": 0}, {"rental_uris": {"android": "https://dc.lft.to/lastmile_qr_scan", "ios": "https://dc.lft.to/lastmile_qr_scan"}, "type": "electric_scooter", "lon": -77.02969716666666, "name": "efac4aa853278f3bb5f75ff3814962e3", "bike_id": "efac4aa853278f3bb5f75ff3814962e3", "fusion_lat": 0.0, "is_reserved": 0, "lat": 38.906457, "fusion_lon": 0.0, "is_disabled": 0}, {"rental_uris": {"android": "https://dc.lft.to/lastmile_qr_scan", "ios": "https://dc.lft.to/lastmile_qr_scan"}, "type": "electric_scooter", "lon": -77.0304885, "name": "f4f5b2ff7f3e723b7eb258ded80aa72b", "bike_id": "f4f5b2ff7f3e723b7eb258ded80aa72b", "fusion_lat": 0.0, "is_reserved": 0, "lat": 38.9097475, "fusion_lon": 0.0, "is_disabled": 0}, {"rental_uris": {"android": "https://dc.lft.to/lastmile_qr_scan", "ios": "https://dc.lft.to/lastmile_qr_scan"}, "type": "electric_scooter", "lon": -77.05596833333334, "name": "f90bfc8427cd18987992d8289e9dd3cc", "bike_id": "f90bfc8427cd18987992d8289e9dd3cc", "fusion_lat": 0.0, "is_reserved": 0, "lat": 38.93702233333333, "fusion_lon": 0.0, "is_disabled": 0}, {"rental_uris": {"android": "https://dc.lft.to/lastmile_qr_scan", "ios": "https://dc.lft.to/lastmile_qr_scan"}, "type": "electric_scooter", "lon": -77.03022833333333, "name": "5cb9a689f5cfb75a1bb077ffb81b0dcd", "bike_id": "5cb9a689f5cfb75a1bb077ffb81b0dcd", "fusion_lat": 0.0, "is_reserved": 0, "lat": 38.923912333333334, "fusion_lon": 0.0, "is_disabled": 0}, {"rental_uris": {"android": "https://dc.lft.to/lastmile_qr_scan", "ios": "https://dc.lft.to/lastmile_qr_scan"}, "type": "electric_scooter", "lon": -77.047518, "name": "0daa34a392206dccde48c54a373b75c9", "bike_id": "0daa34a392206dccde48c54a373b75c9", "fusion_lat": 0.0, "is_reserved": 0, "lat": 38.905250833333334, "fusion_lon": 0.0, "is_disabled": 0}, {"rental_uris": {"android": "https://dc.lft.to/lastmile_qr_scan", "ios": "https://dc.lft.to/lastmile_qr_scan"}, "type": "electric_scooter", "lon": -77.02169433333333, "name": "2d59bacc1c8aa7b29fd766c477aca0e6", "bike_id": "2d59bacc1c8aa7b29fd766c477aca0e6", "fusion_lat": 0.0, "is_reserved": 0, "lat": 38.88746066666667, "fusion_lon": 0.0, "is_disabled": 0}, {"rental_uris": {"android": "https://dc.lft.to/lastmile_qr_scan", "ios": "https://dc.lft.to/lastmile_qr_scan"}, "type": "electric_bike", "lon": -76.905346, "name": "765580310cb5375ddde74e545cf0056b", "bike_id": "765580310cb5375ddde74e545cf0056b", "fusion_lat": 0.0, "is_reserved": 0, "lat": 38.89742483333333, "fusion_lon": 0.0, "is_disabled": 0}, {"rental_uris": {"android": "https://dc.lft.to/lastmile_qr_scan", "ios": "https://dc.lft.to/lastmile_qr_scan"}, "type": "electric_scooter", "lon": -77.04989316666666, "name": "66342fe91da184a03fcecd1c373acf48", "bike_id": "66342fe91da184a03fcecd1c373acf48", "fusion_lat": 0.0, "is_reserved": 0, "lat": 38.90546233333333, "fusion_lon": 0.0, "is_disabled": 0}, {"rental_uris": {"android": "https://dc.lft.to/lastmile_qr_scan", "ios": "https://dc.lft.to/lastmile_qr_scan"}, "type": "electric_scooter", "lon": -77.04061016666667, "name": "e61c5ba239f2659dd5554a67fbf64040", "bike_id": "e61c5ba239f2659dd5554a67fbf64040", "fusion_lat": 0.0, "is_reserved": 0, "lat": 38.926512333333335, "fusion_lon": 0.0, "is_disabled": 0}, {"rental_uris": {"android": "https://dc.lft.to/lastmile_qr_scan", "ios": "https://dc.lft.to/lastmile_qr_scan"}, "type": "electric_scooter", "lon": -77.008297, "name": "670e89baf1283cb3d3b48b32b47a4c13", "bike_id": "670e89baf1283cb3d3b48b32b47a4c13", "fusion_lat": 0.0, "is_reserved": 0, "lat": 38.91563683333333, "fusion_lon": 0.0, "is_disabled": 0}, {"rental_uris": {"android": "https://dc.lft.to/lastmile_qr_scan", "ios": "https://dc.lft.to/lastmile_qr_scan"}, "type": "electric_scooter", "lon": -77.03091166666667, "name": "3b781709f7de720999bd31c992611280", "bike_id": "3b781709f7de720999bd31c992611280", "fusion_lat": 0.0, "is_reserved": 0, "lat": 38.93245133333333, "fusion_lon": 0.0, "is_disabled": 0}, {"rental_uris": {"android": "https://dc.lft.to/lastmile_qr_scan", "ios": "https://dc.lft.to/lastmile_qr_scan"}, "type": "electric_scooter", "lon": -77.03288183333333, "name": "1951633d53a7b24456863635cb5d86e4", "bike_id": "1951633d53a7b24456863635cb5d86e4", "fusion_lat": 0.0, "is_reserved": 0, "lat": 38.90238016666667, "fusion_lon": 0.0, "is_disabled": 0}, {"rental_uris": {"android": "https://dc.lft.to/lastmile_qr_scan", "ios": "https://dc.lft.to/lastmile_qr_scan"}, "type": "electric_scooter", "lon": -77.03658466666667, "name": "b307fca28a8eb0acc0a15ada236bfaf9", "bike_id": "b307fca28a8eb0acc0a15ada236bfaf9", "fusion_lat": 0.0, "is_reserved": 0, "lat": 38.922486, "fusion_lon": 0.0, "is_disabled": 0}, {"rental_uris": {"android": "https://dc.lft.to/lastmile_qr_scan", "ios": "https://dc.lft.to/lastmile_qr_scan"}, "type": "electric_scooter", "lon": -77.03447233333333, "name": "4aede2f30641ba51fc265a1f430ff957", "bike_id": "4aede2f30641ba51fc265a1f430ff957", "fusion_lat": 0.0, "is_reserved": 0, "lat": 38.905818833333335, "fusion_lon": 0.0, "is_disabled": 0}, {"rental_uris": {"android": "https://dc.lft.to/lastmile_qr_scan", "ios": "https://dc.lft.to/lastmile_qr_scan"}, "type": "electric_scooter", "lon": -77.028218, "name": "138aecd1f5e4579bb5ce70d7a96d3d33", "bike_id": "138aecd1f5e4579bb5ce70d7a96d3d33", "fusion_lat": 0.0, "is_reserved": 0, "lat": 38.932837666666664, "fusion_lon": 0.0, "is_disabled": 0}, {"rental_uris": {"android": "https://dc.lft.to/lastmile_qr_scan", "ios": "https://dc.lft.to/lastmile_qr_scan"}, "type": "electric_scooter", "lon": -76.987128, "name": "d36a51c6afdd6427368772c3395c0770", "bike_id": "d36a51c6afdd6427368772c3395c0770", "fusion_lat": 0.0, "is_reserved": 0, "lat": 38.89925133333333, "fusion_lon": 0.0, "is_disabled": 0}, {"rental_uris": {"android": "https://dc.lft.to/lastmile_qr_scan", "ios": "https://dc.lft.to/lastmile_qr_scan"}, "type": "electric_scooter", "lon": -77.03214083333333, "name": "86fc108cf312f04777c5376f3c261d4d", "bike_id": "86fc108cf312f04777c5376f3c261d4d", "fusion_lat": 0.0, "is_reserved": 0, "lat": 38.929762333333336, "fusion_lon": 0.0, "is_disabled": 0}, {"rental_uris": {"android": "https://dc.lft.to/lastmile_qr_scan", "ios": "https://dc.lft.to/lastmile_qr_scan"}, "type": "electric_bike", "lon": -76.908139, "name": "259efc50d8817ca6e703abd0679555f3", "bike_id": "259efc50d8817ca6e703abd0679555f3", "fusion_lat": 0.0, "is_reserved": 0, "lat": 38.994575, "fusion_lon": 0.0, "is_disabled": 0}, {"rental_uris": {"android": "https://dc.lft.to/lastmile_qr_scan", "ios": "https://dc.lft.to/lastmile_qr_scan"}, "type": "electric_scooter", "lon": -77.02715733333334, "name": "82f128328065cc8f34cffbe8d8912eee", "bike_id": "82f128328065cc8f34cffbe8d8912eee", "fusion_lat": 0.0, "is_reserved": 0, "lat": 38.907518833333334, "fusion_lon": 0.0, "is_disabled": 0}, {"rental_uris": {"android": "https://dc.lft.to/lastmile_qr_scan", "ios": "https://dc.lft.to/lastmile_qr_scan"}, "type": "electric_scooter", "lon": -77.06245366666667, "name": "b0dc821da61bd2c6f9b999968ed8d4e3", "bike_id": "b0dc821da61bd2c6f9b999968ed8d4e3", "fusion_lat": 0.0, "is_reserved": 0, "lat": 38.9053295, "fusion_lon": 0.0, "is_disabled": 0}, {"rental_uris": {"android": "https://dc.lft.to/lastmile_qr_scan", "ios": "https://dc.lft.to/lastmile_qr_scan"}, "type": "electric_scooter", "lon": -77.03176233333333, "name": "40c59235476b5eb41df113c21dd06635", "bike_id": "40c59235476b5eb41df113c21dd06635", "fusion_lat": 0.0, "is_reserved": 0, "lat": 38.911254166666666, "fusion_lon": 0.0, "is_disabled": 0}, {"rental_uris": {"android": "https://dc.lft.to/lastmile_qr_scan", "ios": "https://dc.lft.to/lastmile_qr_scan"}, "type": "electric_scooter", "lon": -76.99454716666666, "name": "2fe3acd171ee882b02cbac2dbba82577", "bike_id": "2fe3acd171ee882b02cbac2dbba82577", "fusion_lat": 0.0, "is_reserved": 0, "lat": 38.86228766666667, "fusion_lon": 0.0, "is_disabled": 0}, {"rental_uris": {"android": "https://dc.lft.to/lastmile_qr_scan", "ios": "https://dc.lft.to/lastmile_qr_scan"}, "type": "electric_scooter", "lon": -77.101678, "name": "eae4ee27ee717a78aaae63cfb122d935", "bike_id": "eae4ee27ee717a78aaae63cfb122d935", "fusion_lat": 0.0, "is_reserved": 0, "lat": 38.925506666666664, "fusion_lon": 0.0, "is_disabled": 0}, {"rental_uris": {"android": "https://dc.lft.to/lastmile_qr_scan", "ios": "https://dc.lft.to/lastmile_qr_scan"}, "type": "electric_bike", "lon": -76.91594166666667, "name": "e62df5de04a94d20c4b92a0cae11ebcc", "bike_id": "e62df5de04a94d20c4b92a0cae11ebcc", "fusion_lat": 0.0, "is_reserved": 0, "lat": 38.880092, "fusion_lon": 0.0, "is_disabled": 0}, {"rental_uris": {"android": "https://dc.lft.to/lastmile_qr_scan", "ios": "https://dc.lft.to/lastmile_qr_scan"}, "type": "electric_scooter", "lon": -77.01981333333333, "name": "0fb8d9f51501a43880fdb2319e77712f", "bike_id": "0fb8d9f51501a43880fdb2319e77712f", "fusion_lat": 0.0, "is_reserved": 0, "lat": 38.901421166666665, "fusion_lon": 0.0, "is_disabled": 0}, {"rental_uris": {"android": "https://dc.lft.to/lastmile_qr_scan", "ios": "https://dc.lft.to/lastmile_qr_scan"}, "type": "electric_bike", "lon": -76.9782085, "name": "7a6607ae6b2596ad0c8b6c5baf51f19e", "bike_id": "7a6607ae6b2596ad0c8b6c5baf51f19e", "fusion_lat": 0.0, "is_reserved": 0, "lat": 38.846103166666666, "fusion_lon": 0.0, "is_disabled": 0}, {"rental_uris": {"android": "https://dc.lft.to/lastmile_qr_scan", "ios": "https://dc.lft.to/lastmile_qr_scan"}, "type": "electric_scooter", "lon": -77.0652975, "name": "2757915f1e610cf32706aecc5eec3450", "bike_id": "2757915f1e610cf32706aecc5eec3450", "fusion_lat": 0.0, "is_reserved": 0, "lat": 38.93478316666667, "fusion_lon": 0.0, "is_disabled": 0}, {"rental_uris": {"android": "https://dc.lft.to/lastmile_qr_scan", "ios": "https://dc.lft.to/lastmile_qr_scan"}, "type": "electric_scooter", "lon": -77.03333433333333, "name": "13975f68f21194a77625f14085962c04", "bike_id": "13975f68f21194a77625f14085962c04", "fusion_lat": 0.0, "is_reserved": 0, "lat": 38.92253683333333, "fusion_lon": 0.0, "is_disabled": 0}, {"rental_uris": {"android": "https://dc.lft.to/lastmile_qr_scan", "ios": "https://dc.lft.to/lastmile_qr_scan"}, "type": "electric_scooter", "lon": -77.04709016666666, "name": "a7c5332bc069ecb85eaf0ee5e03b75b6", "bike_id": "a7c5332bc069ecb85eaf0ee5e03b75b6", "fusion_lat": 0.0, "is_reserved": 0, "lat": 38.912638333333334, "fusion_lon": 0.0, "is_disabled": 0}, {"rental_uris": {"android": "https://dc.lft.to/lastmile_qr_scan", "ios": "https://dc.lft.to/lastmile_qr_scan"}, "type": "electric_scooter", "lon": -76.91918133333333, "name": "6a89a06bec7a9a5688d9671606bc8bc3", "bike_id": "6a89a06bec7a9a5688d9671606bc8bc3", "fusion_lat": 0.0, "is_reserved": 0, "lat": 38.89082033333333, "fusion_lon": 0.0, "is_disabled": 0}, {"rental_uris": {"android": "https://dc.lft.to/lastmile_qr_scan", "ios": "https://dc.lft.to/lastmile_qr_scan"}, "type": "electric_scooter", "lon": -76.98567466666667, "name": "757a44dd9fad753936cddc99b0045236", "bike_id": "757a44dd9fad753936cddc99b0045236", "fusion_lat": 0.0, "is_reserved": 0, "lat": 38.90931633333334, "fusion_lon": 0.0, "is_disabled": 0}, {"rental_uris": {"android": "https://dc.lft.to/lastmile_qr_scan", "ios": "https://dc.lft.to/lastmile_qr_scan"}, "type": "electric_bike", "lon": -77.0162335, "name": "e29b7fc0a251c7d222eb38b77bc8c87b", "bike_id": "e29b7fc0a251c7d222eb38b77bc8c87b", "fusion_lat": 0.0, "is_reserved": 0, "lat": 38.99094783333334, "fusion_lon": 0.0, "is_disabled": 0}, {"rental_uris": {"android": "https://dc.lft.to/lastmile_qr_scan", "ios": "https://dc.lft.to/lastmile_qr_scan"}, "type": "electric_scooter", "lon": -77.03430533333334, "name": "09fd2f1eb55b210c2db210821ab2d4f3", "bike_id": "09fd2f1eb55b210c2db210821ab2d4f3", "fusion_lat": 0.0, "is_reserved": 0, "lat": 38.90432933333334, "fusion_lon": 0.0, "is_disabled": 0}, {"rental_uris": {"android": "https://dc.lft.to/lastmile_qr_scan", "ios": "https://dc.lft.to/lastmile_qr_scan"}, "type": "electric_scooter", "lon": -77.02688083333334, "name": "2242800bfa79b66f9808b2bf4b5279b0", "bike_id": "2242800bfa79b66f9808b2bf4b5279b0", "fusion_lat": 0.0, "is_reserved": 0, "lat": 38.9127735, "fusion_lon": 0.0, "is_disabled": 0}, {"rental_uris": {"android": "https://dc.lft.to/lastmile_qr_scan", "ios": "https://dc.lft.to/lastmile_qr_scan"}, "type": "electric_scooter", "lon": -77.045066, "name": "dc926f937d75858ca6512ed78b3c21e9", "bike_id": "dc926f937d75858ca6512ed78b3c21e9", "fusion_lat": 0.0, "is_reserved": 0, "lat": 38.89224566666667, "fusion_lon": 0.0, "is_disabled": 0}, {"rental_uris": {"android": "https://dc.lft.to/lastmile_qr_scan", "ios": "https://dc.lft.to/lastmile_qr_scan"}, "type": "electric_bike", "lon": -76.96684716666667, "name": "5ce0599997f978a6984210adf3a5a2d2", "bike_id": "5ce0599997f978a6984210adf3a5a2d2", "fusion_lat": 0.0, "is_reserved": 0, "lat": 38.94566066666667, "fusion_lon": 0.0, "is_disabled": 0}, {"rental_uris": {"android": "https://dc.lft.to/lastmile_qr_scan", "ios": "https://dc.lft.to/lastmile_qr_scan"}, "type": "electric_scooter", "lon": -76.99650283333334, "name": "77c9514a50f8e7ffcf2204ff3e67c5fc", "bike_id": "77c9514a50f8e7ffcf2204ff3e67c5fc", "fusion_lat": 0.0, "is_reserved": 0, "lat": 38.898967166666665, "fusion_lon": 0.0, "is_disabled": 0}, {"rental_uris": {"android": "https://dc.lft.to/lastmile_qr_scan", "ios": "https://dc.lft.to/lastmile_qr_scan"}, "type": "electric_scooter", "lon": -77.02376316666667, "name": "cf3a891d0d8550e7d994b3d4ba9aa463", "bike_id": "cf3a891d0d8550e7d994b3d4ba9aa463", "fusion_lat": 0.0, "is_reserved": 0, "lat": 38.8990485, "fusion_lon": 0.0, "is_disabled": 0}, {"rental_uris": {"android": "https://dc.lft.to/lastmile_qr_scan", "ios": "https://dc.lft.to/lastmile_qr_scan"}, "type": "electric_scooter", "lon": -77.02696366666666, "name": "ba54628e9346b873293ebf3b485f863a", "bike_id": "ba54628e9346b873293ebf3b485f863a", "fusion_lat": 0.0, "is_reserved": 0, "lat": 38.91816433333334, "fusion_lon": 0.0, "is_disabled": 0}, {"rental_uris": {"android": "https://dc.lft.to/lastmile_qr_scan", "ios": "https://dc.lft.to/lastmile_qr_scan"}, "type": "electric_scooter", "lon": -77.028312, "name": "7409c14d4018c1754413900369f96ab4", "bike_id": "7409c14d4018c1754413900369f96ab4", "fusion_lat": 0.0, "is_reserved": 0, "lat": 38.950853333333335, "fusion_lon": 0.0, "is_disabled": 0}, {"rental_uris": {"android": "https://dc.lft.to/lastmile_qr_scan", "ios": "https://dc.lft.to/lastmile_qr_scan"}, "type": "electric_bike", "lon": -77.06980666666666, "name": "2735c76292fe946a20aa8566fb75fa6b", "bike_id": "2735c76292fe946a20aa8566fb75fa6b", "fusion_lat": 0.0, "is_reserved": 0, "lat": 38.952733, "fusion_lon": 0.0, "is_disabled": 0}, {"rental_uris": {"android": "https://dc.lft.to/lastmile_qr_scan", "ios": "https://dc.lft.to/lastmile_qr_scan"}, "type": "electric_scooter", "lon": -77.05297316666666, "name": "453bb3fa0b1f5dd540e9ac95d42c1362", "bike_id": "453bb3fa0b1f5dd540e9ac95d42c1362", "fusion_lat": 0.0, "is_reserved": 0, "lat": 38.91702933333333, "fusion_lon": 0.0, "is_disabled": 0}, {"rental_uris": {"android": "https://dc.lft.to/lastmile_qr_scan", "ios": "https://dc.lft.to/lastmile_qr_scan"}, "type": "electric_scooter", "lon": -77.03178783333334, "name": "e46672cc527a1cd3cf9cf95427cbce40", "bike_id": "e46672cc527a1cd3cf9cf95427cbce40", "fusion_lat": 0.0, "is_reserved": 0, "lat": 38.918162, "fusion_lon": 0.0, "is_disabled": 0}, {"rental_uris": {"android": "https://dc.lft.to/lastmile_qr_scan", "ios": "https://dc.lft.to/lastmile_qr_scan"}, "type": "electric_scooter", "lon": -76.99855133333334, "name": "9637e51b9924d09cbc5b30e5b3b68c39", "bike_id": "9637e51b9924d09cbc5b30e5b3b68c39", "fusion_lat": 0.0, "is_reserved": 0, "lat": 38.907698333333336, "fusion_lon": 0.0, "is_disabled": 0}, {"rental_uris": {"android": "https://dc.lft.to/lastmile_qr_scan", "ios": "https://dc.lft.to/lastmile_qr_scan"}, "type": "electric_scooter", "lon": -77.01764516666667, "name": "50f91e62629cb96744d556bfaf3547a1", "bike_id": "50f91e62629cb96744d556bfaf3547a1", "fusion_lat": 0.0, "is_reserved": 0, "lat": 38.87351916666667, "fusion_lon": 0.0, "is_disabled": 0}, {"rental_uris": {"android": "https://dc.lft.to/lastmile_qr_scan", "ios": "https://dc.lft.to/lastmile_qr_scan"}, "type": "electric_scooter", "lon": -77.031446, "name": "e40442e483c890eacc47edd37787f715", "bike_id": "e40442e483c890eacc47edd37787f715", "fusion_lat": 0.0, "is_reserved": 0, "lat": 38.91265883333333, "fusion_lon": 0.0, "is_disabled": 0}, {"rental_uris": {"android": "https://dc.lft.to/lastmile_qr_scan", "ios": "https://dc.lft.to/lastmile_qr_scan"}, "type": "electric_scooter", "lon": -77.048351, "name": "bc3b2ac3cdecc4db23c32e50e07066f0", "bike_id": "bc3b2ac3cdecc4db23c32e50e07066f0", "fusion_lat": 0.0, "is_reserved": 0, "lat": 38.911416833333334, "fusion_lon": 0.0, "is_disabled": 0}, {"rental_uris": {"android": "https://dc.lft.to/lastmile_qr_scan", "ios": "https://dc.lft.to/lastmile_qr_scan"}, "type": "electric_scooter", "lon": -77.00215883333334, "name": "a17c6dd95030726037604f22779969e2", "bike_id": "a17c6dd95030726037604f22779969e2", "fusion_lat": 0.0, "is_reserved": 0, "lat": 38.90293233333333, "fusion_lon": 0.0, "is_disabled": 0}, {"rental_uris": {"android": "https://dc.lft.to/lastmile_qr_scan", "ios": "https://dc.lft.to/lastmile_qr_scan"}, "type": "electric_scooter", "lon": -77.0088315, "name": "c8dccd1fa4f1d5a19dd395683a64867d", "bike_id": "c8dccd1fa4f1d5a19dd395683a64867d", "fusion_lat": 0.0, "is_reserved": 0, "lat": 38.873561333333335, "fusion_lon": 0.0, "is_disabled": 0}, {"rental_uris": {"android": "https://dc.lft.to/lastmile_qr_scan", "ios": "https://dc.lft.to/lastmile_qr_scan"}, "type": "electric_bike", "lon": -76.9906025, "name": "9cdfad93a1e5460a6ae78a394ec97c85", "bike_id": "9cdfad93a1e5460a6ae78a394ec97c85", "fusion_lat": 0.0, "is_reserved": 0, "lat": 38.93689666666667, "fusion_lon": 0.0, "is_disabled": 0}, {"rental_uris": {"android": "https://dc.lft.to/lastmile_qr_scan", "ios": "https://dc.lft.to/lastmile_qr_scan"}, "type": "electric_scooter", "lon": -77.03815316666666, "name": "82a52a2bf5dc2d589df4d1467e2e8793", "bike_id": "82a52a2bf5dc2d589df4d1467e2e8793", "fusion_lat": 0.0, "is_reserved": 0, "lat": 38.92074, "fusion_lon": 0.0, "is_disabled": 0}, {"rental_uris": {"android": "https://dc.lft.to/lastmile_qr_scan", "ios": "https://dc.lft.to/lastmile_qr_scan"}, "type": "electric_scooter", "lon": -76.99682533333333, "name": "db055997c71577a21f72591707cde02f", "bike_id": "db055997c71577a21f72591707cde02f", "fusion_lat": 0.0, "is_reserved": 0, "lat": 38.88702766666667, "fusion_lon": 0.0, "is_disabled": 0}, {"rental_uris": {"android": "https://dc.lft.to/lastmile_qr_scan", "ios": "https://dc.lft.to/lastmile_qr_scan"}, "type": "electric_bike", "lon": -76.94569483333333, "name": "28fd93cbc4e37f0687427896fc7cae81", "bike_id": "28fd93cbc4e37f0687427896fc7cae81", "fusion_lat": 0.0, "is_reserved": 0, "lat": 38.86623383333333, "fusion_lon": 0.0, "is_disabled": 0}, {"rental_uris": {"android": "https://dc.lft.to/lastmile_qr_scan", "ios": "https://dc.lft.to/lastmile_qr_scan"}, "type": "electric_scooter", "lon": -77.03848266666667, "name": "e3016b61cb8895a109a2ba2e3bfb9fa5", "bike_id": "e3016b61cb8895a109a2ba2e3bfb9fa5", "fusion_lat": 0.0, "is_reserved": 0, "lat": 38.91548066666667, "fusion_lon": 0.0, "is_disabled": 0}, {"rental_uris": {"android": "https://dc.lft.to/lastmile_qr_scan", "ios": "https://dc.lft.to/lastmile_qr_scan"}, "type": "electric_scooter", "lon": -77.04321766666666, "name": "c3265acb9cb824145749fb82647846e3", "bike_id": "c3265acb9cb824145749fb82647846e3", "fusion_lat": 0.0, "is_reserved": 0, "lat": 38.892266166666666, "fusion_lon": 0.0, "is_disabled": 0}, {"rental_uris": {"android": "https://dc.lft.to/lastmile_qr_scan", "ios": "https://dc.lft.to/lastmile_qr_scan"}, "type": "electric_scooter", "lon": -77.03757716666667, "name": "dd03a4e7ebe76244779a4c370fd0a7c6", "bike_id": "dd03a4e7ebe76244779a4c370fd0a7c6", "fusion_lat": 0.0, "is_reserved": 0, "lat": 38.906732, "fusion_lon": 0.0, "is_disabled": 0}, {"rental_uris": {"android": "https://dc.lft.to/lastmile_qr_scan", "ios": "https://dc.lft.to/lastmile_qr_scan"}, "type": "electric_bike", "lon": -77.005047, "name": "2a4a2bc00cbe09ad85cc573d0969a957", "bike_id": "2a4a2bc00cbe09ad85cc573d0969a957", "fusion_lat": 0.0, "is_reserved": 0, "lat": 38.8753725, "fusion_lon": 0.0, "is_disabled": 0}, {"rental_uris": {"android": "https://dc.lft.to/lastmile_qr_scan", "ios": "https://dc.lft.to/lastmile_qr_scan"}, "type": "electric_scooter", "lon": -76.9960545, "name": "d27277965781505e1509693c61b302dd", "bike_id": "d27277965781505e1509693c61b302dd", "fusion_lat": 0.0, "is_reserved": 0, "lat": 38.897618666666666, "fusion_lon": 0.0, "is_disabled": 0}, {"rental_uris": {"android": "https://dc.lft.to/lastmile_qr_scan", "ios": "https://dc.lft.to/lastmile_qr_scan"}, "type": "electric_scooter", "lon": -77.06885816666667, "name": "8c48d0583ab715108bac954e25dbec5e", "bike_id": "8c48d0583ab715108bac954e25dbec5e", "fusion_lat": 0.0, "is_reserved": 0, "lat": 38.905184166666665, "fusion_lon": 0.0, "is_disabled": 0}, {"rental_uris": {"android": "https://dc.lft.to/lastmile_qr_scan", "ios": "https://dc.lft.to/lastmile_qr_scan"}, "type": "electric_scooter", "lon": -77.0183685, "name": "fa365a4887b141fbb51b3634ff5d79ff", "bike_id": "fa365a4887b141fbb51b3634ff5d79ff", "fusion_lat": 0.0, "is_reserved": 0, "lat": 38.90961766666667, "fusion_lon": 0.0, "is_disabled": 0}, {"rental_uris": {"android": "https://dc.lft.to/lastmile_qr_scan", "ios": "https://dc.lft.to/lastmile_qr_scan"}, "type": "electric_scooter", "lon": -77.02168633333334, "name": "78efae7677d994d525e9f726e6983ec0", "bike_id": "78efae7677d994d525e9f726e6983ec0", "fusion_lat": 0.0, "is_reserved": 0, "lat": 38.8874575, "fusion_lon": 0.0, "is_disabled": 0}, {"rental_uris": {"android": "https://dc.lft.to/lastmile_qr_scan", "ios": "https://dc.lft.to/lastmile_qr_scan"}, "type": "electric_scooter", "lon": -77.02201633333334, "name": "9ef5e42320c2c571296433881cce8640", "bike_id": "9ef5e42320c2c571296433881cce8640", "fusion_lat": 0.0, "is_reserved": 0, "lat": 38.89616816666667, "fusion_lon": 0.0, "is_disabled": 0}, {"rental_uris": {"android": "https://dc.lft.to/lastmile_qr_scan", "ios": "https://dc.lft.to/lastmile_qr_scan"}, "type": "electric_scooter", "lon": -77.03076166666666, "name": "5792f98cf5ed71e4b6681ee4ca5a6b92", "bike_id": "5792f98cf5ed71e4b6681ee4ca5a6b92", "fusion_lat": 0.0, "is_reserved": 0, "lat": 38.927213333333334, "fusion_lon": 0.0, "is_disabled": 0}, {"rental_uris": {"android": "https://dc.lft.to/lastmile_qr_scan", "ios": "https://dc.lft.to/lastmile_qr_scan"}, "type": "electric_scooter", "lon": -77.0238595, "name": "e3cc2bd5c02c8ec88a5b54f4063d5528", "bike_id": "e3cc2bd5c02c8ec88a5b54f4063d5528", "fusion_lat": 0.0, "is_reserved": 0, "lat": 38.9071515, "fusion_lon": 0.0, "is_disabled": 0}, {"rental_uris": {"android": "https://dc.lft.to/lastmile_qr_scan", "ios": "https://dc.lft.to/lastmile_qr_scan"}, "type": "electric_scooter", "lon": -77.01109883333334, "name": "c1a462959359aebdacb138746533c4ac", "bike_id": "c1a462959359aebdacb138746533c4ac", "fusion_lat": 0.0, "is_reserved": 0, "lat": 38.9036415, "fusion_lon": 0.0, "is_disabled": 0}, {"rental_uris": {"android": "https://dc.lft.to/lastmile_qr_scan", "ios": "https://dc.lft.to/lastmile_qr_scan"}, "type": "electric_scooter", "lon": -77.00590233333334, "name": "28b60fc26f9af4a309abee7f21f37899", "bike_id": "28b60fc26f9af4a309abee7f21f37899", "fusion_lat": 0.0, "is_reserved": 0, "lat": 38.877104, "fusion_lon": 0.0, "is_disabled": 0}, {"rental_uris": {"android": "https://dc.lft.to/lastmile_qr_scan", "ios": "https://dc.lft.to/lastmile_qr_scan"}, "type": "electric_scooter", "lon": -77.0295395, "name": "0f4987b61ecbfcd419198d9f334f3d5e", "bike_id": "0f4987b61ecbfcd419198d9f334f3d5e", "fusion_lat": 0.0, "is_reserved": 0, "lat": 38.92409083333333, "fusion_lon": 0.0, "is_disabled": 0}, {"rental_uris": {"android": "https://dc.lft.to/lastmile_qr_scan", "ios": "https://dc.lft.to/lastmile_qr_scan"}, "type": "electric_scooter", "lon": -77.01721033333334, "name": "7c93417a9284e44cea161cecf4de39e0", "bike_id": "7c93417a9284e44cea161cecf4de39e0", "fusion_lat": 0.0, "is_reserved": 0, "lat": 38.885935, "fusion_lon": 0.0, "is_disabled": 0}, {"rental_uris": {"android": "https://dc.lft.to/lastmile_qr_scan", "ios": "https://dc.lft.to/lastmile_qr_scan"}, "type": "electric_bike", "lon": -77.0852835, "name": "dd7ec3a684dc93bc8aef92bc708284d5", "bike_id": "dd7ec3a684dc93bc8aef92bc708284d5", "fusion_lat": 0.0, "is_reserved": 0, "lat": 38.8565225, "fusion_lon": 0.0, "is_disabled": 0}, {"rental_uris": {"android": "https://dc.lft.to/lastmile_qr_scan", "ios": "https://dc.lft.to/lastmile_qr_scan"}, "type": "electric_scooter", "lon": -77.0450085, "name": "51c0753f9af9d833fa23ff33dc2172c3", "bike_id": "51c0753f9af9d833fa23ff33dc2172c3", "fusion_lat": 0.0, "is_reserved": 0, "lat": 38.91937583333333, "fusion_lon": 0.0, "is_disabled": 0}, {"rental_uris": {"android": "https://dc.lft.to/lastmile_qr_scan", "ios": "https://dc.lft.to/lastmile_qr_scan"}, "type": "electric_scooter", "lon": -77.04835016666667, "name": "c0ad6eb879350ab94b7628d858f2bc67", "bike_id": "c0ad6eb879350ab94b7628d858f2bc67", "fusion_lat": 0.0, "is_reserved": 0, "lat": 38.913337166666665, "fusion_lon": 0.0, "is_disabled": 0}, {"rental_uris": {"android": "https://dc.lft.to/lastmile_qr_scan", "ios": "https://dc.lft.to/lastmile_qr_scan"}, "type": "electric_bike", "lon": -77.03626183333333, "name": "0951458c4a64f47baf5913fabadaeb80", "bike_id": "0951458c4a64f47baf5913fabadaeb80", "fusion_lat": 0.0, "is_reserved": 0, "lat": 38.93771616666667, "fusion_lon": 0.0, "is_disabled": 0}, {"rental_uris": {"android": "https://dc.lft.to/lastmile_qr_scan", "ios": "https://dc.lft.to/lastmile_qr_scan"}, "type": "electric_scooter", "lon": -77.025475, "name": "8a19cd434d1b6a3a631fedc5c6a6090d", "bike_id": "8a19cd434d1b6a3a631fedc5c6a6090d", "fusion_lat": 0.0, "is_reserved": 0, "lat": 38.8922265, "fusion_lon": 0.0, "is_disabled": 0}, {"rental_uris": {"android": "https://dc.lft.to/lastmile_qr_scan", "ios": "https://dc.lft.to/lastmile_qr_scan"}, "type": "electric_scooter", "lon": -77.02679616666667, "name": "11d4a859870562e0a9cf8864d96031f0", "bike_id": "11d4a859870562e0a9cf8864d96031f0", "fusion_lat": 0.0, "is_reserved": 0, "lat": 38.9096495, "fusion_lon": 0.0, "is_disabled": 0}, {"rental_uris": {"android": "https://dc.lft.to/lastmile_qr_scan", "ios": "https://dc.lft.to/lastmile_qr_scan"}, "type": "electric_bike", "lon": -77.0128875, "name": "ece9fffb414e80b6872952330bc7f189", "bike_id": "ece9fffb414e80b6872952330bc7f189", "fusion_lat": 0.0, "is_reserved": 0, "lat": 39.003793, "fusion_lon": 0.0, "is_disabled": 0}, {"rental_uris": {"android": "https://dc.lft.to/lastmile_qr_scan", "ios": "https://dc.lft.to/lastmile_qr_scan"}, "type": "electric_scooter", "lon": -76.9484185, "name": "13bd03e805166046f2af648a037d2961", "bike_id": "13bd03e805166046f2af648a037d2961", "fusion_lat": 0.0, "is_reserved": 0, "lat": 38.894867833333336, "fusion_lon": 0.0, "is_disabled": 0}, {"rental_uris": {"android": "https://dc.lft.to/lastmile_qr_scan", "ios": "https://dc.lft.to/lastmile_qr_scan"}, "type": "electric_scooter", "lon": -77.03256716666667, "name": "ab9826a09ada90a63b5f3f7b484b7c12", "bike_id": "ab9826a09ada90a63b5f3f7b484b7c12", "fusion_lat": 0.0, "is_reserved": 0, "lat": 38.91402633333333, "fusion_lon": 0.0, "is_disabled": 0}, {"rental_uris": {"android": "https://dc.lft.to/lastmile_qr_scan", "ios": "https://dc.lft.to/lastmile_qr_scan"}, "type": "electric_scooter", "lon": -76.9937945, "name": "dfe21692b29ba427387d345692cc984d", "bike_id": "dfe21692b29ba427387d345692cc984d", "fusion_lat": 0.0, "is_reserved": 0, "lat": 38.886915333333334, "fusion_lon": 0.0, "is_disabled": 0}, {"rental_uris": {"android": "https://dc.lft.to/lastmile_qr_scan", "ios": "https://dc.lft.to/lastmile_qr_scan"}, "type": "electric_scooter", "lon": -76.994846, "name": "6645bf9942a7337baeb04ed90a5b86a8", "bike_id": "6645bf9942a7337baeb04ed90a5b86a8", "fusion_lat": 0.0, "is_reserved": 0, "lat": 38.90098666666667, "fusion_lon": 0.0, "is_disabled": 0}, {"rental_uris": {"android": "https://dc.lft.to/lastmile_qr_scan", "ios": "https://dc.lft.to/lastmile_qr_scan"}, "type": "electric_scooter", "lon": -77.04011216666666, "name": "539fda04cb0b82b8379f059387b72dd8", "bike_id": "539fda04cb0b82b8379f059387b72dd8", "fusion_lat": 0.0, "is_reserved": 0, "lat": 38.902627333333335, "fusion_lon": 0.0, "is_disabled": 0}, {"rental_uris": {"android": "https://dc.lft.to/lastmile_qr_scan", "ios": "https://dc.lft.to/lastmile_qr_scan"}, "type": "electric_bike", "lon": -77.1322845, "name": "9228a28659e96dbf91c3592148905743", "bike_id": "9228a28659e96dbf91c3592148905743", "fusion_lat": 0.0, "is_reserved": 0, "lat": 38.86976966666667, "fusion_lon": 0.0, "is_disabled": 0}, {"rental_uris": {"android": "https://dc.lft.to/lastmile_qr_scan", "ios": "https://dc.lft.to/lastmile_qr_scan"}, "type": "electric_scooter", "lon": -77.0681795, "name": "bf933a6dd2a205c2b89072f97ad19baa", "bike_id": "bf933a6dd2a205c2b89072f97ad19baa", "fusion_lat": 0.0, "is_reserved": 0, "lat": 38.916431333333335, "fusion_lon": 0.0, "is_disabled": 0}, {"rental_uris": {"android": "https://dc.lft.to/lastmile_qr_scan", "ios": "https://dc.lft.to/lastmile_qr_scan"}, "type": "electric_scooter", "lon": -77.05795066666667, "name": "9625002d44deb44525b3ec4758493dc4", "bike_id": "9625002d44deb44525b3ec4758493dc4", "fusion_lat": 0.0, "is_reserved": 0, "lat": 38.90373266666667, "fusion_lon": 0.0, "is_disabled": 0}, {"rental_uris": {"android": "https://dc.lft.to/lastmile_qr_scan", "ios": "https://dc.lft.to/lastmile_qr_scan"}, "type": "electric_scooter", "lon": -77.02603466666666, "name": "1d0d398934857561b8b4caa7812ea480", "bike_id": "1d0d398934857561b8b4caa7812ea480", "fusion_lat": 0.0, "is_reserved": 0, "lat": 38.9000295, "fusion_lon": 0.0, "is_disabled": 0}, {"rental_uris": {"android": "https://dc.lft.to/lastmile_qr_scan", "ios": "https://dc.lft.to/lastmile_qr_scan"}, "type": "electric_scooter", "lon": -77.02098633333334, "name": "64f88e9c3fb5f90111b749efb6611621", "bike_id": "64f88e9c3fb5f90111b749efb6611621", "fusion_lat": 0.0, "is_reserved": 0, "lat": 38.91111316666667, "fusion_lon": 0.0, "is_disabled": 0}, {"rental_uris": {"android": "https://dc.lft.to/lastmile_qr_scan", "ios": "https://dc.lft.to/lastmile_qr_scan"}, "type": "electric_scooter", "lon": -77.021696, "name": "b317c676549962324a71b849b27e88c5", "bike_id": "b317c676549962324a71b849b27e88c5", "fusion_lat": 0.0, "is_reserved": 0, "lat": 38.94297616666667, "fusion_lon": 0.0, "is_disabled": 0}, {"rental_uris": {"android": "https://dc.lft.to/lastmile_qr_scan", "ios": "https://dc.lft.to/lastmile_qr_scan"}, "type": "electric_scooter", "lon": -77.00581116666666, "name": "4fef3565164578adb90ced347448af07", "bike_id": "4fef3565164578adb90ced347448af07", "fusion_lat": 0.0, "is_reserved": 0, "lat": 38.8763625, "fusion_lon": 0.0, "is_disabled": 0}, {"rental_uris": {"android": "https://dc.lft.to/lastmile_qr_scan", "ios": "https://dc.lft.to/lastmile_qr_scan"}, "type": "electric_scooter", "lon": -76.92403183333333, "name": "bec17ad6d366e3cf87035a40c4126db4", "bike_id": "bec17ad6d366e3cf87035a40c4126db4", "fusion_lat": 0.0, "is_reserved": 0, "lat": 38.889925166666664, "fusion_lon": 0.0, "is_disabled": 0}, {"rental_uris": {"android": "https://dc.lft.to/lastmile_qr_scan", "ios": "https://dc.lft.to/lastmile_qr_scan"}, "type": "electric_scooter", "lon": -77.02715633333334, "name": "4d48834307cf861055763a5c851f2c06", "bike_id": "4d48834307cf861055763a5c851f2c06", "fusion_lat": 0.0, "is_reserved": 0, "lat": 38.909031166666665, "fusion_lon": 0.0, "is_disabled": 0}, {"rental_uris": {"android": "https://dc.lft.to/lastmile_qr_scan", "ios": "https://dc.lft.to/lastmile_qr_scan"}, "type": "electric_scooter", "lon": -77.02960433333334, "name": "818ecb9baa217be9a144cc2313bcb4d3", "bike_id": "818ecb9baa217be9a144cc2313bcb4d3", "fusion_lat": 0.0, "is_reserved": 0, "lat": 38.893344166666665, "fusion_lon": 0.0, "is_disabled": 0}, {"rental_uris": {"android": "https://dc.lft.to/lastmile_qr_scan", "ios": "https://dc.lft.to/lastmile_qr_scan"}, "type": "electric_scooter", "lon": -76.99162916666667, "name": "8d5f503c27ce281a829925e946c8d0f9", "bike_id": "8d5f503c27ce281a829925e946c8d0f9", "fusion_lat": 0.0, "is_reserved": 0, "lat": 38.879183833333336, "fusion_lon": 0.0, "is_disabled": 0}, {"rental_uris": {"android": "https://dc.lft.to/lastmile_qr_scan", "ios": "https://dc.lft.to/lastmile_qr_scan"}, "type": "electric_scooter", "lon": -77.04707716666667, "name": "9ee9b9efc3a92b6656312741ccb12ccb", "bike_id": "9ee9b9efc3a92b6656312741ccb12ccb", "fusion_lat": 0.0, "is_reserved": 0, "lat": 38.9126165, "fusion_lon": 0.0, "is_disabled": 0}, {"rental_uris": {"android": "https://dc.lft.to/lastmile_qr_scan", "ios": "https://dc.lft.to/lastmile_qr_scan"}, "type": "electric_bike", "lon": -76.934097, "name": "2cc010a827cc52ad9cadf2ab8ebe5bfd", "bike_id": "2cc010a827cc52ad9cadf2ab8ebe5bfd", "fusion_lat": 0.0, "is_reserved": 0, "lat": 38.946257, "fusion_lon": 0.0, "is_disabled": 0}, {"rental_uris": {"android": "https://dc.lft.to/lastmile_qr_scan", "ios": "https://dc.lft.to/lastmile_qr_scan"}, "type": "electric_scooter", "lon": -76.97346433333334, "name": "c0c0826014609c082e6de4077c70c87e", "bike_id": "c0c0826014609c082e6de4077c70c87e", "fusion_lat": 0.0, "is_reserved": 0, "lat": 38.865110333333334, "fusion_lon": 0.0, "is_disabled": 0}, {"rental_uris": {"android": "https://dc.lft.to/lastmile_qr_scan", "ios": "https://dc.lft.to/lastmile_qr_scan"}, "type": "electric_scooter", "lon": -77.02305566666666, "name": "8c5a9badc96a61e704545bd14d45e4f2", "bike_id": "8c5a9badc96a61e704545bd14d45e4f2", "fusion_lat": 0.0, "is_reserved": 0, "lat": 38.928838666666664, "fusion_lon": 0.0, "is_disabled": 0}, {"rental_uris": {"android": "https://dc.lft.to/lastmile_qr_scan", "ios": "https://dc.lft.to/lastmile_qr_scan"}, "type": "electric_bike", "lon": -77.09161, "name": "3a46dfa7666e2ac445fa100f7a8b4bdd", "bike_id": "3a46dfa7666e2ac445fa100f7a8b4bdd", "fusion_lat": 0.0, "is_reserved": 0, "lat": 38.9676235, "fusion_lon": 0.0, "is_disabled": 0}, {"rental_uris": {"android": "https://dc.lft.to/lastmile_qr_scan", "ios": "https://dc.lft.to/lastmile_qr_scan"}, "type": "electric_scooter", "lon": -77.02280683333333, "name": "f6278f79f6fdb6558d338b81747ee0e4", "bike_id": "f6278f79f6fdb6558d338b81747ee0e4", "fusion_lat": 0.0, "is_reserved": 0, "lat": 38.917490666666666, "fusion_lon": 0.0, "is_disabled": 0}, {"rental_uris": {"android": "https://dc.lft.to/lastmile_qr_scan", "ios": "https://dc.lft.to/lastmile_qr_scan"}, "type": "electric_scooter", "lon": -77.032658, "name": "19ff29119785df23b57affc7928214db", "bike_id": "19ff29119785df23b57affc7928214db", "fusion_lat": 0.0, "is_reserved": 0, "lat": 38.93260516666667, "fusion_lon": 0.0, "is_disabled": 0}, {"rental_uris": {"android": "https://dc.lft.to/lastmile_qr_scan", "ios": "https://dc.lft.to/lastmile_qr_scan"}, "type": "electric_scooter", "lon": -77.03214316666667, "name": "d4cc619840e813960a51b1754c606d10", "bike_id": "d4cc619840e813960a51b1754c606d10", "fusion_lat": 0.0, "is_reserved": 0, "lat": 38.918533333333336, "fusion_lon": 0.0, "is_disabled": 0}, {"rental_uris": {"android": "https://dc.lft.to/lastmile_qr_scan", "ios": "https://dc.lft.to/lastmile_qr_scan"}, "type": "electric_bike", "lon": -77.01449566666666, "name": "61f3ae258abf55495cecfdeb4ccb011f", "bike_id": "61f3ae258abf55495cecfdeb4ccb011f", "fusion_lat": 0.0, "is_reserved": 0, "lat": 38.876818166666666, "fusion_lon": 0.0, "is_disabled": 0}, {"rental_uris": {"android": "https://dc.lft.to/lastmile_qr_scan", "ios": "https://dc.lft.to/lastmile_qr_scan"}, "type": "electric_scooter", "lon": -77.03123433333333, "name": "5c4f46793357907b901e3b370cf7dd89", "bike_id": "5c4f46793357907b901e3b370cf7dd89", "fusion_lat": 0.0, "is_reserved": 0, "lat": 38.97378166666667, "fusion_lon": 0.0, "is_disabled": 0}, {"rental_uris": {"android": "https://dc.lft.to/lastmile_qr_scan", "ios": "https://dc.lft.to/lastmile_qr_scan"}, "type": "electric_scooter", "lon": -77.02359316666667, "name": "183e5ec7203517ec7f0e945fb86ca4bc", "bike_id": "183e5ec7203517ec7f0e945fb86ca4bc", "fusion_lat": 0.0, "is_reserved": 0, "lat": 38.91776983333333, "fusion_lon": 0.0, "is_disabled": 0}, {"rental_uris": {"android": "https://dc.lft.to/lastmile_qr_scan", "ios": "https://dc.lft.to/lastmile_qr_scan"}, "type": "electric_scooter", "lon": -77.046531, "name": "573c0f02406ca6a74fae0e75fb13946a", "bike_id": "573c0f02406ca6a74fae0e75fb13946a", "fusion_lat": 0.0, "is_reserved": 0, "lat": 38.892978, "fusion_lon": 0.0, "is_disabled": 0}, {"rental_uris": {"android": "https://dc.lft.to/lastmile_qr_scan", "ios": "https://dc.lft.to/lastmile_qr_scan"}, "type": "electric_bike", "lon": -77.05033316666666, "name": "65d46502d2bf87c785b72591454b25c2", "bike_id": "65d46502d2bf87c785b72591454b25c2", "fusion_lat": 0.0, "is_reserved": 0, "lat": 38.91109683333333, "fusion_lon": 0.0, "is_disabled": 0}, {"rental_uris": {"android": "https://dc.lft.to/lastmile_qr_scan", "ios": "https://dc.lft.to/lastmile_qr_scan"}, "type": "electric_scooter", "lon": -76.969151, "name": "85bb6cac95901de43a134944feea96d5", "bike_id": "85bb6cac95901de43a134944feea96d5", "fusion_lat": 0.0, "is_reserved": 0, "lat": 38.8553125, "fusion_lon": 0.0, "is_disabled": 0}, {"rental_uris": {"android": "https://dc.lft.to/lastmile_qr_scan", "ios": "https://dc.lft.to/lastmile_qr_scan"}, "type": "electric_scooter", "lon": -77.04041016666666, "name": "2dd60bc8de8244dab5825a03b111f95a", "bike_id": "2dd60bc8de8244dab5825a03b111f95a", "fusion_lat": 0.0, "is_reserved": 0, "lat": 38.92876966666667, "fusion_lon": 0.0, "is_disabled": 0}, {"rental_uris": {"android": "https://dc.lft.to/lastmile_qr_scan", "ios": "https://dc.lft.to/lastmile_qr_scan"}, "type": "electric_scooter", "lon": -77.0440175, "name": "72c3bfc928fcd178b1cf6b135a00fd82", "bike_id": "72c3bfc928fcd178b1cf6b135a00fd82", "fusion_lat": 0.0, "is_reserved": 0, "lat": 38.87430116666667, "fusion_lon": 0.0, "is_disabled": 0}, {"rental_uris": {"android": "https://dc.lft.to/lastmile_qr_scan", "ios": "https://dc.lft.to/lastmile_qr_scan"}, "type": "electric_scooter", "lon": -77.03257533333333, "name": "6f35392ef442c7beb6b4017d63a7d837", "bike_id": "6f35392ef442c7beb6b4017d63a7d837", "fusion_lat": 0.0, "is_reserved": 0, "lat": 38.9425885, "fusion_lon": 0.0, "is_disabled": 0}, {"rental_uris": {"android": "https://dc.lft.to/lastmile_qr_scan", "ios": "https://dc.lft.to/lastmile_qr_scan"}, "type": "electric_scooter", "lon": -77.05010233333333, "name": "00fd329c803952d2e11d91732dff5987", "bike_id": "00fd329c803952d2e11d91732dff5987", "fusion_lat": 0.0, "is_reserved": 0, "lat": 38.907677166666666, "fusion_lon": 0.0, "is_disabled": 0}, {"rental_uris": {"android": "https://dc.lft.to/lastmile_qr_scan", "ios": "https://dc.lft.to/lastmile_qr_scan"}, "type": "electric_bike", "lon": -77.05100966666667, "name": "08ac227564b095470448fa9fdc94c5dc", "bike_id": "08ac227564b095470448fa9fdc94c5dc", "fusion_lat": 0.0, "is_reserved": 0, "lat": 38.94568616666667, "fusion_lon": 0.0, "is_disabled": 0}, {"rental_uris": {"android": "https://dc.lft.to/lastmile_qr_scan", "ios": "https://dc.lft.to/lastmile_qr_scan"}, "type": "electric_scooter", "lon": -77.02120483333333, "name": "58736cd949484b156537f75db563879c", "bike_id": "58736cd949484b156537f75db563879c", "fusion_lat": 0.0, "is_reserved": 0, "lat": 38.930151333333335, "fusion_lon": 0.0, "is_disabled": 0}, {"rental_uris": {"android": "https://dc.lft.to/lastmile_qr_scan", "ios": "https://dc.lft.to/lastmile_qr_scan"}, "type": "electric_scooter", "lon": -77.02964533333333, "name": "92fb2b12ffa02688294792f73d775397", "bike_id": "92fb2b12ffa02688294792f73d775397", "fusion_lat": 0.0, "is_reserved": 0, "lat": 38.9067015, "fusion_lon": 0.0, "is_disabled": 0}, {"rental_uris": {"android": "https://dc.lft.to/lastmile_qr_scan", "ios": "https://dc.lft.to/lastmile_qr_scan"}, "type": "electric_scooter", "lon": -77.03879216666667, "name": "ac7f28c7d5b58732d35a59676a3a4788", "bike_id": "ac7f28c7d5b58732d35a59676a3a4788", "fusion_lat": 0.0, "is_reserved": 0, "lat": 38.934314, "fusion_lon": 0.0, "is_disabled": 0}, {"rental_uris": {"android": "https://dc.lft.to/lastmile_qr_scan", "ios": "https://dc.lft.to/lastmile_qr_scan"}, "type": "electric_bike", "lon": -77.10714183333333, "name": "01d3d62e2ab3a6783d3aa4f9eb64c027", "bike_id": "01d3d62e2ab3a6783d3aa4f9eb64c027", "fusion_lat": 0.0, "is_reserved": 0, "lat": 38.85554483333333, "fusion_lon": 0.0, "is_disabled": 0}, {"rental_uris": {"android": "https://dc.lft.to/lastmile_qr_scan", "ios": "https://dc.lft.to/lastmile_qr_scan"}, "type": "electric_bike", "lon": -76.87494583333333, "name": "3457c7b230cf72fc23dd6afdd7a09f9f", "bike_id": "3457c7b230cf72fc23dd6afdd7a09f9f", "fusion_lat": 0.0, "is_reserved": 0, "lat": 38.9909315, "fusion_lon": 0.0, "is_disabled": 0}, {"rental_uris": {"android": "https://dc.lft.to/lastmile_qr_scan", "ios": "https://dc.lft.to/lastmile_qr_scan"}, "type": "electric_scooter", "lon": -77.0095805, "name": "bf739fdcb9a9668bc2f7947ea1f46424", "bike_id": "bf739fdcb9a9668bc2f7947ea1f46424", "fusion_lat": 0.0, "is_reserved": 0, "lat": 38.921393, "fusion_lon": 0.0, "is_disabled": 0}, {"rental_uris": {"android": "https://dc.lft.to/lastmile_qr_scan", "ios": "https://dc.lft.to/lastmile_qr_scan"}, "type": "electric_scooter", "lon": -76.94215983333333, "name": "eff0ce0a0f82d541282e69f222d14121", "bike_id": "eff0ce0a0f82d541282e69f222d14121", "fusion_lat": 0.0, "is_reserved": 0, "lat": 38.896784, "fusion_lon": 0.0, "is_disabled": 0}, {"rental_uris": {"android": "https://dc.lft.to/lastmile_qr_scan", "ios": "https://dc.lft.to/lastmile_qr_scan"}, "type": "electric_scooter", "lon": -77.000675, "name": "d7a01a0bc0fac6c1dd7040394198f6f8", "bike_id": "d7a01a0bc0fac6c1dd7040394198f6f8", "fusion_lat": 0.0, "is_reserved": 0, "lat": 38.89743983333334, "fusion_lon": 0.0, "is_disabled": 0}, {"rental_uris": {"android": "https://dc.lft.to/lastmile_qr_scan", "ios": "https://dc.lft.to/lastmile_qr_scan"}, "type": "electric_scooter", "lon": -77.01581283333333, "name": "31d1597065423d6a0aa9fc41a5fa3187", "bike_id": "31d1597065423d6a0aa9fc41a5fa3187", "fusion_lat": 0.0, "is_reserved": 0, "lat": 38.876262, "fusion_lon": 0.0, "is_disabled": 0}, {"rental_uris": {"android": "https://dc.lft.to/lastmile_qr_scan", "ios": "https://dc.lft.to/lastmile_qr_scan"}, "type": "electric_scooter", "lon": -77.02176216666666, "name": "0bd3993058eb67ec578d2391cab95780", "bike_id": "0bd3993058eb67ec578d2391cab95780", "fusion_lat": 0.0, "is_reserved": 0, "lat": 38.91121416666667, "fusion_lon": 0.0, "is_disabled": 0}, {"rental_uris": {"android": "https://dc.lft.to/lastmile_qr_scan", "ios": "https://dc.lft.to/lastmile_qr_scan"}, "type": "electric_bike", "lon": -77.11216916666666, "name": "2a6225a34fcb2017d3b499627ffe25b7", "bike_id": "2a6225a34fcb2017d3b499627ffe25b7", "fusion_lat": 0.0, "is_reserved": 0, "lat": 38.82875, "fusion_lon": 0.0, "is_disabled": 0}, {"rental_uris": {"android": "https://dc.lft.to/lastmile_qr_scan", "ios": "https://dc.lft.to/lastmile_qr_scan"}, "type": "electric_scooter", "lon": -77.06798566666667, "name": "471202801b3796378d68409025002d0f", "bike_id": "471202801b3796378d68409025002d0f", "fusion_lat": 0.0, "is_reserved": 0, "lat": 38.90512616666667, "fusion_lon": 0.0, "is_disabled": 0}, {"rental_uris": {"android": "https://dc.lft.to/lastmile_qr_scan", "ios": "https://dc.lft.to/lastmile_qr_scan"}, "type": "electric_scooter", "lon": -77.03844, "name": "0465d2adf30bf4966d5c2b2864c249bf", "bike_id": "0465d2adf30bf4966d5c2b2864c249bf", "fusion_lat": 0.0, "is_reserved": 0, "lat": 38.91214466666667, "fusion_lon": 0.0, "is_disabled": 0}, {"rental_uris": {"android": "https://dc.lft.to/lastmile_qr_scan", "ios": "https://dc.lft.to/lastmile_qr_scan"}, "type": "electric_scooter", "lon": -76.9315895, "name": "250f427ae211d777103605ccac8372d8", "bike_id": "250f427ae211d777103605ccac8372d8", "fusion_lat": 0.0, "is_reserved": 0, "lat": 38.898802333333336, "fusion_lon": 0.0, "is_disabled": 0}, {"rental_uris": {"android": "https://dc.lft.to/lastmile_qr_scan", "ios": "https://dc.lft.to/lastmile_qr_scan"}, "type": "electric_scooter", "lon": -77.030749, "name": "fb67246429c6626341d0a5ca5b94e452", "bike_id": "fb67246429c6626341d0a5ca5b94e452", "fusion_lat": 0.0, "is_reserved": 0, "lat": 38.922481, "fusion_lon": 0.0, "is_disabled": 0}, {"rental_uris": {"android": "https://dc.lft.to/lastmile_qr_scan", "ios": "https://dc.lft.to/lastmile_qr_scan"}, "type": "electric_scooter", "lon": -77.02964833333333, "name": "0f3ba0aca3196388ceae48700156f3a8", "bike_id": "0f3ba0aca3196388ceae48700156f3a8", "fusion_lat": 0.0, "is_reserved": 0, "lat": 38.924608666666664, "fusion_lon": 0.0, "is_disabled": 0}, {"rental_uris": {"android": "https://dc.lft.to/lastmile_qr_scan", "ios": "https://dc.lft.to/lastmile_qr_scan"}, "type": "electric_bike", "lon": -76.96558633333333, "name": "efb08634918967b335120889428deff7", "bike_id": "efb08634918967b335120889428deff7", "fusion_lat": 0.0, "is_reserved": 0, "lat": 38.950915333333334, "fusion_lon": 0.0, "is_disabled": 0}, {"rental_uris": {"android": "https://dc.lft.to/lastmile_qr_scan", "ios": "https://dc.lft.to/lastmile_qr_scan"}, "type": "electric_scooter", "lon": -77.04863033333334, "name": "fad6f58c1ef5aadc66671dd66d8d0bcc", "bike_id": "fad6f58c1ef5aadc66671dd66d8d0bcc", "fusion_lat": 0.0, "is_reserved": 0, "lat": 38.90419583333333, "fusion_lon": 0.0, "is_disabled": 0}, {"rental_uris": {"android": "https://dc.lft.to/lastmile_qr_scan", "ios": "https://dc.lft.to/lastmile_qr_scan"}, "type": "electric_scooter", "lon": -77.045794, "name": "003d001dd83ee4c2d3793cead043758c", "bike_id": "003d001dd83ee4c2d3793cead043758c", "fusion_lat": 0.0, "is_reserved": 0, "lat": 38.899952166666665, "fusion_lon": 0.0, "is_disabled": 0}, {"rental_uris": {"android": "https://dc.lft.to/lastmile_qr_scan", "ios": "https://dc.lft.to/lastmile_qr_scan"}, "type": "electric_scooter", "lon": -77.0242465, "name": "23c4c876248bbe7759fa1ca5ed339a29", "bike_id": "23c4c876248bbe7759fa1ca5ed339a29", "fusion_lat": 0.0, "is_reserved": 0, "lat": 38.90969183333333, "fusion_lon": 0.0, "is_disabled": 0}, {"rental_uris": {"android": "https://dc.lft.to/lastmile_qr_scan", "ios": "https://dc.lft.to/lastmile_qr_scan"}, "type": "electric_scooter", "lon": -77.07851716666667, "name": "41a7f5a160971cba1673b4b26233b86e", "bike_id": "41a7f5a160971cba1673b4b26233b86e", "fusion_lat": 0.0, "is_reserved": 0, "lat": 38.931669666666664, "fusion_lon": 0.0, "is_disabled": 0}, {"rental_uris": {"android": "https://dc.lft.to/lastmile_qr_scan", "ios": "https://dc.lft.to/lastmile_qr_scan"}, "type": "electric_scooter", "lon": -77.03855166666666, "name": "86a072f49f8bc94a5e9695d31e4757bd", "bike_id": "86a072f49f8bc94a5e9695d31e4757bd", "fusion_lat": 0.0, "is_reserved": 0, "lat": 38.911984, "fusion_lon": 0.0, "is_disabled": 0}, {"rental_uris": {"android": "https://dc.lft.to/lastmile_qr_scan", "ios": "https://dc.lft.to/lastmile_qr_scan"}, "type": "electric_scooter", "lon": -77.03266916666666, "name": "cb3cc366ceed1bb4297f7bfd37d702c9", "bike_id": "cb3cc366ceed1bb4297f7bfd37d702c9", "fusion_lat": 0.0, "is_reserved": 0, "lat": 38.89635833333333, "fusion_lon": 0.0, "is_disabled": 0}, {"rental_uris": {"android": "https://dc.lft.to/lastmile_qr_scan", "ios": "https://dc.lft.to/lastmile_qr_scan"}, "type": "electric_scooter", "lon": -77.01493316666667, "name": "d747a17dcb2125cbe47d3b1d6c29e9ce", "bike_id": "d747a17dcb2125cbe47d3b1d6c29e9ce", "fusion_lat": 0.0, "is_reserved": 0, "lat": 38.91771516666667, "fusion_lon": 0.0, "is_disabled": 0}, {"rental_uris": {"android": "https://dc.lft.to/lastmile_qr_scan", "ios": "https://dc.lft.to/lastmile_qr_scan"}, "type": "electric_scooter", "lon": -77.0058995, "name": "e6afb05e3691737d1bdf924ba9ef6ff8", "bike_id": "e6afb05e3691737d1bdf924ba9ef6ff8", "fusion_lat": 0.0, "is_reserved": 0, "lat": 38.905515, "fusion_lon": 0.0, "is_disabled": 0}, {"rental_uris": {"android": "https://dc.lft.to/lastmile_qr_scan", "ios": "https://dc.lft.to/lastmile_qr_scan"}, "type": "electric_scooter", "lon": -77.04259166666667, "name": "a89ac95677e95f0f23737687ed4e17ed", "bike_id": "a89ac95677e95f0f23737687ed4e17ed", "fusion_lat": 0.0, "is_reserved": 0, "lat": 38.9219965, "fusion_lon": 0.0, "is_disabled": 0}, {"rental_uris": {"android": "https://dc.lft.to/lastmile_qr_scan", "ios": "https://dc.lft.to/lastmile_qr_scan"}, "type": "electric_scooter", "lon": -77.03835366666667, "name": "6be85742ca18257ccb423c3f04d519cf", "bike_id": "6be85742ca18257ccb423c3f04d519cf", "fusion_lat": 0.0, "is_reserved": 0, "lat": 38.915545, "fusion_lon": 0.0, "is_disabled": 0}, {"rental_uris": {"android": "https://dc.lft.to/lastmile_qr_scan", "ios": "https://dc.lft.to/lastmile_qr_scan"}, "type": "electric_scooter", "lon": -77.03144816666666, "name": "0b7d04e38bf101cb43129d226e4a4a65", "bike_id": "0b7d04e38bf101cb43129d226e4a4a65", "fusion_lat": 0.0, "is_reserved": 0, "lat": 38.897102, "fusion_lon": 0.0, "is_disabled": 0}, {"rental_uris": {"android": "https://dc.lft.to/lastmile_qr_scan", "ios": "https://dc.lft.to/lastmile_qr_scan"}, "type": "electric_scooter", "lon": -77.00665966666666, "name": "e534f0b94d5f9f7f6cea592bc861db1e", "bike_id": "e534f0b94d5f9f7f6cea592bc861db1e", "fusion_lat": 0.0, "is_reserved": 0, "lat": 38.877090833333334, "fusion_lon": 0.0, "is_disabled": 0}, {"rental_uris": {"android": "https://dc.lft.to/lastmile_qr_scan", "ios": "https://dc.lft.to/lastmile_qr_scan"}, "type": "electric_scooter", "lon": -76.992838, "name": "bdf6bd0cd4f7d75a2bf15b9d78e7b69c", "bike_id": "bdf6bd0cd4f7d75a2bf15b9d78e7b69c", "fusion_lat": 0.0, "is_reserved": 0, "lat": 38.85765083333333, "fusion_lon": 0.0, "is_disabled": 0}, {"rental_uris": {"android": "https://dc.lft.to/lastmile_qr_scan", "ios": "https://dc.lft.to/lastmile_qr_scan"}, "type": "electric_bike", "lon": -77.13092366666666, "name": "c66760501279f054246dc393eb96697d", "bike_id": "c66760501279f054246dc393eb96697d", "fusion_lat": 0.0, "is_reserved": 0, "lat": 38.86165866666666, "fusion_lon": 0.0, "is_disabled": 0}, {"rental_uris": {"android": "https://dc.lft.to/lastmile_qr_scan", "ios": "https://dc.lft.to/lastmile_qr_scan"}, "type": "electric_scooter", "lon": -77.024343, "name": "8e00f89e0b86ba8ef7731420182e1db3", "bike_id": "8e00f89e0b86ba8ef7731420182e1db3", "fusion_lat": 0.0, "is_reserved": 0, "lat": 38.93295533333333, "fusion_lon": 0.0, "is_disabled": 0}, {"rental_uris": {"android": "https://dc.lft.to/lastmile_qr_scan", "ios": "https://dc.lft.to/lastmile_qr_scan"}, "type": "electric_scooter", "lon": -77.00101633333334, "name": "003d671b732ded10db2e4e106c1154f3", "bike_id": "003d671b732ded10db2e4e106c1154f3", "fusion_lat": 0.0, "is_reserved": 0, "lat": 38.91635183333333, "fusion_lon": 0.0, "is_disabled": 0}, {"rental_uris": {"android": "https://dc.lft.to/lastmile_qr_scan", "ios": "https://dc.lft.to/lastmile_qr_scan"}, "type": "electric_scooter", "lon": -76.9485045, "name": "dfe03496ddd738c9d65ff305d90cbca7", "bike_id": "dfe03496ddd738c9d65ff305d90cbca7", "fusion_lat": 0.0, "is_reserved": 0, "lat": 38.883062, "fusion_lon": 0.0, "is_disabled": 0}, {"rental_uris": {"android": "https://dc.lft.to/lastmile_qr_scan", "ios": "https://dc.lft.to/lastmile_qr_scan"}, "type": "electric_scooter", "lon": -77.05878916666667, "name": "6010901891be4033c54c390e663c7093", "bike_id": "6010901891be4033c54c390e663c7093", "fusion_lat": 0.0, "is_reserved": 0, "lat": 38.936411166666666, "fusion_lon": 0.0, "is_disabled": 0}, {"rental_uris": {"android": "https://dc.lft.to/lastmile_qr_scan", "ios": "https://dc.lft.to/lastmile_qr_scan"}, "type": "electric_scooter", "lon": -76.989173, "name": "3adde1c33e9d0d5e53ec858a281b09bc", "bike_id": "3adde1c33e9d0d5e53ec858a281b09bc", "fusion_lat": 0.0, "is_reserved": 0, "lat": 38.902290666666666, "fusion_lon": 0.0, "is_disabled": 0}, {"rental_uris": {"android": "https://dc.lft.to/lastmile_qr_scan", "ios": "https://dc.lft.to/lastmile_qr_scan"}, "type": "electric_scooter", "lon": -76.98603266666667, "name": "f51f9c0baba72558969267fd9b6ae0f9", "bike_id": "f51f9c0baba72558969267fd9b6ae0f9", "fusion_lat": 0.0, "is_reserved": 0, "lat": 38.854431166666664, "fusion_lon": 0.0, "is_disabled": 0}, {"rental_uris": {"android": "https://dc.lft.to/lastmile_qr_scan", "ios": "https://dc.lft.to/lastmile_qr_scan"}, "type": "electric_bike", "lon": -76.99393066666667, "name": "5d14cf3621ece2ecd4946f8bbdb5c694", "bike_id": "5d14cf3621ece2ecd4946f8bbdb5c694", "fusion_lat": 0.0, "is_reserved": 0, "lat": 38.92274, "fusion_lon": 0.0, "is_disabled": 0}, {"rental_uris": {"android": "https://dc.lft.to/lastmile_qr_scan", "ios": "https://dc.lft.to/lastmile_qr_scan"}, "type": "electric_scooter", "lon": -77.03149133333334, "name": "f390d2f65847a6dc88a8063d5bcc3db3", "bike_id": "f390d2f65847a6dc88a8063d5bcc3db3", "fusion_lat": 0.0, "is_reserved": 0, "lat": 38.887506, "fusion_lon": 0.0, "is_disabled": 0}, {"rental_uris": {"android": "https://dc.lft.to/lastmile_qr_scan", "ios": "https://dc.lft.to/lastmile_qr_scan"}, "type": "electric_scooter", "lon": -77.0350275, "name": "bfeeaafcf960ceeba492812fb8df39ac", "bike_id": "bfeeaafcf960ceeba492812fb8df39ac", "fusion_lat": 0.0, "is_reserved": 0, "lat": 38.926402, "fusion_lon": 0.0, "is_disabled": 0}, {"rental_uris": {"android": "https://dc.lft.to/lastmile_qr_scan", "ios": "https://dc.lft.to/lastmile_qr_scan"}, "type": "electric_scooter", "lon": -77.03456233333333, "name": "aa5d21657cc11517f9d6521565a86037", "bike_id": "aa5d21657cc11517f9d6521565a86037", "fusion_lat": 0.0, "is_reserved": 0, "lat": 38.90264916666667, "fusion_lon": 0.0, "is_disabled": 0}, {"rental_uris": {"android": "https://dc.lft.to/lastmile_qr_scan", "ios": "https://dc.lft.to/lastmile_qr_scan"}, "type": "electric_scooter", "lon": -77.05516083333333, "name": "d63af78f915685e54896243ecba3e390", "bike_id": "d63af78f915685e54896243ecba3e390", "fusion_lat": 0.0, "is_reserved": 0, "lat": 38.9441825, "fusion_lon": 0.0, "is_disabled": 0}, {"rental_uris": {"android": "https://dc.lft.to/lastmile_qr_scan", "ios": "https://dc.lft.to/lastmile_qr_scan"}, "type": "electric_scooter", "lon": -76.94840966666666, "name": "a275d6ee6c0076c9cfb371d330eaf4cc", "bike_id": "a275d6ee6c0076c9cfb371d330eaf4cc", "fusion_lat": 0.0, "is_reserved": 0, "lat": 38.89489183333333, "fusion_lon": 0.0, "is_disabled": 0}, {"rental_uris": {"android": "https://dc.lft.to/lastmile_qr_scan", "ios": "https://dc.lft.to/lastmile_qr_scan"}, "type": "electric_scooter", "lon": -77.03008066666666, "name": "33501071a1758049ea97721757527eb2", "bike_id": "33501071a1758049ea97721757527eb2", "fusion_lat": 0.0, "is_reserved": 0, "lat": 38.931191, "fusion_lon": 0.0, "is_disabled": 0}, {"rental_uris": {"android": "https://dc.lft.to/lastmile_qr_scan", "ios": "https://dc.lft.to/lastmile_qr_scan"}, "type": "electric_scooter", "lon": -77.0240385, "name": "1c399bdb7df3e607a25c72660e413153", "bike_id": "1c399bdb7df3e607a25c72660e413153", "fusion_lat": 0.0, "is_reserved": 0, "lat": 38.89381216666666, "fusion_lon": 0.0, "is_disabled": 0}, {"rental_uris": {"android": "https://dc.lft.to/lastmile_qr_scan", "ios": "https://dc.lft.to/lastmile_qr_scan"}, "type": "electric_scooter", "lon": -77.04574766666667, "name": "b2d269e114aee6bc06082ba3184ea62a", "bike_id": "b2d269e114aee6bc06082ba3184ea62a", "fusion_lat": 0.0, "is_reserved": 0, "lat": 38.9212845, "fusion_lon": 0.0, "is_disabled": 0}, {"rental_uris": {"android": "https://dc.lft.to/lastmile_qr_scan", "ios": "https://dc.lft.to/lastmile_qr_scan"}, "type": "electric_bike", "lon": -76.932277, "name": "cf06fc216033bd5f74e13251f65e42d2", "bike_id": "cf06fc216033bd5f74e13251f65e42d2", "fusion_lat": 0.0, "is_reserved": 0, "lat": 38.866000166666666, "fusion_lon": 0.0, "is_disabled": 0}, {"rental_uris": {"android": "https://dc.lft.to/lastmile_qr_scan", "ios": "https://dc.lft.to/lastmile_qr_scan"}, "type": "electric_scooter", "lon": -77.0271975, "name": "1d5d62ad1fb178191ffd37e26448d08c", "bike_id": "1d5d62ad1fb178191ffd37e26448d08c", "fusion_lat": 0.0, "is_reserved": 0, "lat": 38.922489, "fusion_lon": 0.0, "is_disabled": 0}, {"rental_uris": {"android": "https://dc.lft.to/lastmile_qr_scan", "ios": "https://dc.lft.to/lastmile_qr_scan"}, "type": "electric_scooter", "lon": -77.00591983333334, "name": "a52eb3c3857a26ed16e901c26a12165d", "bike_id": "a52eb3c3857a26ed16e901c26a12165d", "fusion_lat": 0.0, "is_reserved": 0, "lat": 38.9055725, "fusion_lon": 0.0, "is_disabled": 0}, {"rental_uris": {"android": "https://dc.lft.to/lastmile_qr_scan", "ios": "https://dc.lft.to/lastmile_qr_scan"}, "type": "electric_scooter", "lon": -77.00925233333334, "name": "4c144a2f71a2ab6c3369a8c3edc57b42", "bike_id": "4c144a2f71a2ab6c3369a8c3edc57b42", "fusion_lat": 0.0, "is_reserved": 0, "lat": 38.912592333333336, "fusion_lon": 0.0, "is_disabled": 0}, {"rental_uris": {"android": "https://dc.lft.to/lastmile_qr_scan", "ios": "https://dc.lft.to/lastmile_qr_scan"}, "type": "electric_scooter", "lon": -77.0732075, "name": "37b73e0ab6db49e9438bf6fb9476f873", "bike_id": "37b73e0ab6db49e9438bf6fb9476f873", "fusion_lat": 0.0, "is_reserved": 0, "lat": 38.933544833333336, "fusion_lon": 0.0, "is_disabled": 0}, {"rental_uris": {"android": "https://dc.lft.to/lastmile_qr_scan", "ios": "https://dc.lft.to/lastmile_qr_scan"}, "type": "electric_scooter", "lon": -77.03450533333333, "name": "d2aaf44d0585a1b7b5b81106e0bb61c6", "bike_id": "d2aaf44d0585a1b7b5b81106e0bb61c6", "fusion_lat": 0.0, "is_reserved": 0, "lat": 38.93088, "fusion_lon": 0.0, "is_disabled": 0}, {"rental_uris": {"android": "https://dc.lft.to/lastmile_qr_scan", "ios": "https://dc.lft.to/lastmile_qr_scan"}, "type": "electric_scooter", "lon": -77.03841866666667, "name": "50a85a518e9f51343b3343fcd11d686b", "bike_id": "50a85a518e9f51343b3343fcd11d686b", "fusion_lat": 0.0, "is_reserved": 0, "lat": 38.915574166666666, "fusion_lon": 0.0, "is_disabled": 0}, {"rental_uris": {"android": "https://dc.lft.to/lastmile_qr_scan", "ios": "https://dc.lft.to/lastmile_qr_scan"}, "type": "electric_scooter", "lon": -77.018277, "name": "72366cf3cd222deeca0382290db51379", "bike_id": "72366cf3cd222deeca0382290db51379", "fusion_lat": 0.0, "is_reserved": 0, "lat": 38.9220145, "fusion_lon": 0.0, "is_disabled": 0}, {"rental_uris": {"android": "https://dc.lft.to/lastmile_qr_scan", "ios": "https://dc.lft.to/lastmile_qr_scan"}, "type": "electric_bike", "lon": -77.12960933333333, "name": "59877ef5a63f571e04680bcb02476f58", "bike_id": "59877ef5a63f571e04680bcb02476f58", "fusion_lat": 0.0, "is_reserved": 0, "lat": 38.8521895, "fusion_lon": 0.0, "is_disabled": 0}, {"rental_uris": {"android": "https://dc.lft.to/lastmile_qr_scan", "ios": "https://dc.lft.to/lastmile_qr_scan"}, "type": "electric_scooter", "lon": -77.02600233333334, "name": "e69ea323c644057ddafc0eb257998577", "bike_id": "e69ea323c644057ddafc0eb257998577", "fusion_lat": 0.0, "is_reserved": 0, "lat": 38.9163655, "fusion_lon": 0.0, "is_disabled": 0}, {"rental_uris": {"android": "https://dc.lft.to/lastmile_qr_scan", "ios": "https://dc.lft.to/lastmile_qr_scan"}, "type": "electric_scooter", "lon": -77.02712716666667, "name": "49e2da57d2e9ac33a7c49775a87a0c44", "bike_id": "49e2da57d2e9ac33a7c49775a87a0c44", "fusion_lat": 0.0, "is_reserved": 0, "lat": 38.90755166666667, "fusion_lon": 0.0, "is_disabled": 0}, {"rental_uris": {"android": "https://dc.lft.to/lastmile_qr_scan", "ios": "https://dc.lft.to/lastmile_qr_scan"}, "type": "electric_scooter", "lon": -77.03307033333333, "name": "a49727318e36413e07074c3f73dd3711", "bike_id": "a49727318e36413e07074c3f73dd3711", "fusion_lat": 0.0, "is_reserved": 0, "lat": 38.96830683333334, "fusion_lon": 0.0, "is_disabled": 0}, {"rental_uris": {"android": "https://dc.lft.to/lastmile_qr_scan", "ios": "https://dc.lft.to/lastmile_qr_scan"}, "type": "electric_scooter", "lon": -77.03435066666667, "name": "1115953ee4e1a56d1ab9ae8b2c115ee2", "bike_id": "1115953ee4e1a56d1ab9ae8b2c115ee2", "fusion_lat": 0.0, "is_reserved": 0, "lat": 38.905697333333336, "fusion_lon": 0.0, "is_disabled": 0}, {"rental_uris": {"android": "https://dc.lft.to/lastmile_qr_scan", "ios": "https://dc.lft.to/lastmile_qr_scan"}, "type": "electric_scooter", "lon": -77.04555, "name": "9c556d84f3f583d1771f3ed476a4b819", "bike_id": "9c556d84f3f583d1771f3ed476a4b819", "fusion_lat": 0.0, "is_reserved": 0, "lat": 38.90852816666667, "fusion_lon": 0.0, "is_disabled": 0}, {"rental_uris": {"android": "https://dc.lft.to/lastmile_qr_scan", "ios": "https://dc.lft.to/lastmile_qr_scan"}, "type": "electric_scooter", "lon": -76.95513633333333, "name": "3df23dab4334733bebf606873e8eef9c", "bike_id": "3df23dab4334733bebf606873e8eef9c", "fusion_lat": 0.0, "is_reserved": 0, "lat": 38.89054983333333, "fusion_lon": 0.0, "is_disabled": 0}, {"rental_uris": {"android": "https://dc.lft.to/lastmile_qr_scan", "ios": "https://dc.lft.to/lastmile_qr_scan"}, "type": "electric_scooter", "lon": -77.02974133333333, "name": "8dc5ad0dc70cbbc8e65b8c0eb15b8830", "bike_id": "8dc5ad0dc70cbbc8e65b8c0eb15b8830", "fusion_lat": 0.0, "is_reserved": 0, "lat": 38.923109333333336, "fusion_lon": 0.0, "is_disabled": 0}, {"rental_uris": {"android": "https://dc.lft.to/lastmile_qr_scan", "ios": "https://dc.lft.to/lastmile_qr_scan"}, "type": "electric_scooter", "lon": -77.02723816666666, "name": "0709601e5d33b9eb36ceeb73ac4c30c5", "bike_id": "0709601e5d33b9eb36ceeb73ac4c30c5", "fusion_lat": 0.0, "is_reserved": 0, "lat": 38.906773, "fusion_lon": 0.0, "is_disabled": 0}, {"rental_uris": {"android": "https://dc.lft.to/lastmile_qr_scan", "ios": "https://dc.lft.to/lastmile_qr_scan"}, "type": "electric_scooter", "lon": -77.034881, "name": "caa6eb485bf84bcc148a08616f4dc695", "bike_id": "caa6eb485bf84bcc148a08616f4dc695", "fusion_lat": 0.0, "is_reserved": 0, "lat": 38.93571716666667, "fusion_lon": 0.0, "is_disabled": 0}, {"rental_uris": {"android": "https://dc.lft.to/lastmile_qr_scan", "ios": "https://dc.lft.to/lastmile_qr_scan"}, "type": "electric_bike", "lon": -76.98557166666667, "name": "5a85a80f6dbc1017c2b296c0efc28850", "bike_id": "5a85a80f6dbc1017c2b296c0efc28850", "fusion_lat": 0.0, "is_reserved": 0, "lat": 38.868911, "fusion_lon": 0.0, "is_disabled": 0}, {"rental_uris": {"android": "https://dc.lft.to/lastmile_qr_scan", "ios": "https://dc.lft.to/lastmile_qr_scan"}, "type": "electric_scooter", "lon": -77.0266545, "name": "8f451ac5ee932d4f4cf1ec85cda9f033", "bike_id": "8f451ac5ee932d4f4cf1ec85cda9f033", "fusion_lat": 0.0, "is_reserved": 0, "lat": 38.899778833333336, "fusion_lon": 0.0, "is_disabled": 0}, {"rental_uris": {"android": "https://dc.lft.to/lastmile_qr_scan", "ios": "https://dc.lft.to/lastmile_qr_scan"}, "type": "electric_scooter", "lon": -77.00305383333334, "name": "4cf04677542cdbf6f097ca1cf8ea36eb", "bike_id": "4cf04677542cdbf6f097ca1cf8ea36eb", "fusion_lat": 0.0, "is_reserved": 0, "lat": 38.909018333333336, "fusion_lon": 0.0, "is_disabled": 0}, {"rental_uris": {"android": "https://dc.lft.to/lastmile_qr_scan", "ios": "https://dc.lft.to/lastmile_qr_scan"}, "type": "electric_scooter", "lon": -77.04835383333334, "name": "c99f989255dc5d3d5f88527b408d30a0", "bike_id": "c99f989255dc5d3d5f88527b408d30a0", "fusion_lat": 0.0, "is_reserved": 0, "lat": 38.91634966666667, "fusion_lon": 0.0, "is_disabled": 0}, {"rental_uris": {"android": "https://dc.lft.to/lastmile_qr_scan", "ios": "https://dc.lft.to/lastmile_qr_scan"}, "type": "electric_scooter", "lon": -77.04233266666667, "name": "5b8fe3728a128dd4f0bc995a80f60d11", "bike_id": "5b8fe3728a128dd4f0bc995a80f60d11", "fusion_lat": 0.0, "is_reserved": 0, "lat": 38.91111, "fusion_lon": 0.0, "is_disabled": 0}, {"rental_uris": {"android": "https://dc.lft.to/lastmile_qr_scan", "ios": "https://dc.lft.to/lastmile_qr_scan"}, "type": "electric_scooter", "lon": -77.01826133333333, "name": "6f8171c504f9d5f2fad394f8fd9a2097", "bike_id": "6f8171c504f9d5f2fad394f8fd9a2097", "fusion_lat": 0.0, "is_reserved": 0, "lat": 38.911145166666664, "fusion_lon": 0.0, "is_disabled": 0}, {"rental_uris": {"android": "https://dc.lft.to/lastmile_qr_scan", "ios": "https://dc.lft.to/lastmile_qr_scan"},