{"data": {"bikes": [{"rental_uris": {"android": "https://dc.lft.to/lastmile_qr_scan", "ios": "https://dc.lft.to/lastmile_qr_scan"}, "type": "electric_bike", "lon": -77.08932266666666, "name": "4fcdd265d97865b33ed985a388b7e541", "bike_id": "4fcdd265d97865b33ed985a388b7e541", "fusion_lat": 0.0, "is_reserved": 0, "lat": 38.84102016666667, "fusion_lon": 0.0, "is_disabled": 0}, {"rental_uris": {"android": "https://dc.lft.to/lastmile_qr_scan", "ios": "https://dc.lft.to/lastmile_qr_scan"}, "type": "electric_scooter", "lon": -76.99775933333333, "name": "52d4cb2771372dc89f415228cd7975f9", "bike_id": "52d4cb2771372dc89f415228cd7975f9", "fusion_lat": 0.0, "is_reserved": 0, "lat": 38.844292833333334, "fusion_lon": 0.0, "is_disabled": 0}, {"rental_uris": {"android": "https://dc.lft.to/lastmile_qr_scan", "ios": "https://dc.lft.to/lastmile_qr_scan"}, "type": "electric_scooter", "lon": -77.01145466666667, "name": "bbd48a38fbecfb863b87e829026758a0", "bike_id": "bbd48a38fbecfb863b87e829026758a0", "fusion_lat": 0.0, "is_reserved": 0, "lat": 38.918097, "fusion_lon": 0.0, "is_disabled": 0}, {"rental_uris": {"android": "https://dc.lft.to/lastmile_qr_scan", "ios": "https://dc.lft.to/lastmile_qr_scan"}, "type": "electric_bike", "lon": -77.02674966666666, "name": "3b13fa45928100811d8bd831f3f78a7d", "bike_id": "3b13fa45928100811d8bd831f3f78a7d", "fusion_lat": 0.0, "is_reserved": 0, "lat": 38.973791, "fusion_lon": 0.0, "is_disabled": 0}, {"rental_uris": {"android": "https://dc.lft.to/lastmile_qr_scan", "ios": "https://dc.lft.to/lastmile_qr_scan"}, "type": "electric_scooter", "lon": -76.94943216666667, "name": "b58dcd61e5f2dbe0fdbb452d6ca49fcc", "bike_id": "b58dcd61e5f2dbe0fdbb452d6ca49fcc", "fusion_lat": 0.0, "is_reserved": 0, "lat": 38.883214833333334, "fusion_lon": 0.0, "is_disabled": 0}, {"rental_uris": {"android": "https://dc.lft.to/lastmile_qr_scan", "ios": "https://dc.lft.to/lastmile_qr_scan"}, "type": "electric_bike", "lon": -77.00370033333333, "name": "dde47925d4555726134ac331add5c66c", "bike_id": "dde47925d4555726134ac331add5c66c", "fusion_lat": 0.0, "is_reserved": 0, "lat": 38.83607516666667, "fusion_lon": 0.0, "is_disabled": 0}, {"rental_uris": {"android": "https://dc.lft.to/lastmile_qr_scan", "ios": "https://dc.lft.to/lastmile_qr_scan"}, "type": "electric_scooter", "lon": -77.04178283333333, "name": "3364942f6b963531b556821a522e028f", "bike_id": "3364942f6b963531b556821a522e028f", "fusion_lat": 0.0, "is_reserved": 0, "lat": 38.915864166666665, "fusion_lon": 0.0, "is_disabled": 0}, {"rental_uris": {"android": "https://dc.lft.to/lastmile_qr_scan", "ios": "https://dc.lft.to/lastmile_qr_scan"}, "type": "electric_scooter", "lon": -77.02180833333334, "name": "f229db657f75f4b19a7a6d0b7427f592", "bike_id": "f229db657f75f4b19a7a6d0b7427f592", "fusion_lat": 0.0, "is_reserved": 0, "lat": 38.909991833333336, "fusion_lon": 0.0, "is_disabled": 0}, {"rental_uris": {"android": "https://dc.lft.to/lastmile_qr_scan", "ios": "https://dc.lft.to/lastmile_qr_scan"}, "type": "electric_scooter", "lon": -76.94777483333333, "name": "5581d33160425c855463f8689df16f25", "bike_id": "5581d33160425c855463f8689df16f25", "fusion_lat": 0.0, "is_reserved": 0, "lat": 38.896324166666666, "fusion_lon": 0.0, "is_disabled": 0}, {"rental_uris": {"android": "https://dc.lft.to/lastmile_qr_scan", "ios": "https://dc.lft.to/lastmile_qr_scan"}, "type": "electric_scooter", "lon": -77.0321245, "name": "7ac3de820612219d3da2eadde674665c", "bike_id": "7ac3de820612219d3da2eadde674665c", "fusion_lat": 0.0, "is_reserved": 0, "lat": 38.919039166666664, "fusion_lon": 0.0, "is_disabled": 0}, {"rental_uris": {"android": "https://dc.lft.to/lastmile_qr_scan", "ios": "https://dc.lft.to/lastmile_qr_scan"}, "type": "electric_scooter", "lon": -77.03289166666667, "name": "95d08f5a84bc43ab419672313b36635a", "bike_id": "95d08f5a84bc43ab419672313b36635a", "fusion_lat": 0.0, "is_reserved": 0, "lat": 38.956570166666666, "fusion_lon": 0.0, "is_disabled": 0}, {"rental_uris": {"android": "https://dc.lft.to/lastmile_qr_scan", "ios": "https://dc.lft.to/lastmile_qr_scan"}, "type": "electric_scooter", "lon": -77.02725033333333, "name": "511d9b243ebb84bd6a39346e77dfda06", "bike_id": "511d9b243ebb84bd6a39346e77dfda06", "fusion_lat": 0.0, "is_reserved": 0, "lat": 38.951319166666664, "fusion_lon": 0.0, "is_disabled": 0}, {"rental_uris": {"android": "https://dc.lft.to/lastmile_qr_scan", "ios": "https://dc.lft.to/lastmile_qr_scan"}, "type": "electric_scooter", "lon": -77.04359583333333, "name": "23709e5b7aecc38c4e5fddf4dfb4e29c", "bike_id": "23709e5b7aecc38c4e5fddf4dfb4e29c", "fusion_lat": 0.0, "is_reserved": 0, "lat": 38.892355333333334, "fusion_lon": 0.0, "is_disabled": 0}, {"rental_uris": {"android": "https://dc.lft.to/lastmile_qr_scan", "ios": "https://dc.lft.to/lastmile_qr_scan"}, "type": "electric_bike", "lon": -77.07992733333333, "name": "e22af3b0d5966105583826aaaa3b8c17", "bike_id": "e22af3b0d5966105583826aaaa3b8c17", "fusion_lat": 0.0, "is_reserved": 0, "lat": 38.9225205, "fusion_lon": 0.0, "is_disabled": 0}, {"rental_uris": {"android": "https://dc.lft.to/lastmile_qr_scan", "ios": "https://dc.lft.to/lastmile_qr_scan"}, "type": "electric_scooter", "lon": -77.016137, "name": "270d7d76ad0750e56d6d47d6b6660f2b", "bike_id": "270d7d76ad0750e56d6d47d6b6660f2b", "fusion_lat": 0.0, "is_reserved": 0, "lat": 38.90343083333333, "fusion_lon": 0.0, "is_disabled": 0}, {"rental_uris": {"android": "https://dc.lft.to/lastmile_qr_scan", "ios": "https://dc.lft.to/lastmile_qr_scan"}, "type": "electric_scooter", "lon": -77.02170933333333, "name": "1e3f11d85fda3fae8224d5253392f102", "bike_id": "1e3f11d85fda3fae8224d5253392f102", "fusion_lat": 0.0, "is_reserved": 0, "lat": 38.92018366666667, "fusion_lon": 0.0, "is_disabled": 0}, {"rental_uris": {"android": "https://dc.lft.to/lastmile_qr_scan", "ios": "https://dc.lft.to/lastmile_qr_scan"}, "type": "electric_scooter", "lon": -77.0238005, "name": "1844b9c920e032245b288c6ed1493b76", "bike_id": "1844b9c920e032245b288c6ed1493b76", "fusion_lat": 0.0, "is_reserved": 0, "lat": 38.919549833333335, "fusion_lon": 0.0, "is_disabled": 0}, {"rental_uris": {"android": "https://dc.lft.to/lastmile_qr_scan", "ios": "https://dc.lft.to/lastmile_qr_scan"}, "type": "electric_scooter", "lon": -77.02301966666667, "name": "df36d27cf93413abcaa5a7a256351380", "bike_id": "df36d27cf93413abcaa5a7a256351380", "fusion_lat": 0.0, "is_reserved": 0, "lat": 38.91609533333333, "fusion_lon": 0.0, "is_disabled": 0}, {"rental_uris": {"android": "https://dc.lft.to/lastmile_qr_scan", "ios": "https://dc.lft.to/lastmile_qr_scan"}, "type": "electric_scooter", "lon": -77.02791816666667, "name": "0a3f77f33bf21e28ec5f6a7fa1f3e98b", "bike_id": "0a3f77f33bf21e28ec5f6a7fa1f3e98b", "fusion_lat": 0.0, "is_reserved": 0, "lat": 38.89245, "fusion_lon": 0.0, "is_disabled": 0}, {"rental_uris": {"android": "https://dc.lft.to/lastmile_qr_scan", "ios": "https://dc.lft.to/lastmile_qr_scan"}, "type": "electric_scooter", "lon": -77.03643083333333, "name": "eb55120ac131af3ad288d98624e7c84e", "bike_id": "eb55120ac131af3ad288d98624e7c84e", "fusion_lat": 0.0, "is_reserved": 0, "lat": 38.9068235, "fusion_lon": 0.0, "is_disabled": 0}, {"rental_uris": {"android": "https://dc.lft.to/lastmile_qr_scan", "ios": "https://dc.lft.to/lastmile_qr_scan"}, "type": "electric_scooter", "lon": -77.00266583333334, "name": "df87c77c4c97c7f08d07a5b09f7f3dd9", "bike_id": "df87c77c4c97c7f08d07a5b09f7f3dd9", "fusion_lat": 0.0, "is_reserved": 0, "lat": 38.90376916666666, "fusion_lon": 0.0, "is_disabled": 0}, {"rental_uris": {"android": "https://dc.lft.to/lastmile_qr_scan", "ios": "https://dc.lft.to/lastmile_qr_scan"}, "type": "electric_scooter", "lon": -77.00542683333333, "name": "13c873d09eb4757ec68aca8cf88ed58b", "bike_id": "13c873d09eb4757ec68aca8cf88ed58b", "fusion_lat": 0.0, "is_reserved": 0, "lat": 38.87460866666667, "fusion_lon": 0.0, "is_disabled": 0}, {"rental_uris": {"android": "https://dc.lft.to/lastmile_qr_scan", "ios": "https://dc.lft.to/lastmile_qr_scan"}, "type": "electric_scooter", "lon": -76.9808585, "name": "9799bf9bccbe7f188b8a203c04c72ea6", "bike_id": "9799bf9bccbe7f188b8a203c04c72ea6", "fusion_lat": 0.0, "is_reserved": 0, "lat": 38.85069633333333, "fusion_lon": 0.0, "is_disabled": 0}, {"rental_uris": {"android": "https://dc.lft.to/lastmile_qr_scan", "ios": "https://dc.lft.to/lastmile_qr_scan"}, "type": "electric_scooter", "lon": -76.99078583333333, "name": "f067d46c3fb768240f0fca54d797e43a", "bike_id": "f067d46c3fb768240f0fca54d797e43a", "fusion_lat": 0.0, "is_reserved": 0, "lat": 38.900205, "fusion_lon": 0.0, "is_disabled": 0}, {"rental_uris": {"android": "https://dc.lft.to/lastmile_qr_scan", "ios": "https://dc.lft.to/lastmile_qr_scan"}, "type": "electric_bike", "lon": -76.931879, "name": "5bee684825cb50b516a238aca3a2c4c9", "bike_id": "5bee684825cb50b516a238aca3a2c4c9", "fusion_lat": 0.0, "is_reserved": 0, "lat": 38.898508666666665, "fusion_lon": 0.0, "is_disabled": 0}, {"rental_uris": {"android": "https://dc.lft.to/lastmile_qr_scan", "ios": "https://dc.lft.to/lastmile_qr_scan"}, "type": "electric_scooter", "lon": -77.03336883333333, "name": "b560b41ecee1ba3a376cbecb4bfd033f", "bike_id": "b560b41ecee1ba3a376cbecb4bfd033f", "fusion_lat": 0.0, "is_reserved": 0, "lat": 38.92054866666667, "fusion_lon": 0.0, "is_disabled": 0}, {"rental_uris": {"android": "https://dc.lft.to/lastmile_qr_scan", "ios": "https://dc.lft.to/lastmile_qr_scan"}, "type": "electric_scooter", "lon": -77.042462, "name": "1d0488e6e657836bb61fae71289bbd69", "bike_id": "1d0488e6e657836bb61fae71289bbd69", "fusion_lat": 0.0, "is_reserved": 0, "lat": 38.917879166666665, "fusion_lon": 0.0, "is_disabled": 0}, {"rental_uris": {"android": "https://dc.lft.to/lastmile_qr_scan", "ios": "https://dc.lft.to/lastmile_qr_scan"}, "type": "electric_scooter", "lon": -77.032927, "name": "9da9a6d5f9c3e7355cdcc94810dc4705", "bike_id": "9da9a6d5f9c3e7355cdcc94810dc4705", "fusion_lat": 0.0, "is_reserved": 0, "lat": 38.90839283333333, "fusion_lon": 0.0, "is_disabled": 0}, {"rental_uris": {"android": "https://dc.lft.to/lastmile_qr_scan", "ios": "https://dc.lft.to/lastmile_qr_scan"}, "type": "electric_scooter", "lon": -77.041565, "name": "f426382e1c17655b8289b7877621b35b", "bike_id": "f426382e1c17655b8289b7877621b35b", "fusion_lat": 0.0, "is_reserved": 0, "lat": 38.9199045, "fusion_lon": 0.0, "is_disabled": 0}, {"rental_uris": {"android": "https://dc.lft.to/lastmile_qr_scan", "ios": "https://dc.lft.to/lastmile_qr_scan"}, "type": "electric_scooter", "lon": -77.0386475, "name": "14ac2a38745cb3980772fe9cf44e1cea", "bike_id": "14ac2a38745cb3980772fe9cf44e1cea", "fusion_lat": 0.0, "is_reserved": 0, "lat": 38.9147915, "fusion_lon": 0.0, "is_disabled": 0}, {"rental_uris": {"android": "https://dc.lft.to/lastmile_qr_scan", "ios": "https://dc.lft.to/lastmile_qr_scan"}, "type": "electric_scooter", "lon": -76.99154033333333, "name": "f8559d4abd88233b41c7ae87623af76f", "bike_id": "f8559d4abd88233b41c7ae87623af76f", "fusion_lat": 0.0, "is_reserved": 0, "lat": 38.873175333333336, "fusion_lon": 0.0, "is_disabled": 0}, {"rental_uris": {"android": "https://dc.lft.to/lastmile_qr_scan", "ios": "https://dc.lft.to/lastmile_qr_scan"}, "type": "electric_scooter", "lon": -77.01208566666666, "name": "0f435aa50c230dc9ce39e20f7dd97161", "bike_id": "0f435aa50c230dc9ce39e20f7dd97161", "fusion_lat": 0.0, "is_reserved": 0, "lat": 38.918204, "fusion_lon": 0.0, "is_disabled": 0}, {"rental_uris": {"android": "https://dc.lft.to/lastmile_qr_scan", "ios": "https://dc.lft.to/lastmile_qr_scan"}, "type": "electric_scooter", "lon": -77.03777633333333, "name": "291283cb4e4b2bf88e586f3164e262c0", "bike_id": "291283cb4e4b2bf88e586f3164e262c0", "fusion_lat": 0.0, "is_reserved": 0, "lat": 38.92480783333333, "fusion_lon": 0.0, "is_disabled": 0}, {"rental_uris": {"android": "https://dc.lft.to/lastmile_qr_scan", "ios": "https://dc.lft.to/lastmile_qr_scan"}, "type": "electric_scooter", "lon": -77.02723366666666, "name": "4bf4898cc27d424f998c2c7e69b5e36f", "bike_id": "4bf4898cc27d424f998c2c7e69b5e36f", "fusion_lat": 0.0, "is_reserved": 0, "lat": 38.93448633333333, "fusion_lon": 0.0, "is_disabled": 0}, {"rental_uris": {"android": "https://dc.lft.to/lastmile_qr_scan", "ios": "https://dc.lft.to/lastmile_qr_scan"}, "type": "electric_scooter", "lon": -76.973965, "name": "420d6ec08626ca63eb6ce4543a1b8ded", "bike_id": "420d6ec08626ca63eb6ce4543a1b8ded", "fusion_lat": 0.0, "is_reserved": 0, "lat": 38.865640666666664, "fusion_lon": 0.0, "is_disabled": 0}, {"rental_uris": {"android": "https://dc.lft.to/lastmile_qr_scan", "ios": "https://dc.lft.to/lastmile_qr_scan"}, "type": "electric_scooter", "lon": -77.00277133333333, "name": "20768783b3b01aea0917825cdfdd54b0", "bike_id": "20768783b3b01aea0917825cdfdd54b0", "fusion_lat": 0.0, "is_reserved": 0, "lat": 38.93919233333333, "fusion_lon": 0.0, "is_disabled": 0}, {"rental_uris": {"android": "https://dc.lft.to/lastmile_qr_scan", "ios": "https://dc.lft.to/lastmile_qr_scan"}, "type": "electric_scooter", "lon": -76.937394, "name": "6a51c75afccb73d360560e98ed4cd130", "bike_id": "6a51c75afccb73d360560e98ed4cd130", "fusion_lat": 0.0, "is_reserved": 0, "lat": 38.8901095, "fusion_lon": 0.0, "is_disabled": 0}, {"rental_uris": {"android": "https://dc.lft.to/lastmile_qr_scan", "ios": "https://dc.lft.to/lastmile_qr_scan"}, "type": "electric_scooter", "lon": -76.99010066666666, "name": "dee3bb9695cadbcc0a909c2c7a167380", "bike_id": "dee3bb9695cadbcc0a909c2c7a167380", "fusion_lat": 0.0, "is_reserved": 0, "lat": 38.90391666666667, "fusion_lon": 0.0, "is_disabled": 0}, {"rental_uris": {"android": "https://dc.lft.to/lastmile_qr_scan", "ios": "https://dc.lft.to/lastmile_qr_scan"}, "type": "electric_scooter", "lon": -76.99489966666667, "name": "82370121f109abed8d4ab04455af35e8", "bike_id": "82370121f109abed8d4ab04455af35e8", "fusion_lat": 0.0, "is_reserved": 0, "lat": 38.86244933333333, "fusion_lon": 0.0, "is_disabled": 0}, {"rental_uris": {"android": "https://dc.lft.to/lastmile_qr_scan", "ios": "https://dc.lft.to/lastmile_qr_scan"}, "type": "electric_scooter", "lon": -77.00676366666667, "name": "03f74f4a5d2a4ce400eec9ddb72f51a1", "bike_id": "03f74f4a5d2a4ce400eec9ddb72f51a1", "fusion_lat": 0.0, "is_reserved": 0, "lat": 38.94987533333333, "fusion_lon": 0.0, "is_disabled": 0}, {"rental_uris": {"android": "https://dc.lft.to/lastmile_qr_scan", "ios": "https://dc.lft.to/lastmile_qr_scan"}, "type": "electric_scooter", "lon": -77.0295885, "name": "5f678f68e71fcbb0b8947fefdc9b3ff3", "bike_id": "5f678f68e71fcbb0b8947fefdc9b3ff3", "fusion_lat": 0.0, "is_reserved": 0, "lat": 38.9214695, "fusion_lon": 0.0, "is_disabled": 0}, {"rental_uris": {"android": "https://dc.lft.to/lastmile_qr_scan", "ios": "https://dc.lft.to/lastmile_qr_scan"}, "type": "electric_scooter", "lon": -77.03279233333333, "name": "a48e439dc9701d8a123755112484de79", "bike_id": "a48e439dc9701d8a123755112484de79", "fusion_lat": 0.0, "is_reserved": 0, "lat": 38.910389333333335, "fusion_lon": 0.0, "is_disabled": 0}, {"rental_uris": {"android": "https://dc.lft.to/lastmile_qr_scan", "ios": "https://dc.lft.to/lastmile_qr_scan"}, "type": "electric_scooter", "lon": -77.02751383333333, "name": "921128ee5cdb26c2f17cd3983574233b", "bike_id": "921128ee5cdb26c2f17cd3983574233b", "fusion_lat": 0.0, "is_reserved": 0, "lat": 38.956169, "fusion_lon": 0.0, "is_disabled": 0}, {"rental_uris": {"android": "https://dc.lft.to/lastmile_qr_scan", "ios": "https://dc.lft.to/lastmile_qr_scan"}, "type": "electric_scooter", "lon": -76.98683483333333, "name": "7b317b2d8d3bdba459b6ae0e56272d94", "bike_id": "7b317b2d8d3bdba459b6ae0e56272d94", "fusion_lat": 0.0, "is_reserved": 0, "lat": 38.88215016666667, "fusion_lon": 0.0, "is_disabled": 0}, {"rental_uris": {"android": "https://dc.lft.to/lastmile_qr_scan", "ios": "https://dc.lft.to/lastmile_qr_scan"}, "type": "electric_scooter", "lon": -77.04812916666667, "name": "a0009b44eac085fac1cbeb0e22b595df", "bike_id": "a0009b44eac085fac1cbeb0e22b595df", "fusion_lat": 0.0, "is_reserved": 0, "lat": 38.91495183333333, "fusion_lon": 0.0, "is_disabled": 0}, {"rental_uris": {"android": "https://dc.lft.to/lastmile_qr_scan", "ios": "https://dc.lft.to/lastmile_qr_scan"}, "type": "electric_bike", "lon": -76.99513066666667, "name": "25754586889f56b94797b603d1d5245a", "bike_id": "25754586889f56b94797b603d1d5245a", "fusion_lat": 0.0, "is_reserved": 0, "lat": 38.939289333333335, "fusion_lon": 0.0, "is_disabled": 0}, {"rental_uris": {"android": "https://dc.lft.to/lastmile_qr_scan", "ios": "https://dc.lft.to/lastmile_qr_scan"}, "type": "electric_scooter", "lon": -77.03281016666666, "name": "bb554ee8966c390161e20a3ecc0575c9", "bike_id": "bb554ee8966c390161e20a3ecc0575c9", "fusion_lat": 0.0, "is_reserved": 0, "lat": 38.939884166666666, "fusion_lon": 0.0, "is_disabled": 0}, {"rental_uris": {"android": "https://dc.lft.to/lastmile_qr_scan", "ios": "https://dc.lft.to/lastmile_qr_scan"}, "type": "electric_scooter", "lon": -77.03506966666667, "name": "0edff68583b7d380902e10a49b5e6ae1", "bike_id": "0edff68583b7d380902e10a49b5e6ae1", "fusion_lat": 0.0, "is_reserved": 0, "lat": 38.903841, "fusion_lon": 0.0, "is_disabled": 0}, {"rental_uris": {"android": "https://dc.lft.to/lastmile_qr_scan", "ios": "https://dc.lft.to/lastmile_qr_scan"}, "type": "electric_scooter", "lon": -77.03396883333333, "name": "d6e9849bbbe4056321643407fce2c03c", "bike_id": "d6e9849bbbe4056321643407fce2c03c", "fusion_lat": 0.0, "is_reserved": 0, "lat": 38.9205285, "fusion_lon": 0.0, "is_disabled": 0}, {"rental_uris": {"android": "https://dc.lft.to/lastmile_qr_scan", "ios": "https://dc.lft.to/lastmile_qr_scan"}, "type": "electric_scooter", "lon": -76.99493866666667, "name": "833900a5bab04de0ccd015c5112c6c07", "bike_id": "833900a5bab04de0ccd015c5112c6c07", "fusion_lat": 0.0, "is_reserved": 0, "lat": 38.862191333333335, "fusion_lon": 0.0, "is_disabled": 0}, {"rental_uris": {"android": "https://dc.lft.to/lastmile_qr_scan", "ios": "https://dc.lft.to/lastmile_qr_scan"}, "type": "electric_bike", "lon": -77.02112516666666, "name": "cf951d3f18f813bc6565fcfc9e6c792f", "bike_id": "cf951d3f18f813bc6565fcfc9e6c792f", "fusion_lat": 0.0, "is_reserved": 0, "lat": 38.936001833333336, "fusion_lon": 0.0, "is_disabled": 0}, {"rental_uris": {"android": "https://dc.lft.to/lastmile_qr_scan", "ios": "https://dc.lft.to/lastmile_qr_scan"}, "type": "electric_scooter", "lon": -77.0297965, "name": "645dcee3fd0d877c1d48638cab32fd4b", "bike_id": "645dcee3fd0d877c1d48638cab32fd4b", "fusion_lat": 0.0, "is_reserved": 0, "lat": 38.962321, "fusion_lon": 0.0, "is_disabled": 0}, {"rental_uris": {"android": "https://dc.lft.to/lastmile_qr_scan", "ios": "https://dc.lft.to/lastmile_qr_scan"}, "type": "electric_bike", "lon": -77.1012605, "name": "8895b3dd61ba49c09e05fd4b1ae28ebb", "bike_id": "8895b3dd61ba49c09e05fd4b1ae28ebb", "fusion_lat": 0.0, "is_reserved": 0, "lat": 38.852086, "fusion_lon": 0.0, "is_disabled": 0}, {"rental_uris": {"android": "https://dc.lft.to/lastmile_qr_scan", "ios": "https://dc.lft.to/lastmile_qr_scan"}, "type": "electric_scooter", "lon": -77.043807, "name": "16af8ce137b614b766528289f26bf8b0", "bike_id": "16af8ce137b614b766528289f26bf8b0", "fusion_lat": 0.0, "is_reserved": 0, "lat": 38.9236395, "fusion_lon": 0.0, "is_disabled": 0}, {"rental_uris": {"android": "https://dc.lft.to/lastmile_qr_scan", "ios": "https://dc.lft.to/lastmile_qr_scan"}, "type": "electric_scooter", "lon": -77.0306355, "name": "4db853f4c9230596e197d88ddddfa0ff", "bike_id": "4db853f4c9230596e197d88ddddfa0ff", "fusion_lat": 0.0, "is_reserved": 0, "lat": 38.922502333333334, "fusion_lon": 0.0, "is_disabled": 0}, {"rental_uris": {"android": "https://dc.lft.to/lastmile_qr_scan", "ios": "https://dc.lft.to/lastmile_qr_scan"}, "type": "electric_scooter", "lon": -77.033799, "name": "1beeeddc327735b051886196d3364282", "bike_id": "1beeeddc327735b051886196d3364282", "fusion_lat": 0.0, "is_reserved": 0, "lat": 38.9216385, "fusion_lon": 0.0, "is_disabled": 0}, {"rental_uris": {"android": "https://dc.lft.to/lastmile_qr_scan", "ios": "https://dc.lft.to/lastmile_qr_scan"}, "type": "electric_scooter", "lon": -77.03276033333333, "name": "211cda2cdd14e98ea43d0da067ee903b", "bike_id": "211cda2cdd14e98ea43d0da067ee903b", "fusion_lat": 0.0, "is_reserved": 0, "lat": 38.93990733333333, "fusion_lon": 0.0, "is_disabled": 0}, {"rental_uris": {"android": "https://dc.lft.to/lastmile_qr_scan", "ios": "https://dc.lft.to/lastmile_qr_scan"}, "type": "electric_scooter", "lon": -77.047092, "name": "9c9f2a11c83193e820edcab9ca532015", "bike_id": "9c9f2a11c83193e820edcab9ca532015", "fusion_lat": 0.0, "is_reserved": 0, "lat": 38.91259816666667, "fusion_lon": 0.0, "is_disabled": 0}, {"rental_uris": {"android": "https://dc.lft.to/lastmile_qr_scan", "ios": "https://dc.lft.to/lastmile_qr_scan"}, "type": "electric_bike", "lon": -77.02429816666667, "name": "0c59b1eb4108ff8b4d0ecbace8b3edea", "bike_id": "0c59b1eb4108ff8b4d0ecbace8b3edea", "fusion_lat": 0.0, "is_reserved": 0, "lat": 38.926045333333334, "fusion_lon": 0.0, "is_disabled": 0}, {"rental_uris": {"android": "https://dc.lft.to/lastmile_qr_scan", "ios": "https://dc.lft.to/lastmile_qr_scan"}, "type": "electric_scooter", "lon": -77.025824, "name": "b24609843b5165e10b6df95bb5cf3afc", "bike_id": "b24609843b5165e10b6df95bb5cf3afc", "fusion_lat": 0.0, "is_reserved": 0, "lat": 38.904816333333336, "fusion_lon": 0.0, "is_disabled": 0}, {"rental_uris": {"android": "https://dc.lft.to/lastmile_qr_scan", "ios": "https://dc.lft.to/lastmile_qr_scan"}, "type": "electric_scooter", "lon": -77.091952, "name": "6ba0bc64a867abe30483554f78ca2883", "bike_id": "6ba0bc64a867abe30483554f78ca2883", "fusion_lat": 0.0, "is_reserved": 0, "lat": 38.91722466666667, "fusion_lon": 0.0, "is_disabled": 0}, {"rental_uris": {"android": "https://dc.lft.to/lastmile_qr_scan", "ios": "https://dc.lft.to/lastmile_qr_scan"}, "type": "electric_scooter", "lon": -77.03200233333334, "name": "4143d50ec0be385f5a21e9da70a43e3c", "bike_id": "4143d50ec0be385f5a21e9da70a43e3c", "fusion_lat": 0.0, "is_reserved": 0, "lat": 38.90918583333333, "fusion_lon": 0.0, "is_disabled": 0}, {"rental_uris": {"android": "https://dc.lft.to/lastmile_qr_scan", "ios": "https://dc.lft.to/lastmile_qr_scan"}, "type": "electric_scooter", "lon": -77.024249, "name": "75788a1d69782cdbd7affa06be4cbf15", "bike_id": "75788a1d69782cdbd7affa06be4cbf15", "fusion_lat": 0.0, "is_reserved": 0, "lat": 38.92755916666667, "fusion_lon": 0.0, "is_disabled": 0}, {"rental_uris": {"android": "https://dc.lft.to/lastmile_qr_scan", "ios": "https://dc.lft.to/lastmile_qr_scan"}, "type": "electric_scooter", "lon": -77.0275845, "name": "84886f386ffeadebd27292f557870fae", "bike_id": "84886f386ffeadebd27292f557870fae", "fusion_lat": 0.0, "is_reserved": 0, "lat": 38.923869833333335, "fusion_lon": 0.0, "is_disabled": 0}, {"rental_uris": {"android": "https://dc.lft.to/lastmile_qr_scan", "ios": "https://dc.lft.to/lastmile_qr_scan"}, "type": "electric_scooter", "lon": -77.05624366666666, "name": "53ae6156335ce5bea561eedf6af2cd95", "bike_id": "53ae6156335ce5bea561eedf6af2cd95", "fusion_lat": 0.0, "is_reserved": 0, "lat": 38.92425133333333, "fusion_lon": 0.0, "is_disabled": 0}, {"rental_uris": {"android": "https://dc.lft.to/lastmile_qr_scan", "ios": "https://dc.lft.to/lastmile_qr_scan"}, "type": "electric_scooter", "lon": -77.004513, "name": "ecd90138c861838492ee7a9b63157e28", "bike_id": "ecd90138c861838492ee7a9b63157e28", "fusion_lat": 0.0, "is_reserved": 0, "lat": 38.9289545, "fusion_lon": 0.0, "is_disabled": 0}, {"rental_uris": {"android": "https://dc.lft.to/lastmile_qr_scan", "ios": "https://dc.lft.to/lastmile_qr_scan"}, "type": "electric_scooter", "lon": -77.04980533333334, "name": "d54119d2b8658d4260fac99141ba7c65", "bike_id": "d54119d2b8658d4260fac99141ba7c65", "fusion_lat": 0.0, "is_reserved": 0, "lat": 38.90091116666667, "fusion_lon": 0.0, "is_disabled": 0}, {"rental_uris": {"android": "https://dc.lft.to/lastmile_qr_scan", "ios": "https://dc.lft.to/lastmile_qr_scan"}, "type": "electric_scooter", "lon": -77.03952833333334, "name": "cafce30c910781815d5080d75bda3afb", "bike_id": "cafce30c910781815d5080d75bda3afb", "fusion_lat": 0.0, "is_reserved": 0, "lat": 38.90413816666667, "fusion_lon": 0.0, "is_disabled": 0}, {"rental_uris": {"android": "https://dc.lft.to/lastmile_qr_scan", "ios": "https://dc.lft.to/lastmile_qr_scan"}, "type": "electric_bike", "lon": -77.00590483333333, "name": "eabcd32a64ec6b4f03d9b95434540d81", "bike_id": "eabcd32a64ec6b4f03d9b95434540d81", "fusion_lat": 0.0, "is_reserved": 0, "lat": 38.8764415, "fusion_lon": 0.0, "is_disabled": 0}, {"rental_uris": {"android": "https://dc.lft.to/lastmile_qr_scan", "ios": "https://dc.lft.to/lastmile_qr_scan"}, "type": "electric_scooter", "lon": -77.02713483333333, "name": "47d21590e118f1ba1ee07796e8f47c98", "bike_id": "47d21590e118f1ba1ee07796e8f47c98", "fusion_lat": 0.0, "is_reserved": 0, "lat": 38.933951666666665, "fusion_lon": 0.0, "is_disabled": 0}, {"rental_uris": {"android": "https://dc.lft.to/lastmile_qr_scan", "ios": "https://dc.lft.to/lastmile_qr_scan"}, "type": "electric_scooter", "lon": -77.04662283333333, "name": "a3bec9cfe5871565d4fef9a7033d7075", "bike_id": "a3bec9cfe5871565d4fef9a7033d7075", "fusion_lat": 0.0, "is_reserved": 0, "lat": 38.90491166666666, "fusion_lon": 0.0, "is_disabled": 0}, {"rental_uris": {"android": "https://dc.lft.to/lastmile_qr_scan", "ios": "https://dc.lft.to/lastmile_qr_scan"}, "type": "electric_scooter", "lon": -77.04314666666667, "name": "21e27f68d0d25816a9c3666b0626f6ee", "bike_id": "21e27f68d0d25816a9c3666b0626f6ee", "fusion_lat": 0.0, "is_reserved": 0, "lat": 38.892267333333336, "fusion_lon": 0.0, "is_disabled": 0}, {"rental_uris": {"android": "https://dc.lft.to/lastmile_qr_scan", "ios": "https://dc.lft.to/lastmile_qr_scan"}, "type": "electric_bike", "lon": -77.06470533333334, "name": "a508e26815950be9bd1096a3451f4fdc", "bike_id": "a508e26815950be9bd1096a3451f4fdc", "fusion_lat": 0.0, "is_reserved": 0, "lat": 38.97382783333333, "fusion_lon": 0.0, "is_disabled": 0}, {"rental_uris": {"android": "https://dc.lft.to/lastmile_qr_scan", "ios": "https://dc.lft.to/lastmile_qr_scan"}, "type": "electric_bike", "lon": -77.02596983333333, "name": "2b3436e5c492de8c99859fc53904cf44", "bike_id": "2b3436e5c492de8c99859fc53904cf44", "fusion_lat": 0.0, "is_reserved": 0, "lat": 38.982392833333336, "fusion_lon": 0.0, "is_disabled": 0}, {"rental_uris": {"android": "https://dc.lft.to/lastmile_qr_scan", "ios": "https://dc.lft.to/lastmile_qr_scan"}, "type": "electric_scooter", "lon": -77.04674866666667, "name": "35e54a301d51cce831bb71d7ca451328", "bike_id": "35e54a301d51cce831bb71d7ca451328", "fusion_lat": 0.0, "is_reserved": 0, "lat": 38.90845183333333, "fusion_lon": 0.0, "is_disabled": 0}, {"rental_uris": {"android": "https://dc.lft.to/lastmile_qr_scan", "ios": "https://dc.lft.to/lastmile_qr_scan"}, "type": "electric_scooter", "lon": -77.04226883333334, "name": "0a4469cfbd46db6313f36e667b1d666d", "bike_id": "0a4469cfbd46db6313f36e667b1d666d", "fusion_lat": 0.0, "is_reserved": 0, "lat": 38.91107916666667, "fusion_lon": 0.0, "is_disabled": 0}, {"rental_uris": {"android": "https://dc.lft.to/lastmile_qr_scan", "ios": "https://dc.lft.to/lastmile_qr_scan"}, "type": "electric_scooter", "lon": -77.03334566666666, "name": "795b299598eb9cd626f1c89cee59cc9f", "bike_id": "795b299598eb9cd626f1c89cee59cc9f", "fusion_lat": 0.0, "is_reserved": 0, "lat": 38.903809333333335, "fusion_lon": 0.0, "is_disabled": 0}, {"rental_uris": {"android": "https://dc.lft.to/lastmile_qr_scan", "ios": "https://dc.lft.to/lastmile_qr_scan"}, "type": "electric_scooter", "lon": -76.9916845, "name": "419afede1a838172ba9c166dff729b1a", "bike_id": "419afede1a838172ba9c166dff729b1a", "fusion_lat": 0.0, "is_reserved": 0, "lat": 38.87923833333333, "fusion_lon": 0.0, "is_disabled": 0}, {"rental_uris": {"android": "https://dc.lft.to/lastmile_qr_scan", "ios": "https://dc.lft.to/lastmile_qr_scan"}, "type": "electric_scooter", "lon": -77.012075, "name": "a591ceb338dcac554ca0a6faadf41b15", "bike_id": "a591ceb338dcac554ca0a6faadf41b15", "fusion_lat": 0.0, "is_reserved": 0, "lat": 38.90670883333333, "fusion_lon": 0.0, "is_disabled": 0}, {"rental_uris": {"android": "https://dc.lft.to/lastmile_qr_scan", "ios": "https://dc.lft.to/lastmile_qr_scan"}, "type": "electric_scooter", "lon": -76.99607316666666, "name": "05aabcf844462e1979ca79c603c7994f", "bike_id": "05aabcf844462e1979ca79c603c7994f", "fusion_lat": 0.0, "is_reserved": 0, "lat": 38.9261845, "fusion_lon": 0.0, "is_disabled": 0}, {"rental_uris": {"android": "https://dc.lft.to/lastmile_qr_scan", "ios": "https://dc.lft.to/lastmile_qr_scan"}, "type": "electric_scooter", "lon": -77.038357, "name": "fcebc10c72e700bf8adf74ab7641e8b8", "bike_id": "fcebc10c72e700bf8adf74ab7641e8b8", "fusion_lat": 0.0, "is_reserved": 0, "lat": 38.91567916666666, "fusion_lon": 0.0, "is_disabled": 0}, {"rental_uris": {"android": "https://dc.lft.to/lastmile_qr_scan", "ios": "https://dc.lft.to/lastmile_qr_scan"}, "type": "electric_scooter", "lon": -76.99141383333334, "name": "4f067da979c8458b12c13d2622509b5a", "bike_id": "4f067da979c8458b12c13d2622509b5a", "fusion_lat": 0.0, "is_reserved": 0, "lat": 38.88229233333333, "fusion_lon": 0.0, "is_disabled": 0}, {"rental_uris": {"android": "https://dc.lft.to/lastmile_qr_scan", "ios": "https://dc.lft.to/lastmile_qr_scan"}, "type": "electric_scooter", "lon": -77.01054166666667, "name": "e149f2706195db4007cd468c72f91435", "bike_id": "e149f2706195db4007cd468c72f91435", "fusion_lat": 0.0, "is_reserved": 0, "lat": 38.92988283333333, "fusion_lon": 0.0, "is_disabled": 0}, {"rental_uris": {"android": "https://dc.lft.to/lastmile_qr_scan", "ios": "https://dc.lft.to/lastmile_qr_scan"}, "type": "electric_scooter", "lon": -77.04653, "name": "88bdf05dbf909930a3a3729f9c25b241", "bike_id": "88bdf05dbf909930a3a3729f9c25b241", "fusion_lat": 0.0, "is_reserved": 0, "lat": 38.905186666666665, "fusion_lon": 0.0, "is_disabled": 0}, {"rental_uris": {"android": "https://dc.lft.to/lastmile_qr_scan", "ios": "https://dc.lft.to/lastmile_qr_scan"}, "type": "electric_bike", "lon": -76.97331066666666, "name": "92b7aefc12fc8b3b03f834f274f7b8a0", "bike_id": "92b7aefc12fc8b3b03f834f274f7b8a0", "fusion_lat": 0.0, "is_reserved": 0, "lat": 38.850648666666665, "fusion_lon": 0.0, "is_disabled": 0}, {"rental_uris": {"android": "https://dc.lft.to/lastmile_qr_scan", "ios": "https://dc.lft.to/lastmile_qr_scan"}, "type": "electric_scooter", "lon": -77.03281483333333, "name": "bf5668cc250ace868f65f0638cdd534c", "bike_id": "bf5668cc250ace868f65f0638cdd534c", "fusion_lat": 0.0, "is_reserved": 0, "lat": 38.932582, "fusion_lon": 0.0, "is_disabled": 0}, {"rental_uris": {"android": "https://dc.lft.to/lastmile_qr_scan", "ios": "https://dc.lft.to/lastmile_qr_scan"}, "type": "electric_scooter", "lon": -77.02517066666667, "name": "bd9e340c75ee2494f3f3956be833666b", "bike_id": "bd9e340c75ee2494f3f3956be833666b", "fusion_lat": 0.0, "is_reserved": 0, "lat": 38.919415, "fusion_lon": 0.0, "is_disabled": 0}, {"rental_uris": {"android": "https://dc.lft.to/lastmile_qr_scan", "ios": "https://dc.lft.to/lastmile_qr_scan"}, "type": "electric_scooter", "lon": -77.04000866666667, "name": "bd6d25f726d53ad58c0ac96cb07b43bb", "bike_id": "bd6d25f726d53ad58c0ac96cb07b43bb", "fusion_lat": 0.0, "is_reserved": 0, "lat": 38.91806166666667, "fusion_lon": 0.0, "is_disabled": 0}, {"rental_uris": {"android": "https://dc.lft.to/lastmile_qr_scan", "ios": "https://dc.lft.to/lastmile_qr_scan"}, "type": "electric_scooter", "lon": -76.97726983333334, "name": "1b31eb05e7a7d9b6c260cfe1e60298c7", "bike_id": "1b31eb05e7a7d9b6c260cfe1e60298c7", "fusion_lat": 0.0, "is_reserved": 0, "lat": 38.87244416666667, "fusion_lon": 0.0, "is_disabled": 0}, {"rental_uris": {"android": "https://dc.lft.to/lastmile_qr_scan", "ios": "https://dc.lft.to/lastmile_qr_scan"}, "type": "electric_scooter", "lon": -77.03337966666666, "name": "d337d8ad7418155e1249a00f3a3754e8", "bike_id": "d337d8ad7418155e1249a00f3a3754e8", "fusion_lat": 0.0, "is_reserved": 0, "lat": 38.90371116666667, "fusion_lon": 0.0, "is_disabled": 0}, {"rental_uris": {"android": "https://dc.lft.to/lastmile_qr_scan", "ios": "https://dc.lft.to/lastmile_qr_scan"}, "type": "electric_scooter", "lon": -77.0343535, "name": "d6d6c3276c0643fd8448a20c3c537227", "bike_id": "d6d6c3276c0643fd8448a20c3c537227", "fusion_lat": 0.0, "is_reserved": 0, "lat": 38.92863533333333, "fusion_lon": 0.0, "is_disabled": 0}, {"rental_uris": {"android": "https://dc.lft.to/lastmile_qr_scan", "ios": "https://dc.lft.to/lastmile_qr_scan"}, "type": "electric_scooter", "lon": -77.02501066666666, "name": "3cac4acead5dc72f7ed2d5a6ac379f1a", "bike_id": "3cac4acead5dc72f7ed2d5a6ac379f1a", "fusion_lat": 0.0, "is_reserved": 0, "lat": 38.94199733333333, "fusion_lon": 0.0, "is_disabled": 0}, {"rental_uris": {"android": "https://dc.lft.to/lastmile_qr_scan", "ios": "https://dc.lft.to/lastmile_qr_scan"}, "type": "electric_scooter", "lon": -77.07992283333333, "name": "69d6fb5928bbc9751961e2e649565a72", "bike_id": "69d6fb5928bbc9751961e2e649565a72", "fusion_lat": 0.0, "is_reserved": 0, "lat": 38.92373116666667, "fusion_lon": 0.0, "is_disabled": 0}, {"rental_uris": {"android": "https://dc.lft.to/lastmile_qr_scan", "ios": "https://dc.lft.to/lastmile_qr_scan"}, "type": "electric_scooter", "lon": -77.04029533333333, "name": "9cdeb3403cf35f068e223d236fa22db7", "bike_id": "9cdeb3403cf35f068e223d236fa22db7", "fusion_lat": 0.0, "is_reserved": 0, "lat": 38.92457616666667, "fusion_lon": 0.0, "is_disabled": 0}, {"rental_uris": {"android": "https://dc.lft.to/lastmile_qr_scan", "ios": "https://dc.lft.to/lastmile_qr_scan"}, "type": "electric_scooter", "lon": -77.03959766666667, "name": "349a0736d6d118d445024329cd61750d", "bike_id": "349a0736d6d118d445024329cd61750d", "fusion_lat": 0.0, "is_reserved": 0, "lat": 38.90621016666667, "fusion_lon": 0.0, "is_disabled": 0}, {"rental_uris": {"android": "https://dc.lft.to/lastmile_qr_scan", "ios": "https://dc.lft.to/lastmile_qr_scan"}, "type": "electric_scooter", "lon": -77.02425066666666, "name": "b0548d6f8efab927a4a550451d6c0e15", "bike_id": "b0548d6f8efab927a4a550451d6c0e15", "fusion_lat": 0.0, "is_reserved": 0, "lat": 38.909616, "fusion_lon": 0.0, "is_disabled": 0}, {"rental_uris": {"android": "https://dc.lft.to/lastmile_qr_scan", "ios": "https://dc.lft.to/lastmile_qr_scan"}, "type": "electric_scooter", "lon": -77.00873716666666, "name": "babae50a71ce852f764a97d5f32622f7", "bike_id": "babae50a71ce852f764a97d5f32622f7", "fusion_lat": 0.0, "is_reserved": 0, "lat": 38.905776333333336, "fusion_lon": 0.0, "is_disabled": 0}, {"rental_uris": {"android": "https://dc.lft.to/lastmile_qr_scan", "ios": "https://dc.lft.to/lastmile_qr_scan"}, "type": "electric_scooter", "lon": -77.02174033333333, "name": "7e4ef2b518972e550ba2fd581bf1f08c", "bike_id": "7e4ef2b518972e550ba2fd581bf1f08c", "fusion_lat": 0.0, "is_reserved": 0, "lat": 38.8874475, "fusion_lon": 0.0, "is_disabled": 0}, {"rental_uris": {"android": "https://dc.lft.to/lastmile_qr_scan", "ios": "https://dc.lft.to/lastmile_qr_scan"}, "type": "electric_scooter", "lon": -77.01955733333334, "name": "ad746b93e4ecb5b042814802bb086829", "bike_id": "ad746b93e4ecb5b042814802bb086829", "fusion_lat": 0.0, "is_reserved": 0, "lat": 38.935804, "fusion_lon": 0.0, "is_disabled": 0}, {"rental_uris": {"android": "https://dc.lft.to/lastmile_qr_scan", "ios": "https://dc.lft.to/lastmile_qr_scan"}, "type": "electric_scooter", "lon": -77.017201, "name": "dbf97c222735b942526bca7a38f84a16", "bike_id": "dbf97c222735b942526bca7a38f84a16", "fusion_lat": 0.0, "is_reserved": 0, "lat": 38.8859615, "fusion_lon": 0.0, "is_disabled": 0}, {"rental_uris": {"android": "https://dc.lft.to/lastmile_qr_scan", "ios": "https://dc.lft.to/lastmile_qr_scan"}, "type": "electric_scooter", "lon": -77.02956366666666, "name": "548118e7718c9d26f66f21b1d5477508", "bike_id": "548118e7718c9d26f66f21b1d5477508", "fusion_lat": 0.0, "is_reserved": 0, "lat": 38.924102166666664, "fusion_lon": 0.0, "is_disabled": 0}, {"rental_uris": {"android": "https://dc.lft.to/lastmile_qr_scan", "ios": "https://dc.lft.to/lastmile_qr_scan"}, "type": "electric_bike", "lon": -77.08525833333333, "name": "874e9bb7a507a21e286dc56384ea8aca", "bike_id": "874e9bb7a507a21e286dc56384ea8aca", "fusion_lat": 0.0, "is_reserved": 0, "lat": 38.856500833333335, "fusion_lon": 0.0, "is_disabled": 0}, {"rental_uris": {"android": "https://dc.lft.to/lastmile_qr_scan", "ios": "https://dc.lft.to/lastmile_qr_scan"}, "type": "electric_scooter", "lon": -77.04504866666667, "name": "1fde329e08a3adead4b0c40306c537e1", "bike_id": "1fde329e08a3adead4b0c40306c537e1", "fusion_lat": 0.0, "is_reserved": 0, "lat": 38.919336333333334, "fusion_lon": 0.0, "is_disabled": 0}, {"rental_uris": {"android": "https://dc.lft.to/lastmile_qr_scan", "ios": "https://dc.lft.to/lastmile_qr_scan"}, "type": "electric_scooter", "lon": -77.04838583333333, "name": "7636feb9d08b0ae6833bdac107abcc72", "bike_id": "7636feb9d08b0ae6833bdac107abcc72", "fusion_lat": 0.0, "is_reserved": 0, "lat": 38.913357, "fusion_lon": 0.0, "is_disabled": 0}, {"rental_uris": {"android": "https://dc.lft.to/lastmile_qr_scan", "ios": "https://dc.lft.to/lastmile_qr_scan"}, "type": "electric_bike", "lon": -77.036049, "name": "8a19ac84a68a7f109a11cf2da1728e6c", "bike_id": "8a19ac84a68a7f109a11cf2da1728e6c", "fusion_lat": 0.0, "is_reserved": 0, "lat": 38.93769133333333, "fusion_lon": 0.0, "is_disabled": 0}, {"rental_uris": {"android": "https://dc.lft.to/lastmile_qr_scan", "ios": "https://dc.lft.to/lastmile_qr_scan"}, "type": "electric_bike", "lon": -77.01290466666667, "name": "b2bfbb188805134680eab0f6ab4240d4", "bike_id": "b2bfbb188805134680eab0f6ab4240d4", "fusion_lat": 0.0, "is_reserved": 0, "lat": 39.003756, "fusion_lon": 0.0, "is_disabled": 0}, {"rental_uris": {"android": "https://dc.lft.to/lastmile_qr_scan", "ios": "https://dc.lft.to/lastmile_qr_scan"}, "type": "electric_scooter", "lon": -77.02683916666666, "name": "81c22539d9a76359431339dddf0cf12c", "bike_id": "81c22539d9a76359431339dddf0cf12c", "fusion_lat": 0.0, "is_reserved": 0, "lat": 38.909621333333334, "fusion_lon": 0.0, "is_disabled": 0}, {"rental_uris": {"android": "https://dc.lft.to/lastmile_qr_scan", "ios": "https://dc.lft.to/lastmile_qr_scan"}, "type": "electric_scooter", "lon": -77.00596666666667, "name": "17242814dc50245c6dd7eb25be94404f", "bike_id": "17242814dc50245c6dd7eb25be94404f", "fusion_lat": 0.0, "is_reserved": 0, "lat": 38.8772095, "fusion_lon": 0.0, "is_disabled": 0}, {"rental_uris": {"android": "https://dc.lft.to/lastmile_qr_scan", "ios": "https://dc.lft.to/lastmile_qr_scan"}, "type": "electric_scooter", "lon": -77.02547983333334, "name": "d1cbc7bd57b353313cde3d6091766726", "bike_id": "d1cbc7bd57b353313cde3d6091766726", "fusion_lat": 0.0, "is_reserved": 0, "lat": 38.89219716666667, "fusion_lon": 0.0, "is_disabled": 0}, {"rental_uris": {"android": "https://dc.lft.to/lastmile_qr_scan", "ios": "https://dc.lft.to/lastmile_qr_scan"}, "type": "electric_scooter", "lon": -76.9483975, "name": "1decf05d8958749e8785658e868f187d", "bike_id": "1decf05d8958749e8785658e868f187d", "fusion_lat": 0.0, "is_reserved": 0, "lat": 38.894886666666665, "fusion_lon": 0.0, "is_disabled": 0}, {"rental_uris": {"android": "https://dc.lft.to/lastmile_qr_scan", "ios": "https://dc.lft.to/lastmile_qr_scan"}, "type": "electric_scooter", "lon": -77.03264533333333, "name": "67057a1e05b6f6ca82697706c04f56ac", "bike_id": "67057a1e05b6f6ca82697706c04f56ac", "fusion_lat": 0.0, "is_reserved": 0, "lat": 38.9140605, "fusion_lon": 0.0, "is_disabled": 0}, {"rental_uris": {"android": "https://dc.lft.to/lastmile_qr_scan", "ios": "https://dc.lft.to/lastmile_qr_scan"}, "type": "electric_scooter", "lon": -77.01104966666666, "name": "105fd4305f0044dd6fb6d2c7bab2c64d", "bike_id": "105fd4305f0044dd6fb6d2c7bab2c64d", "fusion_lat": 0.0, "is_reserved": 0, "lat": 38.903527, "fusion_lon": 0.0, "is_disabled": 0}, {"rental_uris": {"android": "https://dc.lft.to/lastmile_qr_scan", "ios": "https://dc.lft.to/lastmile_qr_scan"}, "type": "electric_scooter", "lon": -77.00588266666666, "name": "9449bfe3195c9b900779e7a94cbe2f65", "bike_id": "9449bfe3195c9b900779e7a94cbe2f65", "fusion_lat": 0.0, "is_reserved": 0, "lat": 38.905633, "fusion_lon": 0.0, "is_disabled": 0}, {"rental_uris": {"android": "https://dc.lft.to/lastmile_qr_scan", "ios": "https://dc.lft.to/lastmile_qr_scan"}, "type": "electric_scooter", "lon": -77.04259733333333, "name": "587fce436a53a60f9f9f450480c33b74", "bike_id": "587fce436a53a60f9f9f450480c33b74", "fusion_lat": 0.0, "is_reserved": 0, "lat": 38.9219775, "fusion_lon": 0.0, "is_disabled": 0}, {"rental_uris": {"android": "https://dc.lft.to/lastmile_qr_scan", "ios": "https://dc.lft.to/lastmile_qr_scan"}, "type": "electric_scooter", "lon": -77.03833266666666, "name": "21f9fb1b0fc1e9708a2a9776afbdb839", "bike_id": "21f9fb1b0fc1e9708a2a9776afbdb839", "fusion_lat": 0.0, "is_reserved": 0, "lat": 38.915533833333335, "fusion_lon": 0.0, "is_disabled": 0}, {"rental_uris": {"android": "https://dc.lft.to/lastmile_qr_scan", "ios": "https://dc.lft.to/lastmile_qr_scan"}, "type": "electric_scooter", "lon": -77.031438, "name": "ba64b5cc394155d515bb445c046ec794", "bike_id": "ba64b5cc394155d515bb445c046ec794", "fusion_lat": 0.0, "is_reserved": 0, "lat": 38.89726983333333, "fusion_lon": 0.0, "is_disabled": 0}, {"rental_uris": {"android": "https://dc.lft.to/lastmile_qr_scan", "ios": "https://dc.lft.to/lastmile_qr_scan"}, "type": "electric_scooter", "lon": -76.99288, "name": "8ec02b674ae065fb2ee6f46b71e367de", "bike_id": "8ec02b674ae065fb2ee6f46b71e367de", "fusion_lat": 0.0, "is_reserved": 0, "lat": 38.857598333333335, "fusion_lon": 0.0, "is_disabled": 0}, {"rental_uris": {"android": "https://dc.lft.to/lastmile_qr_scan", "ios": "https://dc.lft.to/lastmile_qr_scan"}, "type": "electric_bike", "lon": -77.1309195, "name": "e6d74b1417b402ac82093f63cc0099a2", "bike_id": "e6d74b1417b402ac82093f63cc0099a2", "fusion_lat": 0.0, "is_reserved": 0, "lat": 38.86163483333333, "fusion_lon": 0.0, "is_disabled": 0}, {"rental_uris": {"android": "https://dc.lft.to/lastmile_qr_scan", "ios": "https://dc.lft.to/lastmile_qr_scan"}, "type": "electric_scooter", "lon": -77.0244045, "name": "e0683a4adaed476fc951ae895a5e39b8", "bike_id": "e0683a4adaed476fc951ae895a5e39b8", "fusion_lat": 0.0, "is_reserved": 0, "lat": 38.93291983333334, "fusion_lon": 0.0, "is_disabled": 0}, {"rental_uris": {"android": "https://dc.lft.to/lastmile_qr_scan", "ios": "https://dc.lft.to/lastmile_qr_scan"}, "type": "electric_scooter", "lon": -77.03275316666667, "name": "ab8013e845b1ebdeb7dcac8900f2e76e", "bike_id": "ab8013e845b1ebdeb7dcac8900f2e76e", "fusion_lat": 0.0, "is_reserved": 0, "lat": 38.896384833333336, "fusion_lon": 0.0, "is_disabled": 0}, {"rental_uris": {"android": "https://dc.lft.to/lastmile_qr_scan", "ios": "https://dc.lft.to/lastmile_qr_scan"}, "type": "electric_scooter", "lon": -77.00652266666667, "name": "097a223353b9df9440cabbe2aea90a03", "bike_id": "097a223353b9df9440cabbe2aea90a03", "fusion_lat": 0.0, "is_reserved": 0, "lat": 38.877054333333334, "fusion_lon": 0.0, "is_disabled": 0}, {"rental_uris": {"android": "https://dc.lft.to/lastmile_qr_scan", "ios": "https://dc.lft.to/lastmile_qr_scan"}, "type": "electric_scooter", "lon": -77.0149015, "name": "e00b0378f96f76383ff2ea0f2c6b2ec7", "bike_id": "e00b0378f96f76383ff2ea0f2c6b2ec7", "fusion_lat": 0.0, "is_reserved": 0, "lat": 38.917775, "fusion_lon": 0.0, "is_disabled": 0}, {"rental_uris": {"android": "https://dc.lft.to/lastmile_qr_scan", "ios": "https://dc.lft.to/lastmile_qr_scan"}, "type": "electric_scooter", "lon": -77.0014425, "name": "16f87ab3241f990e5c366ab27aaa327b", "bike_id": "16f87ab3241f990e5c366ab27aaa327b", "fusion_lat": 0.0, "is_reserved": 0, "lat": 38.90024966666667, "fusion_lon": 0.0, "is_disabled": 0}, {"rental_uris": {"android": "https://dc.lft.to/lastmile_qr_scan", "ios": "https://dc.lft.to/lastmile_qr_scan"}, "type": "electric_scooter", "lon": -77.0239075, "name": "4151912231999ae26f2a95f59fc21b81", "bike_id": "4151912231999ae26f2a95f59fc21b81", "fusion_lat": 0.0, "is_reserved": 0, "lat": 38.92076516666667, "fusion_lon": 0.0, "is_disabled": 0}, {"rental_uris": {"android": "https://dc.lft.to/lastmile_qr_scan", "ios": "https://dc.lft.to/lastmile_qr_scan"}, "type": "electric_scooter", "lon": -77.04516766666667, "name": "7cb92060bb2299ca21a33bdf2f75cbb2", "bike_id": "7cb92060bb2299ca21a33bdf2f75cbb2", "fusion_lat": 0.0, "is_reserved": 0, "lat": 38.91835716666667, "fusion_lon": 0.0, "is_disabled": 0}, {"rental_uris": {"android": "https://dc.lft.to/lastmile_qr_scan", "ios": "https://dc.lft.to/lastmile_qr_scan"}, "type": "electric_scooter", "lon": -76.941201, "name": "3c091ff50e58bd6caf86d0b9ba3f4d06", "bike_id": "3c091ff50e58bd6caf86d0b9ba3f4d06", "fusion_lat": 0.0, "is_reserved": 0, "lat": 38.907913666666666, "fusion_lon": 0.0, "is_disabled": 0}, {"rental_uris": {"android": "https://dc.lft.to/lastmile_qr_scan", "ios": "https://dc.lft.to/lastmile_qr_scan"}, "type": "electric_scooter", "lon": -77.03189966666666, "name": "6dbc53d3f933282584693850ecadde0f", "bike_id": "6dbc53d3f933282584693850ecadde0f", "fusion_lat": 0.0, "is_reserved": 0, "lat": 38.9133455, "fusion_lon": 0.0, "is_disabled": 0}, {"rental_uris": {"android": "https://dc.lft.to/lastmile_qr_scan", "ios": "https://dc.lft.to/lastmile_qr_scan"}, "type": "electric_scooter", "lon": -77.03666133333333, "name": "ae7d5605975617320d1e8cd6ff20400b", "bike_id": "ae7d5605975617320d1e8cd6ff20400b", "fusion_lat": 0.0, "is_reserved": 0, "lat": 38.91387983333333, "fusion_lon": 0.0, "is_disabled": 0}, {"rental_uris": {"android": "https://dc.lft.to/lastmile_qr_scan", "ios": "https://dc.lft.to/lastmile_qr_scan"}, "type": "electric_scooter", "lon": -77.050791, "name": "16f071749d01a85f88b093acde7b43de", "bike_id": "16f071749d01a85f88b093acde7b43de", "fusion_lat": 0.0, "is_reserved": 0, "lat": 38.9245825, "fusion_lon": 0.0, "is_disabled": 0}, {"rental_uris": {"android": "https://dc.lft.to/lastmile_qr_scan", "ios": "https://dc.lft.to/lastmile_qr_scan"}, "type": "electric_scooter", "lon": -77.06029483333333, "name": "e60bff9ad91294159c3983a9fbe5aa84", "bike_id": "e60bff9ad91294159c3983a9fbe5aa84", "fusion_lat": 0.0, "is_reserved": 0, "lat": 38.93932016666667, "fusion_lon": 0.0, "is_disabled": 0}, {"rental_uris": {"android": "https://dc.lft.to/lastmile_qr_scan", "ios": "https://dc.lft.to/lastmile_qr_scan"}, "type": "electric_scooter", "lon": -77.05140483333334, "name": "2b76cc4daf457296dac8a41e59316c44", "bike_id": "2b76cc4daf457296dac8a41e59316c44", "fusion_lat": 0.0, "is_reserved": 0, "lat": 38.9044745, "fusion_lon": 0.0, "is_disabled": 0}, {"rental_uris": {"android": "https://dc.lft.to/lastmile_qr_scan", "ios": "https://dc.lft.to/lastmile_qr_scan"}, "type": "electric_scooter", "lon": -77.02313233333334, "name": "219a9893a0d7a48f41f7a4a4c99d9faf", "bike_id": "219a9893a0d7a48f41f7a4a4c99d9faf", "fusion_lat": 0.0, "is_reserved": 0, "lat": 38.9089, "fusion_lon": 0.0, "is_disabled": 0}, {"rental_uris": {"android": "https://dc.lft.to/lastmile_qr_scan", "ios": "https://dc.lft.to/lastmile_qr_scan"}, "type": "electric_scooter", "lon": -77.02972083333333, "name": "208c909f0c039c3a9dabb3a51cc5accb", "bike_id": "208c909f0c039c3a9dabb3a51cc5accb", "fusion_lat": 0.0, "is_reserved": 0, "lat": 38.9072465, "fusion_lon": 0.0, "is_disabled": 0}, {"rental_uris": {"android": "https://dc.lft.to/lastmile_qr_scan", "ios": "https://dc.lft.to/lastmile_qr_scan"}, "type": "electric_scooter", "lon": -77.04239216666667, "name": "4e59fdcf71a67b6fc11100a7c45f7cfa", "bike_id": "4e59fdcf71a67b6fc11100a7c45f7cfa", "fusion_lat": 0.0, "is_reserved": 0, "lat": 38.945563666666665, "fusion_lon": 0.0, "is_disabled": 0}, {"rental_uris": {"android": "https://dc.lft.to/lastmile_qr_scan", "ios": "https://dc.lft.to/lastmile_qr_scan"}, "type": "electric_scooter", "lon": -77.06384466666667, "name": "25bc26700a1dde08c45afc20feaf4095", "bike_id": "25bc26700a1dde08c45afc20feaf4095", "fusion_lat": 0.0, "is_reserved": 0, "lat": 38.929022, "fusion_lon": 0.0, "is_disabled": 0}, {"rental_uris": {"android": "https://dc.lft.to/lastmile_qr_scan", "ios": "https://dc.lft.to/lastmile_qr_scan"}, "type": "electric_scooter", "lon": -77.04327733333334, "name": "06bdb2ad936bd14157a4d9d5077af1c3", "bike_id": "06bdb2ad936bd14157a4d9d5077af1c3", "fusion_lat": 0.0, "is_reserved": 0, "lat": 38.904894666666664, "fusion_lon": 0.0, "is_disabled": 0}, {"rental_uris": {"android": "https://dc.lft.to/lastmile_qr_scan", "ios": "https://dc.lft.to/lastmile_qr_scan"}, "type": "electric_scooter", "lon": -77.03444083333333, "name": "2200abd135be4e57cd67f7f513fc7485", "bike_id": "2200abd135be4e57cd67f7f513fc7485", "fusion_lat": 0.0, "is_reserved": 0, "lat": 38.920523333333335, "fusion_lon": 0.0, "is_disabled": 0}, {"rental_uris": {"android": "https://dc.lft.to/lastmile_qr_scan", "ios": "https://dc.lft.to/lastmile_qr_scan"}, "type": "electric_scooter", "lon": -76.95215216666666, "name": "f2154f9b8413d9cabc5570d5df9ac6a0", "bike_id": "f2154f9b8413d9cabc5570d5df9ac6a0", "fusion_lat": 0.0, "is_reserved": 0, "lat": 38.88678733333333, "fusion_lon": 0.0, "is_disabled": 0}, {"rental_uris": {"android": "https://dc.lft.to/lastmile_qr_scan", "ios": "https://dc.lft.to/lastmile_qr_scan"}, "type": "electric_scooter", "lon": -77.02213716666667, "name": "a49cb961e48f21d014cda429fd7683f7", "bike_id": "a49cb961e48f21d014cda429fd7683f7", "fusion_lat": 0.0, "is_reserved": 0, "lat": 38.895098, "fusion_lon": 0.0, "is_disabled": 0}, {"rental_uris": {"android": "https://dc.lft.to/lastmile_qr_scan", "ios": "https://dc.lft.to/lastmile_qr_scan"}, "type": "electric_scooter", "lon": -77.02622666666667, "name": "3291e9302bb647c934618cba261283a0", "bike_id": "3291e9302bb647c934618cba261283a0", "fusion_lat": 0.0, "is_reserved": 0, "lat": 38.88742766666667, "fusion_lon": 0.0, "is_disabled": 0}, {"rental_uris": {"android": "https://dc.lft.to/lastmile_qr_scan", "ios": "https://dc.lft.to/lastmile_qr_scan"}, "type": "electric_scooter", "lon": -77.02707216666667, "name": "1f4dd4123c6ae876e492f042c0685ba7", "bike_id": "1f4dd4123c6ae876e492f042c0685ba7", "fusion_lat": 0.0, "is_reserved": 0, "lat": 38.95000733333333, "fusion_lon": 0.0, "is_disabled": 0}, {"rental_uris": {"android": "https://dc.lft.to/lastmile_qr_scan", "ios": "https://dc.lft.to/lastmile_qr_scan"}, "type": "electric_scooter", "lon": -77.02990083333333, "name": "8a26e9da797d097059d77e46b5a5b547", "bike_id": "8a26e9da797d097059d77e46b5a5b547", "fusion_lat": 0.0, "is_reserved": 0, "lat": 38.95631516666667, "fusion_lon": 0.0, "is_disabled": 0}, {"rental_uris": {"android": "https://dc.lft.to/lastmile_qr_scan", "ios": "https://dc.lft.to/lastmile_qr_scan"}, "type": "electric_scooter", "lon": -77.02595483333333, "name": "f59424b52a0d2a9a03c8f08aff2c202d", "bike_id": "f59424b52a0d2a9a03c8f08aff2c202d", "fusion_lat": 0.0, "is_reserved": 0, "lat": 38.905042333333334, "fusion_lon": 0.0, "is_disabled": 0}, {"rental_uris": {"android": "https://dc.lft.to/lastmile_qr_scan", "ios": "https://dc.lft.to/lastmile_qr_scan"}, "type": "electric_scooter", "lon": -77.03328666666667, "name": "53937ad51c8f36d81b55257a96403a88", "bike_id": "53937ad51c8f36d81b55257a96403a88", "fusion_lat": 0.0, "is_reserved": 0, "lat": 38.9288585, "fusion_lon": 0.0, "is_disabled": 0}, {"rental_uris": {"android": "https://dc.lft.to/lastmile_qr_scan", "ios": "https://dc.lft.to/lastmile_qr_scan"}, "type": "electric_scooter", "lon": -77.0271095, "name": "4cd63d5573f528fec71c4115b5f93cf9", "bike_id": "4cd63d5573f528fec71c4115b5f93cf9", "fusion_lat": 0.0, "is_reserved": 0, "lat": 38.915470666666664, "fusion_lon": 0.0, "is_disabled": 0}, {"rental_uris": {"android": "https://dc.lft.to/lastmile_qr_scan", "ios": "https://dc.lft.to/lastmile_qr_scan"}, "type": "electric_bike", "lon": -77.0406345, "name": "161908f3a9fabbb8b2728921d2ed358b", "bike_id": "161908f3a9fabbb8b2728921d2ed358b", "fusion_lat": 0.0, "is_reserved": 0, "lat": 38.812437833333334, "fusion_lon": 0.0, "is_disabled": 0}, {"rental_uris": {"android": "https://dc.lft.to/lastmile_qr_scan", "ios": "https://dc.lft.to/lastmile_qr_scan"}, "type": "electric_scooter", "lon": -77.02406516666667, "name": "9d45a79c1cca2b0aac7b1ac0b11c5c40", "bike_id": "9d45a79c1cca2b0aac7b1ac0b11c5c40", "fusion_lat": 0.0, "is_reserved": 0, "lat": 38.91683116666667, "fusion_lon": 0.0, "is_disabled": 0}, {"rental_uris": {"android": "https://dc.lft.to/lastmile_qr_scan", "ios": "https://dc.lft.to/lastmile_qr_scan"}, "type": "electric_bike", "lon": -76.93194916666667, "name": "c1a4c61e29784168a58b5612d433de15", "bike_id": "c1a4c61e29784168a58b5612d433de15", "fusion_lat": 0.0, "is_reserved": 0, "lat": 38.87237983333333, "fusion_lon": 0.0, "is_disabled": 0}, {"rental_uris": {"android": "https://dc.lft.to/lastmile_qr_scan", "ios": "https://dc.lft.to/lastmile_qr_scan"}, "type": "electric_bike", "lon": -77.09964483333333, "name": "d3377d2eb87fd2c956835cdffad5e97b", "bike_id": "d3377d2eb87fd2c956835cdffad5e97b", "fusion_lat": 0.0, "is_reserved": 0, "lat": 38.85792033333333, "fusion_lon": 0.0, "is_disabled": 0}, {"rental_uris": {"android": "https://dc.lft.to/lastmile_qr_scan", "ios": "https://dc.lft.to/lastmile_qr_scan"}, "type": "electric_scooter", "lon": -77.02202, "name": "ab1fc90085cedb8675e1184e905ec047", "bike_id": "ab1fc90085cedb8675e1184e905ec047", "fusion_lat": 0.0, "is_reserved": 0, "lat": 38.92113966666667, "fusion_lon": 0.0, "is_disabled": 0}, {"rental_uris": {"android": "https://dc.lft.to/lastmile_qr_scan", "ios": "https://dc.lft.to/lastmile_qr_scan"}, "type": "electric_scooter", "lon": -77.03499866666667, "name": "592450f97b2aecac4b98bca00dcaca75", "bike_id": "592450f97b2aecac4b98bca00dcaca75", "fusion_lat": 0.0, "is_reserved": 0, "lat": 38.91876233333333, "fusion_lon": 0.0, "is_disabled": 0}, {"rental_uris": {"android": "https://dc.lft.to/lastmile_qr_scan", "ios": "https://dc.lft.to/lastmile_qr_scan"}, "type": "electric_scooter", "lon": -77.026006, "name": "f8868c38b4a64aae9cc3f906f97b2d01", "bike_id": "f8868c38b4a64aae9cc3f906f97b2d01", "fusion_lat": 0.0, "is_reserved": 0, "lat": 38.9161745, "fusion_lon": 0.0, "is_disabled": 0}, {"rental_uris": {"android": "https://dc.lft.to/lastmile_qr_scan", "ios": "https://dc.lft.to/lastmile_qr_scan"}, "type": "electric_bike", "lon": -76.94958133333333, "name": "c51489106f6f8b1a8ab5e9ef83b5ea6c", "bike_id": "c51489106f6f8b1a8ab5e9ef83b5ea6c", "fusion_lat": 0.0, "is_reserved": 0, "lat": 38.934979166666665, "fusion_lon": 0.0, "is_disabled": 0}, {"rental_uris": {"android": "https://dc.lft.to/lastmile_qr_scan", "ios": "https://dc.lft.to/lastmile_qr_scan"}, "type": "electric_scooter", "lon": -77.01114583333333, "name": "bb3aa161f33d690aad0826adad8d9513", "bike_id": "bb3aa161f33d690aad0826adad8d9513", "fusion_lat": 0.0, "is_reserved": 0, "lat": 38.903567833333334, "fusion_lon": 0.0, "is_disabled": 0}, {"rental_uris": {"android": "https://dc.lft.to/lastmile_qr_scan", "ios": "https://dc.lft.to/lastmile_qr_scan"}, "type": "electric_scooter", "lon": -77.0303615, "name": "790aa8c632bb24c9a092235d3331790b", "bike_id": "790aa8c632bb24c9a092235d3331790b", "fusion_lat": 0.0, "is_reserved": 0, "lat": 38.90863216666666, "fusion_lon": 0.0, "is_disabled": 0}, {"rental_uris": {"android": "https://dc.lft.to/lastmile_qr_scan", "ios": "https://dc.lft.to/lastmile_qr_scan"}, "type": "electric_scooter", "lon": -77.01009933333333, "name": "7a8d70d6a7374fab2a2709af7ea07e3f", "bike_id": "7a8d70d6a7374fab2a2709af7ea07e3f", "fusion_lat": 0.0, "is_reserved": 0, "lat": 38.8672515, "fusion_lon": 0.0, "is_disabled": 0}, {"rental_uris": {"android": "https://dc.lft.to/lastmile_qr_scan", "ios": "https://dc.lft.to/lastmile_qr_scan"}, "type": "electric_scooter", "lon": -77.03169916666667, "name": "3403bfbce57feec8767d684168f94922", "bike_id": "3403bfbce57feec8767d684168f94922", "fusion_lat": 0.0, "is_reserved": 0, "lat": 38.91882616666667, "fusion_lon": 0.0, "is_disabled": 0}, {"rental_uris": {"android": "https://dc.lft.to/lastmile_qr_scan", "ios": "https://dc.lft.to/lastmile_qr_scan"}, "type": "electric_scooter", "lon": -77.0121225, "name": "cf663d91693e119307264b0093be7b96", "bike_id": "cf663d91693e119307264b0093be7b96", "fusion_lat": 0.0, "is_reserved": 0, "lat": 38.900550333333335, "fusion_lon": 0.0, "is_disabled": 0}, {"rental_uris": {"android": "https://dc.lft.to/lastmile_qr_scan", "ios": "https://dc.lft.to/lastmile_qr_scan"}, "type": "electric_scooter", "lon": -77.00645233333333, "name": "5e046b28e9c758b38a7bc61b8aeb4770", "bike_id": "5e046b28e9c758b38a7bc61b8aeb4770", "fusion_lat": 0.0, "is_reserved": 0, "lat": 38.88335583333333, "fusion_lon": 0.0, "is_disabled": 0}, {"rental_uris": {"android": "https://dc.lft.to/lastmile_qr_scan", "ios": "https://dc.lft.to/lastmile_qr_scan"}, "type": "electric_scooter", "lon": -77.03191333333334, "name": "520e2549fc08e8ccc651dae7f0adc16f", "bike_id": "520e2549fc08e8ccc651dae7f0adc16f", "fusion_lat": 0.0, "is_reserved": 0, "lat": 38.907636833333335, "fusion_lon": 0.0, "is_disabled": 0}, {"rental_uris": {"android": "https://dc.lft.to/lastmile_qr_scan", "ios": "https://dc.lft.to/lastmile_qr_scan"}, "type": "electric_scooter", "lon": -77.00736466666666, "name": "c967f9d6b37092ac26ae411a41c46b66", "bike_id": "c967f9d6b37092ac26ae411a41c46b66", "fusion_lat": 0.0, "is_reserved": 0, "lat": 38.955252, "fusion_lon": 0.0, "is_disabled": 0}, {"rental_uris": {"android": "https://dc.lft.to/lastmile_qr_scan", "ios": "https://dc.lft.to/lastmile_qr_scan"}, "type": "electric_scooter", "lon": -77.06776883333333, "name": "88e47da4ef6f9e410b5422b2c7d83ee3", "bike_id": "88e47da4ef6f9e410b5422b2c7d83ee3", "fusion_lat": 0.0, "is_reserved": 0, "lat": 38.95211616666667, "fusion_lon": 0.0, "is_disabled": 0}, {"rental_uris": {"android": "https://dc.lft.to/lastmile_qr_scan", "ios": "https://dc.lft.to/lastmile_qr_scan"}, "type": "electric_scooter", "lon": -77.02003133333334, "name": "c8f4cae7769ac3c6c69e9763b8616f3c", "bike_id": "c8f4cae7769ac3c6c69e9763b8616f3c", "fusion_lat": 0.0, "is_reserved": 0, "lat": 38.9241525, "fusion_lon": 0.0, "is_disabled": 0}, {"rental_uris": {"android": "https://dc.lft.to/lastmile_qr_scan", "ios": "https://dc.lft.to/lastmile_qr_scan"}, "type": "electric_scooter", "lon": -77.032661, "name": "904e83eb783f25e6e43173d19fb4368a", "bike_id": "904e83eb783f25e6e43173d19fb4368a", "fusion_lat": 0.0, "is_reserved": 0, "lat": 38.919224666666665, "fusion_lon": 0.0, "is_disabled": 0}, {"rental_uris": {"android": "https://dc.lft.to/lastmile_qr_scan", "ios": "https://dc.lft.to/lastmile_qr_scan"}, "type": "electric_scooter", "lon": -77.0095935, "name": "e9c5afc21a823c5c457538055a5ebb45", "bike_id": "e9c5afc21a823c5c457538055a5ebb45", "fusion_lat": 0.0, "is_reserved": 0, "lat": 38.88128483333333, "fusion_lon": 0.0, "is_disabled": 0}, {"rental_uris": {"android": "https://dc.lft.to/lastmile_qr_scan", "ios": "https://dc.lft.to/lastmile_qr_scan"}, "type": "electric_scooter", "lon": -77.0249665, "name": "2cff04096288e47405e0dc1639496e8b", "bike_id": "2cff04096288e47405e0dc1639496e8b", "fusion_lat": 0.0, "is_reserved": 0, "lat": 38.94204533333333, "fusion_lon": 0.0, "is_disabled": 0}, {"rental_uris": {"android": "https://dc.lft.to/lastmile_qr_scan", "ios": "https://dc.lft.to/lastmile_qr_scan"}, "type": "electric_scooter", "lon": -76.99063816666667, "name": "718331e12d7b6b0c6e4519b324dc2870", "bike_id": "718331e12d7b6b0c6e4519b324dc2870", "fusion_lat": 0.0, "is_reserved": 0, "lat": 38.9294395, "fusion_lon": 0.0, "is_disabled": 0}, {"rental_uris": {"android": "https://dc.lft.to/lastmile_qr_scan", "ios": "https://dc.lft.to/lastmile_qr_scan"}, "type": "electric_scooter", "lon": -77.03853366666667, "name": "60ff2bc84ab53bf96004a2afc9c2a0bf", "bike_id": "60ff2bc84ab53bf96004a2afc9c2a0bf", "fusion_lat": 0.0, "is_reserved": 0, "lat": 38.9154915, "fusion_lon": 0.0, "is_disabled": 0}, {"rental_uris": {"android": "https://dc.lft.to/lastmile_qr_scan", "ios": "https://dc.lft.to/lastmile_qr_scan"}, "type": "electric_scooter", "lon": -77.02978766666666, "name": "26d6259a26a12e0ed78c548f1b8ca046", "bike_id": "26d6259a26a12e0ed78c548f1b8ca046", "fusion_lat": 0.0, "is_reserved": 0, "lat": 38.90645883333333, "fusion_lon": 0.0, "is_disabled": 0}, {"rental_uris": {"android": "https://dc.lft.to/lastmile_qr_scan", "ios": "https://dc.lft.to/lastmile_qr_scan"}, "type": "electric_scooter", "lon": -76.99002066666667, "name": "7b07e24e4f829124e79dbc0ea08ecb06", "bike_id": "7b07e24e4f829124e79dbc0ea08ecb06", "fusion_lat": 0.0, "is_reserved": 0, "lat": 38.865062333333334, "fusion_lon": 0.0, "is_disabled": 0}, {"rental_uris": {"android": "https://dc.lft.to/lastmile_qr_scan", "ios": "https://dc.lft.to/lastmile_qr_scan"}, "type": "electric_scooter", "lon": -77.01765933333333, "name": "1903cc9929279f42f3d2ae43983bfedd", "bike_id": "1903cc9929279f42f3d2ae43983bfedd", "fusion_lat": 0.0, "is_reserved": 0, "lat": 38.87295816666666, "fusion_lon": 0.0, "is_disabled": 0}, {"rental_uris": {"android": "https://dc.lft.to/lastmile_qr_scan", "ios": "https://dc.lft.to/lastmile_qr_scan"}, "type": "electric_scooter", "lon": -77.01128766666666, "name": "ecfe859eb08619bb792c28086f4434bd", "bike_id": "ecfe859eb08619bb792c28086f4434bd", "fusion_lat": 0.0, "is_reserved": 0, "lat": 38.90722783333333, "fusion_lon": 0.0, "is_disabled": 0}, {"rental_uris": {"android": "https://dc.lft.to/lastmile_qr_scan", "ios": "https://dc.lft.to/lastmile_qr_scan"}, "type": "electric_scooter", "lon": -77.05141633333334, "name": "a96fca1c8f5f0bbac5fa1a4b65039dee", "bike_id": "a96fca1c8f5f0bbac5fa1a4b65039dee", "fusion_lat": 0.0, "is_reserved": 0, "lat": 38.90799116666667, "fusion_lon": 0.0, "is_disabled": 0}, {"rental_uris": {"android": "https://dc.lft.to/lastmile_qr_scan", "ios": "https://dc.lft.to/lastmile_qr_scan"}, "type": "electric_scooter", "lon": -77.05294233333333, "name": "3a24218eb0c371def7be3079661cf1c4", "bike_id": "3a24218eb0c371def7be3079661cf1c4", "fusion_lat": 0.0, "is_reserved": 0, "lat": 38.927809, "fusion_lon": 0.0, "is_disabled": 0}, {"rental_uris": {"android": "https://dc.lft.to/lastmile_qr_scan", "ios": "https://dc.lft.to/lastmile_qr_scan"}, "type": "electric_scooter", "lon": -77.03897966666666, "name": "a2797354a8ca768c500c35a78d8a0291", "bike_id": "a2797354a8ca768c500c35a78d8a0291", "fusion_lat": 0.0, "is_reserved": 0, "lat": 38.922332833333336, "fusion_lon": 0.0, "is_disabled": 0}, {"rental_uris": {"android": "https://dc.lft.to/lastmile_qr_scan", "ios": "https://dc.lft.to/lastmile_qr_scan"}, "type": "electric_scooter", "lon": -77.02865433333334, "name": "5b8a28017e7b56fb55e033894fc4d964", "bike_id": "5b8a28017e7b56fb55e033894fc4d964", "fusion_lat": 0.0, "is_reserved": 0, "lat": 38.9223695, "fusion_lon": 0.0, "is_disabled": 0}, {"rental_uris": {"android": "https://dc.lft.to/lastmile_qr_scan", "ios": "https://dc.lft.to/lastmile_qr_scan"}, "type": "electric_scooter", "lon": -77.03260283333333, "name": "0804a914dfd487954d765f621695df11", "bike_id": "0804a914dfd487954d765f621695df11", "fusion_lat": 0.0, "is_reserved": 0, "lat": 38.93667, "fusion_lon": 0.0, "is_disabled": 0}, {"rental_uris": {"android": "https://dc.lft.to/lastmile_qr_scan", "ios": "https://dc.lft.to/lastmile_qr_scan"}, "type": "electric_scooter", "lon": -77.00224916666667, "name": "8c3551f4374ea885cd46fd52a28fd259", "bike_id": "8c3551f4374ea885cd46fd52a28fd259", "fusion_lat": 0.0, "is_reserved": 0, "lat": 38.90848916666667, "fusion_lon": 0.0, "is_disabled": 0}, {"rental_uris": {"android": "https://dc.lft.to/lastmile_qr_scan", "ios": "https://dc.lft.to/lastmile_qr_scan"}, "type": "electric_scooter", "lon": -76.94798883333333, "name": "235e20ef1274bf29762d7b1182b0fef6", "bike_id": "235e20ef1274bf29762d7b1182b0fef6", "fusion_lat": 0.0, "is_reserved": 0, "lat": 38.89345683333333, "fusion_lon": 0.0, "is_disabled": 0}, {"rental_uris": {"android": "https://dc.lft.to/lastmile_qr_scan", "ios": "https://dc.lft.to/lastmile_qr_scan"}, "type": "electric_scooter", "lon": -76.934289, "name": "05ced45e32ebf458e211e246e9123650", "bike_id": "05ced45e32ebf458e211e246e9123650", "fusion_lat": 0.0, "is_reserved": 0, "lat": 38.899652, "fusion_lon": 0.0, "is_disabled": 0}, {"rental_uris": {"android": "https://dc.lft.to/lastmile_qr_scan", "ios": "https://dc.lft.to/lastmile_qr_scan"}, "type": "electric_bike", "lon": -76.979014, "name": "397cfc51d3421a1ba12fee26dac09e5b", "bike_id": "397cfc51d3421a1ba12fee26dac09e5b", "fusion_lat": 0.0, "is_reserved": 0, "lat": 38.888372333333336, "fusion_lon": 0.0, "is_disabled": 0}, {"rental_uris": {"android": "https://dc.lft.to/lastmile_qr_scan", "ios": "https://dc.lft.to/lastmile_qr_scan"}, "type": "electric_bike", "lon": -77.02374683333333, "name": "b9602aa24ab6d59b59823916f3240c25", "bike_id": "b9602aa24ab6d59b59823916f3240c25", "fusion_lat": 0.0, "is_reserved": 0, "lat": 38.952995333333334, "fusion_lon": 0.0, "is_disabled": 0}, {"rental_uris": {"android": "https://dc.lft.to/lastmile_qr_scan", "ios": "https://dc.lft.to/lastmile_qr_scan"}, "type": "electric_scooter", "lon": -77.013782, "name": "5db6ffa63845f15727da2cae973d8166", "bike_id": "5db6ffa63845f15727da2cae973d8166", "fusion_lat": 0.0, "is_reserved": 0, "lat": 38.9150685, "fusion_lon": 0.0, "is_disabled": 0}, {"rental_uris": {"android": "https://dc.lft.to/lastmile_qr_scan", "ios": "https://dc.lft.to/lastmile_qr_scan"}, "type": "electric_scooter", "lon": -77.00338516666666, "name": "12814ec1422e228ff307dec4054d7605", "bike_id": "12814ec1422e228ff307dec4054d7605", "fusion_lat": 0.0, "is_reserved": 0, "lat": 38.92268283333333, "fusion_lon": 0.0, "is_disabled": 0}, {"rental_uris": {"android": "https://dc.lft.to/lastmile_qr_scan", "ios": "https://dc.lft.to/lastmile_qr_scan"}, "type": "electric_scooter", "lon": -77.04117233333334, "name": "c59f1e01189e650fb961ff68971613f4", "bike_id": "c59f1e01189e650fb961ff68971613f4", "fusion_lat": 0.0, "is_reserved": 0, "lat": 38.92142883333333, "fusion_lon": 0.0, "is_disabled": 0}, {"rental_uris": {"android": "https://dc.lft.to/lastmile_qr_scan", "ios": "https://dc.lft.to/lastmile_qr_scan"}, "type": "electric_bike", "lon": -76.90965383333334, "name": "aeb3b314bbe902cd8deba78093ee1cfb", "bike_id": "aeb3b314bbe902cd8deba78093ee1cfb", "fusion_lat": 0.0, "is_reserved": 0, "lat": 38.85425216666667, "fusion_lon": 0.0, "is_disabled": 0}, {"rental_uris": {"android": "https://dc.lft.to/lastmile_qr_scan", "ios": "https://dc.lft.to/lastmile_qr_scan"}, "type": "electric_scooter", "lon": -77.06569183333333, "name": "f2c17305db365dc69dfe354b0363606d", "bike_id": "f2c17305db365dc69dfe354b0363606d", "fusion_lat": 0.0, "is_reserved": 0, "lat": 38.9052325, "fusion_lon": 0.0, "is_disabled": 0}, {"rental_uris": {"android": "https://dc.lft.to/lastmile_qr_scan", "ios": "https://dc.lft.to/lastmile_qr_scan"}, "type": "electric_scooter", "lon": -77.06782633333333, "name": "4ccf278315f1478d3fbaae193508b61f", "bike_id": "4ccf278315f1478d3fbaae193508b61f", "fusion_lat": 0.0, "is_reserved": 0, "lat": 38.90523666666667, "fusion_lon": 0.0, "is_disabled": 0}, {"rental_uris": {"android": "https://dc.lft.to/lastmile_qr_scan", "ios": "https://dc.lft.to/lastmile_qr_scan"}, "type": "electric_scooter", "lon": -77.03205716666666, "name": "cc16e5ade58ffe481051f12d69a8e90c", "bike_id": "cc16e5ade58ffe481051f12d69a8e90c", "fusion_lat": 0.0, "is_reserved": 0, "lat": 38.916386, "fusion_lon": 0.0, "is_disabled": 0}, {"rental_uris": {"android": "https://dc.lft.to/lastmile_qr_scan", "ios": "https://dc.lft.to/lastmile_qr_scan"}, "type": "electric_scooter", "lon": -77.04177566666667, "name": "bc36b7d911d0c1820d5532dd40e39ad6", "bike_id": "bc36b7d911d0c1820d5532dd40e39ad6", "fusion_lat": 0.0, "is_reserved": 0, "lat": 38.91266866666667, "fusion_lon": 0.0, "is_disabled": 0}, {"rental_uris": {"android": "https://dc.lft.to/lastmile_qr_scan", "ios": "https://dc.lft.to/lastmile_qr_scan"}, "type": "electric_scooter", "lon": -76.93756283333333, "name": "8e17f8fc250ccb1fadf5e8a3f42d1edc", "bike_id": "8e17f8fc250ccb1fadf5e8a3f42d1edc", "fusion_lat": 0.0, "is_reserved": 0, "lat": 38.890344, "fusion_lon": 0.0, "is_disabled": 0}, {"rental_uris": {"android": "https://dc.lft.to/lastmile_qr_scan", "ios": "https://dc.lft.to/lastmile_qr_scan"}, "type": "electric_scooter", "lon": -77.025917, "name": "3ad95eaa923f5279f390bb4cace3dcd8", "bike_id": "3ad95eaa923f5279f390bb4cace3dcd8", "fusion_lat": 0.0, "is_reserved": 0, "lat": 38.905023666666665, "fusion_lon": 0.0, "is_disabled": 0}, {"rental_uris": {"android": "https://dc.lft.to/lastmile_qr_scan", "ios": "https://dc.lft.to/lastmile_qr_scan"}, "type": "electric_scooter", "lon": -77.03628483333334, "name": "18e022cecbb4dfe994e1c7ec44404757", "bike_id": "18e022cecbb4dfe994e1c7ec44404757", "fusion_lat": 0.0, "is_reserved": 0, "lat": 38.932809166666665, "fusion_lon": 0.0, "is_disabled": 0}, {"rental_uris": {"android": "https://dc.lft.to/lastmile_qr_scan", "ios": "https://dc.lft.to/lastmile_qr_scan"}, "type": "electric_bike", "lon": -77.1784445, "name": "3b84155f5ecfe26b911df81bffa788e7", "bike_id": "3b84155f5ecfe26b911df81bffa788e7", "fusion_lat": 0.0, "is_reserved": 0, "lat": 39.08904833333333, "fusion_lon": 0.0, "is_disabled": 0}, {"rental_uris": {"android": "https://dc.lft.to/lastmile_qr_scan", "ios": "https://dc.lft.to/lastmile_qr_scan"}, "type": "electric_scooter", "lon": -77.02282566666666, "name": "a4ec515004229ee7e1a33726a4be1558", "bike_id": "a4ec515004229ee7e1a33726a4be1558", "fusion_lat": 0.0, "is_reserved": 0, "lat": 38.92427033333333, "fusion_lon": 0.0, "is_disabled": 0}, {"rental_uris": {"android": "https://dc.lft.to/lastmile_qr_scan", "ios": "https://dc.lft.to/lastmile_qr_scan"}, "type": "electric_scooter", "lon": -77.03220766666666, "name": "2970d2cbdac99ebc39a1736d015d0f88", "bike_id": "2970d2cbdac99ebc39a1736d015d0f88", "fusion_lat": 0.0, "is_reserved": 0, "lat": 38.90282833333333, "fusion_lon": 0.0, "is_disabled": 0}, {"rental_uris": {"android": "https://dc.lft.to/lastmile_qr_scan", "ios": "https://dc.lft.to/lastmile_qr_scan"}, "type": "electric_scooter", "lon": -77.0240235, "name": "8afbb6b4bfcd8b31e32e8b2f25593cb4", "bike_id": "8afbb6b4bfcd8b31e32e8b2f25593cb4", "fusion_lat": 0.0, "is_reserved": 0, "lat": 38.9134035, "fusion_lon": 0.0, "is_disabled": 0}, {"rental_uris": {"android": "https://dc.lft.to/lastmile_qr_scan", "ios": "https://dc.lft.to/lastmile_qr_scan"}, "type": "electric_scooter", "lon": -76.99478433333333, "name": "115f8e816c5bcbc3d58f437f9304e482", "bike_id": "115f8e816c5bcbc3d58f437f9304e482", "fusion_lat": 0.0, "is_reserved": 0, "lat": 38.888653, "fusion_lon": 0.0, "is_disabled": 0}, {"rental_uris": {"android": "https://dc.lft.to/lastmile_qr_scan", "ios": "https://dc.lft.to/lastmile_qr_scan"}, "type": "electric_scooter", "lon": -77.027049, "name": "949e885432cbcdba81601f30af41f79d", "bike_id": "949e885432cbcdba81601f30af41f79d", "fusion_lat": 0.0, "is_reserved": 0, "lat": 38.90666183333333, "fusion_lon": 0.0, "is_disabled": 0}, {"rental_uris": {"android": "https://dc.lft.to/lastmile_qr_scan", "ios": "https://dc.lft.to/lastmile_qr_scan"}, "type": "electric_bike", "lon": -77.04299616666667, "name": "e54734e6fbe97df1be9b1979914bf6aa", "bike_id": "e54734e6fbe97df1be9b1979914bf6aa", "fusion_lat": 0.0, "is_reserved": 0, "lat": 39.0544495, "fusion_lon": 0.0, "is_disabled": 0}, {"rental_uris": {"android": "https://dc.lft.to/lastmile_qr_scan", "ios": "https://dc.lft.to/lastmile_qr_scan"}, "type": "electric_scooter", "lon": -76.935338, "name": "f469c7f1ceaa4d63cc4405ea77a58c21", "bike_id": "f469c7f1ceaa4d63cc4405ea77a58c21", "fusion_lat": 0.0, "is_reserved": 0, "lat": 38.896831666666664, "fusion_lon": 0.0, "is_disabled": 0}, {"rental_uris": {"android": "https://dc.lft.to/lastmile_qr_scan", "ios": "https://dc.lft.to/lastmile_qr_scan"}, "type": "electric_scooter", "lon": -77.02707533333333, "name": "437d73b07afff62a13448deae8a36c5e", "bike_id": "437d73b07afff62a13448deae8a36c5e", "fusion_lat": 0.0, "is_reserved": 0, "lat": 38.9499805, "fusion_lon": 0.0, "is_disabled": 0}, {"rental_uris": {"android": "https://dc.lft.to/lastmile_qr_scan", "ios": "https://dc.lft.to/lastmile_qr_scan"}, "type": "electric_scooter", "lon": -77.08209666666667, "name": "3cd50496852e99a9b9e749d5599bb887", "bike_id": "3cd50496852e99a9b9e749d5599bb887", "fusion_lat": 0.0, "is_reserved": 0, "lat": 38.93551766666667, "fusion_lon": 0.0, "is_disabled": 0}, {"rental_uris": {"android": "https://dc.lft.to/lastmile_qr_scan", "ios": "https://dc.lft.to/lastmile_qr_scan"}, "type": "electric_scooter", "lon": -77.0152075, "name": "13db4a83fd1c2ce92188412ea3c810da", "bike_id": "13db4a83fd1c2ce92188412ea3c810da", "fusion_lat": 0.0, "is_reserved": 0, "lat": 38.913540166666664, "fusion_lon": 0.0, "is_disabled": 0}, {"rental_uris": {"android": "https://dc.lft.to/lastmile_qr_scan", "ios": "https://dc.lft.to/lastmile_qr_scan"}, "type": "electric_scooter", "lon": -77.0499755, "name": "4d4187488fd7e4e28163d59c0d3060b7", "bike_id": "4d4187488fd7e4e28163d59c0d3060b7", "fusion_lat": 0.0, "is_reserved": 0, "lat": 38.8990085, "fusion_lon": 0.0, "is_disabled": 0}, {"rental_uris": {"android": "https://dc.lft.to/lastmile_qr_scan", "ios": "https://dc.lft.to/lastmile_qr_scan"}, "type": "electric_scooter", "lon": -77.00755116666667, "name": "7cac76d7c1ce4c3035143174674d9fba", "bike_id": "7cac76d7c1ce4c3035143174674d9fba", "fusion_lat": 0.0, "is_reserved": 0, "lat": 38.900576666666666, "fusion_lon": 0.0, "is_disabled": 0}, {"rental_uris": {"android": "https://dc.lft.to/lastmile_qr_scan", "ios": "https://dc.lft.to/lastmile_qr_scan"}, "type": "electric_scooter", "lon": -77.048693, "name": "3ad0474e1f5115f7120edc89803ec703", "bike_id": "3ad0474e1f5115f7120edc89803ec703", "fusion_lat": 0.0, "is_reserved": 0, "lat": 38.909785166666666, "fusion_lon": 0.0, "is_disabled": 0}, {"rental_uris": {"android": "https://dc.lft.to/lastmile_qr_scan", "ios": "https://dc.lft.to/lastmile_qr_scan"}, "type": "electric_scooter", "lon": -77.03166983333334, "name": "8a1bc2db14882b9dabb27bf399ae254b", "bike_id": "8a1bc2db14882b9dabb27bf399ae254b", "fusion_lat": 0.0, "is_reserved": 0, "lat": 38.886677, "fusion_lon": 0.0, "is_disabled": 0}, {"rental_uris": {"android": "https://dc.lft.to/lastmile_qr_scan", "ios": "https://dc.lft.to/lastmile_qr_scan"}, "type": "electric_bike", "lon": -77.00190566666667, "name": "b51624cabaa818fd422e548beb69336f", "bike_id": "b51624cabaa818fd422e548beb69336f", "fusion_lat": 0.0, "is_reserved": 0, "lat": 38.89738466666667, "fusion_lon": 0.0, "is_disabled": 0}, {"rental_uris": {"android": "https://dc.lft.to/lastmile_qr_scan", "ios": "https://dc.lft.to/lastmile_qr_scan"}, "type": "electric_scooter", "lon": -77.01558783333333, "name": "f238904f0ccb860d6278d3a5cbb5e4bb", "bike_id": "f238904f0ccb860d6278d3a5cbb5e4bb", "fusion_lat": 0.0, "is_reserved": 0, "lat": 38.913686166666665, "fusion_lon": 0.0, "is_disabled": 0}, {"rental_uris": {"android": "https://dc.lft.to/lastmile_qr_scan", "ios": "https://dc.lft.to/lastmile_qr_scan"}, "type": "electric_scooter", "lon": -77.01575, "name": "309bdaa5cedbe3518ddf13a8f966b508", "bike_id": "309bdaa5cedbe3518ddf13a8f966b508", "fusion_lat": 0.0, "is_reserved": 0, "lat": 38.91678016666667, "fusion_lon": 0.0, "is_disabled": 0}, {"rental_uris": {"android": "https://dc.lft.to/lastmile_qr_scan", "ios": "https://dc.lft.to/lastmile_qr_scan"}, "type": "electric_scooter", "lon": -77.02402516666666, "name": "57b8180aa597430be6620fa2253ba5ad", "bike_id": "57b8180aa597430be6620fa2253ba5ad", "fusion_lat": 0.0, "is_reserved": 0, "lat": 38.9208065, "fusion_lon": 0.0, "is_disabled": 0}, {"rental_uris": {"android": "https://dc.lft.to/lastmile_qr_scan", "ios": "https://dc.lft.to/lastmile_qr_scan"}, "type": "electric_scooter", "lon": -77.03144666666667, "name": "74d60ddb2f3db754cf104600af2f5a61", "bike_id": "74d60ddb2f3db754cf104600af2f5a61", "fusion_lat": 0.0, "is_reserved": 0, "lat": 38.89745466666667, "fusion_lon": 0.0, "is_disabled": 0}, {"rental_uris": {"android": "https://dc.lft.to/lastmile_qr_scan", "ios": "https://dc.lft.to/lastmile_qr_scan"}, "type": "electric_scooter", "lon": -76.9919705, "name": "0311a8d981fd2b201c7bb7978cc16238", "bike_id": "0311a8d981fd2b201c7bb7978cc16238", "fusion_lat": 0.0, "is_reserved": 0, "lat": 38.8952235, "fusion_lon": 0.0, "is_disabled": 0}, {"rental_uris": {"android": "https://dc.lft.to/lastmile_qr_scan", "ios": "https://dc.lft.to/lastmile_qr_scan"}, "type": "electric_scooter", "lon": -77.03339433333333, "name": "70d57abc5d9b537faced8020a3b57641", "bike_id": "70d57abc5d9b537faced8020a3b57641", "fusion_lat": 0.0, "is_reserved": 0, "lat": 38.92259516666667, "fusion_lon": 0.0, "is_disabled": 0}, {"rental_uris": {"android": "https://dc.lft.to/lastmile_qr_scan", "ios": "https://dc.lft.to/lastmile_qr_scan"}, "type": "electric_scooter", "lon": -76.91915116666667, "name": "2ae4129ab15d0e3ecc3f178f8ec227fd", "bike_id": "2ae4129ab15d0e3ecc3f178f8ec227fd", "fusion_lat": 0.0, "is_reserved": 0, "lat": 38.89079183333333, "fusion_lon": 0.0, "is_disabled": 0}, {"rental_uris": {"android": "https://dc.lft.to/lastmile_qr_scan", "ios": "https://dc.lft.to/lastmile_qr_scan"}, "type": "electric_scooter", "lon": -76.98567366666667, "name": "4f724779343c4b6b18033b9954fa7323", "bike_id": "4f724779343c4b6b18033b9954fa7323", "fusion_lat": 0.0, "is_reserved": 0, "lat": 38.90929716666667, "fusion_lon": 0.0, "is_disabled": 0}, {"rental_uris": {"android": "https://dc.lft.to/lastmile_qr_scan", "ios": "https://dc.lft.to/lastmile_qr_scan"}, "type": "electric_bike", "lon": -77.01622016666667, "name": "768025751b012ffa4f3bfca27b2e8942", "bike_id": "768025751b012ffa4f3bfca27b2e8942", "fusion_lat": 0.0, "is_reserved": 0, "lat": 38.990866, "fusion_lon": 0.0, "is_disabled": 0}, {"rental_uris": {"android": "https://dc.lft.to/lastmile_qr_scan", "ios": "https://dc.lft.to/lastmile_qr_scan"}, "type": "electric_bike", "lon": -76.96685533333333, "name": "69361ceccc16988c6fd546d16a9c84d4", "bike_id": "69361ceccc16988c6fd546d16a9c84d4", "fusion_lat": 0.0, "is_reserved": 0, "lat": 38.9456495, "fusion_lon": 0.0, "is_disabled": 0}, {"rental_uris": {"android": "https://dc.lft.to/lastmile_qr_scan", "ios": "https://dc.lft.to/lastmile_qr_scan"}, "type": "electric_scooter", "lon": -77.03434466666667, "name": "249237d16a8e94f7c83570ff7370698a", "bike_id": "249237d16a8e94f7c83570ff7370698a", "fusion_lat": 0.0, "is_reserved": 0, "lat": 38.9042565, "fusion_lon": 0.0, "is_disabled": 0}, {"rental_uris": {"android": "https://dc.lft.to/lastmile_qr_scan", "ios": "https://dc.lft.to/lastmile_qr_scan"}, "type": "electric_scooter", "lon": -77.04507383333333, "name": "d48a450f9e7830ca7ebc5f9965033e3e", "bike_id": "d48a450f9e7830ca7ebc5f9965033e3e", "fusion_lat": 0.0, "is_reserved": 0, "lat": 38.89220516666666, "fusion_lon": 0.0, "is_disabled": 0}, {"rental_uris": {"android": "https://dc.lft.to/lastmile_qr_scan", "ios": "https://dc.lft.to/lastmile_qr_scan"}, "type": "electric_scooter", "lon": -77.02693883333333, "name": "878a890b2693e08de858f39d5c711795", "bike_id": "878a890b2693e08de858f39d5c711795", "fusion_lat": 0.0, "is_reserved": 0, "lat": 38.912747833333334, "fusion_lon": 0.0, "is_disabled": 0}, {"rental_uris": {"android": "https://dc.lft.to/lastmile_qr_scan", "ios": "https://dc.lft.to/lastmile_qr_scan"}, "type": "electric_scooter", "lon": -76.99663183333334, "name": "8b942fff927d3f8fdbe0b13a15242bab", "bike_id": "8b942fff927d3f8fdbe0b13a15242bab", "fusion_lat": 0.0, "is_reserved": 0, "lat": 38.89889466666666, "fusion_lon": 0.0, "is_disabled": 0}, {"rental_uris": {"android": "https://dc.lft.to/lastmile_qr_scan", "ios": "https://dc.lft.to/lastmile_qr_scan"}, "type": "electric_scooter", "lon": -77.02403266666667, "name": "2af8aec7cd87b5337eb99404d3f85768", "bike_id": "2af8aec7cd87b5337eb99404d3f85768", "fusion_lat": 0.0, "is_reserved": 0, "lat": 38.898942, "fusion_lon": 0.0, "is_disabled": 0}, {"rental_uris": {"android": "https://dc.lft.to/lastmile_qr_scan", "ios": "https://dc.lft.to/lastmile_qr_scan"}, "type": "electric_bike", "lon": -77.06989583333333, "name": "fe48a75f6eee82aadec1dec11107f67c", "bike_id": "fe48a75f6eee82aadec1dec11107f67c", "fusion_lat": 0.0, "is_reserved": 0, "lat": 38.9527135, "fusion_lon": 0.0, "is_disabled": 0}, {"rental_uris": {"android": "https://dc.lft.to/lastmile_qr_scan", "ios": "https://dc.lft.to/lastmile_qr_scan"}, "type": "electric_scooter", "lon": -77.02822666666667, "name": "a92b44733e31e3b82e717a238e7d97bf", "bike_id": "a92b44733e31e3b82e717a238e7d97bf", "fusion_lat": 0.0, "is_reserved": 0, "lat": 38.95085383333333, "fusion_lon": 0.0, "is_disabled": 0}, {"rental_uris": {"android": "https://dc.lft.to/lastmile_qr_scan", "ios": "https://dc.lft.to/lastmile_qr_scan"}, "type": "electric_scooter", "lon": -76.99850866666667, "name": "e836612c69cffbbff50d9ed77d5fa0b1", "bike_id": "e836612c69cffbbff50d9ed77d5fa0b1", "fusion_lat": 0.0, "is_reserved": 0, "lat": 38.907672833333336, "fusion_lon": 0.0, "is_disabled": 0}, {"rental_uris": {"android": "https://dc.lft.to/lastmile_qr_scan", "ios": "https://dc.lft.to/lastmile_qr_scan"}, "type": "electric_scooter", "lon": -77.05297383333334, "name": "443d0a2de2ccb608f705ea3436e580b7", "bike_id": "443d0a2de2ccb608f705ea3436e580b7", "fusion_lat": 0.0, "is_reserved": 0, "lat": 38.916991833333334, "fusion_lon": 0.0, "is_disabled": 0}, {"rental_uris": {"android": "https://dc.lft.to/lastmile_qr_scan", "ios": "https://dc.lft.to/lastmile_qr_scan"}, "type": "electric_scooter", "lon": -77.0269845, "name": "436c2add5f7bd738564c934d179790e3", "bike_id": "436c2add5f7bd738564c934d179790e3", "fusion_lat": 0.0, "is_reserved": 0, "lat": 38.9182075, "fusion_lon": 0.0, "is_disabled": 0}, {"rental_uris": {"android": "https://dc.lft.to/lastmile_qr_scan", "ios": "https://dc.lft.to/lastmile_qr_scan"}, "type": "electric_scooter", "lon": -77.03163883333333, "name": "b1c23a0d93c7d0cf550b488aa2d071fb", "bike_id": "b1c23a0d93c7d0cf550b488aa2d071fb", "fusion_lat": 0.0, "is_reserved": 0, "lat": 38.9182245, "fusion_lon": 0.0, "is_disabled": 0}, {"rental_uris": {"android": "https://dc.lft.to/lastmile_qr_scan", "ios": "https://dc.lft.to/lastmile_qr_scan"}, "type": "electric_scooter", "lon": -77.031426, "name": "b3d4076b459dcb31e731b899017c2ad4", "bike_id": "b3d4076b459dcb31e731b899017c2ad4", "fusion_lat": 0.0, "is_reserved": 0, "lat": 38.912665833333335, "fusion_lon": 0.0, "is_disabled": 0}, {"rental_uris": {"android": "https://dc.lft.to/lastmile_qr_scan", "ios": "https://dc.lft.to/lastmile_qr_scan"}, "type": "electric_scooter", "lon": -77.01767916666667, "name": "87dfea13333a71fbe0962dfa0ecd37fa", "bike_id": "87dfea13333a71fbe0962dfa0ecd37fa", "fusion_lat": 0.0, "is_reserved": 0, "lat": 38.873555833333334, "fusion_lon": 0.0, "is_disabled": 0}, {"rental_uris": {"android": "https://dc.lft.to/lastmile_qr_scan", "ios": "https://dc.lft.to/lastmile_qr_scan"}, "type": "electric_scooter", "lon": -77.04707533333334, "name": "ab171a273def7f70c659932980d3795c", "bike_id": "ab171a273def7f70c659932980d3795c", "fusion_lat": 0.0, "is_reserved": 0, "lat": 38.912578333333336, "fusion_lon": 0.0, "is_disabled": 0}, {"rental_uris": {"android": "https://dc.lft.to/lastmile_qr_scan", "ios": "https://dc.lft.to/lastmile_qr_scan"}, "type": "electric_scooter", "lon": -77.04841133333333, "name": "557a216572eefb64bb213737cc3296f7", "bike_id": "557a216572eefb64bb213737cc3296f7", "fusion_lat": 0.0, "is_reserved": 0, "lat": 38.91143183333333, "fusion_lon": 0.0, "is_disabled": 0}, {"rental_uris": {"android": "https://dc.lft.to/lastmile_qr_scan", "ios": "https://dc.lft.to/lastmile_qr_scan"}, "type": "electric_bike", "lon": -76.9905755, "name": "dbd0b7dfa8472ecc28d0b10156a400c8", "bike_id": "dbd0b7dfa8472ecc28d0b10156a400c8", "fusion_lat": 0.0, "is_reserved": 0, "lat": 38.93693233333333, "fusion_lon": 0.0, "is_disabled": 0}, {"rental_uris": {"android": "https://dc.lft.to/lastmile_qr_scan", "ios": "https://dc.lft.to/lastmile_qr_scan"}, "type": "electric_scooter", "lon": -77.00214283333334, "name": "3e44659487cef6b25df4561cc4598362", "bike_id": "3e44659487cef6b25df4561cc4598362", "fusion_lat": 0.0, "is_reserved": 0, "lat": 38.90300283333333, "fusion_lon": 0.0, "is_disabled": 0}, {"rental_uris": {"android": "https://dc.lft.to/lastmile_qr_scan", "ios": "https://dc.lft.to/lastmile_qr_scan"}, "type": "electric_scooter", "lon": -77.00884716666667, "name": "c3ed2e0434ed1a11e3fc6db00cf16355", "bike_id": "c3ed2e0434ed1a11e3fc6db00cf16355", "fusion_lat": 0.0, "is_reserved": 0, "lat": 38.873469, "fusion_lon": 0.0, "is_disabled": 0}, {"rental_uris": {"android": "https://dc.lft.to/lastmile_qr_scan", "ios": "https://dc.lft.to/lastmile_qr_scan"}, "type": "electric_scooter", "lon": -77.03815533333334, "name": "0e9aef66fd671321a43148b11a7b21ad", "bike_id": "0e9aef66fd671321a43148b11a7b21ad", "fusion_lat": 0.0, "is_reserved": 0, "lat": 38.9207025, "fusion_lon": 0.0, "is_disabled": 0}, {"rental_uris": {"android": "https://dc.lft.to/lastmile_qr_scan", "ios": "https://dc.lft.to/lastmile_qr_scan"}, "type": "electric_scooter", "lon": -76.97655233333333, "name": "87edaf09773905fca500c2d4369969d2", "bike_id": "87edaf09773905fca500c2d4369969d2", "fusion_lat": 0.0, "is_reserved": 0, "lat": 38.898521833333334, "fusion_lon": 0.0, "is_disabled": 0}, {"rental_uris": {"android": "https://dc.lft.to/lastmile_qr_scan", "ios": "https://dc.lft.to/lastmile_qr_scan"}, "type": "electric_scooter", "lon": -77.03487766666667, "name": "a04cf83426d95e3c40f61a54a7435312", "bike_id": "a04cf83426d95e3c40f61a54a7435312", "fusion_lat": 0.0, "is_reserved": 0, "lat": 38.93573966666666, "fusion_lon": 0.0, "is_disabled": 0}, {"rental_uris": {"android": "https://dc.lft.to/lastmile_qr_scan", "ios": "https://dc.lft.to/lastmile_qr_scan"}, "type": "electric_bike", "lon": -76.9855565, "name": "b782e03780deb54c681716929d9d9fb1", "bike_id": "b782e03780deb54c681716929d9d9fb1", "fusion_lat": 0.0, "is_reserved": 0, "lat": 38.868924, "fusion_lon": 0.0, "is_disabled": 0}, {"rental_uris": {"android": "https://dc.lft.to/lastmile_qr_scan", "ios": "https://dc.lft.to/lastmile_qr_scan"}, "type": "electric_scooter", "lon": -77.0267155, "name": "5323009b9bb2975373752a8d80cbda45", "bike_id": "5323009b9bb2975373752a8d80cbda45", "fusion_lat": 0.0, "is_reserved": 0, "lat": 38.8999735, "fusion_lon": 0.0, "is_disabled": 0}, {"rental_uris": {"android": "https://dc.lft.to/lastmile_qr_scan", "ios": "https://dc.lft.to/lastmile_qr_scan"}, "type": "electric_scooter", "lon": -77.0484935, "name": "a98f3111ac9bf4bc29ee3ff53137a38d", "bike_id": "a98f3111ac9bf4bc29ee3ff53137a38d", "fusion_lat": 0.0, "is_reserved": 0, "lat": 38.916329166666664, "fusion_lon": 0.0, "is_disabled": 0}, {"rental_uris": {"android": "https://dc.lft.to/lastmile_qr_scan", "ios": "https://dc.lft.to/lastmile_qr_scan"}, "type": "electric_scooter", "lon": -77.01826116666666, "name": "9bed2795c09c2aa353a6d1f095bb61cf", "bike_id": "9bed2795c09c2aa353a6d1f095bb61cf", "fusion_lat": 0.0, "is_reserved": 0, "lat": 38.91110416666667, "fusion_lon": 0.0, "is_disabled": 0}, {"rental_uris": {"android": "https://dc.lft.to/lastmile_qr_scan", "ios": "https://dc.lft.to/lastmile_qr_scan"}, "type": "electric_scooter", "lon": -77.002799, "name": "5038708e272a7c9ba9c4760c4e0671a1", "bike_id": "5038708e272a7c9ba9c4760c4e0671a1", "fusion_lat": 0.0, "is_reserved": 0, "lat": 38.909006, "fusion_lon": 0.0, "is_disabled": 0}, {"rental_uris": {"android": "https://dc.lft.to/lastmile_qr_scan", "ios": "https://dc.lft.to/lastmile_qr_scan"}, "type": "electric_scooter", "lon": -77.04230983333333, "name": "c3ca1c6248b5e911e3e35aebb0f02de8", "bike_id": "c3ca1c6248b5e911e3e35aebb0f02de8", "fusion_lat": 0.0, "is_reserved": 0, "lat": 38.911112333333335, "fusion_lon": 0.0, "is_disabled": 0}, {"rental_uris": {"android": "https://dc.lft.to/lastmile_qr_scan", "ios": "https://dc.lft.to/lastmile_qr_scan"}, "type": "electric_scooter", "lon": -77.026998, "name": "e6bd24f530ac969c15981e459fc4b36c", "bike_id": "e6bd24f530ac969c15981e459fc4b36c", "fusion_lat": 0.0, "is_reserved": 0, "lat": 38.908449833333336, "fusion_lon": 0.0, "is_disabled": 0}, {"rental_uris": {"android": "https://dc.lft.to/lastmile_qr_scan", "ios": "https://dc.lft.to/lastmile_qr_scan"}, "type": "electric_scooter", "lon": -76.94638166666667, "name": "59ee96c352017c93311ad1232eeeed71", "bike_id": "59ee96c352017c93311ad1232eeeed71", "fusion_lat": 0.0, "is_reserved": 0, "lat": 38.898483, "fusion_lon": 0.0, "is_disabled": 0}, {"rental_uris": {"android": "https://dc.lft.to/lastmile_qr_scan", "ios": "https://dc.lft.to/lastmile_qr_scan"}, "type": "electric_scooter", "lon": -77.03081783333333, "name": "1d050e0cda783e71e2d138a2dddded45", "bike_id": "1d050e0cda783e71e2d138a2dddded45", "fusion_lat": 0.0, "is_reserved": 0, "lat": 38.922395333333334, "fusion_lon": 0.0, "is_disabled": 0}, {"rental_uris": {"android": "https://dc.lft.to/lastmile_qr_scan", "ios": "https://dc.lft.to/lastmile_qr_scan"}, "type": "electric_scooter", "lon": -77.031389, "name": "adbeeb5141bc533770d83feb0d4063d7", "bike_id": "adbeeb5141bc533770d83feb0d4063d7", "fusion_lat": 0.0, "is_reserved": 0, "lat": 38.90458366666667, "fusion_lon": 0.0, "is_disabled": 0}, {"rental_uris": {"android": "https://dc.lft.to/lastmile_qr_scan", "ios": "https://dc.lft.to/lastmile_qr_scan"}, "type": "electric_scooter", "lon": -77.0649245, "name": "e42e8a98f08f19f6206d4c16b1857e5f", "bike_id": "e42e8a98f08f19f6206d4c16b1857e5f", "fusion_lat": 0.0, "is_reserved": 0, "lat": 38.905208, "fusion_lon": 0.0, "is_disabled": 0}, {"rental_uris": {"android": "https://dc.lft.to/lastmile_qr_scan", "ios": "https://dc.lft.to/lastmile_qr_scan"}, "type": "electric_scooter", "lon": -76.9472665, "name": "f8a9f101207503079e19648ecdc658ee", "bike_id": "f8a9f101207503079e19648ecdc658ee", "fusion_lat": 0.0, "is_reserved": 0, "lat": 38.897366833333336, "fusion_lon": 0.0, "is_disabled": 0}, {"rental_uris": {"android": "https://dc.lft.to/lastmile_qr_scan", "ios": "https://dc.lft.to/lastmile_qr_scan"}, "type": "electric_scooter", "lon": -77.05919916666667, "name": "7ba366d2d6511b0f262f008ea306934d", "bike_id": "7ba366d2d6511b0f262f008ea306934d", "fusion_lat": 0.0, "is_reserved": 0, "lat": 38.9053875, "fusion_lon": 0.0, "is_disabled": 0}, {"rental_uris": {"android": "https://dc.lft.to/lastmile_qr_scan", "ios": "https://dc.lft.to/lastmile_qr_scan"}, "type": "electric_scooter", "lon": -77.02195966666666, "name": "fa4fc4231f04fc68c21ff185616ec288", "bike_id": "fa4fc4231f04fc68c21ff185616ec288", "fusion_lat": 0.0, "is_reserved": 0, "lat": 38.916887333333335, "fusion_lon": 0.0, "is_disabled": 0}, {"rental_uris": {"android": "https://dc.lft.to/lastmile_qr_scan", "ios": "https://dc.lft.to/lastmile_qr_scan"}, "type": "electric_scooter", "lon": -76.9812505, "name": "9ba13aa0112d4caba1c0575a084be372", "bike_id": "9ba13aa0112d4caba1c0575a084be372", "fusion_lat": 0.0, "is_reserved": 0, "lat": 38.8919725, "fusion_lon": 0.0, "is_disabled": 0}, {"rental_uris": {"android": "https://dc.lft.to/lastmile_qr_scan", "ios": "https://dc.lft.to/lastmile_qr_scan"}, "type": "electric_scooter", "lon": -77.0195005, "name": "0856c661221a3a606407dc1be60700a3", "bike_id": "0856c661221a3a606407dc1be60700a3", "fusion_lat": 0.0, "is_reserved": 0, "lat": 38.92258433333333, "fusion_lon": 0.0, "is_disabled": 0}, {"rental_uris": {"android": "https://dc.lft.to/lastmile_qr_scan", "ios": "https://dc.lft.to/lastmile_qr_scan"}, "type": "electric_scooter", "lon": -77.00750566666666, "name": "a71c5cee0411028a050d570991109825", "bike_id": "a71c5cee0411028a050d570991109825", "fusion_lat": 0.0, "is_reserved": 0, "lat": 38.87646733333333, "fusion_lon": 0.0, "is_disabled": 0}, {"rental_uris": {"android": "https://dc.lft.to/lastmile_qr_scan", "ios": "https://dc.lft.to/lastmile_qr_scan"}, "type": "electric_scooter", "lon": -76.99443483333333, "name": "2a2b66dae7c7d3f52faf070dbe7b8544", "bike_id": "2a2b66dae7c7d3f52faf070dbe7b8544", "fusion_lat": 0.0, "is_reserved": 0, "lat": 38.90508716666667, "fusion_lon": 0.0, "is_disabled": 0}, {"rental_uris": {"android": "https://dc.lft.to/lastmile_qr_scan", "ios": "https://dc.lft.to/lastmile_qr_scan"}, "type": "electric_scooter", "lon": -77.02977683333333, "name": "63b03a9d02775e7b0084c9fb8b30f736", "bike_id": "63b03a9d02775e7b0084c9fb8b30f736", "fusion_lat": 0.0, "is_reserved": 0, "lat": 38.92316266666667, "fusion_lon": 0.0, "is_disabled": 0}, {"rental_uris": {"android": "https://dc.lft.to/lastmile_qr_scan", "ios": "https://dc.lft.to/lastmile_qr_scan"}, "type": "electric_scooter", "lon": -76.955155, "name": "96256890e8a0e61284e1ea47e34de970", "bike_id": "96256890e8a0e61284e1ea47e34de970", "fusion_lat": 0.0, "is_reserved": 0, "lat": 38.89054983333333, "fusion_lon": 0.0, "is_disabled": 0}, {"rental_uris": {"android": "https://dc.lft.to/lastmile_qr_scan", "ios": "https://dc.lft.to/lastmile_qr_scan"}, "type": "electric_scooter", "lon": -77.02715866666666, "name": "80aa67ddcdf1b663dbf0c3c4e76b43a1", "bike_id": "80aa67ddcdf1b663dbf0c3c4e76b43a1", "fusion_lat": 0.0, "is_reserved": 0, "lat": 38.90668983333333, "fusion_lon": 0.0, "is_disabled": 0}, {"rental_uris": {"android": "https://dc.lft.to/lastmile_qr_scan", "ios": "https://dc.lft.to/lastmile_qr_scan"}, "type": "electric_bike", "lon": -77.0161815, "name": "164420fb00088e54875f5f69fe92526d", "bike_id": "164420fb00088e54875f5f69fe92526d", "fusion_lat": 0.0, "is_reserved": 0, "lat": 38.91232866666667, "fusion_lon": 0.0, "is_disabled": 0}, {"rental_uris": {"android": "https://dc.lft.to/lastmile_qr_scan", "ios": "https://dc.lft.to/lastmile_qr_scan"}, "type": "electric_scooter", "lon": -77.02565983333334, "name": "b07cd2990284939114dc15940f60bb0a", "bike_id": "b07cd2990284939114dc15940f60bb0a", "fusion_lat": 0.0, "is_reserved": 0, "lat": 38.89520016666667, "fusion_lon": 0.0, "is_disabled": 0}, {"rental_uris": {"android": "https://dc.lft.to/lastmile_qr_scan", "ios": "https://dc.lft.to/lastmile_qr_scan"}, "type": "electric_scooter", "lon": -77.0257735, "name": "97964b0ec3a817a579015da11fc572ae", "bike_id": "97964b0ec3a817a579015da11fc572ae", "fusion_lat": 0.0, "is_reserved": 0, "lat": 38.925089666666665, "fusion_lon": 0.0, "is_disabled": 0}, {"rental_uris": {"android": "https://dc.lft.to/lastmile_qr_scan", "ios": "https://dc.lft.to/lastmile_qr_scan"}, "type": "electric_scooter", "lon": -77.06073033333334, "name": "65f4c87d1e8c1c04d038082d10a0f5a2", "bike_id": "65f4c87d1e8c1c04d038082d10a0f5a2", "fusion_lat": 0.0, "is_reserved": 0, "lat": 38.9052955, "fusion_lon": 0.0, "is_disabled": 0}, {"rental_uris": {"android": "https://dc.lft.to/lastmile_qr_scan", "ios": "https://dc.lft.to/lastmile_qr_scan"}, "type": "electric_bike", "lon": -77.23298016666666, "name": "13ceb7cef702aa9d82ae3f32949cbca6", "bike_id": "13ceb7cef702aa9d82ae3f32949cbca6", "fusion_lat": 0.0, "is_reserved": 0, "lat": 38.925196666666665, "fusion_lon": 0.0, "is_disabled": 0}, {"rental_uris": {"android": "https://dc.lft.to/lastmile_qr_scan", "ios": "https://dc.lft.to/lastmile_qr_scan"}, "type": "electric_scooter", "lon": -76.95408533333334, "name": "1a6c044f9f80a5cf76c070e5b2d770c5", "bike_id": "1a6c044f9f80a5cf76c070e5b2d770c5", "fusion_lat": 0.0, "is_reserved": 0, "lat": 38.89157333333333, "fusion_lon": 0.0, "is_disabled": 0}, {"rental_uris": {"android": "https://dc.lft.to/lastmile_qr_scan", "ios": "https://dc.lft.to/lastmile_qr_scan"}, "type": "electric_scooter", "lon": -77.0439175, "name": "6be450b3472e7b54ce8d93b736e1c34d", "bike_id": "6be450b3472e7b54ce8d93b736e1c34d", "fusion_lat": 0.0, "is_reserved": 0, "lat": 38.90667883333333, "fusion_lon": 0.0, "is_disabled": 0}, {"rental_uris": {"android": "https://dc.lft.to/lastmile_qr_scan", "ios": "https://dc.lft.to/lastmile_qr_scan"}, "type": "electric_scooter", "lon": -77.07346933333334, "name": "1187292c27f0accdc51322bc39f5a922", "bike_id": "1187292c27f0accdc51322bc39f5a922", "fusion_lat": 0.0, "is_reserved": 0, "lat": 38.911035166666665, "fusion_lon": 0.0, "is_disabled": 0}, {"rental_uris": {"android": "https://dc.lft.to/lastmile_qr_scan", "ios": "https://dc.lft.to/lastmile_qr_scan"}, "type": "electric_scooter", "lon": -77.04002816666667, "name": "6d23e8741c53bce52f3d89e75aab9530", "bike_id": "6d23e8741c53bce52f3d89e75aab9530", "fusion_lat": 0.0, "is_reserved": 0, "lat": 38.91309666666667, "fusion_lon": 0.0, "is_disabled": 0}, {"rental_uris": {"android": "https://dc.lft.to/lastmile_qr_scan", "ios": "https://dc.lft.to/lastmile_qr_scan"}, "type": "electric_bike", "lon": -76.91657033333334, "name": "94e1fa4d60a2175f5a36ec3d9967b11d", "bike_id": "94e1fa4d60a2175f5a36ec3d9967b11d", "fusion_lat": 0.0, "is_reserved": 0, "lat": 38.868605, "fusion_lon": 0.0, "is_disabled": 0}, {"rental_uris": {"android": "https://dc.lft.to/lastmile_qr_scan", "ios": "https://dc.lft.to/lastmile_qr_scan"}, "type": "electric_scooter", "lon": -77.04806833333333, "name": "ba741c3bf57d9f9268fef20deccd5f20", "bike_id": "ba741c3bf57d9f9268fef20deccd5f20", "fusion_lat": 0.0, "is_reserved": 0, "lat": 38.911108166666665, "fusion_lon": 0.0, "is_disabled": 0}, {"rental_uris": {"android": "https://dc.lft.to/lastmile_qr_scan", "ios": "https://dc.lft.to/lastmile_qr_scan"}, "type": "electric_scooter", "lon": -76.942431, "name": "869b5f06d5752c8086fd1282c5a4e688", "bike_id": "869b5f06d5752c8086fd1282c5a4e688", "fusion_lat": 0.0, "is_reserved": 0, "lat": 38.896870166666666, "fusion_lon": 0.0, "is_disabled": 0}, {"rental_uris": {"android": "https://dc.lft.to/lastmile_qr_scan", "ios": "https://dc.lft.to/lastmile_qr_scan"}, "type": "electric_bike", "lon": -77.1226405, "name": "85f3ab985e907275cccce684383c77db", "bike_id": "85f3ab985e907275cccce684383c77db", "fusion_lat": 0.0, "is_reserved": 0, "lat": 38.8973685, "fusion_lon": 0.0, "is_disabled": 0}, {"rental_uris": {"android": "https://dc.lft.to/lastmile_qr_scan", "ios": "https://dc.lft.to/lastmile_qr_scan"}, "type": "electric_scooter", "lon": -77.00613833333334, "name": "cf2716c232559608dd5eec2c9b3db771", "bike_id": "cf2716c232559608dd5eec2c9b3db771", "fusion_lat": 0.0, "is_reserved": 0, "lat": 38.885011166666665, "fusion_lon": 0.0, "is_disabled": 0}, {"rental_uris": {"android": "https://dc.lft.to/lastmile_qr_scan", "ios": "https://dc.lft.to/lastmile_qr_scan"}, "type": "electric_scooter", "lon": -77.0307465, "name": "50b52ed742d8b01dffeb9bc1630ec0bf", "bike_id": "50b52ed742d8b01dffeb9bc1630ec0bf", "fusion_lat": 0.0, "is_reserved": 0, "lat": 38.92382966666667, "fusion_lon": 0.0, "is_disabled": 0}, {"rental_uris": {"android": "https://dc.lft.to/lastmile_qr_scan", "ios": "https://dc.lft.to/lastmile_qr_scan"}, "type": "electric_scooter", "lon": -77.027952, "name": "530fc8733e470681c1eab8b23dc488c7", "bike_id": "530fc8733e470681c1eab8b23dc488c7", "fusion_lat": 0.0, "is_reserved": 0, "lat": 38.930853, "fusion_lon": 0.0, "is_disabled": 0}, {"rental_uris": {"android": "https://dc.lft.to/lastmile_qr_scan", "ios": "https://dc.lft.to/lastmile_qr_scan"}, "type": "electric_scooter", "lon": -77.02201833333334, "name": "57029a3e9b164f4d542713d5bc7ca182", "bike_id": "57029a3e9b164f4d542713d5bc7ca182", "fusion_lat": 0.0, "is_reserved": 0, "lat": 38.88716483333333, "fusion_lon": 0.0, "is_disabled": 0}, {"rental_uris": {"android": "https://dc.lft.to/lastmile_qr_scan", "ios": "https://dc.lft.to/lastmile_qr_scan"}, "type": "electric_scooter", "lon": -77.04180966666667, "name": "c61baabd1250e4ddeefda26ed4401f44", "bike_id": "c61baabd1250e4ddeefda26ed4401f44", "fusion_lat": 0.0, "is_reserved": 0, "lat": 38.910895, "fusion_lon": 0.0, "is_disabled": 0}, {"rental_uris": {"android": "https://dc.lft.to/lastmile_qr_scan", "ios": "https://dc.lft.to/lastmile_qr_scan"}, "type": "electric_bike", "lon": -77.112251, "name": "2f5baa060a8aa4702b3fdb9934b1d2f1", "bike_id": "2f5baa060a8aa4702b3fdb9934b1d2f1", "fusion_lat": 0.0, "is_reserved": 0, "lat": 38.81234116666667, "fusion_lon": 0.0, "is_disabled": 0}, {"rental_uris": {"android": "https://dc.lft.to/lastmile_qr_scan", "ios": "https://dc.lft.to/lastmile_qr_scan"}, "type": "electric_bike", "lon": -76.98117833333333, "name": "9b7c8050d5856366a6a7a91a4644c1a4", "bike_id": "9b7c8050d5856366a6a7a91a4644c1a4", "fusion_lat": 0.0, "is_reserved": 0, "lat": 38.896730166666664, "fusion_lon": 0.0, "is_disabled": 0}, {"rental_uris": {"android": "https://dc.lft.to/lastmile_qr_scan", "ios": "https://dc.lft.to/lastmile_qr_scan"}, "type": "electric_scooter", "lon": -77.032416, "name": "317d7d720924c6c947f884d42fa2c7bb", "bike_id": "317d7d720924c6c947f884d42fa2c7bb", "fusion_lat": 0.0, "is_reserved": 0, "lat": 38.905484666666666, "fusion_lon": 0.0, "is_disabled": 0},