{"data": {"bikes": [{"is_reserved": 0, "type": "electric_scooter", "bike_id": "1afb2928f94aed138c33f6273282b52e", "lat": 38.94976833333333, "lon": -77.02020733333333, "rental_uris": {"android": "https://dc.lft.to/lastmile_qr_scan", "ios": "https://dc.lft.to/lastmile_qr_scan"}, "is_disabled": 0, "fusion_lat": 0.0, "name": "1afb2928f94aed138c33f6273282b52e", "fusion_lon": 0.0}, {"is_reserved": 0, "type": "electric_scooter", "bike_id": "54437836d8b8e9272b7e084621b01f15", "lat": 38.892274666666665, "lon": -77.04904383333333, "rental_uris": {"android": "https://dc.lft.to/lastmile_qr_scan", "ios": "https://dc.lft.to/lastmile_qr_scan"}, "is_disabled": 0, "fusion_lat": 0.0, "name": "54437836d8b8e9272b7e084621b01f15", "fusion_lon": 0.0}, {"is_reserved": 0, "type": "electric_scooter", "bike_id": "e4ebb54b5542a2a376fc94f282677a18", "lat": 38.92204783333333, "lon": -77.04236883333333, "rental_uris": {"android": "https://dc.lft.to/lastmile_qr_scan", "ios": "https://dc.lft.to/lastmile_qr_scan"}, "is_disabled": 0, "fusion_lat": 0.0, "name": "e4ebb54b5542a2a376fc94f282677a18", "fusion_lon": 0.0}, {"is_reserved": 0, "type": "electric_scooter", "bike_id": "ea4f3c4d0ceb7b2d2edd47cf291b7582", "lat": 38.9077375, "lon": -77.00010716666667, "rental_uris": {"android": "https://dc.lft.to/lastmile_qr_scan", "ios": "https://dc.lft.to/lastmile_qr_scan"}, "is_disabled": 0, "fusion_lat": 0.0, "name": "ea4f3c4d0ceb7b2d2edd47cf291b7582", "fusion_lon": 0.0}, {"is_reserved": 0, "type": "electric_scooter", "bike_id": "1bf7b804355f1c82e37ff3980cdf7e5a", "lat": 38.92737116666667, "lon": -77.0525875, "rental_uris": {"android": "https://dc.lft.to/lastmile_qr_scan", "ios": "https://dc.lft.to/lastmile_qr_scan"}, "is_disabled": 0, "fusion_lat": 0.0, "name": "1bf7b804355f1c82e37ff3980cdf7e5a", "fusion_lon": 0.0}, {"is_reserved": 0, "type": "electric_scooter", "bike_id": "4d63be0d637055f0fab5239c94e7af70", "lat": 38.92022716666666, "lon": -77.01879383333333, "rental_uris": {"android": "https://dc.lft.to/lastmile_qr_scan", "ios": "https://dc.lft.to/lastmile_qr_scan"}, "is_disabled": 0, "fusion_lat": 0.0, "name": "4d63be0d637055f0fab5239c94e7af70", "fusion_lon": 0.0}, {"is_reserved": 0, "type": "electric_scooter", "bike_id": "eb00c07f72df8d38ad2f085a540b3cdd", "lat": 38.93072316666667, "lon": -77.02967666666666, "rental_uris": {"android": "https://dc.lft.to/lastmile_qr_scan", "ios": "https://dc.lft.to/lastmile_qr_scan"}, "is_disabled": 0, "fusion_lat": 0.0, "name": "eb00c07f72df8d38ad2f085a540b3cdd", "fusion_lon": 0.0}, {"is_reserved": 0, "type": "electric_scooter", "bike_id": "48436cb525b54c1e23c96fbf7d92bb45", "lat": 38.94516733333333, "lon": -77.02984683333334, "rental_uris": {"android": "https://dc.lft.to/lastmile_qr_scan", "ios": "https://dc.lft.to/lastmile_qr_scan"}, "is_disabled": 0, "fusion_lat": 0.0, "name": "48436cb525b54c1e23c96fbf7d92bb45", "fusion_lon": 0.0}, {"is_reserved": 0, "type": "electric_scooter", "bike_id": "80742db4991bb212562b8a7725705b24", "lat": 38.89894866666667, "lon": -77.0035625, "rental_uris": {"android": "https://dc.lft.to/lastmile_qr_scan", "ios": "https://dc.lft.to/lastmile_qr_scan"}, "is_disabled": 0, "fusion_lat": 0.0, "name": "80742db4991bb212562b8a7725705b24", "fusion_lon": 0.0}, {"is_reserved": 0, "type": "electric_scooter", "bike_id": "212b71dbf1c2f1c64a7344c309186304", "lat": 38.926464, "lon": -77.05309416666667, "rental_uris": {"android": "https://dc.lft.to/lastmile_qr_scan", "ios": "https://dc.lft.to/lastmile_qr_scan"}, "is_disabled": 0, "fusion_lat": 0.0, "name": "212b71dbf1c2f1c64a7344c309186304", "fusion_lon": 0.0}, {"is_reserved": 0, "type": "electric_scooter", "bike_id": "1f6eab29990a1e07c9d97936e5795455", "lat": 38.93408066666667, "lon": -77.02040566666666, "rental_uris": {"android": "https://dc.lft.to/lastmile_qr_scan", "ios": "https://dc.lft.to/lastmile_qr_scan"}, "is_disabled": 0, "fusion_lat": 0.0, "name": "1f6eab29990a1e07c9d97936e5795455", "fusion_lon": 0.0}, {"is_reserved": 0, "type": "electric_scooter", "bike_id": "46908c74925573388b40f0ee3672f515", "lat": 38.92586983333333, "lon": -77.04109366666667, "rental_uris": {"android": "https://dc.lft.to/lastmile_qr_scan", "ios": "https://dc.lft.to/lastmile_qr_scan"}, "is_disabled": 0, "fusion_lat": 0.0, "name": "46908c74925573388b40f0ee3672f515", "fusion_lon": 0.0}, {"is_reserved": 0, "type": "electric_scooter", "bike_id": "92c859e32122ac2fe905b9316e74de4e", "lat": 38.898799333333336, "lon": -77.01623833333333, "rental_uris": {"android": "https://dc.lft.to/lastmile_qr_scan", "ios": "https://dc.lft.to/lastmile_qr_scan"}, "is_disabled": 0, "fusion_lat": 0.0, "name": "92c859e32122ac2fe905b9316e74de4e", "fusion_lon": 0.0}, {"is_reserved": 0, "type": "electric_scooter", "bike_id": "4138640092aca1b65d6cab5521f0103a", "lat": 38.91890133333333, "lon": -77.034889, "rental_uris": {"android": "https://dc.lft.to/lastmile_qr_scan", "ios": "https://dc.lft.to/lastmile_qr_scan"}, "is_disabled": 0, "fusion_lat": 0.0, "name": "4138640092aca1b65d6cab5521f0103a", "fusion_lon": 0.0}, {"is_reserved": 0, "type": "electric_scooter", "bike_id": "b1175608c32bc0518d076b95c533582a", "lat": 38.9112, "lon": -77.0209775, "rental_uris": {"android": "https://dc.lft.to/lastmile_qr_scan", "ios": "https://dc.lft.to/lastmile_qr_scan"}, "is_disabled": 0, "fusion_lat": 0.0, "name": "b1175608c32bc0518d076b95c533582a", "fusion_lon": 0.0}, {"is_reserved": 0, "type": "electric_scooter", "bike_id": "44e685faeaa65c575f87c95091058a20", "lat": 38.9347995, "lon": -77.056494, "rental_uris": {"android": "https://dc.lft.to/lastmile_qr_scan", "ios": "https://dc.lft.to/lastmile_qr_scan"}, "is_disabled": 0, "fusion_lat": 0.0, "name": "44e685faeaa65c575f87c95091058a20", "fusion_lon": 0.0}, {"is_reserved": 0, "type": "electric_scooter", "bike_id": "dc96625a1c7e2fb2c25533daaa5a5e13", "lat": 38.87484766666667, "lon": -77.0004115, "rental_uris": {"android": "https://dc.lft.to/lastmile_qr_scan", "ios": "https://dc.lft.to/lastmile_qr_scan"}, "is_disabled": 0, "fusion_lat": 0.0, "name": "dc96625a1c7e2fb2c25533daaa5a5e13", "fusion_lon": 0.0}, {"is_reserved": 0, "type": "electric_scooter", "bike_id": "6f3b12be589acfa3b74ee81a889ab436", "lat": 38.85655233333333, "lon": -76.99676016666666, "rental_uris": {"android": "https://dc.lft.to/lastmile_qr_scan", "ios": "https://dc.lft.to/lastmile_qr_scan"}, "is_disabled": 0, "fusion_lat": 0.0, "name": "6f3b12be589acfa3b74ee81a889ab436", "fusion_lon": 0.0}, {"is_reserved": 0, "type": "electric_scooter", "bike_id": "a312d57488031f9bae9e07bc5ce27fe2", "lat": 38.8769915, "lon": -77.01852333333333, "rental_uris": {"android": "https://dc.lft.to/lastmile_qr_scan", "ios": "https://dc.lft.to/lastmile_qr_scan"}, "is_disabled": 0, "fusion_lat": 0.0, "name": "a312d57488031f9bae9e07bc5ce27fe2", "fusion_lon": 0.0}, {"is_reserved": 0, "type": "electric_scooter", "bike_id": "f0da2d59c9f19fdfe55026854f31a131", "lat": 38.93503966666667, "lon": -77.04288133333333, "rental_uris": {"android": "https://dc.lft.to/lastmile_qr_scan", "ios": "https://dc.lft.to/lastmile_qr_scan"}, "is_disabled": 0, "fusion_lat": 0.0, "name": "f0da2d59c9f19fdfe55026854f31a131", "fusion_lon": 0.0}, {"is_reserved": 0, "type": "electric_bike", "bike_id": "1c4d69caf2f8861080f6eeb049fa5451", "lat": 38.8945975, "lon": -77.103675, "rental_uris": {"android": "https://dc.lft.to/lastmile_qr_scan", "ios": "https://dc.lft.to/lastmile_qr_scan"}, "is_disabled": 0, "fusion_lat": 0.0, "name": "1c4d69caf2f8861080f6eeb049fa5451", "fusion_lon": 0.0}, {"is_reserved": 0, "type": "electric_scooter", "bike_id": "da884c3e1243faf103642ca8db632eac", "lat": 38.9002035, "lon": -76.98826383333333, "rental_uris": {"android": "https://dc.lft.to/lastmile_qr_scan", "ios": "https://dc.lft.to/lastmile_qr_scan"}, "is_disabled": 0, "fusion_lat": 0.0, "name": "da884c3e1243faf103642ca8db632eac", "fusion_lon": 0.0}, {"is_reserved": 0, "type": "electric_scooter", "bike_id": "aeeab3ffd6b15a917b9d54a7c4fc88e4", "lat": 38.92389683333333, "lon": -77.05056166666667, "rental_uris": {"android": "https://dc.lft.to/lastmile_qr_scan", "ios": "https://dc.lft.to/lastmile_qr_scan"}, "is_disabled": 0, "fusion_lat": 0.0, "name": "aeeab3ffd6b15a917b9d54a7c4fc88e4", "fusion_lon": 0.0}, {"is_reserved": 0, "type": "electric_scooter", "bike_id": "c19f93db4514964edecc7b8673448152", "lat": 38.907838166666664, "lon": -77.00218116666667, "rental_uris": {"android": "https://dc.lft.to/lastmile_qr_scan", "ios": "https://dc.lft.to/lastmile_qr_scan"}, "is_disabled": 0, "fusion_lat": 0.0, "name": "c19f93db4514964edecc7b8673448152", "fusion_lon": 0.0}, {"is_reserved": 0, "type": "electric_scooter", "bike_id": "23257e30fdb9bf98548d59749054ab14", "lat": 38.902589166666665, "lon": -77.018378, "rental_uris": {"android": "https://dc.lft.to/lastmile_qr_scan", "ios": "https://dc.lft.to/lastmile_qr_scan"}, "is_disabled": 0, "fusion_lat": 0.0, "name": "23257e30fdb9bf98548d59749054ab14", "fusion_lon": 0.0}, {"is_reserved": 0, "type": "electric_scooter", "bike_id": "961ebea2d2c28068b477402412d2a378", "lat": 38.910673333333335, "lon": -77.016163, "rental_uris": {"android": "https://dc.lft.to/lastmile_qr_scan", "ios": "https://dc.lft.to/lastmile_qr_scan"}, "is_disabled": 0, "fusion_lat": 0.0, "name": "961ebea2d2c28068b477402412d2a378", "fusion_lon": 0.0}, {"is_reserved": 0, "type": "electric_scooter", "bike_id": "03292e60726e66ca3a29819d0257c278", "lat": 38.912866, "lon": -77.07278983333333, "rental_uris": {"android": "https://dc.lft.to/lastmile_qr_scan", "ios": "https://dc.lft.to/lastmile_qr_scan"}, "is_disabled": 0, "fusion_lat": 0.0, "name": "03292e60726e66ca3a29819d0257c278", "fusion_lon": 0.0}, {"is_reserved": 0, "type": "electric_scooter", "bike_id": "1d6364981b982798ece7c0a51255e665", "lat": 38.918239, "lon": -77.031661, "rental_uris": {"android": "https://dc.lft.to/lastmile_qr_scan", "ios": "https://dc.lft.to/lastmile_qr_scan"}, "is_disabled": 0, "fusion_lat": 0.0, "name": "1d6364981b982798ece7c0a51255e665", "fusion_lon": 0.0}, {"is_reserved": 0, "type": "electric_scooter", "bike_id": "03301331c5d39760b81fea95366b3a2f", "lat": 38.904531, "lon": -76.99632533333333, "rental_uris": {"android": "https://dc.lft.to/lastmile_qr_scan", "ios": "https://dc.lft.to/lastmile_qr_scan"}, "is_disabled": 0, "fusion_lat": 0.0, "name": "03301331c5d39760b81fea95366b3a2f", "fusion_lon": 0.0}, {"is_reserved": 0, "type": "electric_scooter", "bike_id": "ad9cd1bf747b0f06d9d747bfbc60a5f8", "lat": 38.86593383333334, "lon": -76.97454916666666, "rental_uris": {"android": "https://dc.lft.to/lastmile_qr_scan", "ios": "https://dc.lft.to/lastmile_qr_scan"}, "is_disabled": 0, "fusion_lat": 0.0, "name": "ad9cd1bf747b0f06d9d747bfbc60a5f8", "fusion_lon": 0.0}, {"is_reserved": 0, "type": "electric_scooter", "bike_id": "b4cb359b3704ea2f3247731ae4a42046", "lat": 38.905754, "lon": -77.03072733333333, "rental_uris": {"android": "https://dc.lft.to/lastmile_qr_scan", "ios": "https://dc.lft.to/lastmile_qr_scan"}, "is_disabled": 0, "fusion_lat": 0.0, "name": "b4cb359b3704ea2f3247731ae4a42046", "fusion_lon": 0.0}, {"is_reserved": 0, "type": "electric_scooter", "bike_id": "d804efbd166b6fc9a35183ed9ed41994", "lat": 38.88768666666667, "lon": -76.98324366666667, "rental_uris": {"android": "https://dc.lft.to/lastmile_qr_scan", "ios": "https://dc.lft.to/lastmile_qr_scan"}, "is_disabled": 0, "fusion_lat": 0.0, "name": "d804efbd166b6fc9a35183ed9ed41994", "fusion_lon": 0.0}, {"is_reserved": 0, "type": "electric_bike", "bike_id": "2556e6539c786e8bd3ad972bbdd99e55", "lat": 38.89590583333333, "lon": -76.90691, "rental_uris": {"android": "https://dc.lft.to/lastmile_qr_scan", "ios": "https://dc.lft.to/lastmile_qr_scan"}, "is_disabled": 0, "fusion_lat": 0.0, "name": "2556e6539c786e8bd3ad972bbdd99e55", "fusion_lon": 0.0}, {"is_reserved": 0, "type": "electric_bike", "bike_id": "6fa0eb839cf26ae5cb9436bbe714574c", "lat": 38.95641, "lon": -77.03295333333334, "rental_uris": {"android": "https://dc.lft.to/lastmile_qr_scan", "ios": "https://dc.lft.to/lastmile_qr_scan"}, "is_disabled": 0, "fusion_lat": 0.0, "name": "6fa0eb839cf26ae5cb9436bbe714574c", "fusion_lon": 0.0}, {"is_reserved": 0, "type": "electric_scooter", "bike_id": "92859d80596821bb60c5e7c3eaa870ca", "lat": 38.915686, "lon": -77.02287883333334, "rental_uris": {"android": "https://dc.lft.to/lastmile_qr_scan", "ios": "https://dc.lft.to/lastmile_qr_scan"}, "is_disabled": 0, "fusion_lat": 0.0, "name": "92859d80596821bb60c5e7c3eaa870ca", "fusion_lon": 0.0}, {"is_reserved": 0, "type": "electric_scooter", "bike_id": "b9b9a1f10d1da67a48e7f5935ac8fb3e", "lat": 38.89798, "lon": -77.0270125, "rental_uris": {"android": "https://dc.lft.to/lastmile_qr_scan", "ios": "https://dc.lft.to/lastmile_qr_scan"}, "is_disabled": 0, "fusion_lat": 0.0, "name": "b9b9a1f10d1da67a48e7f5935ac8fb3e", "fusion_lon": 0.0}, {"is_reserved": 0, "type": "electric_scooter", "bike_id": "987c12f30f421da59c487fcf772d78f8", "lat": 38.8876635, "lon": -76.983263, "rental_uris": {"android": "https://dc.lft.to/lastmile_qr_scan", "ios": "https://dc.lft.to/lastmile_qr_scan"}, "is_disabled": 0, "fusion_lat": 0.0, "name": "987c12f30f421da59c487fcf772d78f8", "fusion_lon": 0.0}, {"is_reserved": 0, "type": "electric_scooter", "bike_id": "ed3f91236f31dc451afbd4882f23d276", "lat": 38.898090833333335, "lon": -76.99688583333334, "rental_uris": {"android": "https://dc.lft.to/lastmile_qr_scan", "ios": "https://dc.lft.to/lastmile_qr_scan"}, "is_disabled": 0, "fusion_lat": 0.0, "name": "ed3f91236f31dc451afbd4882f23d276", "fusion_lon": 0.0}, {"is_reserved": 0, "type": "electric_scooter", "bike_id": "a191ba87055ed2eca449a7545a9ea0f9", "lat": 38.91761233333333, "lon": -77.023113, "rental_uris": {"android": "https://dc.lft.to/lastmile_qr_scan", "ios": "https://dc.lft.to/lastmile_qr_scan"}, "is_disabled": 0, "fusion_lat": 0.0, "name": "a191ba87055ed2eca449a7545a9ea0f9", "fusion_lon": 0.0}, {"is_reserved": 0, "type": "electric_scooter", "bike_id": "0daf9f9b0c6f541eaa57d0fb85cac041", "lat": 38.919642833333334, "lon": -77.0436355, "rental_uris": {"android": "https://dc.lft.to/lastmile_qr_scan", "ios": "https://dc.lft.to/lastmile_qr_scan"}, "is_disabled": 0, "fusion_lat": 0.0, "name": "0daf9f9b0c6f541eaa57d0fb85cac041", "fusion_lon": 0.0}, {"is_reserved": 0, "type": "electric_scooter", "bike_id": "df91cdebf7dc4bb3c12f9b2884659d83", "lat": 38.86717816666667, "lon": -76.9807385, "rental_uris": {"android": "https://dc.lft.to/lastmile_qr_scan", "ios": "https://dc.lft.to/lastmile_qr_scan"}, "is_disabled": 0, "fusion_lat": 0.0, "name": "df91cdebf7dc4bb3c12f9b2884659d83", "fusion_lon": 0.0}, {"is_reserved": 0, "type": "electric_scooter", "bike_id": "4311f70014220e1410a34eaa99a1b979", "lat": 38.911102666666665, "lon": -77.02082566666667, "rental_uris": {"android": "https://dc.lft.to/lastmile_qr_scan", "ios": "https://dc.lft.to/lastmile_qr_scan"}, "is_disabled": 0, "fusion_lat": 0.0, "name": "4311f70014220e1410a34eaa99a1b979", "fusion_lon": 0.0}, {"is_reserved": 0, "type": "electric_scooter", "bike_id": "a5ba8dc5b6e1c26990759d17e5818d71", "lat": 38.89231866666667, "lon": -77.0318275, "rental_uris": {"android": "https://dc.lft.to/lastmile_qr_scan", "ios": "https://dc.lft.to/lastmile_qr_scan"}, "is_disabled": 0, "fusion_lat": 0.0, "name": "a5ba8dc5b6e1c26990759d17e5818d71", "fusion_lon": 0.0}, {"is_reserved": 0, "type": "electric_scooter", "bike_id": "01f6122e246fb1670819e171855afb98", "lat": 38.908648666666664, "lon": -77.00366383333333, "rental_uris": {"android": "https://dc.lft.to/lastmile_qr_scan", "ios": "https://dc.lft.to/lastmile_qr_scan"}, "is_disabled": 0, "fusion_lat": 0.0, "name": "01f6122e246fb1670819e171855afb98", "fusion_lon": 0.0}, {"is_reserved": 0, "type": "electric_scooter", "bike_id": "225803f3acdddeb1ff47777296381b4e", "lat": 38.91938666666667, "lon": -77.0188135, "rental_uris": {"android": "https://dc.lft.to/lastmile_qr_scan", "ios": "https://dc.lft.to/lastmile_qr_scan"}, "is_disabled": 0, "fusion_lat": 0.0, "name": "225803f3acdddeb1ff47777296381b4e", "fusion_lon": 0.0}, {"is_reserved": 0, "type": "electric_scooter", "bike_id": "566c2760a576de0f48ac9b6ef0d1b27b", "lat": 38.9097595, "lon": -77.02406583333334, "rental_uris": {"android": "https://dc.lft.to/lastmile_qr_scan", "ios": "https://dc.lft.to/lastmile_qr_scan"}, "is_disabled": 0, "fusion_lat": 0.0, "name": "566c2760a576de0f48ac9b6ef0d1b27b", "fusion_lon": 0.0}, {"is_reserved": 0, "type": "electric_scooter", "bike_id": "4abbb49ab5d806e19355661bc5863e1e", "lat": 38.946927, "lon": -77.02245366666666, "rental_uris": {"android": "https://dc.lft.to/lastmile_qr_scan", "ios": "https://dc.lft.to/lastmile_qr_scan"}, "is_disabled": 0, "fusion_lat": 0.0, "name": "4abbb49ab5d806e19355661bc5863e1e", "fusion_lon": 0.0}, {"is_reserved": 0, "type": "electric_scooter", "bike_id": "be3e288437210c93581b1ccb754d2d93", "lat": 38.89860866666667, "lon": -76.97765, "rental_uris": {"android": "https://dc.lft.to/lastmile_qr_scan", "ios": "https://dc.lft.to/lastmile_qr_scan"}, "is_disabled": 0, "fusion_lat": 0.0, "name": "be3e288437210c93581b1ccb754d2d93", "fusion_lon": 0.0}, {"is_reserved": 0, "type": "electric_scooter", "bike_id": "4406ff67d92d403b7a239a2035d30961", "lat": 38.93401133333333, "lon": -77.04127466666667, "rental_uris": {"android": "https://dc.lft.to/lastmile_qr_scan", "ios": "https://dc.lft.to/lastmile_qr_scan"}, "is_disabled": 0, "fusion_lat": 0.0, "name": "4406ff67d92d403b7a239a2035d30961", "fusion_lon": 0.0}, {"is_reserved": 0, "type": "electric_scooter", "bike_id": "78606fb2350bde2daf041129d1128614", "lat": 38.905485666666664, "lon": -77.03510733333333, "rental_uris": {"android": "https://dc.lft.to/lastmile_qr_scan", "ios": "https://dc.lft.to/lastmile_qr_scan"}, "is_disabled": 0, "fusion_lat": 0.0, "name": "78606fb2350bde2daf041129d1128614", "fusion_lon": 0.0}, {"is_reserved": 0, "type": "electric_scooter", "bike_id": "1e0954caa4029eecb6c01314abb11649", "lat": 38.90398733333333, "lon": -76.98952166666666, "rental_uris": {"android": "https://dc.lft.to/lastmile_qr_scan", "ios": "https://dc.lft.to/lastmile_qr_scan"}, "is_disabled": 0, "fusion_lat": 0.0, "name": "1e0954caa4029eecb6c01314abb11649", "fusion_lon": 0.0}, {"is_reserved": 0, "type": "electric_scooter", "bike_id": "67ded35facd096b981c4f0e6da42b054", "lat": 38.8999365, "lon": -77.01897616666666, "rental_uris": {"android": "https://dc.lft.to/lastmile_qr_scan", "ios": "https://dc.lft.to/lastmile_qr_scan"}, "is_disabled": 0, "fusion_lat": 0.0, "name": "67ded35facd096b981c4f0e6da42b054", "fusion_lon": 0.0}, {"is_reserved": 0, "type": "electric_scooter", "bike_id": "e0b7b034dbb9302c641023646826462e", "lat": 38.885284, "lon": -76.99829816666667, "rental_uris": {"android": "https://dc.lft.to/lastmile_qr_scan", "ios": "https://dc.lft.to/lastmile_qr_scan"}, "is_disabled": 0, "fusion_lat": 0.0, "name": "e0b7b034dbb9302c641023646826462e", "fusion_lon": 0.0}, {"is_reserved": 0, "type": "electric_bike", "bike_id": "22d47a7b25d7e283166dc2a9b64728c2", "lat": 38.94317433333333, "lon": -76.9901575, "rental_uris": {"android": "https://dc.lft.to/lastmile_qr_scan", "ios": "https://dc.lft.to/lastmile_qr_scan"}, "is_disabled": 0, "fusion_lat": 0.0, "name": "22d47a7b25d7e283166dc2a9b64728c2", "fusion_lon": 0.0}, {"is_reserved": 0, "type": "electric_bike", "bike_id": "f22e26b0e547b6d33d0a8be7d4920ad3", "lat": 38.86460966666667, "lon": -76.97755633333334, "rental_uris": {"android": "https://dc.lft.to/lastmile_qr_scan", "ios": "https://dc.lft.to/lastmile_qr_scan"}, "is_disabled": 0, "fusion_lat": 0.0, "name": "f22e26b0e547b6d33d0a8be7d4920ad3", "fusion_lon": 0.0}, {"is_reserved": 0, "type": "electric_scooter", "bike_id": "69bfea75d96762dd6bf87dd27bf1520c", "lat": 38.918131833333334, "lon": -77.04029016666667, "rental_uris": {"android": "https://dc.lft.to/lastmile_qr_scan", "ios": "https://dc.lft.to/lastmile_qr_scan"}, "is_disabled": 0, "fusion_lat": 0.0, "name": "69bfea75d96762dd6bf87dd27bf1520c", "fusion_lon": 0.0}, {"is_reserved": 0, "type": "electric_bike", "bike_id": "2c8cf1305568c3ab8c776ec13d153fae", "lat": 38.87213933333334, "lon": -77.11742833333334, "rental_uris": {"android": "https://dc.lft.to/lastmile_qr_scan", "ios": "https://dc.lft.to/lastmile_qr_scan"}, "is_disabled": 0, "fusion_lat": 0.0, "name": "2c8cf1305568c3ab8c776ec13d153fae", "fusion_lon": 0.0}, {"is_reserved": 0, "type": "electric_scooter", "bike_id": "cf5bf16048d0636e777c0f45e7fe2d43", "lat": 38.885081, "lon": -77.01754266666667, "rental_uris": {"android": "https://dc.lft.to/lastmile_qr_scan", "ios": "https://dc.lft.to/lastmile_qr_scan"}, "is_disabled": 0, "fusion_lat": 0.0, "name": "cf5bf16048d0636e777c0f45e7fe2d43", "fusion_lon": 0.0}, {"is_reserved": 0, "type": "electric_bike", "bike_id": "85c2429c23a4950611e698811be56fda", "lat": 38.857881166666665, "lon": -76.98766333333333, "rental_uris": {"android": "https://dc.lft.to/lastmile_qr_scan", "ios": "https://dc.lft.to/lastmile_qr_scan"}, "is_disabled": 0, "fusion_lat": 0.0, "name": "85c2429c23a4950611e698811be56fda", "fusion_lon": 0.0}, {"is_reserved": 0, "type": "electric_scooter", "bike_id": "9a221244a3ffc90cfbcce2e44ee81c47", "lat": 38.92862933333333, "lon": -77.0536595, "rental_uris": {"android": "https://dc.lft.to/lastmile_qr_scan", "ios": "https://dc.lft.to/lastmile_qr_scan"}, "is_disabled": 0, "fusion_lat": 0.0, "name": "9a221244a3ffc90cfbcce2e44ee81c47", "fusion_lon": 0.0}, {"is_reserved": 0, "type": "electric_scooter", "bike_id": "01460e97bfe6e2b16be0ba6087a4c9e7", "lat": 38.90539316666667, "lon": -77.05829933333334, "rental_uris": {"android": "https://dc.lft.to/lastmile_qr_scan", "ios": "https://dc.lft.to/lastmile_qr_scan"}, "is_disabled": 0, "fusion_lat": 0.0, "name": "01460e97bfe6e2b16be0ba6087a4c9e7", "fusion_lon": 0.0}, {"is_reserved": 0, "type": "electric_scooter", "bike_id": "c10a18831d28836242368d880388837a", "lat": 38.91121283333333, "lon": -77.043652, "rental_uris": {"android": "https://dc.lft.to/lastmile_qr_scan", "ios": "https://dc.lft.to/lastmile_qr_scan"}, "is_disabled": 0, "fusion_lat": 0.0, "name": "c10a18831d28836242368d880388837a", "fusion_lon": 0.0}, {"is_reserved": 0, "type": "electric_scooter", "bike_id": "ba33e69fc07c6bf8a20a6a4e74f0f4a0", "lat": 38.9054325, "lon": -77.05927433333333, "rental_uris": {"android": "https://dc.lft.to/lastmile_qr_scan", "ios": "https://dc.lft.to/lastmile_qr_scan"}, "is_disabled": 0, "fusion_lat": 0.0, "name": "ba33e69fc07c6bf8a20a6a4e74f0f4a0", "fusion_lon": 0.0}, {"is_reserved": 0, "type": "electric_scooter", "bike_id": "7ac18a0d42730da35b44cda563945d11", "lat": 38.927429833333335, "lon": -77.0342005, "rental_uris": {"android": "https://dc.lft.to/lastmile_qr_scan", "ios": "https://dc.lft.to/lastmile_qr_scan"}, "is_disabled": 0, "fusion_lat": 0.0, "name": "7ac18a0d42730da35b44cda563945d11", "fusion_lon": 0.0}, {"is_reserved": 0, "type": "electric_scooter", "bike_id": "d3a5352a816abe5c126d4f1bea034a6a", "lat": 38.920769666666665, "lon": -77.02341933333334, "rental_uris": {"android": "https://dc.lft.to/lastmile_qr_scan", "ios": "https://dc.lft.to/lastmile_qr_scan"}, "is_disabled": 0, "fusion_lat": 0.0, "name": "d3a5352a816abe5c126d4f1bea034a6a", "fusion_lon": 0.0}, {"is_reserved": 0, "type": "electric_scooter", "bike_id": "516186074a52c7232dfb08ed14e3bfd4", "lat": 38.93633883333333, "lon": -77.083249, "rental_uris": {"android": "https://dc.lft.to/lastmile_qr_scan", "ios": "https://dc.lft.to/lastmile_qr_scan"}, "is_disabled": 0, "fusion_lat": 0.0, "name": "516186074a52c7232dfb08ed14e3bfd4", "fusion_lon": 0.0}, {"is_reserved": 0, "type": "electric_scooter", "bike_id": "30fa086e113a4deca2859c31b91927dc", "lat": 38.89277383333334, "lon": -77.03216433333333, "rental_uris": {"android": "https://dc.lft.to/lastmile_qr_scan", "ios": "https://dc.lft.to/lastmile_qr_scan"}, "is_disabled": 0, "fusion_lat": 0.0, "name": "30fa086e113a4deca2859c31b91927dc", "fusion_lon": 0.0}, {"is_reserved": 0, "type": "electric_scooter", "bike_id": "8f175450dbc41f2267d7aff236ad68a4", "lat": 38.907885, "lon": -77.04800366666667, "rental_uris": {"android": "https://dc.lft.to/lastmile_qr_scan", "ios": "https://dc.lft.to/lastmile_qr_scan"}, "is_disabled": 0, "fusion_lat": 0.0, "name": "8f175450dbc41f2267d7aff236ad68a4", "fusion_lon": 0.0}, {"is_reserved": 0, "type": "electric_scooter", "bike_id": "c39b076a71e9817f472aa05acea88c97", "lat": 38.905138666666666, "lon": -77.05017466666666, "rental_uris": {"android": "https://dc.lft.to/lastmile_qr_scan", "ios": "https://dc.lft.to/lastmile_qr_scan"}, "is_disabled": 0, "fusion_lat": 0.0, "name": "c39b076a71e9817f472aa05acea88c97", "fusion_lon": 0.0}, {"is_reserved": 0, "type": "electric_scooter", "bike_id": "5ea5cb00e981a407479c60e0282cea46", "lat": 38.9044515, "lon": -77.03471016666667, "rental_uris": {"android": "https://dc.lft.to/lastmile_qr_scan", "ios": "https://dc.lft.to/lastmile_qr_scan"}, "is_disabled": 0, "fusion_lat": 0.0, "name": "5ea5cb00e981a407479c60e0282cea46", "fusion_lon": 0.0}, {"is_reserved": 0, "type": "electric_bike", "bike_id": "196aa1d46644909bcc1e89570b4e2b8f", "lat": 39.094426, "lon": -77.13473483333334, "rental_uris": {"android": "https://dc.lft.to/lastmile_qr_scan", "ios": "https://dc.lft.to/lastmile_qr_scan"}, "is_disabled": 0, "fusion_lat": 0.0, "name": "196aa1d46644909bcc1e89570b4e2b8f", "fusion_lon": 0.0}, {"is_reserved": 0, "type": "electric_bike", "bike_id": "bc84a12045956ff1dc0330212212a3a9", "lat": 38.89851216666667, "lon": -76.93190533333333, "rental_uris": {"android": "https://dc.lft.to/lastmile_qr_scan", "ios": "https://dc.lft.to/lastmile_qr_scan"}, "is_disabled": 0, "fusion_lat": 0.0, "name": "bc84a12045956ff1dc0330212212a3a9", "fusion_lon": 0.0}, {"is_reserved": 0, "type": "electric_scooter", "bike_id": "559f3c011b72ce77589486cc3d3c6c4e", "lat": 38.93058633333333, "lon": -77.04227633333333, "rental_uris": {"android": "https://dc.lft.to/lastmile_qr_scan", "ios": "https://dc.lft.to/lastmile_qr_scan"}, "is_disabled": 0, "fusion_lat": 0.0, "name": "559f3c011b72ce77589486cc3d3c6c4e", "fusion_lon": 0.0}, {"is_reserved": 0, "type": "electric_scooter", "bike_id": "ca7f87f307de6ee9c601fd17c0b29139", "lat": 38.92805583333333, "lon": -77.03614266666666, "rental_uris": {"android": "https://dc.lft.to/lastmile_qr_scan", "ios": "https://dc.lft.to/lastmile_qr_scan"}, "is_disabled": 0, "fusion_lat": 0.0, "name": "ca7f87f307de6ee9c601fd17c0b29139", "fusion_lon": 0.0}, {"is_reserved": 0, "type": "electric_scooter", "bike_id": "470e169a465e7790c06a73deeb957a7a", "lat": 38.921898, "lon": -77.0183415, "rental_uris": {"android": "https://dc.lft.to/lastmile_qr_scan", "ios": "https://dc.lft.to/lastmile_qr_scan"}, "is_disabled": 0, "fusion_lat": 0.0, "name": "470e169a465e7790c06a73deeb957a7a", "fusion_lon": 0.0}, {"is_reserved": 0, "type": "electric_scooter", "bike_id": "23f156905825c0357e4cd0f1d5be9e04", "lat": 38.876327833333335, "lon": -77.00242883333334, "rental_uris": {"android": "https://dc.lft.to/lastmile_qr_scan", "ios": "https://dc.lft.to/lastmile_qr_scan"}, "is_disabled": 0, "fusion_lat": 0.0, "name": "23f156905825c0357e4cd0f1d5be9e04", "fusion_lon": 0.0}, {"is_reserved": 0, "type": "electric_scooter", "bike_id": "7695978e1be1d757e2be999bd20a0969", "lat": 38.92744883333334, "lon": -77.06958033333333, "rental_uris": {"android": "https://dc.lft.to/lastmile_qr_scan", "ios": "https://dc.lft.to/lastmile_qr_scan"}, "is_disabled": 0, "fusion_lat": 0.0, "name": "7695978e1be1d757e2be999bd20a0969", "fusion_lon": 0.0}, {"is_reserved": 0, "type": "electric_scooter", "bike_id": "66489118d5093ac73b970eb100827ed0", "lat": 38.864487833333335, "lon": -76.99132533333334, "rental_uris": {"android": "https://dc.lft.to/lastmile_qr_scan", "ios": "https://dc.lft.to/lastmile_qr_scan"}, "is_disabled": 0, "fusion_lat": 0.0, "name": "66489118d5093ac73b970eb100827ed0", "fusion_lon": 0.0}, {"is_reserved": 0, "type": "electric_scooter", "bike_id": "5976af35ab9053db4452395ad1d93028", "lat": 38.9054835, "lon": -77.051446, "rental_uris": {"android": "https://dc.lft.to/lastmile_qr_scan", "ios": "https://dc.lft.to/lastmile_qr_scan"}, "is_disabled": 0, "fusion_lat": 0.0, "name": "5976af35ab9053db4452395ad1d93028", "fusion_lon": 0.0}, {"is_reserved": 0, "type": "electric_scooter", "bike_id": "8431ce698dd86a756d52d9c263d4a9c9", "lat": 38.911216333333336, "lon": -77.03317666666666, "rental_uris": {"android": "https://dc.lft.to/lastmile_qr_scan", "ios": "https://dc.lft.to/lastmile_qr_scan"}, "is_disabled": 0, "fusion_lat": 0.0, "name": "8431ce698dd86a756d52d9c263d4a9c9", "fusion_lon": 0.0}, {"is_reserved": 0, "type": "electric_scooter", "bike_id": "8b655e179279b8893035c9eeb4a0d601", "lat": 38.91835016666667, "lon": -77.03204566666666, "rental_uris": {"android": "https://dc.lft.to/lastmile_qr_scan", "ios": "https://dc.lft.to/lastmile_qr_scan"}, "is_disabled": 0, "fusion_lat": 0.0, "name": "8b655e179279b8893035c9eeb4a0d601", "fusion_lon": 0.0}, {"is_reserved": 0, "type": "electric_scooter", "bike_id": "3d8f6962380aeeb7fbdc1ec3c751decc", "lat": 38.97294266666667, "lon": -77.036291, "rental_uris": {"android": "https://dc.lft.to/lastmile_qr_scan", "ios": "https://dc.lft.to/lastmile_qr_scan"}, "is_disabled": 0, "fusion_lat": 0.0, "name": "3d8f6962380aeeb7fbdc1ec3c751decc", "fusion_lon": 0.0}, {"is_reserved": 0, "type": "electric_scooter", "bike_id": "682c54e90b091d30050f085e873fdbde", "lat": 38.90981, "lon": -77.03468883333333, "rental_uris": {"android": "https://dc.lft.to/lastmile_qr_scan", "ios": "https://dc.lft.to/lastmile_qr_scan"}, "is_disabled": 0, "fusion_lat": 0.0, "name": "682c54e90b091d30050f085e873fdbde", "fusion_lon": 0.0}, {"is_reserved": 0, "type": "electric_scooter", "bike_id": "fd3cc2de74fffe8a911d085bd5dd2a20", "lat": 38.930203, "lon": -77.03789116666667, "rental_uris": {"android": "https://dc.lft.to/lastmile_qr_scan", "ios": "https://dc.lft.to/lastmile_qr_scan"}, "is_disabled": 0, "fusion_lat": 0.0, "name": "fd3cc2de74fffe8a911d085bd5dd2a20", "fusion_lon": 0.0}, {"is_reserved": 0, "type": "electric_scooter", "bike_id": "44abac7a6849ba5ad243963ea461452b", "lat": 38.88456933333333, "lon": -76.9262425, "rental_uris": {"android": "https://dc.lft.to/lastmile_qr_scan", "ios": "https://dc.lft.to/lastmile_qr_scan"}, "is_disabled": 0, "fusion_lat": 0.0, "name": "44abac7a6849ba5ad243963ea461452b", "fusion_lon": 0.0}, {"is_reserved": 0, "type": "electric_scooter", "bike_id": "620063de35822a13e04efa2a22a2d25f", "lat": 38.92108116666667, "lon": -77.017775, "rental_uris": {"android": "https://dc.lft.to/lastmile_qr_scan", "ios": "https://dc.lft.to/lastmile_qr_scan"}, "is_disabled": 0, "fusion_lat": 0.0, "name": "620063de35822a13e04efa2a22a2d25f", "fusion_lon": 0.0}, {"is_reserved": 0, "type": "electric_scooter", "bike_id": "b8907df5f08c1e051572281f94deb04d", "lat": 38.9192905, "lon": -77.01977766666667, "rental_uris": {"android": "https://dc.lft.to/lastmile_qr_scan", "ios": "https://dc.lft.to/lastmile_qr_scan"}, "is_disabled": 0, "fusion_lat": 0.0, "name": "b8907df5f08c1e051572281f94deb04d", "fusion_lon": 0.0}, {"is_reserved": 0, "type": "electric_scooter", "bike_id": "b51ab4b4df417176dfb50b71107353d3", "lat": 38.918032333333336, "lon": -77.03448933333334, "rental_uris": {"android": "https://dc.lft.to/lastmile_qr_scan", "ios": "https://dc.lft.to/lastmile_qr_scan"}, "is_disabled": 0, "fusion_lat": 0.0, "name": "b51ab4b4df417176dfb50b71107353d3", "fusion_lon": 0.0}, {"is_reserved": 0, "type": "electric_scooter", "bike_id": "7800a51a1973b536ab64b7896a4d4432", "lat": 38.88123433333333, "lon": -77.019737, "rental_uris": {"android": "https://dc.lft.to/lastmile_qr_scan", "ios": "https://dc.lft.to/lastmile_qr_scan"}, "is_disabled": 0, "fusion_lat": 0.0, "name": "7800a51a1973b536ab64b7896a4d4432", "fusion_lon": 0.0}, {"is_reserved": 0, "type": "electric_scooter", "bike_id": "56be23c4734616f82fcbd389bab383d2", "lat": 38.883866833333336, "lon": -76.9304275, "rental_uris": {"android": "https://dc.lft.to/lastmile_qr_scan", "ios": "https://dc.lft.to/lastmile_qr_scan"}, "is_disabled": 0, "fusion_lat": 0.0, "name": "56be23c4734616f82fcbd389bab383d2", "fusion_lon": 0.0}, {"is_reserved": 0, "type": "electric_scooter", "bike_id": "efb721eb3bd7c121f10acfbecf5484b0", "lat": 38.93351166666667, "lon": -77.0341805, "rental_uris": {"android": "https://dc.lft.to/lastmile_qr_scan", "ios": "https://dc.lft.to/lastmile_qr_scan"}, "is_disabled": 0, "fusion_lat": 0.0, "name": "efb721eb3bd7c121f10acfbecf5484b0", "fusion_lon": 0.0}, {"is_reserved": 0, "type": "electric_scooter", "bike_id": "e5173fdd0d5176786c15ab017581f623", "lat": 38.9337575, "lon": -77.04545016666667, "rental_uris": {"android": "https://dc.lft.to/lastmile_qr_scan", "ios": "https://dc.lft.to/lastmile_qr_scan"}, "is_disabled": 0, "fusion_lat": 0.0, "name": "e5173fdd0d5176786c15ab017581f623", "fusion_lon": 0.0}, {"is_reserved": 0, "type": "electric_bike", "bike_id": "7a7634470dc46bb2220b6c6994a5ee18", "lat": 38.89450466666667, "lon": -77.19143533333333, "rental_uris": {"android": "https://dc.lft.to/lastmile_qr_scan", "ios": "https://dc.lft.to/lastmile_qr_scan"}, "is_disabled": 0, "fusion_lat": 0.0, "name": "7a7634470dc46bb2220b6c6994a5ee18", "fusion_lon": 0.0}, {"is_reserved": 0, "type": "electric_scooter", "bike_id": "9d598956c6513e4e7f4ab3def0364675", "lat": 38.90210366666667, "lon": -77.0216355, "rental_uris": {"android": "https://dc.lft.to/lastmile_qr_scan", "ios": "https://dc.lft.to/lastmile_qr_scan"}, "is_disabled": 0, "fusion_lat": 0.0, "name": "9d598956c6513e4e7f4ab3def0364675", "fusion_lon": 0.0}, {"is_reserved": 0, "type": "electric_scooter", "bike_id": "90d645676daaf2ce93f13140e244ae6f", "lat": 38.90667783333333, "lon": -77.07619516666666, "rental_uris": {"android": "https://dc.lft.to/lastmile_qr_scan", "ios": "https://dc.lft.to/lastmile_qr_scan"}, "is_disabled": 0, "fusion_lat": 0.0, "name": "90d645676daaf2ce93f13140e244ae6f", "fusion_lon": 0.0}, {"is_reserved": 0, "type": "electric_scooter", "bike_id": "e3e8ff682ef041d89f434a121024f831", "lat": 38.940073166666664, "lon": -77.02743466666666, "rental_uris": {"android": "https://dc.lft.to/lastmile_qr_scan", "ios": "https://dc.lft.to/lastmile_qr_scan"}, "is_disabled": 0, "fusion_lat": 0.0, "name": "e3e8ff682ef041d89f434a121024f831", "fusion_lon": 0.0}, {"is_reserved": 0, "type": "electric_scooter", "bike_id": "788772219943718b69552a318d10d72a", "lat": 38.935378, "lon": -77.02431683333333, "rental_uris": {"android": "https://dc.lft.to/lastmile_qr_scan", "ios": "https://dc.lft.to/lastmile_qr_scan"}, "is_disabled": 0, "fusion_lat": 0.0, "name": "788772219943718b69552a318d10d72a", "fusion_lon": 0.0}, {"is_reserved": 0, "type": "electric_scooter", "bike_id": "5c7627f6ebe3e102ccd2b7bc2d53680b", "lat": 38.91829333333333, "lon": -77.0259645, "rental_uris": {"android": "https://dc.lft.to/lastmile_qr_scan", "ios": "https://dc.lft.to/lastmile_qr_scan"}, "is_disabled": 0, "fusion_lat": 0.0, "name": "5c7627f6ebe3e102ccd2b7bc2d53680b", "fusion_lon": 0.0}, {"is_reserved": 0, "type": "electric_scooter", "bike_id": "b51cacd899dca0d0ef2e23af48a1f9ca", "lat": 38.89320283333333, "lon": -77.03959966666666, "rental_uris": {"android": "https://dc.lft.to/lastmile_qr_scan", "ios": "https://dc.lft.to/lastmile_qr_scan"}, "is_disabled": 0, "fusion_lat": 0.0, "name": "b51cacd899dca0d0ef2e23af48a1f9ca", "fusion_lon": 0.0}, {"is_reserved": 0, "type": "electric_scooter", "bike_id": "a775e4774e2aa9957763acbd7ac8ba13", "lat": 38.92581333333333, "lon": -77.026947, "rental_uris": {"android": "https://dc.lft.to/lastmile_qr_scan", "ios": "https://dc.lft.to/lastmile_qr_scan"}, "is_disabled": 0, "fusion_lat": 0.0, "name": "a775e4774e2aa9957763acbd7ac8ba13", "fusion_lon": 0.0}, {"is_reserved": 0, "type": "electric_scooter", "bike_id": "984adf70469b4347ca280a14ce3b20ab", "lat": 38.8784185, "lon": -77.01964666666667, "rental_uris": {"android": "https://dc.lft.to/lastmile_qr_scan", "ios": "https://dc.lft.to/lastmile_qr_scan"}, "is_disabled": 0, "fusion_lat": 0.0, "name": "984adf70469b4347ca280a14ce3b20ab", "fusion_lon": 0.0}, {"is_reserved": 0, "type": "electric_scooter", "bike_id": "3dc7a33716e1e970b6c28af8149147a2", "lat": 38.89758583333333, "lon": -77.0019525, "rental_uris": {"android": "https://dc.lft.to/lastmile_qr_scan", "ios": "https://dc.lft.to/lastmile_qr_scan"}, "is_disabled": 0, "fusion_lat": 0.0, "name": "3dc7a33716e1e970b6c28af8149147a2", "fusion_lon": 0.0}, {"is_reserved": 0, "type": "electric_bike", "bike_id": "a0003d9ebf0fde134a8e4bde9c311863", "lat": 38.8990715, "lon": -76.933594, "rental_uris": {"android": "https://dc.lft.to/lastmile_qr_scan", "ios": "https://dc.lft.to/lastmile_qr_scan"}, "is_disabled": 0, "fusion_lat": 0.0, "name": "a0003d9ebf0fde134a8e4bde9c311863", "fusion_lon": 0.0}, {"is_reserved": 0, "type": "electric_scooter", "bike_id": "5ada43227108796d51b0e492c7b97ca9", "lat": 38.89478616666667, "lon": -76.99568466666666, "rental_uris": {"android": "https://dc.lft.to/lastmile_qr_scan", "ios": "https://dc.lft.to/lastmile_qr_scan"}, "is_disabled": 0, "fusion_lat": 0.0, "name": "5ada43227108796d51b0e492c7b97ca9", "fusion_lon": 0.0}, {"is_reserved": 0, "type": "electric_bike", "bike_id": "84bab8668c48cfb3d0b905c9eeedbe76", "lat": 38.937542666666666, "lon": -77.03634816666667, "rental_uris": {"android": "https://dc.lft.to/lastmile_qr_scan", "ios": "https://dc.lft.to/lastmile_qr_scan"}, "is_disabled": 0, "fusion_lat": 0.0, "name": "84bab8668c48cfb3d0b905c9eeedbe76", "fusion_lon": 0.0}, {"is_reserved": 0, "type": "electric_scooter", "bike_id": "56c28d2b1de7f6d55bff25bb60681159", "lat": 38.904087833333335, "lon": -77.02665666666667, "rental_uris": {"android": "https://dc.lft.to/lastmile_qr_scan", "ios": "https://dc.lft.to/lastmile_qr_scan"}, "is_disabled": 0, "fusion_lat": 0.0, "name": "56c28d2b1de7f6d55bff25bb60681159", "fusion_lon": 0.0}, {"is_reserved": 0, "type": "electric_scooter", "bike_id": "3cb608bd4f2c0192f7d93fa9599e8add", "lat": 38.90574216666667, "lon": -77.07280183333333, "rental_uris": {"android": "https://dc.lft.to/lastmile_qr_scan", "ios": "https://dc.lft.to/lastmile_qr_scan"}, "is_disabled": 0, "fusion_lat": 0.0, "name": "3cb608bd4f2c0192f7d93fa9599e8add", "fusion_lon": 0.0}, {"is_reserved": 0, "type": "electric_scooter", "bike_id": "0f6290f8ad61e90431b73abe8390d7cd", "lat": 38.898345166666665, "lon": -77.02833483333333, "rental_uris": {"android": "https://dc.lft.to/lastmile_qr_scan", "ios": "https://dc.lft.to/lastmile_qr_scan"}, "is_disabled": 0, "fusion_lat": 0.0, "name": "0f6290f8ad61e90431b73abe8390d7cd", "fusion_lon": 0.0}, {"is_reserved": 0, "type": "electric_scooter", "bike_id": "68c673fdacfaded04874496a42d425ac", "lat": 38.91005416666667, "lon": -77.0401115, "rental_uris": {"android": "https://dc.lft.to/lastmile_qr_scan", "ios": "https://dc.lft.to/lastmile_qr_scan"}, "is_disabled": 0, "fusion_lat": 0.0, "name": "68c673fdacfaded04874496a42d425ac", "fusion_lon": 0.0}, {"is_reserved": 0, "type": "electric_scooter", "bike_id": "df1eff3ca6f9c93f38876985a530eb64", "lat": 38.904386833333334, "lon": -77.02721783333334, "rental_uris": {"android": "https://dc.lft.to/lastmile_qr_scan", "ios": "https://dc.lft.to/lastmile_qr_scan"}, "is_disabled": 0, "fusion_lat": 0.0, "name": "df1eff3ca6f9c93f38876985a530eb64", "fusion_lon": 0.0}, {"is_reserved": 0, "type": "electric_scooter", "bike_id": "9440ed56259c59939c4d642d05d1534b", "lat": 38.88779183333333, "lon": -77.003504, "rental_uris": {"android": "https://dc.lft.to/lastmile_qr_scan", "ios": "https://dc.lft.to/lastmile_qr_scan"}, "is_disabled": 0, "fusion_lat": 0.0, "name": "9440ed56259c59939c4d642d05d1534b", "fusion_lon": 0.0}, {"is_reserved": 0, "type": "electric_scooter", "bike_id": "7cefb1c2b21514eb31627c310389fac6", "lat": 38.897008666666665, "lon": -77.05030833333333, "rental_uris": {"android": "https://dc.lft.to/lastmile_qr_scan", "ios": "https://dc.lft.to/lastmile_qr_scan"}, "is_disabled": 0, "fusion_lat": 0.0, "name": "7cefb1c2b21514eb31627c310389fac6", "fusion_lon": 0.0}, {"is_reserved": 0, "type": "electric_scooter", "bike_id": "f923eb789347d61949456be5e51c1747", "lat": 38.89884333333333, "lon": -77.0333285, "rental_uris": {"android": "https://dc.lft.to/lastmile_qr_scan", "ios": "https://dc.lft.to/lastmile_qr_scan"}, "is_disabled": 0, "fusion_lat": 0.0, "name": "f923eb789347d61949456be5e51c1747", "fusion_lon": 0.0}, {"is_reserved": 0, "type": "electric_scooter", "bike_id": "dddec4628ed1c39af7243f4b308ef8f4", "lat": 38.905743, "lon": -77.00613, "rental_uris": {"android": "https://dc.lft.to/lastmile_qr_scan", "ios": "https://dc.lft.to/lastmile_qr_scan"}, "is_disabled": 0, "fusion_lat": 0.0, "name": "dddec4628ed1c39af7243f4b308ef8f4", "fusion_lon": 0.0}, {"is_reserved": 0, "type": "electric_scooter", "bike_id": "7917db6b415b8f9161b795c13347a64b", "lat": 38.92157533333334, "lon": -77.03391883333333, "rental_uris": {"android": "https://dc.lft.to/lastmile_qr_scan", "ios": "https://dc.lft.to/lastmile_qr_scan"}, "is_disabled": 0, "fusion_lat": 0.0, "name": "7917db6b415b8f9161b795c13347a64b", "fusion_lon": 0.0}, {"is_reserved": 0, "type": "electric_scooter", "bike_id": "a62ffb13a6a813cf6a8641e1d5b7fb35", "lat": 38.88018866666667, "lon": -76.99746483333334, "rental_uris": {"android": "https://dc.lft.to/lastmile_qr_scan", "ios": "https://dc.lft.to/lastmile_qr_scan"}, "is_disabled": 0, "fusion_lat": 0.0, "name": "a62ffb13a6a813cf6a8641e1d5b7fb35", "fusion_lon": 0.0}, {"is_reserved": 0, "type": "electric_scooter", "bike_id": "dbcf6a467cbe9309292c9b42b054c0d1", "lat": 38.89998966666667, "lon": -77.02720266666667, "rental_uris": {"android": "https://dc.lft.to/lastmile_qr_scan", "ios": "https://dc.lft.to/lastmile_qr_scan"}, "is_disabled": 0, "fusion_lat": 0.0, "name": "dbcf6a467cbe9309292c9b42b054c0d1", "fusion_lon": 0.0}, {"is_reserved": 0, "type": "electric_scooter", "bike_id": "71a88be6237b9f9f1f4c04cef4b98be5", "lat": 38.93484633333333, "lon": -77.03606983333333, "rental_uris": {"android": "https://dc.lft.to/lastmile_qr_scan", "ios": "https://dc.lft.to/lastmile_qr_scan"}, "is_disabled": 0, "fusion_lat": 0.0, "name": "71a88be6237b9f9f1f4c04cef4b98be5", "fusion_lon": 0.0}, {"is_reserved": 0, "type": "electric_scooter", "bike_id": "0a3940718f76a5ce55979746be26e0b2", "lat": 38.89483283333333, "lon": -76.99583883333334, "rental_uris": {"android": "https://dc.lft.to/lastmile_qr_scan", "ios": "https://dc.lft.to/lastmile_qr_scan"}, "is_disabled": 0, "fusion_lat": 0.0, "name": "0a3940718f76a5ce55979746be26e0b2", "fusion_lon": 0.0}, {"is_reserved": 0, "type": "electric_scooter", "bike_id": "d27e3c4f0ca839152db335646b6b8744", "lat": 38.8935145, "lon": -77.017337, "rental_uris": {"android": "https://dc.lft.to/lastmile_qr_scan", "ios": "https://dc.lft.to/lastmile_qr_scan"}, "is_disabled": 0, "fusion_lat": 0.0, "name": "d27e3c4f0ca839152db335646b6b8744", "fusion_lon": 0.0}, {"is_reserved": 0, "type": "electric_scooter", "bike_id": "d93da74faacdd0d968f7b0c28931b379", "lat": 38.92937966666667, "lon": -77.0376745, "rental_uris": {"android": "https://dc.lft.to/lastmile_qr_scan", "ios": "https://dc.lft.to/lastmile_qr_scan"}, "is_disabled": 0, "fusion_lat": 0.0, "name": "d93da74faacdd0d968f7b0c28931b379", "fusion_lon": 0.0}, {"is_reserved": 0, "type": "electric_scooter", "bike_id": "0cd9f7be29cd7637897cd0c0cd34a022", "lat": 38.895098833333336, "lon": -77.01108833333333, "rental_uris": {"android": "https://dc.lft.to/lastmile_qr_scan", "ios": "https://dc.lft.to/lastmile_qr_scan"}, "is_disabled": 0, "fusion_lat": 0.0, "name": "0cd9f7be29cd7637897cd0c0cd34a022", "fusion_lon": 0.0}, {"is_reserved": 0, "type": "electric_scooter", "bike_id": "e0c730a700db2e0f51f7393e45e34530", "lat": 38.881801333333335, "lon": -77.01778833333333, "rental_uris": {"android": "https://dc.lft.to/lastmile_qr_scan", "ios": "https://dc.lft.to/lastmile_qr_scan"}, "is_disabled": 0, "fusion_lat": 0.0, "name": "e0c730a700db2e0f51f7393e45e34530", "fusion_lon": 0.0}, {"is_reserved": 0, "type": "electric_scooter", "bike_id": "b3e846c97aeb6715e2fce9b68bae6b67", "lat": 38.900811833333336, "lon": -77.04839083333333, "rental_uris": {"android": "https://dc.lft.to/lastmile_qr_scan", "ios": "https://dc.lft.to/lastmile_qr_scan"}, "is_disabled": 0, "fusion_lat": 0.0, "name": "b3e846c97aeb6715e2fce9b68bae6b67", "fusion_lon": 0.0}, {"is_reserved": 0, "type": "electric_scooter", "bike_id": "700e7d00d5e68349af35cb97140b8fcb", "lat": 38.92033133333334, "lon": -77.01039366666667, "rental_uris": {"android": "https://dc.lft.to/lastmile_qr_scan", "ios": "https://dc.lft.to/lastmile_qr_scan"}, "is_disabled": 0, "fusion_lat": 0.0, "name": "700e7d00d5e68349af35cb97140b8fcb", "fusion_lon": 0.0}, {"is_reserved": 0, "type": "electric_scooter", "bike_id": "f55fb49b56dbadab7946bb0066772491", "lat": 38.9132135, "lon": -77.05005, "rental_uris": {"android": "https://dc.lft.to/lastmile_qr_scan", "ios": "https://dc.lft.to/lastmile_qr_scan"}, "is_disabled": 0, "fusion_lat": 0.0, "name": "f55fb49b56dbadab7946bb0066772491", "fusion_lon": 0.0}, {"is_reserved": 0, "type": "electric_scooter", "bike_id": "c234eb1e41015ff97930a6158332c574", "lat": 38.92075483333333, "lon": -77.07458733333333, "rental_uris": {"android": "https://dc.lft.to/lastmile_qr_scan", "ios": "https://dc.lft.to/lastmile_qr_scan"}, "is_disabled": 0, "fusion_lat": 0.0, "name": "c234eb1e41015ff97930a6158332c574", "fusion_lon": 0.0}, {"is_reserved": 0, "type": "electric_scooter", "bike_id": "14f25983ca68866641115593a05d829e", "lat": 38.920939, "lon": -77.03728333333333, "rental_uris": {"android": "https://dc.lft.to/lastmile_qr_scan", "ios": "https://dc.lft.to/lastmile_qr_scan"}, "is_disabled": 0, "fusion_lat": 0.0, "name": "14f25983ca68866641115593a05d829e", "fusion_lon": 0.0}, {"is_reserved": 0, "type": "electric_scooter", "bike_id": "2a27514736c8e9656be7f25188963ca7", "lat": 38.9038585, "lon": -77.025051, "rental_uris": {"android": "https://dc.lft.to/lastmile_qr_scan", "ios": "https://dc.lft.to/lastmile_qr_scan"}, "is_disabled": 0, "fusion_lat": 0.0, "name": "2a27514736c8e9656be7f25188963ca7", "fusion_lon": 0.0}, {"is_reserved": 0, "type": "electric_scooter", "bike_id": "df86730c5938f1fa9c047753e5653f22", "lat": 38.91264016666667, "lon": -77.03036716666666, "rental_uris": {"android": "https://dc.lft.to/lastmile_qr_scan", "ios": "https://dc.lft.to/lastmile_qr_scan"}, "is_disabled": 0, "fusion_lat": 0.0, "name": "df86730c5938f1fa9c047753e5653f22", "fusion_lon": 0.0}, {"is_reserved": 0, "type": "electric_scooter", "bike_id": "cf69392418e267cd3ea2044ecef626fb", "lat": 38.9497785, "lon": -77.0243945, "rental_uris": {"android": "https://dc.lft.to/lastmile_qr_scan", "ios": "https://dc.lft.to/lastmile_qr_scan"}, "is_disabled": 0, "fusion_lat": 0.0, "name": "cf69392418e267cd3ea2044ecef626fb", "fusion_lon": 0.0}, {"is_reserved": 0, "type": "electric_scooter", "bike_id": "9df475556fb35cdc7caf935ad9d22487", "lat": 38.889053, "lon": -76.97733533333333, "rental_uris": {"android": "https://dc.lft.to/lastmile_qr_scan", "ios": "https://dc.lft.to/lastmile_qr_scan"}, "is_disabled": 0, "fusion_lat": 0.0, "name": "9df475556fb35cdc7caf935ad9d22487", "fusion_lon": 0.0}, {"is_reserved": 0, "type": "electric_scooter", "bike_id": "263e453045e73337ad1ddc1e30ff8532", "lat": 38.90038166666667, "lon": -77.002142, "rental_uris": {"android": "https://dc.lft.to/lastmile_qr_scan", "ios": "https://dc.lft.to/lastmile_qr_scan"}, "is_disabled": 0, "fusion_lat": 0.0, "name": "263e453045e73337ad1ddc1e30ff8532", "fusion_lon": 0.0}, {"is_reserved": 0, "type": "electric_scooter", "bike_id": "19eb8d1caab0f1c2dc333e23870999b9", "lat": 38.8995265, "lon": -77.027084, "rental_uris": {"android": "https://dc.lft.to/lastmile_qr_scan", "ios": "https://dc.lft.to/lastmile_qr_scan"}, "is_disabled": 0, "fusion_lat": 0.0, "name": "19eb8d1caab0f1c2dc333e23870999b9", "fusion_lon": 0.0}, {"is_reserved": 0, "type": "electric_scooter", "bike_id": "606292791d35393919f412c06cb8b423", "lat": 38.92406533333333, "lon": -77.02986083333333, "rental_uris": {"android": "https://dc.lft.to/lastmile_qr_scan", "ios": "https://dc.lft.to/lastmile_qr_scan"}, "is_disabled": 0, "fusion_lat": 0.0, "name": "606292791d35393919f412c06cb8b423", "fusion_lon": 0.0}, {"is_reserved": 0, "type": "electric_scooter", "bike_id": "155f03232044fcba6bb08fec063e0d6a", "lat": 38.90689066666667, "lon": -77.01017633333333, "rental_uris": {"android": "https://dc.lft.to/lastmile_qr_scan", "ios": "https://dc.lft.to/lastmile_qr_scan"}, "is_disabled": 0, "fusion_lat": 0.0, "name": "155f03232044fcba6bb08fec063e0d6a", "fusion_lon": 0.0}, {"is_reserved": 0, "type": "electric_scooter", "bike_id": "7f116126b9a74d737df896785f6ec257", "lat": 38.89601533333333, "lon": -77.02600066666666, "rental_uris": {"android": "https://dc.lft.to/lastmile_qr_scan", "ios": "https://dc.lft.to/lastmile_qr_scan"}, "is_disabled": 0, "fusion_lat": 0.0, "name": "7f116126b9a74d737df896785f6ec257", "fusion_lon": 0.0}, {"is_reserved": 0, "type": "electric_scooter", "bike_id": "689a0f7fcffc52b1d66ee79bba2a9497", "lat": 38.919935833333334, "lon": -77.03322633333333, "rental_uris": {"android": "https://dc.lft.to/lastmile_qr_scan", "ios": "https://dc.lft.to/lastmile_qr_scan"}, "is_disabled": 0, "fusion_lat": 0.0, "name": "689a0f7fcffc52b1d66ee79bba2a9497", "fusion_lon": 0.0}, {"is_reserved": 0, "type": "electric_scooter", "bike_id": "5bed3563769166074aa06d501db98bcf", "lat": 38.9201885, "lon": -77.02952083333334, "rental_uris": {"android": "https://dc.lft.to/lastmile_qr_scan", "ios": "https://dc.lft.to/lastmile_qr_scan"}, "is_disabled": 0, "fusion_lat": 0.0, "name": "5bed3563769166074aa06d501db98bcf", "fusion_lon": 0.0}, {"is_reserved": 0, "type": "electric_scooter", "bike_id": "85fcbed2a87058ee572449929f4b5596", "lat": 38.896135, "lon": -77.0470735, "rental_uris": {"android": "https://dc.lft.to/lastmile_qr_scan", "ios": "https://dc.lft.to/lastmile_qr_scan"}, "is_disabled": 0, "fusion_lat": 0.0, "name": "85fcbed2a87058ee572449929f4b5596", "fusion_lon": 0.0}, {"is_reserved": 0, "type": "electric_scooter", "bike_id": "f5b6c7378958fb24efac5db8f451d0e1", "lat": 38.89273883333333, "lon": -76.95260316666666, "rental_uris": {"android": "https://dc.lft.to/lastmile_qr_scan", "ios": "https://dc.lft.to/lastmile_qr_scan"}, "is_disabled": 0, "fusion_lat": 0.0, "name": "f5b6c7378958fb24efac5db8f451d0e1", "fusion_lon": 0.0}, {"is_reserved": 0, "type": "electric_bike", "bike_id": "b405e144e145eabbc4cdf52d24ad58cb", "lat": 39.04233416666667, "lon": -76.99741266666666, "rental_uris": {"android": "https://dc.lft.to/lastmile_qr_scan", "ios": "https://dc.lft.to/lastmile_qr_scan"}, "is_disabled": 0, "fusion_lat": 0.0, "name": "b405e144e145eabbc4cdf52d24ad58cb", "fusion_lon": 0.0}, {"is_reserved": 0, "type": "electric_scooter", "bike_id": "a7d3bb4d45770da22330da04946047fa", "lat": 38.91131766666667, "lon": -76.9846635, "rental_uris": {"android": "https://dc.lft.to/lastmile_qr_scan", "ios": "https://dc.lft.to/lastmile_qr_scan"}, "is_disabled": 0, "fusion_lat": 0.0, "name": "a7d3bb4d45770da22330da04946047fa", "fusion_lon": 0.0}, {"is_reserved": 0, "type": "electric_scooter", "bike_id": "3bfa0be2b7a5ca30bdc8030fe092d30c", "lat": 38.9203395, "lon": -77.04183033333334, "rental_uris": {"android": "https://dc.lft.to/lastmile_qr_scan", "ios": "https://dc.lft.to/lastmile_qr_scan"}, "is_disabled": 0, "fusion_lat": 0.0, "name": "3bfa0be2b7a5ca30bdc8030fe092d30c", "fusion_lon": 0.0}, {"is_reserved": 0, "type": "electric_scooter", "bike_id": "848297d95e760f630defa7210050ea42", "lat": 38.908541166666666, "lon": -77.020647, "rental_uris": {"android": "https://dc.lft.to/lastmile_qr_scan", "ios": "https://dc.lft.to/lastmile_qr_scan"}, "is_disabled": 0, "fusion_lat": 0.0, "name": "848297d95e760f630defa7210050ea42", "fusion_lon": 0.0}, {"is_reserved": 0, "type": "electric_bike", "bike_id": "78138bc9f2951cc697d63fa81d42e868", "lat": 38.9366495, "lon": -77.03425916666667, "rental_uris": {"android": "https://dc.lft.to/lastmile_qr_scan", "ios": "https://dc.lft.to/lastmile_qr_scan"}, "is_disabled": 0, "fusion_lat": 0.0, "name": "78138bc9f2951cc697d63fa81d42e868", "fusion_lon": 0.0}, {"is_reserved": 0, "type": "electric_scooter", "bike_id": "b7c226c6412853e3f450491687c19432", "lat": 38.8965415, "lon": -77.02618, "rental_uris": {"android": "https://dc.lft.to/lastmile_qr_scan", "ios": "https://dc.lft.to/lastmile_qr_scan"}, "is_disabled": 0, "fusion_lat": 0.0, "name": "b7c226c6412853e3f450491687c19432", "fusion_lon": 0.0}, {"is_reserved": 0, "type": "electric_scooter", "bike_id": "18cbf792aa41ada2fa822d8e1c8988a6", "lat": 38.912685333333336, "lon": -77.01769283333333, "rental_uris": {"android": "https://dc.lft.to/lastmile_qr_scan", "ios": "https://dc.lft.to/lastmile_qr_scan"}, "is_disabled": 0, "fusion_lat": 0.0, "name": "18cbf792aa41ada2fa822d8e1c8988a6", "fusion_lon": 0.0}, {"is_reserved": 0, "type": "electric_scooter", "bike_id": "84dde5c50eb23cc862b059bccd46bcb9", "lat": 38.931027666666665, "lon": -77.024062, "rental_uris": {"android": "https://dc.lft.to/lastmile_qr_scan", "ios": "https://dc.lft.to/lastmile_qr_scan"}, "is_disabled": 0, "fusion_lat": 0.0, "name": "84dde5c50eb23cc862b059bccd46bcb9", "fusion_lon": 0.0}, {"is_reserved": 0, "type": "electric_scooter", "bike_id": "019717e598447dd5de2809ef38e32d05", "lat": 38.8950535, "lon": -76.93475933333333, "rental_uris": {"android": "https://dc.lft.to/lastmile_qr_scan", "ios": "https://dc.lft.to/lastmile_qr_scan"}, "is_disabled": 0, "fusion_lat": 0.0, "name": "019717e598447dd5de2809ef38e32d05", "fusion_lon": 0.0}, {"is_reserved": 0, "type": "electric_scooter", "bike_id": "6c455dfb8178d08cb2c737e4fd8dd285", "lat": 38.9008255, "lon": -76.9800765, "rental_uris": {"android": "https://dc.lft.to/lastmile_qr_scan", "ios": "https://dc.lft.to/lastmile_qr_scan"}, "is_disabled": 0, "fusion_lat": 0.0, "name": "6c455dfb8178d08cb2c737e4fd8dd285", "fusion_lon": 0.0}, {"is_reserved": 0, "type": "electric_bike", "bike_id": "3ba7b90c0df9343efa85bc9fdfd6307b", "lat": 38.973362333333334, "lon": -76.99590733333334, "rental_uris": {"android": "https://dc.lft.to/lastmile_qr_scan", "ios": "https://dc.lft.to/lastmile_qr_scan"}, "is_disabled": 0, "fusion_lat": 0.0, "name": "3ba7b90c0df9343efa85bc9fdfd6307b", "fusion_lon": 0.0}, {"is_reserved": 0, "type": "electric_scooter", "bike_id": "cb76d47c74820708b57533fa4e84843f", "lat": 38.92376083333333, "lon": -77.02895633333333, "rental_uris": {"android": "https://dc.lft.to/lastmile_qr_scan", "ios": "https://dc.lft.to/lastmile_qr_scan"}, "is_disabled": 0, "fusion_lat": 0.0, "name": "cb76d47c74820708b57533fa4e84843f", "fusion_lon": 0.0}, {"is_reserved": 0, "type": "electric_scooter", "bike_id": "896dad4896bda66a35937fbe75874516", "lat": 38.934075166666666, "lon": -77.0455235, "rental_uris": {"android": "https://dc.lft.to/lastmile_qr_scan", "ios": "https://dc.lft.to/lastmile_qr_scan"}, "is_disabled": 0, "fusion_lat": 0.0, "name": "896dad4896bda66a35937fbe75874516", "fusion_lon": 0.0}, {"is_reserved": 0, "type": "electric_scooter", "bike_id": "b2b58831e9b9602293def98ae63f8123", "lat": 38.92061366666667, "lon": -77.02947116666667, "rental_uris": {"android": "https://dc.lft.to/lastmile_qr_scan", "ios": "https://dc.lft.to/lastmile_qr_scan"}, "is_disabled": 0, "fusion_lat": 0.0, "name": "b2b58831e9b9602293def98ae63f8123", "fusion_lon": 0.0}, {"is_reserved": 0, "type": "electric_scooter", "bike_id": "56e8a3b4b7a683dad2087218b79d2573", "lat": 38.945096166666666, "lon": -77.03367183333333, "rental_uris": {"android": "https://dc.lft.to/lastmile_qr_scan", "ios": "https://dc.lft.to/lastmile_qr_scan"}, "is_disabled": 0, "fusion_lat": 0.0, "name": "56e8a3b4b7a683dad2087218b79d2573", "fusion_lon": 0.0}, {"is_reserved": 0, "type": "electric_scooter", "bike_id": "0ae6ec73206d0e58b0833fd1ea9da375", "lat": 38.92243833333333, "lon": -77.04016733333333, "rental_uris": {"android": "https://dc.lft.to/lastmile_qr_scan", "ios": "https://dc.lft.to/lastmile_qr_scan"}, "is_disabled": 0, "fusion_lat": 0.0, "name": "0ae6ec73206d0e58b0833fd1ea9da375", "fusion_lon": 0.0}, {"is_reserved": 0, "type": "electric_scooter", "bike_id": "ec329233c5280fc91809c948369ff5a5", "lat": 38.89891016666667, "lon": -77.03967983333334, "rental_uris": {"android": "https://dc.lft.to/lastmile_qr_scan", "ios": "https://dc.lft.to/lastmile_qr_scan"}, "is_disabled": 0, "fusion_lat": 0.0, "name": "ec329233c5280fc91809c948369ff5a5", "fusion_lon": 0.0}, {"is_reserved": 0, "type": "electric_bike", "bike_id": "770bdd7e4d25dbdb68851a2d31d08740", "lat": 38.962507333333335, "lon": -76.99681933333333, "rental_uris": {"android": "https://dc.lft.to/lastmile_qr_scan", "ios": "https://dc.lft.to/lastmile_qr_scan"}, "is_disabled": 0, "fusion_lat": 0.0, "name": "770bdd7e4d25dbdb68851a2d31d08740", "fusion_lon": 0.0}, {"is_reserved": 0, "type": "electric_scooter", "bike_id": "1d5c3d65fc178864822a0a4588bca5b5", "lat": 38.895342166666666, "lon": -77.01104383333333, "rental_uris": {"android": "https://dc.lft.to/lastmile_qr_scan", "ios": "https://dc.lft.to/lastmile_qr_scan"}, "is_disabled": 0, "fusion_lat": 0.0, "name": "1d5c3d65fc178864822a0a4588bca5b5", "fusion_lon": 0.0}, {"is_reserved": 0, "type": "electric_scooter", "bike_id": "12a69bd76d6acc5a189106233ff820ea", "lat": 38.924823333333336, "lon": -77.03492583333333, "rental_uris": {"android": "https://dc.lft.to/lastmile_qr_scan", "ios": "https://dc.lft.to/lastmile_qr_scan"}, "is_disabled": 0, "fusion_lat": 0.0, "name": "12a69bd76d6acc5a189106233ff820ea", "fusion_lon": 0.0}, {"is_reserved": 0, "type": "electric_scooter", "bike_id": "b51460d46528d50a25c4f7e869e4e0d4", "lat": 38.932849833333336, "lon": -77.03937816666667, "rental_uris": {"android": "https://dc.lft.to/lastmile_qr_scan", "ios": "https://dc.lft.to/lastmile_qr_scan"}, "is_disabled": 0, "fusion_lat": 0.0, "name": "b51460d46528d50a25c4f7e869e4e0d4", "fusion_lon": 0.0}, {"is_reserved": 0, "type": "electric_bike", "bike_id": "db2bb02cb48a131caaa05817101887ed", "lat": 38.94920333333334, "lon": -77.008046, "rental_uris": {"android": "https://dc.lft.to/lastmile_qr_scan", "ios": "https://dc.lft.to/lastmile_qr_scan"}, "is_disabled": 0, "fusion_lat": 0.0, "name": "db2bb02cb48a131caaa05817101887ed", "fusion_lon": 0.0}, {"is_reserved": 0, "type": "electric_scooter", "bike_id": "262466a12a44983b6962827b54584a78", "lat": 38.87932166666667, "lon": -77.00380833333334, "rental_uris": {"android": "https://dc.lft.to/lastmile_qr_scan", "ios": "https://dc.lft.to/lastmile_qr_scan"}, "is_disabled": 0, "fusion_lat": 0.0, "name": "262466a12a44983b6962827b54584a78", "fusion_lon": 0.0}, {"is_reserved": 0, "type": "electric_scooter", "bike_id": "2f967eaefc8ac3fcd5849a0cd144f0ce", "lat": 38.930921, "lon": -77.0255555, "rental_uris": {"android": "https://dc.lft.to/lastmile_qr_scan", "ios": "https://dc.lft.to/lastmile_qr_scan"}, "is_disabled": 0, "fusion_lat": 0.0, "name": "2f967eaefc8ac3fcd5849a0cd144f0ce", "fusion_lon": 0.0}, {"is_reserved": 0, "type": "electric_scooter", "bike_id": "d1cc38b40510032c91487bcb3373559e", "lat": 38.943178, "lon": -77.06178566666667, "rental_uris": {"android": "https://dc.lft.to/lastmile_qr_scan", "ios": "https://dc.lft.to/lastmile_qr_scan"}, "is_disabled": 0, "fusion_lat": 0.0, "name": "d1cc38b40510032c91487bcb3373559e", "fusion_lon": 0.0}, {"is_reserved": 0, "type": "electric_scooter", "bike_id": "bd3936d5f2e139bbdd8bdcb1569b8e09", "lat": 38.90786283333333, "lon": -77.0108315, "rental_uris": {"android": "https://dc.lft.to/lastmile_qr_scan", "ios": "https://dc.lft.to/lastmile_qr_scan"}, "is_disabled": 0, "fusion_lat": 0.0, "name": "bd3936d5f2e139bbdd8bdcb1569b8e09", "fusion_lon": 0.0}, {"is_reserved": 0, "type": "electric_scooter", "bike_id": "b6459d601aadc3bb7f360163f6461840", "lat": 38.933731333333334, "lon": -77.0573095, "rental_uris": {"android": "https://dc.lft.to/lastmile_qr_scan", "ios": "https://dc.lft.to/lastmile_qr_scan"}, "is_disabled": 0, "fusion_lat": 0.0, "name": "b6459d601aadc3bb7f360163f6461840", "fusion_lon": 0.0}, {"is_reserved": 0, "type": "electric_scooter", "bike_id": "45b94d4fb87e905c5603b416232f5c16", "lat": 38.92239583333333, "lon": -77.02123966666667, "rental_uris": {"android": "https://dc.lft.to/lastmile_qr_scan", "ios": "https://dc.lft.to/lastmile_qr_scan"}, "is_disabled": 0, "fusion_lat": 0.0, "name": "45b94d4fb87e905c5603b416232f5c16", "fusion_lon": 0.0}, {"is_reserved": 0, "type": "electric_scooter", "bike_id": "d017aff8dedc195f1de65671089cbb5c", "lat": 38.91177716666667, "lon": -77.00492, "rental_uris": {"android": "https://dc.lft.to/lastmile_qr_scan", "ios": "https://dc.lft.to/lastmile_qr_scan"}, "is_disabled": 0, "fusion_lat": 0.0, "name": "d017aff8dedc195f1de65671089cbb5c", "fusion_lon": 0.0}, {"is_reserved": 0, "type": "electric_scooter", "bike_id": "3a9df3816ebb5853253979dae185569c", "lat": 38.923363, "lon": -77.03621116666666, "rental_uris": {"android": "https://dc.lft.to/lastmile_qr_scan", "ios": "https://dc.lft.to/lastmile_qr_scan"}, "is_disabled": 0, "fusion_lat": 0.0, "name": "3a9df3816ebb5853253979dae185569c", "fusion_lon": 0.0}, {"is_reserved": 0, "type": "electric_scooter", "bike_id": "4b40473e525a45f1129d383494f09ba5", "lat": 38.89980933333333, "lon": -77.02285166666667, "rental_uris": {"android": "https://dc.lft.to/lastmile_qr_scan", "ios": "https://dc.lft.to/lastmile_qr_scan"}, "is_disabled": 0, "fusion_lat": 0.0, "name": "4b40473e525a45f1129d383494f09ba5", "fusion_lon": 0.0}, {"is_reserved": 0, "type": "electric_scooter", "bike_id": "d075874d8af999ca362181fa59720f72", "lat": 38.9256525, "lon": -76.97007166666667, "rental_uris": {"android": "https://dc.lft.to/lastmile_qr_scan", "ios": "https://dc.lft.to/lastmile_qr_scan"}, "is_disabled": 0, "fusion_lat": 0.0, "name": "d075874d8af999ca362181fa59720f72", "fusion_lon": 0.0}, {"is_reserved": 0, "type": "electric_scooter", "bike_id": "20f1d14000b96c7f47530fcf91c46c52", "lat": 38.90039316666667, "lon": -76.9916215, "rental_uris": {"android": "https://dc.lft.to/lastmile_qr_scan", "ios": "https://dc.lft.to/lastmile_qr_scan"}, "is_disabled": 0, "fusion_lat": 0.0, "name": "20f1d14000b96c7f47530fcf91c46c52", "fusion_lon": 0.0}, {"is_reserved": 0, "type": "electric_scooter", "bike_id": "3187437b920e0875c9451bea6e28fa67", "lat": 38.8922065, "lon": -77.023135, "rental_uris": {"android": "https://dc.lft.to/lastmile_qr_scan", "ios": "https://dc.lft.to/lastmile_qr_scan"}, "is_disabled": 0, "fusion_lat": 0.0, "name": "3187437b920e0875c9451bea6e28fa67", "fusion_lon": 0.0}, {"is_reserved": 0, "type": "electric_scooter", "bike_id": "fe7744c943da2b1fc21922340dd839ad", "lat": 38.930936333333335, "lon": -77.03442816666667, "rental_uris": {"android": "https://dc.lft.to/lastmile_qr_scan", "ios": "https://dc.lft.to/lastmile_qr_scan"}, "is_disabled": 0, "fusion_lat": 0.0, "name": "fe7744c943da2b1fc21922340dd839ad", "fusion_lon": 0.0}, {"is_reserved": 0, "type": "electric_bike", "bike_id": "30a00ad16841fec93d4b3dbb50ed1c47", "lat": 38.9513345, "lon": -76.96593983333334, "rental_uris": {"android": "https://dc.lft.to/lastmile_qr_scan", "ios": "https://dc.lft.to/lastmile_qr_scan"}, "is_disabled": 0, "fusion_lat": 0.0, "name": "30a00ad16841fec93d4b3dbb50ed1c47", "fusion_lon": 0.0}, {"is_reserved": 0, "type": "electric_scooter", "bike_id": "5574c65785fba0c44130f17d8f128166", "lat": 38.899203166666666, "lon": -77.03186, "rental_uris": {"android": "https://dc.lft.to/lastmile_qr_scan", "ios": "https://dc.lft.to/lastmile_qr_scan"}, "is_disabled": 0, "fusion_lat": 0.0, "name": "5574c65785fba0c44130f17d8f128166", "fusion_lon": 0.0}, {"is_reserved": 0, "type": "electric_scooter", "bike_id": "a1a00be45f995b33c8c8ea909a9cc4e2", "lat": 38.89360633333333, "lon": -76.9410825, "rental_uris": {"android": "https://dc.lft.to/lastmile_qr_scan", "ios": "https://dc.lft.to/lastmile_qr_scan"}, "is_disabled": 0, "fusion_lat": 0.0, "name": "a1a00be45f995b33c8c8ea909a9cc4e2", "fusion_lon": 0.0}, {"is_reserved": 0, "type": "electric_scooter", "bike_id": "435de740a992f1b37eb0b6e79974caf4", "lat": 38.9226755, "lon": -76.99761283333333, "rental_uris": {"android": "https://dc.lft.to/lastmile_qr_scan", "ios": "https://dc.lft.to/lastmile_qr_scan"}, "is_disabled": 0, "fusion_lat": 0.0, "name": "435de740a992f1b37eb0b6e79974caf4", "fusion_lon": 0.0}, {"is_reserved": 0, "type": "electric_scooter", "bike_id": "6ff7eccab52907efa90c2f9e0df92a2b", "lat": 38.9296625, "lon": -77.0234265, "rental_uris": {"android": "https://dc.lft.to/lastmile_qr_scan", "ios": "https://dc.lft.to/lastmile_qr_scan"}, "is_disabled": 0, "fusion_lat": 0.0, "name": "6ff7eccab52907efa90c2f9e0df92a2b", "fusion_lon": 0.0}, {"is_reserved": 0, "type": "electric_scooter", "bike_id": "a1796097ded41341c2b0e8b462ab1db5", "lat": 38.94732366666667, "lon": -77.02464583333334, "rental_uris": {"android": "https://dc.lft.to/lastmile_qr_scan", "ios": "https://dc.lft.to/lastmile_qr_scan"}, "is_disabled": 0, "fusion_lat": 0.0, "name": "a1796097ded41341c2b0e8b462ab1db5", "fusion_lon": 0.0}, {"is_reserved": 0, "type": "electric_scooter", "bike_id": "b0e07e1a21cff2848ddf11b272c9f022", "lat": 38.919575, "lon": -77.04465316666666, "rental_uris": {"android": "https://dc.lft.to/lastmile_qr_scan", "ios": "https://dc.lft.to/lastmile_qr_scan"}, "is_disabled": 0, "fusion_lat": 0.0, "name": "b0e07e1a21cff2848ddf11b272c9f022", "fusion_lon": 0.0}, {"is_reserved": 0, "type": "electric_scooter", "bike_id": "395c0389b70d8d5c7df8a6e0e8333b3a", "lat": 38.896705833333336, "lon": -77.0120665, "rental_uris": {"android": "https://dc.lft.to/lastmile_qr_scan", "ios": "https://dc.lft.to/lastmile_qr_scan"}, "is_disabled": 0, "fusion_lat": 0.0, "name": "395c0389b70d8d5c7df8a6e0e8333b3a", "fusion_lon": 0.0}, {"is_reserved": 0, "type": "electric_scooter", "bike_id": "93ca421ea026433dbb4eb446bc9d29d3", "lat": 38.90392383333333, "lon": -77.03144583333334, "rental_uris": {"android": "https://dc.lft.to/lastmile_qr_scan", "ios": "https://dc.lft.to/lastmile_qr_scan"}, "is_disabled": 0, "fusion_lat": 0.0, "name": "93ca421ea026433dbb4eb446bc9d29d3", "fusion_lon": 0.0}, {"is_reserved": 0, "type": "electric_scooter", "bike_id": "7258f7a3cc71b3bde218cbb9713a9fd3", "lat": 38.92550516666667, "lon": -76.99955583333333, "rental_uris": {"android": "https://dc.lft.to/lastmile_qr_scan", "ios": "https://dc.lft.to/lastmile_qr_scan"}, "is_disabled": 0, "fusion_lat": 0.0, "name": "7258f7a3cc71b3bde218cbb9713a9fd3", "fusion_lon": 0.0}, {"is_reserved": 0, "type": "electric_scooter", "bike_id": "4630f98c2cb7044b1fb086c35197fc11", "lat": 38.917987833333335, "lon": -77.02711533333333, "rental_uris": {"android": "https://dc.lft.to/lastmile_qr_scan", "ios": "https://dc.lft.to/lastmile_qr_scan"}, "is_disabled": 0, "fusion_lat": 0.0, "name": "4630f98c2cb7044b1fb086c35197fc11", "fusion_lon": 0.0}, {"is_reserved": 0, "type": "electric_scooter", "bike_id": "6dc16e6e5f5b344881887077a0a622fc", "lat": 38.92004, "lon": -77.03177416666666, "rental_uris": {"android": "https://dc.lft.to/lastmile_qr_scan", "ios": "https://dc.lft.to/lastmile_qr_scan"}, "is_disabled": 0, "fusion_lat": 0.0, "name": "6dc16e6e5f5b344881887077a0a622fc", "fusion_lon": 0.0}, {"is_reserved": 0, "type": "electric_scooter", "bike_id": "733cdb9c4f8c6acd269f9933a72e12a7", "lat": 38.892264, "lon": -77.03150016666666, "rental_uris": {"android": "https://dc.lft.to/lastmile_qr_scan", "ios": "https://dc.lft.to/lastmile_qr_scan"}, "is_disabled": 0, "fusion_lat": 0.0, "name": "733cdb9c4f8c6acd269f9933a72e12a7", "fusion_lon": 0.0}, {"is_reserved": 0, "type": "electric_scooter", "bike_id": "c84835c738a1bff85fa17027e498e1b0", "lat": 38.9007455, "lon": -77.01624483333333, "rental_uris": {"android": "https://dc.lft.to/lastmile_qr_scan", "ios": "https://dc.lft.to/lastmile_qr_scan"}, "is_disabled": 0, "fusion_lat": 0.0, "name": "c84835c738a1bff85fa17027e498e1b0", "fusion_lon": 0.0}, {"is_reserved": 0, "type": "electric_scooter", "bike_id": "569547c8cbc6c6be6e629eb4d20acdd7", "lat": 38.91921966666666, "lon": -77.0342745, "rental_uris": {"android": "https://dc.lft.to/lastmile_qr_scan", "ios": "https://dc.lft.to/lastmile_qr_scan"}, "is_disabled": 0, "fusion_lat": 0.0, "name": "569547c8cbc6c6be6e629eb4d20acdd7", "fusion_lon": 0.0}, {"is_reserved": 0, "type": "electric_scooter", "bike_id": "d8f69bb1d15a5e2f93b6129d424cafe1", "lat": 38.98025366666667, "lon": -77.0266735, "rental_uris": {"android": "https://dc.lft.to/lastmile_qr_scan", "ios": "https://dc.lft.to/lastmile_qr_scan"}, "is_disabled": 0, "fusion_lat": 0.0, "name": "d8f69bb1d15a5e2f93b6129d424cafe1", "fusion_lon": 0.0}, {"is_reserved": 0, "type": "electric_scooter", "bike_id": "3f2ae3aebd7235711eee129223226cec", "lat": 38.89959416666667, "lon": -77.05092316666666, "rental_uris": {"android": "https://dc.lft.to/lastmile_qr_scan", "ios": "https://dc.lft.to/lastmile_qr_scan"}, "is_disabled": 0, "fusion_lat": 0.0, "name": "3f2ae3aebd7235711eee129223226cec", "fusion_lon": 0.0}, {"is_reserved": 0, "type": "electric_scooter", "bike_id": "07697a5c7651f9c7af9c336ed49056c6", "lat": 38.89561283333333, "lon": -77.011286, "rental_uris": {"android": "https://dc.lft.to/lastmile_qr_scan", "ios": "https://dc.lft.to/lastmile_qr_scan"}, "is_disabled": 0, "fusion_lat": 0.0, "name": "07697a5c7651f9c7af9c336ed49056c6", "fusion_lon": 0.0}, {"is_reserved": 0, "type": "electric_scooter", "bike_id": "33514db9b3867669f31595339ebbe29a", "lat": 38.9332375, "lon": -77.08208966666666, "rental_uris": {"android": "https://dc.lft.to/lastmile_qr_scan", "ios": "https://dc.lft.to/lastmile_qr_scan"}, "is_disabled": 0, "fusion_lat": 0.0, "name": "33514db9b3867669f31595339ebbe29a", "fusion_lon": 0.0}, {"is_reserved": 0, "type": "electric_scooter", "bike_id": "18497031bee50dec27daa0f1cbcfdacb", "lat": 38.88308, "lon": -77.00957416666667, "rental_uris": {"android": "https://dc.lft.to/lastmile_qr_scan", "ios": "https://dc.lft.to/lastmile_qr_scan"}, "is_disabled": 0, "fusion_lat": 0.0, "name": "18497031bee50dec27daa0f1cbcfdacb", "fusion_lon": 0.0}, {"is_reserved": 0, "type": "electric_scooter", "bike_id": "abe4b11aababd51dea167bf6e8856731", "lat": 38.903946166666664, "lon": -77.05386116666666, "rental_uris": {"android": "https://dc.lft.to/lastmile_qr_scan", "ios": "https://dc.lft.to/lastmile_qr_scan"}, "is_disabled": 0, "fusion_lat": 0.0, "name": "abe4b11aababd51dea167bf6e8856731", "fusion_lon": 0.0}, {"is_reserved": 0, "type": "electric_bike", "bike_id": "c90fefd77ccf7cfe52b7d2b7774c8cee", "lat": 38.78411233333333, "lon": -77.12068133333334, "rental_uris": {"android": "https://dc.lft.to/lastmile_qr_scan", "ios": "https://dc.lft.to/lastmile_qr_scan"}, "is_disabled": 0, "fusion_lat": 0.0, "name": "c90fefd77ccf7cfe52b7d2b7774c8cee", "fusion_lon": 0.0}, {"is_reserved": 0, "type": "electric_scooter", "bike_id": "2b62512396a44a9c6e5601c55f98617b", "lat": 38.9139005, "lon": -77.01985633333334, "rental_uris": {"android": "https://dc.lft.to/lastmile_qr_scan", "ios": "https://dc.lft.to/lastmile_qr_scan"}, "is_disabled": 0, "fusion_lat": 0.0, "name": "2b62512396a44a9c6e5601c55f98617b", "fusion_lon": 0.0}, {"is_reserved": 0, "type": "electric_scooter", "bike_id": "33a166c7986c8aba7dc15fd6f1b54d6e", "lat": 38.904, "lon": -77.03147033333333, "rental_uris": {"android": "https://dc.lft.to/lastmile_qr_scan", "ios": "https://dc.lft.to/lastmile_qr_scan"}, "is_disabled": 0, "fusion_lat": 0.0, "name": "33a166c7986c8aba7dc15fd6f1b54d6e", "fusion_lon": 0.0}, {"is_reserved": 0, "type": "electric_scooter", "bike_id": "396f473bd16a5377047aa3cfbe5a7f6e", "lat": 38.912637833333335, "lon": -77.0051155, "rental_uris": {"android": "https://dc.lft.to/lastmile_qr_scan", "ios": "https://dc.lft.to/lastmile_qr_scan"}, "is_disabled": 0, "fusion_lat": 0.0, "name": "396f473bd16a5377047aa3cfbe5a7f6e", "fusion_lon": 0.0}, {"is_reserved": 0, "type": "electric_scooter", "bike_id": "2e63688f8c574a4e0c01d47ec359f202", "lat": 38.92230283333333, "lon": -77.02332866666667, "rental_uris": {"android": "https://dc.lft.to/lastmile_qr_scan", "ios": "https://dc.lft.to/lastmile_qr_scan"}, "is_disabled": 0, "fusion_lat": 0.0, "name": "2e63688f8c574a4e0c01d47ec359f202", "fusion_lon": 0.0}, {"is_reserved": 0, "type": "electric_scooter", "bike_id": "69e458e151db972c0ce50c8455bd5ff5", "lat": 38.92107133333333, "lon": -77.03172033333334, "rental_uris": {"android": "https://dc.lft.to/lastmile_qr_scan", "ios": "https://dc.lft.to/lastmile_qr_scan"}, "is_disabled": 0, "fusion_lat": 0.0, "name": "69e458e151db972c0ce50c8455bd5ff5", "fusion_lon": 0.0}, {"is_reserved": 0, "type": "electric_scooter", "bike_id": "b83cfabec5c8e7d16d7307b8dc7b6bc4", "lat": 38.913204, "lon": -77.03636766666666, "rental_uris": {"android": "https://dc.lft.to/lastmile_qr_scan", "ios": "https://dc.lft.to/lastmile_qr_scan"}, "is_disabled": 0, "fusion_lat": 0.0, "name": "b83cfabec5c8e7d16d7307b8dc7b6bc4", "fusion_lon": 0.0}, {"is_reserved": 0, "type": "electric_scooter", "bike_id": "45d20eeb5277d7d019e1c5f45273284f", "lat": 38.924844666666665, "lon": -77.02275183333333, "rental_uris": {"android": "https://dc.lft.to/lastmile_qr_scan", "ios": "https://dc.lft.to/lastmile_qr_scan"}, "is_disabled": 0, "fusion_lat": 0.0, "name": "45d20eeb5277d7d019e1c5f45273284f", "fusion_lon": 0.0}, {"is_reserved": 0, "type": "electric_scooter", "bike_id": "5447684ff0cb3fc1e160364bf1d7fa1b", "lat": 38.8994305, "lon": -76.98206483333334, "rental_uris": {"android": "https://dc.lft.to/lastmile_qr_scan", "ios": "https://dc.lft.to/lastmile_qr_scan"}, "is_disabled": 0, "fusion_lat": 0.0, "name": "5447684ff0cb3fc1e160364bf1d7fa1b", "fusion_lon": 0.0}, {"is_reserved": 0, "type": "electric_scooter", "bike_id": "4c2505108270d7c410b08213ff5056d9", "lat": 38.9213705, "lon": -77.0470155, "rental_uris": {"android": "https://dc.lft.to/lastmile_qr_scan", "ios": "https://dc.lft.to/lastmile_qr_scan"}, "is_disabled": 0, "fusion_lat": 0.0, "name": "4c2505108270d7c410b08213ff5056d9", "fusion_lon": 0.0}, {"is_reserved": 0, "type": "electric_scooter", "bike_id": "b1f8203f074c86a3c0c287e26b5148ce", "lat": 38.904203, "lon": -77.0259725, "rental_uris": {"android": "https://dc.lft.to/lastmile_qr_scan", "ios": "https://dc.lft.to/lastmile_qr_scan"}, "is_disabled": 0, "fusion_lat": 0.0, "name": "b1f8203f074c86a3c0c287e26b5148ce", "fusion_lon": 0.0}, {"is_reserved": 0, "type": "electric_scooter", "bike_id": "287c532deb5ee92ae5e852d8176bf3b7", "lat": 38.91110033333333, "lon": -77.04847333333333, "rental_uris": {"android": "https://dc.lft.to/lastmile_qr_scan", "ios": "https://dc.lft.to/lastmile_qr_scan"}, "is_disabled": 0, "fusion_lat": 0.0, "name": "287c532deb5ee92ae5e852d8176bf3b7", "fusion_lon": 0.0}, {"is_reserved": 0, "type": "electric_scooter", "bike_id": "a329203aa44a2b4fb63db8fa7cd82b34", "lat": 38.90144183333334, "lon": -77.016082, "rental_uris": {"android": "https://dc.lft.to/lastmile_qr_scan", "ios": "https://dc.lft.to/lastmile_qr_scan"}, "is_disabled": 0, "fusion_lat": 0.0, "name": "a329203aa44a2b4fb63db8fa7cd82b34", "fusion_lon": 0.0}, {"is_reserved": 0, "type": "electric_scooter", "bike_id": "ecf458853617a3ee7222b7137fb68f66", "lat": 38.9313715, "lon": -77.07853266666666, "rental_uris": {"android": "https://dc.lft.to/lastmile_qr_scan", "ios": "https://dc.lft.to/lastmile_qr_scan"}, "is_disabled": 0, "fusion_lat": 0.0, "name": "ecf458853617a3ee7222b7137fb68f66", "fusion_lon": 0.0}, {"is_reserved": 0, "type": "electric_scooter", "bike_id": "dd0682ec93d38c414a07c37492321f53", "lat": 38.898218666666665, "lon": -77.0481915, "rental_uris": {"android": "https://dc.lft.to/lastmile_qr_scan", "ios": "https://dc.lft.to/lastmile_qr_scan"}, "is_disabled": 0, "fusion_lat": 0.0, "name": "dd0682ec93d38c414a07c37492321f53", "fusion_lon": 0.0}, {"is_reserved": 0, "type": "electric_scooter", "bike_id": "79aaadf7a20199ffbaa757ed52e619b6", "lat": 38.8996815, "lon": -77.02616483333334, "rental_uris": {"android": "https://dc.lft.to/lastmile_qr_scan", "ios": "https://dc.lft.to/lastmile_qr_scan"}, "is_disabled": 0, "fusion_lat": 0.0, "name": "79aaadf7a20199ffbaa757ed52e619b6", "fusion_lon": 0.0}, {"is_reserved": 0, "type": "electric_scooter", "bike_id": "c6b6222978c683d6c42a39fdcac9bc1b", "lat": 38.905024, "lon": -77.04823533333334, "rental_uris": {"android": "https://dc.lft.to/lastmile_qr_scan", "ios": "https://dc.lft.to/lastmile_qr_scan"}, "is_disabled": 0, "fusion_lat": 0.0, "name": "c6b6222978c683d6c42a39fdcac9bc1b", "fusion_lon": 0.0}, {"is_reserved": 0, "type": "electric_scooter", "bike_id": "8f5c4eb5acc8f70c1e652f42af2d730a", "lat": 38.9075015, "lon": -76.99878866666667, "rental_uris": {"android": "https://dc.lft.to/lastmile_qr_scan", "ios": "https://dc.lft.to/lastmile_qr_scan"}, "is_disabled": 0, "fusion_lat": 0.0, "name": "8f5c4eb5acc8f70c1e652f42af2d730a", "fusion_lon": 0.0}, {"is_reserved": 0, "type": "electric_bike", "bike_id": "602abc818bfa60771390c857a5713045", "lat": 38.823418, "lon": -77.05824133333333, "rental_uris": {"android": "https://dc.lft.to/lastmile_qr_scan", "ios": "https://dc.lft.to/lastmile_qr_scan"}, "is_disabled": 0, "fusion_lat": 0.0, "name": "602abc818bfa60771390c857a5713045", "fusion_lon": 0.0}, {"is_reserved": 0, "type": "electric_scooter", "bike_id": "5c635596c3eb5d54669b72297ef961e9", "lat": 38.907192333333334, "lon": -77.00420333333334, "rental_uris": {"android": "https://dc.lft.to/lastmile_qr_scan", "ios": "https://dc.lft.to/lastmile_qr_scan"}, "is_disabled": 0, "fusion_lat": 0.0, "name": "5c635596c3eb5d54669b72297ef961e9", "fusion_lon": 0.0}, {"is_reserved": 0, "type": "electric_scooter", "bike_id": "9abbedc16ff8acdc7fb61bca3f4c5043", "lat": 38.900304, "lon": -77.01191666666666, "rental_uris": {"android": "https://dc.lft.to/lastmile_qr_scan", "ios": "https://dc.lft.to/lastmile_qr_scan"}, "is_disabled": 0, "fusion_lat": 0.0, "name": "9abbedc16ff8acdc7fb61bca3f4c5043", "fusion_lon": 0.0}, {"is_reserved": 0, "type": "electric_bike", "bike_id": "8d1191c8f22c569dbf9e670b483f8482", "lat": 38.883913166666666, "lon": -76.9545125, "rental_uris": {"android": "https://dc.lft.to/lastmile_qr_scan", "ios": "https://dc.lft.to/lastmile_qr_scan"}, "is_disabled": 0, "fusion_lat": 0.0, "name": "8d1191c8f22c569dbf9e670b483f8482", "fusion_lon": 0.0}, {"is_reserved": 0, "type": "electric_scooter", "bike_id": "fcb772e89b06ae2580037fba2c3739c0", "lat": 38.905238, "lon": -77.05847733333333, "rental_uris": {"android": "https://dc.lft.to/lastmile_qr_scan", "ios": "https://dc.lft.to/lastmile_qr_scan"}, "is_disabled": 0, "fusion_lat": 0.0, "name": "fcb772e89b06ae2580037fba2c3739c0", "fusion_lon": 0.0}, {"is_reserved": 0, "type": "electric_scooter", "bike_id": "d6f1e7dc5cfc09bb05f1e2863c000c39", "lat": 38.90820516666667, "lon": -77.03462016666667, "rental_uris": {"android": "https://dc.lft.to/lastmile_qr_scan", "ios": "https://dc.lft.to/lastmile_qr_scan"}, "is_disabled": 0, "fusion_lat": 0.0, "name": "d6f1e7dc5cfc09bb05f1e2863c000c39", "fusion_lon": 0.0}, {"is_reserved": 0, "type": "electric_scooter", "bike_id": "e4feaf65ebd3508dc33451a3d5be3763", "lat": 38.902241, "lon": -77.01644933333333, "rental_uris": {"android": "https://dc.lft.to/lastmile_qr_scan", "ios": "https://dc.lft.to/lastmile_qr_scan"}, "is_disabled": 0, "fusion_lat": 0.0, "name": "e4feaf65ebd3508dc33451a3d5be3763", "fusion_lon": 0.0}, {"is_reserved": 0, "type": "electric_bike", "bike_id": "33b520e0d0a262bdf4edd7fa4c52316d", "lat": 38.832405, "lon": -76.94623216666666, "rental_uris": {"android": "https://dc.lft.to/lastmile_qr_scan", "ios": "https://dc.lft.to/lastmile_qr_scan"}, "is_disabled": 0, "fusion_lat": 0.0, "name": "33b520e0d0a262bdf4edd7fa4c52316d", "fusion_lon": 0.0}, {"is_reserved": 0, "type": "electric_scooter", "bike_id": "dcd4e52f0daec349e02da7b0a4470a40", "lat": 38.924030333333334, "lon": -76.95152933333334, "rental_uris": {"android": "https://dc.lft.to/lastmile_qr_scan", "ios": "https://dc.lft.to/lastmile_qr_scan"}, "is_disabled": 0, "fusion_lat": 0.0, "name": "dcd4e52f0daec349e02da7b0a4470a40", "fusion_lon": 0.0}, {"is_reserved": 0, "type": "electric_bike", "bike_id": "81e6bd1eefcbcd5f5e9d637140a08364", "lat": 38.912333333333336, "lon": -77.04776583333333, "rental_uris": {"android": "https://dc.lft.to/lastmile_qr_scan", "ios": "https://dc.lft.to/lastmile_qr_scan"}, "is_disabled": 0, "fusion_lat": 0.0, "name": "81e6bd1eefcbcd5f5e9d637140a08364", "fusion_lon": 0.0}, {"is_reserved": 0, "type": "electric_scooter", "bike_id": "8459c18f946bd156fabe0b3f4dca9521", "lat": 38.900301, "lon": -76.99027116666667, "rental_uris": {"android": "https://dc.lft.to/lastmile_qr_scan", "ios": "https://dc.lft.to/lastmile_qr_scan"}, "is_disabled": 0, "fusion_lat": 0.0, "name": "8459c18f946bd156fabe0b3f4dca9521", "fusion_lon": 0.0}, {"is_reserved": 0, "type": "electric_scooter", "bike_id": "49ef95c4328be6e2b5719411ec5bd633", "lat": 38.87085733333333, "lon": -77.01376066666667, "rental_uris": {"android": "https://dc.lft.to/lastmile_qr_scan", "ios": "https://dc.lft.to/lastmile_qr_scan"}, "is_disabled": 0, "fusion_lat": 0.0, "name": "49ef95c4328be6e2b5719411ec5bd633", "fusion_lon": 0.0}, {"is_reserved": 0, "type": "electric_scooter", "bike_id": "bbc5242aac03e026fd6931cc30e08453", "lat": 38.903582166666666, "lon": -77.02844416666667, "rental_uris": {"android": "https://dc.lft.to/lastmile_qr_scan", "ios": "https://dc.lft.to/lastmile_qr_scan"}, "is_disabled": 0, "fusion_lat": 0.0, "name": "bbc5242aac03e026fd6931cc30e08453", "fusion_lon": 0.0}, {"is_reserved": 0, "type": "electric_scooter", "bike_id": "1f1755d4d5b3691bcde411555a306aa8", "lat": 38.89223966666667, "lon": -77.01607166666666, "rental_uris": {"android": "https://dc.lft.to/lastmile_qr_scan", "ios": "https://dc.lft.to/lastmile_qr_scan"}, "is_disabled": 0, "fusion_lat": 0.0, "name": "1f1755d4d5b3691bcde411555a306aa8", "fusion_lon": 0.0}, {"is_reserved": 0, "type": "electric_scooter", "bike_id": "d21858c537edc2e465d9e6c7cd665d4f", "lat": 38.89930533333333, "lon": -77.01926416666667, "rental_uris": {"android": "https://dc.lft.to/lastmile_qr_scan", "ios": "https://dc.lft.to/lastmile_qr_scan"}, "is_disabled": 0, "fusion_lat": 0.0, "name": "d21858c537edc2e465d9e6c7cd665d4f", "fusion_lon": 0.0}, {"is_reserved": 0, "type": "electric_scooter", "bike_id": "9a901aed4df463cb9533bcbb8e243d68", "lat": 38.898809166666666, "lon": -77.04886816666667, "rental_uris": {"android": "https://dc.lft.to/lastmile_qr_scan", "ios": "https://dc.lft.to/lastmile_qr_scan"}, "is_disabled": 0, "fusion_lat": 0.0, "name": "9a901aed4df463cb9533bcbb8e243d68", "fusion_lon": 0.0}, {"is_reserved": 0, "type": "electric_scooter", "bike_id": "b4b0dd330a3c028fd8ef9532650b0355", "lat": 38.899893, "lon": -77.02905483333333, "rental_uris": {"android": "https://dc.lft.to/lastmile_qr_scan", "ios": "https://dc.lft.to/lastmile_qr_scan"}, "is_disabled": 0, "fusion_lat": 0.0, "name": "b4b0dd330a3c028fd8ef9532650b0355", "fusion_lon": 0.0}, {"is_reserved": 0, "type": "electric_scooter", "bike_id": "becae281899f094acd49a9f8351aeed2", "lat": 38.909729166666665, "lon": -77.0240585, "rental_uris": {"android": "https://dc.lft.to/lastmile_qr_scan", "ios": "https://dc.lft.to/lastmile_qr_scan"}, "is_disabled": 0, "fusion_lat": 0.0, "name": "becae281899f094acd49a9f8351aeed2", "fusion_lon": 0.0}, {"is_reserved": 0, "type": "electric_scooter", "bike_id": "4cbb7828dd1e141d45745580a195ee70", "lat": 38.9003295, "lon": -77.00219, "rental_uris": {"android": "https://dc.lft.to/lastmile_qr_scan", "ios": "https://dc.lft.to/lastmile_qr_scan"}, "is_disabled": 0, "fusion_lat": 0.0, "name": "4cbb7828dd1e141d45745580a195ee70", "fusion_lon": 0.0}, {"is_reserved": 0, "type": "electric_scooter", "bike_id": "6024360c96fa7cd31d05a8db7c44a932", "lat": 38.90260283333333, "lon": -77.01755833333333, "rental_uris": {"android": "https://dc.lft.to/lastmile_qr_scan", "ios": "https://dc.lft.to/lastmile_qr_scan"}, "is_disabled": 0, "fusion_lat": 0.0, "name": "6024360c96fa7cd31d05a8db7c44a932", "fusion_lon": 0.0}, {"is_reserved": 0, "type": "electric_scooter", "bike_id": "7ff13d689010c3de2b5e8f5e44408627", "lat": 38.90863, "lon": -77.01944016666667, "rental_uris": {"android": "https://dc.lft.to/lastmile_qr_scan", "ios": "https://dc.lft.to/lastmile_qr_scan"}, "is_disabled": 0, "fusion_lat": 0.0, "name": "7ff13d689010c3de2b5e8f5e44408627", "fusion_lon": 0.0}, {"is_reserved": 0, "type": "electric_scooter", "bike_id": "8f1b5a0e2a762b147c4a3268ac485fcc", "lat": 38.92728983333333, "lon": -77.0355595, "rental_uris": {"android": "https://dc.lft.to/lastmile_qr_scan", "ios": "https://dc.lft.to/lastmile_qr_scan"}, "is_disabled": 0, "fusion_lat": 0.0, "name": "8f1b5a0e2a762b147c4a3268ac485fcc", "fusion_lon": 0.0}, {"is_reserved": 0, "type": "electric_scooter", "bike_id": "102a3988ffe6b5ba2f368723203d706b", "lat": 38.9285555, "lon": -77.02738733333334, "rental_uris": {"android": "https://dc.lft.to/lastmile_qr_scan", "ios": "https://dc.lft.to/lastmile_qr_scan"}, "is_disabled": 0, "fusion_lat": 0.0, "name": "102a3988ffe6b5ba2f368723203d706b", "fusion_lon": 0.0}, {"is_reserved": 0, "type": "electric_scooter", "bike_id": "6c634e4425e4cd5597e9ddb3dab90388", "lat": 38.86523866666667, "lon": -76.96910483333333, "rental_uris": {"android": "https://dc.lft.to/lastmile_qr_scan", "ios": "https://dc.lft.to/lastmile_qr_scan"}, "is_disabled": 0, "fusion_lat": 0.0, "name": "6c634e4425e4cd5597e9ddb3dab90388", "fusion_lon": 0.0}, {"is_reserved": 0, "type": "electric_scooter", "bike_id": "01fd54d4fd8c6e5a29029682bca34cec", "lat": 38.8960915, "lon": -77.044166, "rental_uris": {"android": "https://dc.lft.to/lastmile_qr_scan", "ios": "https://dc.lft.to/lastmile_qr_scan"}, "is_disabled": 0, "fusion_lat": 0.0, "name": "01fd54d4fd8c6e5a29029682bca34cec", "fusion_lon": 0.0}, {"is_reserved": 0, "type": "electric_scooter", "bike_id": "2b5ed152cc90f1e5a902c9784e814ead", "lat": 38.90954966666666, "lon": -77.04580683333333, "rental_uris": {"android": "https://dc.lft.to/lastmile_qr_scan", "ios": "https://dc.lft.to/lastmile_qr_scan"}, "is_disabled": 0, "fusion_lat": 0.0, "name": "2b5ed152cc90f1e5a902c9784e814ead", "fusion_lon": 0.0}, {"is_reserved": 0, "type": "electric_scooter", "bike_id": "d3ba439bb54d79b07c9502752f535c19", "lat": 38.92918783333333, "lon": -77.02094916666667, "rental_uris": {"android": "https://dc.lft.to/lastmile_qr_scan", "ios": "https://dc.lft.to/lastmile_qr_scan"}, "is_disabled": 0, "fusion_lat": 0.0, "name": "d3ba439bb54d79b07c9502752f535c19", "fusion_lon": 0.0}, {"is_reserved": 0, "type": "electric_bike", "bike_id": "0f07c9272fce12206ec98217f954eba6", "lat": 38.802519333333336, "lon": -77.11441333333333, "rental_uris": {"android": "https://dc.lft.to/lastmile_qr_scan", "ios": "https://dc.lft.to/lastmile_qr_scan"}, "is_disabled": 0, "fusion_lat": 0.0, "name": "0f07c9272fce12206ec98217f954eba6", "fusion_lon": 0.0}, {"is_reserved": 0, "type": "electric_scooter", "bike_id": "5393c034a395481f7ac5164359581761", "lat": 38.92153833333333, "lon": -77.0348715, "rental_uris": {"android": "https://dc.lft.to/lastmile_qr_scan", "ios": "https://dc.lft.to/lastmile_qr_scan"}, "is_disabled": 0, "fusion_lat": 0.0, "name": "5393c034a395481f7ac5164359581761", "fusion_lon": 0.0}, {"is_reserved": 0, "type": "electric_scooter", "bike_id": "26dc82f253610ac9b2dbf22d5e136b8a", "lat": 38.91202916666667, "lon": -77.02002316666666, "rental_uris": {"android": "https://dc.lft.to/lastmile_qr_scan", "ios": "https://dc.lft.to/lastmile_qr_scan"}, "is_disabled": 0, "fusion_lat": 0.0, "name": "26dc82f253610ac9b2dbf22d5e136b8a", "fusion_lon": 0.0}, {"is_reserved": 0, "type": "electric_scooter", "bike_id": "265ee1330c42ab72fe625e70ad32b896", "lat": 38.943774, "lon": -77.023525, "rental_uris": {"android": "https://dc.lft.to/lastmile_qr_scan", "ios": "https://dc.lft.to/lastmile_qr_scan"}, "is_disabled": 0, "fusion_lat": 0.0, "name": "265ee1330c42ab72fe625e70ad32b896", "fusion_lon": 0.0}, {"is_reserved": 0, "type": "electric_scooter", "bike_id": "834fd67fb8068610ec864ae40f8655af", "lat": 38.90554016666667, "lon": -77.005937, "rental_uris": {"android": "https://dc.lft.to/lastmile_qr_scan", "ios": "https://dc.lft.to/lastmile_qr_scan"}, "is_disabled": 0, "fusion_lat": 0.0, "name": "834fd67fb8068610ec864ae40f8655af", "fusion_lon": 0.0}, {"is_reserved": 0, "type": "electric_scooter", "bike_id": "01c2ab63d06be41c215d18b386480d5d", "lat": 38.907258666666664, "lon": -77.00753416666667, "rental_uris": {"android": "https://dc.lft.to/lastmile_qr_scan", "ios": "https://dc.lft.to/lastmile_qr_scan"}, "is_disabled": 0, "fusion_lat": 0.0, "name": "01c2ab63d06be41c215d18b386480d5d", "fusion_lon": 0.0}, {"is_reserved": 0, "type": "electric_scooter", "bike_id": "d40e9b46527e60ad3919f488af921dab", "lat": 38.89906766666667, "lon": -77.033781, "rental_uris": {"android": "https://dc.lft.to/lastmile_qr_scan", "ios": "https://dc.lft.to/lastmile_qr_scan"}, "is_disabled": 0, "fusion_lat": 0.0, "name": "d40e9b46527e60ad3919f488af921dab", "fusion_lon": 0.0}, {"is_reserved": 0, "type": "electric_scooter", "bike_id": "11dfa1d1b836488ed8b0d2cb9e3eb6f1", "lat": 38.935267833333334, "lon": -77.02857883333333, "rental_uris": {"android": "https://dc.lft.to/lastmile_qr_scan", "ios": "https://dc.lft.to/lastmile_qr_scan"}, "is_disabled": 0, "fusion_lat": 0.0, "name": "11dfa1d1b836488ed8b0d2cb9e3eb6f1", "fusion_lon": 0.0}, {"is_reserved": 0, "type": "electric_scooter", "bike_id": "ff35e55b256a2fbc942e52b9eb92f6f9", "lat": 38.921526, "lon": -77.0387215, "rental_uris": {"android": "https://dc.lft.to/lastmile_qr_scan", "ios": "https://dc.lft.to/lastmile_qr_scan"}, "is_disabled": 0, "fusion_lat": 0.0, "name": "ff35e55b256a2fbc942e52b9eb92f6f9", "fusion_lon": 0.0}, {"is_reserved": 0, "type": "electric_scooter", "bike_id": "d40eae155bc28418b4de1eceebbde4ce", "lat": 38.923169333333334, "lon": -77.0451765, "rental_uris": {"android": "https://dc.lft.to/lastmile_qr_scan", "ios": "https://dc.lft.to/lastmile_qr_scan"}, "is_disabled": 0, "fusion_lat": 0.0, "name": "d40eae155bc28418b4de1eceebbde4ce", "fusion_lon": 0.0}, {"is_reserved": 0, "type": "electric_scooter", "bike_id": "051596c3c58c3e2bd6b63a8cea06999d", "lat": 38.92839433333333, "lon": -77.05505233333334, "rental_uris": {"android": "https://dc.lft.to/lastmile_qr_scan", "ios": "https://dc.lft.to/lastmile_qr_scan"}, "is_disabled": 0, "fusion_lat": 0.0, "name": "051596c3c58c3e2bd6b63a8cea06999d", "fusion_lon": 0.0}, {"is_reserved": 0, "type": "electric_scooter", "bike_id": "6d0e7ef20b8f52306036998a76e1926f", "lat": 38.91744116666667, "lon": -77.027985, "rental_uris": {"android": "https://dc.lft.to/lastmile_qr_scan", "ios": "https://dc.lft.to/lastmile_qr_scan"}, "is_disabled": 0, "fusion_lat": 0.0, "name": "6d0e7ef20b8f52306036998a76e1926f", "fusion_lon": 0.0}, {"is_reserved": 0, "type": "electric_scooter", "bike_id": "41012251cdf83f086c745a2f41477cd4", "lat": 38.903632333333334, "lon": -77.031833, "rental_uris": {"android": "https://dc.lft.to/lastmile_qr_scan", "ios": "https://dc.lft.to/lastmile_qr_scan"}, "is_disabled": 0, "fusion_lat": 0.0, "name": "41012251cdf83f086c745a2f41477cd4", "fusion_lon": 0.0}, {"is_reserved": 0, "type": "electric_scooter", "bike_id": "498dc44b45382c590bdec5ab55f2c513", "lat": 38.92197483333333, "lon": -77.0470295, "rental_uris": {"android": "https://dc.lft.to/lastmile_qr_scan", "ios": "https://dc.lft.to/lastmile_qr_scan"}, "is_disabled": 0, "fusion_lat": 0.0, "name": "498dc44b45382c590bdec5ab55f2c513", "fusion_lon": 0.0}, {"is_reserved": 0, "type": "electric_scooter", "bike_id": "a5cc675b4f6100ecfde9668540caf4ab", "lat": 38.927644666666666, "lon": -77.02782166666667, "rental_uris": {"android": "https://dc.lft.to/lastmile_qr_scan", "ios": "https://dc.lft.to/lastmile_qr_scan"}, "is_disabled": 0, "fusion_lat": 0.0, "name": "a5cc675b4f6100ecfde9668540caf4ab", "fusion_lon": 0.0}, {"is_reserved": 0, "type": "electric_scooter", "bike_id": "3040ad20f9f6dc2b834d02ab998bcc2c", "lat": 38.8987435, "lon": -76.93188016666667, "rental_uris": {"android": "https://dc.lft.to/lastmile_qr_scan", "ios": "https://dc.lft.to/lastmile_qr_scan"}, "is_disabled": 0, "fusion_lat": 0.0, "name": "3040ad20f9f6dc2b834d02ab998bcc2c", "fusion_lon": 0.0}, {"is_reserved": 0, "type": "electric_scooter", "bike_id": "e9be59d03ab6085f5be8b3233730823f", "lat": 38.9068415, "lon": -77.0625665, "rental_uris": {"android": "https://dc.lft.to/lastmile_qr_scan", "ios": "https://dc.lft.to/lastmile_qr_scan"}, "is_disabled": 0, "fusion_lat": 0.0, "name": "e9be59d03ab6085f5be8b3233730823f", "fusion_lon": 0.0}, {"is_reserved": 0, "type": "electric_scooter", "bike_id": "7d995794c03ba2454f5bdc06a3126b27", "lat": 38.9285085, "lon": -77.013804, "rental_uris": {"android": "https://dc.lft.to/lastmile_qr_scan", "ios": "https://dc.lft.to/lastmile_qr_scan"}, "is_disabled": 0, "fusion_lat": 0.0, "name": "7d995794c03ba2454f5bdc06a3126b27", "fusion_lon": 0.0}, {"is_reserved": 0, "type": "electric_scooter", "bike_id": "ed07a6ff11b23b34002271c0fc32908c", "lat": 38.90667633333333, "lon": -77.00896916666666, "rental_uris": {"android": "https://dc.lft.to/lastmile_qr_scan", "ios": "https://dc.lft.to/lastmile_qr_scan"}, "is_disabled": 0, "fusion_lat": 0.0, "name": "ed07a6ff11b23b34002271c0fc32908c", "fusion_lon": 0.0}, {"is_reserved": 0, "type": "electric_scooter", "bike_id": "566123cd21127ab8179c4817f7edbbb2", "lat": 38.885221666666666, "lon": -76.99616383333333, "rental_uris": {"android": "https://dc.lft.to/lastmile_qr_scan", "ios": "https://dc.lft.to/lastmile_qr_scan"}, "is_disabled": 0, "fusion_lat": 0.0, "name": "566123cd21127ab8179c4817f7edbbb2", "fusion_lon": 0.0}, {"is_reserved": 0, "type": "electric_scooter", "bike_id": "63be149e1a9ec8673b2ce25405a48c2f", "lat": 38.920341666666666, "lon": -77.041911, "rental_uris": {"android": "https://dc.lft.to/lastmile_qr_scan", "ios": "https://dc.lft.to/lastmile_qr_scan"}, "is_disabled": 0, "fusion_lat": 0.0, "name": "63be149e1a9ec8673b2ce25405a48c2f", "fusion_lon": 0.0}, {"is_reserved": 0, "type": "electric_scooter", "bike_id": "0106f56751ee0af5a25d16b9b7b82dfe", "lat": 38.900253166666666, "lon": -77.01183066666667, "rental_uris": {"android": "https://dc.lft.to/lastmile_qr_scan", "ios": "https://dc.lft.to/lastmile_qr_scan"}, "is_disabled": 0, "fusion_lat": 0.0, "name": "0106f56751ee0af5a25d16b9b7b82dfe", "fusion_lon": 0.0}, {"is_reserved": 0, "type": "electric_scooter", "bike_id": "4e5a4a816655ac0b1fe507ad9c7d3e39", "lat": 38.92755066666667, "lon": -77.02450733333333, "rental_uris": {"android": "https://dc.lft.to/lastmile_qr_scan", "ios": "https://dc.lft.to/lastmile_qr_scan"}, "is_disabled": 0, "fusion_lat": 0.0, "name": "4e5a4a816655ac0b1fe507ad9c7d3e39", "fusion_lon": 0.0}, {"is_reserved": 0, "type": "electric_scooter", "bike_id": "87920bb7532feb77669941d9913b76eb", "lat": 38.91766533333333, "lon": -77.023142, "rental_uris": {"android": "https://dc.lft.to/lastmile_qr_scan", "ios": "https://dc.lft.to/lastmile_qr_scan"}, "is_disabled": 0, "fusion_lat": 0.0, "name": "87920bb7532feb77669941d9913b76eb", "fusion_lon": 0.0}, {"is_reserved": 0, "type": "electric_scooter", "bike_id": "7cd5106a73c29b759c7b0f3ea607d795", "lat": 38.94082383333333, "lon": -77.05497716666666, "rental_uris": {"android": "https://dc.lft.to/lastmile_qr_scan", "ios": "https://dc.lft.to/lastmile_qr_scan"}, "is_disabled": 0, "fusion_lat": 0.0, "name": "7cd5106a73c29b759c7b0f3ea607d795", "fusion_lon": 0.0}, {"is_reserved": 0, "type": "electric_scooter", "bike_id": "94e189c0ccfb7842525b9ce737c92484", "lat": 38.9262615, "lon": -77.036274, "rental_uris": {"android": "https://dc.lft.to/lastmile_qr_scan", "ios": "https://dc.lft.to/lastmile_qr_scan"}, "is_disabled": 0, "fusion_lat": 0.0, "name": "94e189c0ccfb7842525b9ce737c92484", "fusion_lon": 0.0}, {"is_reserved": 0, "type": "electric_scooter", "bike_id": "1a7baa13f9132f103e0a222690e567d4", "lat": 38.9162745, "lon": -77.04544166666666, "rental_uris": {"android": "https://dc.lft.to/lastmile_qr_scan", "ios": "https://dc.lft.to/lastmile_qr_scan"}, "is_disabled": 0, "fusion_lat": 0.0, "name": "1a7baa13f9132f103e0a222690e567d4", "fusion_lon": 0.0}, {"is_reserved": 0, "type": "electric_scooter", "bike_id": "e060c45cf37bdc5715c1d5042c6b9aa8", "lat": 38.89231316666667, "lon": -77.03184966666667, "rental_uris": {"android": "https://dc.lft.to/lastmile_qr_scan", "ios": "https://dc.lft.to/lastmile_qr_scan"}, "is_disabled": 0, "fusion_lat": 0.0, "name": "e060c45cf37bdc5715c1d5042c6b9aa8", "fusion_lon": 0.0}, {"is_reserved": 0, "type": "electric_scooter", "bike_id": "e3103bdcfb1ccaf42e4a4a3ea372ce88", "lat": 38.942321666666665, "lon": -77.07154116666666, "rental_uris": {"android": "https://dc.lft.to/lastmile_qr_scan", "ios": "https://dc.lft.to/lastmile_qr_scan"}, "is_disabled": 0, "fusion_lat": 0.0, "name": "e3103bdcfb1ccaf42e4a4a3ea372ce88", "fusion_lon": 0.0}, {"is_reserved": 0, "type": "electric_scooter", "bike_id": "9d53ff6d2ebfb65741677e15097eb1d1", "lat": 38.919499333333334, "lon": -77.01362633333333, "rental_uris": {"android": "https://dc.lft.to/lastmile_qr_scan", "ios": "https://dc.lft.to/lastmile_qr_scan"}, "is_disabled": 0, "fusion_lat": 0.0, "name": "9d53ff6d2ebfb65741677e15097eb1d1", "fusion_lon": 0.0}, {"is_reserved": 0, "type": "electric_scooter", "bike_id": "ac65947cbce9d4650f0564718f8f795d", "lat": 38.9010265, "lon": -77.04874766666667, "rental_uris": {"android": "https://dc.lft.to/lastmile_qr_scan", "ios": "https://dc.lft.to/lastmile_qr_scan"}, "is_disabled": 0, "fusion_lat": 0.0, "name": "ac65947cbce9d4650f0564718f8f795d", "fusion_lon": 0.0}, {"is_reserved": 0, "type": "electric_scooter", "bike_id": "63d74844b34e53206ee4041f3320a940", "lat": 38.93391616666667, "lon": -77.02390566666666, "rental_uris": {"android": "https://dc.lft.to/lastmile_qr_scan", "ios": "https://dc.lft.to/lastmile_qr_scan"}, "is_disabled": 0, "fusion_lat": 0.0, "name": "63d74844b34e53206ee4041f3320a940", "fusion_lon": 0.0}, {"is_reserved": 0, "type": "electric_scooter", "bike_id": "eeb10c2a786c103e482461d40f7fa52f", "lat": 38.919919666666665, "lon": -77.02387016666667, "rental_uris": {"android": "https://dc.lft.to/lastmile_qr_scan", "ios": "https://dc.lft.to/lastmile_qr_scan"}, "is_disabled": 0, "fusion_lat": 0.0, "name": "eeb10c2a786c103e482461d40f7fa52f", "fusion_lon": 0.0}, {"is_reserved": 0, "type": "electric_scooter", "bike_id": "447bd2ed4892b9be0f4e892e029a389d", "lat": 38.9562685, "lon": -77.03557816666667, "rental_uris": {"android": "https://dc.lft.to/lastmile_qr_scan", "ios": "https://dc.lft.to/lastmile_qr_scan"}, "is_disabled": 0, "fusion_lat": 0.0, "name": "447bd2ed4892b9be0f4e892e029a389d", "fusion_lon": 0.0}, {"is_reserved": 0, "type": "electric_scooter", "bike_id": "71077d6a5663b37d1363768188d3b0e9", "lat": 38.912659833333336, "lon": -77.04430866666667, "rental_uris": {"android": "https://dc.lft.to/lastmile_qr_scan", "ios": "https://dc.lft.to/lastmile_qr_scan"}, "is_disabled": 0, "fusion_lat": 0.0, "name": "71077d6a5663b37d1363768188d3b0e9", "fusion_lon": 0.0}, {"is_reserved": 0, "type": "electric_scooter", "bike_id": "bba64c3a070a623e566195412983ffb4", "lat": 38.915422166666666, "lon": -77.03210533333333, "rental_uris": {"android": "https://dc.lft.to/lastmile_qr_scan", "ios": "https://dc.lft.to/lastmile_qr_scan"}, "is_disabled": 0, "fusion_lat": 0.0, "name": "bba64c3a070a623e566195412983ffb4", "fusion_lon": 0.0}, {"is_reserved": 0, "type": "electric_scooter", "bike_id": "84ca74e3038613a500d4cf3f37bb9883", "lat": 38.92013716666666, "lon": -77.03219716666666, "rental_uris": {"android": "https://dc.lft.to/lastmile_qr_scan", "ios": "https://dc.lft.to/lastmile_qr_scan"}, "is_disabled": 0, "fusion_lat": 0.0, "name": "84ca74e3038613a500d4cf3f37bb9883", "fusion_lon": 0.0}, {"is_reserved": 0, "type": "electric_scooter", "bike_id": "500c54b1e46091ac9925c14570812419", "lat": 38.9211095, "lon": -77.01775783333333, "rental_uris": {"android": "https://dc.lft.to/lastmile_qr_scan", "ios": "https://dc.lft.to/lastmile_qr_scan"}, "is_disabled": 0, "fusion_lat": 0.0, "name": "500c54b1e46091ac9925c14570812419", "fusion_lon": 0.0}, {"is_reserved": 0, "type": "electric_scooter", "bike_id": "cab4bb98a8cda80fa3213c61808f7c05", "lat": 38.914128, "lon": -77.02212533333334, "rental_uris": {"android": "https://dc.lft.to/lastmile_qr_scan", "ios": "https://dc.lft.to/lastmile_qr_scan"}, "is_disabled": 0, "fusion_lat": 0.0, "name": "cab4bb98a8cda80fa3213c61808f7c05", "fusion_lon": 0.0}, {"is_reserved": 0, "type": "electric_scooter", "bike_id": "720d3e6e3f0ca1d2a690ce41f5d06bf1", "lat": 38.89992616666667, "lon": -77.02719216666667, "rental_uris": {"android": "https://dc.lft.to/lastmile_qr_scan", "ios": "https://dc.lft.to/lastmile_qr_scan"}, "is_disabled": 0, "fusion_lat": 0.0, "name": "720d3e6e3f0ca1d2a690ce41f5d06bf1", "fusion_lon": 0.0},