{"data": {"bikes": [{"rental_uris": {"ios": "https://dc.lft.to/lastmile_qr_scan", "android": "https://dc.lft.to/lastmile_qr_scan"}, "lon": -76.9466975, "type": "electric_scooter", "fusion_lat": 0.0, "lat": 38.903376, "name": "62b7171208cb6041c784a6a5edb6418a", "fusion_lon": 0.0, "bike_id": "62b7171208cb6041c784a6a5edb6418a", "is_disabled": 0, "is_reserved": 0}, {"rental_uris": {"ios": "https://dc.lft.to/lastmile_qr_scan", "android": "https://dc.lft.to/lastmile_qr_scan"}, "lon": -77.02386733333333, "type": "electric_scooter", "fusion_lat": 0.0, "lat": 38.89816866666666, "name": "deedf5f77d7a3b6024d9c97d4a4356d3", "fusion_lon": 0.0, "bike_id": "deedf5f77d7a3b6024d9c97d4a4356d3", "is_disabled": 0, "is_reserved": 0}, {"rental_uris": {"ios": "https://dc.lft.to/lastmile_qr_scan", "android": "https://dc.lft.to/lastmile_qr_scan"}, "lon": -76.95765266666666, "type": "electric_bike", "fusion_lat": 0.0, "lat": 38.884205, "name": "05e191af58309e0a9406cb7823f685bf", "fusion_lon": 0.0, "bike_id": "05e191af58309e0a9406cb7823f685bf", "is_disabled": 0, "is_reserved": 0}, {"rental_uris": {"ios": "https://dc.lft.to/lastmile_qr_scan", "android": "https://dc.lft.to/lastmile_qr_scan"}, "lon": -76.99361316666666, "type": "electric_scooter", "fusion_lat": 0.0, "lat": 38.90030616666667, "name": "4801d213557f07be019637d0ec04063a", "fusion_lon": 0.0, "bike_id": "4801d213557f07be019637d0ec04063a", "is_disabled": 0, "is_reserved": 0}, {"rental_uris": {"ios": "https://dc.lft.to/lastmile_qr_scan", "android": "https://dc.lft.to/lastmile_qr_scan"}, "lon": -76.87823616666667, "type": "electric_bike", "fusion_lat": 0.0, "lat": 38.99231133333333, "name": "cb513ed363416dcc3ccb230f44f9c22d", "fusion_lon": 0.0, "bike_id": "cb513ed363416dcc3ccb230f44f9c22d", "is_disabled": 0, "is_reserved": 0}, {"rental_uris": {"ios": "https://dc.lft.to/lastmile_qr_scan", "android": "https://dc.lft.to/lastmile_qr_scan"}, "lon": -77.05041816666666, "type": "electric_scooter", "fusion_lat": 0.0, "lat": 38.923542833333336, "name": "4b40dde0311ee341761eaf85274145cd", "fusion_lon": 0.0, "bike_id": "4b40dde0311ee341761eaf85274145cd", "is_disabled": 0, "is_reserved": 0}, {"rental_uris": {"ios": "https://dc.lft.to/lastmile_qr_scan", "android": "https://dc.lft.to/lastmile_qr_scan"}, "lon": -77.07195316666666, "type": "electric_bike", "fusion_lat": 0.0, "lat": 38.90514833333334, "name": "71b3b0fde5926989ac2aecd852800037", "fusion_lon": 0.0, "bike_id": "71b3b0fde5926989ac2aecd852800037", "is_disabled": 0, "is_reserved": 0}, {"rental_uris": {"ios": "https://dc.lft.to/lastmile_qr_scan", "android": "https://dc.lft.to/lastmile_qr_scan"}, "lon": -76.9951615, "type": "electric_scooter", "fusion_lat": 0.0, "lat": 38.89480783333333, "name": "0f2dda327d3ca8f3be95e9c3fa98b518", "fusion_lon": 0.0, "bike_id": "0f2dda327d3ca8f3be95e9c3fa98b518", "is_disabled": 0, "is_reserved": 0}, {"rental_uris": {"ios": "https://dc.lft.to/lastmile_qr_scan", "android": "https://dc.lft.to/lastmile_qr_scan"}, "lon": -76.97725983333333, "type": "electric_scooter", "fusion_lat": 0.0, "lat": 38.87244233333333, "name": "078e1c74fc6ab1574a5c13f9b6bc7157", "fusion_lon": 0.0, "bike_id": "078e1c74fc6ab1574a5c13f9b6bc7157", "is_disabled": 0, "is_reserved": 0}, {"rental_uris": {"ios": "https://dc.lft.to/lastmile_qr_scan", "android": "https://dc.lft.to/lastmile_qr_scan"}, "lon": -77.04691833333334, "type": "electric_scooter", "fusion_lat": 0.0, "lat": 38.895967, "name": "7015d5a3dba9245ef230b4ce82919a58", "fusion_lon": 0.0, "bike_id": "7015d5a3dba9245ef230b4ce82919a58", "is_disabled": 0, "is_reserved": 0}, {"rental_uris": {"ios": "https://dc.lft.to/lastmile_qr_scan", "android": "https://dc.lft.to/lastmile_qr_scan"}, "lon": -77.0542455, "type": "electric_scooter", "fusion_lat": 0.0, "lat": 38.92824233333333, "name": "227fee39b0f4beb0d6d098f168c122f9", "fusion_lon": 0.0, "bike_id": "227fee39b0f4beb0d6d098f168c122f9", "is_disabled": 0, "is_reserved": 0}, {"rental_uris": {"ios": "https://dc.lft.to/lastmile_qr_scan", "android": "https://dc.lft.to/lastmile_qr_scan"}, "lon": -77.02645483333333, "type": "electric_scooter", "fusion_lat": 0.0, "lat": 38.98497, "name": "78f493955bcb913fed37c6370e42a9da", "fusion_lon": 0.0, "bike_id": "78f493955bcb913fed37c6370e42a9da", "is_disabled": 0, "is_reserved": 0}, {"rental_uris": {"ios": "https://dc.lft.to/lastmile_qr_scan", "android": "https://dc.lft.to/lastmile_qr_scan"}, "lon": -77.050613, "type": "electric_scooter", "fusion_lat": 0.0, "lat": 38.923529, "name": "74016b324d8a98d6aa8b6716cf3dd815", "fusion_lon": 0.0, "bike_id": "74016b324d8a98d6aa8b6716cf3dd815", "is_disabled": 0, "is_reserved": 0}, {"rental_uris": {"ios": "https://dc.lft.to/lastmile_qr_scan", "android": "https://dc.lft.to/lastmile_qr_scan"}, "lon": -77.04002166666666, "type": "electric_scooter", "fusion_lat": 0.0, "lat": 38.934219666666664, "name": "141b6e2fcfc857cf13d8adfeb493cb9e", "fusion_lon": 0.0, "bike_id": "141b6e2fcfc857cf13d8adfeb493cb9e", "is_disabled": 0, "is_reserved": 0}, {"rental_uris": {"ios": "https://dc.lft.to/lastmile_qr_scan", "android": "https://dc.lft.to/lastmile_qr_scan"}, "lon": -77.022399, "type": "electric_scooter", "fusion_lat": 0.0, "lat": 38.91271183333333, "name": "73eae26fe17820c6d007275ce6014c45", "fusion_lon": 0.0, "bike_id": "73eae26fe17820c6d007275ce6014c45", "is_disabled": 0, "is_reserved": 0}, {"rental_uris": {"ios": "https://dc.lft.to/lastmile_qr_scan", "android": "https://dc.lft.to/lastmile_qr_scan"}, "lon": -77.03671116666666, "type": "electric_scooter", "fusion_lat": 0.0, "lat": 38.92989333333333, "name": "4a1cdb6aa45c9cac508f98022d5cc877", "fusion_lon": 0.0, "bike_id": "4a1cdb6aa45c9cac508f98022d5cc877", "is_disabled": 0, "is_reserved": 0}, {"rental_uris": {"ios": "https://dc.lft.to/lastmile_qr_scan", "android": "https://dc.lft.to/lastmile_qr_scan"}, "lon": -77.03456983333334, "type": "electric_scooter", "fusion_lat": 0.0, "lat": 38.918104666666665, "name": "538e8739efcffabdcc15956dafa68921", "fusion_lon": 0.0, "bike_id": "538e8739efcffabdcc15956dafa68921", "is_disabled": 0, "is_reserved": 0}, {"rental_uris": {"ios": "https://dc.lft.to/lastmile_qr_scan", "android": "https://dc.lft.to/lastmile_qr_scan"}, "lon": -77.04279933333333, "type": "electric_bike", "fusion_lat": 0.0, "lat": 38.911143333333335, "name": "faf185426f80b026af772b801aadf272", "fusion_lon": 0.0, "bike_id": "faf185426f80b026af772b801aadf272", "is_disabled": 0, "is_reserved": 0}, {"rental_uris": {"ios": "https://dc.lft.to/lastmile_qr_scan", "android": "https://dc.lft.to/lastmile_qr_scan"}, "lon": -77.03202333333333, "type": "electric_scooter", "fusion_lat": 0.0, "lat": 38.911948833333334, "name": "e0b0daca21da790e3fd0121547958e28", "fusion_lon": 0.0, "bike_id": "e0b0daca21da790e3fd0121547958e28", "is_disabled": 0, "is_reserved": 0}, {"rental_uris": {"ios": "https://dc.lft.to/lastmile_qr_scan", "android": "https://dc.lft.to/lastmile_qr_scan"}, "lon": -77.04613066666667, "type": "electric_scooter", "fusion_lat": 0.0, "lat": 38.90198516666667, "name": "26432791c9140f3bc901a0a7cb00223b", "fusion_lon": 0.0, "bike_id": "26432791c9140f3bc901a0a7cb00223b", "is_disabled": 0, "is_reserved": 0}, {"rental_uris": {"ios": "https://dc.lft.to/lastmile_qr_scan", "android": "https://dc.lft.to/lastmile_qr_scan"}, "lon": -77.050336, "type": "electric_scooter", "fusion_lat": 0.0, "lat": 38.89656816666667, "name": "eecea553d2e63fcc56c96252e311ae00", "fusion_lon": 0.0, "bike_id": "eecea553d2e63fcc56c96252e311ae00", "is_disabled": 0, "is_reserved": 0}, {"rental_uris": {"ios": "https://dc.lft.to/lastmile_qr_scan", "android": "https://dc.lft.to/lastmile_qr_scan"}, "lon": -76.97333283333333, "type": "electric_bike", "fusion_lat": 0.0, "lat": 38.85064283333333, "name": "b389eb75ec53ef8cf7dadfaa38edcff1", "fusion_lon": 0.0, "bike_id": "b389eb75ec53ef8cf7dadfaa38edcff1", "is_disabled": 0, "is_reserved": 0}, {"rental_uris": {"ios": "https://dc.lft.to/lastmile_qr_scan", "android": "https://dc.lft.to/lastmile_qr_scan"}, "lon": -77.035886, "type": "electric_scooter", "fusion_lat": 0.0, "lat": 38.93233266666667, "name": "b8cf537b2ec953316a952925bbf763b8", "fusion_lon": 0.0, "bike_id": "b8cf537b2ec953316a952925bbf763b8", "is_disabled": 0, "is_reserved": 0}, {"rental_uris": {"ios": "https://dc.lft.to/lastmile_qr_scan", "android": "https://dc.lft.to/lastmile_qr_scan"}, "lon": -76.986539, "type": "electric_scooter", "fusion_lat": 0.0, "lat": 38.913099, "name": "9d80710f5b02e72c5e412a9aa7ebea11", "fusion_lon": 0.0, "bike_id": "9d80710f5b02e72c5e412a9aa7ebea11", "is_disabled": 0, "is_reserved": 0}, {"rental_uris": {"ios": "https://dc.lft.to/lastmile_qr_scan", "android": "https://dc.lft.to/lastmile_qr_scan"}, "lon": -77.03198633333334, "type": "electric_scooter", "fusion_lat": 0.0, "lat": 38.91606433333333, "name": "4145d7ea980b0b5a24ad7e0ad5f9965a", "fusion_lon": 0.0, "bike_id": "4145d7ea980b0b5a24ad7e0ad5f9965a", "is_disabled": 0, "is_reserved": 0}, {"rental_uris": {"ios": "https://dc.lft.to/lastmile_qr_scan", "android": "https://dc.lft.to/lastmile_qr_scan"}, "lon": -76.946332, "type": "electric_scooter", "fusion_lat": 0.0, "lat": 38.898432166666666, "name": "1c777b9f827bf94120adbd1c88706c62", "fusion_lon": 0.0, "bike_id": "1c777b9f827bf94120adbd1c88706c62", "is_disabled": 0, "is_reserved": 0}, {"rental_uris": {"ios": "https://dc.lft.to/lastmile_qr_scan", "android": "https://dc.lft.to/lastmile_qr_scan"}, "lon": -77.02313166666667, "type": "electric_scooter", "fusion_lat": 0.0, "lat": 38.917808, "name": "ac56aba9a86ddf8ba7c44964906d96b5", "fusion_lon": 0.0, "bike_id": "ac56aba9a86ddf8ba7c44964906d96b5", "is_disabled": 0, "is_reserved": 0}, {"rental_uris": {"ios": "https://dc.lft.to/lastmile_qr_scan", "android": "https://dc.lft.to/lastmile_qr_scan"}, "lon": -77.03169283333334, "type": "electric_scooter", "fusion_lat": 0.0, "lat": 38.913984166666665, "name": "3cbc5e2acd669105bde0bd48ec2e4147", "fusion_lon": 0.0, "bike_id": "3cbc5e2acd669105bde0bd48ec2e4147", "is_disabled": 0, "is_reserved": 0}, {"rental_uris": {"ios": "https://dc.lft.to/lastmile_qr_scan", "android": "https://dc.lft.to/lastmile_qr_scan"}, "lon": -77.02170316666667, "type": "electric_scooter", "fusion_lat": 0.0, "lat": 38.94287633333333, "name": "f292873c9446d77d77ab64e7d926c5cc", "fusion_lon": 0.0, "bike_id": "f292873c9446d77d77ab64e7d926c5cc", "is_disabled": 0, "is_reserved": 0}, {"rental_uris": {"ios": "https://dc.lft.to/lastmile_qr_scan", "android": "https://dc.lft.to/lastmile_qr_scan"}, "lon": -77.048269, "type": "electric_scooter", "fusion_lat": 0.0, "lat": 38.907886, "name": "187dd5f1862ed3fc2d613ca265058f11", "fusion_lon": 0.0, "bike_id": "187dd5f1862ed3fc2d613ca265058f11", "is_disabled": 0, "is_reserved": 0}, {"rental_uris": {"ios": "https://dc.lft.to/lastmile_qr_scan", "android": "https://dc.lft.to/lastmile_qr_scan"}, "lon": -77.0136255, "type": "electric_scooter", "fusion_lat": 0.0, "lat": 38.863726666666665, "name": "1b10ff9ee6d9089dd5d8513b309639a6", "fusion_lon": 0.0, "bike_id": "1b10ff9ee6d9089dd5d8513b309639a6", "is_disabled": 0, "is_reserved": 0}, {"rental_uris": {"ios": "https://dc.lft.to/lastmile_qr_scan", "android": "https://dc.lft.to/lastmile_qr_scan"}, "lon": -77.06656616666666, "type": "electric_bike", "fusion_lat": 0.0, "lat": 38.93249, "name": "1b8820039130ee92b8e62eaf7803f6a2", "fusion_lon": 0.0, "bike_id": "1b8820039130ee92b8e62eaf7803f6a2", "is_disabled": 0, "is_reserved": 0}, {"rental_uris": {"ios": "https://dc.lft.to/lastmile_qr_scan", "android": "https://dc.lft.to/lastmile_qr_scan"}, "lon": -77.06611166666667, "type": "electric_scooter", "fusion_lat": 0.0, "lat": 38.9031505, "name": "fa7dc0c9540d0ecac1d686ab4cea3555", "fusion_lon": 0.0, "bike_id": "fa7dc0c9540d0ecac1d686ab4cea3555", "is_disabled": 0, "is_reserved": 0}, {"rental_uris": {"ios": "https://dc.lft.to/lastmile_qr_scan", "android": "https://dc.lft.to/lastmile_qr_scan"}, "lon": -77.02286916666667, "type": "electric_scooter", "fusion_lat": 0.0, "lat": 38.8970825, "name": "f6fc39c9fad0d2ac04d20f9014177f68", "fusion_lon": 0.0, "bike_id": "f6fc39c9fad0d2ac04d20f9014177f68", "is_disabled": 0, "is_reserved": 0}, {"rental_uris": {"ios": "https://dc.lft.to/lastmile_qr_scan", "android": "https://dc.lft.to/lastmile_qr_scan"}, "lon": -77.06330683333333, "type": "electric_bike", "fusion_lat": 0.0, "lat": 38.921048, "name": "73a2f107636efb19710dcdb211110b8c", "fusion_lon": 0.0, "bike_id": "73a2f107636efb19710dcdb211110b8c", "is_disabled": 0, "is_reserved": 0}, {"rental_uris": {"ios": "https://dc.lft.to/lastmile_qr_scan", "android": "https://dc.lft.to/lastmile_qr_scan"}, "lon": -77.06166333333333, "type": "electric_scooter", "fusion_lat": 0.0, "lat": 38.94800866666667, "name": "97a206c6de711a4573b849c8255e0acf", "fusion_lon": 0.0, "bike_id": "97a206c6de711a4573b849c8255e0acf", "is_disabled": 0, "is_reserved": 0}, {"rental_uris": {"ios": "https://dc.lft.to/lastmile_qr_scan", "android": "https://dc.lft.to/lastmile_qr_scan"}, "lon": -77.1078075, "type": "electric_bike", "fusion_lat": 0.0, "lat": 38.89217683333333, "name": "560b1efd45d9c95560a4cc67ab015b85", "fusion_lon": 0.0, "bike_id": "560b1efd45d9c95560a4cc67ab015b85", "is_disabled": 0, "is_reserved": 0}, {"rental_uris": {"ios": "https://dc.lft.to/lastmile_qr_scan", "android": "https://dc.lft.to/lastmile_qr_scan"}, "lon": -77.05045433333333, "type": "electric_scooter", "fusion_lat": 0.0, "lat": 38.903567, "name": "df6ba57497f27a13838ce1debb21cd96", "fusion_lon": 0.0, "bike_id": "df6ba57497f27a13838ce1debb21cd96", "is_disabled": 0, "is_reserved": 0}, {"rental_uris": {"ios": "https://dc.lft.to/lastmile_qr_scan", "android": "https://dc.lft.to/lastmile_qr_scan"}, "lon": -77.02311016666667, "type": "electric_scooter", "fusion_lat": 0.0, "lat": 38.91770366666667, "name": "917c35ed8190dc0d053d2fd50577cba9", "fusion_lon": 0.0, "bike_id": "917c35ed8190dc0d053d2fd50577cba9", "is_disabled": 0, "is_reserved": 0}, {"rental_uris": {"ios": "https://dc.lft.to/lastmile_qr_scan", "android": "https://dc.lft.to/lastmile_qr_scan"}, "lon": -77.03324583333334, "type": "electric_scooter", "fusion_lat": 0.0, "lat": 38.898263, "name": "45b3d03f9c845b4953c44a8971233314", "fusion_lon": 0.0, "bike_id": "45b3d03f9c845b4953c44a8971233314", "is_disabled": 0, "is_reserved": 0}, {"rental_uris": {"ios": "https://dc.lft.to/lastmile_qr_scan", "android": "https://dc.lft.to/lastmile_qr_scan"}, "lon": -77.06998766666666, "type": "electric_bike", "fusion_lat": 0.0, "lat": 38.9549905, "name": "1648f43ec53c329c981769e27fa0caaf", "fusion_lon": 0.0, "bike_id": "1648f43ec53c329c981769e27fa0caaf", "is_disabled": 0, "is_reserved": 0}, {"rental_uris": {"ios": "https://dc.lft.to/lastmile_qr_scan", "android": "https://dc.lft.to/lastmile_qr_scan"}, "lon": -77.029495, "type": "electric_scooter", "fusion_lat": 0.0, "lat": 38.91551483333333, "name": "e961a90324779c9c42d7c7f1fc90beec", "fusion_lon": 0.0, "bike_id": "e961a90324779c9c42d7c7f1fc90beec", "is_disabled": 0, "is_reserved": 0}, {"rental_uris": {"ios": "https://dc.lft.to/lastmile_qr_scan", "android": "https://dc.lft.to/lastmile_qr_scan"}, "lon": -77.024238, "type": "electric_scooter", "fusion_lat": 0.0, "lat": 38.9057425, "name": "8d03461ced9d58e80923b85f4182580f", "fusion_lon": 0.0, "bike_id": "8d03461ced9d58e80923b85f4182580f", "is_disabled": 0, "is_reserved": 0}, {"rental_uris": {"ios": "https://dc.lft.to/lastmile_qr_scan", "android": "https://dc.lft.to/lastmile_qr_scan"}, "lon": -77.0217445, "type": "electric_scooter", "fusion_lat": 0.0, "lat": 38.9428605, "name": "50df8c3e101c52e1275de57769cd9516", "fusion_lon": 0.0, "bike_id": "50df8c3e101c52e1275de57769cd9516", "is_disabled": 0, "is_reserved": 0}, {"rental_uris": {"ios": "https://dc.lft.to/lastmile_qr_scan", "android": "https://dc.lft.to/lastmile_qr_scan"}, "lon": -77.009845, "type": "electric_scooter", "fusion_lat": 0.0, "lat": 38.87290633333333, "name": "b81396584afec92e9674eb816541327a", "fusion_lon": 0.0, "bike_id": "b81396584afec92e9674eb816541327a", "is_disabled": 0, "is_reserved": 0}, {"rental_uris": {"ios": "https://dc.lft.to/lastmile_qr_scan", "android": "https://dc.lft.to/lastmile_qr_scan"}, "lon": -77.014023, "type": "electric_scooter", "fusion_lat": 0.0, "lat": 38.892248333333335, "name": "39e8fdc785ceccadd3a14c9c911a78fa", "fusion_lon": 0.0, "bike_id": "39e8fdc785ceccadd3a14c9c911a78fa", "is_disabled": 0, "is_reserved": 0}, {"rental_uris": {"ios": "https://dc.lft.to/lastmile_qr_scan", "android": "https://dc.lft.to/lastmile_qr_scan"}, "lon": -76.989045, "type": "electric_scooter", "fusion_lat": 0.0, "lat": 38.866924833333336, "name": "a33a2aec4ea14eab7e84cf4b3cb6d4a2", "fusion_lon": 0.0, "bike_id": "a33a2aec4ea14eab7e84cf4b3cb6d4a2", "is_disabled": 0, "is_reserved": 0}, {"rental_uris": {"ios": "https://dc.lft.to/lastmile_qr_scan", "android": "https://dc.lft.to/lastmile_qr_scan"}, "lon": -77.04017233333333, "type": "electric_scooter", "fusion_lat": 0.0, "lat": 38.921802, "name": "3752eac06ac212b05de335346d9279fa", "fusion_lon": 0.0, "bike_id": "3752eac06ac212b05de335346d9279fa", "is_disabled": 0, "is_reserved": 0}, {"rental_uris": {"ios": "https://dc.lft.to/lastmile_qr_scan", "android": "https://dc.lft.to/lastmile_qr_scan"}, "lon": -76.98953366666667, "type": "electric_scooter", "fusion_lat": 0.0, "lat": 38.901290833333334, "name": "30f0a0c3203f834dcbc468491f555cd3", "fusion_lon": 0.0, "bike_id": "30f0a0c3203f834dcbc468491f555cd3", "is_disabled": 0, "is_reserved": 0}, {"rental_uris": {"ios": "https://dc.lft.to/lastmile_qr_scan", "android": "https://dc.lft.to/lastmile_qr_scan"}, "lon": -77.03464333333334, "type": "electric_scooter", "fusion_lat": 0.0, "lat": 38.9063715, "name": "fd9c4a25758c919053472399d63e9ba1", "fusion_lon": 0.0, "bike_id": "fd9c4a25758c919053472399d63e9ba1", "is_disabled": 0, "is_reserved": 0}, {"rental_uris": {"ios": "https://dc.lft.to/lastmile_qr_scan", "android": "https://dc.lft.to/lastmile_qr_scan"}, "lon": -77.0436465, "type": "electric_scooter", "fusion_lat": 0.0, "lat": 38.89228933333333, "name": "1dde8e9eab9bdd61df84cd24b31e6297", "fusion_lon": 0.0, "bike_id": "1dde8e9eab9bdd61df84cd24b31e6297", "is_disabled": 0, "is_reserved": 0}, {"rental_uris": {"ios": "https://dc.lft.to/lastmile_qr_scan", "android": "https://dc.lft.to/lastmile_qr_scan"}, "lon": -77.01231166666666, "type": "electric_scooter", "fusion_lat": 0.0, "lat": 38.90025266666667, "name": "6131dd19689aaf861a389341e6879479", "fusion_lon": 0.0, "bike_id": "6131dd19689aaf861a389341e6879479", "is_disabled": 0, "is_reserved": 0}, {"rental_uris": {"ios": "https://dc.lft.to/lastmile_qr_scan", "android": "https://dc.lft.to/lastmile_qr_scan"}, "lon": -77.01989783333333, "type": "electric_scooter", "fusion_lat": 0.0, "lat": 38.877465666666666, "name": "31b18c910b009593d1a6f3ed0195b274", "fusion_lon": 0.0, "bike_id": "31b18c910b009593d1a6f3ed0195b274", "is_disabled": 0, "is_reserved": 0}, {"rental_uris": {"ios": "https://dc.lft.to/lastmile_qr_scan", "android": "https://dc.lft.to/lastmile_qr_scan"}, "lon": -77.03437166666667, "type": "electric_scooter", "fusion_lat": 0.0, "lat": 38.91024433333333, "name": "56a3ea476ce607414bfe5a26661e0b04", "fusion_lon": 0.0, "bike_id": "56a3ea476ce607414bfe5a26661e0b04", "is_disabled": 0, "is_reserved": 0}, {"rental_uris": {"ios": "https://dc.lft.to/lastmile_qr_scan", "android": "https://dc.lft.to/lastmile_qr_scan"}, "lon": -77.07778383333333, "type": "electric_scooter", "fusion_lat": 0.0, "lat": 38.945565333333334, "name": "2ad6362b7c1a40542024cac2b0732ec6", "fusion_lon": 0.0, "bike_id": "2ad6362b7c1a40542024cac2b0732ec6", "is_disabled": 0, "is_reserved": 0}, {"rental_uris": {"ios": "https://dc.lft.to/lastmile_qr_scan", "android": "https://dc.lft.to/lastmile_qr_scan"}, "lon": -77.062647, "type": "electric_scooter", "fusion_lat": 0.0, "lat": 38.9027465, "name": "a4fb998d5269f39990c1feb6a84716de", "fusion_lon": 0.0, "bike_id": "a4fb998d5269f39990c1feb6a84716de", "is_disabled": 0, "is_reserved": 0}, {"rental_uris": {"ios": "https://dc.lft.to/lastmile_qr_scan", "android": "https://dc.lft.to/lastmile_qr_scan"}, "lon": -76.98846066666667, "type": "electric_bike", "fusion_lat": 0.0, "lat": 38.842674, "name": "d19bb32fe65ccdf88b65a2c89d7121d0", "fusion_lon": 0.0, "bike_id": "d19bb32fe65ccdf88b65a2c89d7121d0", "is_disabled": 0, "is_reserved": 0}, {"rental_uris": {"ios": "https://dc.lft.to/lastmile_qr_scan", "android": "https://dc.lft.to/lastmile_qr_scan"}, "lon": -77.04905966666666, "type": "electric_scooter", "fusion_lat": 0.0, "lat": 38.903772000000004, "name": "459f3b2180ce1826f91de454aebc116c", "fusion_lon": 0.0, "bike_id": "459f3b2180ce1826f91de454aebc116c", "is_disabled": 0, "is_reserved": 0}, {"rental_uris": {"ios": "https://dc.lft.to/lastmile_qr_scan", "android": "https://dc.lft.to/lastmile_qr_scan"}, "lon": -77.03848166666667, "type": "electric_scooter", "fusion_lat": 0.0, "lat": 38.90463333333334, "name": "0c4f6b3ecf96a4f43c4eb9a992a20b2c", "fusion_lon": 0.0, "bike_id": "0c4f6b3ecf96a4f43c4eb9a992a20b2c", "is_disabled": 0, "is_reserved": 0}, {"rental_uris": {"ios": "https://dc.lft.to/lastmile_qr_scan", "android": "https://dc.lft.to/lastmile_qr_scan"}, "lon": -77.04480316666667, "type": "electric_scooter", "fusion_lat": 0.0, "lat": 38.922337, "name": "931300844bfb86264d9bdce285d68501", "fusion_lon": 0.0, "bike_id": "931300844bfb86264d9bdce285d68501", "is_disabled": 0, "is_reserved": 0}, {"rental_uris": {"ios": "https://dc.lft.to/lastmile_qr_scan", "android": "https://dc.lft.to/lastmile_qr_scan"}, "lon": -77.0418635, "type": "electric_scooter", "fusion_lat": 0.0, "lat": 38.921975, "name": "a9daa2bdc301a84c07f0157b3d20210a", "fusion_lon": 0.0, "bike_id": "a9daa2bdc301a84c07f0157b3d20210a", "is_disabled": 0, "is_reserved": 0}, {"rental_uris": {"ios": "https://dc.lft.to/lastmile_qr_scan", "android": "https://dc.lft.to/lastmile_qr_scan"}, "lon": -77.04191716666666, "type": "electric_scooter", "fusion_lat": 0.0, "lat": 38.920125666666664, "name": "cb19ee5de4d5d88bd53e36f2277f9b5d", "fusion_lon": 0.0, "bike_id": "cb19ee5de4d5d88bd53e36f2277f9b5d", "is_disabled": 0, "is_reserved": 0}, {"rental_uris": {"ios": "https://dc.lft.to/lastmile_qr_scan", "android": "https://dc.lft.to/lastmile_qr_scan"}, "lon": -77.0702995, "type": "electric_bike", "fusion_lat": 0.0, "lat": 38.906220166666664, "name": "03aa16494f26192da6dbc9de50cc2ee6", "fusion_lon": 0.0, "bike_id": "03aa16494f26192da6dbc9de50cc2ee6", "is_disabled": 0, "is_reserved": 0}, {"rental_uris": {"ios": "https://dc.lft.to/lastmile_qr_scan", "android": "https://dc.lft.to/lastmile_qr_scan"}, "lon": -76.996142, "type": "electric_scooter", "fusion_lat": 0.0, "lat": 38.89732466666667, "name": "da9ede92f0a7878003458b81d714a48c", "fusion_lon": 0.0, "bike_id": "da9ede92f0a7878003458b81d714a48c", "is_disabled": 0, "is_reserved": 0}, {"rental_uris": {"ios": "https://dc.lft.to/lastmile_qr_scan", "android": "https://dc.lft.to/lastmile_qr_scan"}, "lon": -76.99685616666666, "type": "electric_scooter", "fusion_lat": 0.0, "lat": 38.908237, "name": "77b0b14fed6ff279273e8799bda6e3f9", "fusion_lon": 0.0, "bike_id": "77b0b14fed6ff279273e8799bda6e3f9", "is_disabled": 0, "is_reserved": 0}, {"rental_uris": {"ios": "https://dc.lft.to/lastmile_qr_scan", "android": "https://dc.lft.to/lastmile_qr_scan"}, "lon": -77.04260516666666, "type": "electric_scooter", "fusion_lat": 0.0, "lat": 38.92226683333333, "name": "128b58267482fabb1744595d5c3f903b", "fusion_lon": 0.0, "bike_id": "128b58267482fabb1744595d5c3f903b", "is_disabled": 0, "is_reserved": 0}, {"rental_uris": {"ios": "https://dc.lft.to/lastmile_qr_scan", "android": "https://dc.lft.to/lastmile_qr_scan"}, "lon": -77.052331, "type": "electric_scooter", "fusion_lat": 0.0, "lat": 38.92456983333334, "name": "9cb2fb65969a90bbfc11ec5196a33bb1", "fusion_lon": 0.0, "bike_id": "9cb2fb65969a90bbfc11ec5196a33bb1", "is_disabled": 0, "is_reserved": 0}, {"rental_uris": {"ios": "https://dc.lft.to/lastmile_qr_scan", "android": "https://dc.lft.to/lastmile_qr_scan"}, "lon": -77.05335133333334, "type": "electric_scooter", "fusion_lat": 0.0, "lat": 38.902202333333335, "name": "c93d7893f4d6e9ac40db9ba58a0b5105", "fusion_lon": 0.0, "bike_id": "c93d7893f4d6e9ac40db9ba58a0b5105", "is_disabled": 0, "is_reserved": 0}, {"rental_uris": {"ios": "https://dc.lft.to/lastmile_qr_scan", "android": "https://dc.lft.to/lastmile_qr_scan"}, "lon": -76.93244433333334, "type": "electric_bike", "fusion_lat": 0.0, "lat": 38.882718, "name": "57eaab7a94e91d44488c93ae8f190a66", "fusion_lon": 0.0, "bike_id": "57eaab7a94e91d44488c93ae8f190a66", "is_disabled": 0, "is_reserved": 0}, {"rental_uris": {"ios": "https://dc.lft.to/lastmile_qr_scan", "android": "https://dc.lft.to/lastmile_qr_scan"}, "lon": -77.023989, "type": "electric_scooter", "fusion_lat": 0.0, "lat": 38.935762, "name": "f89a46d025e63e87c02c87b68b76e8c5", "fusion_lon": 0.0, "bike_id": "f89a46d025e63e87c02c87b68b76e8c5", "is_disabled": 0, "is_reserved": 0}, {"rental_uris": {"ios": "https://dc.lft.to/lastmile_qr_scan", "android": "https://dc.lft.to/lastmile_qr_scan"}, "lon": -77.02357283333333, "type": "electric_scooter", "fusion_lat": 0.0, "lat": 38.924982166666666, "name": "02319a1b016bc86ea575c5a1293afba2", "fusion_lon": 0.0, "bike_id": "02319a1b016bc86ea575c5a1293afba2", "is_disabled": 0, "is_reserved": 0}, {"rental_uris": {"ios": "https://dc.lft.to/lastmile_qr_scan", "android": "https://dc.lft.to/lastmile_qr_scan"}, "lon": -77.03417266666666, "type": "electric_scooter", "fusion_lat": 0.0, "lat": 38.93539116666667, "name": "5a986513b6db37e130fe26c4ea15a1a9", "fusion_lon": 0.0, "bike_id": "5a986513b6db37e130fe26c4ea15a1a9", "is_disabled": 0, "is_reserved": 0}, {"rental_uris": {"ios": "https://dc.lft.to/lastmile_qr_scan", "android": "https://dc.lft.to/lastmile_qr_scan"}, "lon": -77.03384133333333, "type": "electric_scooter", "fusion_lat": 0.0, "lat": 38.92154416666666, "name": "6028f5e71c28c327bb05cf40e6f4d9fd", "fusion_lon": 0.0, "bike_id": "6028f5e71c28c327bb05cf40e6f4d9fd", "is_disabled": 0, "is_reserved": 0}, {"rental_uris": {"ios": "https://dc.lft.to/lastmile_qr_scan", "android": "https://dc.lft.to/lastmile_qr_scan"}, "lon": -77.013043, "type": "electric_scooter", "fusion_lat": 0.0, "lat": 38.900364, "name": "7166405047313360dfc47c2945aeaa54", "fusion_lon": 0.0, "bike_id": "7166405047313360dfc47c2945aeaa54", "is_disabled": 0, "is_reserved": 0}, {"rental_uris": {"ios": "https://dc.lft.to/lastmile_qr_scan", "android": "https://dc.lft.to/lastmile_qr_scan"}, "lon": -77.04811266666667, "type": "electric_scooter", "fusion_lat": 0.0, "lat": 38.920321333333334, "name": "df21ebf51ce8ca727b29a2c349a6e53d", "fusion_lon": 0.0, "bike_id": "df21ebf51ce8ca727b29a2c349a6e53d", "is_disabled": 0, "is_reserved": 0}, {"rental_uris": {"ios": "https://dc.lft.to/lastmile_qr_scan", "android": "https://dc.lft.to/lastmile_qr_scan"}, "lon": -77.04007, "type": "electric_scooter", "fusion_lat": 0.0, "lat": 38.921347, "name": "4cd55dd1717fb9a41d89d77358f0bc28", "fusion_lon": 0.0, "bike_id": "4cd55dd1717fb9a41d89d77358f0bc28", "is_disabled": 0, "is_reserved": 0}, {"rental_uris": {"ios": "https://dc.lft.to/lastmile_qr_scan", "android": "https://dc.lft.to/lastmile_qr_scan"}, "lon": -77.0242855, "type": "electric_scooter", "fusion_lat": 0.0, "lat": 38.936074833333336, "name": "87e7aec804ff44e6950deab029aed2c2", "fusion_lon": 0.0, "bike_id": "87e7aec804ff44e6950deab029aed2c2", "is_disabled": 0, "is_reserved": 0}, {"rental_uris": {"ios": "https://dc.lft.to/lastmile_qr_scan", "android": "https://dc.lft.to/lastmile_qr_scan"}, "lon": -77.02072716666666, "type": "electric_scooter", "fusion_lat": 0.0, "lat": 38.899579333333335, "name": "073d44074cad7b1fc872c2096538eb08", "fusion_lon": 0.0, "bike_id": "073d44074cad7b1fc872c2096538eb08", "is_disabled": 0, "is_reserved": 0}, {"rental_uris": {"ios": "https://dc.lft.to/lastmile_qr_scan", "android": "https://dc.lft.to/lastmile_qr_scan"}, "lon": -77.001954, "type": "electric_scooter", "fusion_lat": 0.0, "lat": 38.900385666666665, "name": "a64554083d91b9915f1c28134505e634", "fusion_lon": 0.0, "bike_id": "a64554083d91b9915f1c28134505e634", "is_disabled": 0, "is_reserved": 0}, {"rental_uris": {"ios": "https://dc.lft.to/lastmile_qr_scan", "android": "https://dc.lft.to/lastmile_qr_scan"}, "lon": -77.01949366666666, "type": "electric_scooter", "fusion_lat": 0.0, "lat": 38.949966333333336, "name": "9c62acfd5e98ebf68787649bb1ad0839", "fusion_lon": 0.0, "bike_id": "9c62acfd5e98ebf68787649bb1ad0839", "is_disabled": 0, "is_reserved": 0}, {"rental_uris": {"ios": "https://dc.lft.to/lastmile_qr_scan", "android": "https://dc.lft.to/lastmile_qr_scan"}, "lon": -77.0379605, "type": "electric_scooter", "fusion_lat": 0.0, "lat": 38.925029, "name": "47447f77e86f1ab5fb2a5bfdd431532c", "fusion_lon": 0.0, "bike_id": "47447f77e86f1ab5fb2a5bfdd431532c", "is_disabled": 0, "is_reserved": 0}, {"rental_uris": {"ios": "https://dc.lft.to/lastmile_qr_scan", "android": "https://dc.lft.to/lastmile_qr_scan"}, "lon": -76.908165, "type": "electric_bike", "fusion_lat": 0.0, "lat": 38.994536333333336, "name": "4877318aab44d849d0eabd973b50b49c", "fusion_lon": 0.0, "bike_id": "4877318aab44d849d0eabd973b50b49c", "is_disabled": 0, "is_reserved": 0}, {"rental_uris": {"ios": "https://dc.lft.to/lastmile_qr_scan", "android": "https://dc.lft.to/lastmile_qr_scan"}, "lon": -77.0481325, "type": "electric_scooter", "fusion_lat": 0.0, "lat": 38.913245333333336, "name": "9ea57fcfcc131531ffc02bc508b28265", "fusion_lon": 0.0, "bike_id": "9ea57fcfcc131531ffc02bc508b28265", "is_disabled": 0, "is_reserved": 0}, {"rental_uris": {"ios": "https://dc.lft.to/lastmile_qr_scan", "android": "https://dc.lft.to/lastmile_qr_scan"}, "lon": -77.04214666666667, "type": "electric_scooter", "fusion_lat": 0.0, "lat": 38.9230505, "name": "7dc350a95ed28ba62d6ea753cf40900d", "fusion_lon": 0.0, "bike_id": "7dc350a95ed28ba62d6ea753cf40900d", "is_disabled": 0, "is_reserved": 0}, {"rental_uris": {"ios": "https://dc.lft.to/lastmile_qr_scan", "android": "https://dc.lft.to/lastmile_qr_scan"}, "lon": -76.99951533333333, "type": "electric_scooter", "fusion_lat": 0.0, "lat": 38.908567166666664, "name": "ae06548e15a8a2fc88e3239a00632560", "fusion_lon": 0.0, "bike_id": "ae06548e15a8a2fc88e3239a00632560", "is_disabled": 0, "is_reserved": 0}, {"rental_uris": {"ios": "https://dc.lft.to/lastmile_qr_scan", "android": "https://dc.lft.to/lastmile_qr_scan"}, "lon": -77.05918166666666, "type": "electric_scooter", "fusion_lat": 0.0, "lat": 38.905455, "name": "b1861590560dbd25ae89d7ff49705d1f", "fusion_lon": 0.0, "bike_id": "b1861590560dbd25ae89d7ff49705d1f", "is_disabled": 0, "is_reserved": 0}, {"rental_uris": {"ios": "https://dc.lft.to/lastmile_qr_scan", "android": "https://dc.lft.to/lastmile_qr_scan"}, "lon": -77.01636533333334, "type": "electric_bike", "fusion_lat": 0.0, "lat": 38.87210116666667, "name": "92899d9be1a895d852af272c324806eb", "fusion_lon": 0.0, "bike_id": "92899d9be1a895d852af272c324806eb", "is_disabled": 0, "is_reserved": 0}, {"rental_uris": {"ios": "https://dc.lft.to/lastmile_qr_scan", "android": "https://dc.lft.to/lastmile_qr_scan"}, "lon": -77.0275905, "type": "electric_scooter", "fusion_lat": 0.0, "lat": 38.9050725, "name": "367d346e4c971489aa150164fd6352ac", "fusion_lon": 0.0, "bike_id": "367d346e4c971489aa150164fd6352ac", "is_disabled": 0, "is_reserved": 0}, {"rental_uris": {"ios": "https://dc.lft.to/lastmile_qr_scan", "android": "https://dc.lft.to/lastmile_qr_scan"}, "lon": -77.02269383333334, "type": "electric_scooter", "fusion_lat": 0.0, "lat": 38.92411516666667, "name": "98c99c1033b57f26b8a36b2267d85f04", "fusion_lon": 0.0, "bike_id": "98c99c1033b57f26b8a36b2267d85f04", "is_disabled": 0, "is_reserved": 0}, {"rental_uris": {"ios": "https://dc.lft.to/lastmile_qr_scan", "android": "https://dc.lft.to/lastmile_qr_scan"}, "lon": -77.0314295, "type": "electric_scooter", "fusion_lat": 0.0, "lat": 38.92716933333333, "name": "43f929142b52231c0aaf623b605d4fa6", "fusion_lon": 0.0, "bike_id": "43f929142b52231c0aaf623b605d4fa6", "is_disabled": 0, "is_reserved": 0}, {"rental_uris": {"ios": "https://dc.lft.to/lastmile_qr_scan", "android": "https://dc.lft.to/lastmile_qr_scan"}, "lon": -76.97887533333333, "type": "electric_scooter", "fusion_lat": 0.0, "lat": 38.9167115, "name": "4b20bbf59e68adb44dd40065eadbb5ed", "fusion_lon": 0.0, "bike_id": "4b20bbf59e68adb44dd40065eadbb5ed", "is_disabled": 0, "is_reserved": 0}, {"rental_uris": {"ios": "https://dc.lft.to/lastmile_qr_scan", "android": "https://dc.lft.to/lastmile_qr_scan"}, "lon": -76.98775266666667, "type": "electric_scooter", "fusion_lat": 0.0, "lat": 38.91169266666667, "name": "c3f2637810d6e9208ceae000ff9dd4ab", "fusion_lon": 0.0, "bike_id": "c3f2637810d6e9208ceae000ff9dd4ab", "is_disabled": 0, "is_reserved": 0}, {"rental_uris": {"ios": "https://dc.lft.to/lastmile_qr_scan", "android": "https://dc.lft.to/lastmile_qr_scan"}, "lon": -77.03217266666667, "type": "electric_scooter", "fusion_lat": 0.0, "lat": 38.9181405, "name": "ec799a8f7e0b351ea1c5f93b9396dc68", "fusion_lon": 0.0, "bike_id": "ec799a8f7e0b351ea1c5f93b9396dc68", "is_disabled": 0, "is_reserved": 0}, {"rental_uris": {"ios": "https://dc.lft.to/lastmile_qr_scan", "android": "https://dc.lft.to/lastmile_qr_scan"}, "lon": -77.00852483333334, "type": "electric_scooter", "fusion_lat": 0.0, "lat": 38.92588116666667, "name": "fb495be5e72a3bdd12c6a7ff222e2b4c", "fusion_lon": 0.0, "bike_id": "fb495be5e72a3bdd12c6a7ff222e2b4c", "is_disabled": 0, "is_reserved": 0}, {"rental_uris": {"ios": "https://dc.lft.to/lastmile_qr_scan", "android": "https://dc.lft.to/lastmile_qr_scan"}, "lon": -76.99541616666667, "type": "electric_scooter", "fusion_lat": 0.0, "lat": 38.926594333333334, "name": "6dc3adf28a8f709f0298a2f5cc15fad2", "fusion_lon": 0.0, "bike_id": "6dc3adf28a8f709f0298a2f5cc15fad2", "is_disabled": 0, "is_reserved": 0}, {"rental_uris": {"ios": "https://dc.lft.to/lastmile_qr_scan", "android": "https://dc.lft.to/lastmile_qr_scan"}, "lon": -77.08365833333333, "type": "electric_scooter", "fusion_lat": 0.0, "lat": 38.93024116666667, "name": "c07a69b5c3f5a04772cbf26124452df2", "fusion_lon": 0.0, "bike_id": "c07a69b5c3f5a04772cbf26124452df2", "is_disabled": 0, "is_reserved": 0}, {"rental_uris": {"ios": "https://dc.lft.to/lastmile_qr_scan", "android": "https://dc.lft.to/lastmile_qr_scan"}, "lon": -77.051331, "type": "electric_scooter", "fusion_lat": 0.0, "lat": 38.902325833333336, "name": "b130bae51015ff3b4bfcd6208aad871a", "fusion_lon": 0.0, "bike_id": "b130bae51015ff3b4bfcd6208aad871a", "is_disabled": 0, "is_reserved": 0}, {"rental_uris": {"ios": "https://dc.lft.to/lastmile_qr_scan", "android": "https://dc.lft.to/lastmile_qr_scan"}, "lon": -77.0392985, "type": "electric_scooter", "fusion_lat": 0.0, "lat": 38.89955483333333, "name": "f1b5f9832b9a727cb4109de0c2c1e22a", "fusion_lon": 0.0, "bike_id": "f1b5f9832b9a727cb4109de0c2c1e22a", "is_disabled": 0, "is_reserved": 0}, {"rental_uris": {"ios": "https://dc.lft.to/lastmile_qr_scan", "android": "https://dc.lft.to/lastmile_qr_scan"}, "lon": -77.01757783333333, "type": "electric_scooter", "fusion_lat": 0.0, "lat": 38.93891033333333, "name": "b0b38e2dc1d59c302642d04cea6a3f7e", "fusion_lon": 0.0, "bike_id": "b0b38e2dc1d59c302642d04cea6a3f7e", "is_disabled": 0, "is_reserved": 0}, {"rental_uris": {"ios": "https://dc.lft.to/lastmile_qr_scan", "android": "https://dc.lft.to/lastmile_qr_scan"}, "lon": -77.05146233333333, "type": "electric_scooter", "fusion_lat": 0.0, "lat": 38.89750883333333, "name": "7283443597123b5e770fd5bb2ce6b1db", "fusion_lon": 0.0, "bike_id": "7283443597123b5e770fd5bb2ce6b1db", "is_disabled": 0, "is_reserved": 0}, {"rental_uris": {"ios": "https://dc.lft.to/lastmile_qr_scan", "android": "https://dc.lft.to/lastmile_qr_scan"}, "lon": -77.02995283333334, "type": "electric_scooter", "fusion_lat": 0.0, "lat": 38.9247275, "name": "3c8004bc2ded25bc5e728beba52944f2", "fusion_lon": 0.0, "bike_id": "3c8004bc2ded25bc5e728beba52944f2", "is_disabled": 0, "is_reserved": 0}, {"rental_uris": {"ios": "https://dc.lft.to/lastmile_qr_scan", "android": "https://dc.lft.to/lastmile_qr_scan"}, "lon": -77.0260735, "type": "electric_scooter", "fusion_lat": 0.0, "lat": 38.916843666666665, "name": "957460a779f86e0b535b24311b4baa4c", "fusion_lon": 0.0, "bike_id": "957460a779f86e0b535b24311b4baa4c", "is_disabled": 0, "is_reserved": 0}, {"rental_uris": {"ios": "https://dc.lft.to/lastmile_qr_scan", "android": "https://dc.lft.to/lastmile_qr_scan"}, "lon": -77.127421, "type": "electric_bike", "fusion_lat": 0.0, "lat": 38.88818116666667, "name": "749cbe11a585a175aa3d410f648e4548", "fusion_lon": 0.0, "bike_id": "749cbe11a585a175aa3d410f648e4548", "is_disabled": 0, "is_reserved": 0}, {"rental_uris": {"ios": "https://dc.lft.to/lastmile_qr_scan", "android": "https://dc.lft.to/lastmile_qr_scan"}, "lon": -76.93801383333333, "type": "electric_scooter", "fusion_lat": 0.0, "lat": 38.91272433333334, "name": "9e242a075cc7684b9715dad5ad2e49ce", "fusion_lon": 0.0, "bike_id": "9e242a075cc7684b9715dad5ad2e49ce", "is_disabled": 0, "is_reserved": 0}, {"rental_uris": {"ios": "https://dc.lft.to/lastmile_qr_scan", "android": "https://dc.lft.to/lastmile_qr_scan"}, "lon": -77.03258616666666, "type": "electric_scooter", "fusion_lat": 0.0, "lat": 38.91108716666667, "name": "75e5dbf187fd9c08a09d9fc9a28b5a32", "fusion_lon": 0.0, "bike_id": "75e5dbf187fd9c08a09d9fc9a28b5a32", "is_disabled": 0, "is_reserved": 0}, {"rental_uris": {"ios": "https://dc.lft.to/lastmile_qr_scan", "android": "https://dc.lft.to/lastmile_qr_scan"}, "lon": -77.00517483333333, "type": "electric_scooter", "fusion_lat": 0.0, "lat": 38.896705, "name": "8532d70b10ce07559ab269b8e57c3f09", "fusion_lon": 0.0, "bike_id": "8532d70b10ce07559ab269b8e57c3f09", "is_disabled": 0, "is_reserved": 0}, {"rental_uris": {"ios": "https://dc.lft.to/lastmile_qr_scan", "android": "https://dc.lft.to/lastmile_qr_scan"}, "lon": -77.03739966666667, "type": "electric_scooter", "fusion_lat": 0.0, "lat": 38.91700316666667, "name": "c2af1d253cbe4c68427e81aed35b3e13", "fusion_lon": 0.0, "bike_id": "c2af1d253cbe4c68427e81aed35b3e13", "is_disabled": 0, "is_reserved": 0}, {"rental_uris": {"ios": "https://dc.lft.to/lastmile_qr_scan", "android": "https://dc.lft.to/lastmile_qr_scan"}, "lon": -76.998286, "type": "electric_scooter", "fusion_lat": 0.0, "lat": 38.923295333333336, "name": "cc7c9d9250159192e68fd33d072151b7", "fusion_lon": 0.0, "bike_id": "cc7c9d9250159192e68fd33d072151b7", "is_disabled": 0, "is_reserved": 0}, {"rental_uris": {"ios": "https://dc.lft.to/lastmile_qr_scan", "android": "https://dc.lft.to/lastmile_qr_scan"}, "lon": -76.97260466666667, "type": "electric_bike", "fusion_lat": 0.0, "lat": 38.91973, "name": "12e4f857149a22e718a43017d5551ddc", "fusion_lon": 0.0, "bike_id": "12e4f857149a22e718a43017d5551ddc", "is_disabled": 0, "is_reserved": 0}, {"rental_uris": {"ios": "https://dc.lft.to/lastmile_qr_scan", "android": "https://dc.lft.to/lastmile_qr_scan"}, "lon": -77.02590766666667, "type": "electric_scooter", "fusion_lat": 0.0, "lat": 38.8807845, "name": "d02dd28bea99735ebf8b38a2ce441bc0", "fusion_lon": 0.0, "bike_id": "d02dd28bea99735ebf8b38a2ce441bc0", "is_disabled": 0, "is_reserved": 0}, {"rental_uris": {"ios": "https://dc.lft.to/lastmile_qr_scan", "android": "https://dc.lft.to/lastmile_qr_scan"}, "lon": -77.023716, "type": "electric_scooter", "fusion_lat": 0.0, "lat": 38.9369265, "name": "246a1210ff5ee42ee9302bef12059e8d", "fusion_lon": 0.0, "bike_id": "246a1210ff5ee42ee9302bef12059e8d", "is_disabled": 0, "is_reserved": 0}, {"rental_uris": {"ios": "https://dc.lft.to/lastmile_qr_scan", "android": "https://dc.lft.to/lastmile_qr_scan"}, "lon": -77.11058733333333, "type": "electric_bike", "fusion_lat": 0.0, "lat": 38.870564, "name": "b87b2c3be54eeec2fd7c4a945a944830", "fusion_lon": 0.0, "bike_id": "b87b2c3be54eeec2fd7c4a945a944830", "is_disabled": 0, "is_reserved": 0}, {"rental_uris": {"ios": "https://dc.lft.to/lastmile_qr_scan", "android": "https://dc.lft.to/lastmile_qr_scan"}, "lon": -77.04037983333333, "type": "electric_scooter", "fusion_lat": 0.0, "lat": 38.924613666666666, "name": "a9aba62c370ed77346aae26f945a091a", "fusion_lon": 0.0, "bike_id": "a9aba62c370ed77346aae26f945a091a", "is_disabled": 0, "is_reserved": 0}, {"rental_uris": {"ios": "https://dc.lft.to/lastmile_qr_scan", "android": "https://dc.lft.to/lastmile_qr_scan"}, "lon": -76.98022516666667, "type": "electric_scooter", "fusion_lat": 0.0, "lat": 38.88758, "name": "4202f9c7708df2c6e773c31adb315c41", "fusion_lon": 0.0, "bike_id": "4202f9c7708df2c6e773c31adb315c41", "is_disabled": 0, "is_reserved": 0}, {"rental_uris": {"ios": "https://dc.lft.to/lastmile_qr_scan", "android": "https://dc.lft.to/lastmile_qr_scan"}, "lon": -77.02497716666667, "type": "electric_scooter", "fusion_lat": 0.0, "lat": 38.91803, "name": "615f98bbd0cd7a7514b30040e4328122", "fusion_lon": 0.0, "bike_id": "615f98bbd0cd7a7514b30040e4328122", "is_disabled": 0, "is_reserved": 0}, {"rental_uris": {"ios": "https://dc.lft.to/lastmile_qr_scan", "android": "https://dc.lft.to/lastmile_qr_scan"}, "lon": -77.0472705, "type": "electric_scooter", "fusion_lat": 0.0, "lat": 38.89735733333333, "name": "2fc72d73e81c2990ed45f8a0893f001b", "fusion_lon": 0.0, "bike_id": "2fc72d73e81c2990ed45f8a0893f001b", "is_disabled": 0, "is_reserved": 0}, {"rental_uris": {"ios": "https://dc.lft.to/lastmile_qr_scan", "android": "https://dc.lft.to/lastmile_qr_scan"}, "lon": -77.0331995, "type": "electric_scooter", "fusion_lat": 0.0, "lat": 38.92638216666667, "name": "33c6f94b191c14d163bcbed0258ee44d", "fusion_lon": 0.0, "bike_id": "33c6f94b191c14d163bcbed0258ee44d", "is_disabled": 0, "is_reserved": 0}, {"rental_uris": {"ios": "https://dc.lft.to/lastmile_qr_scan", "android": "https://dc.lft.to/lastmile_qr_scan"}, "lon": -77.07026083333334, "type": "electric_bike", "fusion_lat": 0.0, "lat": 38.9187235, "name": "d96f588d2c1c8d7f27a19e0bc06424a4", "fusion_lon": 0.0, "bike_id": "d96f588d2c1c8d7f27a19e0bc06424a4", "is_disabled": 0, "is_reserved": 0}, {"rental_uris": {"ios": "https://dc.lft.to/lastmile_qr_scan", "android": "https://dc.lft.to/lastmile_qr_scan"}, "lon": -77.02965483333334, "type": "electric_scooter", "fusion_lat": 0.0, "lat": 38.910546833333335, "name": "5830d61e21d38beacfa2b4553b41e605", "fusion_lon": 0.0, "bike_id": "5830d61e21d38beacfa2b4553b41e605", "is_disabled": 0, "is_reserved": 0}, {"rental_uris": {"ios": "https://dc.lft.to/lastmile_qr_scan", "android": "https://dc.lft.to/lastmile_qr_scan"}, "lon": -76.9870935, "type": "electric_scooter", "fusion_lat": 0.0, "lat": 38.867006, "name": "059f874d43946e14317514b812fe913d", "fusion_lon": 0.0, "bike_id": "059f874d43946e14317514b812fe913d", "is_disabled": 0, "is_reserved": 0}, {"rental_uris": {"ios": "https://dc.lft.to/lastmile_qr_scan", "android": "https://dc.lft.to/lastmile_qr_scan"}, "lon": -77.061731, "type": "electric_scooter", "fusion_lat": 0.0, "lat": 38.905297833333336, "name": "d002e5baef2b8045ea17a3b0d8e76388", "fusion_lon": 0.0, "bike_id": "d002e5baef2b8045ea17a3b0d8e76388", "is_disabled": 0, "is_reserved": 0}, {"rental_uris": {"ios": "https://dc.lft.to/lastmile_qr_scan", "android": "https://dc.lft.to/lastmile_qr_scan"}, "lon": -76.9253125, "type": "electric_bike", "fusion_lat": 0.0, "lat": 38.959314, "name": "a74a31c30a3113c5329286b039f2d916", "fusion_lon": 0.0, "bike_id": "a74a31c30a3113c5329286b039f2d916", "is_disabled": 0, "is_reserved": 0}, {"rental_uris": {"ios": "https://dc.lft.to/lastmile_qr_scan", "android": "https://dc.lft.to/lastmile_qr_scan"}, "lon": -77.05052716666667, "type": "electric_scooter", "fusion_lat": 0.0, "lat": 38.92356983333333, "name": "cd4168e46fcd26e23a3925d1ca65ad2c", "fusion_lon": 0.0, "bike_id": "cd4168e46fcd26e23a3925d1ca65ad2c", "is_disabled": 0, "is_reserved": 0}, {"rental_uris": {"ios": "https://dc.lft.to/lastmile_qr_scan", "android": "https://dc.lft.to/lastmile_qr_scan"}, "lon": -77.02007583333334, "type": "electric_scooter", "fusion_lat": 0.0, "lat": 38.90265483333334, "name": "ce7e622ae73386d1f0e33e0a1c40bcd8", "fusion_lon": 0.0, "bike_id": "ce7e622ae73386d1f0e33e0a1c40bcd8", "is_disabled": 0, "is_reserved": 0}, {"rental_uris": {"ios": "https://dc.lft.to/lastmile_qr_scan", "android": "https://dc.lft.to/lastmile_qr_scan"}, "lon": -77.01758633333333, "type": "electric_scooter", "fusion_lat": 0.0, "lat": 38.87684083333333, "name": "cbb6c915020f369053bf91d981af2bd8", "fusion_lon": 0.0, "bike_id": "cbb6c915020f369053bf91d981af2bd8", "is_disabled": 0, "is_reserved": 0}, {"rental_uris": {"ios": "https://dc.lft.to/lastmile_qr_scan", "android": "https://dc.lft.to/lastmile_qr_scan"}, "lon": -77.0258765, "type": "electric_scooter", "fusion_lat": 0.0, "lat": 38.920302, "name": "0c680f986d60883508d66f42ed367731", "fusion_lon": 0.0, "bike_id": "0c680f986d60883508d66f42ed367731", "is_disabled": 0, "is_reserved": 0}, {"rental_uris": {"ios": "https://dc.lft.to/lastmile_qr_scan", "android": "https://dc.lft.to/lastmile_qr_scan"}, "lon": -77.025513, "type": "electric_scooter", "fusion_lat": 0.0, "lat": 38.90086083333333, "name": "4d3226d2c255c4e78b3cd2fa94f79c40", "fusion_lon": 0.0, "bike_id": "4d3226d2c255c4e78b3cd2fa94f79c40", "is_disabled": 0, "is_reserved": 0}, {"rental_uris": {"ios": "https://dc.lft.to/lastmile_qr_scan", "android": "https://dc.lft.to/lastmile_qr_scan"}, "lon": -77.04757333333333, "type": "electric_scooter", "fusion_lat": 0.0, "lat": 38.912400833333336, "name": "e2d0118121b7c8d93d74f96ea623e64c", "fusion_lon": 0.0, "bike_id": "e2d0118121b7c8d93d74f96ea623e64c", "is_disabled": 0, "is_reserved": 0}, {"rental_uris": {"ios": "https://dc.lft.to/lastmile_qr_scan", "android": "https://dc.lft.to/lastmile_qr_scan"}, "lon": -77.039495, "type": "electric_scooter", "fusion_lat": 0.0, "lat": 38.909530333333336, "name": "b1133232cbd0b464c99ba8e36925742c", "fusion_lon": 0.0, "bike_id": "b1133232cbd0b464c99ba8e36925742c", "is_disabled": 0, "is_reserved": 0}, {"rental_uris": {"ios": "https://dc.lft.to/lastmile_qr_scan", "android": "https://dc.lft.to/lastmile_qr_scan"}, "lon": -77.0338915, "type": "electric_scooter", "fusion_lat": 0.0, "lat": 38.89930616666667, "name": "05a2af5eac76cbe12888d7f13924f115", "fusion_lon": 0.0, "bike_id": "05a2af5eac76cbe12888d7f13924f115", "is_disabled": 0, "is_reserved": 0}, {"rental_uris": {"ios": "https://dc.lft.to/lastmile_qr_scan", "android": "https://dc.lft.to/lastmile_qr_scan"}, "lon": -77.05328766666666, "type": "electric_scooter", "fusion_lat": 0.0, "lat": 38.9000615, "name": "17e7543cfc16de36f47527f3154b0161", "fusion_lon": 0.0, "bike_id": "17e7543cfc16de36f47527f3154b0161", "is_disabled": 0, "is_reserved": 0}, {"rental_uris": {"ios": "https://dc.lft.to/lastmile_qr_scan", "android": "https://dc.lft.to/lastmile_qr_scan"}, "lon": -77.036751, "type": "electric_scooter", "fusion_lat": 0.0, "lat": 38.91706466666667, "name": "6fa337ecf1d625bacafa9cd92b20284a", "fusion_lon": 0.0, "bike_id": "6fa337ecf1d625bacafa9cd92b20284a", "is_disabled": 0, "is_reserved": 0}, {"rental_uris": {"ios": "https://dc.lft.to/lastmile_qr_scan", "android": "https://dc.lft.to/lastmile_qr_scan"}, "lon": -77.03773383333333, "type": "electric_scooter", "fusion_lat": 0.0, "lat": 38.92005416666667, "name": "e4dee77e008efcd3a6510afb67b83a28", "fusion_lon": 0.0, "bike_id": "e4dee77e008efcd3a6510afb67b83a28", "is_disabled": 0, "is_reserved": 0}, {"rental_uris": {"ios": "https://dc.lft.to/lastmile_qr_scan", "android": "https://dc.lft.to/lastmile_qr_scan"}, "lon": -77.00791816666667, "type": "electric_bike", "fusion_lat": 0.0, "lat": 38.926831, "name": "3ac50865e7eb0dba3b9602c2eb5a53bb", "fusion_lon": 0.0, "bike_id": "3ac50865e7eb0dba3b9602c2eb5a53bb", "is_disabled": 0, "is_reserved": 0}, {"rental_uris": {"ios": "https://dc.lft.to/lastmile_qr_scan", "android": "https://dc.lft.to/lastmile_qr_scan"}, "lon": -77.36090816666666, "type": "electric_bike", "fusion_lat": 0.0, "lat": 38.939592166666664, "name": "2adfeb94cc9994ba4da77f3f1aa4d6a2", "fusion_lon": 0.0, "bike_id": "2adfeb94cc9994ba4da77f3f1aa4d6a2", "is_disabled": 0, "is_reserved": 0}, {"rental_uris": {"ios": "https://dc.lft.to/lastmile_qr_scan", "android": "https://dc.lft.to/lastmile_qr_scan"}, "lon": -77.02077666666666, "type": "electric_scooter", "fusion_lat": 0.0, "lat": 38.91538533333333, "name": "562315c8a6004f41f5e735da0a99dd58", "fusion_lon": 0.0, "bike_id": "562315c8a6004f41f5e735da0a99dd58", "is_disabled": 0, "is_reserved": 0}, {"rental_uris": {"ios": "https://dc.lft.to/lastmile_qr_scan", "android": "https://dc.lft.to/lastmile_qr_scan"}, "lon": -76.97987133333334, "type": "electric_bike", "fusion_lat": 0.0, "lat": 38.877412666666665, "name": "469a6ef59fb457645bc60877f3441530", "fusion_lon": 0.0, "bike_id": "469a6ef59fb457645bc60877f3441530", "is_disabled": 0, "is_reserved": 0}, {"rental_uris": {"ios": "https://dc.lft.to/lastmile_qr_scan", "android": "https://dc.lft.to/lastmile_qr_scan"}, "lon": -76.980083, "type": "electric_bike", "fusion_lat": 0.0, "lat": 38.85315333333333, "name": "1b863bb0997a61ef6c5dad810735563b", "fusion_lon": 0.0, "bike_id": "1b863bb0997a61ef6c5dad810735563b", "is_disabled": 0, "is_reserved": 0}, {"rental_uris": {"ios": "https://dc.lft.to/lastmile_qr_scan", "android": "https://dc.lft.to/lastmile_qr_scan"}, "lon": -77.068488, "type": "electric_scooter", "fusion_lat": 0.0, "lat": 38.91692, "name": "72f824cee017c5598f6e4b54efda4447", "fusion_lon": 0.0, "bike_id": "72f824cee017c5598f6e4b54efda4447", "is_disabled": 0, "is_reserved": 0}, {"rental_uris": {"ios": "https://dc.lft.to/lastmile_qr_scan", "android": "https://dc.lft.to/lastmile_qr_scan"}, "lon": -76.9882775, "type": "electric_scooter", "fusion_lat": 0.0, "lat": 38.8802845, "name": "6559807606e86e030a98f221b33a82ef", "fusion_lon": 0.0, "bike_id": "6559807606e86e030a98f221b33a82ef", "is_disabled": 0, "is_reserved": 0}, {"rental_uris": {"ios": "https://dc.lft.to/lastmile_qr_scan", "android": "https://dc.lft.to/lastmile_qr_scan"}, "lon": -77.035135, "type": "electric_scooter", "fusion_lat": 0.0, "lat": 38.931005666666664, "name": "0c521f6a2a77a0c10fac87bcc18fa867", "fusion_lon": 0.0, "bike_id": "0c521f6a2a77a0c10fac87bcc18fa867", "is_disabled": 0, "is_reserved": 0}, {"rental_uris": {"ios": "https://dc.lft.to/lastmile_qr_scan", "android": "https://dc.lft.to/lastmile_qr_scan"}, "lon": -77.03579516666667, "type": "electric_scooter", "fusion_lat": 0.0, "lat": 38.94242583333333, "name": "ef7d33d9861f8b8e7cd95d1cf620225e", "fusion_lon": 0.0, "bike_id": "ef7d33d9861f8b8e7cd95d1cf620225e", "is_disabled": 0, "is_reserved": 0}, {"rental_uris": {"ios": "https://dc.lft.to/lastmile_qr_scan", "android": "https://dc.lft.to/lastmile_qr_scan"}, "lon": -77.068852, "type": "electric_scooter", "fusion_lat": 0.0, "lat": 38.905021833333336, "name": "c2edda7d8dd28a345804d6bf2e8f6e45", "fusion_lon": 0.0, "bike_id": "c2edda7d8dd28a345804d6bf2e8f6e45", "is_disabled": 0, "is_reserved": 0}, {"rental_uris": {"ios": "https://dc.lft.to/lastmile_qr_scan", "android": "https://dc.lft.to/lastmile_qr_scan"}, "lon": -77.04931, "type": "electric_scooter", "fusion_lat": 0.0, "lat": 38.908938666666664, "name": "5acb62769b55cde358699434a1a69c46", "fusion_lon": 0.0, "bike_id": "5acb62769b55cde358699434a1a69c46", "is_disabled": 0, "is_reserved": 0}, {"rental_uris": {"ios": "https://dc.lft.to/lastmile_qr_scan", "android": "https://dc.lft.to/lastmile_qr_scan"}, "lon": -77.02162983333334, "type": "electric_scooter", "fusion_lat": 0.0, "lat": 38.89903233333333, "name": "ef6cc13e6836f2f3a091106bd68493fb", "fusion_lon": 0.0, "bike_id": "ef6cc13e6836f2f3a091106bd68493fb", "is_disabled": 0, "is_reserved": 0}, {"rental_uris": {"ios": "https://dc.lft.to/lastmile_qr_scan", "android": "https://dc.lft.to/lastmile_qr_scan"}, "lon": -77.035754, "type": "electric_scooter", "fusion_lat": 0.0, "lat": 38.92736716666667, "name": "25e47b234f17e76b23baa30d2a93a7f8", "fusion_lon": 0.0, "bike_id": "25e47b234f17e76b23baa30d2a93a7f8", "is_disabled": 0, "is_reserved": 0}, {"rental_uris": {"ios": "https://dc.lft.to/lastmile_qr_scan", "android": "https://dc.lft.to/lastmile_qr_scan"}, "lon": -76.93738716666667, "type": "electric_scooter", "fusion_lat": 0.0, "lat": 38.89016183333333, "name": "7447f6e89b3f64fd0e7d73545896bfb7", "fusion_lon": 0.0, "bike_id": "7447f6e89b3f64fd0e7d73545896bfb7", "is_disabled": 0, "is_reserved": 0}, {"rental_uris": {"ios": "https://dc.lft.to/lastmile_qr_scan", "android": "https://dc.lft.to/lastmile_qr_scan"}, "lon": -77.045459, "type": "electric_scooter", "fusion_lat": 0.0, "lat": 38.9340385, "name": "beadfedaf0cc3787347ae161ab950f95", "fusion_lon": 0.0, "bike_id": "beadfedaf0cc3787347ae161ab950f95", "is_disabled": 0, "is_reserved": 0}, {"rental_uris": {"ios": "https://dc.lft.to/lastmile_qr_scan", "android": "https://dc.lft.to/lastmile_qr_scan"}, "lon": -77.03404016666667, "type": "electric_scooter", "fusion_lat": 0.0, "lat": 38.9234685, "name": "feacdfb5e71ac9d5a6fb4d290d0fba75", "fusion_lon": 0.0, "bike_id": "feacdfb5e71ac9d5a6fb4d290d0fba75", "is_disabled": 0, "is_reserved": 0}, {"rental_uris": {"ios": "https://dc.lft.to/lastmile_qr_scan", "android": "https://dc.lft.to/lastmile_qr_scan"}, "lon": -76.98527633333333, "type": "electric_scooter", "fusion_lat": 0.0, "lat": 38.90457166666667, "name": "417bd34c16eb1ccbfb65b9b7201e06e1", "fusion_lon": 0.0, "bike_id": "417bd34c16eb1ccbfb65b9b7201e06e1", "is_disabled": 0, "is_reserved": 0}, {"rental_uris": {"ios": "https://dc.lft.to/lastmile_qr_scan", "android": "https://dc.lft.to/lastmile_qr_scan"}, "lon": -76.98843333333333, "type": "electric_bike", "fusion_lat": 0.0, "lat": 38.89606883333333, "name": "18b1240a120e9b3b46b0b6e644ee4135", "fusion_lon": 0.0, "bike_id": "18b1240a120e9b3b46b0b6e644ee4135", "is_disabled": 0, "is_reserved": 0}, {"rental_uris": {"ios": "https://dc.lft.to/lastmile_qr_scan", "android": "https://dc.lft.to/lastmile_qr_scan"}, "lon": -77.02953533333333, "type": "electric_scooter", "fusion_lat": 0.0, "lat": 38.91552633333333, "name": "70a4ffb4a80cf6078685216b0183dc40", "fusion_lon": 0.0, "bike_id": "70a4ffb4a80cf6078685216b0183dc40", "is_disabled": 0, "is_reserved": 0}, {"rental_uris": {"ios": "https://dc.lft.to/lastmile_qr_scan", "android": "https://dc.lft.to/lastmile_qr_scan"}, "lon": -77.10455933333333, "type": "electric_bike", "fusion_lat": 0.0, "lat": 38.896379833333334, "name": "f2a3a73c8bc20ef24377dfc6af69f592", "fusion_lon": 0.0, "bike_id": "f2a3a73c8bc20ef24377dfc6af69f592", "is_disabled": 0, "is_reserved": 0}, {"rental_uris": {"ios": "https://dc.lft.to/lastmile_qr_scan", "android": "https://dc.lft.to/lastmile_qr_scan"}, "lon": -77.03173283333334, "type": "electric_scooter", "fusion_lat": 0.0, "lat": 38.928695166666664, "name": "67aa6de7e4cadb38c2c0f85323cd8354", "fusion_lon": 0.0, "bike_id": "67aa6de7e4cadb38c2c0f85323cd8354", "is_disabled": 0, "is_reserved": 0}, {"rental_uris": {"ios": "https://dc.lft.to/lastmile_qr_scan", "android": "https://dc.lft.to/lastmile_qr_scan"}, "lon": -76.94696166666667, "type": "electric_scooter", "fusion_lat": 0.0, "lat": 38.897264166666666, "name": "92f5daa7a1e4bc1796a512a0152789a2", "fusion_lon": 0.0, "bike_id": "92f5daa7a1e4bc1796a512a0152789a2", "is_disabled": 0, "is_reserved": 0}, {"rental_uris": {"ios": "https://dc.lft.to/lastmile_qr_scan", "android": "https://dc.lft.to/lastmile_qr_scan"}, "lon": -77.02173783333333, "type": "electric_scooter", "fusion_lat": 0.0, "lat": 38.898986, "name": "93cc13a01cdcc9da6882f998731abf06", "fusion_lon": 0.0, "bike_id": "93cc13a01cdcc9da6882f998731abf06", "is_disabled": 0, "is_reserved": 0}, {"rental_uris": {"ios": "https://dc.lft.to/lastmile_qr_scan", "android": "https://dc.lft.to/lastmile_qr_scan"}, "lon": -77.00578733333333, "type": "electric_scooter", "fusion_lat": 0.0, "lat": 38.872764333333336, "name": "a043498a7a50043b4795e37e99f92088", "fusion_lon": 0.0, "bike_id": "a043498a7a50043b4795e37e99f92088", "is_disabled": 0, "is_reserved": 0}, {"rental_uris": {"ios": "https://dc.lft.to/lastmile_qr_scan", "android": "https://dc.lft.to/lastmile_qr_scan"}, "lon": -77.01810683333333, "type": "electric_scooter", "fusion_lat": 0.0, "lat": 38.9296325, "name": "f223378b21c0bad999db1c2a48590faf", "fusion_lon": 0.0, "bike_id": "f223378b21c0bad999db1c2a48590faf", "is_disabled": 0, "is_reserved": 0}, {"rental_uris": {"ios": "https://dc.lft.to/lastmile_qr_scan", "android": "https://dc.lft.to/lastmile_qr_scan"}, "lon": -77.0304795, "type": "electric_scooter", "fusion_lat": 0.0, "lat": 38.894497333333334, "name": "cf20514af101d8923114df15da042219", "fusion_lon": 0.0, "bike_id": "cf20514af101d8923114df15da042219", "is_disabled": 0, "is_reserved": 0}, {"rental_uris": {"ios": "https://dc.lft.to/lastmile_qr_scan", "android": "https://dc.lft.to/lastmile_qr_scan"}, "lon": -77.01983766666666, "type": "electric_scooter", "fusion_lat": 0.0, "lat": 38.89736283333333, "name": "6cdb8cd489e9fd5e0bb49dfbde61a9f7", "fusion_lon": 0.0, "bike_id": "6cdb8cd489e9fd5e0bb49dfbde61a9f7", "is_disabled": 0, "is_reserved": 0}, {"rental_uris": {"ios": "https://dc.lft.to/lastmile_qr_scan", "android": "https://dc.lft.to/lastmile_qr_scan"}, "lon": -76.98999716666667, "type": "electric_scooter", "fusion_lat": 0.0, "lat": 38.86498783333333, "name": "39d60bb58d8a31020e26e5bcb2711461", "fusion_lon": 0.0, "bike_id": "39d60bb58d8a31020e26e5bcb2711461", "is_disabled": 0, "is_reserved": 0}, {"rental_uris": {"ios": "https://dc.lft.to/lastmile_qr_scan", "android": "https://dc.lft.to/lastmile_qr_scan"}, "lon": -77.01258233333333, "type": "electric_bike", "fusion_lat": 0.0, "lat": 38.9037825, "name": "7ac34280445cb2de326b625da582f8f5", "fusion_lon": 0.0, "bike_id": "7ac34280445cb2de326b625da582f8f5", "is_disabled": 0, "is_reserved": 0}, {"rental_uris": {"ios": "https://dc.lft.to/lastmile_qr_scan", "android": "https://dc.lft.to/lastmile_qr_scan"}, "lon": -77.0155565, "type": "electric_scooter", "fusion_lat": 0.0, "lat": 38.8849935, "name": "9966d8fef3d2d12e03ffdd6c53c4d1e9", "fusion_lon": 0.0, "bike_id": "9966d8fef3d2d12e03ffdd6c53c4d1e9", "is_disabled": 0, "is_reserved": 0}, {"rental_uris": {"ios": "https://dc.lft.to/lastmile_qr_scan", "android": "https://dc.lft.to/lastmile_qr_scan"}, "lon": -77.0137665, "type": "electric_scooter", "fusion_lat": 0.0, "lat": 38.86958, "name": "05806b9b4fd9c662422e1281d794c749", "fusion_lon": 0.0, "bike_id": "05806b9b4fd9c662422e1281d794c749", "is_disabled": 0, "is_reserved": 0}, {"rental_uris": {"ios": "https://dc.lft.to/lastmile_qr_scan", "android": "https://dc.lft.to/lastmile_qr_scan"}, "lon": -77.02365833333333, "type": "electric_scooter", "fusion_lat": 0.0, "lat": 38.895296, "name": "6bd66b46adaee8f65ab17d8aae1b98c6", "fusion_lon": 0.0, "bike_id": "6bd66b46adaee8f65ab17d8aae1b98c6", "is_disabled": 0, "is_reserved": 0}, {"rental_uris": {"ios": "https://dc.lft.to/lastmile_qr_scan", "android": "https://dc.lft.to/lastmile_qr_scan"}, "lon": -77.03282433333334, "type": "electric_scooter", "fusion_lat": 0.0, "lat": 38.938929333333334, "name": "6fbaa7ea673d3519a732d6f17f77281f", "fusion_lon": 0.0, "bike_id": "6fbaa7ea673d3519a732d6f17f77281f", "is_disabled": 0, "is_reserved": 0}, {"rental_uris": {"ios": "https://dc.lft.to/lastmile_qr_scan", "android": "https://dc.lft.to/lastmile_qr_scan"}, "lon": -77.01966816666666, "type": "electric_scooter", "fusion_lat": 0.0, "lat": 38.934086, "name": "863ca45541c14dfcad5d211819eb9339", "fusion_lon": 0.0, "bike_id": "863ca45541c14dfcad5d211819eb9339", "is_disabled": 0, "is_reserved": 0}, {"rental_uris": {"ios": "https://dc.lft.to/lastmile_qr_scan", "android": "https://dc.lft.to/lastmile_qr_scan"}, "lon": -76.98691516666666, "type": "electric_scooter", "fusion_lat": 0.0, "lat": 38.9069705, "name": "6cff70ec9ab2d3e0c2e4405e2f2cbf6e", "fusion_lon": 0.0, "bike_id": "6cff70ec9ab2d3e0c2e4405e2f2cbf6e", "is_disabled": 0, "is_reserved": 0}, {"rental_uris": {"ios": "https://dc.lft.to/lastmile_qr_scan", "android": "https://dc.lft.to/lastmile_qr_scan"}, "lon": -77.04682283333334, "type": "electric_scooter", "fusion_lat": 0.0, "lat": 38.900627166666666, "name": "8059ff4f57c9e1698d248e0088d45cee", "fusion_lon": 0.0, "bike_id": "8059ff4f57c9e1698d248e0088d45cee", "is_disabled": 0, "is_reserved": 0}, {"rental_uris": {"ios": "https://dc.lft.to/lastmile_qr_scan", "android": "https://dc.lft.to/lastmile_qr_scan"}, "lon": -77.04019366666667, "type": "electric_scooter", "fusion_lat": 0.0, "lat": 38.91843166666666, "name": "984a309fc44d1ddf69610fadadcc91d5", "fusion_lon": 0.0, "bike_id": "984a309fc44d1ddf69610fadadcc91d5", "is_disabled": 0, "is_reserved": 0}, {"rental_uris": {"ios": "https://dc.lft.to/lastmile_qr_scan", "android": "https://dc.lft.to/lastmile_qr_scan"}, "lon": -77.0270185, "type": "electric_scooter", "fusion_lat": 0.0, "lat": 38.903566166666664, "name": "7e912f2a1ca7f6cc05480d03b715591c", "fusion_lon": 0.0, "bike_id": "7e912f2a1ca7f6cc05480d03b715591c", "is_disabled": 0, "is_reserved": 0}, {"rental_uris": {"ios": "https://dc.lft.to/lastmile_qr_scan", "android": "https://dc.lft.to/lastmile_qr_scan"}, "lon": -77.02947416666666, "type": "electric_scooter", "fusion_lat": 0.0, "lat": 38.89718666666667, "name": "4e90ae74eb369d4b7621e97c7cc5fe50", "fusion_lon": 0.0, "bike_id": "4e90ae74eb369d4b7621e97c7cc5fe50", "is_disabled": 0, "is_reserved": 0}, {"rental_uris": {"ios": "https://dc.lft.to/lastmile_qr_scan", "android": "https://dc.lft.to/lastmile_qr_scan"}, "lon": -77.02420116666667, "type": "electric_scooter", "fusion_lat": 0.0, "lat": 38.93085883333333, "name": "3110a2b7e1a7c4d9ca78e24b706f6c53", "fusion_lon": 0.0, "bike_id": "3110a2b7e1a7c4d9ca78e24b706f6c53", "is_disabled": 0, "is_reserved": 0}, {"rental_uris": {"ios": "https://dc.lft.to/lastmile_qr_scan", "android": "https://dc.lft.to/lastmile_qr_scan"}, "lon": -77.04069366666667, "type": "electric_scooter", "fusion_lat": 0.0, "lat": 38.926473666666666, "name": "446ae37cbd85de6ff572966aafb41d7e", "fusion_lon": 0.0, "bike_id": "446ae37cbd85de6ff572966aafb41d7e", "is_disabled": 0, "is_reserved": 0}, {"rental_uris": {"ios": "https://dc.lft.to/lastmile_qr_scan", "android": "https://dc.lft.to/lastmile_qr_scan"}, "lon": -77.04829733333334, "type": "electric_scooter", "fusion_lat": 0.0, "lat": 38.92027, "name": "8c5d4e202afbaffb1d8a346db3ef06e7", "fusion_lon": 0.0, "bike_id": "8c5d4e202afbaffb1d8a346db3ef06e7", "is_disabled": 0, "is_reserved": 0}, {"rental_uris": {"ios": "https://dc.lft.to/lastmile_qr_scan", "android": "https://dc.lft.to/lastmile_qr_scan"}, "lon": -77.0468775, "type": "electric_scooter", "fusion_lat": 0.0, "lat": 38.89220016666667, "name": "fd596d329e74701c5dc1c3aacdd70a10", "fusion_lon": 0.0, "bike_id": "fd596d329e74701c5dc1c3aacdd70a10", "is_disabled": 0, "is_reserved": 0}, {"rental_uris": {"ios": "https://dc.lft.to/lastmile_qr_scan", "android": "https://dc.lft.to/lastmile_qr_scan"}, "lon": -76.90437083333333, "type": "electric_bike", "fusion_lat": 0.0, "lat": 38.897584, "name": "840b662602bea0b7d71aefec288178b7", "fusion_lon": 0.0, "bike_id": "840b662602bea0b7d71aefec288178b7", "is_disabled": 0, "is_reserved": 0}, {"rental_uris": {"ios": "https://dc.lft.to/lastmile_qr_scan", "android": "https://dc.lft.to/lastmile_qr_scan"}, "lon": -77.04385933333333, "type": "electric_scooter", "fusion_lat": 0.0, "lat": 38.916575, "name": "6fc04007c00e14a3329e2499d2e0d87b", "fusion_lon": 0.0, "bike_id": "6fc04007c00e14a3329e2499d2e0d87b", "is_disabled": 0, "is_reserved": 0}, {"rental_uris": {"ios": "https://dc.lft.to/lastmile_qr_scan", "android": "https://dc.lft.to/lastmile_qr_scan"}, "lon": -77.03729966666667, "type": "electric_scooter", "fusion_lat": 0.0, "lat": 38.9335085, "name": "865acdef40a725267da86aa9544b396a", "fusion_lon": 0.0, "bike_id": "865acdef40a725267da86aa9544b396a", "is_disabled": 0, "is_reserved": 0}, {"rental_uris": {"ios": "https://dc.lft.to/lastmile_qr_scan", "android": "https://dc.lft.to/lastmile_qr_scan"}, "lon": -77.03228116666666, "type": "electric_scooter", "fusion_lat": 0.0, "lat": 38.925787, "name": "219294ab12c7d18e8976fe517d66570a", "fusion_lon": 0.0, "bike_id": "219294ab12c7d18e8976fe517d66570a", "is_disabled": 0, "is_reserved": 0}, {"rental_uris": {"ios": "https://dc.lft.to/lastmile_qr_scan", "android": "https://dc.lft.to/lastmile_qr_scan"}, "lon": -76.9781825, "type": "electric_scooter", "fusion_lat": 0.0, "lat": 38.90663816666667, "name": "35f2cbe9042a05f0528254649c9a95ba", "fusion_lon": 0.0, "bike_id": "35f2cbe9042a05f0528254649c9a95ba", "is_disabled": 0, "is_reserved": 0}, {"rental_uris": {"ios": "https://dc.lft.to/lastmile_qr_scan", "android": "https://dc.lft.to/lastmile_qr_scan"}, "lon": -77.02202266666667, "type": "electric_scooter", "fusion_lat": 0.0, "lat": 38.89427583333333, "name": "dd4f2bfa56b60c044a3022aae973fb5b", "fusion_lon": 0.0, "bike_id": "dd4f2bfa56b60c044a3022aae973fb5b", "is_disabled": 0, "is_reserved": 0}, {"rental_uris": {"ios": "https://dc.lft.to/lastmile_qr_scan", "android": "https://dc.lft.to/lastmile_qr_scan"}, "lon": -77.05140616666667, "type": "electric_scooter", "fusion_lat": 0.0, "lat": 38.90231333333333, "name": "1df823b6f5ab4029571d87811e7630fd", "fusion_lon": 0.0, "bike_id": "1df823b6f5ab4029571d87811e7630fd", "is_disabled": 0, "is_reserved": 0}, {"rental_uris": {"ios": "https://dc.lft.to/lastmile_qr_scan", "android": "https://dc.lft.to/lastmile_qr_scan"}, "lon": -77.02414833333333, "type": "electric_scooter", "fusion_lat": 0.0, "lat": 38.89227666666667, "name": "f20f41350c4fd19880a1a7a30eebf979", "fusion_lon": 0.0, "bike_id": "f20f41350c4fd19880a1a7a30eebf979", "is_disabled": 0, "is_reserved": 0}, {"rental_uris": {"ios": "https://dc.lft.to/lastmile_qr_scan", "android": "https://dc.lft.to/lastmile_qr_scan"}, "lon": -77.1120285, "type": "electric_bike", "fusion_lat": 0.0, "lat": 38.813024666666664, "name": "50d2683b30ee65b7cb8b86d7aef6d846", "fusion_lon": 0.0, "bike_id": "50d2683b30ee65b7cb8b86d7aef6d846", "is_disabled": 0, "is_reserved": 0}, {"rental_uris": {"ios": "https://dc.lft.to/lastmile_qr_scan", "android": "https://dc.lft.to/lastmile_qr_scan"}, "lon": -77.04464483333334, "type": "electric_scooter", "fusion_lat": 0.0, "lat": 38.915924833333335, "name": "9af8058226064a7b4f4418e89055bced", "fusion_lon": 0.0, "bike_id": "9af8058226064a7b4f4418e89055bced", "is_disabled": 0, "is_reserved": 0}, {"rental_uris": {"ios": "https://dc.lft.to/lastmile_qr_scan", "android": "https://dc.lft.to/lastmile_qr_scan"}, "lon": -77.1226195, "type": "electric_bike", "fusion_lat": 0.0, "lat": 38.89187966666667, "name": "cf7af8cd71389dc416c509c76f797572", "fusion_lon": 0.0, "bike_id": "cf7af8cd71389dc416c509c76f797572", "is_disabled": 0, "is_reserved": 0}, {"rental_uris": {"ios": "https://dc.lft.to/lastmile_qr_scan", "android": "https://dc.lft.to/lastmile_qr_scan"}, "lon": -76.93528016666667, "type": "electric_bike", "fusion_lat": 0.0, "lat": 38.9554655, "name": "59b662dab980e0a1bd351a792cb8f4bb", "fusion_lon": 0.0, "bike_id": "59b662dab980e0a1bd351a792cb8f4bb", "is_disabled": 0, "is_reserved": 0}, {"rental_uris": {"ios": "https://dc.lft.to/lastmile_qr_scan", "android": "https://dc.lft.to/lastmile_qr_scan"}, "lon": -77.07687583333333, "type": "electric_bike", "fusion_lat": 0.0, "lat": 38.83191733333334, "name": "d51ebf98c964c760481806eede2b42de", "fusion_lon": 0.0, "bike_id": "d51ebf98c964c760481806eede2b42de", "is_disabled": 0, "is_reserved": 0}, {"rental_uris": {"ios": "https://dc.lft.to/lastmile_qr_scan", "android": "https://dc.lft.to/lastmile_qr_scan"}, "lon": -77.04379716666666, "type": "electric_scooter", "fusion_lat": 0.0, "lat": 38.920634666666665, "name": "8189b7aa319f3a17ab6d309d215af01d", "fusion_lon": 0.0, "bike_id": "8189b7aa319f3a17ab6d309d215af01d", "is_disabled": 0, "is_reserved": 0}, {"rental_uris": {"ios": "https://dc.lft.to/lastmile_qr_scan", "android": "https://dc.lft.to/lastmile_qr_scan"}, "lon": -77.02894233333333, "type": "electric_scooter", "fusion_lat": 0.0, "lat": 38.9171465, "name": "940ae28e88990d82963a8d3fd32e7fd4", "fusion_lon": 0.0, "bike_id": "940ae28e88990d82963a8d3fd32e7fd4", "is_disabled": 0, "is_reserved": 0}, {"rental_uris": {"ios": "https://dc.lft.to/lastmile_qr_scan", "android": "https://dc.lft.to/lastmile_qr_scan"}, "lon": -77.02195516666667, "type": "electric_scooter", "fusion_lat": 0.0, "lat": 38.915073166666666, "name": "95a425131659defb506b1b58638d2f85", "fusion_lon": 0.0, "bike_id": "95a425131659defb506b1b58638d2f85", "is_disabled": 0, "is_reserved": 0}, {"rental_uris": {"ios": "https://dc.lft.to/lastmile_qr_scan", "android": "https://dc.lft.to/lastmile_qr_scan"}, "lon": -76.97503483333334, "type": "electric_scooter", "fusion_lat": 0.0, "lat": 38.86915183333333, "name": "1844667461eb86e6a5d8b5e2d1e3cb5a", "fusion_lon": 0.0, "bike_id": "1844667461eb86e6a5d8b5e2d1e3cb5a", "is_disabled": 0, "is_reserved": 0}, {"rental_uris": {"ios": "https://dc.lft.to/lastmile_qr_scan", "android": "https://dc.lft.to/lastmile_qr_scan"}, "lon": -77.07252033333333, "type": "electric_scooter", "fusion_lat": 0.0, "lat": 38.9331715, "name": "b2781156cab82ed4d93f25eafdf85912", "fusion_lon": 0.0, "bike_id": "b2781156cab82ed4d93f25eafdf85912", "is_disabled": 0, "is_reserved": 0}, {"rental_uris": {"ios": "https://dc.lft.to/lastmile_qr_scan", "android": "https://dc.lft.to/lastmile_qr_scan"}, "lon": -77.05912433333333, "type": "electric_scooter", "fusion_lat": 0.0, "lat": 38.90205016666667, "name": "57d2e47542b061366a8435d293b4ed75", "fusion_lon": 0.0, "bike_id": "57d2e47542b061366a8435d293b4ed75", "is_disabled": 0, "is_reserved": 0}, {"rental_uris": {"ios": "https://dc.lft.to/lastmile_qr_scan", "android": "https://dc.lft.to/lastmile_qr_scan"}, "lon": -77.02075683333334, "type": "electric_scooter", "fusion_lat": 0.0, "lat": 38.915482833333336, "name": "04a5727f99d20e2721b4d3f9a8db3dbf", "fusion_lon": 0.0, "bike_id": "04a5727f99d20e2721b4d3f9a8db3dbf", "is_disabled": 0, "is_reserved": 0}, {"rental_uris": {"ios": "https://dc.lft.to/lastmile_qr_scan", "android": "https://dc.lft.to/lastmile_qr_scan"}, "lon": -76.995023, "type": "electric_scooter", "fusion_lat": 0.0, "lat": 38.899556833333335, "name": "514926324db9669d8b0301414386cad3", "fusion_lon": 0.0, "bike_id": "514926324db9669d8b0301414386cad3", "is_disabled": 0, "is_reserved": 0}, {"rental_uris": {"ios": "https://dc.lft.to/lastmile_qr_scan", "android": "https://dc.lft.to/lastmile_qr_scan"}, "lon": -77.0346015, "type": "electric_scooter", "fusion_lat": 0.0, "lat": 38.916706, "name": "0541525926d52dd91c561d4f2c105e38", "fusion_lon": 0.0, "bike_id": "0541525926d52dd91c561d4f2c105e38", "is_disabled": 0, "is_reserved": 0}, {"rental_uris": {"ios": "https://dc.lft.to/lastmile_qr_scan", "android": "https://dc.lft.to/lastmile_qr_scan"}, "lon": -77.05222216666667, "type": "electric_scooter", "fusion_lat": 0.0, "lat": 38.92485166666667, "name": "f96d32f2f9f93d5f1da783068e285540", "fusion_lon": 0.0, "bike_id": "f96d32f2f9f93d5f1da783068e285540", "is_disabled": 0, "is_reserved": 0}, {"rental_uris": {"ios": "https://dc.lft.to/lastmile_qr_scan", "android": "https://dc.lft.to/lastmile_qr_scan"}, "lon": -77.02102983333333, "type": "electric_scooter", "fusion_lat": 0.0, "lat": 38.8791565, "name": "54a34523f5e775f5e10da98a15d83aa0", "fusion_lon": 0.0, "bike_id": "54a34523f5e775f5e10da98a15d83aa0", "is_disabled": 0, "is_reserved": 0}, {"rental_uris": {"ios": "https://dc.lft.to/lastmile_qr_scan", "android": "https://dc.lft.to/lastmile_qr_scan"}, "lon": -76.93176616666666, "type": "electric_scooter", "fusion_lat": 0.0, "lat": 38.8988195, "name": "c763d4c6845f0f7dd794d0e5f8eb849a", "fusion_lon": 0.0, "bike_id": "c763d4c6845f0f7dd794d0e5f8eb849a", "is_disabled": 0, "is_reserved": 0}, {"rental_uris": {"ios": "https://dc.lft.to/lastmile_qr_scan", "android": "https://dc.lft.to/lastmile_qr_scan"}, "lon": -76.937354, "type": "electric_scooter", "fusion_lat": 0.0, "lat": 38.890133666666664, "name": "3821298223595401b157c1d787345c03", "fusion_lon": 0.0, "bike_id": "3821298223595401b157c1d787345c03", "is_disabled": 0, "is_reserved": 0}, {"rental_uris": {"ios": "https://dc.lft.to/lastmile_qr_scan", "android": "https://dc.lft.to/lastmile_qr_scan"}, "lon": -77.049033, "type": "electric_scooter", "fusion_lat": 0.0, "lat": 38.900519333333335, "name": "81690c114cb6e60e97549de621efed1a", "fusion_lon": 0.0, "bike_id": "81690c114cb6e60e97549de621efed1a", "is_disabled": 0, "is_reserved": 0}, {"rental_uris": {"ios": "https://dc.lft.to/lastmile_qr_scan", "android": "https://dc.lft.to/lastmile_qr_scan"}, "lon": -76.93362933333333, "type": "electric_scooter", "fusion_lat": 0.0, "lat": 38.899176833333335, "name": "d238d0b69636a1b0f1b8c94aef84c41a", "fusion_lon": 0.0, "bike_id": "d238d0b69636a1b0f1b8c94aef84c41a", "is_disabled": 0, "is_reserved": 0}, {"rental_uris": {"ios": "https://dc.lft.to/lastmile_qr_scan", "android": "https://dc.lft.to/lastmile_qr_scan"}, "lon": -77.05748666666666, "type": "electric_scooter", "fusion_lat": 0.0, "lat": 38.93392866666667, "name": "8bf52428c533ba7e25be16360ad45ea1", "fusion_lon": 0.0, "bike_id": "8bf52428c533ba7e25be16360ad45ea1", "is_disabled": 0, "is_reserved": 0}, {"rental_uris": {"ios": "https://dc.lft.to/lastmile_qr_scan", "android": "https://dc.lft.to/lastmile_qr_scan"}, "lon": -77.0316265, "type": "electric_scooter", "fusion_lat": 0.0, "lat": 38.9156295, "name": "a5e4450cc5211623a2216d7a6d564f77", "fusion_lon": 0.0, "bike_id": "a5e4450cc5211623a2216d7a6d564f77", "is_disabled": 0, "is_reserved": 0}, {"rental_uris": {"ios": "https://dc.lft.to/lastmile_qr_scan", "android": "https://dc.lft.to/lastmile_qr_scan"}, "lon": -77.19909966666667, "type": "electric_bike", "fusion_lat": 0.0, "lat": 38.875227, "name": "63db9f7fa794af20b3ebc9b141cc4665", "fusion_lon": 0.0, "bike_id": "63db9f7fa794af20b3ebc9b141cc4665", "is_disabled": 0, "is_reserved": 0}, {"rental_uris": {"ios": "https://dc.lft.to/lastmile_qr_scan", "android": "https://dc.lft.to/lastmile_qr_scan"}, "lon": -77.03218416666667, "type": "electric_bike", "fusion_lat": 0.0, "lat": 38.91402433333333, "name": "f1b30b73655dbb75ff3a5e1059141ea3", "fusion_lon": 0.0, "bike_id": "f1b30b73655dbb75ff3a5e1059141ea3", "is_disabled": 0, "is_reserved": 0}, {"rental_uris": {"ios": "https://dc.lft.to/lastmile_qr_scan", "android": "https://dc.lft.to/lastmile_qr_scan"}, "lon": -77.0482285, "type": "electric_scooter", "fusion_lat": 0.0, "lat": 38.916466166666666, "name": "6aadd7731d19570b570ef965a355063b", "fusion_lon": 0.0, "bike_id": "6aadd7731d19570b570ef965a355063b", "is_disabled": 0, "is_reserved": 0}, {"rental_uris": {"ios": "https://dc.lft.to/lastmile_qr_scan", "android": "https://dc.lft.to/lastmile_qr_scan"}, "lon": -77.0341955, "type": "electric_scooter", "fusion_lat": 0.0, "lat": 38.919121, "name": "fb6110e2add74385767157f1364c52aa", "fusion_lon": 0.0, "bike_id": "fb6110e2add74385767157f1364c52aa", "is_disabled": 0, "is_reserved": 0}, {"rental_uris": {"ios": "https://dc.lft.to/lastmile_qr_scan", "android": "https://dc.lft.to/lastmile_qr_scan"}, "lon": -77.0077505, "type": "electric_scooter", "fusion_lat": 0.0, "lat": 38.87632383333333, "name": "98eea14584ec8ece32955431fa49f23b", "fusion_lon": 0.0, "bike_id": "98eea14584ec8ece32955431fa49f23b", "is_disabled": 0, "is_reserved": 0}, {"rental_uris": {"ios": "https://dc.lft.to/lastmile_qr_scan", "android": "https://dc.lft.to/lastmile_qr_scan"}, "lon": -77.04731966666667, "type": "electric_scooter", "fusion_lat": 0.0, "lat": 38.884399333333334, "name": "965c10ab5e798e0bfb7b9ad52131156f", "fusion_lon": 0.0, "bike_id": "965c10ab5e798e0bfb7b9ad52131156f", "is_disabled": 0, "is_reserved": 0}, {"rental_uris": {"ios": "https://dc.lft.to/lastmile_qr_scan", "android": "https://dc.lft.to/lastmile_qr_scan"}, "lon": -77.02101216666667, "type": "electric_scooter", "fusion_lat": 0.0, "lat": 38.87917933333333, "name": "f3888e1d45cbd9562e43de3244a6b62f", "fusion_lon": 0.0, "bike_id": "f3888e1d45cbd9562e43de3244a6b62f", "is_disabled": 0, "is_reserved": 0}, {"rental_uris": {"ios": "https://dc.lft.to/lastmile_qr_scan", "android": "https://dc.lft.to/lastmile_qr_scan"}, "lon": -76.95760283333334, "type": "electric_scooter", "fusion_lat": 0.0, "lat": 38.88427316666667, "name": "b63ab71b9c2db4e9c4f40eab0aa4bbfd", "fusion_lon": 0.0, "bike_id": "b63ab71b9c2db4e9c4f40eab0aa4bbfd", "is_disabled": 0, "is_reserved": 0}, {"rental_uris": {"ios": "https://dc.lft.to/lastmile_qr_scan", "android": "https://dc.lft.to/lastmile_qr_scan"}, "lon": -77.16234333333334, "type": "electric_bike", "fusion_lat": 0.0, "lat": 38.886466666666664, "name": "0b6c11f93c038187a86d81b63dfe2c33", "fusion_lon": 0.0, "bike_id": "0b6c11f93c038187a86d81b63dfe2c33", "is_disabled": 0, "is_reserved": 0}, {"rental_uris": {"ios": "https://dc.lft.to/lastmile_qr_scan", "android": "https://dc.lft.to/lastmile_qr_scan"}, "lon": -76.993855, "type": "electric_bike", "fusion_lat": 0.0, "lat": 38.92295466666667, "name": "bb5269fa3058b19f5450c4741df33c7d", "fusion_lon": 0.0, "bike_id": "bb5269fa3058b19f5450c4741df33c7d", "is_disabled": 0, "is_reserved": 0}, {"rental_uris": {"ios": "https://dc.lft.to/lastmile_qr_scan", "android": "https://dc.lft.to/lastmile_qr_scan"}, "lon": -77.023805, "type": "electric_scooter", "fusion_lat": 0.0, "lat": 38.896171333333335, "name": "345b39b27fc8773016f50f19bc7ffef7", "fusion_lon": 0.0, "bike_id": "345b39b27fc8773016f50f19bc7ffef7", "is_disabled": 0, "is_reserved": 0}, {"rental_uris": {"ios": "https://dc.lft.to/lastmile_qr_scan", "android": "https://dc.lft.to/lastmile_qr_scan"}, "lon": -76.94922516666666, "type": "electric_scooter", "fusion_lat": 0.0, "lat": 38.895198666666666, "name": "ea571b67dd2cdbccfde21c004b48b68e", "fusion_lon": 0.0, "bike_id": "ea571b67dd2cdbccfde21c004b48b68e", "is_disabled": 0, "is_reserved": 0}, {"rental_uris": {"ios": "https://dc.lft.to/lastmile_qr_scan", "android": "https://dc.lft.to/lastmile_qr_scan"}, "lon": -77.04807233333334, "type": "electric_scooter", "fusion_lat": 0.0, "lat": 38.89222916666667, "name": "86f46b5e2104e019a0b083bbd1778a57", "fusion_lon": 0.0, "bike_id": "86f46b5e2104e019a0b083bbd1778a57", "is_disabled": 0, "is_reserved": 0}, {"rental_uris": {"ios": "https://dc.lft.to/lastmile_qr_scan", "android": "https://dc.lft.to/lastmile_qr_scan"}, "lon": -77.0204785, "type": "electric_scooter", "fusion_lat": 0.0, "lat": 38.915521, "name": "b19b2e80e586579f1eefdf3b0474b740", "fusion_lon": 0.0, "bike_id": "b19b2e80e586579f1eefdf3b0474b740", "is_disabled": 0, "is_reserved": 0}, {"rental_uris": {"ios": "https://dc.lft.to/lastmile_qr_scan", "android": "https://dc.lft.to/lastmile_qr_scan"}, "lon": -76.96503933333334, "type": "electric_scooter", "fusion_lat": 0.0, "lat": 38.876485833333334, "name": "a110cdb85b0e80641827fb3bfe96c7fd", "fusion_lon": 0.0, "bike_id": "a110cdb85b0e80641827fb3bfe96c7fd", "is_disabled": 0, "is_reserved": 0}, {"rental_uris": {"ios": "https://dc.lft.to/lastmile_qr_scan", "android": "https://dc.lft.to/lastmile_qr_scan"}, "lon": -77.15267516666667, "type": "electric_bike", "fusion_lat": 0.0, "lat": 39.105616833333336, "name": "de12159f5413c58b4919bb916da339a4", "fusion_lon": 0.0, "bike_id": "de12159f5413c58b4919bb916da339a4", "is_disabled": 0, "is_reserved": 0}, {"rental_uris": {"ios": "https://dc.lft.to/lastmile_qr_scan", "android": "https://dc.lft.to/lastmile_qr_scan"}, "lon": -77.02744066666666, "type": "electric_scooter", "fusion_lat": 0.0, "lat": 38.909617, "name": "97c412c5cd43312215fd3790da97829b", "fusion_lon": 0.0, "bike_id": "97c412c5cd43312215fd3790da97829b", "is_disabled": 0, "is_reserved": 0}, {"rental_uris": {"ios": "https://dc.lft.to/lastmile_qr_scan", "android": "https://dc.lft.to/lastmile_qr_scan"}, "lon": -76.98512683333334, "type": "electric_scooter", "fusion_lat": 0.0, "lat": 38.9007335, "name": "3599bbbbe74a200fc4a35395d4e5d764", "fusion_lon": 0.0, "bike_id": "3599bbbbe74a200fc4a35395d4e5d764", "is_disabled": 0, "is_reserved": 0}, {"rental_uris": {"ios": "https://dc.lft.to/lastmile_qr_scan", "android": "https://dc.lft.to/lastmile_qr_scan"}, "lon": -77.04759066666666, "type": "electric_scooter", "fusion_lat": 0.0, "lat": 38.89732933333333, "name": "2753250a6115d29e4a10ae11f68c576f", "fusion_lon": 0.0, "bike_id": "2753250a6115d29e4a10ae11f68c576f", "is_disabled": 0, "is_reserved": 0}, {"rental_uris": {"ios": "https://dc.lft.to/lastmile_qr_scan", "android": "https://dc.lft.to/lastmile_qr_scan"}, "lon": -77.043544, "type": "electric_scooter", "fusion_lat": 0.0, "lat": 38.91592516666667, "name": "c5c7bb6c487e6d026dc1ea32d1ea6b32", "fusion_lon": 0.0, "bike_id": "c5c7bb6c487e6d026dc1ea32d1ea6b32", "is_disabled": 0, "is_reserved": 0}, {"rental_uris": {"ios": "https://dc.lft.to/lastmile_qr_scan", "android": "https://dc.lft.to/lastmile_qr_scan"}, "lon": -77.03831666666666, "type": "electric_scooter", "fusion_lat": 0.0, "lat": 38.90778366666667, "name": "7e5334b7fdaaf3852410947249860fd1", "fusion_lon": 0.0, "bike_id": "7e5334b7fdaaf3852410947249860fd1", "is_disabled": 0, "is_reserved": 0}, {"rental_uris": {"ios": "https://dc.lft.to/lastmile_qr_scan", "android": "https://dc.lft.to/lastmile_qr_scan"}, "lon": -77.1309435, "type": "electric_bike", "fusion_lat": 0.0, "lat": 38.86156966666667, "name": "5559126408c8e4098d1d0d5d2687e1d1", "fusion_lon": 0.0, "bike_id": "5559126408c8e4098d1d0d5d2687e1d1", "is_disabled": 0, "is_reserved": 0}, {"rental_uris": {"ios": "https://dc.lft.to/lastmile_qr_scan", "android": "https://dc.lft.to/lastmile_qr_scan"}, "lon": -77.03650033333334, "type": "electric_scooter", "fusion_lat": 0.0, "lat": 38.955035, "name": "1ebd4addb0157189ed667b7c2b05d304", "fusion_lon": 0.0, "bike_id": "1ebd4addb0157189ed667b7c2b05d304", "is_disabled": 0, "is_reserved": 0}, {"rental_uris": {"ios": "https://dc.lft.to/lastmile_qr_scan", "android": "https://dc.lft.to/lastmile_qr_scan"}, "lon": -77.03201083333333, "type": "electric_scooter", "fusion_lat": 0.0, "lat": 38.916223, "name": "d3a6ca9858fd6548c79b2674e1920977", "fusion_lon": 0.0, "bike_id": "d3a6ca9858fd6548c79b2674e1920977", "is_disabled": 0, "is_reserved": 0}, {"rental_uris": {"ios": "https://dc.lft.to/lastmile_qr_scan", "android": "https://dc.lft.to/lastmile_qr_scan"}, "lon": -77.00806583333333, "type": "electric_scooter", "fusion_lat": 0.0, "lat": 38.9140455, "name": "405201a3f3df8a04015a47a2b5295828", "fusion_lon": 0.0, "bike_id": "405201a3f3df8a04015a47a2b5295828", "is_disabled": 0, "is_reserved": 0}, {"rental_uris": {"ios": "https://dc.lft.to/lastmile_qr_scan", "android": "https://dc.lft.to/lastmile_qr_scan"}, "lon": -77.0227905, "type": "electric_scooter", "fusion_lat": 0.0, "lat": 38.878435333333336, "name": "76a47d71d8fcaa7b57dfe5cf7b557dc5", "fusion_lon": 0.0, "bike_id": "76a47d71d8fcaa7b57dfe5cf7b557dc5", "is_disabled": 0, "is_reserved": 0}, {"rental_uris": {"ios": "https://dc.lft.to/lastmile_qr_scan", "android": "https://dc.lft.to/lastmile_qr_scan"}, "lon": -77.00227566666666, "type": "electric_scooter", "fusion_lat": 0.0, "lat": 38.9133655, "name": "c178ecc07205cfe503f3818a79e21b54", "fusion_lon": 0.0, "bike_id": "c178ecc07205cfe503f3818a79e21b54", "is_disabled": 0, "is_reserved": 0}, {"rental_uris": {"ios": "https://dc.lft.to/lastmile_qr_scan", "android": "https://dc.lft.to/lastmile_qr_scan"}, "lon": -77.03640283333333, "type": "electric_scooter", "fusion_lat": 0.0, "lat": 38.917368333333336, "name": "14c85ba04a2eb42a58bb01d5dea24a0c", "fusion_lon": 0.0, "bike_id": "14c85ba04a2eb42a58bb01d5dea24a0c", "is_disabled": 0, "is_reserved": 0}, {"rental_uris": {"ios": "https://dc.lft.to/lastmile_qr_scan", "android": "https://dc.lft.to/lastmile_qr_scan"}, "lon": -77.09162016666667, "type": "electric_bike", "fusion_lat": 0.0, "lat": 38.9675765, "name": "8d200325bdafd1d27cbdfdd9f6a33a6c", "fusion_lon": 0.0, "bike_id": "8d200325bdafd1d27cbdfdd9f6a33a6c", "is_disabled": 0, "is_reserved": 0}, {"rental_uris": {"ios": "https://dc.lft.to/lastmile_qr_scan", "android": "https://dc.lft.to/lastmile_qr_scan"}, "lon": -77.02666783333333, "type": "electric_scooter", "fusion_lat": 0.0, "lat": 38.92183383333333, "name": "8682cac524978d2f8609c9836657412d", "fusion_lon": 0.0, "bike_id": "8682cac524978d2f8609c9836657412d", "is_disabled": 0, "is_reserved": 0}, {"rental_uris": {"ios": "https://dc.lft.to/lastmile_qr_scan", "android": "https://dc.lft.to/lastmile_qr_scan"}, "lon": -77.038671, "type": "electric_bike", "fusion_lat": 0.0, "lat": 38.912068833333336, "name": "0f84c70cf5f85fb25814dcff3af0b9ca", "fusion_lon": 0.0, "bike_id": "0f84c70cf5f85fb25814dcff3af0b9ca", "is_disabled": 0, "is_reserved": 0}, {"rental_uris": {"ios": "https://dc.lft.to/lastmile_qr_scan", "android": "https://dc.lft.to/lastmile_qr_scan"}, "lon": -77.03439566666667, "type": "electric_scooter", "fusion_lat": 0.0, "lat": 38.90976416666667, "name": "600e00aa94f9cef92d866093491c1e24", "fusion_lon": 0.0, "bike_id": "600e00aa94f9cef92d866093491c1e24", "is_disabled": 0, "is_reserved": 0}, {"rental_uris": {"ios": "https://dc.lft.to/lastmile_qr_scan", "android": "https://dc.lft.to/lastmile_qr_scan"}, "lon": -77.02328566666667, "type": "electric_scooter", "fusion_lat": 0.0, "lat": 38.88341916666667, "name": "fd1d61548b62ad37ebd132d2fb02ba98", "fusion_lon": 0.0, "bike_id": "fd1d61548b62ad37ebd132d2fb02ba98", "is_disabled": 0, "is_reserved": 0}, {"rental_uris": {"ios": "https://dc.lft.to/lastmile_qr_scan", "android": "https://dc.lft.to/lastmile_qr_scan"}, "lon": -77.03438533333333, "type": "electric_scooter", "fusion_lat": 0.0, "lat": 38.902644333333335, "name": "e4bb24791faaabcf9c5ea329d716e327", "fusion_lon": 0.0, "bike_id": "e4bb24791faaabcf9c5ea329d716e327", "is_disabled": 0, "is_reserved": 0}, {"rental_uris": {"ios": "https://dc.lft.to/lastmile_qr_scan", "android": "https://dc.lft.to/lastmile_qr_scan"}, "lon": -76.9732885, "type": "electric_bike", "fusion_lat": 0.0, "lat": 38.9176175, "name": "cf6f19c78ec2564a221acef1241f0f3e", "fusion_lon": 0.0, "bike_id": "cf6f19c78ec2564a221acef1241f0f3e", "is_disabled": 0, "is_reserved": 0}, {"rental_uris": {"ios": "https://dc.lft.to/lastmile_qr_scan", "android": "https://dc.lft.to/lastmile_qr_scan"}, "lon": -77.04675433333334, "type": "electric_scooter", "fusion_lat": 0.0, "lat": 38.8925745, "name": "50f483705445e457888d3bfbe5cdd775", "fusion_lon": 0.0, "bike_id": "50f483705445e457888d3bfbe5cdd775", "is_disabled": 0, "is_reserved": 0}, {"rental_uris": {"ios": "https://dc.lft.to/lastmile_qr_scan", "android": "https://dc.lft.to/lastmile_qr_scan"}, "lon": -77.02317933333333, "type": "electric_scooter", "fusion_lat": 0.0, "lat": 38.8818345, "name": "c9defa51fb75a7eb1a7fd5be123c7355", "fusion_lon": 0.0, "bike_id": "c9defa51fb75a7eb1a7fd5be123c7355", "is_disabled": 0, "is_reserved": 0}, {"rental_uris": {"ios": "https://dc.lft.to/lastmile_qr_scan", "android": "https://dc.lft.to/lastmile_qr_scan"}, "lon": -77.04421383333333, "type": "electric_scooter", "fusion_lat": 0.0, "lat": 38.919754, "name": "02ddfb91fded44d376dabcc65f1a3ad6", "fusion_lon": 0.0, "bike_id": "02ddfb91fded44d376dabcc65f1a3ad6", "is_disabled": 0, "is_reserved": 0}, {"rental_uris": {"ios": "https://dc.lft.to/lastmile_qr_scan", "android": "https://dc.lft.to/lastmile_qr_scan"}, "lon": -77.04653716666667, "type": "electric_scooter", "fusion_lat": 0.0, "lat": 38.934256500000004, "name": "28fddfe26c2afc9318a09bb3846b6f5f", "fusion_lon": 0.0, "bike_id": "28fddfe26c2afc9318a09bb3846b6f5f", "is_disabled": 0, "is_reserved": 0}, {"rental_uris": {"ios": "https://dc.lft.to/lastmile_qr_scan", "android": "https://dc.lft.to/lastmile_qr_scan"}, "lon": -77.01172083333333, "type": "electric_bike", "fusion_lat": 0.0, "lat": 38.872283833333334, "name": "edc4f9c0004dcc1c36143ec9da5ef442", "fusion_lon": 0.0, "bike_id": "edc4f9c0004dcc1c36143ec9da5ef442", "is_disabled": 0, "is_reserved": 0}, {"rental_uris": {"ios": "https://dc.lft.to/lastmile_qr_scan", "android": "https://dc.lft.to/lastmile_qr_scan"}, "lon": -77.03169866666667, "type": "electric_scooter", "fusion_lat": 0.0, "lat": 38.8834405, "name": "bd0729a1a3b33bc109f2226b98fc3046", "fusion_lon": 0.0, "bike_id": "bd0729a1a3b33bc109f2226b98fc3046", "is_disabled": 0, "is_reserved": 0}, {"rental_uris": {"ios": "https://dc.lft.to/lastmile_qr_scan", "android": "https://dc.lft.to/lastmile_qr_scan"}, "lon": -77.016354, "type": "electric_scooter", "fusion_lat": 0.0, "lat": 38.92937383333334, "name": "eb2477f3832da9f731cb718a6be3225a", "fusion_lon": 0.0, "bike_id": "eb2477f3832da9f731cb718a6be3225a", "is_disabled": 0, "is_reserved": 0}, {"rental_uris": {"ios": "https://dc.lft.to/lastmile_qr_scan", "android": "https://dc.lft.to/lastmile_qr_scan"}, "lon": -77.04286566666667, "type": "electric_bike", "fusion_lat": 0.0, "lat": 38.907286666666664, "name": "28ecb470cdaad6b015e2a6602c7e03e1", "fusion_lon": 0.0, "bike_id": "28ecb470cdaad6b015e2a6602c7e03e1", "is_disabled": 0, "is_reserved": 0}, {"rental_uris": {"ios": "https://dc.lft.to/lastmile_qr_scan", "android": "https://dc.lft.to/lastmile_qr_scan"}, "lon": -77.038438, "type": "electric_scooter", "fusion_lat": 0.0, "lat": 38.931037, "name": "0c22bca7b806c6305766761bdf417640", "fusion_lon": 0.0, "bike_id": "0c22bca7b806c6305766761bdf417640", "is_disabled": 0, "is_reserved": 0}, {"rental_uris": {"ios": "https://dc.lft.to/lastmile_qr_scan", "android": "https://dc.lft.to/lastmile_qr_scan"}, "lon": -77.016373, "type": "electric_scooter", "fusion_lat": 0.0, "lat": 38.902256666666666, "name": "575e8039df6db60fdb5e6c5a0194a2dd", "fusion_lon": 0.0, "bike_id": "575e8039df6db60fdb5e6c5a0194a2dd", "is_disabled": 0, "is_reserved": 0}, {"rental_uris": {"ios": "https://dc.lft.to/lastmile_qr_scan", "android": "https://dc.lft.to/lastmile_qr_scan"}, "lon": -76.996973, "type": "electric_scooter", "fusion_lat": 0.0, "lat": 38.90793033333333, "name": "6875c22765a6b76d57128fa4a55ae11a", "fusion_lon": 0.0, "bike_id": "6875c22765a6b76d57128fa4a55ae11a", "is_disabled": 0, "is_reserved": 0}, {"rental_uris": {"ios": "https://dc.lft.to/lastmile_qr_scan", "android": "https://dc.lft.to/lastmile_qr_scan"}, "lon": -77.06938666666667, "type": "electric_scooter", "fusion_lat": 0.0, "lat": 38.90512, "name": "c89d19f3e7d47240b00fea5d03448bda", "fusion_lon": 0.0, "bike_id": "c89d19f3e7d47240b00fea5d03448bda", "is_disabled": 0, "is_reserved": 0}, {"rental_uris": {"ios": "https://dc.lft.to/lastmile_qr_scan", "android": "https://dc.lft.to/lastmile_qr_scan"}, "lon": -77.08257766666667, "type": "electric_bike", "fusion_lat": 0.0, "lat": 38.93557333333333, "name": "bb7bda021c11c3a3323b11e7a8696566", "fusion_lon": 0.0, "bike_id": "bb7bda021c11c3a3323b11e7a8696566", "is_disabled": 0, "is_reserved": 0}, {"rental_uris": {"ios": "https://dc.lft.to/lastmile_qr_scan", "android": "https://dc.lft.to/lastmile_qr_scan"}, "lon": -77.02179133333334, "type": "electric_bike", "fusion_lat": 0.0, "lat": 38.880022, "name": "dcd7bb999a9a45ace6ec07ef797619b9", "fusion_lon": 0.0, "bike_id": "dcd7bb999a9a45ace6ec07ef797619b9", "is_disabled": 0, "is_reserved": 0}, {"rental_uris": {"ios": "https://dc.lft.to/lastmile_qr_scan", "android": "https://dc.lft.to/lastmile_qr_scan"}, "lon": -77.04130116666667, "type": "electric_scooter", "fusion_lat": 0.0, "lat": 38.91041833333333, "name": "f530cc348c20652726510eed3428c8e3", "fusion_lon": 0.0, "bike_id": "f530cc348c20652726510eed3428c8e3", "is_disabled": 0, "is_reserved": 0}, {"rental_uris": {"ios": "https://dc.lft.to/lastmile_qr_scan", "android": "https://dc.lft.to/lastmile_qr_scan"}, "lon": -77.03785483333333, "type": "electric_scooter", "fusion_lat": 0.0, "lat": 38.935806, "name": "3274d221d8fe55d1d04b210a163c61db", "fusion_lon": 0.0, "bike_id": "3274d221d8fe55d1d04b210a163c61db", "is_disabled": 0, "is_reserved": 0}, {"rental_uris": {"ios": "https://dc.lft.to/lastmile_qr_scan", "android": "https://dc.lft.to/lastmile_qr_scan"}, "lon": -77.0253005, "type": "electric_scooter", "fusion_lat": 0.0, "lat": 38.941466166666665, "name": "5f17412c2c1a776701be9888842eae1e", "fusion_lon": 0.0, "bike_id": "5f17412c2c1a776701be9888842eae1e", "is_disabled": 0, "is_reserved": 0}, {"rental_uris": {"ios": "https://dc.lft.to/lastmile_qr_scan", "android": "https://dc.lft.to/lastmile_qr_scan"}, "lon": -77.01119633333333, "type": "electric_scooter", "fusion_lat": 0.0, "lat": 38.900138, "name": "ea945999dc4b8cf2089dc97c74605efc", "fusion_lon": 0.0, "bike_id": "ea945999dc4b8cf2089dc97c74605efc", "is_disabled": 0, "is_reserved": 0}, {"rental_uris": {"ios": "https://dc.lft.to/lastmile_qr_scan", "android": "https://dc.lft.to/lastmile_qr_scan"}, "lon": -76.98264183333333, "type": "electric_scooter", "fusion_lat": 0.0, "lat": 38.86356266666667, "name": "dba9361e6764fada3e5f846bb5d506b3", "fusion_lon": 0.0, "bike_id": "dba9361e6764fada3e5f846bb5d506b3", "is_disabled": 0, "is_reserved": 0}, {"rental_uris": {"ios": "https://dc.lft.to/lastmile_qr_scan", "android": "https://dc.lft.to/lastmile_qr_scan"}, "lon": -77.01268783333333, "type": "electric_scooter", "fusion_lat": 0.0, "lat": 38.91564866666667, "name": "bebe6b729bd504db3396903f2d2b4e7f", "fusion_lon": 0.0, "bike_id": "bebe6b729bd504db3396903f2d2b4e7f", "is_disabled": 0, "is_reserved": 0}, {"rental_uris": {"ios": "https://dc.lft.to/lastmile_qr_scan", "android": "https://dc.lft.to/lastmile_qr_scan"}, "lon": -77.02199083333333, "type": "electric_scooter", "fusion_lat": 0.0, "lat": 38.90949366666667, "name": "87c7a1b2f93fa0e34117b3158125e324", "fusion_lon": 0.0, "bike_id": "87c7a1b2f93fa0e34117b3158125e324", "is_disabled": 0, "is_reserved": 0}, {"rental_uris": {"ios": "https://dc.lft.to/lastmile_qr_scan", "android": "https://dc.lft.to/lastmile_qr_scan"}, "lon": -76.967548, "type": "electric_bike", "fusion_lat": 0.0, "lat": 38.8754665, "name": "60d475faf871d4b54ea90f00ce67b0b3", "fusion_lon": 0.0, "bike_id": "60d475faf871d4b54ea90f00ce67b0b3", "is_disabled": 0, "is_reserved": 0}, {"rental_uris": {"ios": "https://dc.lft.to/lastmile_qr_scan", "android": "https://dc.lft.to/lastmile_qr_scan"}, "lon": -77.020163, "type": "electric_scooter", "fusion_lat": 0.0, "lat": 38.91640966666667, "name": "ee4bcc7f97dc4a30993dddb6a3786f24", "fusion_lon": 0.0, "bike_id": "ee4bcc7f97dc4a30993dddb6a3786f24", "is_disabled": 0, "is_reserved": 0}, {"rental_uris": {"ios": "https://dc.lft.to/lastmile_qr_scan", "android": "https://dc.lft.to/lastmile_qr_scan"}, "lon": -77.05008316666667, "type": "electric_scooter", "fusion_lat": 0.0, "lat": 38.907286166666665, "name": "22ec48e16372a7f198dae4213f03c835", "fusion_lon": 0.0, "bike_id": "22ec48e16372a7f198dae4213f03c835", "is_disabled": 0, "is_reserved": 0}, {"rental_uris": {"ios": "https://dc.lft.to/lastmile_qr_scan", "android": "https://dc.lft.to/lastmile_qr_scan"}, "lon": -77.032175, "type": "electric_scooter", "fusion_lat": 0.0, "lat": 38.892180833333335, "name": "ab9d1fced0e464cce8f21440e0f9f43e", "fusion_lon": 0.0, "bike_id": "ab9d1fced0e464cce8f21440e0f9f43e", "is_disabled": 0, "is_reserved": 0}, {"rental_uris": {"ios": "https://dc.lft.to/lastmile_qr_scan", "android": "https://dc.lft.to/lastmile_qr_scan"}, "lon": -77.04010883333333, "type": "electric_scooter", "fusion_lat": 0.0, "lat": 38.93249, "name": "ac7e56d5f74f55527ddd52b801002d8f", "fusion_lon": 0.0, "bike_id": "ac7e56d5f74f55527ddd52b801002d8f", "is_disabled": 0, "is_reserved": 0}, {"rental_uris": {"ios": "https://dc.lft.to/lastmile_qr_scan", "android": "https://dc.lft.to/lastmile_qr_scan"}, "lon": -76.99698933333333, "type": "electric_scooter", "fusion_lat": 0.0, "lat": 38.899988, "name": "395295156d42a2ee006ac09b3cda6387", "fusion_lon": 0.0, "bike_id": "395295156d42a2ee006ac09b3cda6387", "is_disabled": 0, "is_reserved": 0}, {"rental_uris": {"ios": "https://dc.lft.to/lastmile_qr_scan", "android": "https://dc.lft.to/lastmile_qr_scan"}, "lon": -77.0730215, "type": "electric_scooter", "fusion_lat": 0.0, "lat": 38.936289333333335, "name": "b834773e6c063b402283e50a47a9b4ba", "fusion_lon": 0.0, "bike_id": "b834773e6c063b402283e50a47a9b4ba", "is_disabled": 0, "is_reserved": 0}, {"rental_uris": {"ios": "https://dc.lft.to/lastmile_qr_scan", "android": "https://dc.lft.to/lastmile_qr_scan"}, "lon": -77.00829716666667, "type": "electric_scooter", "fusion_lat": 0.0, "lat": 38.8763505, "name": "599f81ba92bdd5f84d8d81a25a1c9065", "fusion_lon": 0.0, "bike_id": "599f81ba92bdd5f84d8d81a25a1c9065", "is_disabled": 0, "is_reserved": 0}, {"rental_uris": {"ios": "https://dc.lft.to/lastmile_qr_scan", "android": "https://dc.lft.to/lastmile_qr_scan"}, "lon": -77.11221, "type": "electric_bike", "fusion_lat": 0.0, "lat": 38.828655499999996, "name": "0eea05ed793dd4df3703914a0f3e8962", "fusion_lon": 0.0, "bike_id": "0eea05ed793dd4df3703914a0f3e8962", "is_disabled": 0, "is_reserved": 0}, {"rental_uris": {"ios": "https://dc.lft.to/lastmile_qr_scan", "android": "https://dc.lft.to/lastmile_qr_scan"}, "lon": -77.02156116666667, "type": "electric_scooter", "fusion_lat": 0.0, "lat": 38.92601466666667, "name": "4c689c2f4e73b9bcf9e38b2e6b628e9d", "fusion_lon": 0.0, "bike_id": "4c689c2f4e73b9bcf9e38b2e6b628e9d", "is_disabled": 0, "is_reserved": 0}, {"rental_uris": {"ios": "https://dc.lft.to/lastmile_qr_scan", "android": "https://dc.lft.to/lastmile_qr_scan"}, "lon": -77.02696316666666, "type": "electric_scooter", "fusion_lat": 0.0, "lat": 38.90836183333333, "name": "9553ac79dde0b3e9fe95be127cde4c68", "fusion_lon": 0.0, "bike_id": "9553ac79dde0b3e9fe95be127cde4c68", "is_disabled": 0, "is_reserved": 0}, {"rental_uris": {"ios": "https://dc.lft.to/lastmile_qr_scan", "android": "https://dc.lft.to/lastmile_qr_scan"}, "lon": -77.027356, "type": "electric_scooter", "fusion_lat": 0.0, "lat": 38.88150266666667, "name": "bae0749d692e78e4dc2f87f8f04a39a8", "fusion_lon": 0.0, "bike_id": "bae0749d692e78e4dc2f87f8f04a39a8", "is_disabled": 0, "is_reserved": 0}, {"rental_uris": {"ios": "https://dc.lft.to/lastmile_qr_scan", "android": "https://dc.lft.to/lastmile_qr_scan"}, "lon": -76.8749545, "type": "electric_bike", "fusion_lat": 0.0, "lat": 38.990872833333334, "name": "ba49843b732f1cfe4486630998b62e00", "fusion_lon": 0.0, "bike_id": "ba49843b732f1cfe4486630998b62e00", "is_disabled": 0, "is_reserved": 0}, {"rental_uris": {"ios": "https://dc.lft.to/lastmile_qr_scan", "android": "https://dc.lft.to/lastmile_qr_scan"}, "lon": -77.017607, "type": "electric_scooter", "fusion_lat": 0.0, "lat": 38.9025925, "name": "717696cdb8b3a681d7184e040d6f4ade", "fusion_lon": 0.0, "bike_id": "717696cdb8b3a681d7184e040d6f4ade", "is_disabled": 0, "is_reserved": 0}, {"rental_uris": {"ios": "https://dc.lft.to/lastmile_qr_scan", "android": "https://dc.lft.to/lastmile_qr_scan"}, "lon": -77.02378666666667, "type": "electric_scooter", "fusion_lat": 0.0, "lat": 38.903605, "name": "b2d48b753610169a5921b24bfe69cda4", "fusion_lon": 0.0, "bike_id": "b2d48b753610169a5921b24bfe69cda4", "is_disabled": 0, "is_reserved": 0}, {"rental_uris": {"ios": "https://dc.lft.to/lastmile_qr_scan", "android": "https://dc.lft.to/lastmile_qr_scan"}, "lon": -77.03826733333334, "type": "electric_scooter", "fusion_lat": 0.0, "lat": 38.90954716666667, "name": "450c61f34bb50948e87d984fac35efbb", "fusion_lon": 0.0, "bike_id": "450c61f34bb50948e87d984fac35efbb", "is_disabled": 0, "is_reserved": 0}, {"rental_uris": {"ios": "https://dc.lft.to/lastmile_qr_scan", "android": "https://dc.lft.to/lastmile_qr_scan"}, "lon": -77.00532383333334, "type": "electric_scooter", "fusion_lat": 0.0, "lat": 38.9289735, "name": "2ec1e1cd4e3a6dabb4b3e45faca8fd05", "fusion_lon": 0.0, "bike_id": "2ec1e1cd4e3a6dabb4b3e45faca8fd05", "is_disabled": 0, "is_reserved": 0}, {"rental_uris": {"ios": "https://dc.lft.to/lastmile_qr_scan", "android": "https://dc.lft.to/lastmile_qr_scan"}, "lon": -77.03540466666666, "type": "electric_scooter", "fusion_lat": 0.0, "lat": 38.91808366666667, "name": "f73251ec91245ba6902836b9fa6cfcbe", "fusion_lon": 0.0, "bike_id": "f73251ec91245ba6902836b9fa6cfcbe", "is_disabled": 0, "is_reserved": 0}, {"rental_uris": {"ios": "https://dc.lft.to/lastmile_qr_scan", "android": "https://dc.lft.to/lastmile_qr_scan"}, "lon": -77.07716866666667, "type": "electric_scooter", "fusion_lat": 0.0, "lat": 38.956095833333336, "name": "8c76e8e1d405c04829e07c102c313f86", "fusion_lon": 0.0, "bike_id": "8c76e8e1d405c04829e07c102c313f86", "is_disabled": 0, "is_reserved": 0}, {"rental_uris": {"ios": "https://dc.lft.to/lastmile_qr_scan", "android": "https://dc.lft.to/lastmile_qr_scan"}, "lon": -77.03316533333333, "type": "electric_scooter", "fusion_lat": 0.0, "lat": 38.9003125, "name": "6c131b4f394638f457c70818b3112089", "fusion_lon": 0.0, "bike_id": "6c131b4f394638f457c70818b3112089", "is_disabled": 0, "is_reserved": 0}, {"rental_uris": {"ios": "https://dc.lft.to/lastmile_qr_scan", "android": "https://dc.lft.to/lastmile_qr_scan"},