{"data": {"bikes": [{"is_reserved": 0, "bike_id": "4ed546a8fdfc2c992f5f85e985883473", "type": "electric_scooter", "name": "4ed546a8fdfc2c992f5f85e985883473", "is_disabled": 0, "fusion_lon": 0.0, "rental_uris": {"android": "https://dc.lft.to/lastmile_qr_scan", "ios": "https://dc.lft.to/lastmile_qr_scan"}, "lat": 38.900319333333336, "lon": -76.989076, "fusion_lat": 0.0}, {"is_reserved": 0, "bike_id": "bc17cda3079c55d82a4ef5934b83dfdf", "type": "electric_scooter", "name": "bc17cda3079c55d82a4ef5934b83dfdf", "is_disabled": 0, "fusion_lon": 0.0, "rental_uris": {"android": "https://dc.lft.to/lastmile_qr_scan", "ios": "https://dc.lft.to/lastmile_qr_scan"}, "lat": 38.92343283333334, "lon": -77.051829, "fusion_lat": 0.0}, {"is_reserved": 0, "bike_id": "b0ef3b518149457699639e782df00130", "type": "electric_scooter", "name": "b0ef3b518149457699639e782df00130", "is_disabled": 0, "fusion_lon": 0.0, "rental_uris": {"android": "https://dc.lft.to/lastmile_qr_scan", "ios": "https://dc.lft.to/lastmile_qr_scan"}, "lat": 38.926255166666664, "lon": -77.033106, "fusion_lat": 0.0}, {"is_reserved": 0, "bike_id": "db0f648f882d87d81626d3b0c43a5bc8", "type": "electric_scooter", "name": "db0f648f882d87d81626d3b0c43a5bc8", "is_disabled": 0, "fusion_lon": 0.0, "rental_uris": {"android": "https://dc.lft.to/lastmile_qr_scan", "ios": "https://dc.lft.to/lastmile_qr_scan"}, "lat": 38.904257333333334, "lon": -77.02850716666667, "fusion_lat": 0.0}, {"is_reserved": 0, "bike_id": "bd218bf92ed5e9b313a9996838724c60", "type": "electric_bike", "name": "bd218bf92ed5e9b313a9996838724c60", "is_disabled": 0, "fusion_lon": 0.0, "rental_uris": {"android": "https://dc.lft.to/lastmile_qr_scan", "ios": "https://dc.lft.to/lastmile_qr_scan"}, "lat": 38.995012333333335, "lon": -77.00136433333333, "fusion_lat": 0.0}, {"is_reserved": 0, "bike_id": "d199e7ec3de9764bd25f9ad315821928", "type": "electric_scooter", "name": "d199e7ec3de9764bd25f9ad315821928", "is_disabled": 0, "fusion_lon": 0.0, "rental_uris": {"android": "https://dc.lft.to/lastmile_qr_scan", "ios": "https://dc.lft.to/lastmile_qr_scan"}, "lat": 38.941884333333334, "lon": -77.03101783333334, "fusion_lat": 0.0}, {"is_reserved": 0, "bike_id": "90f00440004920c91077fe9d75f00176", "type": "electric_bike", "name": "90f00440004920c91077fe9d75f00176", "is_disabled": 0, "fusion_lon": 0.0, "rental_uris": {"android": "https://dc.lft.to/lastmile_qr_scan", "ios": "https://dc.lft.to/lastmile_qr_scan"}, "lat": 38.91736133333333, "lon": -77.00760666666666, "fusion_lat": 0.0}, {"is_reserved": 0, "bike_id": "375638887daa23778c95520b7ebc4c1e", "type": "electric_scooter", "name": "375638887daa23778c95520b7ebc4c1e", "is_disabled": 0, "fusion_lon": 0.0, "rental_uris": {"android": "https://dc.lft.to/lastmile_qr_scan", "ios": "https://dc.lft.to/lastmile_qr_scan"}, "lat": 38.926574333333335, "lon": -77.03729733333333, "fusion_lat": 0.0}, {"is_reserved": 0, "bike_id": "61cf8121e8243169024aba2acbf26816", "type": "electric_scooter", "name": "61cf8121e8243169024aba2acbf26816", "is_disabled": 0, "fusion_lon": 0.0, "rental_uris": {"android": "https://dc.lft.to/lastmile_qr_scan", "ios": "https://dc.lft.to/lastmile_qr_scan"}, "lat": 38.892006333333335, "lon": -76.95698016666667, "fusion_lat": 0.0}, {"is_reserved": 0, "bike_id": "4ebb40bc00b22cb9e2854d74d68e896d", "type": "electric_scooter", "name": "4ebb40bc00b22cb9e2854d74d68e896d", "is_disabled": 0, "fusion_lon": 0.0, "rental_uris": {"android": "https://dc.lft.to/lastmile_qr_scan", "ios": "https://dc.lft.to/lastmile_qr_scan"}, "lat": 38.8761345, "lon": -77.0010815, "fusion_lat": 0.0}, {"is_reserved": 0, "bike_id": "c61f4ed02cfd3e7a2d3e4617a895df7e", "type": "electric_scooter", "name": "c61f4ed02cfd3e7a2d3e4617a895df7e", "is_disabled": 0, "fusion_lon": 0.0, "rental_uris": {"android": "https://dc.lft.to/lastmile_qr_scan", "ios": "https://dc.lft.to/lastmile_qr_scan"}, "lat": 38.9069435, "lon": -77.02985766666667, "fusion_lat": 0.0}, {"is_reserved": 0, "bike_id": "10801802fdfba8d7e40d09919a294eb9", "type": "electric_scooter", "name": "10801802fdfba8d7e40d09919a294eb9", "is_disabled": 0, "fusion_lon": 0.0, "rental_uris": {"android": "https://dc.lft.to/lastmile_qr_scan", "ios": "https://dc.lft.to/lastmile_qr_scan"}, "lat": 38.9205505, "lon": -77.02422183333333, "fusion_lat": 0.0}, {"is_reserved": 0, "bike_id": "fd26c7fccd3c5beffff455798608fa6d", "type": "electric_scooter", "name": "fd26c7fccd3c5beffff455798608fa6d", "is_disabled": 0, "fusion_lon": 0.0, "rental_uris": {"android": "https://dc.lft.to/lastmile_qr_scan", "ios": "https://dc.lft.to/lastmile_qr_scan"}, "lat": 38.96603266666666, "lon": -77.02105483333334, "fusion_lat": 0.0}, {"is_reserved": 0, "bike_id": "61424c31ae0a895b6033e137f5d66ec6", "type": "electric_scooter", "name": "61424c31ae0a895b6033e137f5d66ec6", "is_disabled": 0, "fusion_lon": 0.0, "rental_uris": {"android": "https://dc.lft.to/lastmile_qr_scan", "ios": "https://dc.lft.to/lastmile_qr_scan"}, "lat": 38.93560083333333, "lon": -77.05880383333333, "fusion_lat": 0.0}, {"is_reserved": 0, "bike_id": "bba3de0c8e9663e9321ffb0f02ac19a8", "type": "electric_scooter", "name": "bba3de0c8e9663e9321ffb0f02ac19a8", "is_disabled": 0, "fusion_lon": 0.0, "rental_uris": {"android": "https://dc.lft.to/lastmile_qr_scan", "ios": "https://dc.lft.to/lastmile_qr_scan"}, "lat": 38.911034666666666, "lon": -77.02640966666667, "fusion_lat": 0.0}, {"is_reserved": 0, "bike_id": "4ede69e8b3b397e3ac336b9020110704", "type": "electric_scooter", "name": "4ede69e8b3b397e3ac336b9020110704", "is_disabled": 0, "fusion_lon": 0.0, "rental_uris": {"android": "https://dc.lft.to/lastmile_qr_scan", "ios": "https://dc.lft.to/lastmile_qr_scan"}, "lat": 38.87531966666667, "lon": -77.0006765, "fusion_lat": 0.0}, {"is_reserved": 0, "bike_id": "3b09379bf20ab5cc14787ca28af0a4cb", "type": "electric_scooter", "name": "3b09379bf20ab5cc14787ca28af0a4cb", "is_disabled": 0, "fusion_lon": 0.0, "rental_uris": {"android": "https://dc.lft.to/lastmile_qr_scan", "ios": "https://dc.lft.to/lastmile_qr_scan"}, "lat": 38.887122166666664, "lon": -77.02179633333333, "fusion_lat": 0.0}, {"is_reserved": 0, "bike_id": "73de6249d9ff3594324bedf909285749", "type": "electric_scooter", "name": "73de6249d9ff3594324bedf909285749", "is_disabled": 0, "fusion_lon": 0.0, "rental_uris": {"android": "https://dc.lft.to/lastmile_qr_scan", "ios": "https://dc.lft.to/lastmile_qr_scan"}, "lat": 38.890805, "lon": -76.99510283333333, "fusion_lat": 0.0}, {"is_reserved": 0, "bike_id": "bbb6d6893135fc5140aa536967de06a9", "type": "electric_scooter", "name": "bbb6d6893135fc5140aa536967de06a9", "is_disabled": 0, "fusion_lon": 0.0, "rental_uris": {"android": "https://dc.lft.to/lastmile_qr_scan", "ios": "https://dc.lft.to/lastmile_qr_scan"}, "lat": 38.88495666666667, "lon": -77.00599066666666, "fusion_lat": 0.0}, {"is_reserved": 0, "bike_id": "ad29722079f6d4a2cb1fab03ba4b15b8", "type": "electric_scooter", "name": "ad29722079f6d4a2cb1fab03ba4b15b8", "is_disabled": 0, "fusion_lon": 0.0, "rental_uris": {"android": "https://dc.lft.to/lastmile_qr_scan", "ios": "https://dc.lft.to/lastmile_qr_scan"}, "lat": 38.903782, "lon": -77.05375983333333, "fusion_lat": 0.0}, {"is_reserved": 0, "bike_id": "b0e29a19e837623284c69665b714f1a6", "type": "electric_scooter", "name": "b0e29a19e837623284c69665b714f1a6", "is_disabled": 0, "fusion_lon": 0.0, "rental_uris": {"android": "https://dc.lft.to/lastmile_qr_scan", "ios": "https://dc.lft.to/lastmile_qr_scan"}, "lat": 38.918554, "lon": -76.9654495, "fusion_lat": 0.0}, {"is_reserved": 0, "bike_id": "ca5b7c8f9fe9ebf007e90ab3956eabbc", "type": "electric_scooter", "name": "ca5b7c8f9fe9ebf007e90ab3956eabbc", "is_disabled": 0, "fusion_lon": 0.0, "rental_uris": {"android": "https://dc.lft.to/lastmile_qr_scan", "ios": "https://dc.lft.to/lastmile_qr_scan"}, "lat": 38.956526, "lon": -77.013162, "fusion_lat": 0.0}, {"is_reserved": 0, "bike_id": "439070adcd2d9ee8caa5a8c190b134a7", "type": "electric_scooter", "name": "439070adcd2d9ee8caa5a8c190b134a7", "is_disabled": 0, "fusion_lon": 0.0, "rental_uris": {"android": "https://dc.lft.to/lastmile_qr_scan", "ios": "https://dc.lft.to/lastmile_qr_scan"}, "lat": 38.88596866666666, "lon": -77.01794183333334, "fusion_lat": 0.0}, {"is_reserved": 0, "bike_id": "0d19f4cb3fd096ed0b9484666cd9c6a4", "type": "electric_scooter", "name": "0d19f4cb3fd096ed0b9484666cd9c6a4", "is_disabled": 0, "fusion_lon": 0.0, "rental_uris": {"android": "https://dc.lft.to/lastmile_qr_scan", "ios": "https://dc.lft.to/lastmile_qr_scan"}, "lat": 38.90248, "lon": -76.9896895, "fusion_lat": 0.0}, {"is_reserved": 0, "bike_id": "e1a1cb9a6c8e4610678079064f6de030", "type": "electric_scooter", "name": "e1a1cb9a6c8e4610678079064f6de030", "is_disabled": 0, "fusion_lon": 0.0, "rental_uris": {"android": "https://dc.lft.to/lastmile_qr_scan", "ios": "https://dc.lft.to/lastmile_qr_scan"}, "lat": 38.924293166666665, "lon": -77.04245383333334, "fusion_lat": 0.0}, {"is_reserved": 0, "bike_id": "f76c18a1ff7102334484a3c267923e19", "type": "electric_scooter", "name": "f76c18a1ff7102334484a3c267923e19", "is_disabled": 0, "fusion_lon": 0.0, "rental_uris": {"android": "https://dc.lft.to/lastmile_qr_scan", "ios": "https://dc.lft.to/lastmile_qr_scan"}, "lat": 38.94463116666667, "lon": -77.00659416666667, "fusion_lat": 0.0}, {"is_reserved": 0, "bike_id": "392a5711c294fd74a3097247b3046fca", "type": "electric_scooter", "name": "392a5711c294fd74a3097247b3046fca", "is_disabled": 0, "fusion_lon": 0.0, "rental_uris": {"android": "https://dc.lft.to/lastmile_qr_scan", "ios": "https://dc.lft.to/lastmile_qr_scan"}, "lat": 38.9046975, "lon": -77.04862666666666, "fusion_lat": 0.0}, {"is_reserved": 0, "bike_id": "26b583d1bcfddbc32f16d02caecb06fc", "type": "electric_bike", "name": "26b583d1bcfddbc32f16d02caecb06fc", "is_disabled": 0, "fusion_lon": 0.0, "rental_uris": {"android": "https://dc.lft.to/lastmile_qr_scan", "ios": "https://dc.lft.to/lastmile_qr_scan"}, "lat": 38.864813, "lon": -76.97742933333333, "fusion_lat": 0.0}, {"is_reserved": 0, "bike_id": "4b548cfde88268c79211910842723a28", "type": "electric_scooter", "name": "4b548cfde88268c79211910842723a28", "is_disabled": 0, "fusion_lon": 0.0, "rental_uris": {"android": "https://dc.lft.to/lastmile_qr_scan", "ios": "https://dc.lft.to/lastmile_qr_scan"}, "lat": 38.91702633333333, "lon": -77.02396466666667, "fusion_lat": 0.0}, {"is_reserved": 0, "bike_id": "064cce3349be240554b40d1d7bef1a80", "type": "electric_scooter", "name": "064cce3349be240554b40d1d7bef1a80", "is_disabled": 0, "fusion_lon": 0.0, "rental_uris": {"android": "https://dc.lft.to/lastmile_qr_scan", "ios": "https://dc.lft.to/lastmile_qr_scan"}, "lat": 38.90805616666667, "lon": -77.08401483333333, "fusion_lat": 0.0}, {"is_reserved": 0, "bike_id": "a1bbfd954e4cb685207118d404487a1e", "type": "electric_scooter", "name": "a1bbfd954e4cb685207118d404487a1e", "is_disabled": 0, "fusion_lon": 0.0, "rental_uris": {"android": "https://dc.lft.to/lastmile_qr_scan", "ios": "https://dc.lft.to/lastmile_qr_scan"}, "lat": 38.912980166666664, "lon": -77.01741916666667, "fusion_lat": 0.0}, {"is_reserved": 0, "bike_id": "d619b24b8f90279d96a9ef944fd7460f", "type": "electric_scooter", "name": "d619b24b8f90279d96a9ef944fd7460f", "is_disabled": 0, "fusion_lon": 0.0, "rental_uris": {"android": "https://dc.lft.to/lastmile_qr_scan", "ios": "https://dc.lft.to/lastmile_qr_scan"}, "lat": 38.92761083333333, "lon": -77.027831, "fusion_lat": 0.0}, {"is_reserved": 0, "bike_id": "bfb8548165ae3a8e94bb89fc0c2f412a", "type": "electric_scooter", "name": "bfb8548165ae3a8e94bb89fc0c2f412a", "is_disabled": 0, "fusion_lon": 0.0, "rental_uris": {"android": "https://dc.lft.to/lastmile_qr_scan", "ios": "https://dc.lft.to/lastmile_qr_scan"}, "lat": 38.91119283333333, "lon": -77.03829383333333, "fusion_lat": 0.0}, {"is_reserved": 0, "bike_id": "3f8438d260df5b921be1bab86f33b214", "type": "electric_scooter", "name": "3f8438d260df5b921be1bab86f33b214", "is_disabled": 0, "fusion_lon": 0.0, "rental_uris": {"android": "https://dc.lft.to/lastmile_qr_scan", "ios": "https://dc.lft.to/lastmile_qr_scan"}, "lat": 38.916107, "lon": -77.02201333333333, "fusion_lat": 0.0}, {"is_reserved": 0, "bike_id": "518e5b7bcf4ec6c2668d5315aaaf25e8", "type": "electric_scooter", "name": "518e5b7bcf4ec6c2668d5315aaaf25e8", "is_disabled": 0, "fusion_lon": 0.0, "rental_uris": {"android": "https://dc.lft.to/lastmile_qr_scan", "ios": "https://dc.lft.to/lastmile_qr_scan"}, "lat": 38.9202235, "lon": -76.99557966666667, "fusion_lat": 0.0}, {"is_reserved": 0, "bike_id": "ea79d53941f030be9824e154edc6620a", "type": "electric_scooter", "name": "ea79d53941f030be9824e154edc6620a", "is_disabled": 0, "fusion_lon": 0.0, "rental_uris": {"android": "https://dc.lft.to/lastmile_qr_scan", "ios": "https://dc.lft.to/lastmile_qr_scan"}, "lat": 38.907219166666664, "lon": -77.02958716666667, "fusion_lat": 0.0}, {"is_reserved": 0, "bike_id": "9df7ba2c6b9cf0f6823a7539d5c93c54", "type": "electric_scooter", "name": "9df7ba2c6b9cf0f6823a7539d5c93c54", "is_disabled": 0, "fusion_lon": 0.0, "rental_uris": {"android": "https://dc.lft.to/lastmile_qr_scan", "ios": "https://dc.lft.to/lastmile_qr_scan"}, "lat": 38.899595833333336, "lon": -77.04895716666667, "fusion_lat": 0.0}, {"is_reserved": 0, "bike_id": "51944976f520eb9c4a29aeda76aa8046", "type": "electric_scooter", "name": "51944976f520eb9c4a29aeda76aa8046", "is_disabled": 0, "fusion_lon": 0.0, "rental_uris": {"android": "https://dc.lft.to/lastmile_qr_scan", "ios": "https://dc.lft.to/lastmile_qr_scan"}, "lat": 38.9181305, "lon": -77.02475133333333, "fusion_lat": 0.0}, {"is_reserved": 0, "bike_id": "ed149be373bf9af397dae234c97be4e5", "type": "electric_scooter", "name": "ed149be373bf9af397dae234c97be4e5", "is_disabled": 0, "fusion_lon": 0.0, "rental_uris": {"android": "https://dc.lft.to/lastmile_qr_scan", "ios": "https://dc.lft.to/lastmile_qr_scan"}, "lat": 38.89866633333333, "lon": -76.94664883333333, "fusion_lat": 0.0}, {"is_reserved": 0, "bike_id": "3aff16b648f87b4b162e044766facb78", "type": "electric_scooter", "name": "3aff16b648f87b4b162e044766facb78", "is_disabled": 0, "fusion_lon": 0.0, "rental_uris": {"android": "https://dc.lft.to/lastmile_qr_scan", "ios": "https://dc.lft.to/lastmile_qr_scan"}, "lat": 38.868971333333334, "lon": -76.982378, "fusion_lat": 0.0}, {"is_reserved": 0, "bike_id": "c6367b3089763cb7b6282b63390f9833", "type": "electric_scooter", "name": "c6367b3089763cb7b6282b63390f9833", "is_disabled": 0, "fusion_lon": 0.0, "rental_uris": {"android": "https://dc.lft.to/lastmile_qr_scan", "ios": "https://dc.lft.to/lastmile_qr_scan"}, "lat": 38.90496566666667, "lon": -77.025924, "fusion_lat": 0.0}, {"is_reserved": 0, "bike_id": "830766d11f88dc07395dafac108cab97", "type": "electric_scooter", "name": "830766d11f88dc07395dafac108cab97", "is_disabled": 0, "fusion_lon": 0.0, "rental_uris": {"android": "https://dc.lft.to/lastmile_qr_scan", "ios": "https://dc.lft.to/lastmile_qr_scan"}, "lat": 38.93605, "lon": -77.05890983333333, "fusion_lat": 0.0}, {"is_reserved": 0, "bike_id": "22e3c2b3f7ced40daebacd0d9c60ab90", "type": "electric_scooter", "name": "22e3c2b3f7ced40daebacd0d9c60ab90", "is_disabled": 0, "fusion_lon": 0.0, "rental_uris": {"android": "https://dc.lft.to/lastmile_qr_scan", "ios": "https://dc.lft.to/lastmile_qr_scan"}, "lat": 38.9241585, "lon": -77.01946716666667, "fusion_lat": 0.0}, {"is_reserved": 0, "bike_id": "dc5fe2305925470a941ae303d79c2a89", "type": "electric_bike", "name": "dc5fe2305925470a941ae303d79c2a89", "is_disabled": 0, "fusion_lon": 0.0, "rental_uris": {"android": "https://dc.lft.to/lastmile_qr_scan", "ios": "https://dc.lft.to/lastmile_qr_scan"}, "lat": 38.98527816666667, "lon": -77.00412766666666, "fusion_lat": 0.0}, {"is_reserved": 0, "bike_id": "1bc84130a0d179328680c490f78d63da", "type": "electric_scooter", "name": "1bc84130a0d179328680c490f78d63da", "is_disabled": 0, "fusion_lon": 0.0, "rental_uris": {"android": "https://dc.lft.to/lastmile_qr_scan", "ios": "https://dc.lft.to/lastmile_qr_scan"}, "lat": 38.93945766666667, "lon": -77.03266083333334, "fusion_lat": 0.0}, {"is_reserved": 0, "bike_id": "809ae1f34cf255f54692a7bd0d254601", "type": "electric_scooter", "name": "809ae1f34cf255f54692a7bd0d254601", "is_disabled": 0, "fusion_lon": 0.0, "rental_uris": {"android": "https://dc.lft.to/lastmile_qr_scan", "ios": "https://dc.lft.to/lastmile_qr_scan"}, "lat": 38.92053666666666, "lon": -77.01583266666667, "fusion_lat": 0.0}, {"is_reserved": 0, "bike_id": "1c60bda32524013878274c61534d0521", "type": "electric_scooter", "name": "1c60bda32524013878274c61534d0521", "is_disabled": 0, "fusion_lon": 0.0, "rental_uris": {"android": "https://dc.lft.to/lastmile_qr_scan", "ios": "https://dc.lft.to/lastmile_qr_scan"}, "lat": 38.901805833333334, "lon": -76.93466633333334, "fusion_lat": 0.0}, {"is_reserved": 0, "bike_id": "2ba69f514d23dbfb9b00cc2b63ec0679", "type": "electric_scooter", "name": "2ba69f514d23dbfb9b00cc2b63ec0679", "is_disabled": 0, "fusion_lon": 0.0, "rental_uris": {"android": "https://dc.lft.to/lastmile_qr_scan", "ios": "https://dc.lft.to/lastmile_qr_scan"}, "lat": 38.9180705, "lon": -77.03880516666666, "fusion_lat": 0.0}, {"is_reserved": 0, "bike_id": "b9c5397b7ad16c6c39aa2c8c4743b083", "type": "electric_scooter", "name": "b9c5397b7ad16c6c39aa2c8c4743b083", "is_disabled": 0, "fusion_lon": 0.0, "rental_uris": {"android": "https://dc.lft.to/lastmile_qr_scan", "ios": "https://dc.lft.to/lastmile_qr_scan"}, "lat": 38.899456666666666, "lon": -77.046809, "fusion_lat": 0.0}, {"is_reserved": 0, "bike_id": "eb44ee54b51488d6d2788a934300dd96", "type": "electric_scooter", "name": "eb44ee54b51488d6d2788a934300dd96", "is_disabled": 0, "fusion_lon": 0.0, "rental_uris": {"android": "https://dc.lft.to/lastmile_qr_scan", "ios": "https://dc.lft.to/lastmile_qr_scan"}, "lat": 38.89952783333333, "lon": -77.01614633333334, "fusion_lat": 0.0}, {"is_reserved": 0, "bike_id": "94e23643b25d628ddc0805a0c376d1b5", "type": "electric_scooter", "name": "94e23643b25d628ddc0805a0c376d1b5", "is_disabled": 0, "fusion_lon": 0.0, "rental_uris": {"android": "https://dc.lft.to/lastmile_qr_scan", "ios": "https://dc.lft.to/lastmile_qr_scan"}, "lat": 38.91630116666666, "lon": -77.0320915, "fusion_lat": 0.0}, {"is_reserved": 0, "bike_id": "0ddf69dbf4ac963dc6c2b41e8bcf4fd0", "type": "electric_scooter", "name": "0ddf69dbf4ac963dc6c2b41e8bcf4fd0", "is_disabled": 0, "fusion_lon": 0.0, "rental_uris": {"android": "https://dc.lft.to/lastmile_qr_scan", "ios": "https://dc.lft.to/lastmile_qr_scan"}, "lat": 38.90028366666667, "lon": -77.01170933333333, "fusion_lat": 0.0}, {"is_reserved": 0, "bike_id": "bdaf1a9192d03fc0cd376df219541fbb", "type": "electric_scooter", "name": "bdaf1a9192d03fc0cd376df219541fbb", "is_disabled": 0, "fusion_lon": 0.0, "rental_uris": {"android": "https://dc.lft.to/lastmile_qr_scan", "ios": "https://dc.lft.to/lastmile_qr_scan"}, "lat": 38.90094466666667, "lon": -76.976843, "fusion_lat": 0.0}, {"is_reserved": 0, "bike_id": "abecdbaf3dad3a739b503276ba9320cf", "type": "electric_scooter", "name": "abecdbaf3dad3a739b503276ba9320cf", "is_disabled": 0, "fusion_lon": 0.0, "rental_uris": {"android": "https://dc.lft.to/lastmile_qr_scan", "ios": "https://dc.lft.to/lastmile_qr_scan"}, "lat": 38.929834, "lon": -77.03467966666666, "fusion_lat": 0.0}, {"is_reserved": 0, "bike_id": "950ef2289eb883275a27d329d5e01d1f", "type": "electric_scooter", "name": "950ef2289eb883275a27d329d5e01d1f", "is_disabled": 0, "fusion_lon": 0.0, "rental_uris": {"android": "https://dc.lft.to/lastmile_qr_scan", "ios": "https://dc.lft.to/lastmile_qr_scan"}, "lat": 38.91414616666667, "lon": -77.01798566666666, "fusion_lat": 0.0}, {"is_reserved": 0, "bike_id": "c03f371e36c231b1b43f2ea34ed0f1f3", "type": "electric_scooter", "name": "c03f371e36c231b1b43f2ea34ed0f1f3", "is_disabled": 0, "fusion_lon": 0.0, "rental_uris": {"android": "https://dc.lft.to/lastmile_qr_scan", "ios": "https://dc.lft.to/lastmile_qr_scan"}, "lat": 38.89880733333333, "lon": -77.00352616666666, "fusion_lat": 0.0}, {"is_reserved": 0, "bike_id": "2f121c1b1b0842ab1c8afb288ed92f8b", "type": "electric_scooter", "name": "2f121c1b1b0842ab1c8afb288ed92f8b", "is_disabled": 0, "fusion_lon": 0.0, "rental_uris": {"android": "https://dc.lft.to/lastmile_qr_scan", "ios": "https://dc.lft.to/lastmile_qr_scan"}, "lat": 38.93068816666667, "lon": -77.023348, "fusion_lat": 0.0}, {"is_reserved": 0, "bike_id": "2983ad48a7ba55341cdf9b3ac9becbba", "type": "electric_scooter", "name": "2983ad48a7ba55341cdf9b3ac9becbba", "is_disabled": 0, "fusion_lon": 0.0, "rental_uris": {"android": "https://dc.lft.to/lastmile_qr_scan", "ios": "https://dc.lft.to/lastmile_qr_scan"}, "lat": 38.90972433333334, "lon": -76.9846495, "fusion_lat": 0.0}, {"is_reserved": 0, "bike_id": "20bb0d430dec664390e2f197b80938af", "type": "electric_bike", "name": "20bb0d430dec664390e2f197b80938af", "is_disabled": 0, "fusion_lon": 0.0, "rental_uris": {"android": "https://dc.lft.to/lastmile_qr_scan", "ios": "https://dc.lft.to/lastmile_qr_scan"}, "lat": 38.9061705, "lon": -77.12881733333333, "fusion_lat": 0.0}, {"is_reserved": 0, "bike_id": "240c6ccde3b7eb1c4272428bcbdf9011", "type": "electric_scooter", "name": "240c6ccde3b7eb1c4272428bcbdf9011", "is_disabled": 0, "fusion_lon": 0.0, "rental_uris": {"android": "https://dc.lft.to/lastmile_qr_scan", "ios": "https://dc.lft.to/lastmile_qr_scan"}, "lat": 38.917191, "lon": -77.04153883333333, "fusion_lat": 0.0}, {"is_reserved": 0, "bike_id": "7802228434b12a5ca20c27bc0ee60fc8", "type": "electric_scooter", "name": "7802228434b12a5ca20c27bc0ee60fc8", "is_disabled": 0, "fusion_lon": 0.0, "rental_uris": {"android": "https://dc.lft.to/lastmile_qr_scan", "ios": "https://dc.lft.to/lastmile_qr_scan"}, "lat": 38.8621305, "lon": -76.99476733333333, "fusion_lat": 0.0}, {"is_reserved": 0, "bike_id": "124096eb1c9dc24cafe5c3663ed0cee8", "type": "electric_scooter", "name": "124096eb1c9dc24cafe5c3663ed0cee8", "is_disabled": 0, "fusion_lon": 0.0, "rental_uris": {"android": "https://dc.lft.to/lastmile_qr_scan", "ios": "https://dc.lft.to/lastmile_qr_scan"}, "lat": 38.882613166666665, "lon": -77.00358983333334, "fusion_lat": 0.0}, {"is_reserved": 0, "bike_id": "ed8524b8a7ba40649e0e76a90dcbd7da", "type": "electric_scooter", "name": "ed8524b8a7ba40649e0e76a90dcbd7da", "is_disabled": 0, "fusion_lon": 0.0, "rental_uris": {"android": "https://dc.lft.to/lastmile_qr_scan", "ios": "https://dc.lft.to/lastmile_qr_scan"}, "lat": 38.937630666666664, "lon": -77.0328355, "fusion_lat": 0.0}, {"is_reserved": 0, "bike_id": "dc3e2c8553700d0f84dd00ec1de5209b", "type": "electric_scooter", "name": "dc3e2c8553700d0f84dd00ec1de5209b", "is_disabled": 0, "fusion_lon": 0.0, "rental_uris": {"android": "https://dc.lft.to/lastmile_qr_scan", "ios": "https://dc.lft.to/lastmile_qr_scan"}, "lat": 38.90810966666667, "lon": -76.99721183333334, "fusion_lat": 0.0}, {"is_reserved": 0, "bike_id": "69eb60861c348f97b1cc6fc48eb35b39", "type": "electric_bike", "name": "69eb60861c348f97b1cc6fc48eb35b39", "is_disabled": 0, "fusion_lon": 0.0, "rental_uris": {"android": "https://dc.lft.to/lastmile_qr_scan", "ios": "https://dc.lft.to/lastmile_qr_scan"}, "lat": 38.9263325, "lon": -77.03318383333334, "fusion_lat": 0.0}, {"is_reserved": 0, "bike_id": "6bd3921ecbcb2d96c427a2fcf6d7c351", "type": "electric_scooter", "name": "6bd3921ecbcb2d96c427a2fcf6d7c351", "is_disabled": 0, "fusion_lon": 0.0, "rental_uris": {"android": "https://dc.lft.to/lastmile_qr_scan", "ios": "https://dc.lft.to/lastmile_qr_scan"}, "lat": 38.919946, "lon": -77.01779216666667, "fusion_lat": 0.0}, {"is_reserved": 0, "bike_id": "c98806d470f309a2cef97a8a6d838b6f", "type": "electric_scooter", "name": "c98806d470f309a2cef97a8a6d838b6f", "is_disabled": 0, "fusion_lon": 0.0, "rental_uris": {"android": "https://dc.lft.to/lastmile_qr_scan", "ios": "https://dc.lft.to/lastmile_qr_scan"}, "lat": 38.914495, "lon": -77.02213083333334, "fusion_lat": 0.0}, {"is_reserved": 0, "bike_id": "618d643a0228f68e3f5a32668fd094f5", "type": "electric_scooter", "name": "618d643a0228f68e3f5a32668fd094f5", "is_disabled": 0, "fusion_lon": 0.0, "rental_uris": {"android": "https://dc.lft.to/lastmile_qr_scan", "ios": "https://dc.lft.to/lastmile_qr_scan"}, "lat": 38.918301666666665, "lon": -77.03445333333333, "fusion_lat": 0.0}, {"is_reserved": 0, "bike_id": "3f6fb92cbd91eae514d7571c8aa9cbac", "type": "electric_scooter", "name": "3f6fb92cbd91eae514d7571c8aa9cbac", "is_disabled": 0, "fusion_lon": 0.0, "rental_uris": {"android": "https://dc.lft.to/lastmile_qr_scan", "ios": "https://dc.lft.to/lastmile_qr_scan"}, "lat": 38.906560999999996, "lon": -76.98608616666667, "fusion_lat": 0.0}, {"is_reserved": 0, "bike_id": "f9a93bd78f2fb83eeaede9c85b917704", "type": "electric_bike", "name": "f9a93bd78f2fb83eeaede9c85b917704", "is_disabled": 0, "fusion_lon": 0.0, "rental_uris": {"android": "https://dc.lft.to/lastmile_qr_scan", "ios": "https://dc.lft.to/lastmile_qr_scan"}, "lat": 38.998171666666664, "lon": -76.99775, "fusion_lat": 0.0}, {"is_reserved": 0, "bike_id": "f2119aa65fb87a4d186bb9c16e2fcb79", "type": "electric_scooter", "name": "f2119aa65fb87a4d186bb9c16e2fcb79", "is_disabled": 0, "fusion_lon": 0.0, "rental_uris": {"android": "https://dc.lft.to/lastmile_qr_scan", "ios": "https://dc.lft.to/lastmile_qr_scan"}, "lat": 38.89879883333333, "lon": -77.0329065, "fusion_lat": 0.0}, {"is_reserved": 0, "bike_id": "14e712cb2afeb00cc7e9aa9d655d86c8", "type": "electric_scooter", "name": "14e712cb2afeb00cc7e9aa9d655d86c8", "is_disabled": 0, "fusion_lon": 0.0, "rental_uris": {"android": "https://dc.lft.to/lastmile_qr_scan", "ios": "https://dc.lft.to/lastmile_qr_scan"}, "lat": 38.9153875, "lon": -77.01226166666666, "fusion_lat": 0.0}, {"is_reserved": 0, "bike_id": "016299ab5a0af9a155b635028808db62", "type": "electric_scooter", "name": "016299ab5a0af9a155b635028808db62", "is_disabled": 0, "fusion_lon": 0.0, "rental_uris": {"android": "https://dc.lft.to/lastmile_qr_scan", "ios": "https://dc.lft.to/lastmile_qr_scan"}, "lat": 38.940625, "lon": -77.03283466666667, "fusion_lat": 0.0}, {"is_reserved": 0, "bike_id": "d7ef60913753bf7167026b110152d30f", "type": "electric_scooter", "name": "d7ef60913753bf7167026b110152d30f", "is_disabled": 0, "fusion_lon": 0.0, "rental_uris": {"android": "https://dc.lft.to/lastmile_qr_scan", "ios": "https://dc.lft.to/lastmile_qr_scan"}, "lat": 38.924910833333335, "lon": -77.02179616666666, "fusion_lat": 0.0}, {"is_reserved": 0, "bike_id": "ec7142e6a2a8ddfb6f20a1030b0b91d0", "type": "electric_scooter", "name": "ec7142e6a2a8ddfb6f20a1030b0b91d0", "is_disabled": 0, "fusion_lon": 0.0, "rental_uris": {"android": "https://dc.lft.to/lastmile_qr_scan", "ios": "https://dc.lft.to/lastmile_qr_scan"}, "lat": 38.9260945, "lon": -77.029658, "fusion_lat": 0.0}, {"is_reserved": 0, "bike_id": "43689336708e331e8b09b950db733d3f", "type": "electric_scooter", "name": "43689336708e331e8b09b950db733d3f", "is_disabled": 0, "fusion_lon": 0.0, "rental_uris": {"android": "https://dc.lft.to/lastmile_qr_scan", "ios": "https://dc.lft.to/lastmile_qr_scan"}, "lat": 38.9119985, "lon": -77.00202516666667, "fusion_lat": 0.0}, {"is_reserved": 0, "bike_id": "46bf9dd34549f2e6aff7c336afe754b1", "type": "electric_scooter", "name": "46bf9dd34549f2e6aff7c336afe754b1", "is_disabled": 0, "fusion_lon": 0.0, "rental_uris": {"android": "https://dc.lft.to/lastmile_qr_scan", "ios": "https://dc.lft.to/lastmile_qr_scan"}, "lat": 38.906519333333335, "lon": -76.9838255, "fusion_lat": 0.0}, {"is_reserved": 0, "bike_id": "ebf00be9195d3b54a4d6ef070aa599e6", "type": "electric_scooter", "name": "ebf00be9195d3b54a4d6ef070aa599e6", "is_disabled": 0, "fusion_lon": 0.0, "rental_uris": {"android": "https://dc.lft.to/lastmile_qr_scan", "ios": "https://dc.lft.to/lastmile_qr_scan"}, "lat": 38.876841, "lon": -77.000579, "fusion_lat": 0.0}, {"is_reserved": 0, "bike_id": "047aae19253eed2efc21d0714aea81fe", "type": "electric_scooter", "name": "047aae19253eed2efc21d0714aea81fe", "is_disabled": 0, "fusion_lon": 0.0, "rental_uris": {"android": "https://dc.lft.to/lastmile_qr_scan", "ios": "https://dc.lft.to/lastmile_qr_scan"}, "lat": 38.920763, "lon": -77.0366185, "fusion_lat": 0.0}, {"is_reserved": 0, "bike_id": "418f8f60deca01bbaee9a362f1723948", "type": "electric_scooter", "name": "418f8f60deca01bbaee9a362f1723948", "is_disabled": 0, "fusion_lon": 0.0, "rental_uris": {"android": "https://dc.lft.to/lastmile_qr_scan", "ios": "https://dc.lft.to/lastmile_qr_scan"}, "lat": 38.95614366666667, "lon": -77.0276335, "fusion_lat": 0.0}, {"is_reserved": 0, "bike_id": "1b03919a809a16caf4632edad6d1f902", "type": "electric_scooter", "name": "1b03919a809a16caf4632edad6d1f902", "is_disabled": 0, "fusion_lon": 0.0, "rental_uris": {"android": "https://dc.lft.to/lastmile_qr_scan", "ios": "https://dc.lft.to/lastmile_qr_scan"}, "lat": 38.924261333333334, "lon": -77.03538683333333, "fusion_lat": 0.0}, {"is_reserved": 0, "bike_id": "4a93c05ab7b4b5f09c447cfbfc5d80bb", "type": "electric_scooter", "name": "4a93c05ab7b4b5f09c447cfbfc5d80bb", "is_disabled": 0, "fusion_lon": 0.0, "rental_uris": {"android": "https://dc.lft.to/lastmile_qr_scan", "ios": "https://dc.lft.to/lastmile_qr_scan"}, "lat": 38.88082466666667, "lon": -76.9950425, "fusion_lat": 0.0}, {"is_reserved": 0, "bike_id": "039bdd852de42aa4765164a816834904", "type": "electric_scooter", "name": "039bdd852de42aa4765164a816834904", "is_disabled": 0, "fusion_lon": 0.0, "rental_uris": {"android": "https://dc.lft.to/lastmile_qr_scan", "ios": "https://dc.lft.to/lastmile_qr_scan"}, "lat": 38.91269883333333, "lon": -77.038722, "fusion_lat": 0.0}, {"is_reserved": 0, "bike_id": "c45a7af52a462a975ec9acca4068f65c", "type": "electric_scooter", "name": "c45a7af52a462a975ec9acca4068f65c", "is_disabled": 0, "fusion_lon": 0.0, "rental_uris": {"android": "https://dc.lft.to/lastmile_qr_scan", "ios": "https://dc.lft.to/lastmile_qr_scan"}, "lat": 38.886024666666664, "lon": -76.9250495, "fusion_lat": 0.0}, {"is_reserved": 0, "bike_id": "bdeb1a605f2c72b9092fa8e5feb747ce", "type": "electric_scooter", "name": "bdeb1a605f2c72b9092fa8e5feb747ce", "is_disabled": 0, "fusion_lon": 0.0, "rental_uris": {"android": "https://dc.lft.to/lastmile_qr_scan", "ios": "https://dc.lft.to/lastmile_qr_scan"}, "lat": 38.915969833333335, "lon": -77.03666016666666, "fusion_lat": 0.0}, {"is_reserved": 0, "bike_id": "c56275d77cbaa7a3dfce0196fc88b700", "type": "electric_scooter", "name": "c56275d77cbaa7a3dfce0196fc88b700", "is_disabled": 0, "fusion_lon": 0.0, "rental_uris": {"android": "https://dc.lft.to/lastmile_qr_scan", "ios": "https://dc.lft.to/lastmile_qr_scan"}, "lat": 38.872854833333335, "lon": -77.017019, "fusion_lat": 0.0}, {"is_reserved": 0, "bike_id": "b8cc67e3e8900e90cc9186aad0a1c88c", "type": "electric_bike", "name": "b8cc67e3e8900e90cc9186aad0a1c88c", "is_disabled": 0, "fusion_lon": 0.0, "rental_uris": {"android": "https://dc.lft.to/lastmile_qr_scan", "ios": "https://dc.lft.to/lastmile_qr_scan"}, "lat": 38.97448083333333, "lon": -77.09614783333333, "fusion_lat": 0.0}, {"is_reserved": 0, "bike_id": "402e9e98edbad42c4ee5897037cdbf09", "type": "electric_scooter", "name": "402e9e98edbad42c4ee5897037cdbf09", "is_disabled": 0, "fusion_lon": 0.0, "rental_uris": {"android": "https://dc.lft.to/lastmile_qr_scan", "ios": "https://dc.lft.to/lastmile_qr_scan"}, "lat": 38.91567166666667, "lon": -77.03654016666667, "fusion_lat": 0.0}, {"is_reserved": 0, "bike_id": "963fcba573b6d5953f1a39d3a15946c0", "type": "electric_scooter", "name": "963fcba573b6d5953f1a39d3a15946c0", "is_disabled": 0, "fusion_lon": 0.0, "rental_uris": {"android": "https://dc.lft.to/lastmile_qr_scan", "ios": "https://dc.lft.to/lastmile_qr_scan"}, "lat": 38.9303915, "lon": -77.05749383333334, "fusion_lat": 0.0}, {"is_reserved": 0, "bike_id": "01d3676b902ce2ebb4bff5bc29dcaead", "type": "electric_scooter", "name": "01d3676b902ce2ebb4bff5bc29dcaead", "is_disabled": 0, "fusion_lon": 0.0, "rental_uris": {"android": "https://dc.lft.to/lastmile_qr_scan", "ios": "https://dc.lft.to/lastmile_qr_scan"}, "lat": 38.91752983333333, "lon": -77.02702466666666, "fusion_lat": 0.0}, {"is_reserved": 0, "bike_id": "78d63d3f1d02da705e3d6a32967986fd", "type": "electric_scooter", "name": "78d63d3f1d02da705e3d6a32967986fd", "is_disabled": 0, "fusion_lon": 0.0, "rental_uris": {"android": "https://dc.lft.to/lastmile_qr_scan", "ios": "https://dc.lft.to/lastmile_qr_scan"}, "lat": 38.90839783333333, "lon": -77.035711, "fusion_lat": 0.0}, {"is_reserved": 0, "bike_id": "c204e605f6db69bd483cac1d7a306719", "type": "electric_bike", "name": "c204e605f6db69bd483cac1d7a306719", "is_disabled": 0, "fusion_lon": 0.0, "rental_uris": {"android": "https://dc.lft.to/lastmile_qr_scan", "ios": "https://dc.lft.to/lastmile_qr_scan"}, "lat": 38.941702, "lon": -76.95350316666666, "fusion_lat": 0.0}, {"is_reserved": 0, "bike_id": "a818acf6e36ef51d2dd79f80a9fc8b57", "type": "electric_scooter", "name": "a818acf6e36ef51d2dd79f80a9fc8b57", "is_disabled": 0, "fusion_lon": 0.0, "rental_uris": {"android": "https://dc.lft.to/lastmile_qr_scan", "ios": "https://dc.lft.to/lastmile_qr_scan"}, "lat": 38.9187755, "lon": -77.0091975, "fusion_lat": 0.0}, {"is_reserved": 0, "bike_id": "884404416785ee950a3d52174811dd58", "type": "electric_scooter", "name": "884404416785ee950a3d52174811dd58", "is_disabled": 0, "fusion_lon": 0.0, "rental_uris": {"android": "https://dc.lft.to/lastmile_qr_scan", "ios": "https://dc.lft.to/lastmile_qr_scan"}, "lat": 38.92617333333333, "lon": -77.0226745, "fusion_lat": 0.0}, {"is_reserved": 0, "bike_id": "92492f2baf087729d993aa2ad49799c7", "type": "electric_scooter", "name": "92492f2baf087729d993aa2ad49799c7", "is_disabled": 0, "fusion_lon": 0.0, "rental_uris": {"android": "https://dc.lft.to/lastmile_qr_scan", "ios": "https://dc.lft.to/lastmile_qr_scan"}, "lat": 38.929390833333336, "lon": -77.0329125, "fusion_lat": 0.0}, {"is_reserved": 0, "bike_id": "84bfbc0e80ec28f82d7e4e6da6352229", "type": "electric_scooter", "name": "84bfbc0e80ec28f82d7e4e6da6352229", "is_disabled": 0, "fusion_lon": 0.0, "rental_uris": {"android": "https://dc.lft.to/lastmile_qr_scan", "ios": "https://dc.lft.to/lastmile_qr_scan"}, "lat": 38.924744, "lon": -77.03065, "fusion_lat": 0.0}, {"is_reserved": 0, "bike_id": "363c160b4c68705dd2f60bb2906a9b32", "type": "electric_scooter", "name": "363c160b4c68705dd2f60bb2906a9b32", "is_disabled": 0, "fusion_lon": 0.0, "rental_uris": {"android": "https://dc.lft.to/lastmile_qr_scan", "ios": "https://dc.lft.to/lastmile_qr_scan"}, "lat": 38.909758333333336, "lon": -77.04624933333334, "fusion_lat": 0.0}, {"is_reserved": 0, "bike_id": "8985ad18e3f5428f4f637a485b9b3ec4", "type": "electric_scooter", "name": "8985ad18e3f5428f4f637a485b9b3ec4", "is_disabled": 0, "fusion_lon": 0.0, "rental_uris": {"android": "https://dc.lft.to/lastmile_qr_scan", "ios": "https://dc.lft.to/lastmile_qr_scan"}, "lat": 38.92208133333333, "lon": -77.02033066666667, "fusion_lat": 0.0}, {"is_reserved": 0, "bike_id": "9b7d9c5d0c7800102aa7ecbd04e472c0", "type": "electric_scooter", "name": "9b7d9c5d0c7800102aa7ecbd04e472c0", "is_disabled": 0, "fusion_lon": 0.0, "rental_uris": {"android": "https://dc.lft.to/lastmile_qr_scan", "ios": "https://dc.lft.to/lastmile_qr_scan"}, "lat": 38.9530095, "lon": -77.02771383333334, "fusion_lat": 0.0}, {"is_reserved": 0, "bike_id": "a130ddb315220f599df488a77cbb0709", "type": "electric_scooter", "name": "a130ddb315220f599df488a77cbb0709", "is_disabled": 0, "fusion_lon": 0.0, "rental_uris": {"android": "https://dc.lft.to/lastmile_qr_scan", "ios": "https://dc.lft.to/lastmile_qr_scan"}, "lat": 38.91209666666666, "lon": -77.038485, "fusion_lat": 0.0}, {"is_reserved": 0, "bike_id": "3dc7e9522237d6d5e29419ad93bce408", "type": "electric_scooter", "name": "3dc7e9522237d6d5e29419ad93bce408", "is_disabled": 0, "fusion_lon": 0.0, "rental_uris": {"android": "https://dc.lft.to/lastmile_qr_scan", "ios": "https://dc.lft.to/lastmile_qr_scan"}, "lat": 38.918280833333334, "lon": -77.03227983333333, "fusion_lat": 0.0}, {"is_reserved": 0, "bike_id": "7fae9b492ae2ac22155b60df6be4e484", "type": "electric_scooter", "name": "7fae9b492ae2ac22155b60df6be4e484", "is_disabled": 0, "fusion_lon": 0.0, "rental_uris": {"android": "https://dc.lft.to/lastmile_qr_scan", "ios": "https://dc.lft.to/lastmile_qr_scan"}, "lat": 38.924128333333336, "lon": -77.0213585, "fusion_lat": 0.0}, {"is_reserved": 0, "bike_id": "6fc6dc989f8780e704de8d8374ad5c0b", "type": "electric_scooter", "name": "6fc6dc989f8780e704de8d8374ad5c0b", "is_disabled": 0, "fusion_lon": 0.0, "rental_uris": {"android": "https://dc.lft.to/lastmile_qr_scan", "ios": "https://dc.lft.to/lastmile_qr_scan"}, "lat": 38.897563, "lon": -77.02459916666666, "fusion_lat": 0.0}, {"is_reserved": 0, "bike_id": "ee2ad3269ef107dd830426af2738f7eb", "type": "electric_scooter", "name": "ee2ad3269ef107dd830426af2738f7eb", "is_disabled": 0, "fusion_lon": 0.0, "rental_uris": {"android": "https://dc.lft.to/lastmile_qr_scan", "ios": "https://dc.lft.to/lastmile_qr_scan"}, "lat": 38.92089983333334, "lon": -77.031563, "fusion_lat": 0.0}, {"is_reserved": 0, "bike_id": "dbfc964047d631bfd720ae1b44ebb88c", "type": "electric_scooter", "name": "dbfc964047d631bfd720ae1b44ebb88c", "is_disabled": 0, "fusion_lon": 0.0, "rental_uris": {"android": "https://dc.lft.to/lastmile_qr_scan", "ios": "https://dc.lft.to/lastmile_qr_scan"}, "lat": 38.935210166666664, "lon": -77.03688916666667, "fusion_lat": 0.0}, {"is_reserved": 0, "bike_id": "a744f15fc40c8b47175396fcba544bb6", "type": "electric_scooter", "name": "a744f15fc40c8b47175396fcba544bb6", "is_disabled": 0, "fusion_lon": 0.0, "rental_uris": {"android": "https://dc.lft.to/lastmile_qr_scan", "ios": "https://dc.lft.to/lastmile_qr_scan"}, "lat": 38.922806333333334, "lon": -77.04288933333333, "fusion_lat": 0.0}, {"is_reserved": 0, "bike_id": "6bab6fe473be17a58675d22dc4d0e5bb", "type": "electric_scooter", "name": "6bab6fe473be17a58675d22dc4d0e5bb", "is_disabled": 0, "fusion_lon": 0.0, "rental_uris": {"android": "https://dc.lft.to/lastmile_qr_scan", "ios": "https://dc.lft.to/lastmile_qr_scan"}, "lat": 38.903197166666665, "lon": -77.03070433333333, "fusion_lat": 0.0}, {"is_reserved": 0, "bike_id": "95b84d0b9e4f0486c7e1de5addcb6dc2", "type": "electric_scooter", "name": "95b84d0b9e4f0486c7e1de5addcb6dc2", "is_disabled": 0, "fusion_lon": 0.0, "rental_uris": {"android": "https://dc.lft.to/lastmile_qr_scan", "ios": "https://dc.lft.to/lastmile_qr_scan"}, "lat": 38.937239166666664, "lon": -77.0190855, "fusion_lat": 0.0}, {"is_reserved": 0, "bike_id": "133b4a5d27d5c0e40850fca509c1abf2", "type": "electric_scooter", "name": "133b4a5d27d5c0e40850fca509c1abf2", "is_disabled": 0, "fusion_lon": 0.0, "rental_uris": {"android": "https://dc.lft.to/lastmile_qr_scan", "ios": "https://dc.lft.to/lastmile_qr_scan"}, "lat": 38.89526683333333, "lon": -77.03349866666667, "fusion_lat": 0.0}, {"is_reserved": 0, "bike_id": "7d03db7ca8cf7a1e891236ad87e8efbf", "type": "electric_scooter", "name": "7d03db7ca8cf7a1e891236ad87e8efbf", "is_disabled": 0, "fusion_lon": 0.0, "rental_uris": {"android": "https://dc.lft.to/lastmile_qr_scan", "ios": "https://dc.lft.to/lastmile_qr_scan"}, "lat": 38.91815616666667, "lon": -77.02478233333333, "fusion_lat": 0.0}, {"is_reserved": 0, "bike_id": "2c20a0e633d232d848c22b7346c237e6", "type": "electric_scooter", "name": "2c20a0e633d232d848c22b7346c237e6", "is_disabled": 0, "fusion_lon": 0.0, "rental_uris": {"android": "https://dc.lft.to/lastmile_qr_scan", "ios": "https://dc.lft.to/lastmile_qr_scan"}, "lat": 38.91637683333333, "lon": -77.0223505, "fusion_lat": 0.0}, {"is_reserved": 0, "bike_id": "79ffc415e0d5d67aa38cbe459cbe7a97", "type": "electric_scooter", "name": "79ffc415e0d5d67aa38cbe459cbe7a97", "is_disabled": 0, "fusion_lon": 0.0, "rental_uris": {"android": "https://dc.lft.to/lastmile_qr_scan", "ios": "https://dc.lft.to/lastmile_qr_scan"}, "lat": 38.902386666666665, "lon": -77.06166366666666, "fusion_lat": 0.0}, {"is_reserved": 0, "bike_id": "fa866949a7833212b52b2fa7fcfcb185", "type": "electric_scooter", "name": "fa866949a7833212b52b2fa7fcfcb185", "is_disabled": 0, "fusion_lon": 0.0, "rental_uris": {"android": "https://dc.lft.to/lastmile_qr_scan", "ios": "https://dc.lft.to/lastmile_qr_scan"}, "lat": 38.917666, "lon": -77.0477025, "fusion_lat": 0.0}, {"is_reserved": 0, "bike_id": "d56d07838598312af37dc15160cfc0cc", "type": "electric_scooter", "name": "d56d07838598312af37dc15160cfc0cc", "is_disabled": 0, "fusion_lon": 0.0, "rental_uris": {"android": "https://dc.lft.to/lastmile_qr_scan", "ios": "https://dc.lft.to/lastmile_qr_scan"}, "lat": 38.90368466666666, "lon": -77.0188015, "fusion_lat": 0.0}, {"is_reserved": 0, "bike_id": "a8a6e70138aaba636512f959e54f16a3", "type": "electric_scooter", "name": "a8a6e70138aaba636512f959e54f16a3", "is_disabled": 0, "fusion_lon": 0.0, "rental_uris": {"android": "https://dc.lft.to/lastmile_qr_scan", "ios": "https://dc.lft.to/lastmile_qr_scan"}, "lat": 38.90437033333333, "lon": -77.028428, "fusion_lat": 0.0}, {"is_reserved": 0, "bike_id": "883541a5d83767071af562735857e558", "type": "electric_scooter", "name": "883541a5d83767071af562735857e558", "is_disabled": 0, "fusion_lon": 0.0, "rental_uris": {"android": "https://dc.lft.to/lastmile_qr_scan", "ios": "https://dc.lft.to/lastmile_qr_scan"}, "lat": 38.88105733333333, "lon": -77.01644533333334, "fusion_lat": 0.0}, {"is_reserved": 0, "bike_id": "a5e6a894f296e0514fa5f52492fd0236", "type": "electric_scooter", "name": "a5e6a894f296e0514fa5f52492fd0236", "is_disabled": 0, "fusion_lon": 0.0, "rental_uris": {"android": "https://dc.lft.to/lastmile_qr_scan", "ios": "https://dc.lft.to/lastmile_qr_scan"}, "lat": 38.87894, "lon": -77.013906, "fusion_lat": 0.0}, {"is_reserved": 0, "bike_id": "644b02ad29975191a7237dd4fc045d64", "type": "electric_scooter", "name": "644b02ad29975191a7237dd4fc045d64", "is_disabled": 0, "fusion_lon": 0.0, "rental_uris": {"android": "https://dc.lft.to/lastmile_qr_scan", "ios": "https://dc.lft.to/lastmile_qr_scan"}, "lat": 38.9193735, "lon": -77.01802566666667, "fusion_lat": 0.0}, {"is_reserved": 0, "bike_id": "e652c86b85ff7fab8568b18889978f87", "type": "electric_scooter", "name": "e652c86b85ff7fab8568b18889978f87", "is_disabled": 0, "fusion_lon": 0.0, "rental_uris": {"android": "https://dc.lft.to/lastmile_qr_scan", "ios": "https://dc.lft.to/lastmile_qr_scan"}, "lat": 38.92497916666667, "lon": -77.05252016666667, "fusion_lat": 0.0}, {"is_reserved": 0, "bike_id": "a4e961931f1b8f3f1ccb862d9c9d2456", "type": "electric_bike", "name": "a4e961931f1b8f3f1ccb862d9c9d2456", "is_disabled": 0, "fusion_lon": 0.0, "rental_uris": {"android": "https://dc.lft.to/lastmile_qr_scan", "ios": "https://dc.lft.to/lastmile_qr_scan"}, "lat": 38.86487183333333, "lon": -76.9774195, "fusion_lat": 0.0}, {"is_reserved": 0, "bike_id": "698ad41f5dee846c771c4615d6633b31", "type": "electric_scooter", "name": "698ad41f5dee846c771c4615d6633b31", "is_disabled": 0, "fusion_lon": 0.0, "rental_uris": {"android": "https://dc.lft.to/lastmile_qr_scan", "ios": "https://dc.lft.to/lastmile_qr_scan"}, "lat": 38.8761725, "lon": -77.02084816666667, "fusion_lat": 0.0}, {"is_reserved": 0, "bike_id": "0574a97f6300fe892aff8284023963ee", "type": "electric_scooter", "name": "0574a97f6300fe892aff8284023963ee", "is_disabled": 0, "fusion_lon": 0.0, "rental_uris": {"android": "https://dc.lft.to/lastmile_qr_scan", "ios": "https://dc.lft.to/lastmile_qr_scan"}, "lat": 38.8842835, "lon": -77.00135833333333, "fusion_lat": 0.0}, {"is_reserved": 0, "bike_id": "26208a275fe55356debdef17b9397597", "type": "electric_scooter", "name": "26208a275fe55356debdef17b9397597", "is_disabled": 0, "fusion_lon": 0.0, "rental_uris": {"android": "https://dc.lft.to/lastmile_qr_scan", "ios": "https://dc.lft.to/lastmile_qr_scan"}, "lat": 38.891610166666666, "lon": -76.991509, "fusion_lat": 0.0}, {"is_reserved": 0, "bike_id": "1f57e1a92fed107d2056c64d1c0974f3", "type": "electric_scooter", "name": "1f57e1a92fed107d2056c64d1c0974f3", "is_disabled": 0, "fusion_lon": 0.0, "rental_uris": {"android": "https://dc.lft.to/lastmile_qr_scan", "ios": "https://dc.lft.to/lastmile_qr_scan"}, "lat": 38.903008166666666, "lon": -77.03659916666666, "fusion_lat": 0.0}, {"is_reserved": 0, "bike_id": "551bcb084a71ab98417895f105abb333", "type": "electric_scooter", "name": "551bcb084a71ab98417895f105abb333", "is_disabled": 0, "fusion_lon": 0.0, "rental_uris": {"android": "https://dc.lft.to/lastmile_qr_scan", "ios": "https://dc.lft.to/lastmile_qr_scan"}, "lat": 38.891947333333334, "lon": -76.98840566666667, "fusion_lat": 0.0}, {"is_reserved": 0, "bike_id": "5675fa93a5d7e6b6b981802ddb4754bc", "type": "electric_scooter", "name": "5675fa93a5d7e6b6b981802ddb4754bc", "is_disabled": 0, "fusion_lon": 0.0, "rental_uris": {"android": "https://dc.lft.to/lastmile_qr_scan", "ios": "https://dc.lft.to/lastmile_qr_scan"}, "lat": 38.9100775, "lon": -77.04010616666666, "fusion_lat": 0.0}, {"is_reserved": 0, "bike_id": "60ee68a903b771cf2047b5a1944139a0", "type": "electric_scooter", "name": "60ee68a903b771cf2047b5a1944139a0", "is_disabled": 0, "fusion_lon": 0.0, "rental_uris": {"android": "https://dc.lft.to/lastmile_qr_scan", "ios": "https://dc.lft.to/lastmile_qr_scan"}, "lat": 38.938269166666664, "lon": -76.98618816666666, "fusion_lat": 0.0}, {"is_reserved": 0, "bike_id": "13abc918770683883b40335c6afe264d", "type": "electric_scooter", "name": "13abc918770683883b40335c6afe264d", "is_disabled": 0, "fusion_lon": 0.0, "rental_uris": {"android": "https://dc.lft.to/lastmile_qr_scan", "ios": "https://dc.lft.to/lastmile_qr_scan"}, "lat": 38.92071333333333, "lon": -77.07162266666667, "fusion_lat": 0.0}, {"is_reserved": 0, "bike_id": "da72a30d587bf47917ea3ce707809eed", "type": "electric_scooter", "name": "da72a30d587bf47917ea3ce707809eed", "is_disabled": 0, "fusion_lon": 0.0, "rental_uris": {"android": "https://dc.lft.to/lastmile_qr_scan", "ios": "https://dc.lft.to/lastmile_qr_scan"}, "lat": 38.91411433333333, "lon": -77.02232966666666, "fusion_lat": 0.0}, {"is_reserved": 0, "bike_id": "a1bec303da29d01d4a4daa10b3707459", "type": "electric_scooter", "name": "a1bec303da29d01d4a4daa10b3707459", "is_disabled": 0, "fusion_lon": 0.0, "rental_uris": {"android": "https://dc.lft.to/lastmile_qr_scan", "ios": "https://dc.lft.to/lastmile_qr_scan"}, "lat": 38.9749075, "lon": -77.0172855, "fusion_lat": 0.0}, {"is_reserved": 0, "bike_id": "7dd68a143f37cbdabcc9fcba88e3fc2a", "type": "electric_scooter", "name": "7dd68a143f37cbdabcc9fcba88e3fc2a", "is_disabled": 0, "fusion_lon": 0.0, "rental_uris": {"android": "https://dc.lft.to/lastmile_qr_scan", "ios": "https://dc.lft.to/lastmile_qr_scan"}, "lat": 38.916411833333335, "lon": -77.0288045, "fusion_lat": 0.0}, {"is_reserved": 0, "bike_id": "67a6608909d7cdb3c673a94cef3e4908", "type": "electric_scooter", "name": "67a6608909d7cdb3c673a94cef3e4908", "is_disabled": 0, "fusion_lon": 0.0, "rental_uris": {"android": "https://dc.lft.to/lastmile_qr_scan", "ios": "https://dc.lft.to/lastmile_qr_scan"}, "lat": 38.9003355, "lon": -77.02604266666667, "fusion_lat": 0.0}, {"is_reserved": 0, "bike_id": "03800b4d1e6247a6508ff79365078513", "type": "electric_scooter", "name": "03800b4d1e6247a6508ff79365078513", "is_disabled": 0, "fusion_lon": 0.0, "rental_uris": {"android": "https://dc.lft.to/lastmile_qr_scan", "ios": "https://dc.lft.to/lastmile_qr_scan"}, "lat": 38.92071883333333, "lon": -77.02318316666667, "fusion_lat": 0.0}, {"is_reserved": 0, "bike_id": "b04c3f6f0b84cab1ea16a223c6715e00", "type": "electric_scooter", "name": "b04c3f6f0b84cab1ea16a223c6715e00", "is_disabled": 0, "fusion_lon": 0.0, "rental_uris": {"android": "https://dc.lft.to/lastmile_qr_scan", "ios": "https://dc.lft.to/lastmile_qr_scan"}, "lat": 38.89827916666667, "lon": -77.044809, "fusion_lat": 0.0}, {"is_reserved": 0, "bike_id": "806aaa34b1c5371af7fc54967424497a", "type": "electric_scooter", "name": "806aaa34b1c5371af7fc54967424497a", "is_disabled": 0, "fusion_lon": 0.0, "rental_uris": {"android": "https://dc.lft.to/lastmile_qr_scan", "ios": "https://dc.lft.to/lastmile_qr_scan"}, "lat": 38.9095205, "lon": -77.01281583333333, "fusion_lat": 0.0}, {"is_reserved": 0, "bike_id": "dc834550fd3228c477998e7e078b7069", "type": "electric_scooter", "name": "dc834550fd3228c477998e7e078b7069", "is_disabled": 0, "fusion_lon": 0.0, "rental_uris": {"android": "https://dc.lft.to/lastmile_qr_scan", "ios": "https://dc.lft.to/lastmile_qr_scan"}, "lat": 38.9171655, "lon": -77.041563, "fusion_lat": 0.0}, {"is_reserved": 0, "bike_id": "9cbdbd3baf2accca23c0cbe5bebf1636", "type": "electric_scooter", "name": "9cbdbd3baf2accca23c0cbe5bebf1636", "is_disabled": 0, "fusion_lon": 0.0, "rental_uris": {"android": "https://dc.lft.to/lastmile_qr_scan", "ios": "https://dc.lft.to/lastmile_qr_scan"}, "lat": 38.93804933333333, "lon": -76.99229483333333, "fusion_lat": 0.0}, {"is_reserved": 0, "bike_id": "83690eb243e199127fb87cfa78a692ad", "type": "electric_scooter", "name": "83690eb243e199127fb87cfa78a692ad", "is_disabled": 0, "fusion_lon": 0.0, "rental_uris": {"android": "https://dc.lft.to/lastmile_qr_scan", "ios": "https://dc.lft.to/lastmile_qr_scan"}, "lat": 38.91698066666667, "lon": -77.03125133333333, "fusion_lat": 0.0}, {"is_reserved": 0, "bike_id": "6c89eb23a188d21cd8b1e252e133dbcc", "type": "electric_scooter", "name": "6c89eb23a188d21cd8b1e252e133dbcc", "is_disabled": 0, "fusion_lon": 0.0, "rental_uris": {"android": "https://dc.lft.to/lastmile_qr_scan", "ios": "https://dc.lft.to/lastmile_qr_scan"}, "lat": 38.91254333333333, "lon": -77.0076615, "fusion_lat": 0.0}, {"is_reserved": 0, "bike_id": "ed5d5ac380bd1e5b1c119b889bfb0ccf", "type": "electric_scooter", "name": "ed5d5ac380bd1e5b1c119b889bfb0ccf", "is_disabled": 0, "fusion_lon": 0.0, "rental_uris": {"android": "https://dc.lft.to/lastmile_qr_scan", "ios": "https://dc.lft.to/lastmile_qr_scan"}, "lat": 38.91831583333333, "lon": -77.02297766666666, "fusion_lat": 0.0}, {"is_reserved": 0, "bike_id": "0276f895a1ac368cbb020b99263c7bce", "type": "electric_scooter", "name": "0276f895a1ac368cbb020b99263c7bce", "is_disabled": 0, "fusion_lon": 0.0, "rental_uris": {"android": "https://dc.lft.to/lastmile_qr_scan", "ios": "https://dc.lft.to/lastmile_qr_scan"}, "lat": 38.902649, "lon": -77.01748916666666, "fusion_lat": 0.0}, {"is_reserved": 0, "bike_id": "30e262a407b66cc6f74ab6ea26b20693", "type": "electric_scooter", "name": "30e262a407b66cc6f74ab6ea26b20693", "is_disabled": 0, "fusion_lon": 0.0, "rental_uris": {"android": "https://dc.lft.to/lastmile_qr_scan", "ios": "https://dc.lft.to/lastmile_qr_scan"}, "lat": 38.88747133333333, "lon": -77.021327, "fusion_lat": 0.0}, {"is_reserved": 0, "bike_id": "f7989fbc1680c55cbc0a655db143c702", "type": "electric_scooter", "name": "f7989fbc1680c55cbc0a655db143c702", "is_disabled": 0, "fusion_lon": 0.0, "rental_uris": {"android": "https://dc.lft.to/lastmile_qr_scan", "ios": "https://dc.lft.to/lastmile_qr_scan"}, "lat": 38.89990483333333, "lon": -77.0111485, "fusion_lat": 0.0}, {"is_reserved": 0, "bike_id": "5b90ca111e63ab73463982ef73353b4d", "type": "electric_scooter", "name": "5b90ca111e63ab73463982ef73353b4d", "is_disabled": 0, "fusion_lon": 0.0, "rental_uris": {"android": "https://dc.lft.to/lastmile_qr_scan", "ios": "https://dc.lft.to/lastmile_qr_scan"}, "lat": 38.87230233333333, "lon": -76.96818383333333, "fusion_lat": 0.0}, {"is_reserved": 0, "bike_id": "20c141bb1954ddcc86f6532cc934d8c5", "type": "electric_scooter", "name": "20c141bb1954ddcc86f6532cc934d8c5", "is_disabled": 0, "fusion_lon": 0.0, "rental_uris": {"android": "https://dc.lft.to/lastmile_qr_scan", "ios": "https://dc.lft.to/lastmile_qr_scan"}, "lat": 38.9025165, "lon": -77.01762816666667, "fusion_lat": 0.0}, {"is_reserved": 0, "bike_id": "8fbe3c8ee4001d72ba3dfc61a88d3539", "type": "electric_scooter", "name": "8fbe3c8ee4001d72ba3dfc61a88d3539", "is_disabled": 0, "fusion_lon": 0.0, "rental_uris": {"android": "https://dc.lft.to/lastmile_qr_scan", "ios": "https://dc.lft.to/lastmile_qr_scan"}, "lat": 38.91443266666667, "lon": -77.0229105, "fusion_lat": 0.0}, {"is_reserved": 0, "bike_id": "bc61371a6850b1aa7ef0b5002ac7f801", "type": "electric_scooter", "name": "bc61371a6850b1aa7ef0b5002ac7f801", "is_disabled": 0, "fusion_lon": 0.0, "rental_uris": {"android": "https://dc.lft.to/lastmile_qr_scan", "ios": "https://dc.lft.to/lastmile_qr_scan"}, "lat": 38.910601, "lon": -77.053849, "fusion_lat": 0.0}, {"is_reserved": 0, "bike_id": "5ea18038a92f61647086a013a4a0156c", "type": "electric_scooter", "name": "5ea18038a92f61647086a013a4a0156c", "is_disabled": 0, "fusion_lon": 0.0, "rental_uris": {"android": "https://dc.lft.to/lastmile_qr_scan", "ios": "https://dc.lft.to/lastmile_qr_scan"}, "lat": 38.9170585, "lon": -77.03870133333334, "fusion_lat": 0.0}, {"is_reserved": 0, "bike_id": "d6781bd4d71fcc748127153190d825f1", "type": "electric_scooter", "name": "d6781bd4d71fcc748127153190d825f1", "is_disabled": 0, "fusion_lon": 0.0, "rental_uris": {"android": "https://dc.lft.to/lastmile_qr_scan", "ios": "https://dc.lft.to/lastmile_qr_scan"}, "lat": 38.90600533333333, "lon": -77.0211145, "fusion_lat": 0.0}, {"is_reserved": 0, "bike_id": "2408a6a5e84b309391f4c5eff9caadd5", "type": "electric_scooter", "name": "2408a6a5e84b309391f4c5eff9caadd5", "is_disabled": 0, "fusion_lon": 0.0, "rental_uris": {"android": "https://dc.lft.to/lastmile_qr_scan", "ios": "https://dc.lft.to/lastmile_qr_scan"}, "lat": 38.8848075, "lon": -77.0334465, "fusion_lat": 0.0}, {"is_reserved": 0, "bike_id": "18bd2356805f1457c25be0ccea9b12db", "type": "electric_scooter", "name": "18bd2356805f1457c25be0ccea9b12db", "is_disabled": 0, "fusion_lon": 0.0, "rental_uris": {"android": "https://dc.lft.to/lastmile_qr_scan", "ios": "https://dc.lft.to/lastmile_qr_scan"}, "lat": 38.8991795, "lon": -77.0392085, "fusion_lat": 0.0}, {"is_reserved": 0, "bike_id": "f24de56acf833d0026b14504abc5f82f", "type": "electric_scooter", "name": "f24de56acf833d0026b14504abc5f82f", "is_disabled": 0, "fusion_lon": 0.0, "rental_uris": {"android": "https://dc.lft.to/lastmile_qr_scan", "ios": "https://dc.lft.to/lastmile_qr_scan"}, "lat": 38.93265916666667, "lon": -77.03271066666667, "fusion_lat": 0.0}, {"is_reserved": 0, "bike_id": "8042ecc6d90e85be8244c1d3222ca2f5", "type": "electric_scooter", "name": "8042ecc6d90e85be8244c1d3222ca2f5", "is_disabled": 0, "fusion_lon": 0.0, "rental_uris": {"android": "https://dc.lft.to/lastmile_qr_scan", "ios": "https://dc.lft.to/lastmile_qr_scan"}, "lat": 38.936218333333336, "lon": -77.03287283333333, "fusion_lat": 0.0}, {"is_reserved": 0, "bike_id": "682b04e44b73d886910bf033b352d08a", "type": "electric_scooter", "name": "682b04e44b73d886910bf033b352d08a", "is_disabled": 0, "fusion_lon": 0.0, "rental_uris": {"android": "https://dc.lft.to/lastmile_qr_scan", "ios": "https://dc.lft.to/lastmile_qr_scan"}, "lat": 38.936316166666664, "lon": -77.03663233333333, "fusion_lat": 0.0}, {"is_reserved": 0, "bike_id": "e8c96fa9c390b402182babd6bd3df141", "type": "electric_scooter", "name": "e8c96fa9c390b402182babd6bd3df141", "is_disabled": 0, "fusion_lon": 0.0, "rental_uris": {"android": "https://dc.lft.to/lastmile_qr_scan", "ios": "https://dc.lft.to/lastmile_qr_scan"}, "lat": 38.90126983333333, "lon": -77.04408316666667, "fusion_lat": 0.0}, {"is_reserved": 0, "bike_id": "3e4b64e0148c17a6f31775c02a19e969", "type": "electric_scooter", "name": "3e4b64e0148c17a6f31775c02a19e969", "is_disabled": 0, "fusion_lon": 0.0, "rental_uris": {"android": "https://dc.lft.to/lastmile_qr_scan", "ios": "https://dc.lft.to/lastmile_qr_scan"}, "lat": 38.934666666666665, "lon": -77.0727735, "fusion_lat": 0.0}, {"is_reserved": 0, "bike_id": "c036b4a53d166f93ecef279e52b6a0f7", "type": "electric_scooter", "name": "c036b4a53d166f93ecef279e52b6a0f7", "is_disabled": 0, "fusion_lon": 0.0, "rental_uris": {"android": "https://dc.lft.to/lastmile_qr_scan", "ios": "https://dc.lft.to/lastmile_qr_scan"}, "lat": 38.92035116666667, "lon": -77.031832, "fusion_lat": 0.0}, {"is_reserved": 0, "bike_id": "c72341f410078da454b9ae74a77ee315", "type": "electric_scooter", "name": "c72341f410078da454b9ae74a77ee315", "is_disabled": 0, "fusion_lon": 0.0, "rental_uris": {"android": "https://dc.lft.to/lastmile_qr_scan", "ios": "https://dc.lft.to/lastmile_qr_scan"}, "lat": 38.891149666666664, "lon": -76.94385, "fusion_lat": 0.0}, {"is_reserved": 0, "bike_id": "c0653077376e46571aadfcda38945968", "type": "electric_scooter", "name": "c0653077376e46571aadfcda38945968", "is_disabled": 0, "fusion_lon": 0.0, "rental_uris": {"android": "https://dc.lft.to/lastmile_qr_scan", "ios": "https://dc.lft.to/lastmile_qr_scan"}, "lat": 38.90714066666666, "lon": -76.93012183333333, "fusion_lat": 0.0}, {"is_reserved": 0, "bike_id": "ac9b01508125c14883e2d30438a5be10", "type": "electric_scooter", "name": "ac9b01508125c14883e2d30438a5be10", "is_disabled": 0, "fusion_lon": 0.0, "rental_uris": {"android": "https://dc.lft.to/lastmile_qr_scan", "ios": "https://dc.lft.to/lastmile_qr_scan"}, "lat": 38.91404, "lon": -77.01281966666667, "fusion_lat": 0.0}, {"is_reserved": 0, "bike_id": "e37817e2336b7ca16b84b79179165b0f", "type": "electric_scooter", "name": "e37817e2336b7ca16b84b79179165b0f", "is_disabled": 0, "fusion_lon": 0.0, "rental_uris": {"android": "https://dc.lft.to/lastmile_qr_scan", "ios": "https://dc.lft.to/lastmile_qr_scan"}, "lat": 38.8992835, "lon": -77.03918016666667, "fusion_lat": 0.0}, {"is_reserved": 0, "bike_id": "211564e74ccd0f6b749ddad2d1224031", "type": "electric_scooter", "name": "211564e74ccd0f6b749ddad2d1224031", "is_disabled": 0, "fusion_lon": 0.0, "rental_uris": {"android": "https://dc.lft.to/lastmile_qr_scan", "ios": "https://dc.lft.to/lastmile_qr_scan"}, "lat": 38.914052, "lon": -77.0180705, "fusion_lat": 0.0}, {"is_reserved": 0, "bike_id": "1dc0510efef1e55e0d224773ec9bae14", "type": "electric_bike", "name": "1dc0510efef1e55e0d224773ec9bae14", "is_disabled": 0, "fusion_lon": 0.0, "rental_uris": {"android": "https://dc.lft.to/lastmile_qr_scan", "ios": "https://dc.lft.to/lastmile_qr_scan"}, "lat": 38.83810783333333, "lon": -77.09525583333334, "fusion_lat": 0.0}, {"is_reserved": 0, "bike_id": "bf5a12889735c97de2c2cb8a5d5cce82", "type": "electric_scooter", "name": "bf5a12889735c97de2c2cb8a5d5cce82", "is_disabled": 0, "fusion_lon": 0.0, "rental_uris": {"android": "https://dc.lft.to/lastmile_qr_scan", "ios": "https://dc.lft.to/lastmile_qr_scan"}, "lat": 38.892733166666666, "lon": -77.04874566666666, "fusion_lat": 0.0}, {"is_reserved": 0, "bike_id": "afcaea118530b69f4d24601dcc1d8898", "type": "electric_scooter", "name": "afcaea118530b69f4d24601dcc1d8898", "is_disabled": 0, "fusion_lon": 0.0, "rental_uris": {"android": "https://dc.lft.to/lastmile_qr_scan", "ios": "https://dc.lft.to/lastmile_qr_scan"}, "lat": 38.8850415, "lon": -77.00567816666667, "fusion_lat": 0.0}, {"is_reserved": 0, "bike_id": "41547f244460ea88d447f816948d2d55", "type": "electric_scooter", "name": "41547f244460ea88d447f816948d2d55", "is_disabled": 0, "fusion_lon": 0.0, "rental_uris": {"android": "https://dc.lft.to/lastmile_qr_scan", "ios": "https://dc.lft.to/lastmile_qr_scan"}, "lat": 38.91968083333333, "lon": -77.03340766666666, "fusion_lat": 0.0}, {"is_reserved": 0, "bike_id": "418de91fe79a017b2b965874697572b4", "type": "electric_scooter", "name": "418de91fe79a017b2b965874697572b4", "is_disabled": 0, "fusion_lon": 0.0, "rental_uris": {"android": "https://dc.lft.to/lastmile_qr_scan", "ios": "https://dc.lft.to/lastmile_qr_scan"}, "lat": 38.91927783333333, "lon": -77.03123083333334, "fusion_lat": 0.0}, {"is_reserved": 0, "bike_id": "6bb6beb7da11e26b33c2d9829591ab91", "type": "electric_scooter", "name": "6bb6beb7da11e26b33c2d9829591ab91", "is_disabled": 0, "fusion_lon": 0.0, "rental_uris": {"android": "https://dc.lft.to/lastmile_qr_scan", "ios": "https://dc.lft.to/lastmile_qr_scan"}, "lat": 38.91672166666667, "lon": -77.02330566666667, "fusion_lat": 0.0}, {"is_reserved": 0, "bike_id": "65d041db388b9e31b7109000e5f2220f", "type": "electric_scooter", "name": "65d041db388b9e31b7109000e5f2220f", "is_disabled": 0, "fusion_lon": 0.0, "rental_uris": {"android": "https://dc.lft.to/lastmile_qr_scan", "ios": "https://dc.lft.to/lastmile_qr_scan"}, "lat": 38.884903, "lon": -77.019552, "fusion_lat": 0.0}, {"is_reserved": 0, "bike_id": "65cd143552eebd161f479f2e3d89a30e", "type": "electric_scooter", "name": "65cd143552eebd161f479f2e3d89a30e", "is_disabled": 0, "fusion_lon": 0.0, "rental_uris": {"android": "https://dc.lft.to/lastmile_qr_scan", "ios": "https://dc.lft.to/lastmile_qr_scan"}, "lat": 38.909656166666664, "lon": -77.034171, "fusion_lat": 0.0}, {"is_reserved": 0, "bike_id": "81ab6166be40fb98841ecc2b574d9ebd", "type": "electric_scooter", "name": "81ab6166be40fb98841ecc2b574d9ebd", "is_disabled": 0, "fusion_lon": 0.0, "rental_uris": {"android": "https://dc.lft.to/lastmile_qr_scan", "ios": "https://dc.lft.to/lastmile_qr_scan"}, "lat": 38.903757166666665, "lon": -77.03115783333334, "fusion_lat": 0.0}, {"is_reserved": 0, "bike_id": "42579fe6ea8c7ff2acb49a86ca66f899", "type": "electric_scooter", "name": "42579fe6ea8c7ff2acb49a86ca66f899", "is_disabled": 0, "fusion_lon": 0.0, "rental_uris": {"android": "https://dc.lft.to/lastmile_qr_scan", "ios": "https://dc.lft.to/lastmile_qr_scan"}, "lat": 38.91703866666667, "lon": -77.02398483333333, "fusion_lat": 0.0}, {"is_reserved": 0, "bike_id": "3f14956edc0bac93abad7f69bddd826a", "type": "electric_scooter", "name": "3f14956edc0bac93abad7f69bddd826a", "is_disabled": 0, "fusion_lon": 0.0, "rental_uris": {"android": "https://dc.lft.to/lastmile_qr_scan", "ios": "https://dc.lft.to/lastmile_qr_scan"}, "lat": 38.88342016666667, "lon": -76.99495866666666, "fusion_lat": 0.0}, {"is_reserved": 0, "bike_id": "1d19d96c7ce8d0847342645cee6640ca", "type": "electric_scooter", "name": "1d19d96c7ce8d0847342645cee6640ca", "is_disabled": 0, "fusion_lon": 0.0, "rental_uris": {"android": "https://dc.lft.to/lastmile_qr_scan", "ios": "https://dc.lft.to/lastmile_qr_scan"}, "lat": 38.919237, "lon": -77.03426916666666, "fusion_lat": 0.0}, {"is_reserved": 0, "bike_id": "f245fff2f264789ed4f8bf40d5bbe2e5", "type": "electric_scooter", "name": "f245fff2f264789ed4f8bf40d5bbe2e5", "is_disabled": 0, "fusion_lon": 0.0, "rental_uris": {"android": "https://dc.lft.to/lastmile_qr_scan", "ios": "https://dc.lft.to/lastmile_qr_scan"}, "lat": 38.9157335, "lon": -77.0199295, "fusion_lat": 0.0}, {"is_reserved": 0, "bike_id": "11d73f867654bc470a014e6fcf6d306e", "type": "electric_scooter", "name": "11d73f867654bc470a014e6fcf6d306e", "is_disabled": 0, "fusion_lon": 0.0, "rental_uris": {"android": "https://dc.lft.to/lastmile_qr_scan", "ios": "https://dc.lft.to/lastmile_qr_scan"}, "lat": 38.896918666666664, "lon": -77.04336333333333, "fusion_lat": 0.0}, {"is_reserved": 0, "bike_id": "4c4c562043f963b810bf074515788ce9", "type": "electric_scooter", "name": "4c4c562043f963b810bf074515788ce9", "is_disabled": 0, "fusion_lon": 0.0, "rental_uris": {"android": "https://dc.lft.to/lastmile_qr_scan", "ios": "https://dc.lft.to/lastmile_qr_scan"}, "lat": 38.876555833333335, "lon": -77.00301866666666, "fusion_lat": 0.0}, {"is_reserved": 0, "bike_id": "9348ba2c3b21df5f557c15d8402e7162", "type": "electric_scooter", "name": "9348ba2c3b21df5f557c15d8402e7162", "is_disabled": 0, "fusion_lon": 0.0, "rental_uris": {"android": "https://dc.lft.to/lastmile_qr_scan", "ios": "https://dc.lft.to/lastmile_qr_scan"}, "lat": 38.8968665, "lon": -77.04335083333334, "fusion_lat": 0.0}, {"is_reserved": 0, "bike_id": "e51be921d6af8559e116eecc11fd9245", "type": "electric_scooter", "name": "e51be921d6af8559e116eecc11fd9245", "is_disabled": 0, "fusion_lon": 0.0, "rental_uris": {"android": "https://dc.lft.to/lastmile_qr_scan", "ios": "https://dc.lft.to/lastmile_qr_scan"}, "lat": 38.9206435, "lon": -77.04378266666667, "fusion_lat": 0.0}, {"is_reserved": 0, "bike_id": "1caefc9ccf21dc6a2c199a7f63f848aa", "type": "electric_bike", "name": "1caefc9ccf21dc6a2c199a7f63f848aa", "is_disabled": 0, "fusion_lon": 0.0, "rental_uris": {"android": "https://dc.lft.to/lastmile_qr_scan", "ios": "https://dc.lft.to/lastmile_qr_scan"}, "lat": 38.96560433333333, "lon": -77.02824183333334, "fusion_lat": 0.0}, {"is_reserved": 0, "bike_id": "8f2d2b95c60265c434d15ff9d105ae5e", "type": "electric_scooter", "name": "8f2d2b95c60265c434d15ff9d105ae5e", "is_disabled": 0, "fusion_lon": 0.0, "rental_uris": {"android": "https://dc.lft.to/lastmile_qr_scan", "ios": "https://dc.lft.to/lastmile_qr_scan"}, "lat": 38.921017166666665, "lon": -77.02498583333333, "fusion_lat": 0.0}, {"is_reserved": 0, "bike_id": "e8b18715601412bd38eeea23bb9786f0", "type": "electric_scooter", "name": "e8b18715601412bd38eeea23bb9786f0", "is_disabled": 0, "fusion_lon": 0.0, "rental_uris": {"android": "https://dc.lft.to/lastmile_qr_scan", "ios": "https://dc.lft.to/lastmile_qr_scan"}, "lat": 38.89937366666667, "lon": -77.03218283333334, "fusion_lat": 0.0}, {"is_reserved": 0, "bike_id": "3f1d798976dea2cbae326a09d4037212", "type": "electric_scooter", "name": "3f1d798976dea2cbae326a09d4037212", "is_disabled": 0, "fusion_lon": 0.0, "rental_uris": {"android": "https://dc.lft.to/lastmile_qr_scan", "ios": "https://dc.lft.to/lastmile_qr_scan"}, "lat": 38.9186045, "lon": -76.96093816666666, "fusion_lat": 0.0}, {"is_reserved": 0, "bike_id": "69932c52e89669988e9c39f2209fc0fd", "type": "electric_scooter", "name": "69932c52e89669988e9c39f2209fc0fd", "is_disabled": 0, "fusion_lon": 0.0, "rental_uris": {"android": "https://dc.lft.to/lastmile_qr_scan", "ios": "https://dc.lft.to/lastmile_qr_scan"}, "lat": 38.909820833333335, "lon": -77.00883466666667, "fusion_lat": 0.0}, {"is_reserved": 0, "bike_id": "b9a5c55cec377eca65af99a9957a0a76", "type": "electric_scooter", "name": "b9a5c55cec377eca65af99a9957a0a76", "is_disabled": 0, "fusion_lon": 0.0, "rental_uris": {"android": "https://dc.lft.to/lastmile_qr_scan", "ios": "https://dc.lft.to/lastmile_qr_scan"}, "lat": 38.88079533333333, "lon": -77.02603483333333, "fusion_lat": 0.0}, {"is_reserved": 0, "bike_id": "d2ce076303dd7c7c2b82e8978537c2c5", "type": "electric_scooter", "name": "d2ce076303dd7c7c2b82e8978537c2c5", "is_disabled": 0, "fusion_lon": 0.0, "rental_uris": {"android": "https://dc.lft.to/lastmile_qr_scan", "ios": "https://dc.lft.to/lastmile_qr_scan"}, "lat": 38.90218733333333, "lon": -77.0175475, "fusion_lat": 0.0}, {"is_reserved": 0, "bike_id": "72a078145f1f0a57479fb95f8a5bc179", "type": "electric_scooter", "name": "72a078145f1f0a57479fb95f8a5bc179", "is_disabled": 0, "fusion_lon": 0.0, "rental_uris": {"android": "https://dc.lft.to/lastmile_qr_scan", "ios": "https://dc.lft.to/lastmile_qr_scan"}, "lat": 38.92497633333333, "lon": -77.02149066666666, "fusion_lat": 0.0}, {"is_reserved": 0, "bike_id": "ab60a6c35e7eac78a494d4e5cdce2074", "type": "electric_scooter", "name": "ab60a6c35e7eac78a494d4e5cdce2074", "is_disabled": 0, "fusion_lon": 0.0, "rental_uris": {"android": "https://dc.lft.to/lastmile_qr_scan", "ios": "https://dc.lft.to/lastmile_qr_scan"}, "lat": 38.932840666666664, "lon": -77.03984583333333, "fusion_lat": 0.0}, {"is_reserved": 0, "bike_id": "98add7c9bc101d9fefb312af61279f37", "type": "electric_bike", "name": "98add7c9bc101d9fefb312af61279f37", "is_disabled": 0, "fusion_lon": 0.0, "rental_uris": {"android": "https://dc.lft.to/lastmile_qr_scan", "ios": "https://dc.lft.to/lastmile_qr_scan"}, "lat": 38.85064083333333, "lon": -76.95831133333333, "fusion_lat": 0.0}, {"is_reserved": 0, "bike_id": "a94dc6046520bbbeb5fb19c2ba8d5b5b", "type": "electric_bike", "name": "a94dc6046520bbbeb5fb19c2ba8d5b5b", "is_disabled": 0, "fusion_lon": 0.0, "rental_uris": {"android": "https://dc.lft.to/lastmile_qr_scan", "ios": "https://dc.lft.to/lastmile_qr_scan"}, "lat": 38.942600666666664, "lon": -76.99072133333334, "fusion_lat": 0.0}, {"is_reserved": 0, "bike_id": "4ba4614237c462121a4b02b87289d74b", "type": "electric_scooter", "name": "4ba4614237c462121a4b02b87289d74b", "is_disabled": 0, "fusion_lon": 0.0, "rental_uris": {"android": "https://dc.lft.to/lastmile_qr_scan", "ios": "https://dc.lft.to/lastmile_qr_scan"}, "lat": 38.900507166666664, "lon": -77.034213, "fusion_lat": 0.0}, {"is_reserved": 0, "bike_id": "3609753d53baa7c8f7795aa0e9e3dcc7", "type": "electric_scooter", "name": "3609753d53baa7c8f7795aa0e9e3dcc7", "is_disabled": 0, "fusion_lon": 0.0, "rental_uris": {"android": "https://dc.lft.to/lastmile_qr_scan", "ios": "https://dc.lft.to/lastmile_qr_scan"}, "lat": 38.920741, "lon": -77.02317183333334, "fusion_lat": 0.0}, {"is_reserved": 0, "bike_id": "d2bb311e0f11f1a44f29534381585cf8", "type": "electric_scooter", "name": "d2bb311e0f11f1a44f29534381585cf8", "is_disabled": 0, "fusion_lon": 0.0, "rental_uris": {"android": "https://dc.lft.to/lastmile_qr_scan", "ios": "https://dc.lft.to/lastmile_qr_scan"}, "lat": 38.91806783333333, "lon": -77.0277445, "fusion_lat": 0.0}, {"is_reserved": 0, "bike_id": "a9d4dfdecfd2a9a1ac4669e4f5e863b7", "type": "electric_scooter", "name": "a9d4dfdecfd2a9a1ac4669e4f5e863b7", "is_disabled": 0, "fusion_lon": 0.0, "rental_uris": {"android": "https://dc.lft.to/lastmile_qr_scan", "ios": "https://dc.lft.to/lastmile_qr_scan"}, "lat": 38.9258485, "lon": -77.02619866666667, "fusion_lat": 0.0}, {"is_reserved": 0, "bike_id": "1818c0481556e45f7738279a8c550216", "type": "electric_scooter", "name": "1818c0481556e45f7738279a8c550216", "is_disabled": 0, "fusion_lon": 0.0, "rental_uris": {"android": "https://dc.lft.to/lastmile_qr_scan", "ios": "https://dc.lft.to/lastmile_qr_scan"}, "lat": 38.920736833333336, "lon": -77.02365733333333, "fusion_lat": 0.0}, {"is_reserved": 0, "bike_id": "f6b8901bcd7d5f6440baa685ba7bf509", "type": "electric_scooter", "name": "f6b8901bcd7d5f6440baa685ba7bf509", "is_disabled": 0, "fusion_lon": 0.0, "rental_uris": {"android": "https://dc.lft.to/lastmile_qr_scan", "ios": "https://dc.lft.to/lastmile_qr_scan"}, "lat": 38.93089333333333, "lon": -77.025565, "fusion_lat": 0.0}, {"is_reserved": 0, "bike_id": "776ab9ff0f46062c2800396200ffa537", "type": "electric_scooter", "name": "776ab9ff0f46062c2800396200ffa537", "is_disabled": 0, "fusion_lon": 0.0, "rental_uris": {"android": "https://dc.lft.to/lastmile_qr_scan", "ios": "https://dc.lft.to/lastmile_qr_scan"}, "lat": 38.9210655, "lon": -77.040123, "fusion_lat": 0.0}, {"is_reserved": 0, "bike_id": "f26048aa53b81175e0d4c793481558b5", "type": "electric_scooter", "name": "f26048aa53b81175e0d4c793481558b5", "is_disabled": 0, "fusion_lon": 0.0, "rental_uris": {"android": "https://dc.lft.to/lastmile_qr_scan", "ios": "https://dc.lft.to/lastmile_qr_scan"}, "lat": 38.901089166666665, "lon": -76.97527883333333, "fusion_lat": 0.0}, {"is_reserved": 0, "bike_id": "b0feee2ad68219b833f29699fcb5c57f", "type": "electric_scooter", "name": "b0feee2ad68219b833f29699fcb5c57f", "is_disabled": 0, "fusion_lon": 0.0, "rental_uris": {"android": "https://dc.lft.to/lastmile_qr_scan", "ios": "https://dc.lft.to/lastmile_qr_scan"}, "lat": 38.916442, "lon": -77.02258466666666, "fusion_lat": 0.0}, {"is_reserved": 0, "bike_id": "c8c678e39f431224a24aceb796788b46", "type": "electric_scooter", "name": "c8c678e39f431224a24aceb796788b46", "is_disabled": 0, "fusion_lon": 0.0, "rental_uris": {"android": "https://dc.lft.to/lastmile_qr_scan", "ios": "https://dc.lft.to/lastmile_qr_scan"}, "lat": 38.905440166666665, "lon": -77.048214, "fusion_lat": 0.0}, {"is_reserved": 0, "bike_id": "d7fb36717f184a80afd1d6836d89ff69", "type": "electric_scooter", "name": "d7fb36717f184a80afd1d6836d89ff69", "is_disabled": 0, "fusion_lon": 0.0, "rental_uris": {"android": "https://dc.lft.to/lastmile_qr_scan", "ios": "https://dc.lft.to/lastmile_qr_scan"}, "lat": 38.88435366666667, "lon": -76.996797, "fusion_lat": 0.0}, {"is_reserved": 0, "bike_id": "df83a62cae3bbdf11534e1e953bf2cff", "type": "electric_bike", "name": "df83a62cae3bbdf11534e1e953bf2cff", "is_disabled": 0, "fusion_lon": 0.0, "rental_uris": {"android": "https://dc.lft.to/lastmile_qr_scan", "ios": "https://dc.lft.to/lastmile_qr_scan"}, "lat": 38.9821695, "lon": -77.096513, "fusion_lat": 0.0}, {"is_reserved": 0, "bike_id": "e05bf7f677c72b2094eb9d0d8570eaa7", "type": "electric_scooter", "name": "e05bf7f677c72b2094eb9d0d8570eaa7", "is_disabled": 0, "fusion_lon": 0.0, "rental_uris": {"android": "https://dc.lft.to/lastmile_qr_scan", "ios": "https://dc.lft.to/lastmile_qr_scan"}, "lat": 38.90639133333333, "lon": -76.985781, "fusion_lat": 0.0}, {"is_reserved": 0, "bike_id": "f4318755c7eade5a2c6aeb68e8652935", "type": "electric_scooter", "name": "f4318755c7eade5a2c6aeb68e8652935", "is_disabled": 0, "fusion_lon": 0.0, "rental_uris": {"android": "https://dc.lft.to/lastmile_qr_scan", "ios": "https://dc.lft.to/lastmile_qr_scan"}, "lat": 38.925889833333336, "lon": -77.02497766666667, "fusion_lat": 0.0}, {"is_reserved": 0, "bike_id": "5e30837fc1543c116b79e85bf586187b", "type": "electric_bike", "name": "5e30837fc1543c116b79e85bf586187b", "is_disabled": 0, "fusion_lon": 0.0, "rental_uris": {"android": "https://dc.lft.to/lastmile_qr_scan", "ios": "https://dc.lft.to/lastmile_qr_scan"}, "lat": 38.992262, "lon": -77.06528166666666, "fusion_lat": 0.0}, {"is_reserved": 0, "bike_id": "698704ff1b89a04417c60cc4bce36e2e", "type": "electric_scooter", "name": "698704ff1b89a04417c60cc4bce36e2e", "is_disabled": 0, "fusion_lon": 0.0, "rental_uris": {"android": "https://dc.lft.to/lastmile_qr_scan", "ios": "https://dc.lft.to/lastmile_qr_scan"}, "lat": 38.92910883333333, "lon": -77.02193283333334, "fusion_lat": 0.0}, {"is_reserved": 0, "bike_id": "6ecef46c3f6234f2dea4b58ce556bc29", "type": "electric_scooter", "name": "6ecef46c3f6234f2dea4b58ce556bc29", "is_disabled": 0, "fusion_lon": 0.0, "rental_uris": {"android": "https://dc.lft.to/lastmile_qr_scan", "ios": "https://dc.lft.to/lastmile_qr_scan"}, "lat": 38.8791365, "lon": -77.00795033333333, "fusion_lat": 0.0}, {"is_reserved": 0, "bike_id": "f69433c0d31f65f9505b2d9552aaa5d2", "type": "electric_scooter", "name": "f69433c0d31f65f9505b2d9552aaa5d2", "is_disabled": 0, "fusion_lon": 0.0, "rental_uris": {"android": "https://dc.lft.to/lastmile_qr_scan", "ios": "https://dc.lft.to/lastmile_qr_scan"}, "lat": 38.88737033333334, "lon": -77.01504283333334, "fusion_lat": 0.0}, {"is_reserved": 0, "bike_id": "75004843915d5c465e63ecf82ff1427c", "type": "electric_scooter", "name": "75004843915d5c465e63ecf82ff1427c", "is_disabled": 0, "fusion_lon": 0.0, "rental_uris": {"android": "https://dc.lft.to/lastmile_qr_scan", "ios": "https://dc.lft.to/lastmile_qr_scan"}, "lat": 38.919123, "lon": -77.03193483333334, "fusion_lat": 0.0}, {"is_reserved": 0, "bike_id": "96c16f8e49f66823e6706a82069bba58", "type": "electric_bike", "name": "96c16f8e49f66823e6706a82069bba58", "is_disabled": 0, "fusion_lon": 0.0, "rental_uris": {"android": "https://dc.lft.to/lastmile_qr_scan", "ios": "https://dc.lft.to/lastmile_qr_scan"}, "lat": 38.9205955, "lon": -77.03068833333333, "fusion_lat": 0.0}, {"is_reserved": 0, "bike_id": "02613502aa7858420946183552255c3f", "type": "electric_bike", "name": "02613502aa7858420946183552255c3f", "is_disabled": 0, "fusion_lon": 0.0, "rental_uris": {"android": "https://dc.lft.to/lastmile_qr_scan", "ios": "https://dc.lft.to/lastmile_qr_scan"}, "lat": 38.83586783333333, "lon": -76.99018083333333, "fusion_lat": 0.0}, {"is_reserved": 0, "bike_id": "f1789edf384b504ca872375060cb9751", "type": "electric_scooter", "name": "f1789edf384b504ca872375060cb9751", "is_disabled": 0, "fusion_lon": 0.0, "rental_uris": {"android": "https://dc.lft.to/lastmile_qr_scan", "ios": "https://dc.lft.to/lastmile_qr_scan"}, "lat": 38.905633, "lon": -77.00719616666666, "fusion_lat": 0.0}, {"is_reserved": 0, "bike_id": "aaf366143ecfaa4cf2a9ec3139aa52d3", "type": "electric_scooter", "name": "aaf366143ecfaa4cf2a9ec3139aa52d3", "is_disabled": 0, "fusion_lon": 0.0, "rental_uris": {"android": "https://dc.lft.to/lastmile_qr_scan", "ios": "https://dc.lft.to/lastmile_qr_scan"}, "lat": 38.90149066666667, "lon": -77.02288216666666, "fusion_lat": 0.0}, {"is_reserved": 0, "bike_id": "c88e1a91a90d6903f2984464212778fa", "type": "electric_scooter", "name": "c88e1a91a90d6903f2984464212778fa", "is_disabled": 0, "fusion_lon": 0.0, "rental_uris": {"android": "https://dc.lft.to/lastmile_qr_scan", "ios": "https://dc.lft.to/lastmile_qr_scan"}, "lat": 38.926919, "lon": -77.02573433333333, "fusion_lat": 0.0}, {"is_reserved": 0, "bike_id": "4a2798778c138593134d940c263b755b", "type": "electric_scooter", "name": "4a2798778c138593134d940c263b755b", "is_disabled": 0, "fusion_lon": 0.0, "rental_uris": {"android": "https://dc.lft.to/lastmile_qr_scan", "ios": "https://dc.lft.to/lastmile_qr_scan"}, "lat": 38.923307, "lon": -77.01959516666666, "fusion_lat": 0.0}, {"is_reserved": 0, "bike_id": "4faba39943e760b2189c7dbc6e1d33e5", "type": "electric_bike", "name": "4faba39943e760b2189c7dbc6e1d33e5", "is_disabled": 0, "fusion_lon": 0.0, "rental_uris": {"android": "https://dc.lft.to/lastmile_qr_scan", "ios": "https://dc.lft.to/lastmile_qr_scan"}, "lat": 38.95009916666667, "lon": -77.01559216666666, "fusion_lat": 0.0}, {"is_reserved": 0, "bike_id": "1be6b3065952aad7aeefe236316076d7", "type": "electric_scooter", "name": "1be6b3065952aad7aeefe236316076d7", "is_disabled": 0, "fusion_lon": 0.0, "rental_uris": {"android": "https://dc.lft.to/lastmile_qr_scan", "ios": "https://dc.lft.to/lastmile_qr_scan"}, "lat": 38.91550566666667, "lon": -77.02209283333333, "fusion_lat": 0.0}, {"is_reserved": 0, "bike_id": "443c1b7eb4028a9139a6e15c4889547a", "type": "electric_scooter", "name": "443c1b7eb4028a9139a6e15c4889547a", "is_disabled": 0, "fusion_lon": 0.0, "rental_uris": {"android": "https://dc.lft.to/lastmile_qr_scan", "ios": "https://dc.lft.to/lastmile_qr_scan"}, "lat": 38.91412033333334, "lon": -77.02231233333333, "fusion_lat": 0.0}, {"is_reserved": 0, "bike_id": "6c3850f85becc6bdb2fa32a512eb2f9e", "type": "electric_bike", "name": "6c3850f85becc6bdb2fa32a512eb2f9e", "is_disabled": 0, "fusion_lon": 0.0, "rental_uris": {"android": "https://dc.lft.to/lastmile_qr_scan", "ios": "https://dc.lft.to/lastmile_qr_scan"}, "lat": 38.935810000000004, "lon": -77.105929, "fusion_lat": 0.0}, {"is_reserved": 0, "bike_id": "ecf1c72b151ff1dc7d6775354c454d50", "type": "electric_scooter", "name": "ecf1c72b151ff1dc7d6775354c454d50", "is_disabled": 0, "fusion_lon": 0.0, "rental_uris": {"android": "https://dc.lft.to/lastmile_qr_scan", "ios": "https://dc.lft.to/lastmile_qr_scan"}, "lat": 38.9140435, "lon": -77.01808916666667, "fusion_lat": 0.0}, {"is_reserved": 0, "bike_id": "d7604cca2e709597dc41adac445976c5", "type": "electric_scooter", "name": "d7604cca2e709597dc41adac445976c5", "is_disabled": 0, "fusion_lon": 0.0, "rental_uris": {"android": "https://dc.lft.to/lastmile_qr_scan", "ios": "https://dc.lft.to/lastmile_qr_scan"}, "lat": 38.90470416666667, "lon": -77.02147033333334, "fusion_lat": 0.0}, {"is_reserved": 0, "bike_id": "464dc83251a0b1da48c112277bca4c3a", "type": "electric_scooter", "name": "464dc83251a0b1da48c112277bca4c3a", "is_disabled": 0, "fusion_lon": 0.0, "rental_uris": {"android": "https://dc.lft.to/lastmile_qr_scan", "ios": "https://dc.lft.to/lastmile_qr_scan"}, "lat": 38.92466, "lon": -77.05238, "fusion_lat": 0.0}, {"is_reserved": 0, "bike_id": "f4e6159b29f7cfe3830d5f5028a70028", "type": "electric_scooter", "name": "f4e6159b29f7cfe3830d5f5028a70028", "is_disabled": 0, "fusion_lon": 0.0, "rental_uris": {"android": "https://dc.lft.to/lastmile_qr_scan", "ios": "https://dc.lft.to/lastmile_qr_scan"}, "lat": 38.91778583333333, "lon": -77.04305333333333, "fusion_lat": 0.0}, {"is_reserved": 0, "bike_id": "58bc8f126a31d9547b3802e9c10868f2", "type": "electric_scooter", "name": "58bc8f126a31d9547b3802e9c10868f2", "is_disabled": 0, "fusion_lon": 0.0, "rental_uris": {"android": "https://dc.lft.to/lastmile_qr_scan", "ios": "https://dc.lft.to/lastmile_qr_scan"}, "lat": 38.89485666666667, "lon": -76.99135583333333, "fusion_lat": 0.0}, {"is_reserved": 0, "bike_id": "a0b674ec47881f5e4fefdcf5d4693b4b", "type": "electric_scooter", "name": "a0b674ec47881f5e4fefdcf5d4693b4b", "is_disabled": 0, "fusion_lon": 0.0, "rental_uris": {"android": "https://dc.lft.to/lastmile_qr_scan", "ios": "https://dc.lft.to/lastmile_qr_scan"}, "lat": 38.9055235, "lon": -77.0221605, "fusion_lat": 0.0}, {"is_reserved": 0, "bike_id": "0a75d40e263f2ea4371e97d9c5ae7aa6", "type": "electric_scooter", "name": "0a75d40e263f2ea4371e97d9c5ae7aa6", "is_disabled": 0, "fusion_lon": 0.0, "rental_uris": {"android": "https://dc.lft.to/lastmile_qr_scan", "ios": "https://dc.lft.to/lastmile_qr_scan"}, "lat": 38.93964533333333, "lon": -77.03284333333333, "fusion_lat": 0.0}, {"is_reserved": 0, "bike_id": "40b780f57f1b21f404fd84ef18cfb047", "type": "electric_bike", "name": "40b780f57f1b21f404fd84ef18cfb047", "is_disabled": 0, "fusion_lon": 0.0, "rental_uris": {"android": "https://dc.lft.to/lastmile_qr_scan", "ios": "https://dc.lft.to/lastmile_qr_scan"}, "lat": 38.916702, "lon": -77.03708033333334, "fusion_lat": 0.0}, {"is_reserved": 0, "bike_id": "697393f85b24ac8414810d9253b18573", "type": "electric_scooter", "name": "697393f85b24ac8414810d9253b18573", "is_disabled": 0, "fusion_lon": 0.0, "rental_uris": {"android": "https://dc.lft.to/lastmile_qr_scan", "ios": "https://dc.lft.to/lastmile_qr_scan"}, "lat": 38.92701566666667, "lon": -77.02090866666667, "fusion_lat": 0.0}, {"is_reserved": 0, "bike_id": "7f67d8518c991169c00b02a73222c0f7", "type": "electric_scooter", "name": "7f67d8518c991169c00b02a73222c0f7", "is_disabled": 0, "fusion_lon": 0.0, "rental_uris": {"android": "https://dc.lft.to/lastmile_qr_scan", "ios": "https://dc.lft.to/lastmile_qr_scan"}, "lat": 38.9162205, "lon": -77.00924166666667, "fusion_lat": 0.0}, {"is_reserved": 0, "bike_id": "0bccae4f49469c40fded61dc42a0c7cd", "type": "electric_scooter", "name": "0bccae4f49469c40fded61dc42a0c7cd", "is_disabled": 0, "fusion_lon": 0.0, "rental_uris": {"android": "https://dc.lft.to/lastmile_qr_scan", "ios": "https://dc.lft.to/lastmile_qr_scan"}, "lat": 38.9165625, "lon": -77.021794, "fusion_lat": 0.0}, {"is_reserved": 0, "bike_id": "7548e585378bed05b6124e327dcf05ed", "type": "electric_bike", "name": "7548e585378bed05b6124e327dcf05ed", "is_disabled": 0, "fusion_lon": 0.0, "rental_uris": {"android": "https://dc.lft.to/lastmile_qr_scan", "ios": "https://dc.lft.to/lastmile_qr_scan"}, "lat": 38.91473233333333, "lon": -77.00922566666667, "fusion_lat": 0.0}, {"is_reserved": 0, "bike_id": "f4385881d813ac104e16fc64f231c959", "type": "electric_scooter", "name": "f4385881d813ac104e16fc64f231c959", "is_disabled": 0, "fusion_lon": 0.0, "rental_uris": {"android": "https://dc.lft.to/lastmile_qr_scan", "ios": "https://dc.lft.to/lastmile_qr_scan"}, "lat": 38.88729766666667, "lon": -77.03183216666666, "fusion_lat": 0.0}, {"is_reserved": 0, "bike_id": "162db0d7c80968ea7906cc1832562be9", "type": "electric_scooter", "name": "162db0d7c80968ea7906cc1832562be9", "is_disabled": 0, "fusion_lon": 0.0, "rental_uris": {"android": "https://dc.lft.to/lastmile_qr_scan", "ios": "https://dc.lft.to/lastmile_qr_scan"}, "lat": 38.9023045, "lon": -77.0175715, "fusion_lat": 0.0}, {"is_reserved": 0, "bike_id": "4cf05bd39814e89057c0f92a41bb3a74", "type": "electric_scooter", "name": "4cf05bd39814e89057c0f92a41bb3a74", "is_disabled": 0, "fusion_lon": 0.0, "rental_uris": {"android": "https://dc.lft.to/lastmile_qr_scan", "ios": "https://dc.lft.to/lastmile_qr_scan"}, "lat": 38.90636633333333, "lon": -77.05136016666667, "fusion_lat": 0.0}, {"is_reserved": 0, "bike_id": "0154a6187ff660f21aec58324c011aca", "type": "electric_scooter", "name": "0154a6187ff660f21aec58324c011aca", "is_disabled": 0, "fusion_lon": 0.0, "rental_uris": {"android": "https://dc.lft.to/lastmile_qr_scan", "ios": "https://dc.lft.to/lastmile_qr_scan"}, "lat": 38.94981633333333, "lon": -77.02699416666667, "fusion_lat": 0.0}, {"is_reserved": 0, "bike_id": "7ef74260654fb07da95bd8c47afedbb2", "type": "electric_scooter", "name": "7ef74260654fb07da95bd8c47afedbb2", "is_disabled": 0, "fusion_lon": 0.0, "rental_uris": {"android": "https://dc.lft.to/lastmile_qr_scan", "ios": "https://dc.lft.to/lastmile_qr_scan"}, "lat": 38.92092933333333, "lon": -77.02593833333333, "fusion_lat": 0.0}, {"is_reserved": 0, "bike_id": "8e344885e7ffd6cab90db9834d4d3537", "type": "electric_scooter", "name": "8e344885e7ffd6cab90db9834d4d3537", "is_disabled": 0, "fusion_lon": 0.0, "rental_uris": {"android": "https://dc.lft.to/lastmile_qr_scan", "ios": "https://dc.lft.to/lastmile_qr_scan"}, "lat": 38.91873366666667, "lon": -77.035055, "fusion_lat": 0.0}, {"is_reserved": 0, "bike_id": "9230d373476e4ac3735865044d6097f3", "type": "electric_scooter", "name": "9230d373476e4ac3735865044d6097f3", "is_disabled": 0, "fusion_lon": 0.0, "rental_uris": {"android": "https://dc.lft.to/lastmile_qr_scan", "ios": "https://dc.lft.to/lastmile_qr_scan"}, "lat": 38.85833433333333, "lon": -76.99015033333333, "fusion_lat": 0.0}, {"is_reserved": 0, "bike_id": "f7dbe447bcac3824cb11fc4319c4eef6", "type": "electric_scooter", "name": "f7dbe447bcac3824cb11fc4319c4eef6", "is_disabled": 0, "fusion_lon": 0.0, "rental_uris": {"android": "https://dc.lft.to/lastmile_qr_scan", "ios": "https://dc.lft.to/lastmile_qr_scan"}, "lat": 38.94283883333333, "lon": -77.03619766666667, "fusion_lat": 0.0}, {"is_reserved": 0, "bike_id": "17701f7829ac62321b6f950efe3f31cf", "type": "electric_scooter", "name": "17701f7829ac62321b6f950efe3f31cf", "is_disabled": 0, "fusion_lon": 0.0, "rental_uris": {"android": "https://dc.lft.to/lastmile_qr_scan", "ios": "https://dc.lft.to/lastmile_qr_scan"}, "lat": 38.924147, "lon": -77.02008733333334, "fusion_lat": 0.0}, {"is_reserved": 0, "bike_id": "d23501b831dfd2224872f1ccde97e74f", "type": "electric_scooter", "name": "d23501b831dfd2224872f1ccde97e74f", "is_disabled": 0, "fusion_lon": 0.0, "rental_uris": {"android": "https://dc.lft.to/lastmile_qr_scan", "ios": "https://dc.lft.to/lastmile_qr_scan"}, "lat": 38.895524333333334, "lon": -77.01503666666666, "fusion_lat": 0.0}, {"is_reserved": 0, "bike_id": "b3248afc5383eda834d20cf99a0b806e", "type": "electric_scooter", "name": "b3248afc5383eda834d20cf99a0b806e", "is_disabled": 0, "fusion_lon": 0.0, "rental_uris": {"android": "https://dc.lft.to/lastmile_qr_scan", "ios": "https://dc.lft.to/lastmile_qr_scan"}, "lat": 38.891257, "lon": -76.94084933333333, "fusion_lat": 0.0}, {"is_reserved": 0, "bike_id": "e04da5e2cc47a31840dc78250e35e6e9", "type": "electric_scooter", "name": "e04da5e2cc47a31840dc78250e35e6e9", "is_disabled": 0, "fusion_lon": 0.0, "rental_uris": {"android": "https://dc.lft.to/lastmile_qr_scan", "ios": "https://dc.lft.to/lastmile_qr_scan"}, "lat": 38.92383316666667, "lon": -77.02958783333334, "fusion_lat": 0.0}, {"is_reserved": 0, "bike_id": "f03f3f31405a94537fd0bedb849cb053", "type": "electric_scooter", "name": "f03f3f31405a94537fd0bedb849cb053", "is_disabled": 0, "fusion_lon": 0.0, "rental_uris": {"android": "https://dc.lft.to/lastmile_qr_scan", "ios": "https://dc.lft.to/lastmile_qr_scan"}, "lat": 38.91305233333333, "lon": -77.0161135, "fusion_lat": 0.0}, {"is_reserved": 0, "bike_id": "8f42726e7dac335acbc704057bb07f49", "type": "electric_scooter", "name": "8f42726e7dac335acbc704057bb07f49", "is_disabled": 0, "fusion_lon": 0.0, "rental_uris": {"android": "https://dc.lft.to/lastmile_qr_scan", "ios": "https://dc.lft.to/lastmile_qr_scan"}, "lat": 38.9071065, "lon": -77.04007816666666, "fusion_lat": 0.0}, {"is_reserved": 0, "bike_id": "bb8cf7c951f165ead869bf2d8554c4d1", "type": "electric_scooter", "name": "bb8cf7c951f165ead869bf2d8554c4d1", "is_disabled": 0, "fusion_lon": 0.0, "rental_uris": {"android": "https://dc.lft.to/lastmile_qr_scan", "ios": "https://dc.lft.to/lastmile_qr_scan"}, "lat": 38.93067166666667, "lon": -77.02336416666667, "fusion_lat": 0.0}, {"is_reserved": 0, "bike_id": "e1d933141a3753d35d9ea88f84eb3246", "type": "electric_scooter", "name": "e1d933141a3753d35d9ea88f84eb3246", "is_disabled": 0, "fusion_lon": 0.0, "rental_uris": {"android": "https://dc.lft.to/lastmile_qr_scan", "ios": "https://dc.lft.to/lastmile_qr_scan"}, "lat": 38.93096666666667, "lon": -77.02474866666667, "fusion_lat": 0.0}, {"is_reserved": 0, "bike_id": "70adf42399ce1d42def7f1f993638237", "type": "electric_scooter", "name": "70adf42399ce1d42def7f1f993638237", "is_disabled": 0, "fusion_lon": 0.0, "rental_uris": {"android": "https://dc.lft.to/lastmile_qr_scan", "ios": "https://dc.lft.to/lastmile_qr_scan"}, "lat": 38.91414433333333, "lon": -77.02175566666666, "fusion_lat": 0.0}, {"is_reserved": 0, "bike_id": "2632a70f9fe6c83677fd033669c48444", "type": "electric_scooter", "name": "2632a70f9fe6c83677fd033669c48444", "is_disabled": 0, "fusion_lon": 0.0, "rental_uris": {"android": "https://dc.lft.to/lastmile_qr_scan", "ios": "https://dc.lft.to/lastmile_qr_scan"}, "lat": 38.901297, "lon": -77.00325566666666, "fusion_lat": 0.0}, {"is_reserved": 0, "bike_id": "79300c596460dbe6a13dbcc7d5701bf8", "type": "electric_scooter", "name": "79300c596460dbe6a13dbcc7d5701bf8", "is_disabled": 0, "fusion_lon": 0.0, "rental_uris": {"android": "https://dc.lft.to/lastmile_qr_scan", "ios": "https://dc.lft.to/lastmile_qr_scan"}, "lat": 38.943719333333334, "lon": -77.06142083333333, "fusion_lat": 0.0}, {"is_reserved": 0, "bike_id": "d65d4c20623cf2fa0b828a62a0b211fb", "type": "electric_scooter", "name": "d65d4c20623cf2fa0b828a62a0b211fb", "is_disabled": 0, "fusion_lon": 0.0, "rental_uris": {"android": "https://dc.lft.to/lastmile_qr_scan", "ios": "https://dc.lft.to/lastmile_qr_scan"}, "lat": 38.9183215, "lon": -77.03189316666666, "fusion_lat": 0.0}, {"is_reserved": 0, "bike_id": "ea3a2494e9ee17516beb47a7ca6ce5a6", "type": "electric_scooter", "name": "ea3a2494e9ee17516beb47a7ca6ce5a6", "is_disabled": 0, "fusion_lon": 0.0, "rental_uris": {"android": "https://dc.lft.to/lastmile_qr_scan", "ios": "https://dc.lft.to/lastmile_qr_scan"}, "lat": 38.8986995, "lon": -77.04890383333333, "fusion_lat": 0.0}, {"is_reserved": 0, "bike_id": "30ef463e2ccf4b81822500bf72e24d25", "type": "electric_scooter", "name": "30ef463e2ccf4b81822500bf72e24d25", "is_disabled": 0, "fusion_lon": 0.0, "rental_uris": {"android": "https://dc.lft.to/lastmile_qr_scan", "ios": "https://dc.lft.to/lastmile_qr_scan"}, "lat": 38.898819333333336, "lon": -77.00887583333333, "fusion_lat": 0.0}, {"is_reserved": 0, "bike_id": "28360bebeffa6238dded3c599d1a736e", "type": "electric_scooter", "name": "28360bebeffa6238dded3c599d1a736e", "is_disabled": 0, "fusion_lon": 0.0, "rental_uris": {"android": "https://dc.lft.to/lastmile_qr_scan", "ios": "https://dc.lft.to/lastmile_qr_scan"}, "lat": 38.9526745, "lon": -77.0238345, "fusion_lat": 0.0}, {"is_reserved": 0, "bike_id": "d1eefe397dd5a7d8a95f6e127f38609c", "type": "electric_bike", "name": "d1eefe397dd5a7d8a95f6e127f38609c", "is_disabled": 0, "fusion_lon": 0.0, "rental_uris": {"android": "https://dc.lft.to/lastmile_qr_scan", "ios": "https://dc.lft.to/lastmile_qr_scan"}, "lat": 38.95074666666667, "lon": -76.9960065, "fusion_lat": 0.0}, {"is_reserved": 0, "bike_id": "3b0f270d94fdf43973ae17905464b560", "type": "electric_scooter", "name": "3b0f270d94fdf43973ae17905464b560", "is_disabled": 0, "fusion_lon": 0.0, "rental_uris": {"android": "https://dc.lft.to/lastmile_qr_scan", "ios": "https://dc.lft.to/lastmile_qr_scan"}, "lat": 38.901654, "lon": -77.0416815, "fusion_lat": 0.0}, {"is_reserved": 0, "bike_id": "d04ea3c31ae78b3d6416b6c56eb60aeb", "type": "electric_scooter", "name": "d04ea3c31ae78b3d6416b6c56eb60aeb", "is_disabled": 0, "fusion_lon": 0.0, "rental_uris": {"android": "https://dc.lft.to/lastmile_qr_scan", "ios": "https://dc.lft.to/lastmile_qr_scan"}, "lat": 38.9040115, "lon": -77.06838083333334, "fusion_lat": 0.0}, {"is_reserved": 0, "bike_id": "cde5226c237a579380f36a1175a7f83d", "type": "electric_scooter", "name": "cde5226c237a579380f36a1175a7f83d", "is_disabled": 0, "fusion_lon": 0.0, "rental_uris": {"android": "https://dc.lft.to/lastmile_qr_scan", "ios": "https://dc.lft.to/lastmile_qr_scan"}, "lat": 38.906474, "lon": -77.01101483333333, "fusion_lat": 0.0}, {"is_reserved": 0, "bike_id": "e534da8ce7cbb04cbb5f486c765d2696", "type": "electric_scooter", "name": "e534da8ce7cbb04cbb5f486c765d2696", "is_disabled": 0, "fusion_lon": 0.0, "rental_uris": {"android": "https://dc.lft.to/lastmile_qr_scan", "ios": "https://dc.lft.to/lastmile_qr_scan"}, "lat": 38.91642016666667, "lon": -77.028867, "fusion_lat": 0.0}, {"is_reserved": 0, "bike_id": "6d10c77c1e74db6480026673bffb7e8c", "type": "electric_bike", "name": "6d10c77c1e74db6480026673bffb7e8c", "is_disabled": 0, "fusion_lon": 0.0, "rental_uris": {"android": "https://dc.lft.to/lastmile_qr_scan", "ios": "https://dc.lft.to/lastmile_qr_scan"}, "lat": 38.89815, "lon": -76.99059266666667, "fusion_lat": 0.0}, {"is_reserved": 0, "bike_id": "d4ff6fffa7cd6ca0098ebad87624d443", "type": "electric_scooter", "name": "d4ff6fffa7cd6ca0098ebad87624d443", "is_disabled": 0, "fusion_lon": 0.0, "rental_uris": {"android": "https://dc.lft.to/lastmile_qr_scan", "ios": "https://dc.lft.to/lastmile_qr_scan"}, "lat": 38.92441816666667, "lon": -77.03317166666666, "fusion_lat": 0.0}, {"is_reserved": 0, "bike_id": "8732daca6de3931f0c24b6de5c3f78bc", "type": "electric_scooter", "name": "8732daca6de3931f0c24b6de5c3f78bc", "is_disabled": 0, "fusion_lon": 0.0, "rental_uris": {"android": "https://dc.lft.to/lastmile_qr_scan", "ios": "https://dc.lft.to/lastmile_qr_scan"}, "lat": 38.9064165, "lon": -77.0059805, "fusion_lat": 0.0}, {"is_reserved": 0, "bike_id": "c51132aae0ab08ab1f6dde3cbe6799f6", "type": "electric_scooter", "name": "c51132aae0ab08ab1f6dde3cbe6799f6", "is_disabled": 0, "fusion_lon": 0.0, "rental_uris": {"android": "https://dc.lft.to/lastmile_qr_scan", "ios": "https://dc.lft.to/lastmile_qr_scan"}, "lat": 38.90824516666667, "lon": -76.99449233333333, "fusion_lat": 0.0}, {"is_reserved": 0, "bike_id": "69ceb15c31c93a9e47ddba92e4f4aa7d", "type": "electric_scooter", "name": "69ceb15c31c93a9e47ddba92e4f4aa7d", "is_disabled": 0, "fusion_lon": 0.0, "rental_uris": {"android": "https://dc.lft.to/lastmile_qr_scan", "ios": "https://dc.lft.to/lastmile_qr_scan"}, "lat": 38.91273733333333, "lon": -77.0238935, "fusion_lat": 0.0}, {"is_reserved": 0, "bike_id": "2e430bd8764aeabece2f394cb55575ec", "type": "electric_scooter", "name": "2e430bd8764aeabece2f394cb55575ec", "is_disabled": 0, "fusion_lon": 0.0, "rental_uris": {"android": "https://dc.lft.to/lastmile_qr_scan", "ios": "https://dc.lft.to/lastmile_qr_scan"}, "lat": 38.9234045, "lon": -77.036128, "fusion_lat": 0.0}, {"is_reserved": 0, "bike_id": "daeb49216971e67bc0cd1062431b8501", "type": "electric_scooter", "name": "daeb49216971e67bc0cd1062431b8501", "is_disabled": 0, "fusion_lon": 0.0, "rental_uris": {"android": "https://dc.lft.to/lastmile_qr_scan", "ios": "https://dc.lft.to/lastmile_qr_scan"}, "lat": 38.904114, "lon": -77.06287416666666, "fusion_lat": 0.0}, {"is_reserved": 0, "bike_id": "974cd12dfda43af241a2b6bf334ed479", "type": "electric_scooter", "name": "974cd12dfda43af241a2b6bf334ed479", "is_disabled": 0, "fusion_lon": 0.0, "rental_uris": {"android": "https://dc.lft.to/lastmile_qr_scan", "ios": "https://dc.lft.to/lastmile_qr_scan"}, "lat": 38.887449333333336, "lon": -77.03151716666666, "fusion_lat": 0.0}, {"is_reserved": 0, "bike_id": "21efa0bbfc0ff34ddccd438cf07547eb", "type": "electric_scooter", "name": "21efa0bbfc0ff34ddccd438cf07547eb", "is_disabled": 0, "fusion_lon": 0.0, "rental_uris": {"android": "https://dc.lft.to/lastmile_qr_scan", "ios": "https://dc.lft.to/lastmile_qr_scan"}, "lat": 38.9247475, "lon": -77.029977, "fusion_lat": 0.0}, {"is_reserved": 0, "bike_id": "fe498aa3e766f1d0cdb86af650049749", "type": "electric_scooter", "name": "fe498aa3e766f1d0cdb86af650049749", "is_disabled": 0, "fusion_lon": 0.0, "rental_uris": {"android": "https://dc.lft.to/lastmile_qr_scan", "ios": "https://dc.lft.to/lastmile_qr_scan"}, "lat": 38.918471333333336, "lon": -77.0319435, "fusion_lat": 0.0}, {"is_reserved": 0, "bike_id": "de76042a7a432a5a3a3c9d49a88d6056", "type": "electric_scooter", "name": "de76042a7a432a5a3a3c9d49a88d6056", "is_disabled": 0, "fusion_lon": 0.0, "rental_uris": {"android": "https://dc.lft.to/lastmile_qr_scan", "ios": "https://dc.lft.to/lastmile_qr_scan"}, "lat": 38.94419883333333, "lon": -77.01779233333333, "fusion_lat": 0.0}, {"is_reserved": 0, "bike_id": "a7f301f1be0cf5320b57ba59c234aac2", "type": "electric_bike", "name": "a7f301f1be0cf5320b57ba59c234aac2", "is_disabled": 0, "fusion_lon": 0.0, "rental_uris": {"android": "https://dc.lft.to/lastmile_qr_scan", "ios": "https://dc.lft.to/lastmile_qr_scan"}, "lat": 38.903588166666665, "lon": -76.98097983333334, "fusion_lat": 0.0}, {"is_reserved": 0, "bike_id": "3b4ad15d82140350e3d82f7e2be1dbb5", "type": "electric_scooter", "name": "3b4ad15d82140350e3d82f7e2be1dbb5", "is_disabled": 0, "fusion_lon": 0.0, "rental_uris": {"android": "https://dc.lft.to/lastmile_qr_scan", "ios": "https://dc.lft.to/lastmile_qr_scan"}, "lat": 38.9015255, "lon": -77.0089645, "fusion_lat": 0.0}, {"is_reserved": 0, "bike_id": "77acfab36fb802de2e973e24f2bb0a42", "type": "electric_scooter", "name": "77acfab36fb802de2e973e24f2bb0a42", "is_disabled": 0, "fusion_lon": 0.0, "rental_uris": {"android": "https://dc.lft.to/lastmile_qr_scan", "ios": "https://dc.lft.to/lastmile_qr_scan"}, "lat": 38.90788116666667, "lon": -77.0108345, "fusion_lat": 0.0}, {"is_reserved": 0, "bike_id": "9f4998fdb05e22bd80137a42321a0033", "type": "electric_scooter", "name": "9f4998fdb05e22bd80137a42321a0033", "is_disabled": 0, "fusion_lon": 0.0, "rental_uris": {"android": "https://dc.lft.to/lastmile_qr_scan", "ios": "https://dc.lft.to/lastmile_qr_scan"}, "lat": 38.892308, "lon": -77.04359983333333, "fusion_lat": 0.0}, {"is_reserved": 0, "bike_id": "8c77a4fc3ef1746a4d64406ce4243436", "type": "electric_scooter", "name": "8c77a4fc3ef1746a4d64406ce4243436", "is_disabled": 0, "fusion_lon": 0.0, "rental_uris": {"android": "https://dc.lft.to/lastmile_qr_scan", "ios": "https://dc.lft.to/lastmile_qr_scan"}, "lat": 38.922121833333335, "lon": -77.02031466666666, "fusion_lat": 0.0}, {"is_reserved": 0, "bike_id": "94a79f9dab3640f5628188270e81b23e", "type": "electric_scooter", "name": "94a79f9dab3640f5628188270e81b23e", "is_disabled": 0, "fusion_lon": 0.0, "rental_uris": {"android": "https://dc.lft.to/lastmile_qr_scan", "ios": "https://dc.lft.to/lastmile_qr_scan"}, "lat": 38.9055265, "lon": -77.0060495, "fusion_lat": 0.0}, {"is_reserved": 0, "bike_id": "1ae5acd2d6af75055c171ff2553c77ef", "type": "electric_scooter", "name": "1ae5acd2d6af75055c171ff2553c77ef", "is_disabled": 0, "fusion_lon": 0.0, "rental_uris": {"android": "https://dc.lft.to/lastmile_qr_scan", "ios": "https://dc.lft.to/lastmile_qr_scan"}, "lat": 38.93596316666667, "lon": -77.03518333333334, "fusion_lat": 0.0}, {"is_reserved": 0, "bike_id": "ec49f1b60029d5f4b36233072f140ac2", "type": "electric_scooter", "name": "ec49f1b60029d5f4b36233072f140ac2", "is_disabled": 0, "fusion_lon": 0.0, "rental_uris": {"android": "https://dc.lft.to/lastmile_qr_scan", "ios": "https://dc.lft.to/lastmile_qr_scan"}, "lat": 38.921141, "lon": -77.03166966666667, "fusion_lat": 0.0}, {"is_reserved": 0, "bike_id": "e034459aef4e6a82771fca409439e2ce", "type": "electric_scooter", "name": "e034459aef4e6a82771fca409439e2ce", "is_disabled": 0, "fusion_lon": 0.0, "rental_uris": {"android": "https://dc.lft.to/lastmile_qr_scan", "ios": "https://dc.lft.to/lastmile_qr_scan"}, "lat": 38.90076333333333, "lon": -77.01290816666666, "fusion_lat": 0.0}, {"is_reserved": 0, "bike_id": "51fc4384f8dbc00ce0331a2275864bf8", "type": "electric_scooter", "name": "51fc4384f8dbc00ce0331a2275864bf8", "is_disabled": 0, "fusion_lon": 0.0, "rental_uris": {"android": "https://dc.lft.to/lastmile_qr_scan", "ios": "https://dc.lft.to/lastmile_qr_scan"}, "lat": 38.944112833333335, "lon": -77.06340533333334, "fusion_lat": 0.0}, {"is_reserved": 0, "bike_id": "46199663653dbf673bc49ee5ce09421e", "type": "electric_scooter", "name": "46199663653dbf673bc49ee5ce09421e", "is_disabled": 0, "fusion_lon": 0.0, "rental_uris": {"android": "https://dc.lft.to/lastmile_qr_scan", "ios": "https://dc.lft.to/lastmile_qr_scan"}, "lat": 38.93499766666667, "lon": -77.02856033333333, "fusion_lat": 0.0}, {"is_reserved": 0, "bike_id": "f5354666b989c3e44dc5449cfbb4649e", "type": "electric_bike", "name": "f5354666b989c3e44dc5449cfbb4649e", "is_disabled": 0, "fusion_lon": 0.0, "rental_uris": {"android": "https://dc.lft.to/lastmile_qr_scan", "ios": "https://dc.lft.to/lastmile_qr_scan"}, "lat": 38.867508666666666, "lon": -76.9453335, "fusion_lat": 0.0},