{"data": {"bikes": [{"fusion_lon": 0.0, "name": "ea896b22ac09b88c47d17609d76b0485", "rental_uris": {"android": "https://dc.lft.to/lastmile_qr_scan", "ios": "https://dc.lft.to/lastmile_qr_scan"}, "lat": 38.903463, "bike_id": "ea896b22ac09b88c47d17609d76b0485", "is_disabled": 0, "lon": -77.01898666666666, "is_reserved": 0, "fusion_lat": 0.0, "type": "electric_scooter"}, {"fusion_lon": 0.0, "name": "e45582db83981c2d789cab69f9604957", "rental_uris": {"android": "https://dc.lft.to/lastmile_qr_scan", "ios": "https://dc.lft.to/lastmile_qr_scan"}, "lat": 38.901397833333334, "bike_id": "e45582db83981c2d789cab69f9604957", "is_disabled": 0, "lon": -76.98964366666667, "is_reserved": 0, "fusion_lat": 0.0, "type": "electric_scooter"}, {"fusion_lon": 0.0, "name": "db0fc3f521a54011b2dcefec6d70da40", "rental_uris": {"android": "https://dc.lft.to/lastmile_qr_scan", "ios": "https://dc.lft.to/lastmile_qr_scan"}, "lat": 38.91624083333333, "bike_id": "db0fc3f521a54011b2dcefec6d70da40", "is_disabled": 0, "lon": -77.034963, "is_reserved": 0, "fusion_lat": 0.0, "type": "electric_scooter"}, {"fusion_lon": 0.0, "name": "c6bb517a6836c361eb1ab5a6ada1aa53", "rental_uris": {"android": "https://dc.lft.to/lastmile_qr_scan", "ios": "https://dc.lft.to/lastmile_qr_scan"}, "lat": 38.89566816666667, "bike_id": "c6bb517a6836c361eb1ab5a6ada1aa53", "is_disabled": 0, "lon": -77.02162333333334, "is_reserved": 0, "fusion_lat": 0.0, "type": "electric_bike"}, {"fusion_lon": 0.0, "name": "00795f4106a946d94cdf8138b7ba4dd5", "rental_uris": {"android": "https://dc.lft.to/lastmile_qr_scan", "ios": "https://dc.lft.to/lastmile_qr_scan"}, "lat": 38.8784565, "bike_id": "00795f4106a946d94cdf8138b7ba4dd5", "is_disabled": 0, "lon": -77.01968066666667, "is_reserved": 0, "fusion_lat": 0.0, "type": "electric_scooter"}, {"fusion_lon": 0.0, "name": "21c8628f4a9f158dec18b6cb9dc5f568", "rental_uris": {"android": "https://dc.lft.to/lastmile_qr_scan", "ios": "https://dc.lft.to/lastmile_qr_scan"}, "lat": 38.910043333333334, "bike_id": "21c8628f4a9f158dec18b6cb9dc5f568", "is_disabled": 0, "lon": -77.0318325, "is_reserved": 0, "fusion_lat": 0.0, "type": "electric_scooter"}, {"fusion_lon": 0.0, "name": "53312867e0cc62583fd21e652bae432d", "rental_uris": {"android": "https://dc.lft.to/lastmile_qr_scan", "ios": "https://dc.lft.to/lastmile_qr_scan"}, "lat": 38.89286466666667, "bike_id": "53312867e0cc62583fd21e652bae432d", "is_disabled": 0, "lon": -77.05044983333333, "is_reserved": 0, "fusion_lat": 0.0, "type": "electric_bike"}, {"fusion_lon": 0.0, "name": "a8c6e2d71f5fb6b1d2223d003a84d036", "rental_uris": {"android": "https://dc.lft.to/lastmile_qr_scan", "ios": "https://dc.lft.to/lastmile_qr_scan"}, "lat": 38.889957, "bike_id": "a8c6e2d71f5fb6b1d2223d003a84d036", "is_disabled": 0, "lon": -76.92108516666667, "is_reserved": 0, "fusion_lat": 0.0, "type": "electric_scooter"}, {"fusion_lon": 0.0, "name": "0307f073c528c2077221d5fc9703d5be", "rental_uris": {"android": "https://dc.lft.to/lastmile_qr_scan", "ios": "https://dc.lft.to/lastmile_qr_scan"}, "lat": 38.89885183333333, "bike_id": "0307f073c528c2077221d5fc9703d5be", "is_disabled": 0, "lon": -76.93174216666667, "is_reserved": 0, "fusion_lat": 0.0, "type": "electric_scooter"}, {"fusion_lon": 0.0, "name": "035bfa7fdf9654ef9e18078a5cd8d894", "rental_uris": {"android": "https://dc.lft.to/lastmile_qr_scan", "ios": "https://dc.lft.to/lastmile_qr_scan"}, "lat": 38.92808016666667, "bike_id": "035bfa7fdf9654ef9e18078a5cd8d894", "is_disabled": 0, "lon": -77.01944566666667, "is_reserved": 0, "fusion_lat": 0.0, "type": "electric_scooter"}, {"fusion_lon": 0.0, "name": "23720604d0bcc7ccb867a0959697acf4", "rental_uris": {"android": "https://dc.lft.to/lastmile_qr_scan", "ios": "https://dc.lft.to/lastmile_qr_scan"}, "lat": 38.927511333333335, "bike_id": "23720604d0bcc7ccb867a0959697acf4", "is_disabled": 0, "lon": -77.02960383333334, "is_reserved": 0, "fusion_lat": 0.0, "type": "electric_scooter"}, {"fusion_lon": 0.0, "name": "77393efdd64066b716af28c5ea016581", "rental_uris": {"android": "https://dc.lft.to/lastmile_qr_scan", "ios": "https://dc.lft.to/lastmile_qr_scan"}, "lat": 38.919061, "bike_id": "77393efdd64066b716af28c5ea016581", "is_disabled": 0, "lon": -77.04466766666667, "is_reserved": 0, "fusion_lat": 0.0, "type": "electric_scooter"}, {"fusion_lon": 0.0, "name": "17d18ff49e5c1f8f24dcd02cfc3d46f8", "rental_uris": {"android": "https://dc.lft.to/lastmile_qr_scan", "ios": "https://dc.lft.to/lastmile_qr_scan"}, "lat": 38.905743, "bike_id": "17d18ff49e5c1f8f24dcd02cfc3d46f8", "is_disabled": 0, "lon": -77.030898, "is_reserved": 0, "fusion_lat": 0.0, "type": "electric_scooter"}, {"fusion_lon": 0.0, "name": "b2614a4ac3f20961e1adc57dc620d99d", "rental_uris": {"android": "https://dc.lft.to/lastmile_qr_scan", "ios": "https://dc.lft.to/lastmile_qr_scan"}, "lat": 38.89458316666666, "bike_id": "b2614a4ac3f20961e1adc57dc620d99d", "is_disabled": 0, "lon": -77.191286, "is_reserved": 0, "fusion_lat": 0.0, "type": "electric_bike"}, {"fusion_lon": 0.0, "name": "3c153b13f33ac43e5e003ddf096449df", "rental_uris": {"android": "https://dc.lft.to/lastmile_qr_scan", "ios": "https://dc.lft.to/lastmile_qr_scan"}, "lat": 38.926384166666665, "bike_id": "3c153b13f33ac43e5e003ddf096449df", "is_disabled": 0, "lon": -77.0369945, "is_reserved": 0, "fusion_lat": 0.0, "type": "electric_scooter"}, {"fusion_lon": 0.0, "name": "41463f0b4fb091304f6f4858c3da239f", "rental_uris": {"android": "https://dc.lft.to/lastmile_qr_scan", "ios": "https://dc.lft.to/lastmile_qr_scan"}, "lat": 38.887331833333334, "bike_id": "41463f0b4fb091304f6f4858c3da239f", "is_disabled": 0, "lon": -77.0134335, "is_reserved": 0, "fusion_lat": 0.0, "type": "electric_scooter"}, {"fusion_lon": 0.0, "name": "dc4cf13e75ac6159a7416b1672abdf54", "rental_uris": {"android": "https://dc.lft.to/lastmile_qr_scan", "ios": "https://dc.lft.to/lastmile_qr_scan"}, "lat": 38.900694666666666, "bike_id": "dc4cf13e75ac6159a7416b1672abdf54", "is_disabled": 0, "lon": -77.048963, "is_reserved": 0, "fusion_lat": 0.0, "type": "electric_scooter"}, {"fusion_lon": 0.0, "name": "270de1c8cec4dd8e989dcb6f36382015", "rental_uris": {"android": "https://dc.lft.to/lastmile_qr_scan", "ios": "https://dc.lft.to/lastmile_qr_scan"}, "lat": 38.9234425, "bike_id": "270de1c8cec4dd8e989dcb6f36382015", "is_disabled": 0, "lon": -77.05473283333333, "is_reserved": 0, "fusion_lat": 0.0, "type": "electric_scooter"}, {"fusion_lon": 0.0, "name": "2bf0aaa788399ff50d25a80a3e373b28", "rental_uris": {"android": "https://dc.lft.to/lastmile_qr_scan", "ios": "https://dc.lft.to/lastmile_qr_scan"}, "lat": 38.9192505, "bike_id": "2bf0aaa788399ff50d25a80a3e373b28", "is_disabled": 0, "lon": -77.03340566666667, "is_reserved": 0, "fusion_lat": 0.0, "type": "electric_scooter"}, {"fusion_lon": 0.0, "name": "5cd8ce3984ff14cf2d63bbdd19e030d9", "rental_uris": {"android": "https://dc.lft.to/lastmile_qr_scan", "ios": "https://dc.lft.to/lastmile_qr_scan"}, "lat": 38.935573833333336, "bike_id": "5cd8ce3984ff14cf2d63bbdd19e030d9", "is_disabled": 0, "lon": -77.03429216666666, "is_reserved": 0, "fusion_lat": 0.0, "type": "electric_scooter"}, {"fusion_lon": 0.0, "name": "a185b3638b84eafeb6ea5e1a8d978142", "rental_uris": {"android": "https://dc.lft.to/lastmile_qr_scan", "ios": "https://dc.lft.to/lastmile_qr_scan"}, "lat": 38.900601333333334, "bike_id": "a185b3638b84eafeb6ea5e1a8d978142", "is_disabled": 0, "lon": -77.033492, "is_reserved": 0, "fusion_lat": 0.0, "type": "electric_scooter"}, {"fusion_lon": 0.0, "name": "6df851ffeaa50407d12b0ff52f746269", "rental_uris": {"android": "https://dc.lft.to/lastmile_qr_scan", "ios": "https://dc.lft.to/lastmile_qr_scan"}, "lat": 38.925173666666666, "bike_id": "6df851ffeaa50407d12b0ff52f746269", "is_disabled": 0, "lon": -77.00870733333333, "is_reserved": 0, "fusion_lat": 0.0, "type": "electric_scooter"}, {"fusion_lon": 0.0, "name": "9a9b9165be0bd86cff32a575d1e58196", "rental_uris": {"android": "https://dc.lft.to/lastmile_qr_scan", "ios": "https://dc.lft.to/lastmile_qr_scan"}, "lat": 38.922534666666664, "bike_id": "9a9b9165be0bd86cff32a575d1e58196", "is_disabled": 0, "lon": -77.03079166666667, "is_reserved": 0, "fusion_lat": 0.0, "type": "electric_scooter"}, {"fusion_lon": 0.0, "name": "2a797d99fa6bcb521f7d284af8c76195", "rental_uris": {"android": "https://dc.lft.to/lastmile_qr_scan", "ios": "https://dc.lft.to/lastmile_qr_scan"}, "lat": 38.92970016666666, "bike_id": "2a797d99fa6bcb521f7d284af8c76195", "is_disabled": 0, "lon": -77.01967983333333, "is_reserved": 0, "fusion_lat": 0.0, "type": "electric_scooter"}, {"fusion_lon": 0.0, "name": "42ddee150ad74417400815079bd3e2db", "rental_uris": {"android": "https://dc.lft.to/lastmile_qr_scan", "ios": "https://dc.lft.to/lastmile_qr_scan"}, "lat": 38.90385, "bike_id": "42ddee150ad74417400815079bd3e2db", "is_disabled": 0, "lon": -77.06856233333333, "is_reserved": 0, "fusion_lat": 0.0, "type": "electric_scooter"}, {"fusion_lon": 0.0, "name": "a1dfe541436cf10a9301835bffe29642", "rental_uris": {"android": "https://dc.lft.to/lastmile_qr_scan", "ios": "https://dc.lft.to/lastmile_qr_scan"}, "lat": 38.917895333333334, "bike_id": "a1dfe541436cf10a9301835bffe29642", "is_disabled": 0, "lon": -77.04023066666667, "is_reserved": 0, "fusion_lat": 0.0, "type": "electric_scooter"}, {"fusion_lon": 0.0, "name": "42b095afeeeebcecc2be333cc45d572d", "rental_uris": {"android": "https://dc.lft.to/lastmile_qr_scan", "ios": "https://dc.lft.to/lastmile_qr_scan"}, "lat": 38.9199, "bike_id": "42b095afeeeebcecc2be333cc45d572d", "is_disabled": 0, "lon": -77.07101983333334, "is_reserved": 0, "fusion_lat": 0.0, "type": "electric_scooter"}, {"fusion_lon": 0.0, "name": "e380a93a7a9191b0786d8bd83625d7c1", "rental_uris": {"android": "https://dc.lft.to/lastmile_qr_scan", "ios": "https://dc.lft.to/lastmile_qr_scan"}, "lat": 38.91566, "bike_id": "e380a93a7a9191b0786d8bd83625d7c1", "is_disabled": 0, "lon": -77.0289095, "is_reserved": 0, "fusion_lat": 0.0, "type": "electric_scooter"}, {"fusion_lon": 0.0, "name": "9980b8790c58be58ffda5e35454b649a", "rental_uris": {"android": "https://dc.lft.to/lastmile_qr_scan", "ios": "https://dc.lft.to/lastmile_qr_scan"}, "lat": 38.96479166666667, "bike_id": "9980b8790c58be58ffda5e35454b649a", "is_disabled": 0, "lon": -77.031647, "is_reserved": 0, "fusion_lat": 0.0, "type": "electric_bike"}, {"fusion_lon": 0.0, "name": "d06f70f6f2f2417feeef9e4ba9ae17d5", "rental_uris": {"android": "https://dc.lft.to/lastmile_qr_scan", "ios": "https://dc.lft.to/lastmile_qr_scan"}, "lat": 38.895629666666665, "bike_id": "d06f70f6f2f2417feeef9e4ba9ae17d5", "is_disabled": 0, "lon": -77.0110515, "is_reserved": 0, "fusion_lat": 0.0, "type": "electric_scooter"}, {"fusion_lon": 0.0, "name": "5729a938c9cf9b05c72187ed03728526", "rental_uris": {"android": "https://dc.lft.to/lastmile_qr_scan", "ios": "https://dc.lft.to/lastmile_qr_scan"}, "lat": 38.893452333333336, "bike_id": "5729a938c9cf9b05c72187ed03728526", "is_disabled": 0, "lon": -76.95242166666667, "is_reserved": 0, "fusion_lat": 0.0, "type": "electric_scooter"}, {"fusion_lon": 0.0, "name": "bad06fa87f9058aa5ec1fc2316533be8", "rental_uris": {"android": "https://dc.lft.to/lastmile_qr_scan", "ios": "https://dc.lft.to/lastmile_qr_scan"}, "lat": 38.903427666666666, "bike_id": "bad06fa87f9058aa5ec1fc2316533be8", "is_disabled": 0, "lon": -76.982719, "is_reserved": 0, "fusion_lat": 0.0, "type": "electric_scooter"}, {"fusion_lon": 0.0, "name": "53fa0a9127a2cb05e3164fadb5dad649", "rental_uris": {"android": "https://dc.lft.to/lastmile_qr_scan", "ios": "https://dc.lft.to/lastmile_qr_scan"}, "lat": 38.9125185, "bike_id": "53fa0a9127a2cb05e3164fadb5dad649", "is_disabled": 0, "lon": -77.0114455, "is_reserved": 0, "fusion_lat": 0.0, "type": "electric_scooter"}, {"fusion_lon": 0.0, "name": "02224744fd3ea09f6b3a13c886df704f", "rental_uris": {"android": "https://dc.lft.to/lastmile_qr_scan", "ios": "https://dc.lft.to/lastmile_qr_scan"}, "lat": 38.91460883333333, "bike_id": "02224744fd3ea09f6b3a13c886df704f", "is_disabled": 0, "lon": -77.0417785, "is_reserved": 0, "fusion_lat": 0.0, "type": "electric_scooter"}, {"fusion_lon": 0.0, "name": "823015491cc41a140882812b664a5f50", "rental_uris": {"android": "https://dc.lft.to/lastmile_qr_scan", "ios": "https://dc.lft.to/lastmile_qr_scan"}, "lat": 38.920291, "bike_id": "823015491cc41a140882812b664a5f50", "is_disabled": 0, "lon": -77.01116933333333, "is_reserved": 0, "fusion_lat": 0.0, "type": "electric_scooter"}, {"fusion_lon": 0.0, "name": "8da8b1984ae0818aa3f51c02c08ca55f", "rental_uris": {"android": "https://dc.lft.to/lastmile_qr_scan", "ios": "https://dc.lft.to/lastmile_qr_scan"}, "lat": 38.900301166666665, "bike_id": "8da8b1984ae0818aa3f51c02c08ca55f", "is_disabled": 0, "lon": -76.99868583333334, "is_reserved": 0, "fusion_lat": 0.0, "type": "electric_scooter"}, {"fusion_lon": 0.0, "name": "62206841cd22f059442607b1cb31af1f", "rental_uris": {"android": "https://dc.lft.to/lastmile_qr_scan", "ios": "https://dc.lft.to/lastmile_qr_scan"}, "lat": 38.924613666666666, "bike_id": "62206841cd22f059442607b1cb31af1f", "is_disabled": 0, "lon": -77.02263966666666, "is_reserved": 0, "fusion_lat": 0.0, "type": "electric_scooter"}, {"fusion_lon": 0.0, "name": "948caef7f72b00e22e9ce9573570c69a", "rental_uris": {"android": "https://dc.lft.to/lastmile_qr_scan", "ios": "https://dc.lft.to/lastmile_qr_scan"}, "lat": 38.90872066666667, "bike_id": "948caef7f72b00e22e9ce9573570c69a", "is_disabled": 0, "lon": -77.08592433333334, "is_reserved": 0, "fusion_lat": 0.0, "type": "electric_scooter"}, {"fusion_lon": 0.0, "name": "fa26155793e39f0410c7149caf149e41", "rental_uris": {"android": "https://dc.lft.to/lastmile_qr_scan", "ios": "https://dc.lft.to/lastmile_qr_scan"}, "lat": 38.900758, "bike_id": "fa26155793e39f0410c7149caf149e41", "is_disabled": 0, "lon": -77.044711, "is_reserved": 0, "fusion_lat": 0.0, "type": "electric_scooter"}, {"fusion_lon": 0.0, "name": "cee83a6cd2318630687c67296e0eb186", "rental_uris": {"android": "https://dc.lft.to/lastmile_qr_scan", "ios": "https://dc.lft.to/lastmile_qr_scan"}, "lat": 38.896158, "bike_id": "cee83a6cd2318630687c67296e0eb186", "is_disabled": 0, "lon": -76.9075095, "is_reserved": 0, "fusion_lat": 0.0, "type": "electric_bike"}, {"fusion_lon": 0.0, "name": "f9f3f012f9a8dbad295a17c46158b6db", "rental_uris": {"android": "https://dc.lft.to/lastmile_qr_scan", "ios": "https://dc.lft.to/lastmile_qr_scan"}, "lat": 38.903285833333335, "bike_id": "f9f3f012f9a8dbad295a17c46158b6db", "is_disabled": 0, "lon": -76.981676, "is_reserved": 0, "fusion_lat": 0.0, "type": "electric_scooter"}, {"fusion_lon": 0.0, "name": "66d840b4eada7f21fefddc53f764f0ec", "rental_uris": {"android": "https://dc.lft.to/lastmile_qr_scan", "ios": "https://dc.lft.to/lastmile_qr_scan"}, "lat": 38.91337083333333, "bike_id": "66d840b4eada7f21fefddc53f764f0ec", "is_disabled": 0, "lon": -77.0022245, "is_reserved": 0, "fusion_lat": 0.0, "type": "electric_scooter"}, {"fusion_lon": 0.0, "name": "625f12e99569251217067d798eda56c4", "rental_uris": {"android": "https://dc.lft.to/lastmile_qr_scan", "ios": "https://dc.lft.to/lastmile_qr_scan"}, "lat": 38.916875166666664, "bike_id": "625f12e99569251217067d798eda56c4", "is_disabled": 0, "lon": -77.0158245, "is_reserved": 0, "fusion_lat": 0.0, "type": "electric_scooter"}, {"fusion_lon": 0.0, "name": "661d41f4ea83902fdd025f1e9836d44c", "rental_uris": {"android": "https://dc.lft.to/lastmile_qr_scan", "ios": "https://dc.lft.to/lastmile_qr_scan"}, "lat": 38.89534183333333, "bike_id": "661d41f4ea83902fdd025f1e9836d44c", "is_disabled": 0, "lon": -77.01091966666667, "is_reserved": 0, "fusion_lat": 0.0, "type": "electric_scooter"}, {"fusion_lon": 0.0, "name": "7b405f9feee236fa916e239d4a430f2e", "rental_uris": {"android": "https://dc.lft.to/lastmile_qr_scan", "ios": "https://dc.lft.to/lastmile_qr_scan"}, "lat": 38.902531333333336, "bike_id": "7b405f9feee236fa916e239d4a430f2e", "is_disabled": 0, "lon": -77.0180525, "is_reserved": 0, "fusion_lat": 0.0, "type": "electric_scooter"}, {"fusion_lon": 0.0, "name": "00ba91fb14591322a9b522cbdf4d7313", "rental_uris": {"android": "https://dc.lft.to/lastmile_qr_scan", "ios": "https://dc.lft.to/lastmile_qr_scan"}, "lat": 38.86012, "bike_id": "00ba91fb14591322a9b522cbdf4d7313", "is_disabled": 0, "lon": -77.06530866666667, "is_reserved": 0, "fusion_lat": 0.0, "type": "electric_bike"}, {"fusion_lon": 0.0, "name": "082ec0ccdc3e0c147cb416eba14f7c21", "rental_uris": {"android": "https://dc.lft.to/lastmile_qr_scan", "ios": "https://dc.lft.to/lastmile_qr_scan"}, "lat": 38.8804315, "bike_id": "082ec0ccdc3e0c147cb416eba14f7c21", "is_disabled": 0, "lon": -77.00521233333333, "is_reserved": 0, "fusion_lat": 0.0, "type": "electric_scooter"}, {"fusion_lon": 0.0, "name": "4790d434055f7ffca61f7e130bf9b215", "rental_uris": {"android": "https://dc.lft.to/lastmile_qr_scan", "ios": "https://dc.lft.to/lastmile_qr_scan"}, "lat": 38.9418395, "bike_id": "4790d434055f7ffca61f7e130bf9b215", "is_disabled": 0, "lon": -77.02488883333334, "is_reserved": 0, "fusion_lat": 0.0, "type": "electric_scooter"}, {"fusion_lon": 0.0, "name": "eca6abebae903f6ec3b16a94f5d9cde7", "rental_uris": {"android": "https://dc.lft.to/lastmile_qr_scan", "ios": "https://dc.lft.to/lastmile_qr_scan"}, "lat": 38.9074095, "bike_id": "eca6abebae903f6ec3b16a94f5d9cde7", "is_disabled": 0, "lon": -77.032175, "is_reserved": 0, "fusion_lat": 0.0, "type": "electric_scooter"}, {"fusion_lon": 0.0, "name": "f225572aa0d71a35d18351be0bbe5fe5", "rental_uris": {"android": "https://dc.lft.to/lastmile_qr_scan", "ios": "https://dc.lft.to/lastmile_qr_scan"}, "lat": 38.873423, "bike_id": "f225572aa0d71a35d18351be0bbe5fe5", "is_disabled": 0, "lon": -76.99169033333334, "is_reserved": 0, "fusion_lat": 0.0, "type": "electric_scooter"}, {"fusion_lon": 0.0, "name": "103ce03a377e1db2c92c3e83bcbf9d51", "rental_uris": {"android": "https://dc.lft.to/lastmile_qr_scan", "ios": "https://dc.lft.to/lastmile_qr_scan"}, "lat": 38.909488, "bike_id": "103ce03a377e1db2c92c3e83bcbf9d51", "is_disabled": 0, "lon": -77.03445333333333, "is_reserved": 0, "fusion_lat": 0.0, "type": "electric_scooter"}, {"fusion_lon": 0.0, "name": "7142e148688ffc3ce1494c0371c7a7c3", "rental_uris": {"android": "https://dc.lft.to/lastmile_qr_scan", "ios": "https://dc.lft.to/lastmile_qr_scan"}, "lat": 38.922011166666664, "bike_id": "7142e148688ffc3ce1494c0371c7a7c3", "is_disabled": 0, "lon": -76.9836795, "is_reserved": 0, "fusion_lat": 0.0, "type": "electric_scooter"}, {"fusion_lon": 0.0, "name": "a7f4ddcaa5d7bb6c4411d6c74a6a3659", "rental_uris": {"android": "https://dc.lft.to/lastmile_qr_scan", "ios": "https://dc.lft.to/lastmile_qr_scan"}, "lat": 38.89767716666667, "bike_id": "a7f4ddcaa5d7bb6c4411d6c74a6a3659", "is_disabled": 0, "lon": -77.025636, "is_reserved": 0, "fusion_lat": 0.0, "type": "electric_scooter"}, {"fusion_lon": 0.0, "name": "94a5b269fb2f46635cccc7832e548f01", "rental_uris": {"android": "https://dc.lft.to/lastmile_qr_scan", "ios": "https://dc.lft.to/lastmile_qr_scan"}, "lat": 38.901016166666665, "bike_id": "94a5b269fb2f46635cccc7832e548f01", "is_disabled": 0, "lon": -77.050763, "is_reserved": 0, "fusion_lat": 0.0, "type": "electric_scooter"}, {"fusion_lon": 0.0, "name": "985b79572bc5133b11b32e7b2ecbf850", "rental_uris": {"android": "https://dc.lft.to/lastmile_qr_scan", "ios": "https://dc.lft.to/lastmile_qr_scan"}, "lat": 38.89420166666667, "bike_id": "985b79572bc5133b11b32e7b2ecbf850", "is_disabled": 0, "lon": -76.99771533333333, "is_reserved": 0, "fusion_lat": 0.0, "type": "electric_scooter"}, {"fusion_lon": 0.0, "name": "0944b3c3ce21c62be7a7f70752682b85", "rental_uris": {"android": "https://dc.lft.to/lastmile_qr_scan", "ios": "https://dc.lft.to/lastmile_qr_scan"}, "lat": 38.90367833333333, "bike_id": "0944b3c3ce21c62be7a7f70752682b85", "is_disabled": 0, "lon": -76.980563, "is_reserved": 0, "fusion_lat": 0.0, "type": "electric_scooter"}, {"fusion_lon": 0.0, "name": "5cd68edef24fb8fbeb03a3634ad3e78e", "rental_uris": {"android": "https://dc.lft.to/lastmile_qr_scan", "ios": "https://dc.lft.to/lastmile_qr_scan"}, "lat": 38.91353566666667, "bike_id": "5cd68edef24fb8fbeb03a3634ad3e78e", "is_disabled": 0, "lon": -77.019849, "is_reserved": 0, "fusion_lat": 0.0, "type": "electric_scooter"}, {"fusion_lon": 0.0, "name": "b45b303ef8c0448dee603eb4a495d6f8", "rental_uris": {"android": "https://dc.lft.to/lastmile_qr_scan", "ios": "https://dc.lft.to/lastmile_qr_scan"}, "lat": 38.88614366666667, "bike_id": "b45b303ef8c0448dee603eb4a495d6f8", "is_disabled": 0, "lon": -77.02168566666667, "is_reserved": 0, "fusion_lat": 0.0, "type": "electric_scooter"}, {"fusion_lon": 0.0, "name": "2205d3d5ed882e635f754adb997cc729", "rental_uris": {"android": "https://dc.lft.to/lastmile_qr_scan", "ios": "https://dc.lft.to/lastmile_qr_scan"}, "lat": 38.92878783333333, "bike_id": "2205d3d5ed882e635f754adb997cc729", "is_disabled": 0, "lon": -77.03351866666667, "is_reserved": 0, "fusion_lat": 0.0, "type": "electric_scooter"}, {"fusion_lon": 0.0, "name": "16c56ee6c2a7ecf64c692ad5454b30f6", "rental_uris": {"android": "https://dc.lft.to/lastmile_qr_scan", "ios": "https://dc.lft.to/lastmile_qr_scan"}, "lat": 38.992338833333335, "bike_id": "16c56ee6c2a7ecf64c692ad5454b30f6", "is_disabled": 0, "lon": -77.02379016666667, "is_reserved": 0, "fusion_lat": 0.0, "type": "electric_bike"}, {"fusion_lon": 0.0, "name": "effc4c0dcded47ee433259968bc3ce9b", "rental_uris": {"android": "https://dc.lft.to/lastmile_qr_scan", "ios": "https://dc.lft.to/lastmile_qr_scan"}, "lat": 38.93246933333333, "bike_id": "effc4c0dcded47ee433259968bc3ce9b", "is_disabled": 0, "lon": -77.032761, "is_reserved": 0, "fusion_lat": 0.0, "type": "electric_scooter"}, {"fusion_lon": 0.0, "name": "03ca2f58ffd15bf9568a3132d3f2cb83", "rental_uris": {"android": "https://dc.lft.to/lastmile_qr_scan", "ios": "https://dc.lft.to/lastmile_qr_scan"}, "lat": 38.92351883333333, "bike_id": "03ca2f58ffd15bf9568a3132d3f2cb83", "is_disabled": 0, "lon": -77.041523, "is_reserved": 0, "fusion_lat": 0.0, "type": "electric_scooter"}, {"fusion_lon": 0.0, "name": "35e0cd86e4e969964ac748c24734f9fc", "rental_uris": {"android": "https://dc.lft.to/lastmile_qr_scan", "ios": "https://dc.lft.to/lastmile_qr_scan"}, "lat": 38.905726, "bike_id": "35e0cd86e4e969964ac748c24734f9fc", "is_disabled": 0, "lon": -77.0218615, "is_reserved": 0, "fusion_lat": 0.0, "type": "electric_scooter"}, {"fusion_lon": 0.0, "name": "731e9d5d09330fd90caa2a9a98ac1feb", "rental_uris": {"android": "https://dc.lft.to/lastmile_qr_scan", "ios": "https://dc.lft.to/lastmile_qr_scan"}, "lat": 38.9299185, "bike_id": "731e9d5d09330fd90caa2a9a98ac1feb", "is_disabled": 0, "lon": -77.02206883333334, "is_reserved": 0, "fusion_lat": 0.0, "type": "electric_scooter"}, {"fusion_lon": 0.0, "name": "cb88f551ce7c60ee9f231bd92fc0666c", "rental_uris": {"android": "https://dc.lft.to/lastmile_qr_scan", "ios": "https://dc.lft.to/lastmile_qr_scan"}, "lat": 38.92068366666667, "bike_id": "cb88f551ce7c60ee9f231bd92fc0666c", "is_disabled": 0, "lon": -77.02325616666667, "is_reserved": 0, "fusion_lat": 0.0, "type": "electric_scooter"}, {"fusion_lon": 0.0, "name": "e4f3b534256c7c59d64c732b3b4279df", "rental_uris": {"android": "https://dc.lft.to/lastmile_qr_scan", "ios": "https://dc.lft.to/lastmile_qr_scan"}, "lat": 38.966162, "bike_id": "e4f3b534256c7c59d64c732b3b4279df", "is_disabled": 0, "lon": -77.022883, "is_reserved": 0, "fusion_lat": 0.0, "type": "electric_scooter"}, {"fusion_lon": 0.0, "name": "f7734cdc2136322f47eade725d60505b", "rental_uris": {"android": "https://dc.lft.to/lastmile_qr_scan", "ios": "https://dc.lft.to/lastmile_qr_scan"}, "lat": 38.85780066666667, "bike_id": "f7734cdc2136322f47eade725d60505b", "is_disabled": 0, "lon": -76.98755483333333, "is_reserved": 0, "fusion_lat": 0.0, "type": "electric_bike"}, {"fusion_lon": 0.0, "name": "7add7fbe2f2976b032675ff152cecae6", "rental_uris": {"android": "https://dc.lft.to/lastmile_qr_scan", "ios": "https://dc.lft.to/lastmile_qr_scan"}, "lat": 38.848107166666665, "bike_id": "7add7fbe2f2976b032675ff152cecae6", "is_disabled": 0, "lon": -76.952448, "is_reserved": 0, "fusion_lat": 0.0, "type": "electric_bike"}, {"fusion_lon": 0.0, "name": "33631fa85c32d8c644c73f8f2893fd40", "rental_uris": {"android": "https://dc.lft.to/lastmile_qr_scan", "ios": "https://dc.lft.to/lastmile_qr_scan"}, "lat": 38.8952715, "bike_id": "33631fa85c32d8c644c73f8f2893fd40", "is_disabled": 0, "lon": -77.01177866666667, "is_reserved": 0, "fusion_lat": 0.0, "type": "electric_scooter"}, {"fusion_lon": 0.0, "name": "a5e52f545c1b3d5b3c6a2724a3a4840d", "rental_uris": {"android": "https://dc.lft.to/lastmile_qr_scan", "ios": "https://dc.lft.to/lastmile_qr_scan"}, "lat": 38.8174255, "bike_id": "a5e52f545c1b3d5b3c6a2724a3a4840d", "is_disabled": 0, "lon": -77.06688533333333, "is_reserved": 0, "fusion_lat": 0.0, "type": "electric_bike"}, {"fusion_lon": 0.0, "name": "cae8f632e7047bba4cfa3ad0ae11a84c", "rental_uris": {"android": "https://dc.lft.to/lastmile_qr_scan", "ios": "https://dc.lft.to/lastmile_qr_scan"}, "lat": 38.937027666666665, "bike_id": "cae8f632e7047bba4cfa3ad0ae11a84c", "is_disabled": 0, "lon": -77.05601483333334, "is_reserved": 0, "fusion_lat": 0.0, "type": "electric_scooter"}, {"fusion_lon": 0.0, "name": "c2dcf8c3177c92fda41486306264d4f1", "rental_uris": {"android": "https://dc.lft.to/lastmile_qr_scan", "ios": "https://dc.lft.to/lastmile_qr_scan"}, "lat": 38.95060383333333, "bike_id": "c2dcf8c3177c92fda41486306264d4f1", "is_disabled": 0, "lon": -77.00731583333334, "is_reserved": 0, "fusion_lat": 0.0, "type": "electric_bike"}, {"fusion_lon": 0.0, "name": "ca774ba6170b0e30fb481fb11c9c74d2", "rental_uris": {"android": "https://dc.lft.to/lastmile_qr_scan", "ios": "https://dc.lft.to/lastmile_qr_scan"}, "lat": 38.92017716666667, "bike_id": "ca774ba6170b0e30fb481fb11c9c74d2", "is_disabled": 0, "lon": -77.019038, "is_reserved": 0, "fusion_lat": 0.0, "type": "electric_scooter"}, {"fusion_lon": 0.0, "name": "d8b24e24b19a8aa933a721deb6558750", "rental_uris": {"android": "https://dc.lft.to/lastmile_qr_scan", "ios": "https://dc.lft.to/lastmile_qr_scan"}, "lat": 38.924627, "bike_id": "d8b24e24b19a8aa933a721deb6558750", "is_disabled": 0, "lon": -77.02112783333334, "is_reserved": 0, "fusion_lat": 0.0, "type": "electric_scooter"}, {"fusion_lon": 0.0, "name": "97df7f30b9ddd9aa24aeae3eceac00d0", "rental_uris": {"android": "https://dc.lft.to/lastmile_qr_scan", "ios": "https://dc.lft.to/lastmile_qr_scan"}, "lat": 38.92969883333333, "bike_id": "97df7f30b9ddd9aa24aeae3eceac00d0", "is_disabled": 0, "lon": -77.036376, "is_reserved": 0, "fusion_lat": 0.0, "type": "electric_scooter"}, {"fusion_lon": 0.0, "name": "7df9d70dbc169d782fff8bc5522b61e4", "rental_uris": {"android": "https://dc.lft.to/lastmile_qr_scan", "ios": "https://dc.lft.to/lastmile_qr_scan"}, "lat": 38.904142, "bike_id": "7df9d70dbc169d782fff8bc5522b61e4", "is_disabled": 0, "lon": -77.04061483333334, "is_reserved": 0, "fusion_lat": 0.0, "type": "electric_scooter"}, {"fusion_lon": 0.0, "name": "5cb88d4724a0bea7a72e340e977fd538", "rental_uris": {"android": "https://dc.lft.to/lastmile_qr_scan", "ios": "https://dc.lft.to/lastmile_qr_scan"}, "lat": 38.88773283333333, "bike_id": "5cb88d4724a0bea7a72e340e977fd538", "is_disabled": 0, "lon": -76.9326035, "is_reserved": 0, "fusion_lat": 0.0, "type": "electric_scooter"}, {"fusion_lon": 0.0, "name": "95b0335d98b5551ae0cb6ba9f3b50899", "rental_uris": {"android": "https://dc.lft.to/lastmile_qr_scan", "ios": "https://dc.lft.to/lastmile_qr_scan"}, "lat": 38.908724666666664, "bike_id": "95b0335d98b5551ae0cb6ba9f3b50899", "is_disabled": 0, "lon": -77.003611, "is_reserved": 0, "fusion_lat": 0.0, "type": "electric_scooter"}, {"fusion_lon": 0.0, "name": "8654d96170ba9b7a6a7065881fe8bdbf", "rental_uris": {"android": "https://dc.lft.to/lastmile_qr_scan", "ios": "https://dc.lft.to/lastmile_qr_scan"}, "lat": 38.92469283333333, "bike_id": "8654d96170ba9b7a6a7065881fe8bdbf", "is_disabled": 0, "lon": -77.022192, "is_reserved": 0, "fusion_lat": 0.0, "type": "electric_scooter"}, {"fusion_lon": 0.0, "name": "b6db5b3e7945ca105f690592648e9a53", "rental_uris": {"android": "https://dc.lft.to/lastmile_qr_scan", "ios": "https://dc.lft.to/lastmile_qr_scan"}, "lat": 38.91957766666667, "bike_id": "b6db5b3e7945ca105f690592648e9a53", "is_disabled": 0, "lon": -77.02399, "is_reserved": 0, "fusion_lat": 0.0, "type": "electric_scooter"}, {"fusion_lon": 0.0, "name": "3db4f20f6b027865dbc327d2e01a822b", "rental_uris": {"android": "https://dc.lft.to/lastmile_qr_scan", "ios": "https://dc.lft.to/lastmile_qr_scan"}, "lat": 38.956277666666665, "bike_id": "3db4f20f6b027865dbc327d2e01a822b", "is_disabled": 0, "lon": -77.02950333333334, "is_reserved": 0, "fusion_lat": 0.0, "type": "electric_scooter"}, {"fusion_lon": 0.0, "name": "4ffb0c79142df87fecc34eb83728c189", "rental_uris": {"android": "https://dc.lft.to/lastmile_qr_scan", "ios": "https://dc.lft.to/lastmile_qr_scan"}, "lat": 38.87316366666667, "bike_id": "4ffb0c79142df87fecc34eb83728c189", "is_disabled": 0, "lon": -77.01391416666667, "is_reserved": 0, "fusion_lat": 0.0, "type": "electric_scooter"}, {"fusion_lon": 0.0, "name": "ecad8f5f3611c8b14644e1be46d47244", "rental_uris": {"android": "https://dc.lft.to/lastmile_qr_scan", "ios": "https://dc.lft.to/lastmile_qr_scan"}, "lat": 38.895583333333335, "bike_id": "ecad8f5f3611c8b14644e1be46d47244", "is_disabled": 0, "lon": -77.1273805, "is_reserved": 0, "fusion_lat": 0.0, "type": "electric_bike"}, {"fusion_lon": 0.0, "name": "8741b73ae891a8f28127ebae00e7cfa2", "rental_uris": {"android": "https://dc.lft.to/lastmile_qr_scan", "ios": "https://dc.lft.to/lastmile_qr_scan"}, "lat": 38.89615583333333, "bike_id": "8741b73ae891a8f28127ebae00e7cfa2", "is_disabled": 0, "lon": -76.929751, "is_reserved": 0, "fusion_lat": 0.0, "type": "electric_scooter"}, {"fusion_lon": 0.0, "name": "970ffcd3a1bd1ed80d05c4dc47a34883", "rental_uris": {"android": "https://dc.lft.to/lastmile_qr_scan", "ios": "https://dc.lft.to/lastmile_qr_scan"}, "lat": 38.880763, "bike_id": "970ffcd3a1bd1ed80d05c4dc47a34883", "is_disabled": 0, "lon": -77.03723016666666, "is_reserved": 0, "fusion_lat": 0.0, "type": "electric_scooter"}, {"fusion_lon": 0.0, "name": "0c87ccd58a1acdee12e768987a427d57", "rental_uris": {"android": "https://dc.lft.to/lastmile_qr_scan", "ios": "https://dc.lft.to/lastmile_qr_scan"}, "lat": 38.919898833333335, "bike_id": "0c87ccd58a1acdee12e768987a427d57", "is_disabled": 0, "lon": -77.038736, "is_reserved": 0, "fusion_lat": 0.0, "type": "electric_scooter"}, {"fusion_lon": 0.0, "name": "fdb5015c8f023bd6efb23c78fe3be419", "rental_uris": {"android": "https://dc.lft.to/lastmile_qr_scan", "ios": "https://dc.lft.to/lastmile_qr_scan"}, "lat": 38.92060566666667, "bike_id": "fdb5015c8f023bd6efb23c78fe3be419", "is_disabled": 0, "lon": -77.02435983333334, "is_reserved": 0, "fusion_lat": 0.0, "type": "electric_scooter"}, {"fusion_lon": 0.0, "name": "acc1ca48b4a4e6c8c8b8cc7448065a6a", "rental_uris": {"android": "https://dc.lft.to/lastmile_qr_scan", "ios": "https://dc.lft.to/lastmile_qr_scan"}, "lat": 38.94152583333333, "bike_id": "acc1ca48b4a4e6c8c8b8cc7448065a6a", "is_disabled": 0, "lon": -77.00195516666666, "is_reserved": 0, "fusion_lat": 0.0, "type": "electric_bike"}, {"fusion_lon": 0.0, "name": "75ab20130726250a972e5ccd981be352", "rental_uris": {"android": "https://dc.lft.to/lastmile_qr_scan", "ios": "https://dc.lft.to/lastmile_qr_scan"}, "lat": 38.926202333333336, "bike_id": "75ab20130726250a972e5ccd981be352", "is_disabled": 0, "lon": -77.00584466666666, "is_reserved": 0, "fusion_lat": 0.0, "type": "electric_bike"}, {"fusion_lon": 0.0, "name": "069c3720e3b3b4afa1cf95422e21725b", "rental_uris": {"android": "https://dc.lft.to/lastmile_qr_scan", "ios": "https://dc.lft.to/lastmile_qr_scan"}, "lat": 38.92379183333333, "bike_id": "069c3720e3b3b4afa1cf95422e21725b", "is_disabled": 0, "lon": -77.036445, "is_reserved": 0, "fusion_lat": 0.0, "type": "electric_scooter"}, {"fusion_lon": 0.0, "name": "32eaef99509ef1bffce02e64589cb1b9", "rental_uris": {"android": "https://dc.lft.to/lastmile_qr_scan", "ios": "https://dc.lft.to/lastmile_qr_scan"}, "lat": 38.90735383333333, "bike_id": "32eaef99509ef1bffce02e64589cb1b9", "is_disabled": 0, "lon": -77.03213983333333, "is_reserved": 0, "fusion_lat": 0.0, "type": "electric_scooter"}, {"fusion_lon": 0.0, "name": "2d54701bdeb2db9acedf30e204622ead", "rental_uris": {"android": "https://dc.lft.to/lastmile_qr_scan", "ios": "https://dc.lft.to/lastmile_qr_scan"}, "lat": 38.91555, "bike_id": "2d54701bdeb2db9acedf30e204622ead", "is_disabled": 0, "lon": -77.03667916666667, "is_reserved": 0, "fusion_lat": 0.0, "type": "electric_scooter"}, {"fusion_lon": 0.0, "name": "a8c7bac6575afcc095d836e70b575fff", "rental_uris": {"android": "https://dc.lft.to/lastmile_qr_scan", "ios": "https://dc.lft.to/lastmile_qr_scan"}, "lat": 38.90201533333333, "bike_id": "a8c7bac6575afcc095d836e70b575fff", "is_disabled": 0, "lon": -77.06120416666667, "is_reserved": 0, "fusion_lat": 0.0, "type": "electric_scooter"}, {"fusion_lon": 0.0, "name": "0ca8b3a7118210132b2b2f5d7d2beec6", "rental_uris": {"android": "https://dc.lft.to/lastmile_qr_scan", "ios": "https://dc.lft.to/lastmile_qr_scan"}, "lat": 38.893649333333336, "bike_id": "0ca8b3a7118210132b2b2f5d7d2beec6", "is_disabled": 0, "lon": -76.9845955, "is_reserved": 0, "fusion_lat": 0.0, "type": "electric_scooter"}, {"fusion_lon": 0.0, "name": "99be6f3a437225dcf1a5dc1969f925d3", "rental_uris": {"android": "https://dc.lft.to/lastmile_qr_scan", "ios": "https://dc.lft.to/lastmile_qr_scan"}, "lat": 38.92254716666667, "bike_id": "99be6f3a437225dcf1a5dc1969f925d3", "is_disabled": 0, "lon": -77.03070816666667, "is_reserved": 0, "fusion_lat": 0.0, "type": "electric_scooter"}, {"fusion_lon": 0.0, "name": "27c76cdde10b23a4dbd9a585fdcaacf2", "rental_uris": {"android": "https://dc.lft.to/lastmile_qr_scan", "ios": "https://dc.lft.to/lastmile_qr_scan"}, "lat": 38.91366333333333, "bike_id": "27c76cdde10b23a4dbd9a585fdcaacf2", "is_disabled": 0, "lon": -77.09188133333333, "is_reserved": 0, "fusion_lat": 0.0, "type": "electric_scooter"}, {"fusion_lon": 0.0, "name": "9ae4131ba68941b313f4e24bdecbba34", "rental_uris": {"android": "https://dc.lft.to/lastmile_qr_scan", "ios": "https://dc.lft.to/lastmile_qr_scan"}, "lat": 38.896118, "bike_id": "9ae4131ba68941b313f4e24bdecbba34", "is_disabled": 0, "lon": -77.02375416666666, "is_reserved": 0, "fusion_lat": 0.0, "type": "electric_scooter"}, {"fusion_lon": 0.0, "name": "6e18b70770e4afc3799b336f8e087dc3", "rental_uris": {"android": "https://dc.lft.to/lastmile_qr_scan", "ios": "https://dc.lft.to/lastmile_qr_scan"}, "lat": 38.9376745, "bike_id": "6e18b70770e4afc3799b336f8e087dc3", "is_disabled": 0, "lon": -77.02456416666666, "is_reserved": 0, "fusion_lat": 0.0, "type": "electric_scooter"}, {"fusion_lon": 0.0, "name": "55cb41140943fa958bf4187230ae859d", "rental_uris": {"android": "https://dc.lft.to/lastmile_qr_scan", "ios": "https://dc.lft.to/lastmile_qr_scan"}, "lat": 38.89979833333334, "bike_id": "55cb41140943fa958bf4187230ae859d", "is_disabled": 0, "lon": -77.04192766666667, "is_reserved": 0, "fusion_lat": 0.0, "type": "electric_scooter"}, {"fusion_lon": 0.0, "name": "28ab915eaaba380cb9af8bdb0b2e8e8e", "rental_uris": {"android": "https://dc.lft.to/lastmile_qr_scan", "ios": "https://dc.lft.to/lastmile_qr_scan"}, "lat": 38.90216783333334, "bike_id": "28ab915eaaba380cb9af8bdb0b2e8e8e", "is_disabled": 0, "lon": -77.023668, "is_reserved": 0, "fusion_lat": 0.0, "type": "electric_scooter"}, {"fusion_lon": 0.0, "name": "5d263b4695ba89692cc2fe1edff7d390", "rental_uris": {"android": "https://dc.lft.to/lastmile_qr_scan", "ios": "https://dc.lft.to/lastmile_qr_scan"}, "lat": 38.881368, "bike_id": "5d263b4695ba89692cc2fe1edff7d390", "is_disabled": 0, "lon": -77.02229433333333, "is_reserved": 0, "fusion_lat": 0.0, "type": "electric_scooter"}, {"fusion_lon": 0.0, "name": "a915fc5949b44b2aad973fb629f61bd2", "rental_uris": {"android": "https://dc.lft.to/lastmile_qr_scan", "ios": "https://dc.lft.to/lastmile_qr_scan"}, "lat": 38.89207966666667, "bike_id": "a915fc5949b44b2aad973fb629f61bd2", "is_disabled": 0, "lon": -76.995683, "is_reserved": 0, "fusion_lat": 0.0, "type": "electric_scooter"}, {"fusion_lon": 0.0, "name": "c4507a2091ce8c3c41d136429d419746", "rental_uris": {"android": "https://dc.lft.to/lastmile_qr_scan", "ios": "https://dc.lft.to/lastmile_qr_scan"}, "lat": 38.84636783333333, "bike_id": "c4507a2091ce8c3c41d136429d419746", "is_disabled": 0, "lon": -76.97072633333333, "is_reserved": 0, "fusion_lat": 0.0, "type": "electric_bike"}, {"fusion_lon": 0.0, "name": "91546ca3208f5b67fce2a8e778ac23ac", "rental_uris": {"android": "https://dc.lft.to/lastmile_qr_scan", "ios": "https://dc.lft.to/lastmile_qr_scan"}, "lat": 38.90848583333333, "bike_id": "91546ca3208f5b67fce2a8e778ac23ac", "is_disabled": 0, "lon": -77.03453316666666, "is_reserved": 0, "fusion_lat": 0.0, "type": "electric_scooter"}, {"fusion_lon": 0.0, "name": "35d80d35afa969b5364906e8d151fd26", "rental_uris": {"android": "https://dc.lft.to/lastmile_qr_scan", "ios": "https://dc.lft.to/lastmile_qr_scan"}, "lat": 38.879078666666665, "bike_id": "35d80d35afa969b5364906e8d151fd26", "is_disabled": 0, "lon": -77.00996383333333, "is_reserved": 0, "fusion_lat": 0.0, "type": "electric_scooter"}, {"fusion_lon": 0.0, "name": "8a4539357029c892e427dd9a738165b9", "rental_uris": {"android": "https://dc.lft.to/lastmile_qr_scan", "ios": "https://dc.lft.to/lastmile_qr_scan"}, "lat": 38.93060933333334, "bike_id": "8a4539357029c892e427dd9a738165b9", "is_disabled": 0, "lon": -77.027901, "is_reserved": 0, "fusion_lat": 0.0, "type": "electric_scooter"}, {"fusion_lon": 0.0, "name": "74153741633e83b9d29373cf00fb2555", "rental_uris": {"android": "https://dc.lft.to/lastmile_qr_scan", "ios": "https://dc.lft.to/lastmile_qr_scan"}, "lat": 38.93315583333333, "bike_id": "74153741633e83b9d29373cf00fb2555", "is_disabled": 0, "lon": -77.03620916666667, "is_reserved": 0, "fusion_lat": 0.0, "type": "electric_scooter"}, {"fusion_lon": 0.0, "name": "3d1d0703980f869c769863a6b3880fd9", "rental_uris": {"android": "https://dc.lft.to/lastmile_qr_scan", "ios": "https://dc.lft.to/lastmile_qr_scan"}, "lat": 38.914058, "bike_id": "3d1d0703980f869c769863a6b3880fd9", "is_disabled": 0, "lon": -77.022096, "is_reserved": 0, "fusion_lat": 0.0, "type": "electric_scooter"}, {"fusion_lon": 0.0, "name": "4d00029409d865b83199c2b1666326c3", "rental_uris": {"android": "https://dc.lft.to/lastmile_qr_scan", "ios": "https://dc.lft.to/lastmile_qr_scan"}, "lat": 38.862282, "bike_id": "4d00029409d865b83199c2b1666326c3", "is_disabled": 0, "lon": -76.97911416666666, "is_reserved": 0, "fusion_lat": 0.0, "type": "electric_scooter"}, {"fusion_lon": 0.0, "name": "734a12565fca973e4fdc6353bca2a25a", "rental_uris": {"android": "https://dc.lft.to/lastmile_qr_scan", "ios": "https://dc.lft.to/lastmile_qr_scan"}, "lat": 38.960320833333334, "bike_id": "734a12565fca973e4fdc6353bca2a25a", "is_disabled": 0, "lon": -77.02428466666667, "is_reserved": 0, "fusion_lat": 0.0, "type": "electric_scooter"}, {"fusion_lon": 0.0, "name": "748d3ad3bd2bc66c1802bd261b8c1a8c", "rental_uris": {"android": "https://dc.lft.to/lastmile_qr_scan", "ios": "https://dc.lft.to/lastmile_qr_scan"}, "lat": 38.926150166666666, "bike_id": "748d3ad3bd2bc66c1802bd261b8c1a8c", "is_disabled": 0, "lon": -77.057043, "is_reserved": 0, "fusion_lat": 0.0, "type": "electric_scooter"}, {"fusion_lon": 0.0, "name": "9106718e52cc18a072028a53c25c88c5", "rental_uris": {"android": "https://dc.lft.to/lastmile_qr_scan", "ios": "https://dc.lft.to/lastmile_qr_scan"}, "lat": 38.91464116666667, "bike_id": "9106718e52cc18a072028a53c25c88c5", "is_disabled": 0, "lon": -77.038375, "is_reserved": 0, "fusion_lat": 0.0, "type": "electric_scooter"}, {"fusion_lon": 0.0, "name": "e1cbf1419f0d6ac0a4b31e45083b35f4", "rental_uris": {"android": "https://dc.lft.to/lastmile_qr_scan", "ios": "https://dc.lft.to/lastmile_qr_scan"}, "lat": 38.876842333333336, "bike_id": "e1cbf1419f0d6ac0a4b31e45083b35f4", "is_disabled": 0, "lon": -77.00722983333333, "is_reserved": 0, "fusion_lat": 0.0, "type": "electric_scooter"}, {"fusion_lon": 0.0, "name": "dfce588cc46a37129d923787aac79ff1", "rental_uris": {"android": "https://dc.lft.to/lastmile_qr_scan", "ios": "https://dc.lft.to/lastmile_qr_scan"}, "lat": 38.885208, "bike_id": "dfce588cc46a37129d923787aac79ff1", "is_disabled": 0, "lon": -76.97708933333334, "is_reserved": 0, "fusion_lat": 0.0, "type": "electric_scooter"}, {"fusion_lon": 0.0, "name": "4458ffb28ff1aeeae7830c66bdf9efe6", "rental_uris": {"android": "https://dc.lft.to/lastmile_qr_scan", "ios": "https://dc.lft.to/lastmile_qr_scan"}, "lat": 38.91565966666667, "bike_id": "4458ffb28ff1aeeae7830c66bdf9efe6", "is_disabled": 0, "lon": -77.0302985, "is_reserved": 0, "fusion_lat": 0.0, "type": "electric_scooter"}, {"fusion_lon": 0.0, "name": "28604392bbee439816c3c42e7a5d116f", "rental_uris": {"android": "https://dc.lft.to/lastmile_qr_scan", "ios": "https://dc.lft.to/lastmile_qr_scan"}, "lat": 38.9053305, "bike_id": "28604392bbee439816c3c42e7a5d116f", "is_disabled": 0, "lon": -77.06173833333334, "is_reserved": 0, "fusion_lat": 0.0, "type": "electric_scooter"}, {"fusion_lon": 0.0, "name": "7fac52656d64aa85e5d6049f20c42073", "rental_uris": {"android": "https://dc.lft.to/lastmile_qr_scan", "ios": "https://dc.lft.to/lastmile_qr_scan"}, "lat": 38.871740333333335, "bike_id": "7fac52656d64aa85e5d6049f20c42073", "is_disabled": 0, "lon": -77.00620883333333, "is_reserved": 0, "fusion_lat": 0.0, "type": "electric_scooter"}, {"fusion_lon": 0.0, "name": "fb183f12ac55e6711884811dbb3369ba", "rental_uris": {"android": "https://dc.lft.to/lastmile_qr_scan", "ios": "https://dc.lft.to/lastmile_qr_scan"}, "lat": 38.903877333333334, "bike_id": "fb183f12ac55e6711884811dbb3369ba", "is_disabled": 0, "lon": -77.01745233333334, "is_reserved": 0, "fusion_lat": 0.0, "type": "electric_scooter"}, {"fusion_lon": 0.0, "name": "f1cbe9c6c77995c452b9ff42ec94ba1a", "rental_uris": {"android": "https://dc.lft.to/lastmile_qr_scan", "ios": "https://dc.lft.to/lastmile_qr_scan"}, "lat": 38.90763066666667, "bike_id": "f1cbe9c6c77995c452b9ff42ec94ba1a", "is_disabled": 0, "lon": -77.01779633333334, "is_reserved": 0, "fusion_lat": 0.0, "type": "electric_scooter"}, {"fusion_lon": 0.0, "name": "4ac1792cbcfb88ab9428ff8c3fcd3a14", "rental_uris": {"android": "https://dc.lft.to/lastmile_qr_scan", "ios": "https://dc.lft.to/lastmile_qr_scan"}, "lat": 38.91340916666667, "bike_id": "4ac1792cbcfb88ab9428ff8c3fcd3a14", "is_disabled": 0, "lon": -76.98899283333333, "is_reserved": 0, "fusion_lat": 0.0, "type": "electric_scooter"}, {"fusion_lon": 0.0, "name": "fe29fd25f037452e7a9d927441252636", "rental_uris": {"android": "https://dc.lft.to/lastmile_qr_scan", "ios": "https://dc.lft.to/lastmile_qr_scan"}, "lat": 38.90160316666667, "bike_id": "fe29fd25f037452e7a9d927441252636", "is_disabled": 0, "lon": -76.921356, "is_reserved": 0, "fusion_lat": 0.0, "type": "electric_scooter"}, {"fusion_lon": 0.0, "name": "9b4a4af22e3ace8c8b4e41542c588aa5", "rental_uris": {"android": "https://dc.lft.to/lastmile_qr_scan", "ios": "https://dc.lft.to/lastmile_qr_scan"}, "lat": 38.8754785, "bike_id": "9b4a4af22e3ace8c8b4e41542c588aa5", "is_disabled": 0, "lon": -77.00578983333334, "is_reserved": 0, "fusion_lat": 0.0, "type": "electric_scooter"}, {"fusion_lon": 0.0, "name": "726efdd1484db88a64ea6e8c0b1de215", "rental_uris": {"android": "https://dc.lft.to/lastmile_qr_scan", "ios": "https://dc.lft.to/lastmile_qr_scan"}, "lat": 38.85216116666667, "bike_id": "726efdd1484db88a64ea6e8c0b1de215", "is_disabled": 0, "lon": -76.994301, "is_reserved": 0, "fusion_lat": 0.0, "type": "electric_scooter"}, {"fusion_lon": 0.0, "name": "f14f59987ef8a6a428c30536e9d84d6e", "rental_uris": {"android": "https://dc.lft.to/lastmile_qr_scan", "ios": "https://dc.lft.to/lastmile_qr_scan"}, "lat": 38.936188666666666, "bike_id": "f14f59987ef8a6a428c30536e9d84d6e", "is_disabled": 0, "lon": -77.03213633333333, "is_reserved": 0, "fusion_lat": 0.0, "type": "electric_scooter"}, {"fusion_lon": 0.0, "name": "5cf2a0a8cdf184b6bf1b514574745b02", "rental_uris": {"android": "https://dc.lft.to/lastmile_qr_scan", "ios": "https://dc.lft.to/lastmile_qr_scan"}, "lat": 38.92842816666667, "bike_id": "5cf2a0a8cdf184b6bf1b514574745b02", "is_disabled": 0, "lon": -77.05428, "is_reserved": 0, "fusion_lat": 0.0, "type": "electric_scooter"}, {"fusion_lon": 0.0, "name": "8da7e7e65b225e4ee86db3d1ae651b21", "rental_uris": {"android": "https://dc.lft.to/lastmile_qr_scan", "ios": "https://dc.lft.to/lastmile_qr_scan"}, "lat": 38.924379333333334, "bike_id": "8da7e7e65b225e4ee86db3d1ae651b21", "is_disabled": 0, "lon": -77.02034316666666, "is_reserved": 0, "fusion_lat": 0.0, "type": "electric_scooter"}, {"fusion_lon": 0.0, "name": "beeade6d1e3cb76394fff66fec4824ec", "rental_uris": {"android": "https://dc.lft.to/lastmile_qr_scan", "ios": "https://dc.lft.to/lastmile_qr_scan"}, "lat": 38.95110733333333, "bike_id": "beeade6d1e3cb76394fff66fec4824ec", "is_disabled": 0, "lon": -77.088711, "is_reserved": 0, "fusion_lat": 0.0, "type": "electric_bike"}, {"fusion_lon": 0.0, "name": "f162b6ee84abae6600515237f7a9cc22", "rental_uris": {"android": "https://dc.lft.to/lastmile_qr_scan", "ios": "https://dc.lft.to/lastmile_qr_scan"}, "lat": 38.9340465, "bike_id": "f162b6ee84abae6600515237f7a9cc22", "is_disabled": 0, "lon": -77.03827733333334, "is_reserved": 0, "fusion_lat": 0.0, "type": "electric_scooter"}, {"fusion_lon": 0.0, "name": "c96099c390b0c55b77910d2e841b7d85", "rental_uris": {"android": "https://dc.lft.to/lastmile_qr_scan", "ios": "https://dc.lft.to/lastmile_qr_scan"}, "lat": 38.92410316666667, "bike_id": "c96099c390b0c55b77910d2e841b7d85", "is_disabled": 0, "lon": -77.02088733333333, "is_reserved": 0, "fusion_lat": 0.0, "type": "electric_scooter"}, {"fusion_lon": 0.0, "name": "15806799c25acb6a4846c2a50367edeb", "rental_uris": {"android": "https://dc.lft.to/lastmile_qr_scan", "ios": "https://dc.lft.to/lastmile_qr_scan"}, "lat": 38.9038765, "bike_id": "15806799c25acb6a4846c2a50367edeb", "is_disabled": 0, "lon": -77.03273733333333, "is_reserved": 0, "fusion_lat": 0.0, "type": "electric_scooter"}, {"fusion_lon": 0.0, "name": "7408f28a7800d55c8d1e71a338b9ceeb", "rental_uris": {"android": "https://dc.lft.to/lastmile_qr_scan", "ios": "https://dc.lft.to/lastmile_qr_scan"}, "lat": 38.905075833333335, "bike_id": "7408f28a7800d55c8d1e71a338b9ceeb", "is_disabled": 0, "lon": -76.984759, "is_reserved": 0, "fusion_lat": 0.0, "type": "electric_scooter"}, {"fusion_lon": 0.0, "name": "8576e1d583318e257559b35183a34e64", "rental_uris": {"android": "https://dc.lft.to/lastmile_qr_scan", "ios": "https://dc.lft.to/lastmile_qr_scan"}, "lat": 38.90565766666667, "bike_id": "8576e1d583318e257559b35183a34e64", "is_disabled": 0, "lon": -77.0459175, "is_reserved": 0, "fusion_lat": 0.0, "type": "electric_scooter"}, {"fusion_lon": 0.0, "name": "f164e823390c59694f49c818da8ba6af", "rental_uris": {"android": "https://dc.lft.to/lastmile_qr_scan", "ios": "https://dc.lft.to/lastmile_qr_scan"}, "lat": 38.87934683333334, "bike_id": "f164e823390c59694f49c818da8ba6af", "is_disabled": 0, "lon": -77.01716016666667, "is_reserved": 0, "fusion_lat": 0.0, "type": "electric_scooter"}, {"fusion_lon": 0.0, "name": "9e95983887bdb76320439ff8100fc245", "rental_uris": {"android": "https://dc.lft.to/lastmile_qr_scan", "ios": "https://dc.lft.to/lastmile_qr_scan"}, "lat": 38.94979816666667, "bike_id": "9e95983887bdb76320439ff8100fc245", "is_disabled": 0, "lon": -77.02020883333333, "is_reserved": 0, "fusion_lat": 0.0, "type": "electric_scooter"}, {"fusion_lon": 0.0, "name": "5d5ae0a2dd377abeb70947f17e453a70", "rental_uris": {"android": "https://dc.lft.to/lastmile_qr_scan", "ios": "https://dc.lft.to/lastmile_qr_scan"}, "lat": 38.89489966666667, "bike_id": "5d5ae0a2dd377abeb70947f17e453a70", "is_disabled": 0, "lon": -76.948895, "is_reserved": 0, "fusion_lat": 0.0, "type": "electric_scooter"}, {"fusion_lon": 0.0, "name": "d68ec6b97be58c8633db004badf87150", "rental_uris": {"android": "https://dc.lft.to/lastmile_qr_scan", "ios": "https://dc.lft.to/lastmile_qr_scan"}, "lat": 38.950854666666665, "bike_id": "d68ec6b97be58c8633db004badf87150", "is_disabled": 0, "lon": -76.99794516666667, "is_reserved": 0, "fusion_lat": 0.0, "type": "electric_bike"}, {"fusion_lon": 0.0, "name": "d451440325a797de50c25e3eb588b6a3", "rental_uris": {"android": "https://dc.lft.to/lastmile_qr_scan", "ios": "https://dc.lft.to/lastmile_qr_scan"}, "lat": 38.89854033333334, "bike_id": "d451440325a797de50c25e3eb588b6a3", "is_disabled": 0, "lon": -77.0540565, "is_reserved": 0, "fusion_lat": 0.0, "type": "electric_scooter"}, {"fusion_lon": 0.0, "name": "b2467b4a4b4c6e1ac28e116e274593f5", "rental_uris": {"android": "https://dc.lft.to/lastmile_qr_scan", "ios": "https://dc.lft.to/lastmile_qr_scan"}, "lat": 38.905568833333334, "bike_id": "b2467b4a4b4c6e1ac28e116e274593f5", "is_disabled": 0, "lon": -77.02793866666667, "is_reserved": 0, "fusion_lat": 0.0, "type": "electric_scooter"}, {"fusion_lon": 0.0, "name": "b9ee48c0501a9d342950a7a81cec5269", "rental_uris": {"android": "https://dc.lft.to/lastmile_qr_scan", "ios": "https://dc.lft.to/lastmile_qr_scan"}, "lat": 38.93458783333333, "bike_id": "b9ee48c0501a9d342950a7a81cec5269", "is_disabled": 0, "lon": -77.05806116666666, "is_reserved": 0, "fusion_lat": 0.0, "type": "electric_scooter"}, {"fusion_lon": 0.0, "name": "47904dcc84a40e0fcf4546eec91deef3", "rental_uris": {"android": "https://dc.lft.to/lastmile_qr_scan", "ios": "https://dc.lft.to/lastmile_qr_scan"}, "lat": 38.876796166666665, "bike_id": "47904dcc84a40e0fcf4546eec91deef3", "is_disabled": 0, "lon": -77.0005635, "is_reserved": 0, "fusion_lat": 0.0, "type": "electric_scooter"}, {"fusion_lon": 0.0, "name": "f31625cbdc1938a9a162dfa78c96d907", "rental_uris": {"android": "https://dc.lft.to/lastmile_qr_scan", "ios": "https://dc.lft.to/lastmile_qr_scan"}, "lat": 38.920745833333335, "bike_id": "f31625cbdc1938a9a162dfa78c96d907", "is_disabled": 0, "lon": -77.02411566666666, "is_reserved": 0, "fusion_lat": 0.0, "type": "electric_scooter"}, {"fusion_lon": 0.0, "name": "d99cfa456b7c8bab2ab5cf4822d806e1", "rental_uris": {"android": "https://dc.lft.to/lastmile_qr_scan", "ios": "https://dc.lft.to/lastmile_qr_scan"}, "lat": 38.93109366666667, "bike_id": "d99cfa456b7c8bab2ab5cf4822d806e1", "is_disabled": 0, "lon": -77.03502533333334, "is_reserved": 0, "fusion_lat": 0.0, "type": "electric_scooter"}, {"fusion_lon": 0.0, "name": "08bbee3ae7ddd84aaba60fbca38efeab", "rental_uris": {"android": "https://dc.lft.to/lastmile_qr_scan", "ios": "https://dc.lft.to/lastmile_qr_scan"}, "lat": 38.8005335, "bike_id": "08bbee3ae7ddd84aaba60fbca38efeab", "is_disabled": 0, "lon": -77.128378, "is_reserved": 0, "fusion_lat": 0.0, "type": "electric_bike"}, {"fusion_lon": 0.0, "name": "a52a20ff04d25ffebead79679060d3d6", "rental_uris": {"android": "https://dc.lft.to/lastmile_qr_scan", "ios": "https://dc.lft.to/lastmile_qr_scan"}, "lat": 38.91008033333333, "bike_id": "a52a20ff04d25ffebead79679060d3d6", "is_disabled": 0, "lon": -77.04007516666667, "is_reserved": 0, "fusion_lat": 0.0, "type": "electric_scooter"}, {"fusion_lon": 0.0, "name": "3b7a2cc5ed4d661564521a303256fb53", "rental_uris": {"android": "https://dc.lft.to/lastmile_qr_scan", "ios": "https://dc.lft.to/lastmile_qr_scan"}, "lat": 38.905813, "bike_id": "3b7a2cc5ed4d661564521a303256fb53", "is_disabled": 0, "lon": -77.0689685, "is_reserved": 0, "fusion_lat": 0.0, "type": "electric_scooter"}, {"fusion_lon": 0.0, "name": "3c94350e8c249fb1e58ac28d1ae1c5a4", "rental_uris": {"android": "https://dc.lft.to/lastmile_qr_scan", "ios": "https://dc.lft.to/lastmile_qr_scan"}, "lat": 38.91264916666667, "bike_id": "3c94350e8c249fb1e58ac28d1ae1c5a4", "is_disabled": 0, "lon": -77.04553083333333, "is_reserved": 0, "fusion_lat": 0.0, "type": "electric_scooter"}, {"fusion_lon": 0.0, "name": "e1290c3ec55d0822e4eab4888b8ad4ee", "rental_uris": {"android": "https://dc.lft.to/lastmile_qr_scan", "ios": "https://dc.lft.to/lastmile_qr_scan"}, "lat": 38.900384333333335, "bike_id": "e1290c3ec55d0822e4eab4888b8ad4ee", "is_disabled": 0, "lon": -77.00198616666667, "is_reserved": 0, "fusion_lat": 0.0, "type": "electric_scooter"}, {"fusion_lon": 0.0, "name": "4735639a60d3db0a3625f51ae2931a43", "rental_uris": {"android": "https://dc.lft.to/lastmile_qr_scan", "ios": "https://dc.lft.to/lastmile_qr_scan"}, "lat": 38.8941885, "bike_id": "4735639a60d3db0a3625f51ae2931a43", "is_disabled": 0, "lon": -76.9976605, "is_reserved": 0, "fusion_lat": 0.0, "type": "electric_scooter"}, {"fusion_lon": 0.0, "name": "7366be4ba2f63684cfa35f3a26a73249", "rental_uris": {"android": "https://dc.lft.to/lastmile_qr_scan", "ios": "https://dc.lft.to/lastmile_qr_scan"}, "lat": 38.892214, "bike_id": "7366be4ba2f63684cfa35f3a26a73249", "is_disabled": 0, "lon": -77.04361966666667, "is_reserved": 0, "fusion_lat": 0.0, "type": "electric_scooter"}, {"fusion_lon": 0.0, "name": "ebb47ea2e6fc2d0cdda98c85ae75571a", "rental_uris": {"android": "https://dc.lft.to/lastmile_qr_scan", "ios": "https://dc.lft.to/lastmile_qr_scan"}, "lat": 38.906363, "bike_id": "ebb47ea2e6fc2d0cdda98c85ae75571a", "is_disabled": 0, "lon": -77.05137383333333, "is_reserved": 0, "fusion_lat": 0.0, "type": "electric_scooter"}, {"fusion_lon": 0.0, "name": "e79ecbd1422a6fe75f92d19eb20d3039", "rental_uris": {"android": "https://dc.lft.to/lastmile_qr_scan", "ios": "https://dc.lft.to/lastmile_qr_scan"}, "lat": 38.89326916666667, "bike_id": "e79ecbd1422a6fe75f92d19eb20d3039", "is_disabled": 0, "lon": -77.04673783333334, "is_reserved": 0, "fusion_lat": 0.0, "type": "electric_scooter"}, {"fusion_lon": 0.0, "name": "da83219cf81b872611656c1affc9a425", "rental_uris": {"android": "https://dc.lft.to/lastmile_qr_scan", "ios": "https://dc.lft.to/lastmile_qr_scan"}, "lat": 38.915674333333335, "bike_id": "da83219cf81b872611656c1affc9a425", "is_disabled": 0, "lon": -77.04640533333334, "is_reserved": 0, "fusion_lat": 0.0, "type": "electric_scooter"}, {"fusion_lon": 0.0, "name": "3b1f32cb0868d8e636f150555a19f59a", "rental_uris": {"android": "https://dc.lft.to/lastmile_qr_scan", "ios": "https://dc.lft.to/lastmile_qr_scan"}, "lat": 38.92481166666666, "bike_id": "3b1f32cb0868d8e636f150555a19f59a", "is_disabled": 0, "lon": -77.03102233333334, "is_reserved": 0, "fusion_lat": 0.0, "type": "electric_scooter"}, {"fusion_lon": 0.0, "name": "a1b7ea7c943393e3d340fc0bbe834b8c", "rental_uris": {"android": "https://dc.lft.to/lastmile_qr_scan", "ios": "https://dc.lft.to/lastmile_qr_scan"}, "lat": 38.883328166666665, "bike_id": "a1b7ea7c943393e3d340fc0bbe834b8c", "is_disabled": 0, "lon": -77.00963216666666, "is_reserved": 0, "fusion_lat": 0.0, "type": "electric_scooter"}, {"fusion_lon": 0.0, "name": "e18df68a166d2279ad4f0464c16910cc", "rental_uris": {"android": "https://dc.lft.to/lastmile_qr_scan", "ios": "https://dc.lft.to/lastmile_qr_scan"}, "lat": 38.90059683333333, "bike_id": "e18df68a166d2279ad4f0464c16910cc", "is_disabled": 0, "lon": -76.98487633333333, "is_reserved": 0, "fusion_lat": 0.0, "type": "electric_scooter"}, {"fusion_lon": 0.0, "name": "a0e437b81b653166897c9baaa1d742ce", "rental_uris": {"android": "https://dc.lft.to/lastmile_qr_scan", "ios": "https://dc.lft.to/lastmile_qr_scan"}, "lat": 38.912499, "bike_id": "a0e437b81b653166897c9baaa1d742ce", "is_disabled": 0, "lon": -77.032067, "is_reserved": 0, "fusion_lat": 0.0, "type": "electric_scooter"}, {"fusion_lon": 0.0, "name": "9e0550ac4e5ef9431e2b71493ae9a9ca", "rental_uris": {"android": "https://dc.lft.to/lastmile_qr_scan", "ios": "https://dc.lft.to/lastmile_qr_scan"}, "lat": 38.92790816666667, "bike_id": "9e0550ac4e5ef9431e2b71493ae9a9ca", "is_disabled": 0, "lon": -77.03150183333334, "is_reserved": 0, "fusion_lat": 0.0, "type": "electric_scooter"}, {"fusion_lon": 0.0, "name": "7e09d01337206c8564b696191daddafd", "rental_uris": {"android": "https://dc.lft.to/lastmile_qr_scan", "ios": "https://dc.lft.to/lastmile_qr_scan"}, "lat": 38.908977666666665, "bike_id": "7e09d01337206c8564b696191daddafd", "is_disabled": 0, "lon": -76.98387233333334, "is_reserved": 0, "fusion_lat": 0.0, "type": "electric_scooter"}, {"fusion_lon": 0.0, "name": "cdb526a1d3262ae27b739cd49d126d17", "rental_uris": {"android": "https://dc.lft.to/lastmile_qr_scan", "ios": "https://dc.lft.to/lastmile_qr_scan"}, "lat": 38.91808066666667, "bike_id": "cdb526a1d3262ae27b739cd49d126d17", "is_disabled": 0, "lon": -77.03101233333334, "is_reserved": 0, "fusion_lat": 0.0, "type": "electric_scooter"}, {"fusion_lon": 0.0, "name": "2ecf750cbd84f2d3030f266497550ae0", "rental_uris": {"android": "https://dc.lft.to/lastmile_qr_scan", "ios": "https://dc.lft.to/lastmile_qr_scan"}, "lat": 38.92384466666667, "bike_id": "2ecf750cbd84f2d3030f266497550ae0", "is_disabled": 0, "lon": -77.0431335, "is_reserved": 0, "fusion_lat": 0.0, "type": "electric_scooter"}, {"fusion_lon": 0.0, "name": "63f7af13c36ef5baeb48b5c52cbfbf35", "rental_uris": {"android": "https://dc.lft.to/lastmile_qr_scan", "ios": "https://dc.lft.to/lastmile_qr_scan"}, "lat": 38.923315333333335, "bike_id": "63f7af13c36ef5baeb48b5c52cbfbf35", "is_disabled": 0, "lon": -77.0568505, "is_reserved": 0, "fusion_lat": 0.0, "type": "electric_scooter"}, {"fusion_lon": 0.0, "name": "8288d06b801f852305087502fa1d0a3e", "rental_uris": {"android": "https://dc.lft.to/lastmile_qr_scan", "ios": "https://dc.lft.to/lastmile_qr_scan"}, "lat": 38.897400833333336, "bike_id": "8288d06b801f852305087502fa1d0a3e", "is_disabled": 0, "lon": -77.01385033333334, "is_reserved": 0, "fusion_lat": 0.0, "type": "electric_scooter"}, {"fusion_lon": 0.0, "name": "cfb8f6bb31a0b8c852057846ef3ce7b1", "rental_uris": {"android": "https://dc.lft.to/lastmile_qr_scan", "ios": "https://dc.lft.to/lastmile_qr_scan"}, "lat": 38.89751783333333, "bike_id": "cfb8f6bb31a0b8c852057846ef3ce7b1", "is_disabled": 0, "lon": -77.0266575, "is_reserved": 0, "fusion_lat": 0.0, "type": "electric_scooter"}, {"fusion_lon": 0.0, "name": "2466a18723e7e3c94fc5b9bcd7bca08b", "rental_uris": {"android": "https://dc.lft.to/lastmile_qr_scan", "ios": "https://dc.lft.to/lastmile_qr_scan"}, "lat": 38.783994166666666, "bike_id": "2466a18723e7e3c94fc5b9bcd7bca08b", "is_disabled": 0, "lon": -77.12054733333333, "is_reserved": 0, "fusion_lat": 0.0, "type": "electric_bike"}, {"fusion_lon": 0.0, "name": "a1b5a1d05c06e13ce372934a6a4b38b9", "rental_uris": {"android": "https://dc.lft.to/lastmile_qr_scan", "ios": "https://dc.lft.to/lastmile_qr_scan"}, "lat": 38.88619416666667, "bike_id": "a1b5a1d05c06e13ce372934a6a4b38b9", "is_disabled": 0, "lon": -77.031687, "is_reserved": 0, "fusion_lat": 0.0, "type": "electric_scooter"}, {"fusion_lon": 0.0, "name": "1fd3d876d2b0da41ba8b6d564797cfdc", "rental_uris": {"android": "https://dc.lft.to/lastmile_qr_scan", "ios": "https://dc.lft.to/lastmile_qr_scan"}, "lat": 38.901722, "bike_id": "1fd3d876d2b0da41ba8b6d564797cfdc", "is_disabled": 0, "lon": -77.001017, "is_reserved": 0, "fusion_lat": 0.0, "type": "electric_scooter"}, {"fusion_lon": 0.0, "name": "729d7e50b38fe6f80a7e425a1e03d07d", "rental_uris": {"android": "https://dc.lft.to/lastmile_qr_scan", "ios": "https://dc.lft.to/lastmile_qr_scan"}, "lat": 38.950193666666664, "bike_id": "729d7e50b38fe6f80a7e425a1e03d07d", "is_disabled": 0, "lon": -77.0667635, "is_reserved": 0, "fusion_lat": 0.0, "type": "electric_scooter"}, {"fusion_lon": 0.0, "name": "f2ac82b1c3fd3e46f045bd59ef3f9ff4", "rental_uris": {"android": "https://dc.lft.to/lastmile_qr_scan", "ios": "https://dc.lft.to/lastmile_qr_scan"}, "lat": 38.916842, "bike_id": "f2ac82b1c3fd3e46f045bd59ef3f9ff4", "is_disabled": 0, "lon": -77.01578133333334, "is_reserved": 0, "fusion_lat": 0.0, "type": "electric_scooter"}, {"fusion_lon": 0.0, "name": "5d04196a47221cf1d3a3586662619936", "rental_uris": {"android": "https://dc.lft.to/lastmile_qr_scan", "ios": "https://dc.lft.to/lastmile_qr_scan"}, "lat": 38.90164883333333, "bike_id": "5d04196a47221cf1d3a3586662619936", "is_disabled": 0, "lon": -76.98066966666667, "is_reserved": 0, "fusion_lat": 0.0, "type": "electric_scooter"}, {"fusion_lon": 0.0, "name": "ef9645c5f786cced717afd140921f2ab", "rental_uris": {"android": "https://dc.lft.to/lastmile_qr_scan", "ios": "https://dc.lft.to/lastmile_qr_scan"}, "lat": 38.964703, "bike_id": "ef9645c5f786cced717afd140921f2ab", "is_disabled": 0, "lon": -77.03564733333333, "is_reserved": 0, "fusion_lat": 0.0, "type": "electric_bike"}, {"fusion_lon": 0.0, "name": "90b97c78d625f905482358708a6cf4d4", "rental_uris": {"android": "https://dc.lft.to/lastmile_qr_scan", "ios": "https://dc.lft.to/lastmile_qr_scan"}, "lat": 38.90680583333334, "bike_id": "90b97c78d625f905482358708a6cf4d4", "is_disabled": 0, "lon": -77.02691316666667, "is_reserved": 0, "fusion_lat": 0.0, "type": "electric_scooter"}, {"fusion_lon": 0.0, "name": "1ef3a56e48404cabf35c2b8b6512a15e", "rental_uris": {"android": "https://dc.lft.to/lastmile_qr_scan", "ios": "https://dc.lft.to/lastmile_qr_scan"}, "lat": 38.925413166666665, "bike_id": "1ef3a56e48404cabf35c2b8b6512a15e", "is_disabled": 0, "lon": -77.07892783333334, "is_reserved": 0, "fusion_lat": 0.0, "type": "electric_bike"}, {"fusion_lon": 0.0, "name": "3bfb4970a71bb500f53d7fbd3f74f8c0", "rental_uris": {"android": "https://dc.lft.to/lastmile_qr_scan", "ios": "https://dc.lft.to/lastmile_qr_scan"}, "lat": 38.90700566666667, "bike_id": "3bfb4970a71bb500f53d7fbd3f74f8c0", "is_disabled": 0, "lon": -77.00976166666666, "is_reserved": 0, "fusion_lat": 0.0, "type": "electric_scooter"}, {"fusion_lon": 0.0, "name": "0c2a2d0d7ef2f6bb2e048789fcecd4c6", "rental_uris": {"android": "https://dc.lft.to/lastmile_qr_scan", "ios": "https://dc.lft.to/lastmile_qr_scan"}, "lat": 38.9146505, "bike_id": "0c2a2d0d7ef2f6bb2e048789fcecd4c6", "is_disabled": 0, "lon": -77.02136833333333, "is_reserved": 0, "fusion_lat": 0.0, "type": "electric_scooter"}, {"fusion_lon": 0.0, "name": "b79fa5ec578c56f8ddfacb6596df559c", "rental_uris": {"android": "https://dc.lft.to/lastmile_qr_scan", "ios": "https://dc.lft.to/lastmile_qr_scan"}, "lat": 38.90553716666667, "bike_id": "b79fa5ec578c56f8ddfacb6596df559c", "is_disabled": 0, "lon": -77.04330566666667, "is_reserved": 0, "fusion_lat": 0.0, "type": "electric_scooter"}, {"fusion_lon": 0.0, "name": "83d94b2e0f585340b8472ab26ce8c587", "rental_uris": {"android": "https://dc.lft.to/lastmile_qr_scan", "ios": "https://dc.lft.to/lastmile_qr_scan"}, "lat": 39.029257, "bike_id": "83d94b2e0f585340b8472ab26ce8c587", "is_disabled": 0, "lon": -77.013597, "is_reserved": 0, "fusion_lat": 0.0, "type": "electric_bike"}, {"fusion_lon": 0.0, "name": "1a15e95758d6943b496c251c6a06e527", "rental_uris": {"android": "https://dc.lft.to/lastmile_qr_scan", "ios": "https://dc.lft.to/lastmile_qr_scan"}, "lat": 38.91060366666667, "bike_id": "1a15e95758d6943b496c251c6a06e527", "is_disabled": 0, "lon": -77.021854, "is_reserved": 0, "fusion_lat": 0.0, "type": "electric_scooter"}, {"fusion_lon": 0.0, "name": "998e0f4fdc695691b59f582288954710", "rental_uris": {"android": "https://dc.lft.to/lastmile_qr_scan", "ios": "https://dc.lft.to/lastmile_qr_scan"}, "lat": 38.892454666666666, "bike_id": "998e0f4fdc695691b59f582288954710", "is_disabled": 0, "lon": -77.012561, "is_reserved": 0, "fusion_lat": 0.0, "type": "electric_scooter"}, {"fusion_lon": 0.0, "name": "0dcc551a470e1b8b98b10b759b0e81c1", "rental_uris": {"android": "https://dc.lft.to/lastmile_qr_scan", "ios": "https://dc.lft.to/lastmile_qr_scan"}, "lat": 38.91346883333333, "bike_id": "0dcc551a470e1b8b98b10b759b0e81c1", "is_disabled": 0, "lon": -77.01221483333333, "is_reserved": 0, "fusion_lat": 0.0, "type": "electric_scooter"}, {"fusion_lon": 0.0, "name": "5589be1d3851cbfc97b49159ddc062b1", "rental_uris": {"android": "https://dc.lft.to/lastmile_qr_scan", "ios": "https://dc.lft.to/lastmile_qr_scan"}, "lat": 38.900210666666666, "bike_id": "5589be1d3851cbfc97b49159ddc062b1", "is_disabled": 0, "lon": -76.98868266666666, "is_reserved": 0, "fusion_lat": 0.0, "type": "electric_scooter"}, {"fusion_lon": 0.0, "name": "6a5372a1fe87473e65b0f92f1031ae4d", "rental_uris": {"android": "https://dc.lft.to/lastmile_qr_scan", "ios": "https://dc.lft.to/lastmile_qr_scan"}, "lat": 38.93201083333334, "bike_id": "6a5372a1fe87473e65b0f92f1031ae4d", "is_disabled": 0, "lon": -77.03751966666667, "is_reserved": 0, "fusion_lat": 0.0, "type": "electric_scooter"}, {"fusion_lon": 0.0, "name": "080898818b381c93335119aa20a8e73d", "rental_uris": {"android": "https://dc.lft.to/lastmile_qr_scan", "ios": "https://dc.lft.to/lastmile_qr_scan"}, "lat": 38.90921983333333, "bike_id": "080898818b381c93335119aa20a8e73d", "is_disabled": 0, "lon": -76.989855, "is_reserved": 0, "fusion_lat": 0.0, "type": "electric_scooter"}, {"fusion_lon": 0.0, "name": "b551d80b695d8bb2dc08c545b8920bf4", "rental_uris": {"android": "https://dc.lft.to/lastmile_qr_scan", "ios": "https://dc.lft.to/lastmile_qr_scan"}, "lat": 38.90542683333334, "bike_id": "b551d80b695d8bb2dc08c545b8920bf4", "is_disabled": 0, "lon": -77.04873866666667, "is_reserved": 0, "fusion_lat": 0.0, "type": "electric_scooter"}, {"fusion_lon": 0.0, "name": "48be616c8d7862e8a26c23c620e8716d", "rental_uris": {"android": "https://dc.lft.to/lastmile_qr_scan", "ios": "https://dc.lft.to/lastmile_qr_scan"}, "lat": 38.892200333333335, "bike_id": "48be616c8d7862e8a26c23c620e8716d", "is_disabled": 0, "lon": -77.0334195, "is_reserved": 0, "fusion_lat": 0.0, "type": "electric_scooter"}, {"fusion_lon": 0.0, "name": "69a5fb028863112e2e11fa710c7298d7", "rental_uris": {"android": "https://dc.lft.to/lastmile_qr_scan", "ios": "https://dc.lft.to/lastmile_qr_scan"}, "lat": 38.9027575, "bike_id": "69a5fb028863112e2e11fa710c7298d7", "is_disabled": 0, "lon": -77.01752733333333, "is_reserved": 0, "fusion_lat": 0.0, "type": "electric_scooter"}, {"fusion_lon": 0.0, "name": "d7dac6688cda26fe3f5b25241c91498a", "rental_uris": {"android": "https://dc.lft.to/lastmile_qr_scan", "ios": "https://dc.lft.to/lastmile_qr_scan"}, "lat": 38.88824066666667, "bike_id": "d7dac6688cda26fe3f5b25241c91498a", "is_disabled": 0, "lon": -76.977027, "is_reserved": 0, "fusion_lat": 0.0, "type": "electric_scooter"}, {"fusion_lon": 0.0, "name": "4f10df0686c34dccbb5a278ffe5ba0c8", "rental_uris": {"android": "https://dc.lft.to/lastmile_qr_scan", "ios": "https://dc.lft.to/lastmile_qr_scan"}, "lat": 38.90022066666667, "bike_id": "4f10df0686c34dccbb5a278ffe5ba0c8", "is_disabled": 0, "lon": -77.01203283333334, "is_reserved": 0, "fusion_lat": 0.0, "type": "electric_scooter"}, {"fusion_lon": 0.0, "name": "4874c0d4f9b0fd417c9cda197e68de34", "rental_uris": {"android": "https://dc.lft.to/lastmile_qr_scan", "ios": "https://dc.lft.to/lastmile_qr_scan"}, "lat": 38.92654983333333, "bike_id": "4874c0d4f9b0fd417c9cda197e68de34", "is_disabled": 0, "lon": -77.02429616666667, "is_reserved": 0, "fusion_lat": 0.0, "type": "electric_scooter"}, {"fusion_lon": 0.0, "name": "919f9fd501e835709c3d8a3e36126d81", "rental_uris": {"android": "https://dc.lft.to/lastmile_qr_scan", "ios": "https://dc.lft.to/lastmile_qr_scan"}, "lat": 38.90577483333333, "bike_id": "919f9fd501e835709c3d8a3e36126d81", "is_disabled": 0, "lon": -77.04598116666666, "is_reserved": 0, "fusion_lat": 0.0, "type": "electric_scooter"}, {"fusion_lon": 0.0, "name": "f7ba3c8fa70ebc77af03e713cced0ce6", "rental_uris": {"android": "https://dc.lft.to/lastmile_qr_scan", "ios": "https://dc.lft.to/lastmile_qr_scan"}, "lat": 38.937208166666665, "bike_id": "f7ba3c8fa70ebc77af03e713cced0ce6", "is_disabled": 0, "lon": -77.0328825, "is_reserved": 0, "fusion_lat": 0.0, "type": "electric_scooter"}, {"fusion_lon": 0.0, "name": "2cfccea9457839b5c088f384f949100a", "rental_uris": {"android": "https://dc.lft.to/lastmile_qr_scan", "ios": "https://dc.lft.to/lastmile_qr_scan"}, "lat": 38.921869666666666, "bike_id": "2cfccea9457839b5c088f384f949100a", "is_disabled": 0, "lon": -77.03817116666667, "is_reserved": 0, "fusion_lat": 0.0, "type": "electric_scooter"}, {"fusion_lon": 0.0, "name": "c457070cbde6102246a5f09f085ef5e1", "rental_uris": {"android": "https://dc.lft.to/lastmile_qr_scan", "ios": "https://dc.lft.to/lastmile_qr_scan"}, "lat": 38.909421333333334, "bike_id": "c457070cbde6102246a5f09f085ef5e1", "is_disabled": 0, "lon": -77.03860366666666, "is_reserved": 0, "fusion_lat": 0.0, "type": "electric_scooter"}, {"fusion_lon": 0.0, "name": "45fd360ad3393404e43dff89258af9dd", "rental_uris": {"android": "https://dc.lft.to/lastmile_qr_scan", "ios": "https://dc.lft.to/lastmile_qr_scan"}, "lat": 38.927277333333336, "bike_id": "45fd360ad3393404e43dff89258af9dd", "is_disabled": 0, "lon": -77.03549966666667, "is_reserved": 0, "fusion_lat": 0.0, "type": "electric_scooter"}, {"fusion_lon": 0.0, "name": "a9b060d53ff9c9b861bdb0e659c54163", "rental_uris": {"android": "https://dc.lft.to/lastmile_qr_scan", "ios": "https://dc.lft.to/lastmile_qr_scan"}, "lat": 38.94491466666667, "bike_id": "a9b060d53ff9c9b861bdb0e659c54163", "is_disabled": 0, "lon": -77.063739, "is_reserved": 0, "fusion_lat": 0.0, "type": "electric_scooter"}, {"fusion_lon": 0.0, "name": "cb5e2c3cbf270f8360d11649bdbf662f", "rental_uris": {"android": "https://dc.lft.to/lastmile_qr_scan", "ios": "https://dc.lft.to/lastmile_qr_scan"}, "lat": 38.94162033333333, "bike_id": "cb5e2c3cbf270f8360d11649bdbf662f", "is_disabled": 0, "lon": -77.02556133333333, "is_reserved": 0, "fusion_lat": 0.0, "type": "electric_scooter"}, {"fusion_lon": 0.0, "name": "eb9009842055e277056113c9a9e6d4c0", "rental_uris": {"android": "https://dc.lft.to/lastmile_qr_scan", "ios": "https://dc.lft.to/lastmile_qr_scan"}, "lat": 38.909334, "bike_id": "eb9009842055e277056113c9a9e6d4c0", "is_disabled": 0, "lon": -77.03856016666667, "is_reserved": 0, "fusion_lat": 0.0, "type": "electric_scooter"}, {"fusion_lon": 0.0, "name": "24799751a6d2886800de4d193d0ddaba", "rental_uris": {"android": "https://dc.lft.to/lastmile_qr_scan", "ios": "https://dc.lft.to/lastmile_qr_scan"}, "lat": 38.89857816666667, "bike_id": "24799751a6d2886800de4d193d0ddaba", "is_disabled": 0, "lon": -77.04339116666667, "is_reserved": 0, "fusion_lat": 0.0, "type": "electric_scooter"}, {"fusion_lon": 0.0, "name": "97ae315cf7f688f41f43d8fdaa55e46c", "rental_uris": {"android": "https://dc.lft.to/lastmile_qr_scan", "ios": "https://dc.lft.to/lastmile_qr_scan"}, "lat": 38.9056075, "bike_id": "97ae315cf7f688f41f43d8fdaa55e46c", "is_disabled": 0, "lon": -77.00565216666666, "is_reserved": 0, "fusion_lat": 0.0, "type": "electric_scooter"}, {"fusion_lon": 0.0, "name": "0616197dd1b1037c1bd3f16545b113de", "rental_uris": {"android": "https://dc.lft.to/lastmile_qr_scan", "ios": "https://dc.lft.to/lastmile_qr_scan"}, "lat": 38.888732, "bike_id": "0616197dd1b1037c1bd3f16545b113de", "is_disabled": 0, "lon": -76.990325, "is_reserved": 0, "fusion_lat": 0.0, "type": "electric_scooter"}, {"fusion_lon": 0.0, "name": "bd8cc2c2cd0d0da66facf3b668eefca8", "rental_uris": {"android": "https://dc.lft.to/lastmile_qr_scan", "ios": "https://dc.lft.to/lastmile_qr_scan"}, "lat": 38.924826833333334, "bike_id": "bd8cc2c2cd0d0da66facf3b668eefca8", "is_disabled": 0, "lon": -77.022439, "is_reserved": 0, "fusion_lat": 0.0, "type": "electric_scooter"}, {"fusion_lon": 0.0, "name": "0ac1a542f6b8596556321748da3d699f", "rental_uris": {"android": "https://dc.lft.to/lastmile_qr_scan", "ios": "https://dc.lft.to/lastmile_qr_scan"}, "lat": 38.92470983333333, "bike_id": "0ac1a542f6b8596556321748da3d699f", "is_disabled": 0, "lon": -77.03932833333333, "is_reserved": 0, "fusion_lat": 0.0, "type": "electric_scooter"}, {"fusion_lon": 0.0, "name": "66bae2c665e094d110f6fd9cfcf5d59b", "rental_uris": {"android": "https://dc.lft.to/lastmile_qr_scan", "ios": "https://dc.lft.to/lastmile_qr_scan"}, "lat": 38.9206415, "bike_id": "66bae2c665e094d110f6fd9cfcf5d59b", "is_disabled": 0, "lon": -77.03456733333333, "is_reserved": 0, "fusion_lat": 0.0, "type": "electric_scooter"}, {"fusion_lon": 0.0, "name": "24fd9dfbf2b51480e907efa816fe3e80", "rental_uris": {"android": "https://dc.lft.to/lastmile_qr_scan", "ios": "https://dc.lft.to/lastmile_qr_scan"}, "lat": 38.878998833333334, "bike_id": "24fd9dfbf2b51480e907efa816fe3e80", "is_disabled": 0, "lon": -77.00602883333333, "is_reserved": 0, "fusion_lat": 0.0, "type": "electric_scooter"}, {"fusion_lon": 0.0, "name": "524bf8d247c25cea1b4159158e92f896", "rental_uris": {"android": "https://dc.lft.to/lastmile_qr_scan", "ios": "https://dc.lft.to/lastmile_qr_scan"}, "lat": 38.902326, "bike_id": "524bf8d247c25cea1b4159158e92f896", "is_disabled": 0, "lon": -77.05338083333334, "is_reserved": 0, "fusion_lat": 0.0, "type": "electric_scooter"}, {"fusion_lon": 0.0, "name": "5383b154c0c3f70425bb566995816918", "rental_uris": {"android": "https://dc.lft.to/lastmile_qr_scan", "ios": "https://dc.lft.to/lastmile_qr_scan"}, "lat": 38.91790366666667, "bike_id": "5383b154c0c3f70425bb566995816918", "is_disabled": 0, "lon": -77.040219, "is_reserved": 0, "fusion_lat": 0.0, "type": "electric_scooter"}, {"fusion_lon": 0.0, "name": "d6f62dcb4248dd6736f7429e6fc7c48e", "rental_uris": {"android": "https://dc.lft.to/lastmile_qr_scan", "ios": "https://dc.lft.to/lastmile_qr_scan"}, "lat": 38.90907766666667, "bike_id": "d6f62dcb4248dd6736f7429e6fc7c48e", "is_disabled": 0, "lon": -77.0228625, "is_reserved": 0, "fusion_lat": 0.0, "type": "electric_scooter"}, {"fusion_lon": 0.0, "name": "175fe99f5c99e277b9afdb94e525aa23", "rental_uris": {"android": "https://dc.lft.to/lastmile_qr_scan", "ios": "https://dc.lft.to/lastmile_qr_scan"}, "lat": 38.92055366666666, "bike_id": "175fe99f5c99e277b9afdb94e525aa23", "is_disabled": 0, "lon": -76.98430866666666, "is_reserved": 0, "fusion_lat": 0.0, "type": "electric_scooter"}, {"fusion_lon": 0.0, "name": "e953b2a0c26da8bc1ba9f45953ac214d", "rental_uris": {"android": "https://dc.lft.to/lastmile_qr_scan", "ios": "https://dc.lft.to/lastmile_qr_scan"}, "lat": 38.9132165, "bike_id": "e953b2a0c26da8bc1ba9f45953ac214d", "is_disabled": 0, "lon": -77.0453915, "is_reserved": 0, "fusion_lat": 0.0, "type": "electric_scooter"}, {"fusion_lon": 0.0, "name": "676babd1f9e9ba1b09e441185894b21a", "rental_uris": {"android": "https://dc.lft.to/lastmile_qr_scan", "ios": "https://dc.lft.to/lastmile_qr_scan"}, "lat": 38.898348, "bike_id": "676babd1f9e9ba1b09e441185894b21a", "is_disabled": 0, "lon": -77.02501166666667, "is_reserved": 0, "fusion_lat": 0.0, "type": "electric_scooter"}, {"fusion_lon": 0.0, "name": "3fc1464812c5ed677a884f013a7af59b", "rental_uris": {"android": "https://dc.lft.to/lastmile_qr_scan", "ios": "https://dc.lft.to/lastmile_qr_scan"}, "lat": 39.042360333333335, "bike_id": "3fc1464812c5ed677a884f013a7af59b", "is_disabled": 0, "lon": -76.9973595, "is_reserved": 0, "fusion_lat": 0.0, "type": "electric_bike"}, {"fusion_lon": 0.0, "name": "c76b9bdec9b39991cb186a2b56dca3ac", "rental_uris": {"android": "https://dc.lft.to/lastmile_qr_scan", "ios": "https://dc.lft.to/lastmile_qr_scan"}, "lat": 38.858745666666664, "bike_id": "c76b9bdec9b39991cb186a2b56dca3ac", "is_disabled": 0, "lon": -76.990428, "is_reserved": 0, "fusion_lat": 0.0, "type": "electric_scooter"}, {"fusion_lon": 0.0, "name": "576a31e6a54a4e26cc93f22047ad7a2b", "rental_uris": {"android": "https://dc.lft.to/lastmile_qr_scan", "ios": "https://dc.lft.to/lastmile_qr_scan"}, "lat": 38.911677166666664, "bike_id": "576a31e6a54a4e26cc93f22047ad7a2b", "is_disabled": 0, "lon": -77.04142533333334, "is_reserved": 0, "fusion_lat": 0.0, "type": "electric_scooter"}, {"fusion_lon": 0.0, "name": "789d521e8a898085880e860670be1b0f", "rental_uris": {"android": "https://dc.lft.to/lastmile_qr_scan", "ios": "https://dc.lft.to/lastmile_qr_scan"}, "lat": 38.973357166666666, "bike_id": "789d521e8a898085880e860670be1b0f", "is_disabled": 0, "lon": -76.99584516666667, "is_reserved": 0, "fusion_lat": 0.0, "type": "electric_bike"}, {"fusion_lon": 0.0, "name": "83e4298feeae5acc4b0c88b50244e585", "rental_uris": {"android": "https://dc.lft.to/lastmile_qr_scan", "ios": "https://dc.lft.to/lastmile_qr_scan"}, "lat": 38.892244833333336, "bike_id": "83e4298feeae5acc4b0c88b50244e585", "is_disabled": 0, "lon": -77.04337116666666, "is_reserved": 0, "fusion_lat": 0.0, "type": "electric_scooter"}, {"fusion_lon": 0.0, "name": "7d430b1043bc46f4a0c90cd4b2f1fe1e", "rental_uris": {"android": "https://dc.lft.to/lastmile_qr_scan", "ios": "https://dc.lft.to/lastmile_qr_scan"}, "lat": 38.903975833333334, "bike_id": "7d430b1043bc46f4a0c90cd4b2f1fe1e", "is_disabled": 0, "lon": -77.01655583333333, "is_reserved": 0, "fusion_lat": 0.0, "type": "electric_scooter"}, {"fusion_lon": 0.0, "name": "95839c24301535099da6590c038aca30", "rental_uris": {"android": "https://dc.lft.to/lastmile_qr_scan", "ios": "https://dc.lft.to/lastmile_qr_scan"}, "lat": 38.90058116666667, "bike_id": "95839c24301535099da6590c038aca30", "is_disabled": 0, "lon": -76.98484866666666, "is_reserved": 0, "fusion_lat": 0.0, "type": "electric_scooter"}, {"fusion_lon": 0.0, "name": "44f8210280af277f9550a3cb6666b521", "rental_uris": {"android": "https://dc.lft.to/lastmile_qr_scan", "ios": "https://dc.lft.to/lastmile_qr_scan"}, "lat": 38.91115166666667, "bike_id": "44f8210280af277f9550a3cb6666b521", "is_disabled": 0, "lon": -77.00391616666667, "is_reserved": 0, "fusion_lat": 0.0, "type": "electric_scooter"}, {"fusion_lon": 0.0, "name": "42d749b7e668c68503f12197eb12d96f", "rental_uris": {"android": "https://dc.lft.to/lastmile_qr_scan", "ios": "https://dc.lft.to/lastmile_qr_scan"}, "lat": 38.9012725, "bike_id": "42d749b7e668c68503f12197eb12d96f", "is_disabled": 0, "lon": -77.046499, "is_reserved": 0, "fusion_lat": 0.0, "type": "electric_scooter"}, {"fusion_lon": 0.0, "name": "b4bdfa520eb47474836e58d92879a86f", "rental_uris": {"android": "https://dc.lft.to/lastmile_qr_scan", "ios": "https://dc.lft.to/lastmile_qr_scan"}, "lat": 38.913201666666666, "bike_id": "b4bdfa520eb47474836e58d92879a86f", "is_disabled": 0, "lon": -77.04546816666667, "is_reserved": 0, "fusion_lat": 0.0, "type": "electric_scooter"}, {"fusion_lon": 0.0, "name": "dc0c8d090ee025aa5782bea3d50526bd", "rental_uris": {"android": "https://dc.lft.to/lastmile_qr_scan", "ios": "https://dc.lft.to/lastmile_qr_scan"}, "lat": 38.923352, "bike_id": "dc0c8d090ee025aa5782bea3d50526bd", "is_disabled": 0, "lon": -77.04703666666667, "is_reserved": 0, "fusion_lat": 0.0, "type": "electric_scooter"}, {"fusion_lon": 0.0, "name": "5d3a8ee0c44d3f837e38732806543b58", "rental_uris": {"android": "https://dc.lft.to/lastmile_qr_scan", "ios": "https://dc.lft.to/lastmile_qr_scan"}, "lat": 38.93047966666666, "bike_id": "5d3a8ee0c44d3f837e38732806543b58", "is_disabled": 0, "lon": -76.95834883333333, "is_reserved": 0, "fusion_lat": 0.0, "type": "electric_scooter"}, {"fusion_lon": 0.0, "name": "de2599eac30a6d64b825440d75a2d85a", "rental_uris": {"android": "https://dc.lft.to/lastmile_qr_scan", "ios": "https://dc.lft.to/lastmile_qr_scan"}, "lat": 38.90410416666667, "bike_id": "de2599eac30a6d64b825440d75a2d85a", "is_disabled": 0, "lon": -76.97331199999999, "is_reserved": 0, "fusion_lat": 0.0, "type": "electric_scooter"}, {"fusion_lon": 0.0, "name": "9cb6911332eb396a05ffe637e1653767", "rental_uris": {"android": "https://dc.lft.to/lastmile_qr_scan", "ios": "https://dc.lft.to/lastmile_qr_scan"}, "lat": 38.88229466666667, "bike_id": "9cb6911332eb396a05ffe637e1653767", "is_disabled": 0, "lon": -76.99084083333334, "is_reserved": 0, "fusion_lat": 0.0, "type": "electric_scooter"}, {"fusion_lon": 0.0, "name": "05e20e0bbd45e2eeee38a0755cb62517", "rental_uris": {"android": "https://dc.lft.to/lastmile_qr_scan", "ios": "https://dc.lft.to/lastmile_qr_scan"}, "lat": 38.91665716666667, "bike_id": "05e20e0bbd45e2eeee38a0755cb62517", "is_disabled": 0, "lon": -77.03184316666666, "is_reserved": 0, "fusion_lat": 0.0, "type": "electric_scooter"}, {"fusion_lon": 0.0, "name": "ce8c670cc33254e0b7d229fa22d4030a", "rental_uris": {"android": "https://dc.lft.to/lastmile_qr_scan", "ios": "https://dc.lft.to/lastmile_qr_scan"}, "lat": 38.929741166666666, "bike_id": "ce8c670cc33254e0b7d229fa22d4030a", "is_disabled": 0, "lon": -77.02791783333333, "is_reserved": 0, "fusion_lat": 0.0, "type": "electric_scooter"}, {"fusion_lon": 0.0, "name": "69af09a93c471d7061aee009c9ea6fa2", "rental_uris": {"android": "https://dc.lft.to/lastmile_qr_scan", "ios": "https://dc.lft.to/lastmile_qr_scan"}, "lat": 38.959563333333335, "bike_id": "69af09a93c471d7061aee009c9ea6fa2", "is_disabled": 0, "lon": -77.03051466666666, "is_reserved": 0, "fusion_lat": 0.0, "type": "electric_bike"}, {"fusion_lon": 0.0, "name": "81aabcd11a2b65e93020d0d429b53f55", "rental_uris": {"android": "https://dc.lft.to/lastmile_qr_scan", "ios": "https://dc.lft.to/lastmile_qr_scan"}, "lat": 38.93413833333334, "bike_id": "81aabcd11a2b65e93020d0d429b53f55", "is_disabled": 0, "lon": -77.02510283333334, "is_reserved": 0, "fusion_lat": 0.0, "type": "electric_bike"}, {"fusion_lon": 0.0, "name": "3e0ebb2db380dca405f74d1ac2019d37", "rental_uris": {"android": "https://dc.lft.to/lastmile_qr_scan", "ios": "https://dc.lft.to/lastmile_qr_scan"}, "lat": 38.9312225, "bike_id": "3e0ebb2db380dca405f74d1ac2019d37", "is_disabled": 0, "lon": -77.022601, "is_reserved": 0, "fusion_lat": 0.0, "type": "electric_scooter"}, {"fusion_lon": 0.0, "name": "c2c021f077e5ce9bca5126e604586eaa", "rental_uris": {"android": "https://dc.lft.to/lastmile_qr_scan", "ios": "https://dc.lft.to/lastmile_qr_scan"}, "lat": 38.846721333333335, "bike_id": "c2c021f077e5ce9bca5126e604586eaa", "is_disabled": 0, "lon": -77.1392145, "is_reserved": 0, "fusion_lat": 0.0, "type": "electric_bike"}, {"fusion_lon": 0.0, "name": "80c97edf15df7a063ecce2f3356673f5", "rental_uris": {"android": "https://dc.lft.to/lastmile_qr_scan", "ios": "https://dc.lft.to/lastmile_qr_scan"}, "lat": 38.9076665, "bike_id": "80c97edf15df7a063ecce2f3356673f5", "is_disabled": 0, "lon": -77.04529333333333, "is_reserved": 0, "fusion_lat": 0.0, "type": "electric_scooter"}, {"fusion_lon": 0.0, "name": "1c87b6b28a7e6e9a14c634e2b43e44bc", "rental_uris": {"android": "https://dc.lft.to/lastmile_qr_scan", "ios": "https://dc.lft.to/lastmile_qr_scan"}, "lat": 38.920087333333335, "bike_id": "1c87b6b28a7e6e9a14c634e2b43e44bc", "is_disabled": 0, "lon": -77.03211116666667, "is_reserved": 0, "fusion_lat": 0.0, "type": "electric_scooter"}, {"fusion_lon": 0.0, "name": "095a1f072d286f75676728e3ec185ba9", "rental_uris": {"android": "https://dc.lft.to/lastmile_qr_scan", "ios": "https://dc.lft.to/lastmile_qr_scan"}, "lat": 38.90558083333333, "bike_id": "095a1f072d286f75676728e3ec185ba9", "is_disabled": 0, "lon": -77.0021705, "is_reserved": 0, "fusion_lat": 0.0, "type": "electric_scooter"}, {"fusion_lon": 0.0, "name": "611201f6b1a6b58f45ec9fd9b81f3e57", "rental_uris": {"android": "https://dc.lft.to/lastmile_qr_scan", "ios": "https://dc.lft.to/lastmile_qr_scan"}, "lat": 38.908081333333335, "bike_id": "611201f6b1a6b58f45ec9fd9b81f3e57", "is_disabled": 0, "lon": -77.084025, "is_reserved": 0, "fusion_lat": 0.0, "type": "electric_scooter"}, {"fusion_lon": 0.0, "name": "646a8e00d733a5a25747975eb4849aa6", "rental_uris": {"android": "https://dc.lft.to/lastmile_qr_scan", "ios": "https://dc.lft.to/lastmile_qr_scan"}, "lat": 38.972601166666664, "bike_id": "646a8e00d733a5a25747975eb4849aa6", "is_disabled": 0, "lon": -76.99275266666666, "is_reserved": 0, "fusion_lat": 0.0, "type": "electric_bike"}, {"fusion_lon": 0.0, "name": "ea04024ead6ecb31f33a0914982239e5", "rental_uris": {"android": "https://dc.lft.to/lastmile_qr_scan", "ios": "https://dc.lft.to/lastmile_qr_scan"}, "lat": 38.89389083333333, "bike_id": "ea04024ead6ecb31f33a0914982239e5", "is_disabled": 0, "lon": -77.02256766666666, "is_reserved": 0, "fusion_lat": 0.0, "type": "electric_scooter"}, {"fusion_lon": 0.0, "name": "f8c3bec441525c2b56fc003f12ac93c8", "rental_uris": {"android": "https://dc.lft.to/lastmile_qr_scan", "ios": "https://dc.lft.to/lastmile_qr_scan"}, "lat": 38.9208065, "bike_id": "f8c3bec441525c2b56fc003f12ac93c8", "is_disabled": 0, "lon": -77.01809066666667, "is_reserved": 0, "fusion_lat": 0.0, "type": "electric_scooter"}, {"fusion_lon": 0.0, "name": "bda3dea7d568fd1dedb6be4a3b8b6fea", "rental_uris": {"android": "https://dc.lft.to/lastmile_qr_scan", "ios": "https://dc.lft.to/lastmile_qr_scan"}, "lat": 38.90066, "bike_id": "bda3dea7d568fd1dedb6be4a3b8b6fea", "is_disabled": 0, "lon": -77.04913266666667, "is_reserved": 0, "fusion_lat": 0.0, "type": "electric_scooter"}, {"fusion_lon": 0.0, "name": "903b2960deacae0ae11ff985bc198c52", "rental_uris": {"android": "https://dc.lft.to/lastmile_qr_scan", "ios": "https://dc.lft.to/lastmile_qr_scan"}, "lat": 38.9085675, "bike_id": "903b2960deacae0ae11ff985bc198c52", "is_disabled": 0, "lon": -77.08073383333333, "is_reserved": 0, "fusion_lat": 0.0, "type": "electric_bike"}, {"fusion_lon": 0.0, "name": "ba9e4fd57ae4ac86f838a5c603ac396c", "rental_uris": {"android": "https://dc.lft.to/lastmile_qr_scan", "ios": "https://dc.lft.to/lastmile_qr_scan"}, "lat": 38.9250145, "bike_id": "ba9e4fd57ae4ac86f838a5c603ac396c", "is_disabled": 0, "lon": -77.02566416666667, "is_reserved": 0, "fusion_lat": 0.0, "type": "electric_scooter"}, {"fusion_lon": 0.0, "name": "d77ba6f0a57dd28823c442039d940266", "rental_uris": {"android": "https://dc.lft.to/lastmile_qr_scan", "ios": "https://dc.lft.to/lastmile_qr_scan"}, "lat": 38.924199, "bike_id": "d77ba6f0a57dd28823c442039d940266", "is_disabled": 0, "lon": -77.019616, "is_reserved": 0, "fusion_lat": 0.0, "type": "electric_scooter"}, {"fusion_lon": 0.0, "name": "6f94cf2e89d6bc6aee09e22c0d116750", "rental_uris": {"android": "https://dc.lft.to/lastmile_qr_scan", "ios": "https://dc.lft.to/lastmile_qr_scan"}, "lat": 38.897539, "bike_id": "6f94cf2e89d6bc6aee09e22c0d116750", "is_disabled": 0, "lon": -77.03175666666667, "is_reserved": 0, "fusion_lat": 0.0, "type": "electric_scooter"}, {"fusion_lon": 0.0, "name": "456c76c534ac540bcda580d7af18a12d", "rental_uris": {"android": "https://dc.lft.to/lastmile_qr_scan", "ios": "https://dc.lft.to/lastmile_qr_scan"}, "lat": 38.863368, "bike_id": "456c76c534ac540bcda580d7af18a12d", "is_disabled": 0, "lon": -76.98721183333333, "is_reserved": 0, "fusion_lat": 0.0, "type": "electric_bike"}, {"fusion_lon": 0.0, "name": "14b9886fa884760be7ae664c3188363a", "rental_uris": {"android": "https://dc.lft.to/lastmile_qr_scan", "ios": "https://dc.lft.to/lastmile_qr_scan"}, "lat": 38.90401283333333, "bike_id": "14b9886fa884760be7ae664c3188363a", "is_disabled": 0, "lon": -77.01842766666667, "is_reserved": 0, "fusion_lat": 0.0, "type": "electric_scooter"}, {"fusion_lon": 0.0, "name": "bd50327ea8824542c46ea6d8f5ddceba", "rental_uris": {"android": "https://dc.lft.to/lastmile_qr_scan", "ios": "https://dc.lft.to/lastmile_qr_scan"}, "lat": 38.946484166666664, "bike_id": "bd50327ea8824542c46ea6d8f5ddceba", "is_disabled": 0, "lon": -77.06481833333333, "is_reserved": 0, "fusion_lat": 0.0, "type": "electric_scooter"}, {"fusion_lon": 0.0, "name": "187f9e863539c0f7929ac95eaaa2dfea", "rental_uris": {"android": "https://dc.lft.to/lastmile_qr_scan", "ios": "https://dc.lft.to/lastmile_qr_scan"}, "lat": 39.00720366666667, "bike_id": "187f9e863539c0f7929ac95eaaa2dfea", "is_disabled": 0, "lon": -76.98142166666666, "is_reserved": 0, "fusion_lat": 0.0, "type": "electric_bike"}, {"fusion_lon": 0.0, "name": "706c417ffbaf4bb19f65d845105c57c1", "rental_uris": {"android": "https://dc.lft.to/lastmile_qr_scan", "ios": "https://dc.lft.to/lastmile_qr_scan"}, "lat": 38.91559133333333, "bike_id": "706c417ffbaf4bb19f65d845105c57c1", "is_disabled": 0, "lon": -77.00704066666667, "is_reserved": 0, "fusion_lat": 0.0, "type": "electric_scooter"}, {"fusion_lon": 0.0, "name": "2b36446e671dcfb4bf99509d8904f385", "rental_uris": {"android": "https://dc.lft.to/lastmile_qr_scan", "ios": "https://dc.lft.to/lastmile_qr_scan"}, "lat": 38.89449416666667, "bike_id": "2b36446e671dcfb4bf99509d8904f385", "is_disabled": 0, "lon": -76.974812, "is_reserved": 0, "fusion_lat": 0.0, "type": "electric_bike"}, {"fusion_lon": 0.0, "name": "390056daeb19941e124914a4ba4a86ec", "rental_uris": {"android": "https://dc.lft.to/lastmile_qr_scan", "ios": "https://dc.lft.to/lastmile_qr_scan"}, "lat": 38.90023333333333, "bike_id": "390056daeb19941e124914a4ba4a86ec", "is_disabled": 0, "lon": -76.99862166666666, "is_reserved": 0, "fusion_lat": 0.0, "type": "electric_scooter"}, {"fusion_lon": 0.0, "name": "53c09f1101ef266e18e596f0d881588c", "rental_uris": {"android": "https://dc.lft.to/lastmile_qr_scan", "ios": "https://dc.lft.to/lastmile_qr_scan"}, "lat": 38.925104166666664, "bike_id": "53c09f1101ef266e18e596f0d881588c", "is_disabled": 0, "lon": -77.02283583333333, "is_reserved": 0, "fusion_lat": 0.0, "type": "electric_scooter"}, {"fusion_lon": 0.0, "name": "c3f78f22c73fc97c6bdf18f4adb26f96", "rental_uris": {"android": "https://dc.lft.to/lastmile_qr_scan", "ios": "https://dc.lft.to/lastmile_qr_scan"}, "lat": 38.848840333333335, "bike_id": "c3f78f22c73fc97c6bdf18f4adb26f96", "is_disabled": 0, "lon": -77.077854, "is_reserved": 0, "fusion_lat": 0.0, "type": "electric_bike"}, {"fusion_lon": 0.0, "name": "d93c6b62e836309a81c958413d6af87a", "rental_uris": {"android": "https://dc.lft.to/lastmile_qr_scan", "ios": "https://dc.lft.to/lastmile_qr_scan"}, "lat": 38.9192725, "bike_id": "d93c6b62e836309a81c958413d6af87a", "is_disabled": 0, "lon": -77.04626333333333, "is_reserved": 0, "fusion_lat": 0.0, "type": "electric_scooter"}, {"fusion_lon": 0.0, "name": "aa73155c62ca6114bcb919e86730d58d", "rental_uris": {"android": "https://dc.lft.to/lastmile_qr_scan", "ios": "https://dc.lft.to/lastmile_qr_scan"}, "lat": 38.91271666666667, "bike_id": "aa73155c62ca6114bcb919e86730d58d", "is_disabled": 0, "lon": -77.0320815, "is_reserved": 0, "fusion_lat": 0.0, "type": "electric_scooter"}, {"fusion_lon": 0.0, "name": "84ce463e5c5c9f0b9eb2d8c66231a307", "rental_uris": {"android": "https://dc.lft.to/lastmile_qr_scan", "ios": "https://dc.lft.to/lastmile_qr_scan"}, "lat": 38.923958666666664, "bike_id": "84ce463e5c5c9f0b9eb2d8c66231a307", "is_disabled": 0, "lon": -77.0204345, "is_reserved": 0, "fusion_lat": 0.0, "type": "electric_scooter"}, {"fusion_lon": 0.0, "name": "864ece12767b0cec985d9f9e4e0f9d23", "rental_uris": {"android": "https://dc.lft.to/lastmile_qr_scan", "ios": "https://dc.lft.to/lastmile_qr_scan"}, "lat": 38.908728333333336, "bike_id": "864ece12767b0cec985d9f9e4e0f9d23", "is_disabled": 0, "lon": -77.0322455, "is_reserved": 0, "fusion_lat": 0.0, "type": "electric_scooter"}, {"fusion_lon": 0.0, "name": "0f7fb5c935e01c6df506b8291e9449aa", "rental_uris": {"android": "https://dc.lft.to/lastmile_qr_scan", "ios": "https://dc.lft.to/lastmile_qr_scan"}, "lat": 38.90785983333333, "bike_id": "0f7fb5c935e01c6df506b8291e9449aa", "is_disabled": 0, "lon": -76.99412883333333, "is_reserved": 0, "fusion_lat": 0.0, "type": "electric_scooter"}, {"fusion_lon": 0.0, "name": "2706c28e9d84b5e56e0aee2081e0d5b5", "rental_uris": {"android": "https://dc.lft.to/lastmile_qr_scan", "ios": "https://dc.lft.to/lastmile_qr_scan"}, "lat": 38.90438233333333, "bike_id": "2706c28e9d84b5e56e0aee2081e0d5b5", "is_disabled": 0, "lon": -77.02841366666667, "is_reserved": 0, "fusion_lat": 0.0, "type": "electric_scooter"}, {"fusion_lon": 0.0, "name": "775ae3dbe028b1f5befdbf73816a95ae", "rental_uris": {"android": "https://dc.lft.to/lastmile_qr_scan", "ios": "https://dc.lft.to/lastmile_qr_scan"}, "lat": 38.900370333333335, "bike_id": "775ae3dbe028b1f5befdbf73816a95ae", "is_disabled": 0, "lon": -77.017701, "is_reserved": 0, "fusion_lat": 0.0, "type": "electric_scooter"}, {"fusion_lon": 0.0, "name": "917d6664d457612c64887ab6491e5252", "rental_uris": {"android": "https://dc.lft.to/lastmile_qr_scan", "ios": "https://dc.lft.to/lastmile_qr_scan"}, "lat": 38.92268266666667, "bike_id": "917d6664d457612c64887ab6491e5252", "is_disabled": 0, "lon": -77.01937533333333, "is_reserved": 0, "fusion_lat": 0.0, "type": "electric_scooter"}, {"fusion_lon": 0.0, "name": "5fdbbefdab1bef1b2ebda512a6de0d6d", "rental_uris": {"android": "https://dc.lft.to/lastmile_qr_scan", "ios": "https://dc.lft.to/lastmile_qr_scan"}, "lat": 38.9354855, "bike_id": "5fdbbefdab1bef1b2ebda512a6de0d6d", "is_disabled": 0, "lon": -77.03480933333333, "is_reserved": 0, "fusion_lat": 0.0, "type": "electric_scooter"}, {"fusion_lon": 0.0, "name": "1928c3ced753cb278797684bf5db5ef4", "rental_uris": {"android": "https://dc.lft.to/lastmile_qr_scan", "ios": "https://dc.lft.to/lastmile_qr_scan"}, "lat": 38.92920316666667, "bike_id": "1928c3ced753cb278797684bf5db5ef4", "is_disabled": 0, "lon": -76.9981805, "is_reserved": 0, "fusion_lat": 0.0, "type": "electric_scooter"}, {"fusion_lon": 0.0, "name": "6a2f65744f94c168d4150af353cf9e37", "rental_uris": {"android": "https://dc.lft.to/lastmile_qr_scan", "ios": "https://dc.lft.to/lastmile_qr_scan"}, "lat": 38.9223955, "bike_id": "6a2f65744f94c168d4150af353cf9e37", "is_disabled": 0, "lon": -77.04360666666666, "is_reserved": 0, "fusion_lat": 0.0, "type": "electric_scooter"}, {"fusion_lon": 0.0, "name": "cd12c845e245eb64a0d6f0d648b375d1", "rental_uris": {"android": "https://dc.lft.to/lastmile_qr_scan", "ios": "https://dc.lft.to/lastmile_qr_scan"}, "lat": 38.90043, "bike_id": "cd12c845e245eb64a0d6f0d648b375d1", "is_disabled": 0, "lon": -76.98554466666667, "is_reserved": 0, "fusion_lat": 0.0, "type": "electric_scooter"}, {"fusion_lon": 0.0, "name": "e367838ec5e70120b92ead7d2e84ed17", "rental_uris": {"android": "https://dc.lft.to/lastmile_qr_scan", "ios": "https://dc.lft.to/lastmile_qr_scan"}, "lat": 38.9350485, "bike_id": "e367838ec5e70120b92ead7d2e84ed17", "is_disabled": 0, "lon": -77.02007666666667, "is_reserved": 0, "fusion_lat": 0.0, "type": "electric_scooter"}, {"fusion_lon": 0.0, "name": "e82d4cf077de9aaad5ce0ce468c0e87c", "rental_uris": {"android": "https://dc.lft.to/lastmile_qr_scan", "ios": "https://dc.lft.to/lastmile_qr_scan"}, "lat": 38.900648833333335, "bike_id": "e82d4cf077de9aaad5ce0ce468c0e87c", "is_disabled": 0, "lon": -77.04890466666667, "is_reserved": 0, "fusion_lat": 0.0, "type": "electric_scooter"}, {"fusion_lon": 0.0, "name": "35fc0dddb08bb434e004fc262dfea508", "rental_uris": {"android": "https://dc.lft.to/lastmile_qr_scan", "ios": "https://dc.lft.to/lastmile_qr_scan"}, "lat": 38.9030455, "bike_id": "35fc0dddb08bb434e004fc262dfea508", "is_disabled": 0, "lon": -77.01980183333333, "is_reserved": 0, "fusion_lat": 0.0, "type": "electric_scooter"}, {"fusion_lon": 0.0, "name": "c2dc6d8f4a36b222fe87690c6783ab26", "rental_uris": {"android": "https://dc.lft.to/lastmile_qr_scan", "ios": "https://dc.lft.to/lastmile_qr_scan"}, "lat": 38.896795, "bike_id": "c2dc6d8f4a36b222fe87690c6783ab26", "is_disabled": 0, "lon": -77.0434065, "is_reserved": 0, "fusion_lat": 0.0, "type": "electric_scooter"}, {"fusion_lon": 0.0, "name": "4bd998029ac6115102ff291c0faacb52", "rental_uris": {"android": "https://dc.lft.to/lastmile_qr_scan", "ios": "https://dc.lft.to/lastmile_qr_scan"}, "lat": 38.91420083333333, "bike_id": "4bd998029ac6115102ff291c0faacb52", "is_disabled": 0, "lon": -77.01798233333334, "is_reserved": 0, "fusion_lat": 0.0, "type": "electric_scooter"}, {"fusion_lon": 0.0, "name": "01321acef4162b699462828b2a10fdba", "rental_uris": {"android": "https://dc.lft.to/lastmile_qr_scan", "ios": "https://dc.lft.to/lastmile_qr_scan"}, "lat": 38.9211685, "bike_id": "01321acef4162b699462828b2a10fdba", "is_disabled": 0, "lon": -77.0365175, "is_reserved": 0, "fusion_lat": 0.0, "type": "electric_scooter"}, {"fusion_lon": 0.0, "name": "06340c33a85a5618ca4d6df7f3a9b48b", "rental_uris": {"android": "https://dc.lft.to/lastmile_qr_scan", "ios": "https://dc.lft.to/lastmile_qr_scan"}, "lat": 38.94380733333333, "bike_id": "06340c33a85a5618ca4d6df7f3a9b48b", "is_disabled": 0, "lon": -77.06059116666667, "is_reserved": 0, "fusion_lat": 0.0, "type": "electric_scooter"}, {"fusion_lon": 0.0, "name": "36e8921099bf77eaa062a530701952db", "rental_uris": {"android": "https://dc.lft.to/lastmile_qr_scan", "ios": "https://dc.lft.to/lastmile_qr_scan"}, "lat": 38.90990633333333, "bike_id": "36e8921099bf77eaa062a530701952db", "is_disabled": 0, "lon": -77.0091145, "is_reserved": 0, "fusion_lat": 0.0, "type": "electric_scooter"}, {"fusion_lon": 0.0, "name": "2f247c9f13d8a46f34d2087422bac38f", "rental_uris": {"android": "https://dc.lft.to/lastmile_qr_scan", "ios": "https://dc.lft.to/lastmile_qr_scan"}, "lat": 38.90872866666667, "bike_id": "2f247c9f13d8a46f34d2087422bac38f", "is_disabled": 0, "lon": -77.04042616666666, "is_reserved": 0, "fusion_lat": 0.0, "type": "electric_scooter"}, {"fusion_lon": 0.0, "name": "77cd79e22192d528c9658fad3e703e28", "rental_uris": {"android": "https://dc.lft.to/lastmile_qr_scan", "ios": "https://dc.lft.to/lastmile_qr_scan"}, "lat": 38.908340333333335, "bike_id": "77cd79e22192d528c9658fad3e703e28", "is_disabled": 0, "lon": -77.001894, "is_reserved": 0, "fusion_lat": 0.0, "type": "electric_scooter"}, {"fusion_lon": 0.0, "name": "e3de103040948c7858f454bd65d86461", "rental_uris": {"android": "https://dc.lft.to/lastmile_qr_scan", "ios": "https://dc.lft.to/lastmile_qr_scan"}, "lat": 38.932611666666666, "bike_id": "e3de103040948c7858f454bd65d86461", "is_disabled": 0, "lon": -77.02065016666667, "is_reserved": 0, "fusion_lat": 0.0, "type": "electric_bike"}, {"fusion_lon": 0.0, "name": "f8404e2057e7f38070259fc73d8c28d4", "rental_uris": {"android": "https://dc.lft.to/lastmile_qr_scan", "ios": "https://dc.lft.to/lastmile_qr_scan"}, "lat": 38.92232333333333, "bike_id": "f8404e2057e7f38070259fc73d8c28d4", "is_disabled": 0, "lon": -77.04305, "is_reserved": 0, "fusion_lat": 0.0, "type": "electric_scooter"}, {"fusion_lon": 0.0, "name": "09b214653cce79d4331a5b7f657724b2", "rental_uris": {"android": "https://dc.lft.to/lastmile_qr_scan", "ios": "https://dc.lft.to/lastmile_qr_scan"}, "lat": 38.907780333333335, "bike_id": "09b214653cce79d4331a5b7f657724b2", "is_disabled": 0, "lon": -77.01828716666667, "is_reserved": 0, "fusion_lat": 0.0, "type": "electric_scooter"}, {"fusion_lon": 0.0, "name": "64029fd591ed7f54de78b6e826b06c36", "rental_uris": {"android": "https://dc.lft.to/lastmile_qr_scan", "ios": "https://dc.lft.to/lastmile_qr_scan"}, "lat": 38.91834816666667, "bike_id": "64029fd591ed7f54de78b6e826b06c36", "is_disabled": 0, "lon": -77.053149, "is_reserved": 0, "fusion_lat": 0.0, "type": "electric_scooter"}, {"fusion_lon": 0.0, "name": "43d2c0ae5785b495da17f872846332c7", "rental_uris": {"android": "https://dc.lft.to/lastmile_qr_scan", "ios": "https://dc.lft.to/lastmile_qr_scan"}, "lat": 38.93099933333333, "bike_id": "43d2c0ae5785b495da17f872846332c7", "is_disabled": 0, "lon": -77.0266525, "is_reserved": 0, "fusion_lat": 0.0, "type": "electric_scooter"}, {"fusion_lon": 0.0, "name": "5c1786cbb1f711f316525852f290367a", "rental_uris": {"android": "https://dc.lft.to/lastmile_qr_scan", "ios": "https://dc.lft.to/lastmile_qr_scan"}, "lat": 38.84505583333333, "bike_id": "5c1786cbb1f711f316525852f290367a", "is_disabled": 0, "lon": -76.99352416666666, "is_reserved": 0, "fusion_lat": 0.0, "type": "electric_bike"}, {"fusion_lon": 0.0, "name": "b144b0af1415c913f27d09853d4b0449", "rental_uris": {"android": "https://dc.lft.to/lastmile_qr_scan", "ios": "https://dc.lft.to/lastmile_qr_scan"}, "lat": 38.9170695, "bike_id": "b144b0af1415c913f27d09853d4b0449", "is_disabled": 0, "lon": -77.0313055, "is_reserved": 0, "fusion_lat": 0.0, "type": "electric_scooter"}, {"fusion_lon": 0.0, "name": "f6fc782eeb6fa9b3d5cebff43f32ea2f", "rental_uris": {"android": "https://dc.lft.to/lastmile_qr_scan", "ios": "https://dc.lft.to/lastmile_qr_scan"}, "lat": 38.900369166666664, "bike_id": "f6fc782eeb6fa9b3d5cebff43f32ea2f", "is_disabled": 0, "lon": -76.99627683333334, "is_reserved": 0, "fusion_lat": 0.0, "type": "electric_scooter"}, {"fusion_lon": 0.0, "name": "d2aef0a50c91ce3ff9fbd074b1d1d975", "rental_uris": {"android": "https://dc.lft.to/lastmile_qr_scan", "ios": "https://dc.lft.to/lastmile_qr_scan"}, "lat": 38.914197, "bike_id": "d2aef0a50c91ce3ff9fbd074b1d1d975", "is_disabled": 0, "lon": -77.01800016666667, "is_reserved": 0, "fusion_lat": 0.0, "type": "electric_scooter"}, {"fusion_lon": 0.0, "name": "ce7ad1f93ceab30645377a6d9ca8a43f", "rental_uris": {"android": "https://dc.lft.to/lastmile_qr_scan", "ios": "https://dc.lft.to/lastmile_qr_scan"}, "lat": 38.90972283333333, "bike_id": "ce7ad1f93ceab30645377a6d9ca8a43f", "is_disabled": 0, "lon": -77.03425633333333, "is_reserved": 0, "fusion_lat": 0.0, "type": "electric_scooter"},