{"data": {"bikes": [{"fusion_lon": 0.0, "bike_id": "4d76bd314214a5b2e99c7318cdfbbc7c", "is_disabled": 0, "is_reserved": 0, "lat": 38.94202966666667, "name": "4d76bd314214a5b2e99c7318cdfbbc7c", "rental_uris": {"ios": "https://dc.lft.to/lastmile_qr_scan", "android": "https://dc.lft.to/lastmile_qr_scan"}, "type": "electric_scooter", "fusion_lat": 0.0, "lon": -77.025027}, {"fusion_lon": 0.0, "bike_id": "acebbf6623966785eaa8a59af0b69d09", "is_disabled": 0, "is_reserved": 0, "lat": 38.9397475, "name": "acebbf6623966785eaa8a59af0b69d09", "rental_uris": {"ios": "https://dc.lft.to/lastmile_qr_scan", "android": "https://dc.lft.to/lastmile_qr_scan"}, "type": "electric_scooter", "fusion_lat": 0.0, "lon": -77.02944833333333}, {"fusion_lon": 0.0, "bike_id": "4ccb0652e3900cc638d8e6cf80729f35", "is_disabled": 0, "is_reserved": 0, "lat": 38.886045833333334, "name": "4ccb0652e3900cc638d8e6cf80729f35", "rental_uris": {"ios": "https://dc.lft.to/lastmile_qr_scan", "android": "https://dc.lft.to/lastmile_qr_scan"}, "type": "electric_scooter", "fusion_lat": 0.0, "lon": -77.021805}, {"fusion_lon": 0.0, "bike_id": "eb69c1bf9b495ef7eff58e86e57f8efc", "is_disabled": 0, "is_reserved": 0, "lat": 38.9097665, "name": "eb69c1bf9b495ef7eff58e86e57f8efc", "rental_uris": {"ios": "https://dc.lft.to/lastmile_qr_scan", "android": "https://dc.lft.to/lastmile_qr_scan"}, "type": "electric_scooter", "fusion_lat": 0.0, "lon": -77.04874916666667}, {"fusion_lon": 0.0, "bike_id": "be2ee906190474637acb8428d103464e", "is_disabled": 0, "is_reserved": 0, "lat": 38.904810166666664, "name": "be2ee906190474637acb8428d103464e", "rental_uris": {"ios": "https://dc.lft.to/lastmile_qr_scan", "android": "https://dc.lft.to/lastmile_qr_scan"}, "type": "electric_scooter", "fusion_lat": 0.0, "lon": -77.06002716666667}, {"fusion_lon": 0.0, "bike_id": "bc232aebc0eaa45c3d57380f346a92ce", "is_disabled": 0, "is_reserved": 0, "lat": 38.91193166666667, "name": "bc232aebc0eaa45c3d57380f346a92ce", "rental_uris": {"ios": "https://dc.lft.to/lastmile_qr_scan", "android": "https://dc.lft.to/lastmile_qr_scan"}, "type": "electric_scooter", "fusion_lat": 0.0, "lon": -77.007867}, {"fusion_lon": 0.0, "bike_id": "cb5a4c8c8bb44039e17e60ffd102b1eb", "is_disabled": 0, "is_reserved": 0, "lat": 38.924862833333336, "name": "cb5a4c8c8bb44039e17e60ffd102b1eb", "rental_uris": {"ios": "https://dc.lft.to/lastmile_qr_scan", "android": "https://dc.lft.to/lastmile_qr_scan"}, "type": "electric_scooter", "fusion_lat": 0.0, "lon": -77.0350545}, {"fusion_lon": 0.0, "bike_id": "d2e6eba2c20e361caab39f5f2d060917", "is_disabled": 0, "is_reserved": 0, "lat": 38.89867483333333, "name": "d2e6eba2c20e361caab39f5f2d060917", "rental_uris": {"ios": "https://dc.lft.to/lastmile_qr_scan", "android": "https://dc.lft.to/lastmile_qr_scan"}, "type": "electric_scooter", "fusion_lat": 0.0, "lon": -77.02580683333333}, {"fusion_lon": 0.0, "bike_id": "9acc4e6141ea60d3abd9e5fdc4027631", "is_disabled": 0, "is_reserved": 0, "lat": 38.9159885, "name": "9acc4e6141ea60d3abd9e5fdc4027631", "rental_uris": {"ios": "https://dc.lft.to/lastmile_qr_scan", "android": "https://dc.lft.to/lastmile_qr_scan"}, "type": "electric_scooter", "fusion_lat": 0.0, "lon": -77.01136483333333}, {"fusion_lon": 0.0, "bike_id": "2fc2cbc9ba806a6fb4b134674227c0d3", "is_disabled": 0, "is_reserved": 0, "lat": 38.928195333333335, "name": "2fc2cbc9ba806a6fb4b134674227c0d3", "rental_uris": {"ios": "https://dc.lft.to/lastmile_qr_scan", "android": "https://dc.lft.to/lastmile_qr_scan"}, "type": "electric_scooter", "fusion_lat": 0.0, "lon": -77.02155883333333}, {"fusion_lon": 0.0, "bike_id": "b23758e2c83cd9fb902a9737b2d7c2fe", "is_disabled": 0, "is_reserved": 0, "lat": 38.92722416666667, "name": "b23758e2c83cd9fb902a9737b2d7c2fe", "rental_uris": {"ios": "https://dc.lft.to/lastmile_qr_scan", "android": "https://dc.lft.to/lastmile_qr_scan"}, "type": "electric_scooter", "fusion_lat": 0.0, "lon": -77.022799}, {"fusion_lon": 0.0, "bike_id": "73a4cd91d6ebde94e2925122c9b5aabf", "is_disabled": 0, "is_reserved": 0, "lat": 38.924259166666666, "name": "73a4cd91d6ebde94e2925122c9b5aabf", "rental_uris": {"ios": "https://dc.lft.to/lastmile_qr_scan", "android": "https://dc.lft.to/lastmile_qr_scan"}, "type": "electric_scooter", "fusion_lat": 0.0, "lon": -77.04044316666666}, {"fusion_lon": 0.0, "bike_id": "66d9730cfcce88ab99580e29ddcdbb14", "is_disabled": 0, "is_reserved": 0, "lat": 38.9102535, "name": "66d9730cfcce88ab99580e29ddcdbb14", "rental_uris": {"ios": "https://dc.lft.to/lastmile_qr_scan", "android": "https://dc.lft.to/lastmile_qr_scan"}, "type": "electric_scooter", "fusion_lat": 0.0, "lon": -77.029399}, {"fusion_lon": 0.0, "bike_id": "53d1ea5ff3101b37c281065fdabe11b1", "is_disabled": 0, "is_reserved": 0, "lat": 38.92746533333333, "name": "53d1ea5ff3101b37c281065fdabe11b1", "rental_uris": {"ios": "https://dc.lft.to/lastmile_qr_scan", "android": "https://dc.lft.to/lastmile_qr_scan"}, "type": "electric_scooter", "fusion_lat": 0.0, "lon": -77.02220966666667}, {"fusion_lon": 0.0, "bike_id": "7f3488c05d6046badb37aef4073131b3", "is_disabled": 0, "is_reserved": 0, "lat": 38.89904583333333, "name": "7f3488c05d6046badb37aef4073131b3", "rental_uris": {"ios": "https://dc.lft.to/lastmile_qr_scan", "android": "https://dc.lft.to/lastmile_qr_scan"}, "type": "electric_scooter", "fusion_lat": 0.0, "lon": -77.0034245}, {"fusion_lon": 0.0, "bike_id": "0c95bf8c0120f2275038b31e6c29e7bf", "is_disabled": 0, "is_reserved": 0, "lat": 38.91759616666667, "name": "0c95bf8c0120f2275038b31e6c29e7bf", "rental_uris": {"ios": "https://dc.lft.to/lastmile_qr_scan", "android": "https://dc.lft.to/lastmile_qr_scan"}, "type": "electric_scooter", "fusion_lat": 0.0, "lon": -77.04001916666667}, {"fusion_lon": 0.0, "bike_id": "a36c16adb157b32dd971864e0e410a9b", "is_disabled": 0, "is_reserved": 0, "lat": 38.919048333333336, "name": "a36c16adb157b32dd971864e0e410a9b", "rental_uris": {"ios": "https://dc.lft.to/lastmile_qr_scan", "android": "https://dc.lft.to/lastmile_qr_scan"}, "type": "electric_scooter", "fusion_lat": 0.0, "lon": -77.03526083333334}, {"fusion_lon": 0.0, "bike_id": "02bd00bcbbd7d2b2084b1d83b3eb881f", "is_disabled": 0, "is_reserved": 0, "lat": 38.91310883333333, "name": "02bd00bcbbd7d2b2084b1d83b3eb881f", "rental_uris": {"ios": "https://dc.lft.to/lastmile_qr_scan", "android": "https://dc.lft.to/lastmile_qr_scan"}, "type": "electric_scooter", "fusion_lat": 0.0, "lon": -77.03458116666667}, {"fusion_lon": 0.0, "bike_id": "a4892bdcd92df90ec6d0189e2d9d8385", "is_disabled": 0, "is_reserved": 0, "lat": 38.92124916666667, "name": "a4892bdcd92df90ec6d0189e2d9d8385", "rental_uris": {"ios": "https://dc.lft.to/lastmile_qr_scan", "android": "https://dc.lft.to/lastmile_qr_scan"}, "type": "electric_scooter", "fusion_lat": 0.0, "lon": -77.02114883333333}, {"fusion_lon": 0.0, "bike_id": "6ace573af74953dea0a86f1413deaa8b", "is_disabled": 0, "is_reserved": 0, "lat": 38.9157075, "name": "6ace573af74953dea0a86f1413deaa8b", "rental_uris": {"ios": "https://dc.lft.to/lastmile_qr_scan", "android": "https://dc.lft.to/lastmile_qr_scan"}, "type": "electric_scooter", "fusion_lat": 0.0, "lon": -77.02177866666666}, {"fusion_lon": 0.0, "bike_id": "312c09e30306ef9286e04a5c8cee28e2", "is_disabled": 0, "is_reserved": 0, "lat": 38.9043685, "name": "312c09e30306ef9286e04a5c8cee28e2", "rental_uris": {"ios": "https://dc.lft.to/lastmile_qr_scan", "android": "https://dc.lft.to/lastmile_qr_scan"}, "type": "electric_scooter", "fusion_lat": 0.0, "lon": -76.996977}, {"fusion_lon": 0.0, "bike_id": "858c237d0b211c0d65a0e4626c20597b", "is_disabled": 0, "is_reserved": 0, "lat": 38.87544116666667, "name": "858c237d0b211c0d65a0e4626c20597b", "rental_uris": {"ios": "https://dc.lft.to/lastmile_qr_scan", "android": "https://dc.lft.to/lastmile_qr_scan"}, "type": "electric_scooter", "fusion_lat": 0.0, "lon": -77.0088015}, {"fusion_lon": 0.0, "bike_id": "a145ab89cefc6b8c9a168d9e364dd1ab", "is_disabled": 0, "is_reserved": 0, "lat": 38.924468166666664, "name": "a145ab89cefc6b8c9a168d9e364dd1ab", "rental_uris": {"ios": "https://dc.lft.to/lastmile_qr_scan", "android": "https://dc.lft.to/lastmile_qr_scan"}, "type": "electric_scooter", "fusion_lat": 0.0, "lon": -77.0203425}, {"fusion_lon": 0.0, "bike_id": "02ffa8b6acd9885934bd0abe1539d896", "is_disabled": 0, "is_reserved": 0, "lat": 38.902794666666665, "name": "02ffa8b6acd9885934bd0abe1539d896", "rental_uris": {"ios": "https://dc.lft.to/lastmile_qr_scan", "android": "https://dc.lft.to/lastmile_qr_scan"}, "type": "electric_scooter", "fusion_lat": 0.0, "lon": -77.02822566666667}, {"fusion_lon": 0.0, "bike_id": "7f939d0dcf5cd9838b9be72c43ec9a2c", "is_disabled": 0, "is_reserved": 0, "lat": 38.91610633333333, "name": "7f939d0dcf5cd9838b9be72c43ec9a2c", "rental_uris": {"ios": "https://dc.lft.to/lastmile_qr_scan", "android": "https://dc.lft.to/lastmile_qr_scan"}, "type": "electric_scooter", "fusion_lat": 0.0, "lon": -77.03211783333333}, {"fusion_lon": 0.0, "bike_id": "0e40f705ee8ff2ee36e48fc3d8149153", "is_disabled": 0, "is_reserved": 0, "lat": 38.92115066666667, "name": "0e40f705ee8ff2ee36e48fc3d8149153", "rental_uris": {"ios": "https://dc.lft.to/lastmile_qr_scan", "android": "https://dc.lft.to/lastmile_qr_scan"}, "type": "electric_scooter", "fusion_lat": 0.0, "lon": -77.03927283333333}, {"fusion_lon": 0.0, "bike_id": "b7e584631ae27100517b4f31a7fc61a0", "is_disabled": 0, "is_reserved": 0, "lat": 38.92479316666667, "name": "b7e584631ae27100517b4f31a7fc61a0", "rental_uris": {"ios": "https://dc.lft.to/lastmile_qr_scan", "android": "https://dc.lft.to/lastmile_qr_scan"}, "type": "electric_scooter", "fusion_lat": 0.0, "lon": -77.02203283333333}, {"fusion_lon": 0.0, "bike_id": "6f384cdee5089200034b7df8980ac960", "is_disabled": 0, "is_reserved": 0, "lat": 38.91565583333333, "name": "6f384cdee5089200034b7df8980ac960", "rental_uris": {"ios": "https://dc.lft.to/lastmile_qr_scan", "android": "https://dc.lft.to/lastmile_qr_scan"}, "type": "electric_scooter", "fusion_lat": 0.0, "lon": -77.007005}, {"fusion_lon": 0.0, "bike_id": "f36efb9810755876256b3c17f7c36aa0", "is_disabled": 0, "is_reserved": 0, "lat": 38.9156365, "name": "f36efb9810755876256b3c17f7c36aa0", "rental_uris": {"ios": "https://dc.lft.to/lastmile_qr_scan", "android": "https://dc.lft.to/lastmile_qr_scan"}, "type": "electric_scooter", "fusion_lat": 0.0, "lon": -77.03343483333333}, {"fusion_lon": 0.0, "bike_id": "bcafaa50f3a035821b9f2f67a8cf810d", "is_disabled": 0, "is_reserved": 0, "lat": 38.92052116666667, "name": "bcafaa50f3a035821b9f2f67a8cf810d", "rental_uris": {"ios": "https://dc.lft.to/lastmile_qr_scan", "android": "https://dc.lft.to/lastmile_qr_scan"}, "type": "electric_scooter", "fusion_lat": 0.0, "lon": -77.01669983333333}, {"fusion_lon": 0.0, "bike_id": "a17395b89d3df70298bdc5b7cc3c6a6a", "is_disabled": 0, "is_reserved": 0, "lat": 38.871643166666665, "name": "a17395b89d3df70298bdc5b7cc3c6a6a", "rental_uris": {"ios": "https://dc.lft.to/lastmile_qr_scan", "android": "https://dc.lft.to/lastmile_qr_scan"}, "type": "electric_scooter", "fusion_lat": 0.0, "lon": -77.00636033333333}, {"fusion_lon": 0.0, "bike_id": "e7242321c491962e64246bb1ca4d21c2", "is_disabled": 0, "is_reserved": 0, "lat": 38.8327205, "name": "e7242321c491962e64246bb1ca4d21c2", "rental_uris": {"ios": "https://dc.lft.to/lastmile_qr_scan", "android": "https://dc.lft.to/lastmile_qr_scan"}, "type": "electric_bike", "fusion_lat": 0.0, "lon": -77.0837005}, {"fusion_lon": 0.0, "bike_id": "5aae60eac8b1f96dc1735b6a36a88b96", "is_disabled": 0, "is_reserved": 0, "lat": 38.938509333333336, "name": "5aae60eac8b1f96dc1735b6a36a88b96", "rental_uris": {"ios": "https://dc.lft.to/lastmile_qr_scan", "android": "https://dc.lft.to/lastmile_qr_scan"}, "type": "electric_scooter", "fusion_lat": 0.0, "lon": -77.07460783333333}, {"fusion_lon": 0.0, "bike_id": "dc4b09cefb7faf405b06a5266e70f823", "is_disabled": 0, "is_reserved": 0, "lat": 38.930328333333335, "name": "dc4b09cefb7faf405b06a5266e70f823", "rental_uris": {"ios": "https://dc.lft.to/lastmile_qr_scan", "android": "https://dc.lft.to/lastmile_qr_scan"}, "type": "electric_scooter", "fusion_lat": 0.0, "lon": -77.03810483333334}, {"fusion_lon": 0.0, "bike_id": "8e42454616355031f79373d2c5dabdf4", "is_disabled": 0, "is_reserved": 0, "lat": 38.90167683333333, "name": "8e42454616355031f79373d2c5dabdf4", "rental_uris": {"ios": "https://dc.lft.to/lastmile_qr_scan", "android": "https://dc.lft.to/lastmile_qr_scan"}, "type": "electric_scooter", "fusion_lat": 0.0, "lon": -76.984524}, {"fusion_lon": 0.0, "bike_id": "10749c2d48f2b91e98c2d1a5719d1fd8", "is_disabled": 0, "is_reserved": 0, "lat": 38.9352195, "name": "10749c2d48f2b91e98c2d1a5719d1fd8", "rental_uris": {"ios": "https://dc.lft.to/lastmile_qr_scan", "android": "https://dc.lft.to/lastmile_qr_scan"}, "type": "electric_scooter", "fusion_lat": 0.0, "lon": -77.0336805}, {"fusion_lon": 0.0, "bike_id": "eb996266cb885dd1362791cf8768575c", "is_disabled": 0, "is_reserved": 0, "lat": 38.918908, "name": "eb996266cb885dd1362791cf8768575c", "rental_uris": {"ios": "https://dc.lft.to/lastmile_qr_scan", "android": "https://dc.lft.to/lastmile_qr_scan"}, "type": "electric_scooter", "fusion_lat": 0.0, "lon": -77.035141}, {"fusion_lon": 0.0, "bike_id": "01b121a447df8b7441f11bbd244b84d8", "is_disabled": 0, "is_reserved": 0, "lat": 38.87547133333333, "name": "01b121a447df8b7441f11bbd244b84d8", "rental_uris": {"ios": "https://dc.lft.to/lastmile_qr_scan", "android": "https://dc.lft.to/lastmile_qr_scan"}, "type": "electric_scooter", "fusion_lat": 0.0, "lon": -77.00535716666667}, {"fusion_lon": 0.0, "bike_id": "c1e7287ca3788b0a8412893a67c96b19", "is_disabled": 0, "is_reserved": 0, "lat": 38.91467566666667, "name": "c1e7287ca3788b0a8412893a67c96b19", "rental_uris": {"ios": "https://dc.lft.to/lastmile_qr_scan", "android": "https://dc.lft.to/lastmile_qr_scan"}, "type": "electric_scooter", "fusion_lat": 0.0, "lon": -77.00209733333334}, {"fusion_lon": 0.0, "bike_id": "1d50d72258ac5bb4c2c8f40bd466fdcd", "is_disabled": 0, "is_reserved": 0, "lat": 38.973663, "name": "1d50d72258ac5bb4c2c8f40bd466fdcd", "rental_uris": {"ios": "https://dc.lft.to/lastmile_qr_scan", "android": "https://dc.lft.to/lastmile_qr_scan"}, "type": "electric_scooter", "fusion_lat": 0.0, "lon": -77.01867766666666}, {"fusion_lon": 0.0, "bike_id": "b27894f9c2132d378416049143a51424", "is_disabled": 0, "is_reserved": 0, "lat": 38.933163666666665, "name": "b27894f9c2132d378416049143a51424", "rental_uris": {"ios": "https://dc.lft.to/lastmile_qr_scan", "android": "https://dc.lft.to/lastmile_qr_scan"}, "type": "electric_scooter", "fusion_lat": 0.0, "lon": -77.034353}, {"fusion_lon": 0.0, "bike_id": "c47d30e993f8df0b3f3f266d16a09861", "is_disabled": 0, "is_reserved": 0, "lat": 38.95264483333333, "name": "c47d30e993f8df0b3f3f266d16a09861", "rental_uris": {"ios": "https://dc.lft.to/lastmile_qr_scan", "android": "https://dc.lft.to/lastmile_qr_scan"}, "type": "electric_scooter", "fusion_lat": 0.0, "lon": -77.017674}, {"fusion_lon": 0.0, "bike_id": "46883093009a815f495a10f17f1ac89a", "is_disabled": 0, "is_reserved": 0, "lat": 38.9674145, "name": "46883093009a815f495a10f17f1ac89a", "rental_uris": {"ios": "https://dc.lft.to/lastmile_qr_scan", "android": "https://dc.lft.to/lastmile_qr_scan"}, "type": "electric_bike", "fusion_lat": 0.0, "lon": -76.96044533333334}, {"fusion_lon": 0.0, "bike_id": "519fb12f09dbb0793b69d861cc5c53b6", "is_disabled": 0, "is_reserved": 0, "lat": 38.90741533333333, "name": "519fb12f09dbb0793b69d861cc5c53b6", "rental_uris": {"ios": "https://dc.lft.to/lastmile_qr_scan", "android": "https://dc.lft.to/lastmile_qr_scan"}, "type": "electric_scooter", "fusion_lat": 0.0, "lon": -77.021848}, {"fusion_lon": 0.0, "bike_id": "f7e313231249d142b6d2b583cf196602", "is_disabled": 0, "is_reserved": 0, "lat": 38.956085, "name": "f7e313231249d142b6d2b583cf196602", "rental_uris": {"ios": "https://dc.lft.to/lastmile_qr_scan", "android": "https://dc.lft.to/lastmile_qr_scan"}, "type": "electric_scooter", "fusion_lat": 0.0, "lon": -77.080349}, {"fusion_lon": 0.0, "bike_id": "7c08e2de365de848986b74bc9bb2bb8a", "is_disabled": 0, "is_reserved": 0, "lat": 38.872607333333335, "name": "7c08e2de365de848986b74bc9bb2bb8a", "rental_uris": {"ios": "https://dc.lft.to/lastmile_qr_scan", "android": "https://dc.lft.to/lastmile_qr_scan"}, "type": "electric_bike", "fusion_lat": 0.0, "lon": -76.975618}, {"fusion_lon": 0.0, "bike_id": "b1d2f740578b3db3d1111a32a14c4b71", "is_disabled": 0, "is_reserved": 0, "lat": 38.92418883333333, "name": "b1d2f740578b3db3d1111a32a14c4b71", "rental_uris": {"ios": "https://dc.lft.to/lastmile_qr_scan", "android": "https://dc.lft.to/lastmile_qr_scan"}, "type": "electric_bike", "fusion_lat": 0.0, "lon": -77.05050866666667}, {"fusion_lon": 0.0, "bike_id": "db80d3c209842d19048ecbbfd3a995cc", "is_disabled": 0, "is_reserved": 0, "lat": 38.909304666666664, "name": "db80d3c209842d19048ecbbfd3a995cc", "rental_uris": {"ios": "https://dc.lft.to/lastmile_qr_scan", "android": "https://dc.lft.to/lastmile_qr_scan"}, "type": "electric_scooter", "fusion_lat": 0.0, "lon": -77.04213883333334}, {"fusion_lon": 0.0, "bike_id": "013697b72a28149e75cb744dd4038be8", "is_disabled": 0, "is_reserved": 0, "lat": 38.86330533333334, "name": "013697b72a28149e75cb744dd4038be8", "rental_uris": {"ios": "https://dc.lft.to/lastmile_qr_scan", "android": "https://dc.lft.to/lastmile_qr_scan"}, "type": "electric_bike", "fusion_lat": 0.0, "lon": -76.987153}, {"fusion_lon": 0.0, "bike_id": "20f6acbc2f7c50adeb1ed4a17a4b9c65", "is_disabled": 0, "is_reserved": 0, "lat": 38.91777666666667, "name": "20f6acbc2f7c50adeb1ed4a17a4b9c65", "rental_uris": {"ios": "https://dc.lft.to/lastmile_qr_scan", "android": "https://dc.lft.to/lastmile_qr_scan"}, "type": "electric_scooter", "fusion_lat": 0.0, "lon": -77.03178233333334}, {"fusion_lon": 0.0, "bike_id": "afd3671995dbb67a982120b67e025f34", "is_disabled": 0, "is_reserved": 0, "lat": 38.9176895, "name": "afd3671995dbb67a982120b67e025f34", "rental_uris": {"ios": "https://dc.lft.to/lastmile_qr_scan", "android": "https://dc.lft.to/lastmile_qr_scan"}, "type": "electric_scooter", "fusion_lat": 0.0, "lon": -77.00360133333334}, {"fusion_lon": 0.0, "bike_id": "1cb34ddffb38e9ecbf16c736284aa62b", "is_disabled": 0, "is_reserved": 0, "lat": 38.804823999999996, "name": "1cb34ddffb38e9ecbf16c736284aa62b", "rental_uris": {"ios": "https://dc.lft.to/lastmile_qr_scan", "android": "https://dc.lft.to/lastmile_qr_scan"}, "type": "electric_bike", "fusion_lat": 0.0, "lon": -76.99101633333333}, {"fusion_lon": 0.0, "bike_id": "3f34088f5816f8cacc73beb9a0a492d5", "is_disabled": 0, "is_reserved": 0, "lat": 38.948966666666664, "name": "3f34088f5816f8cacc73beb9a0a492d5", "rental_uris": {"ios": "https://dc.lft.to/lastmile_qr_scan", "android": "https://dc.lft.to/lastmile_qr_scan"}, "type": "electric_scooter", "fusion_lat": 0.0, "lon": -77.0185395}, {"fusion_lon": 0.0, "bike_id": "78d298ca73ff5150707e18d64295846c", "is_disabled": 0, "is_reserved": 0, "lat": 38.88148566666667, "name": "78d298ca73ff5150707e18d64295846c", "rental_uris": {"ios": "https://dc.lft.to/lastmile_qr_scan", "android": "https://dc.lft.to/lastmile_qr_scan"}, "type": "electric_bike", "fusion_lat": 0.0, "lon": -77.01297483333333}, {"fusion_lon": 0.0, "bike_id": "1e05c28d1bf4b9fe7538410a61e3d71d", "is_disabled": 0, "is_reserved": 0, "lat": 38.922500166666666, "name": "1e05c28d1bf4b9fe7538410a61e3d71d", "rental_uris": {"ios": "https://dc.lft.to/lastmile_qr_scan", "android": "https://dc.lft.to/lastmile_qr_scan"}, "type": "electric_scooter", "fusion_lat": 0.0, "lon": -77.008323}, {"fusion_lon": 0.0, "bike_id": "ad7a545d0bd2ccc22e9935029c0ed2e0", "is_disabled": 0, "is_reserved": 0, "lat": 38.95362383333333, "name": "ad7a545d0bd2ccc22e9935029c0ed2e0", "rental_uris": {"ios": "https://dc.lft.to/lastmile_qr_scan", "android": "https://dc.lft.to/lastmile_qr_scan"}, "type": "electric_bike", "fusion_lat": 0.0, "lon": -76.98096266666667}, {"fusion_lon": 0.0, "bike_id": "529e6f879cf09622b1ab944c4317935e", "is_disabled": 0, "is_reserved": 0, "lat": 38.90264366666667, "name": "529e6f879cf09622b1ab944c4317935e", "rental_uris": {"ios": "https://dc.lft.to/lastmile_qr_scan", "android": "https://dc.lft.to/lastmile_qr_scan"}, "type": "electric_scooter", "fusion_lat": 0.0, "lon": -77.04660616666666}, {"fusion_lon": 0.0, "bike_id": "2891df8bc6a561a5f39345b44dab71b5", "is_disabled": 0, "is_reserved": 0, "lat": 38.88185633333333, "name": "2891df8bc6a561a5f39345b44dab71b5", "rental_uris": {"ios": "https://dc.lft.to/lastmile_qr_scan", "android": "https://dc.lft.to/lastmile_qr_scan"}, "type": "electric_scooter", "fusion_lat": 0.0, "lon": -77.020912}, {"fusion_lon": 0.0, "bike_id": "cdeb80c9d7e763154d6881a4f71c2653", "is_disabled": 0, "is_reserved": 0, "lat": 38.921225, "name": "cdeb80c9d7e763154d6881a4f71c2653", "rental_uris": {"ios": "https://dc.lft.to/lastmile_qr_scan", "android": "https://dc.lft.to/lastmile_qr_scan"}, "type": "electric_scooter", "fusion_lat": 0.0, "lon": -77.03659866666666}, {"fusion_lon": 0.0, "bike_id": "2d93ed4ac18643e6f4f658a0c4c786d5", "is_disabled": 0, "is_reserved": 0, "lat": 38.908647333333334, "name": "2d93ed4ac18643e6f4f658a0c4c786d5", "rental_uris": {"ios": "https://dc.lft.to/lastmile_qr_scan", "android": "https://dc.lft.to/lastmile_qr_scan"}, "type": "electric_scooter", "fusion_lat": 0.0, "lon": -77.01836066666667}, {"fusion_lon": 0.0, "bike_id": "5089ec6cf421ff872952e9f6cf69e6f3", "is_disabled": 0, "is_reserved": 0, "lat": 38.894922333333334, "name": "5089ec6cf421ff872952e9f6cf69e6f3", "rental_uris": {"ios": "https://dc.lft.to/lastmile_qr_scan", "android": "https://dc.lft.to/lastmile_qr_scan"}, "type": "electric_scooter", "fusion_lat": 0.0, "lon": -77.05506533333333}, {"fusion_lon": 0.0, "bike_id": "5a1d08d645a9442a720480b7d53c6a5e", "is_disabled": 0, "is_reserved": 0, "lat": 38.89243366666667, "name": "5a1d08d645a9442a720480b7d53c6a5e", "rental_uris": {"ios": "https://dc.lft.to/lastmile_qr_scan", "android": "https://dc.lft.to/lastmile_qr_scan"}, "type": "electric_scooter", "fusion_lat": 0.0, "lon": -77.031861}, {"fusion_lon": 0.0, "bike_id": "0eed3f4122ef12753786f1cdaae0ef20", "is_disabled": 0, "is_reserved": 0, "lat": 38.8916475, "name": "0eed3f4122ef12753786f1cdaae0ef20", "rental_uris": {"ios": "https://dc.lft.to/lastmile_qr_scan", "android": "https://dc.lft.to/lastmile_qr_scan"}, "type": "electric_scooter", "fusion_lat": 0.0, "lon": -76.99154933333334}, {"fusion_lon": 0.0, "bike_id": "afd0bec5121c2640f5be821f6321d6c9", "is_disabled": 0, "is_reserved": 0, "lat": 38.91876366666666, "name": "afd0bec5121c2640f5be821f6321d6c9", "rental_uris": {"ios": "https://dc.lft.to/lastmile_qr_scan", "android": "https://dc.lft.to/lastmile_qr_scan"}, "type": "electric_bike", "fusion_lat": 0.0, "lon": -77.01636133333334}, {"fusion_lon": 0.0, "bike_id": "9c01d2ad2685c5f5e1e74596ccb242a2", "is_disabled": 0, "is_reserved": 0, "lat": 38.9199835, "name": "9c01d2ad2685c5f5e1e74596ccb242a2", "rental_uris": {"ios": "https://dc.lft.to/lastmile_qr_scan", "android": "https://dc.lft.to/lastmile_qr_scan"}, "type": "electric_scooter", "fusion_lat": 0.0, "lon": -77.02170716666667}, {"fusion_lon": 0.0, "bike_id": "e544b510c2718ba715c8977f298c4ac2", "is_disabled": 0, "is_reserved": 0, "lat": 38.90063966666666, "name": "e544b510c2718ba715c8977f298c4ac2", "rental_uris": {"ios": "https://dc.lft.to/lastmile_qr_scan", "android": "https://dc.lft.to/lastmile_qr_scan"}, "type": "electric_scooter", "fusion_lat": 0.0, "lon": -77.04595016666667}, {"fusion_lon": 0.0, "bike_id": "96ac2ede378a10b1b9f8c2cb600aaa90", "is_disabled": 0, "is_reserved": 0, "lat": 38.917143833333334, "name": "96ac2ede378a10b1b9f8c2cb600aaa90", "rental_uris": {"ios": "https://dc.lft.to/lastmile_qr_scan", "android": "https://dc.lft.to/lastmile_qr_scan"}, "type": "electric_scooter", "fusion_lat": 0.0, "lon": -77.09217383333333}, {"fusion_lon": 0.0, "bike_id": "410381a4220a18771ee8940bce5f29e3", "is_disabled": 0, "is_reserved": 0, "lat": 38.92056766666666, "name": "410381a4220a18771ee8940bce5f29e3", "rental_uris": {"ios": "https://dc.lft.to/lastmile_qr_scan", "android": "https://dc.lft.to/lastmile_qr_scan"}, "type": "electric_scooter", "fusion_lat": 0.0, "lon": -76.99881416666666}, {"fusion_lon": 0.0, "bike_id": "b88822b4e770ab6fdbede62745c9bd3d", "is_disabled": 0, "is_reserved": 0, "lat": 38.9244215, "name": "b88822b4e770ab6fdbede62745c9bd3d", "rental_uris": {"ios": "https://dc.lft.to/lastmile_qr_scan", "android": "https://dc.lft.to/lastmile_qr_scan"}, "type": "electric_scooter", "fusion_lat": 0.0, "lon": -77.02158616666667}, {"fusion_lon": 0.0, "bike_id": "a065ca7267fd7991295a58863f15f118", "is_disabled": 0, "is_reserved": 0, "lat": 38.87398966666667, "name": "a065ca7267fd7991295a58863f15f118", "rental_uris": {"ios": "https://dc.lft.to/lastmile_qr_scan", "android": "https://dc.lft.to/lastmile_qr_scan"}, "type": "electric_scooter", "fusion_lat": 0.0, "lon": -77.00213766666667}, {"fusion_lon": 0.0, "bike_id": "f1f7a1ff4caf09cc9b569920cd9fd631", "is_disabled": 0, "is_reserved": 0, "lat": 38.8961625, "name": "f1f7a1ff4caf09cc9b569920cd9fd631", "rental_uris": {"ios": "https://dc.lft.to/lastmile_qr_scan", "android": "https://dc.lft.to/lastmile_qr_scan"}, "type": "electric_scooter", "fusion_lat": 0.0, "lon": -77.02559116666667}, {"fusion_lon": 0.0, "bike_id": "919602c360f727c63451101526dd812e", "is_disabled": 0, "is_reserved": 0, "lat": 38.912704166666664, "name": "919602c360f727c63451101526dd812e", "rental_uris": {"ios": "https://dc.lft.to/lastmile_qr_scan", "android": "https://dc.lft.to/lastmile_qr_scan"}, "type": "electric_scooter", "fusion_lat": 0.0, "lon": -77.02229466666667}, {"fusion_lon": 0.0, "bike_id": "75f9d02906d53ae5273d4cc581478d94", "is_disabled": 0, "is_reserved": 0, "lat": 38.901941666666666, "name": "75f9d02906d53ae5273d4cc581478d94", "rental_uris": {"ios": "https://dc.lft.to/lastmile_qr_scan", "android": "https://dc.lft.to/lastmile_qr_scan"}, "type": "electric_scooter", "fusion_lat": 0.0, "lon": -77.021867}, {"fusion_lon": 0.0, "bike_id": "554613047b2ccb6d5cf17d6a381b0e58", "is_disabled": 0, "is_reserved": 0, "lat": 38.92410116666667, "name": "554613047b2ccb6d5cf17d6a381b0e58", "rental_uris": {"ios": "https://dc.lft.to/lastmile_qr_scan", "android": "https://dc.lft.to/lastmile_qr_scan"}, "type": "electric_scooter", "fusion_lat": 0.0, "lon": -77.02717066666666}, {"fusion_lon": 0.0, "bike_id": "b4fb227fcd5152f2e1f7faf335a05816", "is_disabled": 0, "is_reserved": 0, "lat": 38.914073333333334, "name": "b4fb227fcd5152f2e1f7faf335a05816", "rental_uris": {"ios": "https://dc.lft.to/lastmile_qr_scan", "android": "https://dc.lft.to/lastmile_qr_scan"}, "type": "electric_scooter", "fusion_lat": 0.0, "lon": -77.03217083333334}, {"fusion_lon": 0.0, "bike_id": "b771e4c5c1b4843da80bde22381e64ca", "is_disabled": 0, "is_reserved": 0, "lat": 38.900729166666665, "name": "b771e4c5c1b4843da80bde22381e64ca", "rental_uris": {"ios": "https://dc.lft.to/lastmile_qr_scan", "android": "https://dc.lft.to/lastmile_qr_scan"}, "type": "electric_scooter", "fusion_lat": 0.0, "lon": -77.02691666666666}, {"fusion_lon": 0.0, "bike_id": "c9807a9fe907c98a9ef1533a8b22f8c6", "is_disabled": 0, "is_reserved": 0, "lat": 38.89910966666667, "name": "c9807a9fe907c98a9ef1533a8b22f8c6", "rental_uris": {"ios": "https://dc.lft.to/lastmile_qr_scan", "android": "https://dc.lft.to/lastmile_qr_scan"}, "type": "electric_scooter", "fusion_lat": 0.0, "lon": -76.9339415}, {"fusion_lon": 0.0, "bike_id": "26af511be3ef5709f806b082a28ab363", "is_disabled": 0, "is_reserved": 0, "lat": 38.91707733333333, "name": "26af511be3ef5709f806b082a28ab363", "rental_uris": {"ios": "https://dc.lft.to/lastmile_qr_scan", "android": "https://dc.lft.to/lastmile_qr_scan"}, "type": "electric_scooter", "fusion_lat": 0.0, "lon": -77.03125833333333}, {"fusion_lon": 0.0, "bike_id": "52be357fcc4ec54294cc3005729ab7d6", "is_disabled": 0, "is_reserved": 0, "lat": 38.912485333333336, "name": "52be357fcc4ec54294cc3005729ab7d6", "rental_uris": {"ios": "https://dc.lft.to/lastmile_qr_scan", "android": "https://dc.lft.to/lastmile_qr_scan"}, "type": "electric_scooter", "fusion_lat": 0.0, "lon": -77.04765683333333}, {"fusion_lon": 0.0, "bike_id": "ca4b3fceb20c223bf7e0b9ce46919b19", "is_disabled": 0, "is_reserved": 0, "lat": 38.921689666666666, "name": "ca4b3fceb20c223bf7e0b9ce46919b19", "rental_uris": {"ios": "https://dc.lft.to/lastmile_qr_scan", "android": "https://dc.lft.to/lastmile_qr_scan"}, "type": "electric_scooter", "fusion_lat": 0.0, "lon": -77.03187366666667}, {"fusion_lon": 0.0, "bike_id": "728100f4010c55336b6727dee56cfc7b", "is_disabled": 0, "is_reserved": 0, "lat": 38.90568483333333, "name": "728100f4010c55336b6727dee56cfc7b", "rental_uris": {"ios": "https://dc.lft.to/lastmile_qr_scan", "android": "https://dc.lft.to/lastmile_qr_scan"}, "type": "electric_scooter", "fusion_lat": 0.0, "lon": -77.0058125}, {"fusion_lon": 0.0, "bike_id": "1bae9212d28525a434767c04e6d5ea4d", "is_disabled": 0, "is_reserved": 0, "lat": 38.931172, "name": "1bae9212d28525a434767c04e6d5ea4d", "rental_uris": {"ios": "https://dc.lft.to/lastmile_qr_scan", "android": "https://dc.lft.to/lastmile_qr_scan"}, "type": "electric_scooter", "fusion_lat": 0.0, "lon": -77.0209935}, {"fusion_lon": 0.0, "bike_id": "36af01ae021831d8c26daac73cfe131e", "is_disabled": 0, "is_reserved": 0, "lat": 38.93600716666667, "name": "36af01ae021831d8c26daac73cfe131e", "rental_uris": {"ios": "https://dc.lft.to/lastmile_qr_scan", "android": "https://dc.lft.to/lastmile_qr_scan"}, "type": "electric_bike", "fusion_lat": 0.0, "lon": -77.0211735}, {"fusion_lon": 0.0, "bike_id": "d26db0fd25c44a72e225b244a59b6d22", "is_disabled": 0, "is_reserved": 0, "lat": 38.9096255, "name": "d26db0fd25c44a72e225b244a59b6d22", "rental_uris": {"ios": "https://dc.lft.to/lastmile_qr_scan", "android": "https://dc.lft.to/lastmile_qr_scan"}, "type": "electric_scooter", "fusion_lat": 0.0, "lon": -77.03349766666666}, {"fusion_lon": 0.0, "bike_id": "335024e44c7c4ccee4d6d0e73cf67f20", "is_disabled": 0, "is_reserved": 0, "lat": 38.924142333333336, "name": "335024e44c7c4ccee4d6d0e73cf67f20", "rental_uris": {"ios": "https://dc.lft.to/lastmile_qr_scan", "android": "https://dc.lft.to/lastmile_qr_scan"}, "type": "electric_scooter", "fusion_lat": 0.0, "lon": -77.020689}, {"fusion_lon": 0.0, "bike_id": "5dd2f739478e4dcd9a21056d2190d5b2", "is_disabled": 0, "is_reserved": 0, "lat": 38.90092116666667, "name": "5dd2f739478e4dcd9a21056d2190d5b2", "rental_uris": {"ios": "https://dc.lft.to/lastmile_qr_scan", "android": "https://dc.lft.to/lastmile_qr_scan"}, "type": "electric_scooter", "fusion_lat": 0.0, "lon": -77.04781683333333}, {"fusion_lon": 0.0, "bike_id": "42258e7368739c98ada09452fa782802", "is_disabled": 0, "is_reserved": 0, "lat": 38.92230933333333, "name": "42258e7368739c98ada09452fa782802", "rental_uris": {"ios": "https://dc.lft.to/lastmile_qr_scan", "android": "https://dc.lft.to/lastmile_qr_scan"}, "type": "electric_scooter", "fusion_lat": 0.0, "lon": -77.02825633333333}, {"fusion_lon": 0.0, "bike_id": "0cfa02933031b72b675bea8d142c29e0", "is_disabled": 0, "is_reserved": 0, "lat": 38.90081883333333, "name": "0cfa02933031b72b675bea8d142c29e0", "rental_uris": {"ios": "https://dc.lft.to/lastmile_qr_scan", "android": "https://dc.lft.to/lastmile_qr_scan"}, "type": "electric_scooter", "fusion_lat": 0.0, "lon": -77.01608983333334}, {"fusion_lon": 0.0, "bike_id": "c08686db673e744c90c06ddb3ac51be2", "is_disabled": 0, "is_reserved": 0, "lat": 38.94348566666667, "name": "c08686db673e744c90c06ddb3ac51be2", "rental_uris": {"ios": "https://dc.lft.to/lastmile_qr_scan", "android": "https://dc.lft.to/lastmile_qr_scan"}, "type": "electric_scooter", "fusion_lat": 0.0, "lon": -77.02597416666667}, {"fusion_lon": 0.0, "bike_id": "ff4af889abd35c3bdcbab80503a30a88", "is_disabled": 0, "is_reserved": 0, "lat": 38.942770333333335, "name": "ff4af889abd35c3bdcbab80503a30a88", "rental_uris": {"ios": "https://dc.lft.to/lastmile_qr_scan", "android": "https://dc.lft.to/lastmile_qr_scan"}, "type": "electric_scooter", "fusion_lat": 0.0, "lon": -77.0292725}, {"fusion_lon": 0.0, "bike_id": "9510fd9db5b44a6fdd5be30e920c2fd8", "is_disabled": 0, "is_reserved": 0, "lat": 38.925015, "name": "9510fd9db5b44a6fdd5be30e920c2fd8", "rental_uris": {"ios": "https://dc.lft.to/lastmile_qr_scan", "android": "https://dc.lft.to/lastmile_qr_scan"}, "type": "electric_scooter", "fusion_lat": 0.0, "lon": -77.0216095}, {"fusion_lon": 0.0, "bike_id": "9504f5be360839af74552d21f10b214c", "is_disabled": 0, "is_reserved": 0, "lat": 38.912575833333335, "name": "9504f5be360839af74552d21f10b214c", "rental_uris": {"ios": "https://dc.lft.to/lastmile_qr_scan", "android": "https://dc.lft.to/lastmile_qr_scan"}, "type": "electric_scooter", "fusion_lat": 0.0, "lon": -77.014591}, {"fusion_lon": 0.0, "bike_id": "62e65dc8e67e35378cc433f7f7383230", "is_disabled": 0, "is_reserved": 0, "lat": 38.91408766666667, "name": "62e65dc8e67e35378cc433f7f7383230", "rental_uris": {"ios": "https://dc.lft.to/lastmile_qr_scan", "android": "https://dc.lft.to/lastmile_qr_scan"}, "type": "electric_scooter", "fusion_lat": 0.0, "lon": -77.03067833333333}, {"fusion_lon": 0.0, "bike_id": "577c112d203fc5fc61d85bd2ad55eed7", "is_disabled": 0, "is_reserved": 0, "lat": 38.919584666666665, "name": "577c112d203fc5fc61d85bd2ad55eed7", "rental_uris": {"ios": "https://dc.lft.to/lastmile_qr_scan", "android": "https://dc.lft.to/lastmile_qr_scan"}, "type": "electric_scooter", "fusion_lat": 0.0, "lon": -77.0259915}, {"fusion_lon": 0.0, "bike_id": "fbc8201c799ea8896bf79b274c949d7c", "is_disabled": 0, "is_reserved": 0, "lat": 38.92231533333333, "name": "fbc8201c799ea8896bf79b274c949d7c", "rental_uris": {"ios": "https://dc.lft.to/lastmile_qr_scan", "android": "https://dc.lft.to/lastmile_qr_scan"}, "type": "electric_scooter", "fusion_lat": 0.0, "lon": -77.04311883333334}, {"fusion_lon": 0.0, "bike_id": "78fc2d6fd43f7b889feb74a52e9b4439", "is_disabled": 0, "is_reserved": 0, "lat": 38.90562116666667, "name": "78fc2d6fd43f7b889feb74a52e9b4439", "rental_uris": {"ios": "https://dc.lft.to/lastmile_qr_scan", "android": "https://dc.lft.to/lastmile_qr_scan"}, "type": "electric_scooter", "fusion_lat": 0.0, "lon": -76.997942}, {"fusion_lon": 0.0, "bike_id": "b7d22985b9bebb6846d49397a7d7c6a3", "is_disabled": 0, "is_reserved": 0, "lat": 38.91679883333333, "name": "b7d22985b9bebb6846d49397a7d7c6a3", "rental_uris": {"ios": "https://dc.lft.to/lastmile_qr_scan", "android": "https://dc.lft.to/lastmile_qr_scan"}, "type": "electric_scooter", "fusion_lat": 0.0, "lon": -77.01215533333334}, {"fusion_lon": 0.0, "bike_id": "a3c63713b511446f6c45dc45bb943df1", "is_disabled": 0, "is_reserved": 0, "lat": 38.9518655, "name": "a3c63713b511446f6c45dc45bb943df1", "rental_uris": {"ios": "https://dc.lft.to/lastmile_qr_scan", "android": "https://dc.lft.to/lastmile_qr_scan"}, "type": "electric_scooter", "fusion_lat": 0.0, "lon": -77.02617766666667}, {"fusion_lon": 0.0, "bike_id": "f60d54186c9a35c0f119c86eae068936", "is_disabled": 0, "is_reserved": 0, "lat": 38.92809716666667, "name": "f60d54186c9a35c0f119c86eae068936", "rental_uris": {"ios": "https://dc.lft.to/lastmile_qr_scan", "android": "https://dc.lft.to/lastmile_qr_scan"}, "type": "electric_scooter", "fusion_lat": 0.0, "lon": -77.0363355}, {"fusion_lon": 0.0, "bike_id": "8d3dfb3fd5c1ff2053b9884324e6821d", "is_disabled": 0, "is_reserved": 0, "lat": 38.90029766666667, "name": "8d3dfb3fd5c1ff2053b9884324e6821d", "rental_uris": {"ios": "https://dc.lft.to/lastmile_qr_scan", "android": "https://dc.lft.to/lastmile_qr_scan"}, "type": "electric_scooter", "fusion_lat": 0.0, "lon": -77.03910916666666}, {"fusion_lon": 0.0, "bike_id": "5367b0efa75e3c68a418f4a973539171", "is_disabled": 0, "is_reserved": 0, "lat": 38.95154016666667, "name": "5367b0efa75e3c68a418f4a973539171", "rental_uris": {"ios": "https://dc.lft.to/lastmile_qr_scan", "android": "https://dc.lft.to/lastmile_qr_scan"}, "type": "electric_scooter", "fusion_lat": 0.0, "lon": -77.01867483333334}, {"fusion_lon": 0.0, "bike_id": "b96cba0ad3daa3ff83cb128491f7e993", "is_disabled": 0, "is_reserved": 0, "lat": 38.9261, "name": "b96cba0ad3daa3ff83cb128491f7e993", "rental_uris": {"ios": "https://dc.lft.to/lastmile_qr_scan", "android": "https://dc.lft.to/lastmile_qr_scan"}, "type": "electric_scooter", "fusion_lat": 0.0, "lon": -77.05709483333334}, {"fusion_lon": 0.0, "bike_id": "03b1a72511d875fcfcc2bb685d44f81a", "is_disabled": 0, "is_reserved": 0, "lat": 38.90200266666667, "name": "03b1a72511d875fcfcc2bb685d44f81a", "rental_uris": {"ios": "https://dc.lft.to/lastmile_qr_scan", "android": "https://dc.lft.to/lastmile_qr_scan"}, "type": "electric_scooter", "fusion_lat": 0.0, "lon": -77.05111216666667}, {"fusion_lon": 0.0, "bike_id": "abcd07d96ab115761896831408ecf91e", "is_disabled": 0, "is_reserved": 0, "lat": 38.915634, "name": "abcd07d96ab115761896831408ecf91e", "rental_uris": {"ios": "https://dc.lft.to/lastmile_qr_scan", "android": "https://dc.lft.to/lastmile_qr_scan"}, "type": "electric_scooter", "fusion_lat": 0.0, "lon": -77.03272016666666}, {"fusion_lon": 0.0, "bike_id": "698672499dbde0fa32a6e2978653aae4", "is_disabled": 0, "is_reserved": 0, "lat": 38.920622, "name": "698672499dbde0fa32a6e2978653aae4", "rental_uris": {"ios": "https://dc.lft.to/lastmile_qr_scan", "android": "https://dc.lft.to/lastmile_qr_scan"}, "type": "electric_scooter", "fusion_lat": 0.0, "lon": -77.01723183333333}, {"fusion_lon": 0.0, "bike_id": "d5569ca5263e77b2df1d706d0b7287a0", "is_disabled": 0, "is_reserved": 0, "lat": 38.923320333333336, "name": "d5569ca5263e77b2df1d706d0b7287a0", "rental_uris": {"ios": "https://dc.lft.to/lastmile_qr_scan", "android": "https://dc.lft.to/lastmile_qr_scan"}, "type": "electric_scooter", "fusion_lat": 0.0, "lon": -77.03670316666667}, {"fusion_lon": 0.0, "bike_id": "e020e43b26e3176d99add34697185233", "is_disabled": 0, "is_reserved": 0, "lat": 38.924871333333336, "name": "e020e43b26e3176d99add34697185233", "rental_uris": {"ios": "https://dc.lft.to/lastmile_qr_scan", "android": "https://dc.lft.to/lastmile_qr_scan"}, "type": "electric_scooter", "fusion_lat": 0.0, "lon": -77.05761066666666}, {"fusion_lon": 0.0, "bike_id": "192f3cfe63120eee701e004581e945b5", "is_disabled": 0, "is_reserved": 0, "lat": 38.91553233333333, "name": "192f3cfe63120eee701e004581e945b5", "rental_uris": {"ios": "https://dc.lft.to/lastmile_qr_scan", "android": "https://dc.lft.to/lastmile_qr_scan"}, "type": "electric_scooter", "fusion_lat": 0.0, "lon": -77.032174}, {"fusion_lon": 0.0, "bike_id": "d8ad9c37688b9e4c9ae358f500619fd2", "is_disabled": 0, "is_reserved": 0, "lat": 38.9002795, "name": "d8ad9c37688b9e4c9ae358f500619fd2", "rental_uris": {"ios": "https://dc.lft.to/lastmile_qr_scan", "android": "https://dc.lft.to/lastmile_qr_scan"}, "type": "electric_scooter", "fusion_lat": 0.0, "lon": -76.9984675}, {"fusion_lon": 0.0, "bike_id": "c99866cc25bfb59e8bbde5404f854a33", "is_disabled": 0, "is_reserved": 0, "lat": 38.9004205, "name": "c99866cc25bfb59e8bbde5404f854a33", "rental_uris": {"ios": "https://dc.lft.to/lastmile_qr_scan", "android": "https://dc.lft.to/lastmile_qr_scan"}, "type": "electric_scooter", "fusion_lat": 0.0, "lon": -76.98821866666667}, {"fusion_lon": 0.0, "bike_id": "95247d6f5864d76b2f97ab193af30e5e", "is_disabled": 0, "is_reserved": 0, "lat": 38.907957333333336, "name": "95247d6f5864d76b2f97ab193af30e5e", "rental_uris": {"ios": "https://dc.lft.to/lastmile_qr_scan", "android": "https://dc.lft.to/lastmile_qr_scan"}, "type": "electric_scooter", "fusion_lat": 0.0, "lon": -77.00960083333334}, {"fusion_lon": 0.0, "bike_id": "a82baa3ff19ffa88b7e574e6ff8712c3", "is_disabled": 0, "is_reserved": 0, "lat": 38.90018466666667, "name": "a82baa3ff19ffa88b7e574e6ff8712c3", "rental_uris": {"ios": "https://dc.lft.to/lastmile_qr_scan", "android": "https://dc.lft.to/lastmile_qr_scan"}, "type": "electric_scooter", "fusion_lat": 0.0, "lon": -77.04490033333333}, {"fusion_lon": 0.0, "bike_id": "5e4cd55ffbfce87669373fccc9a0c156", "is_disabled": 0, "is_reserved": 0, "lat": 38.924157, "name": "5e4cd55ffbfce87669373fccc9a0c156", "rental_uris": {"ios": "https://dc.lft.to/lastmile_qr_scan", "android": "https://dc.lft.to/lastmile_qr_scan"}, "type": "electric_scooter", "fusion_lat": 0.0, "lon": -77.03547616666667}, {"fusion_lon": 0.0, "bike_id": "61b32772cefabfbbabcfa325eb1816ad", "is_disabled": 0, "is_reserved": 0, "lat": 38.909049833333334, "name": "61b32772cefabfbbabcfa325eb1816ad", "rental_uris": {"ios": "https://dc.lft.to/lastmile_qr_scan", "android": "https://dc.lft.to/lastmile_qr_scan"}, "type": "electric_bike", "fusion_lat": 0.0, "lon": -77.08991716666667}, {"fusion_lon": 0.0, "bike_id": "e950b1543423857951e07e82d4499b2f", "is_disabled": 0, "is_reserved": 0, "lat": 38.9475335, "name": "e950b1543423857951e07e82d4499b2f", "rental_uris": {"ios": "https://dc.lft.to/lastmile_qr_scan", "android": "https://dc.lft.to/lastmile_qr_scan"}, "type": "electric_scooter", "fusion_lat": 0.0, "lon": -77.03289083333334}, {"fusion_lon": 0.0, "bike_id": "b51c4e27aa66e89bd7557fb122b3e062", "is_disabled": 0, "is_reserved": 0, "lat": 38.88881933333333, "name": "b51c4e27aa66e89bd7557fb122b3e062", "rental_uris": {"ios": "https://dc.lft.to/lastmile_qr_scan", "android": "https://dc.lft.to/lastmile_qr_scan"}, "type": "electric_scooter", "fusion_lat": 0.0, "lon": -77.00002766666667}, {"fusion_lon": 0.0, "bike_id": "fe5fa65edf79a664754b975b045665c1", "is_disabled": 0, "is_reserved": 0, "lat": 38.92021, "name": "fe5fa65edf79a664754b975b045665c1", "rental_uris": {"ios": "https://dc.lft.to/lastmile_qr_scan", "android": "https://dc.lft.to/lastmile_qr_scan"}, "type": "electric_scooter", "fusion_lat": 0.0, "lon": -77.071381}, {"fusion_lon": 0.0, "bike_id": "f9b057016ec7e74c61537ca75fba4254", "is_disabled": 0, "is_reserved": 0, "lat": 38.96129483333333, "name": "f9b057016ec7e74c61537ca75fba4254", "rental_uris": {"ios": "https://dc.lft.to/lastmile_qr_scan", "android": "https://dc.lft.to/lastmile_qr_scan"}, "type": "electric_bike", "fusion_lat": 0.0, "lon": -77.03280583333333}, {"fusion_lon": 0.0, "bike_id": "6f53da8b1b2eaa81855c5467fd9d5163", "is_disabled": 0, "is_reserved": 0, "lat": 38.91414816666666, "name": "6f53da8b1b2eaa81855c5467fd9d5163", "rental_uris": {"ios": "https://dc.lft.to/lastmile_qr_scan", "android": "https://dc.lft.to/lastmile_qr_scan"}, "type": "electric_scooter", "fusion_lat": 0.0, "lon": -77.00824683333333}, {"fusion_lon": 0.0, "bike_id": "c8bc9a13e2e3c3a505373d016025b99d", "is_disabled": 0, "is_reserved": 0, "lat": 38.92169716666667, "name": "c8bc9a13e2e3c3a505373d016025b99d", "rental_uris": {"ios": "https://dc.lft.to/lastmile_qr_scan", "android": "https://dc.lft.to/lastmile_qr_scan"}, "type": "electric_scooter", "fusion_lat": 0.0, "lon": -77.02101466666667}, {"fusion_lon": 0.0, "bike_id": "ba9890d44566d27011c1bfdcad28981a", "is_disabled": 0, "is_reserved": 0, "lat": 38.8872615, "name": "ba9890d44566d27011c1bfdcad28981a", "rental_uris": {"ios": "https://dc.lft.to/lastmile_qr_scan", "android": "https://dc.lft.to/lastmile_qr_scan"}, "type": "electric_scooter", "fusion_lat": 0.0, "lon": -76.98374683333333}, {"fusion_lon": 0.0, "bike_id": "217c91b144484e8e23a1244b180b4652", "is_disabled": 0, "is_reserved": 0, "lat": 38.90802816666667, "name": "217c91b144484e8e23a1244b180b4652", "rental_uris": {"ios": "https://dc.lft.to/lastmile_qr_scan", "android": "https://dc.lft.to/lastmile_qr_scan"}, "type": "electric_scooter", "fusion_lat": 0.0, "lon": -77.00014483333334}, {"fusion_lon": 0.0, "bike_id": "ef2e338c0aafd933a43b1c5280280401", "is_disabled": 0, "is_reserved": 0, "lat": 38.89326716666667, "name": "ef2e338c0aafd933a43b1c5280280401", "rental_uris": {"ios": "https://dc.lft.to/lastmile_qr_scan", "android": "https://dc.lft.to/lastmile_qr_scan"}, "type": "electric_scooter", "fusion_lat": 0.0, "lon": -77.0337725}, {"fusion_lon": 0.0, "bike_id": "08a42ae337b92a70cb86f6a22af6117e", "is_disabled": 0, "is_reserved": 0, "lat": 38.923318, "name": "08a42ae337b92a70cb86f6a22af6117e", "rental_uris": {"ios": "https://dc.lft.to/lastmile_qr_scan", "android": "https://dc.lft.to/lastmile_qr_scan"}, "type": "electric_scooter", "fusion_lat": 0.0, "lon": -77.008916}, {"fusion_lon": 0.0, "bike_id": "9fdc3dfeabbc208d65c8235c489fee3d", "is_disabled": 0, "is_reserved": 0, "lat": 38.903811833333336, "name": "9fdc3dfeabbc208d65c8235c489fee3d", "rental_uris": {"ios": "https://dc.lft.to/lastmile_qr_scan", "android": "https://dc.lft.to/lastmile_qr_scan"}, "type": "electric_scooter", "fusion_lat": 0.0, "lon": -77.05028733333333}, {"fusion_lon": 0.0, "bike_id": "a7113973f73f86956b43f39fe7f853e0", "is_disabled": 0, "is_reserved": 0, "lat": 38.90846033333333, "name": "a7113973f73f86956b43f39fe7f853e0", "rental_uris": {"ios": "https://dc.lft.to/lastmile_qr_scan", "android": "https://dc.lft.to/lastmile_qr_scan"}, "type": "electric_scooter", "fusion_lat": 0.0, "lon": -77.04177583333333}, {"fusion_lon": 0.0, "bike_id": "e9e200af767c5a2618446ae0f408b88a", "is_disabled": 0, "is_reserved": 0, "lat": 38.94204116666667, "name": "e9e200af767c5a2618446ae0f408b88a", "rental_uris": {"ios": "https://dc.lft.to/lastmile_qr_scan", "android": "https://dc.lft.to/lastmile_qr_scan"}, "type": "electric_scooter", "fusion_lat": 0.0, "lon": -77.02505483333333}, {"fusion_lon": 0.0, "bike_id": "b5d3a450a1bda5839ff7bc5ae1d0efa6", "is_disabled": 0, "is_reserved": 0, "lat": 38.92104833333333, "name": "b5d3a450a1bda5839ff7bc5ae1d0efa6", "rental_uris": {"ios": "https://dc.lft.to/lastmile_qr_scan", "android": "https://dc.lft.to/lastmile_qr_scan"}, "type": "electric_scooter", "fusion_lat": 0.0, "lon": -77.04702733333333}, {"fusion_lon": 0.0, "bike_id": "f34967ee99cf37b94ca839feff3f2a30", "is_disabled": 0, "is_reserved": 0, "lat": 38.897432, "name": "f34967ee99cf37b94ca839feff3f2a30", "rental_uris": {"ios": "https://dc.lft.to/lastmile_qr_scan", "android": "https://dc.lft.to/lastmile_qr_scan"}, "type": "electric_scooter", "fusion_lat": 0.0, "lon": -77.04867}, {"fusion_lon": 0.0, "bike_id": "d760b91f223d4d29a0593f27af1045ee", "is_disabled": 0, "is_reserved": 0, "lat": 38.93495516666667, "name": "d760b91f223d4d29a0593f27af1045ee", "rental_uris": {"ios": "https://dc.lft.to/lastmile_qr_scan", "android": "https://dc.lft.to/lastmile_qr_scan"}, "type": "electric_scooter", "fusion_lat": 0.0, "lon": -77.032833}, {"fusion_lon": 0.0, "bike_id": "9f3871e56a0322d0c8b999ec285e1997", "is_disabled": 0, "is_reserved": 0, "lat": 38.92364966666667, "name": "9f3871e56a0322d0c8b999ec285e1997", "rental_uris": {"ios": "https://dc.lft.to/lastmile_qr_scan", "android": "https://dc.lft.to/lastmile_qr_scan"}, "type": "electric_scooter", "fusion_lat": 0.0, "lon": -77.019553}, {"fusion_lon": 0.0, "bike_id": "35ef2f93aaca0aeffd991b9a403ef88d", "is_disabled": 0, "is_reserved": 0, "lat": 38.900599, "name": "35ef2f93aaca0aeffd991b9a403ef88d", "rental_uris": {"ios": "https://dc.lft.to/lastmile_qr_scan", "android": "https://dc.lft.to/lastmile_qr_scan"}, "type": "electric_scooter", "fusion_lat": 0.0, "lon": -77.0160585}, {"fusion_lon": 0.0, "bike_id": "a5c67745436284fa38ee7064ad70c891", "is_disabled": 0, "is_reserved": 0, "lat": 38.905070333333335, "name": "a5c67745436284fa38ee7064ad70c891", "rental_uris": {"ios": "https://dc.lft.to/lastmile_qr_scan", "android": "https://dc.lft.to/lastmile_qr_scan"}, "type": "electric_scooter", "fusion_lat": 0.0, "lon": -76.98481183333334}, {"fusion_lon": 0.0, "bike_id": "0e1ba104283e322b6af43ccd9bf675ff", "is_disabled": 0, "is_reserved": 0, "lat": 38.91073516666667, "name": "0e1ba104283e322b6af43ccd9bf675ff", "rental_uris": {"ios": "https://dc.lft.to/lastmile_qr_scan", "android": "https://dc.lft.to/lastmile_qr_scan"}, "type": "electric_scooter", "fusion_lat": 0.0, "lon": -77.0161155}, {"fusion_lon": 0.0, "bike_id": "b2ee43c9995ec60b499a550afc3e60f3", "is_disabled": 0, "is_reserved": 0, "lat": 38.92749233333333, "name": "b2ee43c9995ec60b499a550afc3e60f3", "rental_uris": {"ios": "https://dc.lft.to/lastmile_qr_scan", "android": "https://dc.lft.to/lastmile_qr_scan"}, "type": "electric_scooter", "fusion_lat": 0.0, "lon": -77.03568433333334}, {"fusion_lon": 0.0, "bike_id": "ba4d5a8b2ce6bcf259c8f83ff8d7e749", "is_disabled": 0, "is_reserved": 0, "lat": 38.8786965, "name": "ba4d5a8b2ce6bcf259c8f83ff8d7e749", "rental_uris": {"ios": "https://dc.lft.to/lastmile_qr_scan", "android": "https://dc.lft.to/lastmile_qr_scan"}, "type": "electric_scooter", "fusion_lat": 0.0, "lon": -77.0071145}, {"fusion_lon": 0.0, "bike_id": "4d8f8691cf09fe1bb04bdfa7506d1922", "is_disabled": 0, "is_reserved": 0, "lat": 38.918267, "name": "4d8f8691cf09fe1bb04bdfa7506d1922", "rental_uris": {"ios": "https://dc.lft.to/lastmile_qr_scan", "android": "https://dc.lft.to/lastmile_qr_scan"}, "type": "electric_scooter", "fusion_lat": 0.0, "lon": -77.045298}, {"fusion_lon": 0.0, "bike_id": "e4d13aedb9820e4f7b683b5825699292", "is_disabled": 0, "is_reserved": 0, "lat": 38.91191883333333, "name": "e4d13aedb9820e4f7b683b5825699292", "rental_uris": {"ios": "https://dc.lft.to/lastmile_qr_scan", "android": "https://dc.lft.to/lastmile_qr_scan"}, "type": "electric_scooter", "fusion_lat": 0.0, "lon": -77.03218233333334}, {"fusion_lon": 0.0, "bike_id": "d08e462e456d2ecfba6123ca82e84adb", "is_disabled": 0, "is_reserved": 0, "lat": 38.9025895, "name": "d08e462e456d2ecfba6123ca82e84adb", "rental_uris": {"ios": "https://dc.lft.to/lastmile_qr_scan", "android": "https://dc.lft.to/lastmile_qr_scan"}, "type": "electric_scooter", "fusion_lat": 0.0, "lon": -77.0396385}, {"fusion_lon": 0.0, "bike_id": "c540f4640f3e39dec991f945cc163bdf", "is_disabled": 0, "is_reserved": 0, "lat": 38.91817316666667, "name": "c540f4640f3e39dec991f945cc163bdf", "rental_uris": {"ios": "https://dc.lft.to/lastmile_qr_scan", "android": "https://dc.lft.to/lastmile_qr_scan"}, "type": "electric_scooter", "fusion_lat": 0.0, "lon": -77.0498145}, {"fusion_lon": 0.0, "bike_id": "35143d5b524b39a7cb9181ef2be26fcb", "is_disabled": 0, "is_reserved": 0, "lat": 38.92328583333333, "name": "35143d5b524b39a7cb9181ef2be26fcb", "rental_uris": {"ios": "https://dc.lft.to/lastmile_qr_scan", "android": "https://dc.lft.to/lastmile_qr_scan"}, "type": "electric_scooter", "fusion_lat": 0.0, "lon": -77.03916933333333}, {"fusion_lon": 0.0, "bike_id": "41741f5b791b76fcfa2de19b053c9c87", "is_disabled": 0, "is_reserved": 0, "lat": 38.900063333333335, "name": "41741f5b791b76fcfa2de19b053c9c87", "rental_uris": {"ios": "https://dc.lft.to/lastmile_qr_scan", "android": "https://dc.lft.to/lastmile_qr_scan"}, "type": "electric_scooter", "fusion_lat": 0.0, "lon": -77.01938183333333}, {"fusion_lon": 0.0, "bike_id": "8963971c8508dcf893992337bc21c318", "is_disabled": 0, "is_reserved": 0, "lat": 38.9123915, "name": "8963971c8508dcf893992337bc21c318", "rental_uris": {"ios": "https://dc.lft.to/lastmile_qr_scan", "android": "https://dc.lft.to/lastmile_qr_scan"}, "type": "electric_scooter", "fusion_lat": 0.0, "lon": -77.03836016666666}, {"fusion_lon": 0.0, "bike_id": "65dc60d108653c172ed6cdb971abfbfa", "is_disabled": 0, "is_reserved": 0, "lat": 38.876718333333336, "name": "65dc60d108653c172ed6cdb971abfbfa", "rental_uris": {"ios": "https://dc.lft.to/lastmile_qr_scan", "android": "https://dc.lft.to/lastmile_qr_scan"}, "type": "electric_bike", "fusion_lat": 0.0, "lon": -77.0143785}, {"fusion_lon": 0.0, "bike_id": "864df47bea817024e0a6c7356472018c", "is_disabled": 0, "is_reserved": 0, "lat": 38.891337666666665, "name": "864df47bea817024e0a6c7356472018c", "rental_uris": {"ios": "https://dc.lft.to/lastmile_qr_scan", "android": "https://dc.lft.to/lastmile_qr_scan"}, "type": "electric_scooter", "fusion_lat": 0.0, "lon": -76.9994385}, {"fusion_lon": 0.0, "bike_id": "6581d7432cd4c417f198e61a540dc784", "is_disabled": 0, "is_reserved": 0, "lat": 38.931968833333336, "name": "6581d7432cd4c417f198e61a540dc784", "rental_uris": {"ios": "https://dc.lft.to/lastmile_qr_scan", "android": "https://dc.lft.to/lastmile_qr_scan"}, "type": "electric_scooter", "fusion_lat": 0.0, "lon": -77.03749483333333}, {"fusion_lon": 0.0, "bike_id": "a197a52d1c935313e0c65ab65d430b4c", "is_disabled": 0, "is_reserved": 0, "lat": 38.917516, "name": "a197a52d1c935313e0c65ab65d430b4c", "rental_uris": {"ios": "https://dc.lft.to/lastmile_qr_scan", "android": "https://dc.lft.to/lastmile_qr_scan"}, "type": "electric_scooter", "fusion_lat": 0.0, "lon": -77.02386866666667}, {"fusion_lon": 0.0, "bike_id": "9ae82c573c0e7e66aa219cf95bd1a4b2", "is_disabled": 0, "is_reserved": 0, "lat": 38.967343166666666, "name": "9ae82c573c0e7e66aa219cf95bd1a4b2", "rental_uris": {"ios": "https://dc.lft.to/lastmile_qr_scan", "android": "https://dc.lft.to/lastmile_qr_scan"}, "type": "electric_scooter", "fusion_lat": 0.0, "lon": -77.025279}, {"fusion_lon": 0.0, "bike_id": "3b40d1b6e01b1fcc6e574b201db6f07a", "is_disabled": 0, "is_reserved": 0, "lat": 38.958515, "name": "3b40d1b6e01b1fcc6e574b201db6f07a", "rental_uris": {"ios": "https://dc.lft.to/lastmile_qr_scan", "android": "https://dc.lft.to/lastmile_qr_scan"}, "type": "electric_scooter", "fusion_lat": 0.0, "lon": -77.071671}, {"fusion_lon": 0.0, "bike_id": "b0a199eebbc54fadd149a95252b68a3e", "is_disabled": 0, "is_reserved": 0, "lat": 38.90515933333333, "name": "b0a199eebbc54fadd149a95252b68a3e", "rental_uris": {"ios": "https://dc.lft.to/lastmile_qr_scan", "android": "https://dc.lft.to/lastmile_qr_scan"}, "type": "electric_scooter", "fusion_lat": 0.0, "lon": -76.98396233333334}, {"fusion_lon": 0.0, "bike_id": "11e8c553c9e40be31705e8f2b1aa637a", "is_disabled": 0, "is_reserved": 0, "lat": 38.82208583333333, "name": "11e8c553c9e40be31705e8f2b1aa637a", "rental_uris": {"ios": "https://dc.lft.to/lastmile_qr_scan", "android": "https://dc.lft.to/lastmile_qr_scan"}, "type": "electric_bike", "fusion_lat": 0.0, "lon": -76.97699933333334}, {"fusion_lon": 0.0, "bike_id": "24995ebef86b39e9f7322fb919f987dd", "is_disabled": 0, "is_reserved": 0, "lat": 38.94511116666666, "name": "24995ebef86b39e9f7322fb919f987dd", "rental_uris": {"ios": "https://dc.lft.to/lastmile_qr_scan", "android": "https://dc.lft.to/lastmile_qr_scan"}, "type": "electric_bike", "fusion_lat": 0.0, "lon": -77.00671466666667}, {"fusion_lon": 0.0, "bike_id": "56c2faa1bc5a5e4dfab637db3a7db3c3", "is_disabled": 0, "is_reserved": 0, "lat": 38.877669166666664, "name": "56c2faa1bc5a5e4dfab637db3a7db3c3", "rental_uris": {"ios": "https://dc.lft.to/lastmile_qr_scan", "android": "https://dc.lft.to/lastmile_qr_scan"}, "type": "electric_scooter", "fusion_lat": 0.0, "lon": -77.01875583333333}, {"fusion_lon": 0.0, "bike_id": "ad289fed8a45e658a7782b7899da25b0", "is_disabled": 0, "is_reserved": 0, "lat": 38.9191245, "name": "ad289fed8a45e658a7782b7899da25b0", "rental_uris": {"ios": "https://dc.lft.to/lastmile_qr_scan", "android": "https://dc.lft.to/lastmile_qr_scan"}, "type": "electric_scooter", "fusion_lat": 0.0, "lon": -77.0463225}, {"fusion_lon": 0.0, "bike_id": "8eda9ccd8604f77b8f32b3adc88442e6", "is_disabled": 0, "is_reserved": 0, "lat": 38.90164016666667, "name": "8eda9ccd8604f77b8f32b3adc88442e6", "rental_uris": {"ios": "https://dc.lft.to/lastmile_qr_scan", "android": "https://dc.lft.to/lastmile_qr_scan"}, "type": "electric_scooter", "fusion_lat": 0.0, "lon": -77.05114533333334}, {"fusion_lon": 0.0, "bike_id": "51b134503c0fa34d62afd5a890fe96b0", "is_disabled": 0, "is_reserved": 0, "lat": 38.881834, "name": "51b134503c0fa34d62afd5a890fe96b0", "rental_uris": {"ios": "https://dc.lft.to/lastmile_qr_scan", "android": "https://dc.lft.to/lastmile_qr_scan"}, "type": "electric_scooter", "fusion_lat": 0.0, "lon": -77.01742633333333}, {"fusion_lon": 0.0, "bike_id": "87fb7197489cc0d681d7068ff275b130", "is_disabled": 0, "is_reserved": 0, "lat": 38.96786016666667, "name": "87fb7197489cc0d681d7068ff275b130", "rental_uris": {"ios": "https://dc.lft.to/lastmile_qr_scan", "android": "https://dc.lft.to/lastmile_qr_scan"}, "type": "electric_bike", "fusion_lat": 0.0, "lon": -76.99651183333333}, {"fusion_lon": 0.0, "bike_id": "19071c3462d10d4d4342d6352ba1b76f", "is_disabled": 0, "is_reserved": 0, "lat": 38.966914, "name": "19071c3462d10d4d4342d6352ba1b76f", "rental_uris": {"ios": "https://dc.lft.to/lastmile_qr_scan", "android": "https://dc.lft.to/lastmile_qr_scan"}, "type": "electric_scooter", "fusion_lat": 0.0, "lon": -77.03411766666666}, {"fusion_lon": 0.0, "bike_id": "ed640465b6802aa9657bc256d29747ee", "is_disabled": 0, "is_reserved": 0, "lat": 38.911081333333335, "name": "ed640465b6802aa9657bc256d29747ee", "rental_uris": {"ios": "https://dc.lft.to/lastmile_qr_scan", "android": "https://dc.lft.to/lastmile_qr_scan"}, "type": "electric_scooter", "fusion_lat": 0.0, "lon": -77.01148616666667}, {"fusion_lon": 0.0, "bike_id": "de5d28631b629073331662d497444b93", "is_disabled": 0, "is_reserved": 0, "lat": 38.90739933333333, "name": "de5d28631b629073331662d497444b93", "rental_uris": {"ios": "https://dc.lft.to/lastmile_qr_scan", "android": "https://dc.lft.to/lastmile_qr_scan"}, "type": "electric_bike", "fusion_lat": 0.0, "lon": -77.00298516666666}, {"fusion_lon": 0.0, "bike_id": "57598d8818646bcf526ac77dc2a09f40", "is_disabled": 0, "is_reserved": 0, "lat": 38.8997355, "name": "57598d8818646bcf526ac77dc2a09f40", "rental_uris": {"ios": "https://dc.lft.to/lastmile_qr_scan", "android": "https://dc.lft.to/lastmile_qr_scan"}, "type": "electric_scooter", "fusion_lat": 0.0, "lon": -76.99486616666667}, {"fusion_lon": 0.0, "bike_id": "9dd659c0b5d963b12ad7cc7e2f0e2ae3", "is_disabled": 0, "is_reserved": 0, "lat": 38.9162395, "name": "9dd659c0b5d963b12ad7cc7e2f0e2ae3", "rental_uris": {"ios": "https://dc.lft.to/lastmile_qr_scan", "android": "https://dc.lft.to/lastmile_qr_scan"}, "type": "electric_scooter", "fusion_lat": 0.0, "lon": -77.03962116666666}, {"fusion_lon": 0.0, "bike_id": "24356781cc0165b4d413020c8cb85a9e", "is_disabled": 0, "is_reserved": 0, "lat": 38.92097366666667, "name": "24356781cc0165b4d413020c8cb85a9e", "rental_uris": {"ios": "https://dc.lft.to/lastmile_qr_scan", "android": "https://dc.lft.to/lastmile_qr_scan"}, "type": "electric_scooter", "fusion_lat": 0.0, "lon": -77.02392716666667}, {"fusion_lon": 0.0, "bike_id": "9589377553c389aeeed122414e5fcb9d", "is_disabled": 0, "is_reserved": 0, "lat": 38.923254666666665, "name": "9589377553c389aeeed122414e5fcb9d", "rental_uris": {"ios": "https://dc.lft.to/lastmile_qr_scan", "android": "https://dc.lft.to/lastmile_qr_scan"}, "type": "electric_scooter", "fusion_lat": 0.0, "lon": -77.02116683333334}, {"fusion_lon": 0.0, "bike_id": "febbdf61b913bd033dc06624214f2190", "is_disabled": 0, "is_reserved": 0, "lat": 38.860863, "name": "febbdf61b913bd033dc06624214f2190", "rental_uris": {"ios": "https://dc.lft.to/lastmile_qr_scan", "android": "https://dc.lft.to/lastmile_qr_scan"}, "type": "electric_scooter", "fusion_lat": 0.0, "lon": -76.98376933333333}, {"fusion_lon": 0.0, "bike_id": "245b6bf4635b60f9e3b4e137a39973ae", "is_disabled": 0, "is_reserved": 0, "lat": 38.9052645, "name": "245b6bf4635b60f9e3b4e137a39973ae", "rental_uris": {"ios": "https://dc.lft.to/lastmile_qr_scan", "android": "https://dc.lft.to/lastmile_qr_scan"}, "type": "electric_scooter", "fusion_lat": 0.0, "lon": -77.050097}, {"fusion_lon": 0.0, "bike_id": "6b75b05d4ab4691c9f5b23dcfab7314b", "is_disabled": 0, "is_reserved": 0, "lat": 38.902687, "name": "6b75b05d4ab4691c9f5b23dcfab7314b", "rental_uris": {"ios": "https://dc.lft.to/lastmile_qr_scan", "android": "https://dc.lft.to/lastmile_qr_scan"}, "type": "electric_scooter", "fusion_lat": 0.0, "lon": -77.04227366666667}, {"fusion_lon": 0.0, "bike_id": "c8a2d65d50510fb6c4eeb4a74851db4e", "is_disabled": 0, "is_reserved": 0, "lat": 38.89489016666667, "name": "c8a2d65d50510fb6c4eeb4a74851db4e", "rental_uris": {"ios": "https://dc.lft.to/lastmile_qr_scan", "android": "https://dc.lft.to/lastmile_qr_scan"}, "type": "electric_scooter", "fusion_lat": 0.0, "lon": -77.02167166666666}, {"fusion_lon": 0.0, "bike_id": "c43d4de17dce2e213a6c51f6e46e0ba9", "is_disabled": 0, "is_reserved": 0, "lat": 38.87868316666667, "name": "c43d4de17dce2e213a6c51f6e46e0ba9", "rental_uris": {"ios": "https://dc.lft.to/lastmile_qr_scan", "android": "https://dc.lft.to/lastmile_qr_scan"}, "type": "electric_scooter", "fusion_lat": 0.0, "lon": -77.00126933333334}, {"fusion_lon": 0.0, "bike_id": "e51a6b7660ff0d93b341c6ad57071760", "is_disabled": 0, "is_reserved": 0, "lat": 38.91438766666667, "name": "e51a6b7660ff0d93b341c6ad57071760", "rental_uris": {"ios": "https://dc.lft.to/lastmile_qr_scan", "android": "https://dc.lft.to/lastmile_qr_scan"}, "type": "electric_scooter", "fusion_lat": 0.0, "lon": -77.02284816666666}, {"fusion_lon": 0.0, "bike_id": "1e099ee88c11ed2b75be9b5bef3a9ca1", "is_disabled": 0, "is_reserved": 0, "lat": 38.92742166666667, "name": "1e099ee88c11ed2b75be9b5bef3a9ca1", "rental_uris": {"ios": "https://dc.lft.to/lastmile_qr_scan", "android": "https://dc.lft.to/lastmile_qr_scan"}, "type": "electric_scooter", "fusion_lat": 0.0, "lon": -77.035658}, {"fusion_lon": 0.0, "bike_id": "3dd4ecb00f26e33dcae59cd7764cf0ba", "is_disabled": 0, "is_reserved": 0, "lat": 38.90575333333334, "name": "3dd4ecb00f26e33dcae59cd7764cf0ba", "rental_uris": {"ios": "https://dc.lft.to/lastmile_qr_scan", "android": "https://dc.lft.to/lastmile_qr_scan"}, "type": "electric_scooter", "fusion_lat": 0.0, "lon": -77.02998416666667}, {"fusion_lon": 0.0, "bike_id": "88321f66fcbcf957770c369137406f31", "is_disabled": 0, "is_reserved": 0, "lat": 38.895097166666666, "name": "88321f66fcbcf957770c369137406f31", "rental_uris": {"ios": "https://dc.lft.to/lastmile_qr_scan", "android": "https://dc.lft.to/lastmile_qr_scan"}, "type": "electric_scooter", "fusion_lat": 0.0, "lon": -76.94889716666667}, {"fusion_lon": 0.0, "bike_id": "72a543c53fe3d2ea4000a85f58f7350f", "is_disabled": 0, "is_reserved": 0, "lat": 38.87286016666667, "name": "72a543c53fe3d2ea4000a85f58f7350f", "rental_uris": {"ios": "https://dc.lft.to/lastmile_qr_scan", "android": "https://dc.lft.to/lastmile_qr_scan"}, "type": "electric_scooter", "fusion_lat": 0.0, "lon": -77.0098655}, {"fusion_lon": 0.0, "bike_id": "be9175b665f24a0c97e99f3340233f30", "is_disabled": 0, "is_reserved": 0, "lat": 38.88005883333334, "name": "be9175b665f24a0c97e99f3340233f30", "rental_uris": {"ios": "https://dc.lft.to/lastmile_qr_scan", "android": "https://dc.lft.to/lastmile_qr_scan"}, "type": "electric_scooter", "fusion_lat": 0.0, "lon": -76.99832933333333}, {"fusion_lon": 0.0, "bike_id": "4e75c7179ab2f3406919db2136b31b86", "is_disabled": 0, "is_reserved": 0, "lat": 38.899436666666666, "name": "4e75c7179ab2f3406919db2136b31b86", "rental_uris": {"ios": "https://dc.lft.to/lastmile_qr_scan", "android": "https://dc.lft.to/lastmile_qr_scan"}, "type": "electric_scooter", "fusion_lat": 0.0, "lon": -76.93765733333333}, {"fusion_lon": 0.0, "bike_id": "928d8d2cc489fb6c5b30a632e2300bf7", "is_disabled": 0, "is_reserved": 0, "lat": 38.893334333333335, "name": "928d8d2cc489fb6c5b30a632e2300bf7", "rental_uris": {"ios": "https://dc.lft.to/lastmile_qr_scan", "android": "https://dc.lft.to/lastmile_qr_scan"}, "type": "electric_scooter", "fusion_lat": 0.0, "lon": -76.99380916666667}, {"fusion_lon": 0.0, "bike_id": "a8d108ebd2942bb373551088aa2c6c0b", "is_disabled": 0, "is_reserved": 0, "lat": 38.9321135, "name": "a8d108ebd2942bb373551088aa2c6c0b", "rental_uris": {"ios": "https://dc.lft.to/lastmile_qr_scan", "android": "https://dc.lft.to/lastmile_qr_scan"}, "type": "electric_scooter", "fusion_lat": 0.0, "lon": -77.02666616666667}, {"fusion_lon": 0.0, "bike_id": "e5c006c08e344ea563b41c61c3594859", "is_disabled": 0, "is_reserved": 0, "lat": 39.034735833333336, "name": "e5c006c08e344ea563b41c61c3594859", "rental_uris": {"ios": "https://dc.lft.to/lastmile_qr_scan", "android": "https://dc.lft.to/lastmile_qr_scan"}, "type": "electric_bike", "fusion_lat": 0.0, "lon": -77.04102866666666}, {"fusion_lon": 0.0, "bike_id": "383a3117881a5b7c32bd32b5c84a841f", "is_disabled": 0, "is_reserved": 0, "lat": 38.90220883333333, "name": "383a3117881a5b7c32bd32b5c84a841f", "rental_uris": {"ios": "https://dc.lft.to/lastmile_qr_scan", "android": "https://dc.lft.to/lastmile_qr_scan"}, "type": "electric_scooter", "fusion_lat": 0.0, "lon": -77.05125533333333}, {"fusion_lon": 0.0, "bike_id": "4c53856c87f4058b5ab7589e95672b2c", "is_disabled": 0, "is_reserved": 0, "lat": 38.923195666666665, "name": "4c53856c87f4058b5ab7589e95672b2c", "rental_uris": {"ios": "https://dc.lft.to/lastmile_qr_scan", "android": "https://dc.lft.to/lastmile_qr_scan"}, "type": "electric_scooter", "fusion_lat": 0.0, "lon": -77.02912316666666}, {"fusion_lon": 0.0, "bike_id": "28bb358554f57c5a3c41ae533afbb41d", "is_disabled": 0, "is_reserved": 0, "lat": 38.92572083333334, "name": "28bb358554f57c5a3c41ae533afbb41d", "rental_uris": {"ios": "https://dc.lft.to/lastmile_qr_scan", "android": "https://dc.lft.to/lastmile_qr_scan"}, "type": "electric_scooter", "fusion_lat": 0.0, "lon": -77.03786516666666}, {"fusion_lon": 0.0, "bike_id": "cd9cb8cb4d53be3694f1229946401d88", "is_disabled": 0, "is_reserved": 0, "lat": 38.930966166666664, "name": "cd9cb8cb4d53be3694f1229946401d88", "rental_uris": {"ios": "https://dc.lft.to/lastmile_qr_scan", "android": "https://dc.lft.to/lastmile_qr_scan"}, "type": "electric_scooter", "fusion_lat": 0.0, "lon": -77.02548116666667}, {"fusion_lon": 0.0, "bike_id": "98baabf65d9ad4089a20dc5c4a3d2e1d", "is_disabled": 0, "is_reserved": 0, "lat": 38.90183733333333, "name": "98baabf65d9ad4089a20dc5c4a3d2e1d", "rental_uris": {"ios": "https://dc.lft.to/lastmile_qr_scan", "android": "https://dc.lft.to/lastmile_qr_scan"}, "type": "electric_scooter", "fusion_lat": 0.0, "lon": -76.97673383333333}, {"fusion_lon": 0.0, "bike_id": "d6dd4cada625a953889ac5912d177d13", "is_disabled": 0, "is_reserved": 0, "lat": 38.93340833333333, "name": "d6dd4cada625a953889ac5912d177d13", "rental_uris": {"ios": "https://dc.lft.to/lastmile_qr_scan", "android": "https://dc.lft.to/lastmile_qr_scan"}, "type": "electric_scooter", "fusion_lat": 0.0, "lon": -77.05714283333333}, {"fusion_lon": 0.0, "bike_id": "c2aa6851dc6f7cdb6d71ed2d069bb856", "is_disabled": 0, "is_reserved": 0, "lat": 38.91429183333333, "name": "c2aa6851dc6f7cdb6d71ed2d069bb856", "rental_uris": {"ios": "https://dc.lft.to/lastmile_qr_scan", "android": "https://dc.lft.to/lastmile_qr_scan"}, "type": "electric_scooter", "fusion_lat": 0.0, "lon": -77.032045}, {"fusion_lon": 0.0, "bike_id": "27c395541f1ecadb1c1a8eb448bbf5ca", "is_disabled": 0, "is_reserved": 0, "lat": 38.92367816666667, "name": "27c395541f1ecadb1c1a8eb448bbf5ca", "rental_uris": {"ios": "https://dc.lft.to/lastmile_qr_scan", "android": "https://dc.lft.to/lastmile_qr_scan"}, "type": "electric_scooter", "fusion_lat": 0.0, "lon": -77.0214165}, {"fusion_lon": 0.0, "bike_id": "0a5423855c5c17950d135495a469d869", "is_disabled": 0, "is_reserved": 0, "lat": 38.912660833333334, "name": "0a5423855c5c17950d135495a469d869", "rental_uris": {"ios": "https://dc.lft.to/lastmile_qr_scan", "android": "https://dc.lft.to/lastmile_qr_scan"}, "type": "electric_scooter", "fusion_lat": 0.0, "lon": -77.02229933333334}, {"fusion_lon": 0.0, "bike_id": "93566825fdeb470ca27ab2e1642f86d3", "is_disabled": 0, "is_reserved": 0, "lat": 38.9000955, "name": "93566825fdeb470ca27ab2e1642f86d3", "rental_uris": {"ios": "https://dc.lft.to/lastmile_qr_scan", "android": "https://dc.lft.to/lastmile_qr_scan"}, "type": "electric_scooter", "fusion_lat": 0.0, "lon": -77.044857}, {"fusion_lon": 0.0, "bike_id": "bf96687386552a6446cae9f9b82d50b6", "is_disabled": 0, "is_reserved": 0, "lat": 38.91405233333333, "name": "bf96687386552a6446cae9f9b82d50b6", "rental_uris": {"ios": "https://dc.lft.to/lastmile_qr_scan", "android": "https://dc.lft.to/lastmile_qr_scan"}, "type": "electric_scooter", "fusion_lat": 0.0, "lon": -77.018427}, {"fusion_lon": 0.0, "bike_id": "2c7149566026fa1c7fdb6b30159b8406", "is_disabled": 0, "is_reserved": 0, "lat": 38.897249333333335, "name": "2c7149566026fa1c7fdb6b30159b8406", "rental_uris": {"ios": "https://dc.lft.to/lastmile_qr_scan", "android": "https://dc.lft.to/lastmile_qr_scan"}, "type": "electric_scooter", "fusion_lat": 0.0, "lon": -76.9785715}, {"fusion_lon": 0.0, "bike_id": "0e4f19b1b9d50a9186816a626d756dae", "is_disabled": 0, "is_reserved": 0, "lat": 38.91478583333333, "name": "0e4f19b1b9d50a9186816a626d756dae", "rental_uris": {"ios": "https://dc.lft.to/lastmile_qr_scan", "android": "https://dc.lft.to/lastmile_qr_scan"}, "type": "electric_scooter", "fusion_lat": 0.0, "lon": -77.02185233333333}, {"fusion_lon": 0.0, "bike_id": "608a59d1098857ae19193fcbfffd4ec5", "is_disabled": 0, "is_reserved": 0, "lat": 38.93672733333333, "name": "608a59d1098857ae19193fcbfffd4ec5", "rental_uris": {"ios": "https://dc.lft.to/lastmile_qr_scan", "android": "https://dc.lft.to/lastmile_qr_scan"}, "type": "electric_scooter", "fusion_lat": 0.0, "lon": -77.03279666666667}, {"fusion_lon": 0.0, "bike_id": "498e107befdcf0da6f13662aeacb83b1", "is_disabled": 0, "is_reserved": 0, "lat": 38.92556, "name": "498e107befdcf0da6f13662aeacb83b1", "rental_uris": {"ios": "https://dc.lft.to/lastmile_qr_scan", "android": "https://dc.lft.to/lastmile_qr_scan"}, "type": "electric_scooter", "fusion_lat": 0.0, "lon": -77.041819}, {"fusion_lon": 0.0, "bike_id": "56cfe16ef963e09fad74c14935191812", "is_disabled": 0, "is_reserved": 0, "lat": 38.922393666666665, "name": "56cfe16ef963e09fad74c14935191812", "rental_uris": {"ios": "https://dc.lft.to/lastmile_qr_scan", "android": "https://dc.lft.to/lastmile_qr_scan"}, "type": "electric_scooter", "fusion_lat": 0.0, "lon": -77.03353116666666}, {"fusion_lon": 0.0, "bike_id": "40d150e29f289b861868dd7a1f5d8cca", "is_disabled": 0, "is_reserved": 0, "lat": 38.90078, "name": "40d150e29f289b861868dd7a1f5d8cca", "rental_uris": {"ios": "https://dc.lft.to/lastmile_qr_scan", "android": "https://dc.lft.to/lastmile_qr_scan"}, "type": "electric_scooter", "fusion_lat": 0.0, "lon": -77.04794916666667}, {"fusion_lon": 0.0, "bike_id": "b102c70b3425e7c49814e57b2c9a40cb", "is_disabled": 0, "is_reserved": 0, "lat": 38.906526666666664, "name": "b102c70b3425e7c49814e57b2c9a40cb", "rental_uris": {"ios": "https://dc.lft.to/lastmile_qr_scan", "android": "https://dc.lft.to/lastmile_qr_scan"}, "type": "electric_scooter", "fusion_lat": 0.0, "lon": -77.01415983333334}, {"fusion_lon": 0.0, "bike_id": "85a555fb69e89a741acbca2a7a0243a7", "is_disabled": 0, "is_reserved": 0, "lat": 38.900294, "name": "85a555fb69e89a741acbca2a7a0243a7", "rental_uris": {"ios": "https://dc.lft.to/lastmile_qr_scan", "android": "https://dc.lft.to/lastmile_qr_scan"}, "type": "electric_scooter", "fusion_lat": 0.0, "lon": -76.98593283333334}, {"fusion_lon": 0.0, "bike_id": "4e3a85904ffc987becaf04f72a12d257", "is_disabled": 0, "is_reserved": 0, "lat": 38.8154495, "name": "4e3a85904ffc987becaf04f72a12d257", "rental_uris": {"ios": "https://dc.lft.to/lastmile_qr_scan", "android": "https://dc.lft.to/lastmile_qr_scan"}, "type": "electric_bike", "fusion_lat": 0.0, "lon": -77.04649066666667}, {"fusion_lon": 0.0, "bike_id": "a328124b563cd754886b71d37e3a4c90", "is_disabled": 0, "is_reserved": 0, "lat": 38.927608166666666, "name": "a328124b563cd754886b71d37e3a4c90", "rental_uris": {"ios": "https://dc.lft.to/lastmile_qr_scan", "android": "https://dc.lft.to/lastmile_qr_scan"}, "type": "electric_scooter", "fusion_lat": 0.0, "lon": -77.033609}, {"fusion_lon": 0.0, "bike_id": "7d4ebbf0a2e038dbbf151d9c1001e390", "is_disabled": 0, "is_reserved": 0, "lat": 38.903813666666665, "name": "7d4ebbf0a2e038dbbf151d9c1001e390", "rental_uris": {"ios": "https://dc.lft.to/lastmile_qr_scan", "android": "https://dc.lft.to/lastmile_qr_scan"}, "type": "electric_scooter", "fusion_lat": 0.0, "lon": -77.007397}, {"fusion_lon": 0.0, "bike_id": "453165579264539c200249df569f8ce4", "is_disabled": 0, "is_reserved": 0, "lat": 38.92638083333333, "name": "453165579264539c200249df569f8ce4", "rental_uris": {"ios": "https://dc.lft.to/lastmile_qr_scan", "android": "https://dc.lft.to/lastmile_qr_scan"}, "type": "electric_scooter", "fusion_lat": 0.0, "lon": -77.0271075}, {"fusion_lon": 0.0, "bike_id": "c510a25c697e0979f9bb74e12302f34d", "is_disabled": 0, "is_reserved": 0, "lat": 38.91044316666667, "name": "c510a25c697e0979f9bb74e12302f34d", "rental_uris": {"ios": "https://dc.lft.to/lastmile_qr_scan", "android": "https://dc.lft.to/lastmile_qr_scan"}, "type": "electric_scooter", "fusion_lat": 0.0, "lon": -76.99090366666667}, {"fusion_lon": 0.0, "bike_id": "1b2dcbcb209110c68192b723daa7fb0d", "is_disabled": 0, "is_reserved": 0, "lat": 38.980099, "name": "1b2dcbcb209110c68192b723daa7fb0d", "rental_uris": {"ios": "https://dc.lft.to/lastmile_qr_scan", "android": "https://dc.lft.to/lastmile_qr_scan"}, "type": "electric_bike", "fusion_lat": 0.0, "lon": -77.06409416666666}, {"fusion_lon": 0.0, "bike_id": "58bab7972496e9d0e67641f58be8eb5c", "is_disabled": 0, "is_reserved": 0, "lat": 38.88988966666667, "name": "58bab7972496e9d0e67641f58be8eb5c", "rental_uris": {"ios": "https://dc.lft.to/lastmile_qr_scan", "android": "https://dc.lft.to/lastmile_qr_scan"}, "type": "electric_scooter", "fusion_lat": 0.0, "lon": -76.988128}, {"fusion_lon": 0.0, "bike_id": "d1a8a72735913c10b36b3e338c96fed9", "is_disabled": 0, "is_reserved": 0, "lat": 38.92001066666667, "name": "d1a8a72735913c10b36b3e338c96fed9", "rental_uris": {"ios": "https://dc.lft.to/lastmile_qr_scan", "android": "https://dc.lft.to/lastmile_qr_scan"}, "type": "electric_scooter", "fusion_lat": 0.0, "lon": -77.03277033333333}, {"fusion_lon": 0.0, "bike_id": "dbe653fcf21d8183a147ae705df2284e", "is_disabled": 0, "is_reserved": 0, "lat": 38.85784666666667, "name": "dbe653fcf21d8183a147ae705df2284e", "rental_uris": {"ios": "https://dc.lft.to/lastmile_qr_scan", "android": "https://dc.lft.to/lastmile_qr_scan"}, "type": "electric_bike", "fusion_lat": 0.0, "lon": -76.98761366666666}, {"fusion_lon": 0.0, "bike_id": "39512bede5e8d0da6a1201816d6637df", "is_disabled": 0, "is_reserved": 0, "lat": 38.94721166666667, "name": "39512bede5e8d0da6a1201816d6637df", "rental_uris": {"ios": "https://dc.lft.to/lastmile_qr_scan", "android": "https://dc.lft.to/lastmile_qr_scan"}, "type": "electric_bike", "fusion_lat": 0.0, "lon": -77.09876916666667}, {"fusion_lon": 0.0, "bike_id": "90b52bcc93b7c3232073145ba5d78ac7", "is_disabled": 0, "is_reserved": 0, "lat": 38.83694883333333, "name": "90b52bcc93b7c3232073145ba5d78ac7", "rental_uris": {"ios": "https://dc.lft.to/lastmile_qr_scan", "android": "https://dc.lft.to/lastmile_qr_scan"}, "type": "electric_bike", "fusion_lat": 0.0, "lon": -77.10326433333333}, {"fusion_lon": 0.0, "bike_id": "143d28099b98bef7ca0cabc15af8a1e9", "is_disabled": 0, "is_reserved": 0, "lat": 38.905743, "name": "143d28099b98bef7ca0cabc15af8a1e9", "rental_uris": {"ios": "https://dc.lft.to/lastmile_qr_scan", "android": "https://dc.lft.to/lastmile_qr_scan"}, "type": "electric_scooter", "fusion_lat": 0.0, "lon": -77.034484}, {"fusion_lon": 0.0, "bike_id": "1d1f1bfee80aac9a0b873c1a243ab2f1", "is_disabled": 0, "is_reserved": 0, "lat": 38.912622, "name": "1d1f1bfee80aac9a0b873c1a243ab2f1", "rental_uris": {"ios": "https://dc.lft.to/lastmile_qr_scan", "android": "https://dc.lft.to/lastmile_qr_scan"}, "type": "electric_scooter", "fusion_lat": 0.0, "lon": -77.0387285}, {"fusion_lon": 0.0, "bike_id": "67216d2c807013b8b291126d22564b6d", "is_disabled": 0, "is_reserved": 0, "lat": 38.856494, "name": "67216d2c807013b8b291126d22564b6d", "rental_uris": {"ios": "https://dc.lft.to/lastmile_qr_scan", "android": "https://dc.lft.to/lastmile_qr_scan"}, "type": "electric_bike", "fusion_lat": 0.0, "lon": -77.0852685}, {"fusion_lon": 0.0, "bike_id": "43ff3be582ed2a91d0a60b4c3a288982", "is_disabled": 0, "is_reserved": 0, "lat": 38.918176833333334, "name": "43ff3be582ed2a91d0a60b4c3a288982", "rental_uris": {"ios": "https://dc.lft.to/lastmile_qr_scan", "android": "https://dc.lft.to/lastmile_qr_scan"}, "type": "electric_scooter", "fusion_lat": 0.0, "lon": -77.029393}, {"fusion_lon": 0.0, "bike_id": "78444d728073d85ab9305b6c3e42a425", "is_disabled": 0, "is_reserved": 0, "lat": 38.943685, "name": "78444d728073d85ab9305b6c3e42a425", "rental_uris": {"ios": "https://dc.lft.to/lastmile_qr_scan", "android": "https://dc.lft.to/lastmile_qr_scan"}, "type": "electric_bike", "fusion_lat": 0.0, "lon": -77.06338916666667}, {"fusion_lon": 0.0, "bike_id": "7764babaacff21c28b6ca06fdfce985a", "is_disabled": 0, "is_reserved": 0, "lat": 38.93756166666667, "name": "7764babaacff21c28b6ca06fdfce985a", "rental_uris": {"ios": "https://dc.lft.to/lastmile_qr_scan", "android": "https://dc.lft.to/lastmile_qr_scan"}, "type": "electric_scooter", "fusion_lat": 0.0, "lon": -77.03239666666667}, {"fusion_lon": 0.0, "bike_id": "c55ee82378f660b047ac5a20ebf3f1d6", "is_disabled": 0, "is_reserved": 0, "lat": 38.9085885, "name": "c55ee82378f660b047ac5a20ebf3f1d6", "rental_uris": {"ios": "https://dc.lft.to/lastmile_qr_scan", "android": "https://dc.lft.to/lastmile_qr_scan"}, "type": "electric_scooter", "fusion_lat": 0.0, "lon": -76.999552}, {"fusion_lon": 0.0, "bike_id": "ca1501b51a5f48fac1cec4227d1dd421", "is_disabled": 0, "is_reserved": 0, "lat": 38.92622933333333, "name": "ca1501b51a5f48fac1cec4227d1dd421", "rental_uris": {"ios": "https://dc.lft.to/lastmile_qr_scan", "android": "https://dc.lft.to/lastmile_qr_scan"}, "type": "electric_scooter", "fusion_lat": 0.0, "lon": -77.0393135}, {"fusion_lon": 0.0, "bike_id": "83e403c6a1c29dfa6326025d6d345a5e", "is_disabled": 0, "is_reserved": 0, "lat": 38.924205, "name": "83e403c6a1c29dfa6326025d6d345a5e", "rental_uris": {"ios": "https://dc.lft.to/lastmile_qr_scan", "android": "https://dc.lft.to/lastmile_qr_scan"}, "type": "electric_scooter", "fusion_lat": 0.0, "lon": -77.04014133333334}, {"fusion_lon": 0.0, "bike_id": "ce1a651515b1c7485ba011e8de1caebf", "is_disabled": 0, "is_reserved": 0, "lat": 38.893515666666666, "name": "ce1a651515b1c7485ba011e8de1caebf", "rental_uris": {"ios": "https://dc.lft.to/lastmile_qr_scan", "android": "https://dc.lft.to/lastmile_qr_scan"}, "type": "electric_scooter", "fusion_lat": 0.0, "lon": -77.04193}, {"fusion_lon": 0.0, "bike_id": "d853412b2b3a1e534f067356061d4708", "is_disabled": 0, "is_reserved": 0, "lat": 38.923142166666665, "name": "d853412b2b3a1e534f067356061d4708", "rental_uris": {"ios": "https://dc.lft.to/lastmile_qr_scan", "android": "https://dc.lft.to/lastmile_qr_scan"}, "type": "electric_scooter", "fusion_lat": 0.0, "lon": -77.043772}, {"fusion_lon": 0.0, "bike_id": "663dc3bb455704ed12a24d878560a09f", "is_disabled": 0, "is_reserved": 0, "lat": 38.894328333333334, "name": "663dc3bb455704ed12a24d878560a09f", "rental_uris": {"ios": "https://dc.lft.to/lastmile_qr_scan", "android": "https://dc.lft.to/lastmile_qr_scan"}, "type": "electric_scooter", "fusion_lat": 0.0, "lon": -77.04476783333334}, {"fusion_lon": 0.0, "bike_id": "32058859b12b097e46a505d33d220d46", "is_disabled": 0, "is_reserved": 0, "lat": 38.929695833333334, "name": "32058859b12b097e46a505d33d220d46", "rental_uris": {"ios": "https://dc.lft.to/lastmile_qr_scan", "android": "https://dc.lft.to/lastmile_qr_scan"}, "type": "electric_scooter", "fusion_lat": 0.0, "lon": -77.0318305}, {"fusion_lon": 0.0, "bike_id": "103b7d0d9f103c24cae2a2ec51bde574", "is_disabled": 0, "is_reserved": 0, "lat": 38.927978833333334, "name": "103b7d0d9f103c24cae2a2ec51bde574", "rental_uris": {"ios": "https://dc.lft.to/lastmile_qr_scan", "android": "https://dc.lft.to/lastmile_qr_scan"}, "type": "electric_scooter", "fusion_lat": 0.0, "lon": -77.03152433333334}, {"fusion_lon": 0.0, "bike_id": "936a62a6b6ad0825c94ad9f5b64be636", "is_disabled": 0, "is_reserved": 0, "lat": 38.89871683333333, "name": "936a62a6b6ad0825c94ad9f5b64be636", "rental_uris": {"ios": "https://dc.lft.to/lastmile_qr_scan", "android": "https://dc.lft.to/lastmile_qr_scan"}, "type": "electric_scooter", "fusion_lat": 0.0, "lon": -77.04661633333333}, {"fusion_lon": 0.0, "bike_id": "3138c4d76bc951bb41dd6a92b4ced1b7", "is_disabled": 0, "is_reserved": 0, "lat": 38.941965333333336, "name": "3138c4d76bc951bb41dd6a92b4ced1b7", "rental_uris": {"ios": "https://dc.lft.to/lastmile_qr_scan", "android": "https://dc.lft.to/lastmile_qr_scan"}, "type": "electric_scooter", "fusion_lat": 0.0, "lon": -77.028431}, {"fusion_lon": 0.0, "bike_id": "0ce7c1d2c96d6d78faa44770edfae1a0", "is_disabled": 0, "is_reserved": 0, "lat": 38.9171005, "name": "0ce7c1d2c96d6d78faa44770edfae1a0", "rental_uris": {"ios": "https://dc.lft.to/lastmile_qr_scan", "android": "https://dc.lft.to/lastmile_qr_scan"}, "type": "electric_scooter", "fusion_lat": 0.0, "lon": -77.03247133333333}, {"fusion_lon": 0.0, "bike_id": "45a84ad1cd5c380dccb9969035352b61", "is_disabled": 0, "is_reserved": 0, "lat": 38.987578166666665, "name": "45a84ad1cd5c380dccb9969035352b61", "rental_uris": {"ios": "https://dc.lft.to/lastmile_qr_scan", "android": "https://dc.lft.to/lastmile_qr_scan"}, "type": "electric_bike", "fusion_lat": 0.0, "lon": -77.0265445}, {"fusion_lon": 0.0, "bike_id": "c768a53d753a7cf7a739795243656617", "is_disabled": 0, "is_reserved": 0, "lat": 38.92493666666667, "name": "c768a53d753a7cf7a739795243656617", "rental_uris": {"ios": "https://dc.lft.to/lastmile_qr_scan", "android": "https://dc.lft.to/lastmile_qr_scan"}, "type": "electric_scooter", "fusion_lat": 0.0, "lon": -77.03182083333333}, {"fusion_lon": 0.0, "bike_id": "9375efe7191343f6b4e39459d7a6ff34", "is_disabled": 0, "is_reserved": 0, "lat": 38.95646966666666, "name": "9375efe7191343f6b4e39459d7a6ff34", "rental_uris": {"ios": "https://dc.lft.to/lastmile_qr_scan", "android": "https://dc.lft.to/lastmile_qr_scan"}, "type": "electric_bike", "fusion_lat": 0.0, "lon": -76.93874566666666}, {"fusion_lon": 0.0, "bike_id": "6336bf2ca984c0e98e406f7dd55461af", "is_disabled": 0, "is_reserved": 0, "lat": 38.90461416666667, "name": "6336bf2ca984c0e98e406f7dd55461af", "rental_uris": {"ios": "https://dc.lft.to/lastmile_qr_scan", "android": "https://dc.lft.to/lastmile_qr_scan"}, "type": "electric_scooter", "fusion_lat": 0.0, "lon": -76.98258266666667}, {"fusion_lon": 0.0, "bike_id": "ef6d76220d1fbdc4b7a17df6c0ed3cc5", "is_disabled": 0, "is_reserved": 0, "lat": 38.9255265, "name": "ef6d76220d1fbdc4b7a17df6c0ed3cc5", "rental_uris": {"ios": "https://dc.lft.to/lastmile_qr_scan", "android": "https://dc.lft.to/lastmile_qr_scan"}, "type": "electric_scooter", "fusion_lat": 0.0, "lon": -77.052989}, {"fusion_lon": 0.0, "bike_id": "6dfbd8a72c1617915a200124176b525b", "is_disabled": 0, "is_reserved": 0, "lat": 38.89771416666667, "name": "6dfbd8a72c1617915a200124176b525b", "rental_uris": {"ios": "https://dc.lft.to/lastmile_qr_scan", "android": "https://dc.lft.to/lastmile_qr_scan"}, "type": "electric_scooter", "fusion_lat": 0.0, "lon": -77.02714633333333}, {"fusion_lon": 0.0, "bike_id": "74eccc7a15c9a34969b9c36c2c1faabe", "is_disabled": 0, "is_reserved": 0, "lat": 38.91312116666667, "name": "74eccc7a15c9a34969b9c36c2c1faabe", "rental_uris": {"ios": "https://dc.lft.to/lastmile_qr_scan", "android": "https://dc.lft.to/lastmile_qr_scan"}, "type": "electric_scooter", "fusion_lat": 0.0, "lon": -77.02859783333334}, {"fusion_lon": 0.0, "bike_id": "55a7e02b3b1532bf826dd26e94abdf02", "is_disabled": 0, "is_reserved": 0, "lat": 39.02623066666666, "name": "55a7e02b3b1532bf826dd26e94abdf02", "rental_uris": {"ios": "https://dc.lft.to/lastmile_qr_scan", "android": "https://dc.lft.to/lastmile_qr_scan"}, "type": "electric_bike", "fusion_lat": 0.0, "lon": -77.03877916666667}, {"fusion_lon": 0.0, "bike_id": "db78258d32be033d490867afd94b5853", "is_disabled": 0, "is_reserved": 0, "lat": 38.89926066666666, "name": "db78258d32be033d490867afd94b5853", "rental_uris": {"ios": "https://dc.lft.to/lastmile_qr_scan", "android": "https://dc.lft.to/lastmile_qr_scan"}, "type": "electric_scooter", "fusion_lat": 0.0, "lon": -76.94579016666667}, {"fusion_lon": 0.0, "bike_id": "986fd4261bf44b1f92805eaad742a491", "is_disabled": 0, "is_reserved": 0, "lat": 38.9072665, "name": "986fd4261bf44b1f92805eaad742a491", "rental_uris": {"ios": "https://dc.lft.to/lastmile_qr_scan", "android": "https://dc.lft.to/lastmile_qr_scan"}, "type": "electric_scooter", "fusion_lat": 0.0, "lon": -77.00509866666667}, {"fusion_lon": 0.0, "bike_id": "6fb2dad536647087e46b272f96c30965", "is_disabled": 0, "is_reserved": 0, "lat": 38.85789883333333, "name": "6fb2dad536647087e46b272f96c30965", "rental_uris": {"ios": "https://dc.lft.to/lastmile_qr_scan", "android": "https://dc.lft.to/lastmile_qr_scan"}, "type": "electric_bike", "fusion_lat": 0.0, "lon": -76.98758266666667}, {"fusion_lon": 0.0, "bike_id": "f7f61addcba9266dcdc6f7f753997f8a", "is_disabled": 0, "is_reserved": 0, "lat": 38.93579483333333, "name": "f7f61addcba9266dcdc6f7f753997f8a", "rental_uris": {"ios": "https://dc.lft.to/lastmile_qr_scan", "android": "https://dc.lft.to/lastmile_qr_scan"}, "type": "electric_scooter", "fusion_lat": 0.0, "lon": -77.02250466666666}, {"fusion_lon": 0.0, "bike_id": "2fb9aec33cface65a0773389feec8018", "is_disabled": 0, "is_reserved": 0, "lat": 38.90702866666667, "name": "2fb9aec33cface65a0773389feec8018", "rental_uris": {"ios": "https://dc.lft.to/lastmile_qr_scan", "android": "https://dc.lft.to/lastmile_qr_scan"}, "type": "electric_scooter", "fusion_lat": 0.0, "lon": -77.02816716666666}, {"fusion_lon": 0.0, "bike_id": "79630fea906c9ab28748148635022fd7", "is_disabled": 0, "is_reserved": 0, "lat": 38.9980695, "name": "79630fea906c9ab28748148635022fd7", "rental_uris": {"ios": "https://dc.lft.to/lastmile_qr_scan", "android": "https://dc.lft.to/lastmile_qr_scan"}, "type": "electric_bike", "fusion_lat": 0.0, "lon": -76.9979615}, {"fusion_lon": 0.0, "bike_id": "254790505980ef8293597b96049539e7", "is_disabled": 0, "is_reserved": 0, "lat": 38.922578333333334, "name": "254790505980ef8293597b96049539e7", "rental_uris": {"ios": "https://dc.lft.to/lastmile_qr_scan", "android": "https://dc.lft.to/lastmile_qr_scan"}, "type": "electric_scooter", "fusion_lat": 0.0, "lon": -77.02546016666666}, {"fusion_lon": 0.0, "bike_id": "86f5f59578f78dd11fb8aaa91c8ea757", "is_disabled": 0, "is_reserved": 0, "lat": 38.895655833333336, "name": "86f5f59578f78dd11fb8aaa91c8ea757", "rental_uris": {"ios": "https://dc.lft.to/lastmile_qr_scan", "android": "https://dc.lft.to/lastmile_qr_scan"}, "type": "electric_bike", "fusion_lat": 0.0, "lon": -77.12739116666667}, {"fusion_lon": 0.0, "bike_id": "c4e6b06434cc71984e17eb0f363e9ba7", "is_disabled": 0, "is_reserved": 0, "lat": 38.874738, "name": "c4e6b06434cc71984e17eb0f363e9ba7", "rental_uris": {"ios": "https://dc.lft.to/lastmile_qr_scan", "android": "https://dc.lft.to/lastmile_qr_scan"}, "type": "electric_scooter", "fusion_lat": 0.0, "lon": -77.01895283333333}, {"fusion_lon": 0.0, "bike_id": "f80d45d14dae7a9823f8e9f527ff61d4", "is_disabled": 0, "is_reserved": 0, "lat": 38.856325166666664, "name": "f80d45d14dae7a9823f8e9f527ff61d4", "rental_uris": {"ios": "https://dc.lft.to/lastmile_qr_scan", "android": "https://dc.lft.to/lastmile_qr_scan"}, "type": "electric_scooter", "fusion_lat": 0.0, "lon": -76.99076283333333}, {"fusion_lon": 0.0, "bike_id": "7f60a386f7811f9bb61e03a9d91192d1", "is_disabled": 0, "is_reserved": 0, "lat": 38.89209, "name": "7f60a386f7811f9bb61e03a9d91192d1", "rental_uris": {"ios": "https://dc.lft.to/lastmile_qr_scan", "android": "https://dc.lft.to/lastmile_qr_scan"}, "type": "electric_scooter", "fusion_lat": 0.0, "lon": -76.96116533333333}, {"fusion_lon": 0.0, "bike_id": "a96526d09ac71d4116b088ef9a2aeee0", "is_disabled": 0, "is_reserved": 0, "lat": 38.93122533333333, "name": "a96526d09ac71d4116b088ef9a2aeee0", "rental_uris": {"ios": "https://dc.lft.to/lastmile_qr_scan", "android": "https://dc.lft.to/lastmile_qr_scan"}, "type": "electric_scooter", "fusion_lat": 0.0, "lon": -77.02049333333333}, {"fusion_lon": 0.0, "bike_id": "6518b00912637e95efef29c82a2962c7", "is_disabled": 0, "is_reserved": 0, "lat": 38.92783266666667, "name": "6518b00912637e95efef29c82a2962c7", "rental_uris": {"ios": "https://dc.lft.to/lastmile_qr_scan", "android": "https://dc.lft.to/lastmile_qr_scan"}, "type": "electric_scooter", "fusion_lat": 0.0, "lon": -77.0212325}, {"fusion_lon": 0.0, "bike_id": "3c078af5f8fbc8fe0d70db1f0e56e3a3", "is_disabled": 0, "is_reserved": 0, "lat": 38.91812933333333, "name": "3c078af5f8fbc8fe0d70db1f0e56e3a3", "rental_uris": {"ios": "https://dc.lft.to/lastmile_qr_scan", "android": "https://dc.lft.to/lastmile_qr_scan"}, "type": "electric_scooter", "fusion_lat": 0.0, "lon": -77.04005133333334}, {"fusion_lon": 0.0, "bike_id": "9bd51ba0120f68e438044f389d2cfc98", "is_disabled": 0, "is_reserved": 0, "lat": 38.92199516666667, "name": "9bd51ba0120f68e438044f389d2cfc98", "rental_uris": {"ios": "https://dc.lft.to/lastmile_qr_scan", "android": "https://dc.lft.to/lastmile_qr_scan"}, "type": "electric_scooter", "fusion_lat": 0.0, "lon": -77.04327283333333}, {"fusion_lon": 0.0, "bike_id": "803eb7efab2bb4de89a2413cba9ad67f", "is_disabled": 0, "is_reserved": 0, "lat": 38.947031833333334, "name": "803eb7efab2bb4de89a2413cba9ad67f", "rental_uris": {"ios": "https://dc.lft.to/lastmile_qr_scan", "android": "https://dc.lft.to/lastmile_qr_scan"}, "type": "electric_scooter", "fusion_lat": 0.0, "lon": -77.01940716666667}, {"fusion_lon": 0.0, "bike_id": "a0aaf6c72d2f5f29de3c13673eabf64e", "is_disabled": 0, "is_reserved": 0, "lat": 38.90085633333333, "name": "a0aaf6c72d2f5f29de3c13673eabf64e", "rental_uris": {"ios": "https://dc.lft.to/lastmile_qr_scan", "android": "https://dc.lft.to/lastmile_qr_scan"}, "type": "electric_scooter", "fusion_lat": 0.0, "lon": -77.0475575}, {"fusion_lon": 0.0, "bike_id": "586455c33f6005d411a32ac9f3941b8c", "is_disabled": 0, "is_reserved": 0, "lat": 38.88771033333333, "name": "586455c33f6005d411a32ac9f3941b8c", "rental_uris": {"ios": "https://dc.lft.to/lastmile_qr_scan", "android": "https://dc.lft.to/lastmile_qr_scan"}, "type": "electric_scooter", "fusion_lat": 0.0, "lon": -76.97732183333333}, {"fusion_lon": 0.0, "bike_id": "99cc9eadee82b0f10ee9abb5d0f37ff7", "is_disabled": 0, "is_reserved": 0, "lat": 38.8991555, "name": "99cc9eadee82b0f10ee9abb5d0f37ff7", "rental_uris": {"ios": "https://dc.lft.to/lastmile_qr_scan", "android": "https://dc.lft.to/lastmile_qr_scan"}, "type": "electric_scooter", "fusion_lat": 0.0, "lon": -76.93382433333333}, {"fusion_lon": 0.0, "bike_id": "a19e55eb148faaff124e2df6f12fd9e7", "is_disabled": 0, "is_reserved": 0, "lat": 38.90405466666667, "name": "a19e55eb148faaff124e2df6f12fd9e7", "rental_uris": {"ios": "https://dc.lft.to/lastmile_qr_scan", "android": "https://dc.lft.to/lastmile_qr_scan"}, "type": "electric_scooter", "fusion_lat": 0.0, "lon": -77.0652555}, {"fusion_lon": 0.0, "bike_id": "45f146e3ad550d2de844bb53896ce0d7", "is_disabled": 0, "is_reserved": 0, "lat": 38.901308, "name": "45f146e3ad550d2de844bb53896ce0d7", "rental_uris": {"ios": "https://dc.lft.to/lastmile_qr_scan", "android": "https://dc.lft.to/lastmile_qr_scan"}, "type": "electric_scooter", "fusion_lat": 0.0, "lon": -77.04351983333333}, {"fusion_lon": 0.0, "bike_id": "9ca5226c1c4313dd03de4384737601df", "is_disabled": 0, "is_reserved": 0, "lat": 38.8716765, "name": "9ca5226c1c4313dd03de4384737601df", "rental_uris": {"ios": "https://dc.lft.to/lastmile_qr_scan", "android": "https://dc.lft.to/lastmile_qr_scan"}, "type": "electric_scooter", "fusion_lat": 0.0, "lon": -77.006381}, {"fusion_lon": 0.0, "bike_id": "20efa219f0c0b33e724037f56f252bac", "is_disabled": 0, "is_reserved": 0, "lat": 38.90029066666666, "name": "20efa219f0c0b33e724037f56f252bac", "rental_uris": {"ios": "https://dc.lft.to/lastmile_qr_scan", "android": "https://dc.lft.to/lastmile_qr_scan"}, "type": "electric_scooter", "fusion_lat": 0.0, "lon": -76.99345366666667}, {"fusion_lon": 0.0, "bike_id": "8fdbb4b89fa02214d649caa26143ec46", "is_disabled": 0, "is_reserved": 0, "lat": 38.924839166666665, "name": "8fdbb4b89fa02214d649caa26143ec46", "rental_uris": {"ios": "https://dc.lft.to/lastmile_qr_scan", "android": "https://dc.lft.to/lastmile_qr_scan"}, "type": "electric_scooter", "fusion_lat": 0.0, "lon": -77.02200833333333}, {"fusion_lon": 0.0, "bike_id": "6e14972e07a533e8d18f84714e28f372", "is_disabled": 0, "is_reserved": 0, "lat": 38.9128235, "name": "6e14972e07a533e8d18f84714e28f372", "rental_uris": {"ios": "https://dc.lft.to/lastmile_qr_scan", "android": "https://dc.lft.to/lastmile_qr_scan"}, "type": "electric_scooter", "fusion_lat": 0.0, "lon": -77.06793533333334}, {"fusion_lon": 0.0, "bike_id": "28de8189f973840cb87dc330a4f53b1b", "is_disabled": 0, "is_reserved": 0, "lat": 38.884759, "name": "28de8189f973840cb87dc330a4f53b1b", "rental_uris": {"ios": "https://dc.lft.to/lastmile_qr_scan", "android": "https://dc.lft.to/lastmile_qr_scan"}, "type": "electric_scooter", "fusion_lat": 0.0, "lon": -77.03345916666666}, {"fusion_lon": 0.0, "bike_id": "a123caad07f29cfd3a5750a57e3b0de9", "is_disabled": 0, "is_reserved": 0, "lat": 38.9334625, "name": "a123caad07f29cfd3a5750a57e3b0de9", "rental_uris": {"ios": "https://dc.lft.to/lastmile_qr_scan", "android": "https://dc.lft.to/lastmile_qr_scan"}, "type": "electric_scooter", "fusion_lat": 0.0, "lon": -77.02741833333333}, {"fusion_lon": 0.0, "bike_id": "1f6d3895cf1ca69ef5f9a619c2eb8fe2", "is_disabled": 0, "is_reserved": 0, "lat": 38.91272266666667, "name": "1f6d3895cf1ca69ef5f9a619c2eb8fe2", "rental_uris": {"ios": "https://dc.lft.to/lastmile_qr_scan", "android": "https://dc.lft.to/lastmile_qr_scan"}, "type": "electric_scooter", "fusion_lat": 0.0, "lon": -77.04768666666666}, {"fusion_lon": 0.0, "bike_id": "ccc7d0e03d654a698ccc06db0bd9a0ab", "is_disabled": 0, "is_reserved": 0, "lat": 38.8877285, "name": "ccc7d0e03d654a698ccc06db0bd9a0ab", "rental_uris": {"ios": "https://dc.lft.to/lastmile_qr_scan", "android": "https://dc.lft.to/lastmile_qr_scan"}, "type": "electric_scooter", "fusion_lat": 0.0, "lon": -76.977337}, {"fusion_lon": 0.0, "bike_id": "822c7346c7f91fd26792249fa9424b0d", "is_disabled": 0, "is_reserved": 0, "lat": 38.87635016666667, "name": "822c7346c7f91fd26792249fa9424b0d", "rental_uris": {"ios": "https://dc.lft.to/lastmile_qr_scan", "android": "https://dc.lft.to/lastmile_qr_scan"}, "type": "electric_scooter", "fusion_lat": 0.0, "lon": -77.00955516666667}, {"fusion_lon": 0.0, "bike_id": "7d6bd604dc41b93c8e3f510b19c5f7d5", "is_disabled": 0, "is_reserved": 0, "lat": 38.886440666666665, "name": "7d6bd604dc41b93c8e3f510b19c5f7d5", "rental_uris": {"ios": "https://dc.lft.to/lastmile_qr_scan", "android": "https://dc.lft.to/lastmile_qr_scan"}, "type": "electric_scooter", "fusion_lat": 0.0, "lon": -76.98209716666666}, {"fusion_lon": 0.0, "bike_id": "16853cc9834e2c1f847fc4f5452ae6e4", "is_disabled": 0, "is_reserved": 0, "lat": 38.893743, "name": "16853cc9834e2c1f847fc4f5452ae6e4", "rental_uris": {"ios": "https://dc.lft.to/lastmile_qr_scan", "android": "https://dc.lft.to/lastmile_qr_scan"}, "type": "electric_scooter", "fusion_lat": 0.0, "lon": -77.03957933333334}, {"fusion_lon": 0.0, "bike_id": "dcb033d3528f64318afbbf6de140bee7", "is_disabled": 0, "is_reserved": 0, "lat": 38.91003516666667, "name": "dcb033d3528f64318afbbf6de140bee7", "rental_uris": {"ios": "https://dc.lft.to/lastmile_qr_scan", "android": "https://dc.lft.to/lastmile_qr_scan"}, "type": "electric_scooter", "fusion_lat": 0.0, "lon": -76.993936}, {"fusion_lon": 0.0, "bike_id": "b0448c83661f99cc8c4f5dcb073830a2", "is_disabled": 0, "is_reserved": 0, "lat": 38.846732333333335, "name": "b0448c83661f99cc8c4f5dcb073830a2", "rental_uris": {"ios": "https://dc.lft.to/lastmile_qr_scan", "android": "https://dc.lft.to/lastmile_qr_scan"}, "type": "electric_bike", "fusion_lat": 0.0, "lon": -77.13934216666667}, {"fusion_lon": 0.0, "bike_id": "d1429330ef6a785459a716e0a218ef88", "is_disabled": 0, "is_reserved": 0, "lat": 38.924235833333334, "name": "d1429330ef6a785459a716e0a218ef88", "rental_uris": {"ios": "https://dc.lft.to/lastmile_qr_scan", "android": "https://dc.lft.to/lastmile_qr_scan"}, "type": "electric_scooter", "fusion_lat": 0.0, "lon": -77.02130816666667}, {"fusion_lon": 0.0, "bike_id": "be005f1b76a4ebaa2afd1ae0f5fba147", "is_disabled": 0, "is_reserved": 0, "lat": 38.89367433333334, "name": "be005f1b76a4ebaa2afd1ae0f5fba147", "rental_uris": {"ios": "https://dc.lft.to/lastmile_qr_scan", "android": "https://dc.lft.to/lastmile_qr_scan"}, "type": "electric_scooter", "fusion_lat": 0.0, "lon": -77.01557016666666}, {"fusion_lon": 0.0, "bike_id": "20371b2d81be9613719c25bb2da975f6", "is_disabled": 0, "is_reserved": 0, "lat": 38.914226166666666, "name": "20371b2d81be9613719c25bb2da975f6", "rental_uris": {"ios": "https://dc.lft.to/lastmile_qr_scan", "android": "https://dc.lft.to/lastmile_qr_scan"}, "type": "electric_scooter", "fusion_lat": 0.0, "lon": -77.0130135}, {"fusion_lon": 0.0, "bike_id": "f292aa7154291e8a14580f841e6b92cf", "is_disabled": 0, "is_reserved": 0, "lat": 38.9129795, "name": "f292aa7154291e8a14580f841e6b92cf", "rental_uris": {"ios": "https://dc.lft.to/lastmile_qr_scan", "android": "https://dc.lft.to/lastmile_qr_scan"}, "type": "electric_scooter", "fusion_lat": 0.0, "lon": -77.03648266666667}, {"fusion_lon": 0.0, "bike_id": "f13ccf132dba3770c21351a6a2728f5a", "is_disabled": 0, "is_reserved": 0, "lat": 38.91977933333333, "name": "f13ccf132dba3770c21351a6a2728f5a", "rental_uris": {"ios": "https://dc.lft.to/lastmile_qr_scan", "android": "https://dc.lft.to/lastmile_qr_scan"}, "type": "electric_scooter", "fusion_lat": 0.0, "lon": -77.0409505}, {"fusion_lon": 0.0, "bike_id": "6ad05dca39e76ff6523c1c6a80f08dc9", "is_disabled": 0, "is_reserved": 0, "lat": 38.95735033333333, "name": "6ad05dca39e76ff6523c1c6a80f08dc9", "rental_uris": {"ios": "https://dc.lft.to/lastmile_qr_scan", "android": "https://dc.lft.to/lastmile_qr_scan"}, "type": "electric_scooter", "fusion_lat": 0.0, "lon": -77.02419733333333}, {"fusion_lon": 0.0, "bike_id": "df953bd26c6e971be53726b71f74d58d", "is_disabled": 0, "is_reserved": 0, "lat": 38.89098116666667, "name": "df953bd26c6e971be53726b71f74d58d", "rental_uris": {"ios": "https://dc.lft.to/lastmile_qr_scan", "android": "https://dc.lft.to/lastmile_qr_scan"}, "type": "electric_scooter", "fusion_lat": 0.0, "lon": -76.98815116666667}, {"fusion_lon": 0.0, "bike_id": "c7769094e641dc6c16e75284074ade71", "is_disabled": 0, "is_reserved": 0, "lat": 38.9015405, "name": "c7769094e641dc6c16e75284074ade71", "rental_uris": {"ios": "https://dc.lft.to/lastmile_qr_scan", "android": "https://dc.lft.to/lastmile_qr_scan"}, "type": "electric_scooter", "fusion_lat": 0.0, "lon": -76.9863845}, {"fusion_lon": 0.0, "bike_id": "b1ee966259c53ec6801f807db9fd917a", "is_disabled": 0, "is_reserved": 0, "lat": 38.876527333333335, "name": "b1ee966259c53ec6801f807db9fd917a", "rental_uris": {"ios": "https://dc.lft.to/lastmile_qr_scan", "android": "https://dc.lft.to/lastmile_qr_scan"}, "type": "electric_scooter", "fusion_lat": 0.0, "lon": -77.00740816666666}, {"fusion_lon": 0.0, "bike_id": "73bef7d367a1aeee2d1891efdbc44748", "is_disabled": 0, "is_reserved": 0, "lat": 38.8746825, "name": "73bef7d367a1aeee2d1891efdbc44748", "rental_uris": {"ios": "https://dc.lft.to/lastmile_qr_scan", "android": "https://dc.lft.to/lastmile_qr_scan"}, "type": "electric_scooter", "fusion_lat": 0.0, "lon": -77.00517733333334}, {"fusion_lon": 0.0, "bike_id": "63a74dfd7393b13d92b86e0b03527da4", "is_disabled": 0, "is_reserved": 0, "lat": 38.88333033333333, "name": "63a74dfd7393b13d92b86e0b03527da4", "rental_uris": {"ios": "https://dc.lft.to/lastmile_qr_scan", "android": "https://dc.lft.to/lastmile_qr_scan"}, "type": "electric_scooter", "fusion_lat": 0.0, "lon": -77.01517966666667}, {"fusion_lon": 0.0, "bike_id": "a6d68fce2fa0147b36c954d49c7c7d06", "is_disabled": 0, "is_reserved": 0, "lat": 38.9369365, "name": "a6d68fce2fa0147b36c954d49c7c7d06", "rental_uris": {"ios": "https://dc.lft.to/lastmile_qr_scan", "android": "https://dc.lft.to/lastmile_qr_scan"}, "type": "electric_scooter", "fusion_lat": 0.0, "lon": -77.08435383333334}, {"fusion_lon": 0.0, "bike_id": "54de91f24044e129e2431ad20199d8f4", "is_disabled": 0, "is_reserved": 0, "lat": 38.884252333333336, "name": "54de91f24044e129e2431ad20199d8f4", "rental_uris": {"ios": "https://dc.lft.to/lastmile_qr_scan", "android": "https://dc.lft.to/lastmile_qr_scan"}, "type": "electric_scooter", "fusion_lat": 0.0, "lon": -77.03040133333333}, {"fusion_lon": 0.0, "bike_id": "eb2395f2e4193f2b561fc7362d77e0b8", "is_disabled": 0, "is_reserved": 0, "lat": 38.943606333333335, "name": "eb2395f2e4193f2b561fc7362d77e0b8", "rental_uris": {"ios": "https://dc.lft.to/lastmile_qr_scan", "android": "https://dc.lft.to/lastmile_qr_scan"}, "type": "electric_scooter", "fusion_lat": 0.0, "lon": -77.02979933333333},