{"data": {"bikes": [{"bike_id": "141d5e7f5132130863e4c6d6fb57f71a", "is_reserved": 0, "name": "141d5e7f5132130863e4c6d6fb57f71a", "lat": 38.898742166666665, "fusion_lat": 0.0, "lon": -76.931778, "is_disabled": 0, "fusion_lon": 0.0, "rental_uris": {"android": "https://dc.lft.to/lastmile_qr_scan", "ios": "https://dc.lft.to/lastmile_qr_scan"}, "type": "electric_scooter"}, {"bike_id": "314b8babb65fde76216e8b92865daa96", "is_reserved": 0, "name": "314b8babb65fde76216e8b92865daa96", "lat": 38.9055945, "fusion_lat": 0.0, "lon": -77.00538783333333, "is_disabled": 0, "fusion_lon": 0.0, "rental_uris": {"android": "https://dc.lft.to/lastmile_qr_scan", "ios": "https://dc.lft.to/lastmile_qr_scan"}, "type": "electric_scooter"}, {"bike_id": "8ae7b5cf18363d37bfec5d3b50a3bb37", "is_reserved": 0, "name": "8ae7b5cf18363d37bfec5d3b50a3bb37", "lat": 38.9071815, "fusion_lat": 0.0, "lon": -77.02887433333333, "is_disabled": 0, "fusion_lon": 0.0, "rental_uris": {"android": "https://dc.lft.to/lastmile_qr_scan", "ios": "https://dc.lft.to/lastmile_qr_scan"}, "type": "electric_scooter"}, {"bike_id": "5beb3e4f66dcecf767859177bb26628c", "is_reserved": 0, "name": "5beb3e4f66dcecf767859177bb26628c", "lat": 38.903055, "fusion_lat": 0.0, "lon": -77.0580405, "is_disabled": 0, "fusion_lon": 0.0, "rental_uris": {"android": "https://dc.lft.to/lastmile_qr_scan", "ios": "https://dc.lft.to/lastmile_qr_scan"}, "type": "electric_scooter"}, {"bike_id": "8c6422b4e6564a11ad9fc7f91cf262f4", "is_reserved": 0, "name": "8c6422b4e6564a11ad9fc7f91cf262f4", "lat": 38.9202275, "fusion_lat": 0.0, "lon": -77.01309566666667, "is_disabled": 0, "fusion_lon": 0.0, "rental_uris": {"android": "https://dc.lft.to/lastmile_qr_scan", "ios": "https://dc.lft.to/lastmile_qr_scan"}, "type": "electric_scooter"}, {"bike_id": "c2d16bbb67a524ac02e58b854f8d9bc4", "is_reserved": 0, "name": "c2d16bbb67a524ac02e58b854f8d9bc4", "lat": 38.984821833333335, "fusion_lat": 0.0, "lon": -77.026338, "is_disabled": 0, "fusion_lon": 0.0, "rental_uris": {"android": "https://dc.lft.to/lastmile_qr_scan", "ios": "https://dc.lft.to/lastmile_qr_scan"}, "type": "electric_scooter"}, {"bike_id": "f9819a9a9b3b369c46fd951707968b69", "is_reserved": 0, "name": "f9819a9a9b3b369c46fd951707968b69", "lat": 38.94248116666667, "fusion_lat": 0.0, "lon": -77.07642366666667, "is_disabled": 0, "fusion_lon": 0.0, "rental_uris": {"android": "https://dc.lft.to/lastmile_qr_scan", "ios": "https://dc.lft.to/lastmile_qr_scan"}, "type": "electric_scooter"}, {"bike_id": "49e0e58c6c6c0d9392036f45fdcaa1ce", "is_reserved": 0, "name": "49e0e58c6c6c0d9392036f45fdcaa1ce", "lat": 38.914139166666665, "fusion_lat": 0.0, "lon": -77.0418105, "is_disabled": 0, "fusion_lon": 0.0, "rental_uris": {"android": "https://dc.lft.to/lastmile_qr_scan", "ios": "https://dc.lft.to/lastmile_qr_scan"}, "type": "electric_scooter"}, {"bike_id": "c07a6561929e1651dcc3e43cd88bb70a", "is_reserved": 0, "name": "c07a6561929e1651dcc3e43cd88bb70a", "lat": 38.892488, "fusion_lat": 0.0, "lon": -77.03956, "is_disabled": 0, "fusion_lon": 0.0, "rental_uris": {"android": "https://dc.lft.to/lastmile_qr_scan", "ios": "https://dc.lft.to/lastmile_qr_scan"}, "type": "electric_scooter"}, {"bike_id": "fd2b5a41354015cd4309fbdeb3bff456", "is_reserved": 0, "name": "fd2b5a41354015cd4309fbdeb3bff456", "lat": 38.94831216666667, "fusion_lat": 0.0, "lon": -77.099968, "is_disabled": 0, "fusion_lon": 0.0, "rental_uris": {"android": "https://dc.lft.to/lastmile_qr_scan", "ios": "https://dc.lft.to/lastmile_qr_scan"}, "type": "electric_scooter"}, {"bike_id": "485cb7928b112e4ef1a5c8f9ece8e1c0", "is_reserved": 0, "name": "485cb7928b112e4ef1a5c8f9ece8e1c0", "lat": 38.88368066666666, "fusion_lat": 0.0, "lon": -76.99517583333333, "is_disabled": 0, "fusion_lon": 0.0, "rental_uris": {"android": "https://dc.lft.to/lastmile_qr_scan", "ios": "https://dc.lft.to/lastmile_qr_scan"}, "type": "electric_scooter"}, {"bike_id": "df149d272c318a687aff994d34827d98", "is_reserved": 0, "name": "df149d272c318a687aff994d34827d98", "lat": 38.89362766666667, "fusion_lat": 0.0, "lon": -77.003364, "is_disabled": 0, "fusion_lon": 0.0, "rental_uris": {"android": "https://dc.lft.to/lastmile_qr_scan", "ios": "https://dc.lft.to/lastmile_qr_scan"}, "type": "electric_scooter"}, {"bike_id": "74cca2b269b512cc6514b6f26984a4a8", "is_reserved": 0, "name": "74cca2b269b512cc6514b6f26984a4a8", "lat": 38.9232465, "fusion_lat": 0.0, "lon": -77.04025733333333, "is_disabled": 0, "fusion_lon": 0.0, "rental_uris": {"android": "https://dc.lft.to/lastmile_qr_scan", "ios": "https://dc.lft.to/lastmile_qr_scan"}, "type": "electric_scooter"}, {"bike_id": "8655d9a30ab9cebb3504cfd98c6ee748", "is_reserved": 0, "name": "8655d9a30ab9cebb3504cfd98c6ee748", "lat": 38.912160166666666, "fusion_lat": 0.0, "lon": -77.0294985, "is_disabled": 0, "fusion_lon": 0.0, "rental_uris": {"android": "https://dc.lft.to/lastmile_qr_scan", "ios": "https://dc.lft.to/lastmile_qr_scan"}, "type": "electric_scooter"}, {"bike_id": "7b1ba57e4c3c4c7ae212bc2ca37b2422", "is_reserved": 0, "name": "7b1ba57e4c3c4c7ae212bc2ca37b2422", "lat": 38.887473, "fusion_lat": 0.0, "lon": -77.02567883333333, "is_disabled": 0, "fusion_lon": 0.0, "rental_uris": {"android": "https://dc.lft.to/lastmile_qr_scan", "ios": "https://dc.lft.to/lastmile_qr_scan"}, "type": "electric_scooter"}, {"bike_id": "5d476773c919893f713a7a03c1376ce8", "is_reserved": 0, "name": "5d476773c919893f713a7a03c1376ce8", "lat": 38.9140185, "fusion_lat": 0.0, "lon": -77.00845866666667, "is_disabled": 0, "fusion_lon": 0.0, "rental_uris": {"android": "https://dc.lft.to/lastmile_qr_scan", "ios": "https://dc.lft.to/lastmile_qr_scan"}, "type": "electric_scooter"}, {"bike_id": "59a9136876ad54b0c38b030a36ff0279", "is_reserved": 0, "name": "59a9136876ad54b0c38b030a36ff0279", "lat": 38.91760083333333, "fusion_lat": 0.0, "lon": -77.0240395, "is_disabled": 0, "fusion_lon": 0.0, "rental_uris": {"android": "https://dc.lft.to/lastmile_qr_scan", "ios": "https://dc.lft.to/lastmile_qr_scan"}, "type": "electric_scooter"}, {"bike_id": "b65c8e1bcd39009cd545c45df1429d78", "is_reserved": 0, "name": "b65c8e1bcd39009cd545c45df1429d78", "lat": 38.89909316666667, "fusion_lat": 0.0, "lon": -76.94552133333333, "is_disabled": 0, "fusion_lon": 0.0, "rental_uris": {"android": "https://dc.lft.to/lastmile_qr_scan", "ios": "https://dc.lft.to/lastmile_qr_scan"}, "type": "electric_scooter"}, {"bike_id": "64e3bc36c049485e2ab8791405e82823", "is_reserved": 0, "name": "64e3bc36c049485e2ab8791405e82823", "lat": 38.923191833333334, "fusion_lat": 0.0, "lon": -77.03408716666667, "is_disabled": 0, "fusion_lon": 0.0, "rental_uris": {"android": "https://dc.lft.to/lastmile_qr_scan", "ios": "https://dc.lft.to/lastmile_qr_scan"}, "type": "electric_scooter"}, {"bike_id": "0010fde12e35e072034ac996380a9b30", "is_reserved": 0, "name": "0010fde12e35e072034ac996380a9b30", "lat": 38.916559166666666, "fusion_lat": 0.0, "lon": -77.04381383333333, "is_disabled": 0, "fusion_lon": 0.0, "rental_uris": {"android": "https://dc.lft.to/lastmile_qr_scan", "ios": "https://dc.lft.to/lastmile_qr_scan"}, "type": "electric_scooter"}, {"bike_id": "3cbb7c8d8ef85dbc292e02d6495704b0", "is_reserved": 0, "name": "3cbb7c8d8ef85dbc292e02d6495704b0", "lat": 38.903631833333336, "fusion_lat": 0.0, "lon": -77.03865083333334, "is_disabled": 0, "fusion_lon": 0.0, "rental_uris": {"android": "https://dc.lft.to/lastmile_qr_scan", "ios": "https://dc.lft.to/lastmile_qr_scan"}, "type": "electric_scooter"}, {"bike_id": "6e52da353121e3f4cb666a846296ad26", "is_reserved": 0, "name": "6e52da353121e3f4cb666a846296ad26", "lat": 38.947369, "fusion_lat": 0.0, "lon": -77.01616866666667, "is_disabled": 0, "fusion_lon": 0.0, "rental_uris": {"android": "https://dc.lft.to/lastmile_qr_scan", "ios": "https://dc.lft.to/lastmile_qr_scan"}, "type": "electric_scooter"}, {"bike_id": "268a9cfb13cb10da6afb738413a6e071", "is_reserved": 0, "name": "268a9cfb13cb10da6afb738413a6e071", "lat": 38.92446616666667, "fusion_lat": 0.0, "lon": -77.040212, "is_disabled": 0, "fusion_lon": 0.0, "rental_uris": {"android": "https://dc.lft.to/lastmile_qr_scan", "ios": "https://dc.lft.to/lastmile_qr_scan"}, "type": "electric_scooter"}, {"bike_id": "3b210b3bfb470f8459a057549be220e6", "is_reserved": 0, "name": "3b210b3bfb470f8459a057549be220e6", "lat": 38.904809, "fusion_lat": 0.0, "lon": -77.00729766666667, "is_disabled": 0, "fusion_lon": 0.0, "rental_uris": {"android": "https://dc.lft.to/lastmile_qr_scan", "ios": "https://dc.lft.to/lastmile_qr_scan"}, "type": "electric_scooter"}, {"bike_id": "88e9d2cd822f39b4500f260b4fa505ed", "is_reserved": 0, "name": "88e9d2cd822f39b4500f260b4fa505ed", "lat": 38.912896333333336, "fusion_lat": 0.0, "lon": -77.02242316666667, "is_disabled": 0, "fusion_lon": 0.0, "rental_uris": {"android": "https://dc.lft.to/lastmile_qr_scan", "ios": "https://dc.lft.to/lastmile_qr_scan"}, "type": "electric_scooter"}, {"bike_id": "6531f946dede7ac38d4b13e8864bfc03", "is_reserved": 0, "name": "6531f946dede7ac38d4b13e8864bfc03", "lat": 38.900843, "fusion_lat": 0.0, "lon": -77.03367433333334, "is_disabled": 0, "fusion_lon": 0.0, "rental_uris": {"android": "https://dc.lft.to/lastmile_qr_scan", "ios": "https://dc.lft.to/lastmile_qr_scan"}, "type": "electric_scooter"}, {"bike_id": "90b6b3ce759b5443052b6a651518fbf3", "is_reserved": 0, "name": "90b6b3ce759b5443052b6a651518fbf3", "lat": 38.9145255, "fusion_lat": 0.0, "lon": -77.0415155, "is_disabled": 0, "fusion_lon": 0.0, "rental_uris": {"android": "https://dc.lft.to/lastmile_qr_scan", "ios": "https://dc.lft.to/lastmile_qr_scan"}, "type": "electric_scooter"}, {"bike_id": "be742e5b3f3ea8e5f45091e10f17222f", "is_reserved": 0, "name": "be742e5b3f3ea8e5f45091e10f17222f", "lat": 38.898427833333336, "fusion_lat": 0.0, "lon": -77.0291005, "is_disabled": 0, "fusion_lon": 0.0, "rental_uris": {"android": "https://dc.lft.to/lastmile_qr_scan", "ios": "https://dc.lft.to/lastmile_qr_scan"}, "type": "electric_scooter"}, {"bike_id": "6872ad8a1d45c7cd974a3e1f78783470", "is_reserved": 0, "name": "6872ad8a1d45c7cd974a3e1f78783470", "lat": 38.83244533333333, "fusion_lat": 0.0, "lon": -77.00718316666666, "is_disabled": 0, "fusion_lon": 0.0, "rental_uris": {"android": "https://dc.lft.to/lastmile_qr_scan", "ios": "https://dc.lft.to/lastmile_qr_scan"}, "type": "electric_bike"}, {"bike_id": "afd2ffa38b391a4ab4ffd2ff428d6334", "is_reserved": 0, "name": "afd2ffa38b391a4ab4ffd2ff428d6334", "lat": 38.906688833333334, "fusion_lat": 0.0, "lon": -77.02692933333333, "is_disabled": 0, "fusion_lon": 0.0, "rental_uris": {"android": "https://dc.lft.to/lastmile_qr_scan", "ios": "https://dc.lft.to/lastmile_qr_scan"}, "type": "electric_scooter"}, {"bike_id": "2c1b0219c6978674968fa46c5e3f66d6", "is_reserved": 0, "name": "2c1b0219c6978674968fa46c5e3f66d6", "lat": 38.909608666666664, "fusion_lat": 0.0, "lon": -77.0460755, "is_disabled": 0, "fusion_lon": 0.0, "rental_uris": {"android": "https://dc.lft.to/lastmile_qr_scan", "ios": "https://dc.lft.to/lastmile_qr_scan"}, "type": "electric_scooter"}, {"bike_id": "6f201a0b02b94464a21c838341439ffb", "is_reserved": 0, "name": "6f201a0b02b94464a21c838341439ffb", "lat": 38.90861783333333, "fusion_lat": 0.0, "lon": -77.02853383333333, "is_disabled": 0, "fusion_lon": 0.0, "rental_uris": {"android": "https://dc.lft.to/lastmile_qr_scan", "ios": "https://dc.lft.to/lastmile_qr_scan"}, "type": "electric_scooter"}, {"bike_id": "1ee25163771b10ce0375cbba5fda62b8", "is_reserved": 0, "name": "1ee25163771b10ce0375cbba5fda62b8", "lat": 38.90000166666667, "fusion_lat": 0.0, "lon": -77.00666983333333, "is_disabled": 0, "fusion_lon": 0.0, "rental_uris": {"android": "https://dc.lft.to/lastmile_qr_scan", "ios": "https://dc.lft.to/lastmile_qr_scan"}, "type": "electric_scooter"}, {"bike_id": "ad9bffef37f642294dc69b5a57e1d355", "is_reserved": 0, "name": "ad9bffef37f642294dc69b5a57e1d355", "lat": 38.905354333333335, "fusion_lat": 0.0, "lon": -77.05645083333333, "is_disabled": 0, "fusion_lon": 0.0, "rental_uris": {"android": "https://dc.lft.to/lastmile_qr_scan", "ios": "https://dc.lft.to/lastmile_qr_scan"}, "type": "electric_scooter"}, {"bike_id": "b05c15b998f9afe6d94f0893134f8048", "is_reserved": 0, "name": "b05c15b998f9afe6d94f0893134f8048", "lat": 38.92447633333333, "fusion_lat": 0.0, "lon": -77.020374, "is_disabled": 0, "fusion_lon": 0.0, "rental_uris": {"android": "https://dc.lft.to/lastmile_qr_scan", "ios": "https://dc.lft.to/lastmile_qr_scan"}, "type": "electric_scooter"}, {"bike_id": "56e4b5a93f2387ddda26473030564fd8", "is_reserved": 0, "name": "56e4b5a93f2387ddda26473030564fd8", "lat": 38.897286666666666, "fusion_lat": 0.0, "lon": -77.02329116666667, "is_disabled": 0, "fusion_lon": 0.0, "rental_uris": {"android": "https://dc.lft.to/lastmile_qr_scan", "ios": "https://dc.lft.to/lastmile_qr_scan"}, "type": "electric_scooter"}, {"bike_id": "6daa535c5948b5cafd90cb257fdb19d6", "is_reserved": 0, "name": "6daa535c5948b5cafd90cb257fdb19d6", "lat": 38.896701666666665, "fusion_lat": 0.0, "lon": -76.93204033333333, "is_disabled": 0, "fusion_lon": 0.0, "rental_uris": {"android": "https://dc.lft.to/lastmile_qr_scan", "ios": "https://dc.lft.to/lastmile_qr_scan"}, "type": "electric_scooter"}, {"bike_id": "6767231f4baefe4e070e7b700a78bf9f", "is_reserved": 0, "name": "6767231f4baefe4e070e7b700a78bf9f", "lat": 38.915658666666666, "fusion_lat": 0.0, "lon": -77.0200205, "is_disabled": 0, "fusion_lon": 0.0, "rental_uris": {"android": "https://dc.lft.to/lastmile_qr_scan", "ios": "https://dc.lft.to/lastmile_qr_scan"}, "type": "electric_scooter"}, {"bike_id": "fb25783df0207a570a090cf2984343b8", "is_reserved": 0, "name": "fb25783df0207a570a090cf2984343b8", "lat": 38.9167655, "fusion_lat": 0.0, "lon": -77.04603383333334, "is_disabled": 0, "fusion_lon": 0.0, "rental_uris": {"android": "https://dc.lft.to/lastmile_qr_scan", "ios": "https://dc.lft.to/lastmile_qr_scan"}, "type": "electric_scooter"}, {"bike_id": "023a7c39278eee1e7a5314b47adc4b61", "is_reserved": 0, "name": "023a7c39278eee1e7a5314b47adc4b61", "lat": 38.90160816666667, "fusion_lat": 0.0, "lon": -77.02687016666667, "is_disabled": 0, "fusion_lon": 0.0, "rental_uris": {"android": "https://dc.lft.to/lastmile_qr_scan", "ios": "https://dc.lft.to/lastmile_qr_scan"}, "type": "electric_scooter"}, {"bike_id": "54c4088770a0ec1ba2bb080d73af1b92", "is_reserved": 0, "name": "54c4088770a0ec1ba2bb080d73af1b92", "lat": 38.92341416666667, "fusion_lat": 0.0, "lon": -77.01904783333333, "is_disabled": 0, "fusion_lon": 0.0, "rental_uris": {"android": "https://dc.lft.to/lastmile_qr_scan", "ios": "https://dc.lft.to/lastmile_qr_scan"}, "type": "electric_scooter"}, {"bike_id": "2239bfaa088f5e0cc1e343f0975c7b0a", "is_reserved": 0, "name": "2239bfaa088f5e0cc1e343f0975c7b0a", "lat": 38.88433216666667, "fusion_lat": 0.0, "lon": -77.0082375, "is_disabled": 0, "fusion_lon": 0.0, "rental_uris": {"android": "https://dc.lft.to/lastmile_qr_scan", "ios": "https://dc.lft.to/lastmile_qr_scan"}, "type": "electric_scooter"}, {"bike_id": "cd95f1f3ff19f07b66509cb91b926d4c", "is_reserved": 0, "name": "cd95f1f3ff19f07b66509cb91b926d4c", "lat": 38.90030083333333, "fusion_lat": 0.0, "lon": -76.98836733333333, "is_disabled": 0, "fusion_lon": 0.0, "rental_uris": {"android": "https://dc.lft.to/lastmile_qr_scan", "ios": "https://dc.lft.to/lastmile_qr_scan"}, "type": "electric_scooter"}, {"bike_id": "0a20fb5263e0ddda59df298a7cdedc07", "is_reserved": 0, "name": "0a20fb5263e0ddda59df298a7cdedc07", "lat": 38.92226866666667, "fusion_lat": 0.0, "lon": -77.020049, "is_disabled": 0, "fusion_lon": 0.0, "rental_uris": {"android": "https://dc.lft.to/lastmile_qr_scan", "ios": "https://dc.lft.to/lastmile_qr_scan"}, "type": "electric_scooter"}, {"bike_id": "fcf554280cfbe4c9d3df6e288db109f4", "is_reserved": 0, "name": "fcf554280cfbe4c9d3df6e288db109f4", "lat": 38.9171015, "fusion_lat": 0.0, "lon": -77.030324, "is_disabled": 0, "fusion_lon": 0.0, "rental_uris": {"android": "https://dc.lft.to/lastmile_qr_scan", "ios": "https://dc.lft.to/lastmile_qr_scan"}, "type": "electric_scooter"}, {"bike_id": "4cb57d7f7f30e09ee21e4fbb4ee49843", "is_reserved": 0, "name": "4cb57d7f7f30e09ee21e4fbb4ee49843", "lat": 38.92294733333333, "fusion_lat": 0.0, "lon": -76.99777, "is_disabled": 0, "fusion_lon": 0.0, "rental_uris": {"android": "https://dc.lft.to/lastmile_qr_scan", "ios": "https://dc.lft.to/lastmile_qr_scan"}, "type": "electric_scooter"}, {"bike_id": "dae621a36325da8bb09bd624ab9a5705", "is_reserved": 0, "name": "dae621a36325da8bb09bd624ab9a5705", "lat": 38.90731816666667, "fusion_lat": 0.0, "lon": -77.04289766666666, "is_disabled": 0, "fusion_lon": 0.0, "rental_uris": {"android": "https://dc.lft.to/lastmile_qr_scan", "ios": "https://dc.lft.to/lastmile_qr_scan"}, "type": "electric_scooter"}, {"bike_id": "8c872a858305b1452bb0c2fa9e1640b6", "is_reserved": 0, "name": "8c872a858305b1452bb0c2fa9e1640b6", "lat": 38.92382, "fusion_lat": 0.0, "lon": -77.03536116666666, "is_disabled": 0, "fusion_lon": 0.0, "rental_uris": {"android": "https://dc.lft.to/lastmile_qr_scan", "ios": "https://dc.lft.to/lastmile_qr_scan"}, "type": "electric_scooter"}, {"bike_id": "451e0265e68f36295de86ab434b23cfe", "is_reserved": 0, "name": "451e0265e68f36295de86ab434b23cfe", "lat": 38.900250666666665, "fusion_lat": 0.0, "lon": -77.0120225, "is_disabled": 0, "fusion_lon": 0.0, "rental_uris": {"android": "https://dc.lft.to/lastmile_qr_scan", "ios": "https://dc.lft.to/lastmile_qr_scan"}, "type": "electric_bike"}, {"bike_id": "a4f2fdaeb9e0c3be9924ccc567a6da88", "is_reserved": 0, "name": "a4f2fdaeb9e0c3be9924ccc567a6da88", "lat": 38.87654366666666, "fusion_lat": 0.0, "lon": -77.00075583333333, "is_disabled": 0, "fusion_lon": 0.0, "rental_uris": {"android": "https://dc.lft.to/lastmile_qr_scan", "ios": "https://dc.lft.to/lastmile_qr_scan"}, "type": "electric_scooter"}, {"bike_id": "d0399c69be7fb162b6a40e1a9bf3c52c", "is_reserved": 0, "name": "d0399c69be7fb162b6a40e1a9bf3c52c", "lat": 38.9171995, "fusion_lat": 0.0, "lon": -77.0253875, "is_disabled": 0, "fusion_lon": 0.0, "rental_uris": {"android": "https://dc.lft.to/lastmile_qr_scan", "ios": "https://dc.lft.to/lastmile_qr_scan"}, "type": "electric_scooter"}, {"bike_id": "e5bc2d13d0398655cea43e3c548aa6c9", "is_reserved": 0, "name": "e5bc2d13d0398655cea43e3c548aa6c9", "lat": 38.909637333333336, "fusion_lat": 0.0, "lon": -77.033843, "is_disabled": 0, "fusion_lon": 0.0, "rental_uris": {"android": "https://dc.lft.to/lastmile_qr_scan", "ios": "https://dc.lft.to/lastmile_qr_scan"}, "type": "electric_scooter"}, {"bike_id": "15ac969c1a1b4da2a94bc657b69679cf", "is_reserved": 0, "name": "15ac969c1a1b4da2a94bc657b69679cf", "lat": 38.917157, "fusion_lat": 0.0, "lon": -77.0385925, "is_disabled": 0, "fusion_lon": 0.0, "rental_uris": {"android": "https://dc.lft.to/lastmile_qr_scan", "ios": "https://dc.lft.to/lastmile_qr_scan"}, "type": "electric_scooter"}, {"bike_id": "e3e78fba75c77543ea728ec2ef2e1290", "is_reserved": 0, "name": "e3e78fba75c77543ea728ec2ef2e1290", "lat": 38.90507683333333, "fusion_lat": 0.0, "lon": -77.0592655, "is_disabled": 0, "fusion_lon": 0.0, "rental_uris": {"android": "https://dc.lft.to/lastmile_qr_scan", "ios": "https://dc.lft.to/lastmile_qr_scan"}, "type": "electric_scooter"}, {"bike_id": "a32284b329ae3785e2f9d30492737da8", "is_reserved": 0, "name": "a32284b329ae3785e2f9d30492737da8", "lat": 38.916926333333336, "fusion_lat": 0.0, "lon": -77.031523, "is_disabled": 0, "fusion_lon": 0.0, "rental_uris": {"android": "https://dc.lft.to/lastmile_qr_scan", "ios": "https://dc.lft.to/lastmile_qr_scan"}, "type": "electric_scooter"}, {"bike_id": "94ad2d66a6bdfd78af63585004f06094", "is_reserved": 0, "name": "94ad2d66a6bdfd78af63585004f06094", "lat": 38.88111883333333, "fusion_lat": 0.0, "lon": -77.0166825, "is_disabled": 0, "fusion_lon": 0.0, "rental_uris": {"android": "https://dc.lft.to/lastmile_qr_scan", "ios": "https://dc.lft.to/lastmile_qr_scan"}, "type": "electric_scooter"}, {"bike_id": "f16ce27b42d488fcf9453abec9b400a7", "is_reserved": 0, "name": "f16ce27b42d488fcf9453abec9b400a7", "lat": 38.900633, "fusion_lat": 0.0, "lon": -76.93384766666667, "is_disabled": 0, "fusion_lon": 0.0, "rental_uris": {"android": "https://dc.lft.to/lastmile_qr_scan", "ios": "https://dc.lft.to/lastmile_qr_scan"}, "type": "electric_scooter"}, {"bike_id": "728970a4865f36a3947d3dafa5721120", "is_reserved": 0, "name": "728970a4865f36a3947d3dafa5721120", "lat": 38.9389545, "fusion_lat": 0.0, "lon": -76.986033, "is_disabled": 0, "fusion_lon": 0.0, "rental_uris": {"android": "https://dc.lft.to/lastmile_qr_scan", "ios": "https://dc.lft.to/lastmile_qr_scan"}, "type": "electric_scooter"}, {"bike_id": "a6a0985f83e88936d2294d512bd90f52", "is_reserved": 0, "name": "a6a0985f83e88936d2294d512bd90f52", "lat": 38.9737395, "fusion_lat": 0.0, "lon": -77.0127035, "is_disabled": 0, "fusion_lon": 0.0, "rental_uris": {"android": "https://dc.lft.to/lastmile_qr_scan", "ios": "https://dc.lft.to/lastmile_qr_scan"}, "type": "electric_scooter"}, {"bike_id": "8f2289ab10e31d05a4dcb42238831599", "is_reserved": 0, "name": "8f2289ab10e31d05a4dcb42238831599", "lat": 38.935396833333336, "fusion_lat": 0.0, "lon": -77.05737116666667, "is_disabled": 0, "fusion_lon": 0.0, "rental_uris": {"android": "https://dc.lft.to/lastmile_qr_scan", "ios": "https://dc.lft.to/lastmile_qr_scan"}, "type": "electric_scooter"}, {"bike_id": "d14f2cd367066f6858e3fd052fc2f17a", "is_reserved": 0, "name": "d14f2cd367066f6858e3fd052fc2f17a", "lat": 38.9066975, "fusion_lat": 0.0, "lon": -76.98941216666667, "is_disabled": 0, "fusion_lon": 0.0, "rental_uris": {"android": "https://dc.lft.to/lastmile_qr_scan", "ios": "https://dc.lft.to/lastmile_qr_scan"}, "type": "electric_scooter"}, {"bike_id": "a47ef279852831a0b76c5efe50f40ddb", "is_reserved": 0, "name": "a47ef279852831a0b76c5efe50f40ddb", "lat": 38.89297033333333, "fusion_lat": 0.0, "lon": -77.01225266666667, "is_disabled": 0, "fusion_lon": 0.0, "rental_uris": {"android": "https://dc.lft.to/lastmile_qr_scan", "ios": "https://dc.lft.to/lastmile_qr_scan"}, "type": "electric_scooter"}, {"bike_id": "a60a727b7037f9f43c48790cff84a5ee", "is_reserved": 0, "name": "a60a727b7037f9f43c48790cff84a5ee", "lat": 38.992166, "fusion_lat": 0.0, "lon": -77.03208366666667, "is_disabled": 0, "fusion_lon": 0.0, "rental_uris": {"android": "https://dc.lft.to/lastmile_qr_scan", "ios": "https://dc.lft.to/lastmile_qr_scan"}, "type": "electric_bike"}, {"bike_id": "99d377e05b625cc42df70722cf5f3429", "is_reserved": 0, "name": "99d377e05b625cc42df70722cf5f3429", "lat": 38.9193385, "fusion_lat": 0.0, "lon": -77.07065966666667, "is_disabled": 0, "fusion_lon": 0.0, "rental_uris": {"android": "https://dc.lft.to/lastmile_qr_scan", "ios": "https://dc.lft.to/lastmile_qr_scan"}, "type": "electric_scooter"}, {"bike_id": "e2fe5d9b5b7786ce7dc27f5268e10226", "is_reserved": 0, "name": "e2fe5d9b5b7786ce7dc27f5268e10226", "lat": 38.938457, "fusion_lat": 0.0, "lon": -77.0722765, "is_disabled": 0, "fusion_lon": 0.0, "rental_uris": {"android": "https://dc.lft.to/lastmile_qr_scan", "ios": "https://dc.lft.to/lastmile_qr_scan"}, "type": "electric_scooter"}, {"bike_id": "0e9597218f8b1a1d4a84c5b3c16564d6", "is_reserved": 0, "name": "0e9597218f8b1a1d4a84c5b3c16564d6", "lat": 38.918148333333335, "fusion_lat": 0.0, "lon": -77.032073, "is_disabled": 0, "fusion_lon": 0.0, "rental_uris": {"android": "https://dc.lft.to/lastmile_qr_scan", "ios": "https://dc.lft.to/lastmile_qr_scan"}, "type": "electric_scooter"}, {"bike_id": "0dbea8d9fdac5052eb978e53b107a132", "is_reserved": 0, "name": "0dbea8d9fdac5052eb978e53b107a132", "lat": 38.902275833333334, "fusion_lat": 0.0, "lon": -77.053342, "is_disabled": 0, "fusion_lon": 0.0, "rental_uris": {"android": "https://dc.lft.to/lastmile_qr_scan", "ios": "https://dc.lft.to/lastmile_qr_scan"}, "type": "electric_scooter"}, {"bike_id": "1c18e85fd885bd3e58f1997c41a0e979", "is_reserved": 0, "name": "1c18e85fd885bd3e58f1997c41a0e979", "lat": 38.86974816666667, "fusion_lat": 0.0, "lon": -77.0117215, "is_disabled": 0, "fusion_lon": 0.0, "rental_uris": {"android": "https://dc.lft.to/lastmile_qr_scan", "ios": "https://dc.lft.to/lastmile_qr_scan"}, "type": "electric_bike"}, {"bike_id": "1361c688353a48893fb1ed4726405d35", "is_reserved": 0, "name": "1361c688353a48893fb1ed4726405d35", "lat": 38.927408166666666, "fusion_lat": 0.0, "lon": -77.0225255, "is_disabled": 0, "fusion_lon": 0.0, "rental_uris": {"android": "https://dc.lft.to/lastmile_qr_scan", "ios": "https://dc.lft.to/lastmile_qr_scan"}, "type": "electric_scooter"}, {"bike_id": "dcd852a7046c4f7a3d86a3d96fe88142", "is_reserved": 0, "name": "dcd852a7046c4f7a3d86a3d96fe88142", "lat": 38.905576833333335, "fusion_lat": 0.0, "lon": -77.0018435, "is_disabled": 0, "fusion_lon": 0.0, "rental_uris": {"android": "https://dc.lft.to/lastmile_qr_scan", "ios": "https://dc.lft.to/lastmile_qr_scan"}, "type": "electric_scooter"}, {"bike_id": "6c46fbe4f8fb798104d7fd3f2cbbd11a", "is_reserved": 0, "name": "6c46fbe4f8fb798104d7fd3f2cbbd11a", "lat": 38.93082316666667, "fusion_lat": 0.0, "lon": -77.02792716666667, "is_disabled": 0, "fusion_lon": 0.0, "rental_uris": {"android": "https://dc.lft.to/lastmile_qr_scan", "ios": "https://dc.lft.to/lastmile_qr_scan"}, "type": "electric_scooter"}, {"bike_id": "abe0ed9da5e7b70bca40a0215f52e082", "is_reserved": 0, "name": "abe0ed9da5e7b70bca40a0215f52e082", "lat": 38.920530166666666, "fusion_lat": 0.0, "lon": -77.03393566666666, "is_disabled": 0, "fusion_lon": 0.0, "rental_uris": {"android": "https://dc.lft.to/lastmile_qr_scan", "ios": "https://dc.lft.to/lastmile_qr_scan"}, "type": "electric_scooter"}, {"bike_id": "86262e3b7f942acfdf68e6206497c6f7", "is_reserved": 0, "name": "86262e3b7f942acfdf68e6206497c6f7", "lat": 38.89059783333333, "fusion_lat": 0.0, "lon": -76.94441333333333, "is_disabled": 0, "fusion_lon": 0.0, "rental_uris": {"android": "https://dc.lft.to/lastmile_qr_scan", "ios": "https://dc.lft.to/lastmile_qr_scan"}, "type": "electric_scooter"}, {"bike_id": "dba31e9dd84cb91c23807aed2c365c9b", "is_reserved": 0, "name": "dba31e9dd84cb91c23807aed2c365c9b", "lat": 38.839255333333334, "fusion_lat": 0.0, "lon": -77.078991, "is_disabled": 0, "fusion_lon": 0.0, "rental_uris": {"android": "https://dc.lft.to/lastmile_qr_scan", "ios": "https://dc.lft.to/lastmile_qr_scan"}, "type": "electric_bike"}, {"bike_id": "77ec8d4b6266001ad59dd3a7e0e7c864", "is_reserved": 0, "name": "77ec8d4b6266001ad59dd3a7e0e7c864", "lat": 38.9246845, "fusion_lat": 0.0, "lon": -77.02205333333333, "is_disabled": 0, "fusion_lon": 0.0, "rental_uris": {"android": "https://dc.lft.to/lastmile_qr_scan", "ios": "https://dc.lft.to/lastmile_qr_scan"}, "type": "electric_scooter"}, {"bike_id": "76dc33fd6974363f7de3b98484e391bc", "is_reserved": 0, "name": "76dc33fd6974363f7de3b98484e391bc", "lat": 38.900837333333335, "fusion_lat": 0.0, "lon": -77.02621283333333, "is_disabled": 0, "fusion_lon": 0.0, "rental_uris": {"android": "https://dc.lft.to/lastmile_qr_scan", "ios": "https://dc.lft.to/lastmile_qr_scan"}, "type": "electric_scooter"}, {"bike_id": "291e3b48abf8f287a445266995508de2", "is_reserved": 0, "name": "291e3b48abf8f287a445266995508de2", "lat": 38.90257916666667, "fusion_lat": 0.0, "lon": -77.04697216666666, "is_disabled": 0, "fusion_lon": 0.0, "rental_uris": {"android": "https://dc.lft.to/lastmile_qr_scan", "ios": "https://dc.lft.to/lastmile_qr_scan"}, "type": "electric_scooter"}, {"bike_id": "963a5b3335bbc695e8ed80edce3a1cb1", "is_reserved": 0, "name": "963a5b3335bbc695e8ed80edce3a1cb1", "lat": 38.91346466666667, "fusion_lat": 0.0, "lon": -77.027581, "is_disabled": 0, "fusion_lon": 0.0, "rental_uris": {"android": "https://dc.lft.to/lastmile_qr_scan", "ios": "https://dc.lft.to/lastmile_qr_scan"}, "type": "electric_scooter"}, {"bike_id": "8e21ac3c98d9098cb90935527ef91539", "is_reserved": 0, "name": "8e21ac3c98d9098cb90935527ef91539", "lat": 38.870276833333335, "fusion_lat": 0.0, "lon": -77.01049516666667, "is_disabled": 0, "fusion_lon": 0.0, "rental_uris": {"android": "https://dc.lft.to/lastmile_qr_scan", "ios": "https://dc.lft.to/lastmile_qr_scan"}, "type": "electric_scooter"}, {"bike_id": "177da1d396214cc7449989556417f3ef", "is_reserved": 0, "name": "177da1d396214cc7449989556417f3ef", "lat": 38.900752833333335, "fusion_lat": 0.0, "lon": -77.0270555, "is_disabled": 0, "fusion_lon": 0.0, "rental_uris": {"android": "https://dc.lft.to/lastmile_qr_scan", "ios": "https://dc.lft.to/lastmile_qr_scan"}, "type": "electric_scooter"}, {"bike_id": "e7ef1d7d8ca1b3d8c154f5944fdc9e50", "is_reserved": 0, "name": "e7ef1d7d8ca1b3d8c154f5944fdc9e50", "lat": 38.940835166666666, "fusion_lat": 0.0, "lon": -77.02632116666666, "is_disabled": 0, "fusion_lon": 0.0, "rental_uris": {"android": "https://dc.lft.to/lastmile_qr_scan", "ios": "https://dc.lft.to/lastmile_qr_scan"}, "type": "electric_scooter"}, {"bike_id": "d767c48b75da02adfcbe2bd5ba8cbc30", "is_reserved": 0, "name": "d767c48b75da02adfcbe2bd5ba8cbc30", "lat": 38.942912, "fusion_lat": 0.0, "lon": -77.02173216666667, "is_disabled": 0, "fusion_lon": 0.0, "rental_uris": {"android": "https://dc.lft.to/lastmile_qr_scan", "ios": "https://dc.lft.to/lastmile_qr_scan"}, "type": "electric_scooter"}, {"bike_id": "4c8cf3f9000e007acd2c049a9a0ba1a9", "is_reserved": 0, "name": "4c8cf3f9000e007acd2c049a9a0ba1a9", "lat": 38.927888833333334, "fusion_lat": 0.0, "lon": -77.05314466666667, "is_disabled": 0, "fusion_lon": 0.0, "rental_uris": {"android": "https://dc.lft.to/lastmile_qr_scan", "ios": "https://dc.lft.to/lastmile_qr_scan"}, "type": "electric_scooter"}, {"bike_id": "34ded65a78949a14592b9d24d9d13ba0", "is_reserved": 0, "name": "34ded65a78949a14592b9d24d9d13ba0", "lat": 38.925202666666664, "fusion_lat": 0.0, "lon": -77.05037766666666, "is_disabled": 0, "fusion_lon": 0.0, "rental_uris": {"android": "https://dc.lft.to/lastmile_qr_scan", "ios": "https://dc.lft.to/lastmile_qr_scan"}, "type": "electric_scooter"}, {"bike_id": "af04101222026f946168e85b58f53bc0", "is_reserved": 0, "name": "af04101222026f946168e85b58f53bc0", "lat": 38.92470733333333, "fusion_lat": 0.0, "lon": -77.02689, "is_disabled": 0, "fusion_lon": 0.0, "rental_uris": {"android": "https://dc.lft.to/lastmile_qr_scan", "ios": "https://dc.lft.to/lastmile_qr_scan"}, "type": "electric_scooter"}, {"bike_id": "e750c10cc886d719dccda4050e979cf0", "is_reserved": 0, "name": "e750c10cc886d719dccda4050e979cf0", "lat": 38.819919666666664, "fusion_lat": 0.0, "lon": -76.998054, "is_disabled": 0, "fusion_lon": 0.0, "rental_uris": {"android": "https://dc.lft.to/lastmile_qr_scan", "ios": "https://dc.lft.to/lastmile_qr_scan"}, "type": "electric_bike"}, {"bike_id": "20cb29eea29a4115b507e40206c3c48d", "is_reserved": 0, "name": "20cb29eea29a4115b507e40206c3c48d", "lat": 38.891748, "fusion_lat": 0.0, "lon": -76.9264755, "is_disabled": 0, "fusion_lon": 0.0, "rental_uris": {"android": "https://dc.lft.to/lastmile_qr_scan", "ios": "https://dc.lft.to/lastmile_qr_scan"}, "type": "electric_scooter"}, {"bike_id": "b77ee80757c12352f02ee6e342189303", "is_reserved": 0, "name": "b77ee80757c12352f02ee6e342189303", "lat": 38.92444916666667, "fusion_lat": 0.0, "lon": -76.9898685, "is_disabled": 0, "fusion_lon": 0.0, "rental_uris": {"android": "https://dc.lft.to/lastmile_qr_scan", "ios": "https://dc.lft.to/lastmile_qr_scan"}, "type": "electric_scooter"}, {"bike_id": "961add7c0f67b7a120d7649a2ec0bbec", "is_reserved": 0, "name": "961add7c0f67b7a120d7649a2ec0bbec", "lat": 38.90348683333333, "fusion_lat": 0.0, "lon": -77.03304516666667, "is_disabled": 0, "fusion_lon": 0.0, "rental_uris": {"android": "https://dc.lft.to/lastmile_qr_scan", "ios": "https://dc.lft.to/lastmile_qr_scan"}, "type": "electric_scooter"}, {"bike_id": "3bce54b9bf048c3775a155f7ddda29fd", "is_reserved": 0, "name": "3bce54b9bf048c3775a155f7ddda29fd", "lat": 38.91924433333333, "fusion_lat": 0.0, "lon": -77.02492416666666, "is_disabled": 0, "fusion_lon": 0.0, "rental_uris": {"android": "https://dc.lft.to/lastmile_qr_scan", "ios": "https://dc.lft.to/lastmile_qr_scan"}, "type": "electric_scooter"}, {"bike_id": "933fc6ca1b2c1b53ff8f9db9d6a857f4", "is_reserved": 0, "name": "933fc6ca1b2c1b53ff8f9db9d6a857f4", "lat": 38.903153, "fusion_lat": 0.0, "lon": -77.00574083333333, "is_disabled": 0, "fusion_lon": 0.0, "rental_uris": {"android": "https://dc.lft.to/lastmile_qr_scan", "ios": "https://dc.lft.to/lastmile_qr_scan"}, "type": "electric_scooter"}, {"bike_id": "d19f6bc3bdacee9375d970e4b40fd7ea", "is_reserved": 0, "name": "d19f6bc3bdacee9375d970e4b40fd7ea", "lat": 38.915656, "fusion_lat": 0.0, "lon": -77.02001183333333, "is_disabled": 0, "fusion_lon": 0.0, "rental_uris": {"android": "https://dc.lft.to/lastmile_qr_scan", "ios": "https://dc.lft.to/lastmile_qr_scan"}, "type": "electric_scooter"}, {"bike_id": "4f737d3baf4f48bdb78e087733459d9e", "is_reserved": 0, "name": "4f737d3baf4f48bdb78e087733459d9e", "lat": 38.91421116666667, "fusion_lat": 0.0, "lon": -77.02093583333334, "is_disabled": 0, "fusion_lon": 0.0, "rental_uris": {"android": "https://dc.lft.to/lastmile_qr_scan", "ios": "https://dc.lft.to/lastmile_qr_scan"}, "type": "electric_scooter"}, {"bike_id": "4e2f77517bd9c4dd8d94d6dac6b0759c", "is_reserved": 0, "name": "4e2f77517bd9c4dd8d94d6dac6b0759c", "lat": 38.89221383333334, "fusion_lat": 0.0, "lon": -77.04326566666667, "is_disabled": 0, "fusion_lon": 0.0, "rental_uris": {"android": "https://dc.lft.to/lastmile_qr_scan", "ios": "https://dc.lft.to/lastmile_qr_scan"}, "type": "electric_scooter"}, {"bike_id": "1ada695da8229df62ec1c2884aa1b0b6", "is_reserved": 0, "name": "1ada695da8229df62ec1c2884aa1b0b6", "lat": 38.922494, "fusion_lat": 0.0, "lon": -77.01964166666667, "is_disabled": 0, "fusion_lon": 0.0, "rental_uris": {"android": "https://dc.lft.to/lastmile_qr_scan", "ios": "https://dc.lft.to/lastmile_qr_scan"}, "type": "electric_scooter"}, {"bike_id": "72534ebb898b6c3958e0f310d4e194c7", "is_reserved": 0, "name": "72534ebb898b6c3958e0f310d4e194c7", "lat": 38.92334566666667, "fusion_lat": 0.0, "lon": -77.03579633333334, "is_disabled": 0, "fusion_lon": 0.0, "rental_uris": {"android": "https://dc.lft.to/lastmile_qr_scan", "ios": "https://dc.lft.to/lastmile_qr_scan"}, "type": "electric_scooter"}, {"bike_id": "1a02fb7f0fa9c31f63419cbe3f10e63b", "is_reserved": 0, "name": "1a02fb7f0fa9c31f63419cbe3f10e63b", "lat": 38.9276095, "fusion_lat": 0.0, "lon": -77.05267533333334, "is_disabled": 0, "fusion_lon": 0.0, "rental_uris": {"android": "https://dc.lft.to/lastmile_qr_scan", "ios": "https://dc.lft.to/lastmile_qr_scan"}, "type": "electric_scooter"}, {"bike_id": "7af4f018d1b4bc44977a18ddaebbbaa7", "is_reserved": 0, "name": "7af4f018d1b4bc44977a18ddaebbbaa7", "lat": 38.9033245, "fusion_lat": 0.0, "lon": -77.02152083333333, "is_disabled": 0, "fusion_lon": 0.0, "rental_uris": {"android": "https://dc.lft.to/lastmile_qr_scan", "ios": "https://dc.lft.to/lastmile_qr_scan"}, "type": "electric_scooter"}, {"bike_id": "95cca0a6db6838210994ffeb1d6abbe4", "is_reserved": 0, "name": "95cca0a6db6838210994ffeb1d6abbe4", "lat": 38.927933333333335, "fusion_lat": 0.0, "lon": -77.021068, "is_disabled": 0, "fusion_lon": 0.0, "rental_uris": {"android": "https://dc.lft.to/lastmile_qr_scan", "ios": "https://dc.lft.to/lastmile_qr_scan"}, "type": "electric_scooter"}, {"bike_id": "f2c0ede171a4ce37fc605ce509d217f0", "is_reserved": 0, "name": "f2c0ede171a4ce37fc605ce509d217f0", "lat": 38.92552533333333, "fusion_lat": 0.0, "lon": -76.981487, "is_disabled": 0, "fusion_lon": 0.0, "rental_uris": {"android": "https://dc.lft.to/lastmile_qr_scan", "ios": "https://dc.lft.to/lastmile_qr_scan"}, "type": "electric_scooter"}, {"bike_id": "7bc35ef682021d59ef8b2e27d7b53ec1", "is_reserved": 0, "name": "7bc35ef682021d59ef8b2e27d7b53ec1", "lat": 38.90807433333333, "fusion_lat": 0.0, "lon": -77.04158883333334, "is_disabled": 0, "fusion_lon": 0.0, "rental_uris": {"android": "https://dc.lft.to/lastmile_qr_scan", "ios": "https://dc.lft.to/lastmile_qr_scan"}, "type": "electric_scooter"}, {"bike_id": "c77313270216e80d515c1eec48c404dc", "is_reserved": 0, "name": "c77313270216e80d515c1eec48c404dc", "lat": 38.92181083333333, "fusion_lat": 0.0, "lon": -77.04190833333334, "is_disabled": 0, "fusion_lon": 0.0, "rental_uris": {"android": "https://dc.lft.to/lastmile_qr_scan", "ios": "https://dc.lft.to/lastmile_qr_scan"}, "type": "electric_scooter"}, {"bike_id": "1005b8198f04d6ff27e1d3ec5c436186", "is_reserved": 0, "name": "1005b8198f04d6ff27e1d3ec5c436186", "lat": 38.91309233333333, "fusion_lat": 0.0, "lon": -77.06229666666667, "is_disabled": 0, "fusion_lon": 0.0, "rental_uris": {"android": "https://dc.lft.to/lastmile_qr_scan", "ios": "https://dc.lft.to/lastmile_qr_scan"}, "type": "electric_scooter"}, {"bike_id": "e945b928a160a2f3cacb8261436aa011", "is_reserved": 0, "name": "e945b928a160a2f3cacb8261436aa011", "lat": 38.91404033333333, "fusion_lat": 0.0, "lon": -77.02943366666666, "is_disabled": 0, "fusion_lon": 0.0, "rental_uris": {"android": "https://dc.lft.to/lastmile_qr_scan", "ios": "https://dc.lft.to/lastmile_qr_scan"}, "type": "electric_scooter"}, {"bike_id": "7a8ebc711c286203aaa5627bd09c7c17", "is_reserved": 0, "name": "7a8ebc711c286203aaa5627bd09c7c17", "lat": 38.91555133333333, "fusion_lat": 0.0, "lon": -77.03171883333333, "is_disabled": 0, "fusion_lon": 0.0, "rental_uris": {"android": "https://dc.lft.to/lastmile_qr_scan", "ios": "https://dc.lft.to/lastmile_qr_scan"}, "type": "electric_scooter"}, {"bike_id": "78daaeec2529fa32e88c77ca313e9032", "is_reserved": 0, "name": "78daaeec2529fa32e88c77ca313e9032", "lat": 38.917326833333334, "fusion_lat": 0.0, "lon": -77.04174916666666, "is_disabled": 0, "fusion_lon": 0.0, "rental_uris": {"android": "https://dc.lft.to/lastmile_qr_scan", "ios": "https://dc.lft.to/lastmile_qr_scan"}, "type": "electric_scooter"}, {"bike_id": "f02ed703c95e9cad5fa0614d72cee52e", "is_reserved": 0, "name": "f02ed703c95e9cad5fa0614d72cee52e", "lat": 38.93261433333333, "fusion_lat": 0.0, "lon": -76.98899816666666, "is_disabled": 0, "fusion_lon": 0.0, "rental_uris": {"android": "https://dc.lft.to/lastmile_qr_scan", "ios": "https://dc.lft.to/lastmile_qr_scan"}, "type": "electric_scooter"}, {"bike_id": "119068c3b1b4b505c5fcfa54699f97a6", "is_reserved": 0, "name": "119068c3b1b4b505c5fcfa54699f97a6", "lat": 38.90734283333333, "fusion_lat": 0.0, "lon": -77.0419895, "is_disabled": 0, "fusion_lon": 0.0, "rental_uris": {"android": "https://dc.lft.to/lastmile_qr_scan", "ios": "https://dc.lft.to/lastmile_qr_scan"}, "type": "electric_scooter"}, {"bike_id": "c3c420d3292ad6a01dee5baa84b5004d", "is_reserved": 0, "name": "c3c420d3292ad6a01dee5baa84b5004d", "lat": 38.87207016666667, "fusion_lat": 0.0, "lon": -77.0166375, "is_disabled": 0, "fusion_lon": 0.0, "rental_uris": {"android": "https://dc.lft.to/lastmile_qr_scan", "ios": "https://dc.lft.to/lastmile_qr_scan"}, "type": "electric_scooter"}, {"bike_id": "6546f5bb8a4dc35a61358d1a9960ca23", "is_reserved": 0, "name": "6546f5bb8a4dc35a61358d1a9960ca23", "lat": 38.863365333333334, "fusion_lat": 0.0, "lon": -76.98723366666667, "is_disabled": 0, "fusion_lon": 0.0, "rental_uris": {"android": "https://dc.lft.to/lastmile_qr_scan", "ios": "https://dc.lft.to/lastmile_qr_scan"}, "type": "electric_bike"}, {"bike_id": "34b2447322c6072900dcd1406f9d0780", "is_reserved": 0, "name": "34b2447322c6072900dcd1406f9d0780", "lat": 38.9195605, "fusion_lat": 0.0, "lon": -77.04171233333334, "is_disabled": 0, "fusion_lon": 0.0, "rental_uris": {"android": "https://dc.lft.to/lastmile_qr_scan", "ios": "https://dc.lft.to/lastmile_qr_scan"}, "type": "electric_scooter"}, {"bike_id": "a7a6a211e18f5aaf8b7a1fc2cc50d7a0", "is_reserved": 0, "name": "a7a6a211e18f5aaf8b7a1fc2cc50d7a0", "lat": 38.88648, "fusion_lat": 0.0, "lon": -77.01983966666667, "is_disabled": 0, "fusion_lon": 0.0, "rental_uris": {"android": "https://dc.lft.to/lastmile_qr_scan", "ios": "https://dc.lft.to/lastmile_qr_scan"}, "type": "electric_scooter"}, {"bike_id": "f803cc8ed047a8e1689513575d5a8ae7", "is_reserved": 0, "name": "f803cc8ed047a8e1689513575d5a8ae7", "lat": 38.90836683333333, "fusion_lat": 0.0, "lon": -77.06343316666667, "is_disabled": 0, "fusion_lon": 0.0, "rental_uris": {"android": "https://dc.lft.to/lastmile_qr_scan", "ios": "https://dc.lft.to/lastmile_qr_scan"}, "type": "electric_scooter"}, {"bike_id": "4decc1b94b7e836cb3a480a84e9d5699", "is_reserved": 0, "name": "4decc1b94b7e836cb3a480a84e9d5699", "lat": 38.904896, "fusion_lat": 0.0, "lon": -77.02970016666667, "is_disabled": 0, "fusion_lon": 0.0, "rental_uris": {"android": "https://dc.lft.to/lastmile_qr_scan", "ios": "https://dc.lft.to/lastmile_qr_scan"}, "type": "electric_scooter"}, {"bike_id": "da2e94deaee2f3179ed93e0567168002", "is_reserved": 0, "name": "da2e94deaee2f3179ed93e0567168002", "lat": 38.799856, "fusion_lat": 0.0, "lon": -77.129748, "is_disabled": 0, "fusion_lon": 0.0, "rental_uris": {"android": "https://dc.lft.to/lastmile_qr_scan", "ios": "https://dc.lft.to/lastmile_qr_scan"}, "type": "electric_bike"}, {"bike_id": "9cd16e7c2c49e38a021738b3fb8fcb4d", "is_reserved": 0, "name": "9cd16e7c2c49e38a021738b3fb8fcb4d", "lat": 38.90489616666667, "fusion_lat": 0.0, "lon": -76.9950275, "is_disabled": 0, "fusion_lon": 0.0, "rental_uris": {"android": "https://dc.lft.to/lastmile_qr_scan", "ios": "https://dc.lft.to/lastmile_qr_scan"}, "type": "electric_scooter"}, {"bike_id": "fd4a2d48cc8bb42d12ec170afc63dc9c", "is_reserved": 0, "name": "fd4a2d48cc8bb42d12ec170afc63dc9c", "lat": 38.892809666666665, "fusion_lat": 0.0, "lon": -76.92995666666667, "is_disabled": 0, "fusion_lon": 0.0, "rental_uris": {"android": "https://dc.lft.to/lastmile_qr_scan", "ios": "https://dc.lft.to/lastmile_qr_scan"}, "type": "electric_scooter"}, {"bike_id": "bbb44b691d7a1cadb05b4354e5a7b508", "is_reserved": 0, "name": "bbb44b691d7a1cadb05b4354e5a7b508", "lat": 38.8737045, "fusion_lat": 0.0, "lon": -77.0012595, "is_disabled": 0, "fusion_lon": 0.0, "rental_uris": {"android": "https://dc.lft.to/lastmile_qr_scan", "ios": "https://dc.lft.to/lastmile_qr_scan"}, "type": "electric_scooter"}, {"bike_id": "1f94a034e0efea8227a425bee366967c", "is_reserved": 0, "name": "1f94a034e0efea8227a425bee366967c", "lat": 38.81245766666667, "fusion_lat": 0.0, "lon": -77.117745, "is_disabled": 0, "fusion_lon": 0.0, "rental_uris": {"android": "https://dc.lft.to/lastmile_qr_scan", "ios": "https://dc.lft.to/lastmile_qr_scan"}, "type": "electric_bike"}, {"bike_id": "5ee5118d4af4da41ce58d1bdc70a410d", "is_reserved": 0, "name": "5ee5118d4af4da41ce58d1bdc70a410d", "lat": 38.90103033333333, "fusion_lat": 0.0, "lon": -77.03367816666666, "is_disabled": 0, "fusion_lon": 0.0, "rental_uris": {"android": "https://dc.lft.to/lastmile_qr_scan", "ios": "https://dc.lft.to/lastmile_qr_scan"}, "type": "electric_scooter"}, {"bike_id": "e76ee22de00b170a25179d82dfce58cb", "is_reserved": 0, "name": "e76ee22de00b170a25179d82dfce58cb", "lat": 38.8076195, "fusion_lat": 0.0, "lon": -77.0946435, "is_disabled": 0, "fusion_lon": 0.0, "rental_uris": {"android": "https://dc.lft.to/lastmile_qr_scan", "ios": "https://dc.lft.to/lastmile_qr_scan"}, "type": "electric_bike"}, {"bike_id": "d6e862cc9fb5c5915e00f91232722778", "is_reserved": 0, "name": "d6e862cc9fb5c5915e00f91232722778", "lat": 38.9503905, "fusion_lat": 0.0, "lon": -77.02716983333333, "is_disabled": 0, "fusion_lon": 0.0, "rental_uris": {"android": "https://dc.lft.to/lastmile_qr_scan", "ios": "https://dc.lft.to/lastmile_qr_scan"}, "type": "electric_scooter"}, {"bike_id": "19a69c33dd01cfe8588b4595de36b5b0", "is_reserved": 0, "name": "19a69c33dd01cfe8588b4595de36b5b0", "lat": 38.90745416666667, "fusion_lat": 0.0, "lon": -76.93548316666667, "is_disabled": 0, "fusion_lon": 0.0, "rental_uris": {"android": "https://dc.lft.to/lastmile_qr_scan", "ios": "https://dc.lft.to/lastmile_qr_scan"}, "type": "electric_scooter"}, {"bike_id": "6ffb2fdec4230154b52e2f8d94b5db64", "is_reserved": 0, "name": "6ffb2fdec4230154b52e2f8d94b5db64", "lat": 38.90516733333333, "fusion_lat": 0.0, "lon": -77.052221, "is_disabled": 0, "fusion_lon": 0.0, "rental_uris": {"android": "https://dc.lft.to/lastmile_qr_scan", "ios": "https://dc.lft.to/lastmile_qr_scan"}, "type": "electric_scooter"}, {"bike_id": "ff49b0fd530158ec9a4510236c277875", "is_reserved": 0, "name": "ff49b0fd530158ec9a4510236c277875", "lat": 38.92231566666667, "fusion_lat": 0.0, "lon": -77.04245166666666, "is_disabled": 0, "fusion_lon": 0.0, "rental_uris": {"android": "https://dc.lft.to/lastmile_qr_scan", "ios": "https://dc.lft.to/lastmile_qr_scan"}, "type": "electric_scooter"}, {"bike_id": "81f4ddd91fc8e9a1925e5a38df50a9f2", "is_reserved": 0, "name": "81f4ddd91fc8e9a1925e5a38df50a9f2", "lat": 38.91552733333333, "fusion_lat": 0.0, "lon": -77.04612033333333, "is_disabled": 0, "fusion_lon": 0.0, "rental_uris": {"android": "https://dc.lft.to/lastmile_qr_scan", "ios": "https://dc.lft.to/lastmile_qr_scan"}, "type": "electric_scooter"}, {"bike_id": "9ea3df1c97ed4afd0435c6100ca51027", "is_reserved": 0, "name": "9ea3df1c97ed4afd0435c6100ca51027", "lat": 38.876696333333335, "fusion_lat": 0.0, "lon": -76.99274, "is_disabled": 0, "fusion_lon": 0.0, "rental_uris": {"android": "https://dc.lft.to/lastmile_qr_scan", "ios": "https://dc.lft.to/lastmile_qr_scan"}, "type": "electric_scooter"}, {"bike_id": "c0f72a62d0cc685efb976e179516548e", "is_reserved": 0, "name": "c0f72a62d0cc685efb976e179516548e", "lat": 38.8651385, "fusion_lat": 0.0, "lon": -76.97316916666666, "is_disabled": 0, "fusion_lon": 0.0, "rental_uris": {"android": "https://dc.lft.to/lastmile_qr_scan", "ios": "https://dc.lft.to/lastmile_qr_scan"}, "type": "electric_bike"}, {"bike_id": "b4599b3d38c5866e20ef7185c0a274c4", "is_reserved": 0, "name": "b4599b3d38c5866e20ef7185c0a274c4", "lat": 38.9234345, "fusion_lat": 0.0, "lon": -77.0518135, "is_disabled": 0, "fusion_lon": 0.0, "rental_uris": {"android": "https://dc.lft.to/lastmile_qr_scan", "ios": "https://dc.lft.to/lastmile_qr_scan"}, "type": "electric_scooter"}, {"bike_id": "cf8a0bb0aa00b4a79b90b3eb7ffd683c", "is_reserved": 0, "name": "cf8a0bb0aa00b4a79b90b3eb7ffd683c", "lat": 38.91923383333334, "fusion_lat": 0.0, "lon": -77.03205983333334, "is_disabled": 0, "fusion_lon": 0.0, "rental_uris": {"android": "https://dc.lft.to/lastmile_qr_scan", "ios": "https://dc.lft.to/lastmile_qr_scan"}, "type": "electric_scooter"}, {"bike_id": "4c14d1de481bae8fd998015547d80fd1", "is_reserved": 0, "name": "4c14d1de481bae8fd998015547d80fd1", "lat": 38.893844333333334, "fusion_lat": 0.0, "lon": -76.92303033333333, "is_disabled": 0, "fusion_lon": 0.0, "rental_uris": {"android": "https://dc.lft.to/lastmile_qr_scan", "ios": "https://dc.lft.to/lastmile_qr_scan"}, "type": "electric_scooter"}, {"bike_id": "aaa0ca2fdad6141f9690b90af9f22e99", "is_reserved": 0, "name": "aaa0ca2fdad6141f9690b90af9f22e99", "lat": 38.943374, "fusion_lat": 0.0, "lon": -76.98313, "is_disabled": 0, "fusion_lon": 0.0, "rental_uris": {"android": "https://dc.lft.to/lastmile_qr_scan", "ios": "https://dc.lft.to/lastmile_qr_scan"}, "type": "electric_scooter"}, {"bike_id": "a23c417048e24f585a6d86216406de01", "is_reserved": 0, "name": "a23c417048e24f585a6d86216406de01", "lat": 38.90579733333333, "fusion_lat": 0.0, "lon": -77.005924, "is_disabled": 0, "fusion_lon": 0.0, "rental_uris": {"android": "https://dc.lft.to/lastmile_qr_scan", "ios": "https://dc.lft.to/lastmile_qr_scan"}, "type": "electric_scooter"}, {"bike_id": "ae73947609209ee7e103b56459bd00f6", "is_reserved": 0, "name": "ae73947609209ee7e103b56459bd00f6", "lat": 38.953571333333336, "fusion_lat": 0.0, "lon": -76.980946, "is_disabled": 0, "fusion_lon": 0.0, "rental_uris": {"android": "https://dc.lft.to/lastmile_qr_scan", "ios": "https://dc.lft.to/lastmile_qr_scan"}, "type": "electric_bike"}, {"bike_id": "c6a115107abb45240df6f7e8e3dff345", "is_reserved": 0, "name": "c6a115107abb45240df6f7e8e3dff345", "lat": 38.93328416666667, "fusion_lat": 0.0, "lon": -77.03266283333333, "is_disabled": 0, "fusion_lon": 0.0, "rental_uris": {"android": "https://dc.lft.to/lastmile_qr_scan", "ios": "https://dc.lft.to/lastmile_qr_scan"}, "type": "electric_scooter"}, {"bike_id": "ba0ec5680d5467c47f84bad8c8f30166", "is_reserved": 0, "name": "ba0ec5680d5467c47f84bad8c8f30166", "lat": 38.875441, "fusion_lat": 0.0, "lon": -77.00537133333333, "is_disabled": 0, "fusion_lon": 0.0, "rental_uris": {"android": "https://dc.lft.to/lastmile_qr_scan", "ios": "https://dc.lft.to/lastmile_qr_scan"}, "type": "electric_scooter"}, {"bike_id": "15d49bf09130099ab89b63f0640526dc", "is_reserved": 0, "name": "15d49bf09130099ab89b63f0640526dc", "lat": 38.90201916666667, "fusion_lat": 0.0, "lon": -77.023461, "is_disabled": 0, "fusion_lon": 0.0, "rental_uris": {"android": "https://dc.lft.to/lastmile_qr_scan", "ios": "https://dc.lft.to/lastmile_qr_scan"}, "type": "electric_scooter"}, {"bike_id": "7c761f6edad5719c1482326e9327e2c6", "is_reserved": 0, "name": "7c761f6edad5719c1482326e9327e2c6", "lat": 38.921425166666666, "fusion_lat": 0.0, "lon": -77.04365083333333, "is_disabled": 0, "fusion_lon": 0.0, "rental_uris": {"android": "https://dc.lft.to/lastmile_qr_scan", "ios": "https://dc.lft.to/lastmile_qr_scan"}, "type": "electric_scooter"}, {"bike_id": "9e1c6b90c169f13edb7b8468371ef319", "is_reserved": 0, "name": "9e1c6b90c169f13edb7b8468371ef319", "lat": 38.92873766666666, "fusion_lat": 0.0, "lon": -77.04126983333333, "is_disabled": 0, "fusion_lon": 0.0, "rental_uris": {"android": "https://dc.lft.to/lastmile_qr_scan", "ios": "https://dc.lft.to/lastmile_qr_scan"}, "type": "electric_scooter"}, {"bike_id": "e7941a27cbd06aba5533aa80dfd92db1", "is_reserved": 0, "name": "e7941a27cbd06aba5533aa80dfd92db1", "lat": 38.899308166666664, "fusion_lat": 0.0, "lon": -77.01265433333333, "is_disabled": 0, "fusion_lon": 0.0, "rental_uris": {"android": "https://dc.lft.to/lastmile_qr_scan", "ios": "https://dc.lft.to/lastmile_qr_scan"}, "type": "electric_scooter"}, {"bike_id": "d82fa2a57f4b95e9de40e0c43892ebbf", "is_reserved": 0, "name": "d82fa2a57f4b95e9de40e0c43892ebbf", "lat": 38.899424833333335, "fusion_lat": 0.0, "lon": -77.01612766666666, "is_disabled": 0, "fusion_lon": 0.0, "rental_uris": {"android": "https://dc.lft.to/lastmile_qr_scan", "ios": "https://dc.lft.to/lastmile_qr_scan"}, "type": "electric_scooter"}, {"bike_id": "8393d7ff9a808b5ed42a56f6c980394e", "is_reserved": 0, "name": "8393d7ff9a808b5ed42a56f6c980394e", "lat": 38.934865, "fusion_lat": 0.0, "lon": -77.07271366666667, "is_disabled": 0, "fusion_lon": 0.0, "rental_uris": {"android": "https://dc.lft.to/lastmile_qr_scan", "ios": "https://dc.lft.to/lastmile_qr_scan"}, "type": "electric_scooter"}, {"bike_id": "77eb9d6c507e4122310a8d3f98e3f4ee", "is_reserved": 0, "name": "77eb9d6c507e4122310a8d3f98e3f4ee", "lat": 38.898206333333334, "fusion_lat": 0.0, "lon": -77.04757616666667, "is_disabled": 0, "fusion_lon": 0.0, "rental_uris": {"android": "https://dc.lft.to/lastmile_qr_scan", "ios": "https://dc.lft.to/lastmile_qr_scan"}, "type": "electric_scooter"}, {"bike_id": "c590a75c92c7e5a68c420644cfab7b6b", "is_reserved": 0, "name": "c590a75c92c7e5a68c420644cfab7b6b", "lat": 38.9032635, "fusion_lat": 0.0, "lon": -77.02441866666666, "is_disabled": 0, "fusion_lon": 0.0, "rental_uris": {"android": "https://dc.lft.to/lastmile_qr_scan", "ios": "https://dc.lft.to/lastmile_qr_scan"}, "type": "electric_scooter"}, {"bike_id": "3a15054c784660d3f73c63b2013b8912", "is_reserved": 0, "name": "3a15054c784660d3f73c63b2013b8912", "lat": 38.91555133333333, "fusion_lat": 0.0, "lon": -77.03203733333334, "is_disabled": 0, "fusion_lon": 0.0, "rental_uris": {"android": "https://dc.lft.to/lastmile_qr_scan", "ios": "https://dc.lft.to/lastmile_qr_scan"}, "type": "electric_scooter"}, {"bike_id": "6aaa4425af0ca3de76716f5b71fb1c9c", "is_reserved": 0, "name": "6aaa4425af0ca3de76716f5b71fb1c9c", "lat": 38.910365, "fusion_lat": 0.0, "lon": -77.01284266666667, "is_disabled": 0, "fusion_lon": 0.0, "rental_uris": {"android": "https://dc.lft.to/lastmile_qr_scan", "ios": "https://dc.lft.to/lastmile_qr_scan"}, "type": "electric_scooter"}, {"bike_id": "60d23895cc66f082498ef0bfc90da4ef", "is_reserved": 0, "name": "60d23895cc66f082498ef0bfc90da4ef", "lat": 38.9520095, "fusion_lat": 0.0, "lon": -77.027273, "is_disabled": 0, "fusion_lon": 0.0, "rental_uris": {"android": "https://dc.lft.to/lastmile_qr_scan", "ios": "https://dc.lft.to/lastmile_qr_scan"}, "type": "electric_scooter"}, {"bike_id": "85be36377531d666987d479e2873e078", "is_reserved": 0, "name": "85be36377531d666987d479e2873e078", "lat": 38.90558766666667, "fusion_lat": 0.0, "lon": -77.020858, "is_disabled": 0, "fusion_lon": 0.0, "rental_uris": {"android": "https://dc.lft.to/lastmile_qr_scan", "ios": "https://dc.lft.to/lastmile_qr_scan"}, "type": "electric_scooter"}, {"bike_id": "73190c0d5dee3765cdd3027fb2b2dcb5", "is_reserved": 0, "name": "73190c0d5dee3765cdd3027fb2b2dcb5", "lat": 38.90660916666667, "fusion_lat": 0.0, "lon": -77.00946433333333, "is_disabled": 0, "fusion_lon": 0.0, "rental_uris": {"android": "https://dc.lft.to/lastmile_qr_scan", "ios": "https://dc.lft.to/lastmile_qr_scan"}, "type": "electric_scooter"}, {"bike_id": "0f93b3ae7cef4570d45bbd7ebb9a829c", "is_reserved": 0, "name": "0f93b3ae7cef4570d45bbd7ebb9a829c", "lat": 38.907834333333334, "fusion_lat": 0.0, "lon": -76.9352535, "is_disabled": 0, "fusion_lon": 0.0, "rental_uris": {"android": "https://dc.lft.to/lastmile_qr_scan", "ios": "https://dc.lft.to/lastmile_qr_scan"}, "type": "electric_scooter"}, {"bike_id": "d9ba14f1be425c0d719bf7a59e3707f6", "is_reserved": 0, "name": "d9ba14f1be425c0d719bf7a59e3707f6", "lat": 38.887463333333336, "fusion_lat": 0.0, "lon": -77.0256715, "is_disabled": 0, "fusion_lon": 0.0, "rental_uris": {"android": "https://dc.lft.to/lastmile_qr_scan", "ios": "https://dc.lft.to/lastmile_qr_scan"}, "type": "electric_scooter"}, {"bike_id": "7c6fa4bb424b82e0e32a031e82b39dbc", "is_reserved": 0, "name": "7c6fa4bb424b82e0e32a031e82b39dbc", "lat": 38.836290166666664, "fusion_lat": 0.0, "lon": -77.06941416666666, "is_disabled": 0, "fusion_lon": 0.0, "rental_uris": {"android": "https://dc.lft.to/lastmile_qr_scan", "ios": "https://dc.lft.to/lastmile_qr_scan"}, "type": "electric_bike"}, {"bike_id": "fbcb2c36b06b8c2b82fd1861a9d5bb33", "is_reserved": 0, "name": "fbcb2c36b06b8c2b82fd1861a9d5bb33", "lat": 38.9185425, "fusion_lat": 0.0, "lon": -76.96086966666667, "is_disabled": 0, "fusion_lon": 0.0, "rental_uris": {"android": "https://dc.lft.to/lastmile_qr_scan", "ios": "https://dc.lft.to/lastmile_qr_scan"}, "type": "electric_bike"}, {"bike_id": "3d4b36c67b0115cadf52bd688e869893", "is_reserved": 0, "name": "3d4b36c67b0115cadf52bd688e869893", "lat": 38.8718105, "fusion_lat": 0.0, "lon": -77.00571216666667, "is_disabled": 0, "fusion_lon": 0.0, "rental_uris": {"android": "https://dc.lft.to/lastmile_qr_scan", "ios": "https://dc.lft.to/lastmile_qr_scan"}, "type": "electric_scooter"}, {"bike_id": "aa4b26c8a1cccb74798d9659c2ba3534", "is_reserved": 0, "name": "aa4b26c8a1cccb74798d9659c2ba3534", "lat": 38.9173235, "fusion_lat": 0.0, "lon": -77.02802366666667, "is_disabled": 0, "fusion_lon": 0.0, "rental_uris": {"android": "https://dc.lft.to/lastmile_qr_scan", "ios": "https://dc.lft.to/lastmile_qr_scan"}, "type": "electric_scooter"}, {"bike_id": "26e9e6bc17df7851dee0143086f25843", "is_reserved": 0, "name": "26e9e6bc17df7851dee0143086f25843", "lat": 38.89957783333333, "fusion_lat": 0.0, "lon": -76.98557433333333, "is_disabled": 0, "fusion_lon": 0.0, "rental_uris": {"android": "https://dc.lft.to/lastmile_qr_scan", "ios": "https://dc.lft.to/lastmile_qr_scan"}, "type": "electric_scooter"}, {"bike_id": "306308357dbc41607fcfc37ca592c49c", "is_reserved": 0, "name": "306308357dbc41607fcfc37ca592c49c", "lat": 38.93327466666667, "fusion_lat": 0.0, "lon": -77.03264416666667, "is_disabled": 0, "fusion_lon": 0.0, "rental_uris": {"android": "https://dc.lft.to/lastmile_qr_scan", "ios": "https://dc.lft.to/lastmile_qr_scan"}, "type": "electric_scooter"}, {"bike_id": "787bca735afa56cca65fda04d4d12218", "is_reserved": 0, "name": "787bca735afa56cca65fda04d4d12218", "lat": 38.907484833333335, "fusion_lat": 0.0, "lon": -77.03070816666667, "is_disabled": 0, "fusion_lon": 0.0, "rental_uris": {"android": "https://dc.lft.to/lastmile_qr_scan", "ios": "https://dc.lft.to/lastmile_qr_scan"}, "type": "electric_scooter"}, {"bike_id": "be32868081b3d8339ba518930dcc468e", "is_reserved": 0, "name": "be32868081b3d8339ba518930dcc468e", "lat": 38.90382116666667, "fusion_lat": 0.0, "lon": -77.008807, "is_disabled": 0, "fusion_lon": 0.0, "rental_uris": {"android": "https://dc.lft.to/lastmile_qr_scan", "ios": "https://dc.lft.to/lastmile_qr_scan"}, "type": "electric_scooter"}, {"bike_id": "7284d75c598b23ae724954e7984b31bf", "is_reserved": 0, "name": "7284d75c598b23ae724954e7984b31bf", "lat": 38.9099225, "fusion_lat": 0.0, "lon": -77.0091535, "is_disabled": 0, "fusion_lon": 0.0, "rental_uris": {"android": "https://dc.lft.to/lastmile_qr_scan", "ios": "https://dc.lft.to/lastmile_qr_scan"}, "type": "electric_scooter"}, {"bike_id": "fe96b9b8d6a187a52de01de0f7a6d82d", "is_reserved": 0, "name": "fe96b9b8d6a187a52de01de0f7a6d82d", "lat": 38.905988666666666, "fusion_lat": 0.0, "lon": -77.0057355, "is_disabled": 0, "fusion_lon": 0.0, "rental_uris": {"android": "https://dc.lft.to/lastmile_qr_scan", "ios": "https://dc.lft.to/lastmile_qr_scan"}, "type": "electric_scooter"}, {"bike_id": "8408ed9179331cda1183d398ef457452", "is_reserved": 0, "name": "8408ed9179331cda1183d398ef457452", "lat": 38.93144016666667, "fusion_lat": 0.0, "lon": -77.07843216666667, "is_disabled": 0, "fusion_lon": 0.0, "rental_uris": {"android": "https://dc.lft.to/lastmile_qr_scan", "ios": "https://dc.lft.to/lastmile_qr_scan"}, "type": "electric_scooter"}, {"bike_id": "8976f4feed7263722adbb8e8ff08b621", "is_reserved": 0, "name": "8976f4feed7263722adbb8e8ff08b621", "lat": 38.91799733333333, "fusion_lat": 0.0, "lon": -77.03167216666667, "is_disabled": 0, "fusion_lon": 0.0, "rental_uris": {"android": "https://dc.lft.to/lastmile_qr_scan", "ios": "https://dc.lft.to/lastmile_qr_scan"}, "type": "electric_bike"}, {"bike_id": "579148354e3a54fe8b0526f94e641e0d", "is_reserved": 0, "name": "579148354e3a54fe8b0526f94e641e0d", "lat": 38.95510133333333, "fusion_lat": 0.0, "lon": -77.0291595, "is_disabled": 0, "fusion_lon": 0.0, "rental_uris": {"android": "https://dc.lft.to/lastmile_qr_scan", "ios": "https://dc.lft.to/lastmile_qr_scan"}, "type": "electric_bike"}, {"bike_id": "19eea102d59f0e5484e6eb653f7bbb36", "is_reserved": 0, "name": "19eea102d59f0e5484e6eb653f7bbb36", "lat": 38.89603966666667, "fusion_lat": 0.0, "lon": -77.04411566666667, "is_disabled": 0, "fusion_lon": 0.0, "rental_uris": {"android": "https://dc.lft.to/lastmile_qr_scan", "ios": "https://dc.lft.to/lastmile_qr_scan"}, "type": "electric_scooter"}, {"bike_id": "4820820d6e81d3632080f3be64215309", "is_reserved": 0, "name": "4820820d6e81d3632080f3be64215309", "lat": 38.889903, "fusion_lat": 0.0, "lon": -76.91414916666666, "is_disabled": 0, "fusion_lon": 0.0, "rental_uris": {"android": "https://dc.lft.to/lastmile_qr_scan", "ios": "https://dc.lft.to/lastmile_qr_scan"}, "type": "electric_scooter"}, {"bike_id": "6a295a409f7517738375fb4c81d541bf", "is_reserved": 0, "name": "6a295a409f7517738375fb4c81d541bf", "lat": 38.9001005, "fusion_lat": 0.0, "lon": -77.00067333333334, "is_disabled": 0, "fusion_lon": 0.0, "rental_uris": {"android": "https://dc.lft.to/lastmile_qr_scan", "ios": "https://dc.lft.to/lastmile_qr_scan"}, "type": "electric_scooter"}, {"bike_id": "4173f71786421a328b065fb694f9f0d5", "is_reserved": 0, "name": "4173f71786421a328b065fb694f9f0d5", "lat": 38.96067266666667, "fusion_lat": 0.0, "lon": -76.94164416666666, "is_disabled": 0, "fusion_lon": 0.0, "rental_uris": {"android": "https://dc.lft.to/lastmile_qr_scan", "ios": "https://dc.lft.to/lastmile_qr_scan"}, "type": "electric_bike"}, {"bike_id": "3e5f27db6c21e6b75eb9b41f663b432f", "is_reserved": 0, "name": "3e5f27db6c21e6b75eb9b41f663b432f", "lat": 38.923617666666665, "fusion_lat": 0.0, "lon": -77.0507135, "is_disabled": 0, "fusion_lon": 0.0, "rental_uris": {"android": "https://dc.lft.to/lastmile_qr_scan", "ios": "https://dc.lft.to/lastmile_qr_scan"}, "type": "electric_scooter"}, {"bike_id": "95368201d116d01235e70b4c4ac9b46c", "is_reserved": 0, "name": "95368201d116d01235e70b4c4ac9b46c", "lat": 38.91448166666667, "fusion_lat": 0.0, "lon": -77.04490966666667, "is_disabled": 0, "fusion_lon": 0.0, "rental_uris": {"android": "https://dc.lft.to/lastmile_qr_scan", "ios": "https://dc.lft.to/lastmile_qr_scan"}, "type": "electric_scooter"}, {"bike_id": "dbada1e3d211e160374cf887b320b744", "is_reserved": 0, "name": "dbada1e3d211e160374cf887b320b744", "lat": 38.915522, "fusion_lat": 0.0, "lon": -77.04150283333334, "is_disabled": 0, "fusion_lon": 0.0, "rental_uris": {"android": "https://dc.lft.to/lastmile_qr_scan", "ios": "https://dc.lft.to/lastmile_qr_scan"}, "type": "electric_scooter"}, {"bike_id": "ea8c526ec37c29150d321afa72162560", "is_reserved": 0, "name": "ea8c526ec37c29150d321afa72162560", "lat": 38.897760166666664, "fusion_lat": 0.0, "lon": -77.03194833333333, "is_disabled": 0, "fusion_lon": 0.0, "rental_uris": {"android": "https://dc.lft.to/lastmile_qr_scan", "ios": "https://dc.lft.to/lastmile_qr_scan"}, "type": "electric_scooter"}, {"bike_id": "b8f75109472c36d3b37a33ab21355570", "is_reserved": 0, "name": "b8f75109472c36d3b37a33ab21355570", "lat": 38.87651366666667, "fusion_lat": 0.0, "lon": -77.00074483333333, "is_disabled": 0, "fusion_lon": 0.0, "rental_uris": {"android": "https://dc.lft.to/lastmile_qr_scan", "ios": "https://dc.lft.to/lastmile_qr_scan"}, "type": "electric_scooter"}, {"bike_id": "6939045f4137bc03e8c8d9ff3d232afa", "is_reserved": 0, "name": "6939045f4137bc03e8c8d9ff3d232afa", "lat": 38.874920833333334, "fusion_lat": 0.0, "lon": -77.00279783333333, "is_disabled": 0, "fusion_lon": 0.0, "rental_uris": {"android": "https://dc.lft.to/lastmile_qr_scan", "ios": "https://dc.lft.to/lastmile_qr_scan"}, "type": "electric_scooter"}, {"bike_id": "1aebd0f0391b7d8ec69d01a547a69672", "is_reserved": 0, "name": "1aebd0f0391b7d8ec69d01a547a69672", "lat": 38.954, "fusion_lat": 0.0, "lon": -77.02791533333334, "is_disabled": 0, "fusion_lon": 0.0, "rental_uris": {"android": "https://dc.lft.to/lastmile_qr_scan", "ios": "https://dc.lft.to/lastmile_qr_scan"}, "type": "electric_scooter"}, {"bike_id": "187c0c7edd798f41b0d28509e5c7b607", "is_reserved": 0, "name": "187c0c7edd798f41b0d28509e5c7b607", "lat": 38.92872333333333, "fusion_lat": 0.0, "lon": -77.014213, "is_disabled": 0, "fusion_lon": 0.0, "rental_uris": {"android": "https://dc.lft.to/lastmile_qr_scan", "ios": "https://dc.lft.to/lastmile_qr_scan"}, "type": "electric_scooter"}, {"bike_id": "ea11c3c7eab8ad39bad651e516c8268c", "is_reserved": 0, "name": "ea11c3c7eab8ad39bad651e516c8268c", "lat": 38.9212275, "fusion_lat": 0.0, "lon": -77.03660983333333, "is_disabled": 0, "fusion_lon": 0.0, "rental_uris": {"android": "https://dc.lft.to/lastmile_qr_scan", "ios": "https://dc.lft.to/lastmile_qr_scan"}, "type": "electric_scooter"}, {"bike_id": "d95d8d11e375870f623d8913fa4a631c", "is_reserved": 0, "name": "d95d8d11e375870f623d8913fa4a631c", "lat": 38.917284, "fusion_lat": 0.0, "lon": -77.019187, "is_disabled": 0, "fusion_lon": 0.0, "rental_uris": {"android": "https://dc.lft.to/lastmile_qr_scan", "ios": "https://dc.lft.to/lastmile_qr_scan"}, "type": "electric_scooter"}, {"bike_id": "0bc7c3a67527f79bfd0a5792cc3cec93", "is_reserved": 0, "name": "0bc7c3a67527f79bfd0a5792cc3cec93", "lat": 38.8873055, "fusion_lat": 0.0, "lon": -77.03169916666667, "is_disabled": 0, "fusion_lon": 0.0, "rental_uris": {"android": "https://dc.lft.to/lastmile_qr_scan", "ios": "https://dc.lft.to/lastmile_qr_scan"}, "type": "electric_scooter"}, {"bike_id": "689e8235c0fc1eb19deac24f6ff5102f", "is_reserved": 0, "name": "689e8235c0fc1eb19deac24f6ff5102f", "lat": 38.869786500000004, "fusion_lat": 0.0, "lon": -77.01370066666667, "is_disabled": 0, "fusion_lon": 0.0, "rental_uris": {"android": "https://dc.lft.to/lastmile_qr_scan", "ios": "https://dc.lft.to/lastmile_qr_scan"}, "type": "electric_scooter"}, {"bike_id": "591320678062588992f7a7726b9cbc3d", "is_reserved": 0, "name": "591320678062588992f7a7726b9cbc3d", "lat": 38.92221683333333, "fusion_lat": 0.0, "lon": -77.04335116666667, "is_disabled": 0, "fusion_lon": 0.0, "rental_uris": {"android": "https://dc.lft.to/lastmile_qr_scan", "ios": "https://dc.lft.to/lastmile_qr_scan"}, "type": "electric_scooter"}, {"bike_id": "39d7f2f9b1fe70b86dc9b5f7a093b218", "is_reserved": 0, "name": "39d7f2f9b1fe70b86dc9b5f7a093b218", "lat": 38.901604166666665, "fusion_lat": 0.0, "lon": -77.02310816666666, "is_disabled": 0, "fusion_lon": 0.0, "rental_uris": {"android": "https://dc.lft.to/lastmile_qr_scan", "ios": "https://dc.lft.to/lastmile_qr_scan"}, "type": "electric_scooter"}, {"bike_id": "51188d48c2844dfd05c61a149be917fd", "is_reserved": 0, "name": "51188d48c2844dfd05c61a149be917fd", "lat": 38.910452666666664, "fusion_lat": 0.0, "lon": -77.03838733333333, "is_disabled": 0, "fusion_lon": 0.0, "rental_uris": {"android": "https://dc.lft.to/lastmile_qr_scan", "ios": "https://dc.lft.to/lastmile_qr_scan"}, "type": "electric_scooter"}, {"bike_id": "00e111eef4855a9031dea55aca89a1e4", "is_reserved": 0, "name": "00e111eef4855a9031dea55aca89a1e4", "lat": 38.866701666666664, "fusion_lat": 0.0, "lon": -76.98889533333333, "is_disabled": 0, "fusion_lon": 0.0, "rental_uris": {"android": "https://dc.lft.to/lastmile_qr_scan", "ios": "https://dc.lft.to/lastmile_qr_scan"}, "type": "electric_scooter"}, {"bike_id": "6b6d1d167b035e199c1b74d87fa5d5fe", "is_reserved": 0, "name": "6b6d1d167b035e199c1b74d87fa5d5fe", "lat": 38.989571833333336, "fusion_lat": 0.0, "lon": -77.10098783333333, "is_disabled": 0, "fusion_lon": 0.0, "rental_uris": {"android": "https://dc.lft.to/lastmile_qr_scan", "ios": "https://dc.lft.to/lastmile_qr_scan"}, "type": "electric_bike"}, {"bike_id": "e51f6c7ac4cbd905675468d83ab22b83", "is_reserved": 0, "name": "e51f6c7ac4cbd905675468d83ab22b83", "lat": 38.99224666666667, "fusion_lat": 0.0, "lon": -76.94412616666666, "is_disabled": 0, "fusion_lon": 0.0, "rental_uris": {"android": "https://dc.lft.to/lastmile_qr_scan", "ios": "https://dc.lft.to/lastmile_qr_scan"}, "type": "electric_bike"}, {"bike_id": "33fdd7b92cfcacb94d7b128065953280", "is_reserved": 0, "name": "33fdd7b92cfcacb94d7b128065953280", "lat": 38.926019333333336, "fusion_lat": 0.0, "lon": -77.06422083333334, "is_disabled": 0, "fusion_lon": 0.0, "rental_uris": {"android": "https://dc.lft.to/lastmile_qr_scan", "ios": "https://dc.lft.to/lastmile_qr_scan"}, "type": "electric_bike"}, {"bike_id": "115de220aaf2d0c6576f0e67324bc4ab", "is_reserved": 0, "name": "115de220aaf2d0c6576f0e67324bc4ab", "lat": 38.905335666666666, "fusion_lat": 0.0, "lon": -77.05639933333333, "is_disabled": 0, "fusion_lon": 0.0, "rental_uris": {"android": "https://dc.lft.to/lastmile_qr_scan", "ios": "https://dc.lft.to/lastmile_qr_scan"}, "type": "electric_scooter"}, {"bike_id": "851e5ddd5663a7a0a6be220af884d1ab", "is_reserved": 0, "name": "851e5ddd5663a7a0a6be220af884d1ab", "lat": 38.91805083333333, "fusion_lat": 0.0, "lon": -77.036281, "is_disabled": 0, "fusion_lon": 0.0, "rental_uris": {"android": "https://dc.lft.to/lastmile_qr_scan", "ios": "https://dc.lft.to/lastmile_qr_scan"}, "type": "electric_scooter"}, {"bike_id": "caa826e77cbb5db600eeb9562924c6ff", "is_reserved": 0, "name": "caa826e77cbb5db600eeb9562924c6ff", "lat": 38.9192595, "fusion_lat": 0.0, "lon": -77.03130566666667, "is_disabled": 0, "fusion_lon": 0.0, "rental_uris": {"android": "https://dc.lft.to/lastmile_qr_scan", "ios": "https://dc.lft.to/lastmile_qr_scan"}, "type": "electric_scooter"}, {"bike_id": "6e95a9c0a5ea6325dee955062ba5cc57", "is_reserved": 0, "name": "6e95a9c0a5ea6325dee955062ba5cc57", "lat": 38.9232175, "fusion_lat": 0.0, "lon": -77.02896483333333, "is_disabled": 0, "fusion_lon": 0.0, "rental_uris": {"android": "https://dc.lft.to/lastmile_qr_scan", "ios": "https://dc.lft.to/lastmile_qr_scan"}, "type": "electric_scooter"}, {"bike_id": "08900ba902b0e8cc23871fdf2d1a6d59", "is_reserved": 0, "name": "08900ba902b0e8cc23871fdf2d1a6d59", "lat": 38.92697783333333, "fusion_lat": 0.0, "lon": -76.9975905, "is_disabled": 0, "fusion_lon": 0.0, "rental_uris": {"android": "https://dc.lft.to/lastmile_qr_scan", "ios": "https://dc.lft.to/lastmile_qr_scan"}, "type": "electric_scooter"}, {"bike_id": "0cf985aadeffc7557af1c6dedfcb504b", "is_reserved": 0, "name": "0cf985aadeffc7557af1c6dedfcb504b", "lat": 38.877430333333336, "fusion_lat": 0.0, "lon": -76.97035383333333, "is_disabled": 0, "fusion_lon": 0.0, "rental_uris": {"android": "https://dc.lft.to/lastmile_qr_scan", "ios": "https://dc.lft.to/lastmile_qr_scan"}, "type": "electric_scooter"}, {"bike_id": "8b3aeefc2f4bb23ba17fc08bdc166ed8", "is_reserved": 0, "name": "8b3aeefc2f4bb23ba17fc08bdc166ed8", "lat": 38.9288275, "fusion_lat": 0.0, "lon": -77.03309533333334, "is_disabled": 0, "fusion_lon": 0.0, "rental_uris": {"android": "https://dc.lft.to/lastmile_qr_scan", "ios": "https://dc.lft.to/lastmile_qr_scan"}, "type": "electric_scooter"}, {"bike_id": "9fbc92ab5e0786bb57d6eb8a465aced5", "is_reserved": 0, "name": "9fbc92ab5e0786bb57d6eb8a465aced5", "lat": 38.89232616666666, "fusion_lat": 0.0, "lon": -77.04873633333334, "is_disabled": 0, "fusion_lon": 0.0, "rental_uris": {"android": "https://dc.lft.to/lastmile_qr_scan", "ios": "https://dc.lft.to/lastmile_qr_scan"}, "type": "electric_scooter"}, {"bike_id": "9b0ddd3048edab16e1a8ec5a8e887905", "is_reserved": 0, "name": "9b0ddd3048edab16e1a8ec5a8e887905", "lat": 38.932905166666664, "fusion_lat": 0.0, "lon": -77.02469933333333, "is_disabled": 0, "fusion_lon": 0.0, "rental_uris": {"android": "https://dc.lft.to/lastmile_qr_scan", "ios": "https://dc.lft.to/lastmile_qr_scan"}, "type": "electric_scooter"}, {"bike_id": "d4d93c30725e988415340b2e00d0d60c", "is_reserved": 0, "name": "d4d93c30725e988415340b2e00d0d60c", "lat": 38.9236505, "fusion_lat": 0.0, "lon": -77.02917133333334, "is_disabled": 0, "fusion_lon": 0.0, "rental_uris": {"android": "https://dc.lft.to/lastmile_qr_scan", "ios": "https://dc.lft.to/lastmile_qr_scan"}, "type": "electric_scooter"}, {"bike_id": "fdf4865574ddcce95d5149d96a6c6563", "is_reserved": 0, "name": "fdf4865574ddcce95d5149d96a6c6563", "lat": 38.92059233333333, "fusion_lat": 0.0, "lon": -77.03192366666667, "is_disabled": 0, "fusion_lon": 0.0, "rental_uris": {"android": "https://dc.lft.to/lastmile_qr_scan", "ios": "https://dc.lft.to/lastmile_qr_scan"}, "type": "electric_scooter"}, {"bike_id": "76ed12d1a90b3dfc9b82566e744af064", "is_reserved": 0, "name": "76ed12d1a90b3dfc9b82566e744af064", "lat": 38.92344683333334, "fusion_lat": 0.0, "lon": -77.05166483333333, "is_disabled": 0, "fusion_lon": 0.0, "rental_uris": {"android": "https://dc.lft.to/lastmile_qr_scan", "ios": "https://dc.lft.to/lastmile_qr_scan"}, "type": "electric_scooter"}, {"bike_id": "0b4544f4ce1183fc650927501fe4fc8d", "is_reserved": 0, "name": "0b4544f4ce1183fc650927501fe4fc8d", "lat": 38.87791683333333, "fusion_lat": 0.0, "lon": -76.999408, "is_disabled": 0, "fusion_lon": 0.0, "rental_uris": {"android": "https://dc.lft.to/lastmile_qr_scan", "ios": "https://dc.lft.to/lastmile_qr_scan"}, "type": "electric_scooter"}, {"bike_id": "16bb003103ed468e8e739941f1703d1b", "is_reserved": 0, "name": "16bb003103ed468e8e739941f1703d1b", "lat": 38.978816333333334, "fusion_lat": 0.0, "lon": -77.06026, "is_disabled": 0, "fusion_lon": 0.0, "rental_uris": {"android": "https://dc.lft.to/lastmile_qr_scan", "ios": "https://dc.lft.to/lastmile_qr_scan"}, "type": "electric_bike"}, {"bike_id": "1b54cbf6fa9c30ef220f079bedec4234", "is_reserved": 0, "name": "1b54cbf6fa9c30ef220f079bedec4234", "lat": 38.911038166666664, "fusion_lat": 0.0, "lon": -77.02962016666666, "is_disabled": 0, "fusion_lon": 0.0, "rental_uris": {"android": "https://dc.lft.to/lastmile_qr_scan", "ios": "https://dc.lft.to/lastmile_qr_scan"}, "type": "electric_scooter"}, {"bike_id": "a007f2969748652fbad869c6882a026a", "is_reserved": 0, "name": "a007f2969748652fbad869c6882a026a", "lat": 38.92588333333333, "fusion_lat": 0.0, "lon": -77.03224566666667, "is_disabled": 0, "fusion_lon": 0.0, "rental_uris": {"android": "https://dc.lft.to/lastmile_qr_scan", "ios": "https://dc.lft.to/lastmile_qr_scan"}, "type": "electric_scooter"}, {"bike_id": "6f77dc0b937821b325d7345ffb73ca89", "is_reserved": 0, "name": "6f77dc0b937821b325d7345ffb73ca89", "lat": 38.918224, "fusion_lat": 0.0, "lon": -77.0242085, "is_disabled": 0, "fusion_lon": 0.0, "rental_uris": {"android": "https://dc.lft.to/lastmile_qr_scan", "ios": "https://dc.lft.to/lastmile_qr_scan"}, "type": "electric_scooter"}, {"bike_id": "8bfd930be44bde428ff34419f25351f1", "is_reserved": 0, "name": "8bfd930be44bde428ff34419f25351f1", "lat": 38.930832833333334, "fusion_lat": 0.0, "lon": -77.02793466666667, "is_disabled": 0, "fusion_lon": 0.0, "rental_uris": {"android": "https://dc.lft.to/lastmile_qr_scan", "ios": "https://dc.lft.to/lastmile_qr_scan"}, "type": "electric_scooter"}, {"bike_id": "db15b82e8fcabb30bd1882e435db4804", "is_reserved": 0, "name": "db15b82e8fcabb30bd1882e435db4804", "lat": 38.91690883333333, "fusion_lat": 0.0, "lon": -77.0286855, "is_disabled": 0, "fusion_lon": 0.0, "rental_uris": {"android": "https://dc.lft.to/lastmile_qr_scan", "ios": "https://dc.lft.to/lastmile_qr_scan"}, "type": "electric_scooter"}, {"bike_id": "5c9cb49eb3b412063943ec6807f8e707", "is_reserved": 0, "name": "5c9cb49eb3b412063943ec6807f8e707", "lat": 38.877669166666664, "fusion_lat": 0.0, "lon": -77.01050716666667, "is_disabled": 0, "fusion_lon": 0.0, "rental_uris": {"android": "https://dc.lft.to/lastmile_qr_scan", "ios": "https://dc.lft.to/lastmile_qr_scan"}, "type": "electric_bike"}, {"bike_id": "2d792ed9b83e0f883ef68b6a43d16177", "is_reserved": 0, "name": "2d792ed9b83e0f883ef68b6a43d16177", "lat": 38.902034, "fusion_lat": 0.0, "lon": -77.05072966666667, "is_disabled": 0, "fusion_lon": 0.0, "rental_uris": {"android": "https://dc.lft.to/lastmile_qr_scan", "ios": "https://dc.lft.to/lastmile_qr_scan"}, "type": "electric_scooter"}, {"bike_id": "522e20e74ed0ba355bc32622bfe48cad", "is_reserved": 0, "name": "522e20e74ed0ba355bc32622bfe48cad", "lat": 38.94306383333333, "fusion_lat": 0.0, "lon": -77.02492383333333, "is_disabled": 0, "fusion_lon": 0.0, "rental_uris": {"android": "https://dc.lft.to/lastmile_qr_scan", "ios": "https://dc.lft.to/lastmile_qr_scan"}, "type": "electric_scooter"}, {"bike_id": "8bce4a2bf00b0b4ca048a432c6d6a503", "is_reserved": 0, "name": "8bce4a2bf00b0b4ca048a432c6d6a503", "lat": 38.91103416666667, "fusion_lat": 0.0, "lon": -77.04470316666666, "is_disabled": 0, "fusion_lon": 0.0, "rental_uris": {"android": "https://dc.lft.to/lastmile_qr_scan", "ios": "https://dc.lft.to/lastmile_qr_scan"}, "type": "electric_scooter"}, {"bike_id": "1a150cf3093c40d6e27f7242e32722ea", "is_reserved": 0, "name": "1a150cf3093c40d6e27f7242e32722ea", "lat": 38.883785833333334, "fusion_lat": 0.0, "lon": -77.01969, "is_disabled": 0, "fusion_lon": 0.0, "rental_uris": {"android": "https://dc.lft.to/lastmile_qr_scan", "ios": "https://dc.lft.to/lastmile_qr_scan"}, "type": "electric_scooter"}, {"bike_id": "20b6e2f5abf6ef410e1d8c3dcea0552f", "is_reserved": 0, "name": "20b6e2f5abf6ef410e1d8c3dcea0552f", "lat": 38.900125333333335, "fusion_lat": 0.0, "lon": -77.04652916666667, "is_disabled": 0, "fusion_lon": 0.0, "rental_uris": {"android": "https://dc.lft.to/lastmile_qr_scan", "ios": "https://dc.lft.to/lastmile_qr_scan"}, "type": "electric_scooter"}, {"bike_id": "0b5f18fdd08d63aef313f3f0f769aeae", "is_reserved": 0, "name": "0b5f18fdd08d63aef313f3f0f769aeae", "lat": 38.91264133333333, "fusion_lat": 0.0, "lon": -77.04705566666667, "is_disabled": 0, "fusion_lon": 0.0, "rental_uris": {"android": "https://dc.lft.to/lastmile_qr_scan", "ios": "https://dc.lft.to/lastmile_qr_scan"}, "type": "electric_scooter"}, {"bike_id": "d3763715715918150c6988926e095032", "is_reserved": 0, "name": "d3763715715918150c6988926e095032", "lat": 38.90475933333333, "fusion_lat": 0.0, "lon": -77.01889966666667, "is_disabled": 0, "fusion_lon": 0.0, "rental_uris": {"android": "https://dc.lft.to/lastmile_qr_scan", "ios": "https://dc.lft.to/lastmile_qr_scan"}, "type": "electric_scooter"}, {"bike_id": "bafc621f8b12ed9d8ece5886ded1254b", "is_reserved": 0, "name": "bafc621f8b12ed9d8ece5886ded1254b", "lat": 38.944946333333334, "fusion_lat": 0.0, "lon": -77.0067635, "is_disabled": 0, "fusion_lon": 0.0, "rental_uris": {"android": "https://dc.lft.to/lastmile_qr_scan", "ios": "https://dc.lft.to/lastmile_qr_scan"}, "type": "electric_bike"}, {"bike_id": "a72cffea55db201d6836f2c6c58b56f2", "is_reserved": 0, "name": "a72cffea55db201d6836f2c6c58b56f2", "lat": 38.881386, "fusion_lat": 0.0, "lon": -76.99622416666666, "is_disabled": 0, "fusion_lon": 0.0, "rental_uris": {"android": "https://dc.lft.to/lastmile_qr_scan", "ios": "https://dc.lft.to/lastmile_qr_scan"}, "type": "electric_scooter"}, {"bike_id": "e4b27fe4e826058ba0e38bad910ec496", "is_reserved": 0, "name": "e4b27fe4e826058ba0e38bad910ec496", "lat": 38.918002666666666, "fusion_lat": 0.0, "lon": -77.04165166666667, "is_disabled": 0, "fusion_lon": 0.0, "rental_uris": {"android": "https://dc.lft.to/lastmile_qr_scan", "ios": "https://dc.lft.to/lastmile_qr_scan"}, "type": "electric_scooter"}, {"bike_id": "3c6ae63f905df98dc06f74f9a3efd91d", "is_reserved": 0, "name": "3c6ae63f905df98dc06f74f9a3efd91d", "lat": 38.907738333333334, "fusion_lat": 0.0, "lon": -76.99708833333334, "is_disabled": 0, "fusion_lon": 0.0, "rental_uris": {"android": "https://dc.lft.to/lastmile_qr_scan", "ios": "https://dc.lft.to/lastmile_qr_scan"}, "type": "electric_scooter"}, {"bike_id": "7fe1f6064d541081a93b38c32f550ee5", "is_reserved": 0, "name": "7fe1f6064d541081a93b38c32f550ee5", "lat": 38.883359166666665, "fusion_lat": 0.0, "lon": -76.92530566666667, "is_disabled": 0, "fusion_lon": 0.0, "rental_uris": {"android": "https://dc.lft.to/lastmile_qr_scan", "ios": "https://dc.lft.to/lastmile_qr_scan"}, "type": "electric_scooter"}, {"bike_id": "6d03fdd218d67afe5f0c8e7da34728e0", "is_reserved": 0, "name": "6d03fdd218d67afe5f0c8e7da34728e0", "lat": 38.905132, "fusion_lat": 0.0, "lon": -77.065441, "is_disabled": 0, "fusion_lon": 0.0, "rental_uris": {"android": "https://dc.lft.to/lastmile_qr_scan", "ios": "https://dc.lft.to/lastmile_qr_scan"}, "type": "electric_scooter"}, {"bike_id": "9b8b3c216c404f6cbaff185ffe878c7a", "is_reserved": 0, "name": "9b8b3c216c404f6cbaff185ffe878c7a", "lat": 38.919971333333336, "fusion_lat": 0.0, "lon": -77.04760466666667, "is_disabled": 0, "fusion_lon": 0.0, "rental_uris": {"android": "https://dc.lft.to/lastmile_qr_scan", "ios": "https://dc.lft.to/lastmile_qr_scan"}, "type": "electric_scooter"}, {"bike_id": "27b10bceab135bf2e9caa3d3a460d358", "is_reserved": 0, "name": "27b10bceab135bf2e9caa3d3a460d358", "lat": 38.90976233333333, "fusion_lat": 0.0, "lon": -77.02181433333334, "is_disabled": 0, "fusion_lon": 0.0, "rental_uris": {"android": "https://dc.lft.to/lastmile_qr_scan", "ios": "https://dc.lft.to/lastmile_qr_scan"}, "type": "electric_scooter"}, {"bike_id": "8e0f59853d9718c181d0950ca8861037", "is_reserved": 0, "name": "8e0f59853d9718c181d0950ca8861037", "lat": 38.9073995, "fusion_lat": 0.0, "lon": -77.02801466666666, "is_disabled": 0, "fusion_lon": 0.0, "rental_uris": {"android": "https://dc.lft.to/lastmile_qr_scan", "ios": "https://dc.lft.to/lastmile_qr_scan"}, "type": "electric_scooter"}, {"bike_id": "8ac0916bea48dca3795cdeb854a23697", "is_reserved": 0, "name": "8ac0916bea48dca3795cdeb854a23697", "lat": 38.914037, "fusion_lat": 0.0, "lon": -77.03163033333334, "is_disabled": 0, "fusion_lon": 0.0, "rental_uris": {"android": "https://dc.lft.to/lastmile_qr_scan", "ios": "https://dc.lft.to/lastmile_qr_scan"}, "type": "electric_scooter"}, {"bike_id": "1da0a6f9986b8590ee047c9df4467201", "is_reserved": 0, "name": "1da0a6f9986b8590ee047c9df4467201", "lat": 38.923329, "fusion_lat": 0.0, "lon": -77.04150983333334, "is_disabled": 0, "fusion_lon": 0.0, "rental_uris": {"android": "https://dc.lft.to/lastmile_qr_scan", "ios": "https://dc.lft.to/lastmile_qr_scan"}, "type": "electric_scooter"}, {"bike_id": "28c3d54c6e3d8f669386afc29b9392f7", "is_reserved": 0, "name": "28c3d54c6e3d8f669386afc29b9392f7", "lat": 38.91705733333333, "fusion_lat": 0.0, "lon": -77.02432233333333, "is_disabled": 0, "fusion_lon": 0.0, "rental_uris": {"android": "https://dc.lft.to/lastmile_qr_scan", "ios": "https://dc.lft.to/lastmile_qr_scan"}, "type": "electric_scooter"}, {"bike_id": "89b1f33a9b253e0065863dc5e3607db4", "is_reserved": 0, "name": "89b1f33a9b253e0065863dc5e3607db4", "lat": 38.904018666666666, "fusion_lat": 0.0, "lon": -77.00186516666666, "is_disabled": 0, "fusion_lon": 0.0, "rental_uris": {"android": "https://dc.lft.to/lastmile_qr_scan", "ios": "https://dc.lft.to/lastmile_qr_scan"}, "type": "electric_scooter"}, {"bike_id": "95c08330fdd594b3bb36810fc80c92dc", "is_reserved": 0, "name": "95c08330fdd594b3bb36810fc80c92dc", "lat": 38.86248583333333, "fusion_lat": 0.0, "lon": -76.99488683333334, "is_disabled": 0, "fusion_lon": 0.0, "rental_uris": {"android": "https://dc.lft.to/lastmile_qr_scan", "ios": "https://dc.lft.to/lastmile_qr_scan"}, "type": "electric_scooter"}, {"bike_id": "9eff54ebdea7b90713c8151b1e9aeb91", "is_reserved": 0, "name": "9eff54ebdea7b90713c8151b1e9aeb91", "lat": 38.9411575, "fusion_lat": 0.0, "lon": -77.00039566666666, "is_disabled": 0, "fusion_lon": 0.0, "rental_uris": {"android": "https://dc.lft.to/lastmile_qr_scan", "ios": "https://dc.lft.to/lastmile_qr_scan"}, "type": "electric_scooter"}, {"bike_id": "df6cfd8589f12a9a31c8337abac6776b", "is_reserved": 0, "name": "df6cfd8589f12a9a31c8337abac6776b", "lat": 38.91706283333333, "fusion_lat": 0.0, "lon": -77.0412335, "is_disabled": 0, "fusion_lon": 0.0, "rental_uris": {"android": "https://dc.lft.to/lastmile_qr_scan", "ios": "https://dc.lft.to/lastmile_qr_scan"}, "type": "electric_scooter"}, {"bike_id": "176ebebc924716bb7cd4151cb7e2ea18", "is_reserved": 0, "name": "176ebebc924716bb7cd4151cb7e2ea18", "lat": 38.900982166666665, "fusion_lat": 0.0, "lon": -77.02336583333333, "is_disabled": 0, "fusion_lon": 0.0, "rental_uris": {"android": "https://dc.lft.to/lastmile_qr_scan", "ios": "https://dc.lft.to/lastmile_qr_scan"}, "type": "electric_scooter"}, {"bike_id": "5e4e3f86ee7b05cc258009c74a43dea3", "is_reserved": 0, "name": "5e4e3f86ee7b05cc258009c74a43dea3", "lat": 38.89222133333333, "fusion_lat": 0.0, "lon": -77.04506933333333, "is_disabled": 0, "fusion_lon": 0.0, "rental_uris": {"android": "https://dc.lft.to/lastmile_qr_scan", "ios": "https://dc.lft.to/lastmile_qr_scan"}, "type": "electric_scooter"}, {"bike_id": "0b417556e07fe5193c17a224b575c71d", "is_reserved": 0, "name": "0b417556e07fe5193c17a224b575c71d", "lat": 38.898315333333336, "fusion_lat": 0.0, "lon": -77.02199583333334, "is_disabled": 0, "fusion_lon": 0.0, "rental_uris": {"android": "https://dc.lft.to/lastmile_qr_scan", "ios": "https://dc.lft.to/lastmile_qr_scan"}, "type": "electric_scooter"}, {"bike_id": "57be2ccf2fa2c3ff35a95590734a5ce4", "is_reserved": 0, "name": "57be2ccf2fa2c3ff35a95590734a5ce4", "lat": 38.875567, "fusion_lat": 0.0, "lon": -77.00604016666666, "is_disabled": 0, "fusion_lon": 0.0, "rental_uris": {"android": "https://dc.lft.to/lastmile_qr_scan", "ios": "https://dc.lft.to/lastmile_qr_scan"}, "type": "electric_scooter"}, {"bike_id": "e1ca1f97884f78652812ed6485eddf01", "is_reserved": 0, "name": "e1ca1f97884f78652812ed6485eddf01", "lat": 38.950380333333335, "fusion_lat": 0.0, "lon": -77.02714816666666, "is_disabled": 0, "fusion_lon": 0.0, "rental_uris": {"android": "https://dc.lft.to/lastmile_qr_scan", "ios": "https://dc.lft.to/lastmile_qr_scan"}, "type": "electric_scooter"}, {"bike_id": "e40cb8e5c4895cbb25292d4768cb8452", "is_reserved": 0, "name": "e40cb8e5c4895cbb25292d4768cb8452", "lat": 38.87156516666667, "fusion_lat": 0.0, "lon": -77.13147216666667, "is_disabled": 0, "fusion_lon": 0.0, "rental_uris": {"android": "https://dc.lft.to/lastmile_qr_scan", "ios": "https://dc.lft.to/lastmile_qr_scan"}, "type": "electric_bike"}, {"bike_id": "1e094cc7d4fd04c61e359f90fd55f9d1", "is_reserved": 0, "name": "1e094cc7d4fd04c61e359f90fd55f9d1", "lat": 38.91104966666666, "fusion_lat": 0.0, "lon": -77.04535816666667, "is_disabled": 0, "fusion_lon": 0.0, "rental_uris": {"android": "https://dc.lft.to/lastmile_qr_scan", "ios": "https://dc.lft.to/lastmile_qr_scan"}, "type": "electric_scooter"}, {"bike_id": "c599010d203847fb7f38c683167de998", "is_reserved": 0, "name": "c599010d203847fb7f38c683167de998", "lat": 38.905515333333334, "fusion_lat": 0.0, "lon": -77.04486983333334, "is_disabled": 0, "fusion_lon": 0.0, "rental_uris": {"android": "https://dc.lft.to/lastmile_qr_scan", "ios": "https://dc.lft.to/lastmile_qr_scan"}, "type": "electric_scooter"}, {"bike_id": "3d3490673e07449eb5b8c1b567e475ae", "is_reserved": 0, "name": "3d3490673e07449eb5b8c1b567e475ae", "lat": 38.90408983333333, "fusion_lat": 0.0, "lon": -76.9733325, "is_disabled": 0, "fusion_lon": 0.0, "rental_uris": {"android": "https://dc.lft.to/lastmile_qr_scan", "ios": "https://dc.lft.to/lastmile_qr_scan"}, "type": "electric_scooter"}, {"bike_id": "bd3e75d12c4ebf7c7cb4fc7a142ea017", "is_reserved": 0, "name": "bd3e75d12c4ebf7c7cb4fc7a142ea017", "lat": 38.903209833333335, "fusion_lat": 0.0, "lon": -77.0160925, "is_disabled": 0, "fusion_lon": 0.0, "rental_uris": {"android": "https://dc.lft.to/lastmile_qr_scan", "ios": "https://dc.lft.to/lastmile_qr_scan"}, "type": "electric_scooter"}, {"bike_id": "8c6f087cccea204f77a49629de1ae234", "is_reserved": 0, "name": "8c6f087cccea204f77a49629de1ae234", "lat": 38.863693833333336, "fusion_lat": 0.0, "lon": -77.0136565, "is_disabled": 0, "fusion_lon": 0.0, "rental_uris": {"android": "https://dc.lft.to/lastmile_qr_scan", "ios": "https://dc.lft.to/lastmile_qr_scan"}, "type": "electric_bike"}, {"bike_id": "08cdce6a5117f81ccbcb2ef3daac1ad9", "is_reserved": 0, "name": "08cdce6a5117f81ccbcb2ef3daac1ad9", "lat": 38.87370883333333, "fusion_lat": 0.0, "lon": -77.00125933333334, "is_disabled": 0, "fusion_lon": 0.0, "rental_uris": {"android": "https://dc.lft.to/lastmile_qr_scan", "ios": "https://dc.lft.to/lastmile_qr_scan"}, "type": "electric_scooter"}, {"bike_id": "6ea934688d66a9a8de495eabf0273535", "is_reserved": 0, "name": "6ea934688d66a9a8de495eabf0273535", "lat": 39.014193, "fusion_lat": 0.0, "lon": -77.04502016666666, "is_disabled": 0, "fusion_lon": 0.0, "rental_uris": {"android": "https://dc.lft.to/lastmile_qr_scan", "ios": "https://dc.lft.to/lastmile_qr_scan"}, "type": "electric_bike"}, {"bike_id": "b89f41accf9cf4df67055c91df7a92e5", "is_reserved": 0, "name": "b89f41accf9cf4df67055c91df7a92e5", "lat": 38.9154895, "fusion_lat": 0.0, "lon": -77.03851683333333, "is_disabled": 0, "fusion_lon": 0.0, "rental_uris": {"android": "https://dc.lft.to/lastmile_qr_scan", "ios": "https://dc.lft.to/lastmile_qr_scan"}, "type": "electric_scooter"}, {"bike_id": "2f343d5c0418dfa293127d48e9c2e71a", "is_reserved": 0, "name": "2f343d5c0418dfa293127d48e9c2e71a", "lat": 38.92349816666667, "fusion_lat": 0.0, "lon": -77.03221633333334, "is_disabled": 0, "fusion_lon": 0.0, "rental_uris": {"android": "https://dc.lft.to/lastmile_qr_scan", "ios": "https://dc.lft.to/lastmile_qr_scan"}, "type": "electric_scooter"}, {"bike_id": "2e2ff5b51f56156b38906cf94ca6636e", "is_reserved": 0, "name": "2e2ff5b51f56156b38906cf94ca6636e", "lat": 38.91261033333333, "fusion_lat": 0.0, "lon": -77.03052633333333, "is_disabled": 0, "fusion_lon": 0.0, "rental_uris": {"android": "https://dc.lft.to/lastmile_qr_scan", "ios": "https://dc.lft.to/lastmile_qr_scan"}, "type": "electric_scooter"}, {"bike_id": "7fa514603ec6ff1a14e088d9311c81c4", "is_reserved": 0, "name": "7fa514603ec6ff1a14e088d9311c81c4", "lat": 38.955598333333334, "fusion_lat": 0.0, "lon": -77.02440383333334, "is_disabled": 0, "fusion_lon": 0.0, "rental_uris": {"android": "https://dc.lft.to/lastmile_qr_scan", "ios": "https://dc.lft.to/lastmile_qr_scan"}, "type": "electric_bike"}, {"bike_id": "e006cea66cf945443fdc21265fe45146", "is_reserved": 0, "name": "e006cea66cf945443fdc21265fe45146", "lat": 38.905054, "fusion_lat": 0.0, "lon": -77.06012116666666, "is_disabled": 0, "fusion_lon": 0.0, "rental_uris": {"android": "https://dc.lft.to/lastmile_qr_scan", "ios": "https://dc.lft.to/lastmile_qr_scan"}, "type": "electric_scooter"}, {"bike_id": "5c3d5d6462ebfe064b4157aecf55601a", "is_reserved": 0, "name": "5c3d5d6462ebfe064b4157aecf55601a", "lat": 38.9180815, "fusion_lat": 0.0, "lon": -77.03437, "is_disabled": 0, "fusion_lon": 0.0, "rental_uris": {"android": "https://dc.lft.to/lastmile_qr_scan", "ios": "https://dc.lft.to/lastmile_qr_scan"}, "type": "electric_scooter"}, {"bike_id": "185173e8737adc310342d488f6c711f7", "is_reserved": 0, "name": "185173e8737adc310342d488f6c711f7", "lat": 38.944078, "fusion_lat": 0.0, "lon": -77.05516833333333, "is_disabled": 0, "fusion_lon": 0.0, "rental_uris": {"android": "https://dc.lft.to/lastmile_qr_scan", "ios": "https://dc.lft.to/lastmile_qr_scan"}, "type": "electric_bike"}, {"bike_id": "b4e191282e95c38b9b3f944c88a0c28a", "is_reserved": 0, "name": "b4e191282e95c38b9b3f944c88a0c28a", "lat": 38.87547516666667, "fusion_lat": 0.0, "lon": -77.00532966666667, "is_disabled": 0, "fusion_lon": 0.0, "rental_uris": {"android": "https://dc.lft.to/lastmile_qr_scan", "ios": "https://dc.lft.to/lastmile_qr_scan"}, "type": "electric_scooter"}, {"bike_id": "30297c1e4e40e0a97aff972de1184362", "is_reserved": 0, "name": "30297c1e4e40e0a97aff972de1184362", "lat": 38.8738735, "fusion_lat": 0.0, "lon": -77.00165233333334, "is_disabled": 0, "fusion_lon": 0.0, "rental_uris": {"android": "https://dc.lft.to/lastmile_qr_scan", "ios": "https://dc.lft.to/lastmile_qr_scan"}, "type": "electric_scooter"}, {"bike_id": "0bf2e1c843b9d4b8c272a50123a1a4bf", "is_reserved": 0, "name": "0bf2e1c843b9d4b8c272a50123a1a4bf", "lat": 38.87880716666667, "fusion_lat": 0.0, "lon": -77.00723383333333, "is_disabled": 0, "fusion_lon": 0.0, "rental_uris": {"android": "https://dc.lft.to/lastmile_qr_scan", "ios": "https://dc.lft.to/lastmile_qr_scan"}, "type": "electric_scooter"}, {"bike_id": "1e1ca20a41dc781c5d279648403069e6", "is_reserved": 0, "name": "1e1ca20a41dc781c5d279648403069e6", "lat": 38.8866375, "fusion_lat": 0.0, "lon": -77.162311, "is_disabled": 0, "fusion_lon": 0.0, "rental_uris": {"android": "https://dc.lft.to/lastmile_qr_scan", "ios": "https://dc.lft.to/lastmile_qr_scan"}, "type": "electric_bike"}, {"bike_id": "ba269e296e1872b871be5a79d025f5e8", "is_reserved": 0, "name": "ba269e296e1872b871be5a79d025f5e8", "lat": 38.907642833333334, "fusion_lat": 0.0, "lon": -77.03586533333333, "is_disabled": 0, "fusion_lon": 0.0, "rental_uris": {"android": "https://dc.lft.to/lastmile_qr_scan", "ios": "https://dc.lft.to/lastmile_qr_scan"}, "type": "electric_scooter"}, {"bike_id": "172c2ebc283efb4057e30b6763599d12", "is_reserved": 0, "name": "172c2ebc283efb4057e30b6763599d12", "lat": 38.920156666666664, "fusion_lat": 0.0, "lon": -77.0311925, "is_disabled": 0, "fusion_lon": 0.0, "rental_uris": {"android": "https://dc.lft.to/lastmile_qr_scan", "ios": "https://dc.lft.to/lastmile_qr_scan"}, "type": "electric_scooter"}, {"bike_id": "6328087290d667d891ec977047b8de15", "is_reserved": 0, "name": "6328087290d667d891ec977047b8de15", "lat": 38.91689933333333, "fusion_lat": 0.0, "lon": -77.03108266666666, "is_disabled": 0, "fusion_lon": 0.0, "rental_uris": {"android": "https://dc.lft.to/lastmile_qr_scan", "ios": "https://dc.lft.to/lastmile_qr_scan"}, "type": "electric_scooter"}, {"bike_id": "a6e5a067379ce9d8a3b7853ac3466f66", "is_reserved": 0, "name": "a6e5a067379ce9d8a3b7853ac3466f66", "lat": 38.915976, "fusion_lat": 0.0, "lon": -77.01479266666666, "is_disabled": 0, "fusion_lon": 0.0, "rental_uris": {"android": "https://dc.lft.to/lastmile_qr_scan", "ios": "https://dc.lft.to/lastmile_qr_scan"}, "type": "electric_scooter"}, {"bike_id": "f59bf2c3df676bce6353ed86868ac29f", "is_reserved": 0, "name": "f59bf2c3df676bce6353ed86868ac29f", "lat": 38.887465166666665, "fusion_lat": 0.0, "lon": -77.01776066666666, "is_disabled": 0, "fusion_lon": 0.0, "rental_uris": {"android": "https://dc.lft.to/lastmile_qr_scan", "ios": "https://dc.lft.to/lastmile_qr_scan"}, "type": "electric_scooter"}, {"bike_id": "6e320bf5657315a3af4a13405ca77a13", "is_reserved": 0, "name": "6e320bf5657315a3af4a13405ca77a13", "lat": 38.887625666666665, "fusion_lat": 0.0, "lon": -76.98291366666666, "is_disabled": 0, "fusion_lon": 0.0, "rental_uris": {"android": "https://dc.lft.to/lastmile_qr_scan", "ios": "https://dc.lft.to/lastmile_qr_scan"}, "type": "electric_scooter"}, {"bike_id": "dd48d2853566cc491955b4a72ac660ff", "is_reserved": 0, "name": "dd48d2853566cc491955b4a72ac660ff", "lat": 38.916109, "fusion_lat": 0.0, "lon": -77.045016, "is_disabled": 0, "fusion_lon": 0.0, "rental_uris": {"android": "https://dc.lft.to/lastmile_qr_scan", "ios": "https://dc.lft.to/lastmile_qr_scan"}, "type": "electric_scooter"}, {"bike_id": "dbeab6a5aac421785c5fa08f9c76adc1", "is_reserved": 0, "name": "dbeab6a5aac421785c5fa08f9c76adc1", "lat": 38.922320166666665, "fusion_lat": 0.0, "lon": -76.97532433333333, "is_disabled": 0, "fusion_lon": 0.0, "rental_uris": {"android": "https://dc.lft.to/lastmile_qr_scan", "ios": "https://dc.lft.to/lastmile_qr_scan"}, "type": "electric_scooter"}, {"bike_id": "1b74b6b170fe617f893af8c6fb4de363", "is_reserved": 0, "name": "1b74b6b170fe617f893af8c6fb4de363", "lat": 38.9083465, "fusion_lat": 0.0, "lon": -77.043546, "is_disabled": 0, "fusion_lon": 0.0, "rental_uris": {"android": "https://dc.lft.to/lastmile_qr_scan", "ios": "https://dc.lft.to/lastmile_qr_scan"}, "type": "electric_scooter"}, {"bike_id": "9ef904c1427a82d984aed2346ce82aad", "is_reserved": 0, "name": "9ef904c1427a82d984aed2346ce82aad", "lat": 38.9014815, "fusion_lat": 0.0, "lon": -76.97423383333333, "is_disabled": 0, "fusion_lon": 0.0, "rental_uris": {"android": "https://dc.lft.to/lastmile_qr_scan", "ios": "https://dc.lft.to/lastmile_qr_scan"}, "type": "electric_scooter"}, {"bike_id": "7b101165531984462c618e627dae6be5", "is_reserved": 0, "name": "7b101165531984462c618e627dae6be5", "lat": 38.917115333333335, "fusion_lat": 0.0, "lon": -77.03347066666667, "is_disabled": 0, "fusion_lon": 0.0, "rental_uris": {"android": "https://dc.lft.to/lastmile_qr_scan", "ios": "https://dc.lft.to/lastmile_qr_scan"}, "type": "electric_scooter"}, {"bike_id": "e719ce3c62aec3b115ee7da469bb4a38", "is_reserved": 0, "name": "e719ce3c62aec3b115ee7da469bb4a38", "lat": 38.90865933333333, "fusion_lat": 0.0, "lon": -77.07110033333333, "is_disabled": 0, "fusion_lon": 0.0, "rental_uris": {"android": "https://dc.lft.to/lastmile_qr_scan", "ios": "https://dc.lft.to/lastmile_qr_scan"}, "type": "electric_scooter"}, {"bike_id": "d962a7a6c1e6f0391f9aab9eebecd5a6", "is_reserved": 0, "name": "d962a7a6c1e6f0391f9aab9eebecd5a6", "lat": 38.903428166666664, "fusion_lat": 0.0, "lon": -76.98505533333334, "is_disabled": 0, "fusion_lon": 0.0, "rental_uris": {"android": "https://dc.lft.to/lastmile_qr_scan", "ios": "https://dc.lft.to/lastmile_qr_scan"}, "type": "electric_scooter"}, {"bike_id": "f6a68097920bfbd09a301ddbf99a3ec3", "is_reserved": 0, "name": "f6a68097920bfbd09a301ddbf99a3ec3", "lat": 38.86922466666667, "fusion_lat": 0.0, "lon": -77.010721, "is_disabled": 0, "fusion_lon": 0.0, "rental_uris": {"android": "https://dc.lft.to/lastmile_qr_scan", "ios": "https://dc.lft.to/lastmile_qr_scan"}, "type": "electric_bike"}, {"bike_id": "3162bc8bd41477e13abda02ba586378b", "is_reserved": 0, "name": "3162bc8bd41477e13abda02ba586378b", "lat": 38.87439916666666, "fusion_lat": 0.0, "lon": -77.00920633333334, "is_disabled": 0, "fusion_lon": 0.0, "rental_uris": {"android": "https://dc.lft.to/lastmile_qr_scan", "ios": "https://dc.lft.to/lastmile_qr_scan"}, "type": "electric_scooter"}, {"bike_id": "e0ca5c56ef690201184a517d48046cec", "is_reserved": 0, "name": "e0ca5c56ef690201184a517d48046cec", "lat": 38.91014933333334, "fusion_lat": 0.0, "lon": -77.0165745, "is_disabled": 0, "fusion_lon": 0.0, "rental_uris": {"android": "https://dc.lft.to/lastmile_qr_scan", "ios": "https://dc.lft.to/lastmile_qr_scan"}, "type": "electric_scooter"}, {"bike_id": "d5b3d1643f378a19504816cda5131371", "is_reserved": 0, "name": "d5b3d1643f378a19504816cda5131371", "lat": 38.92441983333333, "fusion_lat": 0.0, "lon": -77.0333155, "is_disabled": 0, "fusion_lon": 0.0, "rental_uris": {"android": "https://dc.lft.to/lastmile_qr_scan", "ios": "https://dc.lft.to/lastmile_qr_scan"}, "type": "electric_scooter"}, {"bike_id": "0ec1f653b926c9d702ad6d2b7e2fb254", "is_reserved": 0, "name": "0ec1f653b926c9d702ad6d2b7e2fb254", "lat": 38.910211333333336, "fusion_lat": 0.0, "lon": -77.0487295, "is_disabled": 0, "fusion_lon": 0.0, "rental_uris": {"android": "https://dc.lft.to/lastmile_qr_scan", "ios": "https://dc.lft.to/lastmile_qr_scan"}, "type": "electric_scooter"}, {"bike_id": "8fa6c4169232a6e9cbb43bc75d1eaccd", "is_reserved": 0, "name": "8fa6c4169232a6e9cbb43bc75d1eaccd", "lat": 38.881881, "fusion_lat": 0.0, "lon": -77.00354683333333, "is_disabled": 0, "fusion_lon": 0.0, "rental_uris": {"android": "https://dc.lft.to/lastmile_qr_scan", "ios": "https://dc.lft.to/lastmile_qr_scan"}, "type": "electric_scooter"}, {"bike_id": "4f08479b8439adc7ba782e6f41065b54", "is_reserved": 0, "name": "4f08479b8439adc7ba782e6f41065b54", "lat": 38.917971666666666, "fusion_lat": 0.0, "lon": -77.02706183333333, "is_disabled": 0, "fusion_lon": 0.0, "rental_uris": {"android": "https://dc.lft.to/lastmile_qr_scan", "ios": "https://dc.lft.to/lastmile_qr_scan"}, "type": "electric_scooter"}, {"bike_id": "4e8f8f5ab6fdf083d6b78a44ea27ef35", "is_reserved": 0, "name": "4e8f8f5ab6fdf083d6b78a44ea27ef35", "lat": 38.91679116666667, "fusion_lat": 0.0, "lon": -77.00193166666666, "is_disabled": 0, "fusion_lon": 0.0, "rental_uris": {"android": "https://dc.lft.to/lastmile_qr_scan", "ios": "https://dc.lft.to/lastmile_qr_scan"}, "type": "electric_scooter"}, {"bike_id": "65b894f6e9313b147f84377dc3da68ba", "is_reserved": 0, "name": "65b894f6e9313b147f84377dc3da68ba", "lat": 38.921390333333335, "fusion_lat": 0.0, "lon": -77.00937833333333, "is_disabled": 0, "fusion_lon": 0.0, "rental_uris": {"android": "https://dc.lft.to/lastmile_qr_scan", "ios": "https://dc.lft.to/lastmile_qr_scan"}, "type": "electric_scooter"}, {"bike_id": "6c6f12270a9b77ff8e7877b36c981823", "is_reserved": 0, "name": "6c6f12270a9b77ff8e7877b36c981823", "lat": 38.903831, "fusion_lat": 0.0, "lon": -76.97615666666667, "is_disabled": 0, "fusion_lon": 0.0, "rental_uris": {"android": "https://dc.lft.to/lastmile_qr_scan", "ios": "https://dc.lft.to/lastmile_qr_scan"}, "type": "electric_scooter"}, {"bike_id": "fd12ee3a54e2e62b2b10a74b02d4076f", "is_reserved": 0, "name": "fd12ee3a54e2e62b2b10a74b02d4076f", "lat": 38.90072266666667, "fusion_lat": 0.0, "lon": -77.05057933333333, "is_disabled": 0, "fusion_lon": 0.0, "rental_uris": {"android": "https://dc.lft.to/lastmile_qr_scan", "ios": "https://dc.lft.to/lastmile_qr_scan"}, "type": "electric_scooter"}, {"bike_id": "3725f3932f2dc2c15d1133eaec02f95c", "is_reserved": 0, "name": "3725f3932f2dc2c15d1133eaec02f95c", "lat": 38.8923315, "fusion_lat": 0.0, "lon": -77.0487245, "is_disabled": 0, "fusion_lon": 0.0, "rental_uris": {"android": "https://dc.lft.to/lastmile_qr_scan", "ios": "https://dc.lft.to/lastmile_qr_scan"}, "type": "electric_scooter"}, {"bike_id": "de47c22c4eebd4f6947b894d9d0a2790", "is_reserved": 0, "name": "de47c22c4eebd4f6947b894d9d0a2790", "lat": 38.905315333333334, "fusion_lat": 0.0, "lon": -77.04356016666667, "is_disabled": 0, "fusion_lon": 0.0, "rental_uris": {"android": "https://dc.lft.to/lastmile_qr_scan", "ios": "https://dc.lft.to/lastmile_qr_scan"}, "type": "electric_scooter"}, {"bike_id": "4ddc4f242485b185764dbbc4fc9f2b0f", "is_reserved": 0, "name": "4ddc4f242485b185764dbbc4fc9f2b0f", "lat": 38.92374066666667, "fusion_lat": 0.0, "lon": -77.02816466666667, "is_disabled": 0, "fusion_lon": 0.0, "rental_uris": {"android": "https://dc.lft.to/lastmile_qr_scan", "ios": "https://dc.lft.to/lastmile_qr_scan"}, "type": "electric_scooter"}, {"bike_id": "0662b1481ff07cf86ab7aa062156fd6f", "is_reserved": 0, "name": "0662b1481ff07cf86ab7aa062156fd6f", "lat": 38.8972905, "fusion_lat": 0.0, "lon": -77.01870733333334, "is_disabled": 0, "fusion_lon": 0.0, "rental_uris": {"android": "https://dc.lft.to/lastmile_qr_scan", "ios": "https://dc.lft.to/lastmile_qr_scan"}, "type": "electric_scooter"},