{"data": {"bikes": [{"is_disabled": 0, "fusion_lon": 0.0, "fusion_lat": 0.0, "lat": 38.898500166666665, "type": "electric_scooter", "lon": -77.02210133333334, "bike_id": "b759a07d6bac3f8af2542d31208c6bbd", "rental_uris": {"android": "https://dc.lft.to/lastmile_qr_scan", "ios": "https://dc.lft.to/lastmile_qr_scan"}, "name": "b759a07d6bac3f8af2542d31208c6bbd", "is_reserved": 0}, {"is_disabled": 0, "fusion_lon": 0.0, "fusion_lat": 0.0, "lat": 38.776225833333335, "type": "electric_bike", "lon": -77.083581, "bike_id": "91294e745a059fff8e3f90f82502c47b", "rental_uris": {"android": "https://dc.lft.to/lastmile_qr_scan", "ios": "https://dc.lft.to/lastmile_qr_scan"}, "name": "91294e745a059fff8e3f90f82502c47b", "is_reserved": 0}, {"is_disabled": 0, "fusion_lon": 0.0, "fusion_lat": 0.0, "lat": 38.897308833333334, "type": "electric_scooter", "lon": -77.04724916666666, "bike_id": "c3e32614c87caf4142bddb851e05f9ba", "rental_uris": {"android": "https://dc.lft.to/lastmile_qr_scan", "ios": "https://dc.lft.to/lastmile_qr_scan"}, "name": "c3e32614c87caf4142bddb851e05f9ba", "is_reserved": 0}, {"is_disabled": 0, "fusion_lon": 0.0, "fusion_lat": 0.0, "lat": 38.888537166666666, "type": "electric_bike", "lon": -76.97702166666667, "bike_id": "5eaebda6e58614b65e55c15734f37699", "rental_uris": {"android": "https://dc.lft.to/lastmile_qr_scan", "ios": "https://dc.lft.to/lastmile_qr_scan"}, "name": "5eaebda6e58614b65e55c15734f37699", "is_reserved": 0}, {"is_disabled": 0, "fusion_lon": 0.0, "fusion_lat": 0.0, "lat": 38.926567166666665, "type": "electric_bike", "lon": -76.99750983333334, "bike_id": "4457067a73045a0d1777072c9c6d81aa", "rental_uris": {"android": "https://dc.lft.to/lastmile_qr_scan", "ios": "https://dc.lft.to/lastmile_qr_scan"}, "name": "4457067a73045a0d1777072c9c6d81aa", "is_reserved": 0}, {"is_disabled": 0, "fusion_lon": 0.0, "fusion_lat": 0.0, "lat": 38.908527666666664, "type": "electric_scooter", "lon": -77.055112, "bike_id": "3ad82d772eebb6840e740d158e2aa621", "rental_uris": {"android": "https://dc.lft.to/lastmile_qr_scan", "ios": "https://dc.lft.to/lastmile_qr_scan"}, "name": "3ad82d772eebb6840e740d158e2aa621", "is_reserved": 0}, {"is_disabled": 0, "fusion_lon": 0.0, "fusion_lat": 0.0, "lat": 38.8983985, "type": "electric_scooter", "lon": -77.029512, "bike_id": "1002de675d23726db4a8df33434441d4", "rental_uris": {"android": "https://dc.lft.to/lastmile_qr_scan", "ios": "https://dc.lft.to/lastmile_qr_scan"}, "name": "1002de675d23726db4a8df33434441d4", "is_reserved": 0}, {"is_disabled": 0, "fusion_lon": 0.0, "fusion_lat": 0.0, "lat": 38.889654666666665, "type": "electric_scooter", "lon": -76.991469, "bike_id": "5b47eebe8cb1f752648e89ced5e9f118", "rental_uris": {"android": "https://dc.lft.to/lastmile_qr_scan", "ios": "https://dc.lft.to/lastmile_qr_scan"}, "name": "5b47eebe8cb1f752648e89ced5e9f118", "is_reserved": 0}, {"is_disabled": 0, "fusion_lon": 0.0, "fusion_lat": 0.0, "lat": 38.8874555, "type": "electric_scooter", "lon": -77.01432983333333, "bike_id": "a31ce3a72c560b0c965894246bcf5f92", "rental_uris": {"android": "https://dc.lft.to/lastmile_qr_scan", "ios": "https://dc.lft.to/lastmile_qr_scan"}, "name": "a31ce3a72c560b0c965894246bcf5f92", "is_reserved": 0}, {"is_disabled": 0, "fusion_lon": 0.0, "fusion_lat": 0.0, "lat": 38.91770016666667, "type": "electric_scooter", "lon": -77.031811, "bike_id": "80e0561fb509c0356f27d23552f88827", "rental_uris": {"android": "https://dc.lft.to/lastmile_qr_scan", "ios": "https://dc.lft.to/lastmile_qr_scan"}, "name": "80e0561fb509c0356f27d23552f88827", "is_reserved": 0}, {"is_disabled": 0, "fusion_lon": 0.0, "fusion_lat": 0.0, "lat": 38.91540216666667, "type": "electric_scooter", "lon": -77.02183716666667, "bike_id": "a8aa1b8a6426384e1f9f009fd24dec19", "rental_uris": {"android": "https://dc.lft.to/lastmile_qr_scan", "ios": "https://dc.lft.to/lastmile_qr_scan"}, "name": "a8aa1b8a6426384e1f9f009fd24dec19", "is_reserved": 0}, {"is_disabled": 0, "fusion_lon": 0.0, "fusion_lat": 0.0, "lat": 39.05456366666667, "type": "electric_bike", "lon": -77.14325383333333, "bike_id": "4dc1f6fcbf41415ef780251c51ad5a73", "rental_uris": {"android": "https://dc.lft.to/lastmile_qr_scan", "ios": "https://dc.lft.to/lastmile_qr_scan"}, "name": "4dc1f6fcbf41415ef780251c51ad5a73", "is_reserved": 0}, {"is_disabled": 0, "fusion_lon": 0.0, "fusion_lat": 0.0, "lat": 38.910307333333336, "type": "electric_scooter", "lon": -77.03802683333333, "bike_id": "ed93fde1350007234d6f9975b40dac95", "rental_uris": {"android": "https://dc.lft.to/lastmile_qr_scan", "ios": "https://dc.lft.to/lastmile_qr_scan"}, "name": "ed93fde1350007234d6f9975b40dac95", "is_reserved": 0}, {"is_disabled": 0, "fusion_lon": 0.0, "fusion_lat": 0.0, "lat": 38.92844383333333, "type": "electric_scooter", "lon": -77.055469, "bike_id": "9a6b5c05b8a622b0945ef6ef657a91b6", "rental_uris": {"android": "https://dc.lft.to/lastmile_qr_scan", "ios": "https://dc.lft.to/lastmile_qr_scan"}, "name": "9a6b5c05b8a622b0945ef6ef657a91b6", "is_reserved": 0}, {"is_disabled": 0, "fusion_lon": 0.0, "fusion_lat": 0.0, "lat": 38.868064833333335, "type": "electric_scooter", "lon": -77.01174, "bike_id": "83dfb32be2353e815a871aa68c9edc7b", "rental_uris": {"android": "https://dc.lft.to/lastmile_qr_scan", "ios": "https://dc.lft.to/lastmile_qr_scan"}, "name": "83dfb32be2353e815a871aa68c9edc7b", "is_reserved": 0}, {"is_disabled": 0, "fusion_lon": 0.0, "fusion_lat": 0.0, "lat": 38.945971666666665, "type": "electric_bike", "lon": -77.34410533333333, "bike_id": "6e367239f9b9e3d3c5af7b0997adf9db", "rental_uris": {"android": "https://dc.lft.to/lastmile_qr_scan", "ios": "https://dc.lft.to/lastmile_qr_scan"}, "name": "6e367239f9b9e3d3c5af7b0997adf9db", "is_reserved": 0}, {"is_disabled": 0, "fusion_lon": 0.0, "fusion_lat": 0.0, "lat": 38.893897333333335, "type": "electric_scooter", "lon": -76.94996233333333, "bike_id": "86162c0c1d2a8685fe1c7eb3948b00e3", "rental_uris": {"android": "https://dc.lft.to/lastmile_qr_scan", "ios": "https://dc.lft.to/lastmile_qr_scan"}, "name": "86162c0c1d2a8685fe1c7eb3948b00e3", "is_reserved": 0}, {"is_disabled": 0, "fusion_lon": 0.0, "fusion_lat": 0.0, "lat": 38.848439666666664, "type": "electric_bike", "lon": -77.0804905, "bike_id": "ee17dd05ae6835ff40e82ab31d7e2f7a", "rental_uris": {"android": "https://dc.lft.to/lastmile_qr_scan", "ios": "https://dc.lft.to/lastmile_qr_scan"}, "name": "ee17dd05ae6835ff40e82ab31d7e2f7a", "is_reserved": 0}, {"is_disabled": 0, "fusion_lon": 0.0, "fusion_lat": 0.0, "lat": 38.896739833333335, "type": "electric_scooter", "lon": -76.94716783333334, "bike_id": "c7e1f68f671af4186db2bb70c46342a6", "rental_uris": {"android": "https://dc.lft.to/lastmile_qr_scan", "ios": "https://dc.lft.to/lastmile_qr_scan"}, "name": "c7e1f68f671af4186db2bb70c46342a6", "is_reserved": 0}, {"is_disabled": 0, "fusion_lon": 0.0, "fusion_lat": 0.0, "lat": 38.94454233333333, "type": "electric_scooter", "lon": -77.0634145, "bike_id": "5bb44c578c2d4138d88d7e6550f79c7b", "rental_uris": {"android": "https://dc.lft.to/lastmile_qr_scan", "ios": "https://dc.lft.to/lastmile_qr_scan"}, "name": "5bb44c578c2d4138d88d7e6550f79c7b", "is_reserved": 0}, {"is_disabled": 0, "fusion_lon": 0.0, "fusion_lat": 0.0, "lat": 38.96603783333333, "type": "electric_bike", "lon": -76.98335733333333, "bike_id": "a01354074a7fdf84922d88ff9b7f8652", "rental_uris": {"android": "https://dc.lft.to/lastmile_qr_scan", "ios": "https://dc.lft.to/lastmile_qr_scan"}, "name": "a01354074a7fdf84922d88ff9b7f8652", "is_reserved": 0}, {"is_disabled": 0, "fusion_lon": 0.0, "fusion_lat": 0.0, "lat": 38.90016266666667, "type": "electric_scooter", "lon": -76.997528, "bike_id": "6dc27891737bff6bb17080393ec80757", "rental_uris": {"android": "https://dc.lft.to/lastmile_qr_scan", "ios": "https://dc.lft.to/lastmile_qr_scan"}, "name": "6dc27891737bff6bb17080393ec80757", "is_reserved": 0}, {"is_disabled": 0, "fusion_lon": 0.0, "fusion_lat": 0.0, "lat": 38.908471, "type": "electric_scooter", "lon": -77.023857, "bike_id": "1d627c99f01bf1cdfbce33717d0b8856", "rental_uris": {"android": "https://dc.lft.to/lastmile_qr_scan", "ios": "https://dc.lft.to/lastmile_qr_scan"}, "name": "1d627c99f01bf1cdfbce33717d0b8856", "is_reserved": 0}, {"is_disabled": 0, "fusion_lon": 0.0, "fusion_lat": 0.0, "lat": 38.917804833333335, "type": "electric_scooter", "lon": -77.02302866666666, "bike_id": "ec629a30738148d022078c0d1b1f0b24", "rental_uris": {"android": "https://dc.lft.to/lastmile_qr_scan", "ios": "https://dc.lft.to/lastmile_qr_scan"}, "name": "ec629a30738148d022078c0d1b1f0b24", "is_reserved": 0}, {"is_disabled": 0, "fusion_lon": 0.0, "fusion_lat": 0.0, "lat": 38.875733833333335, "type": "electric_scooter", "lon": -77.01997233333333, "bike_id": "2a78b1956a49df2754728a6c6480eefe", "rental_uris": {"android": "https://dc.lft.to/lastmile_qr_scan", "ios": "https://dc.lft.to/lastmile_qr_scan"}, "name": "2a78b1956a49df2754728a6c6480eefe", "is_reserved": 0}, {"is_disabled": 0, "fusion_lon": 0.0, "fusion_lat": 0.0, "lat": 38.953562, "type": "electric_bike", "lon": -76.98094766666667, "bike_id": "9c7a301f36713389bdcf2e4acff5dbd8", "rental_uris": {"android": "https://dc.lft.to/lastmile_qr_scan", "ios": "https://dc.lft.to/lastmile_qr_scan"}, "name": "9c7a301f36713389bdcf2e4acff5dbd8", "is_reserved": 0}, {"is_disabled": 0, "fusion_lon": 0.0, "fusion_lat": 0.0, "lat": 38.9178565, "type": "electric_scooter", "lon": -77.03666033333333, "bike_id": "d22e8d58f029621551925dac7a3c886d", "rental_uris": {"android": "https://dc.lft.to/lastmile_qr_scan", "ios": "https://dc.lft.to/lastmile_qr_scan"}, "name": "d22e8d58f029621551925dac7a3c886d", "is_reserved": 0}, {"is_disabled": 0, "fusion_lon": 0.0, "fusion_lat": 0.0, "lat": 38.93396166666667, "type": "electric_scooter", "lon": -77.0272825, "bike_id": "9d1f9a6245b8561640472216ad6ee746", "rental_uris": {"android": "https://dc.lft.to/lastmile_qr_scan", "ios": "https://dc.lft.to/lastmile_qr_scan"}, "name": "9d1f9a6245b8561640472216ad6ee746", "is_reserved": 0}, {"is_disabled": 0, "fusion_lon": 0.0, "fusion_lat": 0.0, "lat": 38.90268366666667, "type": "electric_scooter", "lon": -77.03646733333333, "bike_id": "db03909fb43a20556678633b103a9211", "rental_uris": {"android": "https://dc.lft.to/lastmile_qr_scan", "ios": "https://dc.lft.to/lastmile_qr_scan"}, "name": "db03909fb43a20556678633b103a9211", "is_reserved": 0}, {"is_disabled": 0, "fusion_lon": 0.0, "fusion_lat": 0.0, "lat": 38.91527333333333, "type": "electric_scooter", "lon": -77.02185766666666, "bike_id": "924ba3bb880268e570995b65050a19a9", "rental_uris": {"android": "https://dc.lft.to/lastmile_qr_scan", "ios": "https://dc.lft.to/lastmile_qr_scan"}, "name": "924ba3bb880268e570995b65050a19a9", "is_reserved": 0}, {"is_disabled": 0, "fusion_lon": 0.0, "fusion_lat": 0.0, "lat": 38.905850666666666, "type": "electric_scooter", "lon": -77.02379766666667, "bike_id": "ded9d25e00d999521d41518134bc2f20", "rental_uris": {"android": "https://dc.lft.to/lastmile_qr_scan", "ios": "https://dc.lft.to/lastmile_qr_scan"}, "name": "ded9d25e00d999521d41518134bc2f20", "is_reserved": 0}, {"is_disabled": 0, "fusion_lon": 0.0, "fusion_lat": 0.0, "lat": 38.9155155, "type": "electric_scooter", "lon": -77.01230583333333, "bike_id": "e5e25ce00a73bc6c083e21e6bcffca0a", "rental_uris": {"android": "https://dc.lft.to/lastmile_qr_scan", "ios": "https://dc.lft.to/lastmile_qr_scan"}, "name": "e5e25ce00a73bc6c083e21e6bcffca0a", "is_reserved": 0}, {"is_disabled": 0, "fusion_lon": 0.0, "fusion_lat": 0.0, "lat": 38.89276233333333, "type": "electric_scooter", "lon": -77.032079, "bike_id": "acb36a6a86d1076ab0c2eefcca285bab", "rental_uris": {"android": "https://dc.lft.to/lastmile_qr_scan", "ios": "https://dc.lft.to/lastmile_qr_scan"}, "name": "acb36a6a86d1076ab0c2eefcca285bab", "is_reserved": 0}, {"is_disabled": 0, "fusion_lon": 0.0, "fusion_lat": 0.0, "lat": 38.92156933333333, "type": "electric_scooter", "lon": -77.03849633333333, "bike_id": "5e3026064c55b6d4470f788c1cd8f0b4", "rental_uris": {"android": "https://dc.lft.to/lastmile_qr_scan", "ios": "https://dc.lft.to/lastmile_qr_scan"}, "name": "5e3026064c55b6d4470f788c1cd8f0b4", "is_reserved": 0}, {"is_disabled": 0, "fusion_lon": 0.0, "fusion_lat": 0.0, "lat": 38.92319666666667, "type": "electric_scooter", "lon": -77.04205316666666, "bike_id": "a51225d2458d840d85642d079d5aa050", "rental_uris": {"android": "https://dc.lft.to/lastmile_qr_scan", "ios": "https://dc.lft.to/lastmile_qr_scan"}, "name": "a51225d2458d840d85642d079d5aa050", "is_reserved": 0}, {"is_disabled": 0, "fusion_lon": 0.0, "fusion_lat": 0.0, "lat": 38.90723166666667, "type": "electric_scooter", "lon": -77.04675666666667, "bike_id": "7ca59913a9d8f3ca3140bee85a9589bf", "rental_uris": {"android": "https://dc.lft.to/lastmile_qr_scan", "ios": "https://dc.lft.to/lastmile_qr_scan"}, "name": "7ca59913a9d8f3ca3140bee85a9589bf", "is_reserved": 0}, {"is_disabled": 0, "fusion_lon": 0.0, "fusion_lat": 0.0, "lat": 38.88892233333333, "type": "electric_scooter", "lon": -77.01550066666667, "bike_id": "d1fd83df6f7d6e460ebcf158825e3da9", "rental_uris": {"android": "https://dc.lft.to/lastmile_qr_scan", "ios": "https://dc.lft.to/lastmile_qr_scan"}, "name": "d1fd83df6f7d6e460ebcf158825e3da9", "is_reserved": 0}, {"is_disabled": 0, "fusion_lon": 0.0, "fusion_lat": 0.0, "lat": 38.928543, "type": "electric_scooter", "lon": -77.01405833333334, "bike_id": "059c58cbfa267783b64216396c969c14", "rental_uris": {"android": "https://dc.lft.to/lastmile_qr_scan", "ios": "https://dc.lft.to/lastmile_qr_scan"}, "name": "059c58cbfa267783b64216396c969c14", "is_reserved": 0}, {"is_disabled": 0, "fusion_lon": 0.0, "fusion_lat": 0.0, "lat": 38.99888883333333, "type": "electric_bike", "lon": -77.02887983333333, "bike_id": "0d6b559752b62859da515610261fa2a4", "rental_uris": {"android": "https://dc.lft.to/lastmile_qr_scan", "ios": "https://dc.lft.to/lastmile_qr_scan"}, "name": "0d6b559752b62859da515610261fa2a4", "is_reserved": 0}, {"is_disabled": 0, "fusion_lon": 0.0, "fusion_lat": 0.0, "lat": 38.892255166666665, "type": "electric_scooter", "lon": -77.04662633333334, "bike_id": "976aa27a9adcdb6a5b8e944fec80a037", "rental_uris": {"android": "https://dc.lft.to/lastmile_qr_scan", "ios": "https://dc.lft.to/lastmile_qr_scan"}, "name": "976aa27a9adcdb6a5b8e944fec80a037", "is_reserved": 0}, {"is_disabled": 0, "fusion_lon": 0.0, "fusion_lat": 0.0, "lat": 38.931335, "type": "electric_scooter", "lon": -77.028043, "bike_id": "0b3e2a250b66ef93c9719504d99dc7be", "rental_uris": {"android": "https://dc.lft.to/lastmile_qr_scan", "ios": "https://dc.lft.to/lastmile_qr_scan"}, "name": "0b3e2a250b66ef93c9719504d99dc7be", "is_reserved": 0}, {"is_disabled": 0, "fusion_lon": 0.0, "fusion_lat": 0.0, "lat": 38.96760583333333, "type": "electric_bike", "lon": -77.09161733333333, "bike_id": "057970d38c926998d2ecafd6c4be8d86", "rental_uris": {"android": "https://dc.lft.to/lastmile_qr_scan", "ios": "https://dc.lft.to/lastmile_qr_scan"}, "name": "057970d38c926998d2ecafd6c4be8d86", "is_reserved": 0}, {"is_disabled": 0, "fusion_lon": 0.0, "fusion_lat": 0.0, "lat": 38.8580645, "type": "electric_scooter", "lon": -76.9865665, "bike_id": "918265ebdd44e882d7ec9d1b047dabaa", "rental_uris": {"android": "https://dc.lft.to/lastmile_qr_scan", "ios": "https://dc.lft.to/lastmile_qr_scan"}, "name": "918265ebdd44e882d7ec9d1b047dabaa", "is_reserved": 0}, {"is_disabled": 0, "fusion_lon": 0.0, "fusion_lat": 0.0, "lat": 38.9126475, "type": "electric_scooter", "lon": -77.04778116666667, "bike_id": "099672fbe1ba1c1b227ab4d8c2b5b049", "rental_uris": {"android": "https://dc.lft.to/lastmile_qr_scan", "ios": "https://dc.lft.to/lastmile_qr_scan"}, "name": "099672fbe1ba1c1b227ab4d8c2b5b049", "is_reserved": 0}, {"is_disabled": 0, "fusion_lon": 0.0, "fusion_lat": 0.0, "lat": 38.912674, "type": "electric_scooter", "lon": -77.01690133333334, "bike_id": "569f437588a587b2f2bc817e7da89ef0", "rental_uris": {"android": "https://dc.lft.to/lastmile_qr_scan", "ios": "https://dc.lft.to/lastmile_qr_scan"}, "name": "569f437588a587b2f2bc817e7da89ef0", "is_reserved": 0}, {"is_disabled": 0, "fusion_lon": 0.0, "fusion_lat": 0.0, "lat": 38.928224166666666, "type": "electric_scooter", "lon": -77.022582, "bike_id": "25d7d3bd903f908c56d33ecabda073bf", "rental_uris": {"android": "https://dc.lft.to/lastmile_qr_scan", "ios": "https://dc.lft.to/lastmile_qr_scan"}, "name": "25d7d3bd903f908c56d33ecabda073bf", "is_reserved": 0}, {"is_disabled": 0, "fusion_lon": 0.0, "fusion_lat": 0.0, "lat": 38.90122516666667, "type": "electric_scooter", "lon": -77.0119785, "bike_id": "cd3fd7910bccc482ae91d9693f09a604", "rental_uris": {"android": "https://dc.lft.to/lastmile_qr_scan", "ios": "https://dc.lft.to/lastmile_qr_scan"}, "name": "cd3fd7910bccc482ae91d9693f09a604", "is_reserved": 0}, {"is_disabled": 0, "fusion_lon": 0.0, "fusion_lat": 0.0, "lat": 38.8420435, "type": "electric_bike", "lon": -77.10683266666666, "bike_id": "5304d581507d755533ed69244f90e1c5", "rental_uris": {"android": "https://dc.lft.to/lastmile_qr_scan", "ios": "https://dc.lft.to/lastmile_qr_scan"}, "name": "5304d581507d755533ed69244f90e1c5", "is_reserved": 0}, {"is_disabled": 0, "fusion_lon": 0.0, "fusion_lat": 0.0, "lat": 38.895278, "type": "electric_scooter", "lon": -77.02942916666667, "bike_id": "79a6d25dd4342c417be68a29136b4cae", "rental_uris": {"android": "https://dc.lft.to/lastmile_qr_scan", "ios": "https://dc.lft.to/lastmile_qr_scan"}, "name": "79a6d25dd4342c417be68a29136b4cae", "is_reserved": 0}, {"is_disabled": 0, "fusion_lon": 0.0, "fusion_lat": 0.0, "lat": 38.9158195, "type": "electric_scooter", "lon": -77.0200095, "bike_id": "ec9a69cd5a9338cc599e427848a6bab2", "rental_uris": {"android": "https://dc.lft.to/lastmile_qr_scan", "ios": "https://dc.lft.to/lastmile_qr_scan"}, "name": "ec9a69cd5a9338cc599e427848a6bab2", "is_reserved": 0}, {"is_disabled": 0, "fusion_lon": 0.0, "fusion_lat": 0.0, "lat": 38.98025616666666, "type": "electric_bike", "lon": -76.92920616666666, "bike_id": "5f1852c9ec0377859b1dc2682af3dcd8", "rental_uris": {"android": "https://dc.lft.to/lastmile_qr_scan", "ios": "https://dc.lft.to/lastmile_qr_scan"}, "name": "5f1852c9ec0377859b1dc2682af3dcd8", "is_reserved": 0}, {"is_disabled": 0, "fusion_lon": 0.0, "fusion_lat": 0.0, "lat": 38.918758, "type": "electric_scooter", "lon": -77.04485266666667, "bike_id": "3b107df0859c9d76520608a4c48e9c21", "rental_uris": {"android": "https://dc.lft.to/lastmile_qr_scan", "ios": "https://dc.lft.to/lastmile_qr_scan"}, "name": "3b107df0859c9d76520608a4c48e9c21", "is_reserved": 0}, {"is_disabled": 0, "fusion_lon": 0.0, "fusion_lat": 0.0, "lat": 38.9201715, "type": "electric_scooter", "lon": -77.03203033333334, "bike_id": "6e10e6594bdf165afde1be87ad477a58", "rental_uris": {"android": "https://dc.lft.to/lastmile_qr_scan", "ios": "https://dc.lft.to/lastmile_qr_scan"}, "name": "6e10e6594bdf165afde1be87ad477a58", "is_reserved": 0}, {"is_disabled": 0, "fusion_lon": 0.0, "fusion_lat": 0.0, "lat": 38.910704833333334, "type": "electric_scooter", "lon": -76.98662566666667, "bike_id": "60e71fddd40d2eeb3f9a5d109ace7029", "rental_uris": {"android": "https://dc.lft.to/lastmile_qr_scan", "ios": "https://dc.lft.to/lastmile_qr_scan"}, "name": "60e71fddd40d2eeb3f9a5d109ace7029", "is_reserved": 0}, {"is_disabled": 0, "fusion_lon": 0.0, "fusion_lat": 0.0, "lat": 38.91776266666667, "type": "electric_scooter", "lon": -77.0230485, "bike_id": "fd42672111b9e6a1a69307e5fff27a8f", "rental_uris": {"android": "https://dc.lft.to/lastmile_qr_scan", "ios": "https://dc.lft.to/lastmile_qr_scan"}, "name": "fd42672111b9e6a1a69307e5fff27a8f", "is_reserved": 0}, {"is_disabled": 0, "fusion_lon": 0.0, "fusion_lat": 0.0, "lat": 38.9095725, "type": "electric_scooter", "lon": -77.0453435, "bike_id": "f6c4d3d9c1f22f4042bcd922a996c977", "rental_uris": {"android": "https://dc.lft.to/lastmile_qr_scan", "ios": "https://dc.lft.to/lastmile_qr_scan"}, "name": "f6c4d3d9c1f22f4042bcd922a996c977", "is_reserved": 0}, {"is_disabled": 0, "fusion_lon": 0.0, "fusion_lat": 0.0, "lat": 38.87736733333333, "type": "electric_scooter", "lon": -77.00065116666667, "bike_id": "9489c7cf402a4aa94cbbb6f38c4f5b90", "rental_uris": {"android": "https://dc.lft.to/lastmile_qr_scan", "ios": "https://dc.lft.to/lastmile_qr_scan"}, "name": "9489c7cf402a4aa94cbbb6f38c4f5b90", "is_reserved": 0}, {"is_disabled": 0, "fusion_lon": 0.0, "fusion_lat": 0.0, "lat": 38.9028765, "type": "electric_scooter", "lon": -77.0242205, "bike_id": "0371bcbf0e7198cfd336e93806f0e4c3", "rental_uris": {"android": "https://dc.lft.to/lastmile_qr_scan", "ios": "https://dc.lft.to/lastmile_qr_scan"}, "name": "0371bcbf0e7198cfd336e93806f0e4c3", "is_reserved": 0}, {"is_disabled": 0, "fusion_lon": 0.0, "fusion_lat": 0.0, "lat": 38.905202833333334, "type": "electric_scooter", "lon": -77.05088716666667, "bike_id": "a43e9c2ab76afa8c43be74914b28c1f4", "rental_uris": {"android": "https://dc.lft.to/lastmile_qr_scan", "ios": "https://dc.lft.to/lastmile_qr_scan"}, "name": "a43e9c2ab76afa8c43be74914b28c1f4", "is_reserved": 0}, {"is_disabled": 0, "fusion_lon": 0.0, "fusion_lat": 0.0, "lat": 38.89558533333334, "type": "electric_scooter", "lon": -77.00408416666667, "bike_id": "0bcf96f9ed01ea3c027d98c27940dc8a", "rental_uris": {"android": "https://dc.lft.to/lastmile_qr_scan", "ios": "https://dc.lft.to/lastmile_qr_scan"}, "name": "0bcf96f9ed01ea3c027d98c27940dc8a", "is_reserved": 0}, {"is_disabled": 0, "fusion_lon": 0.0, "fusion_lat": 0.0, "lat": 38.898784166666665, "type": "electric_scooter", "lon": -76.93182966666667, "bike_id": "78ff6ec56fce8dc7d6ac4747924da998", "rental_uris": {"android": "https://dc.lft.to/lastmile_qr_scan", "ios": "https://dc.lft.to/lastmile_qr_scan"}, "name": "78ff6ec56fce8dc7d6ac4747924da998", "is_reserved": 0}, {"is_disabled": 0, "fusion_lon": 0.0, "fusion_lat": 0.0, "lat": 38.912715666666664, "type": "electric_scooter", "lon": -77.04155733333333, "bike_id": "5550597b362df8857ebbd8df5d55beb9", "rental_uris": {"android": "https://dc.lft.to/lastmile_qr_scan", "ios": "https://dc.lft.to/lastmile_qr_scan"}, "name": "5550597b362df8857ebbd8df5d55beb9", "is_reserved": 0}, {"is_disabled": 0, "fusion_lon": 0.0, "fusion_lat": 0.0, "lat": 38.90524033333333, "type": "electric_scooter", "lon": -77.0355035, "bike_id": "8518d953c90236a9f27621775394619a", "rental_uris": {"android": "https://dc.lft.to/lastmile_qr_scan", "ios": "https://dc.lft.to/lastmile_qr_scan"}, "name": "8518d953c90236a9f27621775394619a", "is_reserved": 0}, {"is_disabled": 0, "fusion_lon": 0.0, "fusion_lat": 0.0, "lat": 38.921097333333336, "type": "electric_scooter", "lon": -77.042285, "bike_id": "14e7115c32d42afc790bb18a49b602c0", "rental_uris": {"android": "https://dc.lft.to/lastmile_qr_scan", "ios": "https://dc.lft.to/lastmile_qr_scan"}, "name": "14e7115c32d42afc790bb18a49b602c0", "is_reserved": 0}, {"is_disabled": 0, "fusion_lon": 0.0, "fusion_lat": 0.0, "lat": 38.921082166666665, "type": "electric_scooter", "lon": -77.04225916666667, "bike_id": "f9703896e4cc509c740cef6f9ef5f050", "rental_uris": {"android": "https://dc.lft.to/lastmile_qr_scan", "ios": "https://dc.lft.to/lastmile_qr_scan"}, "name": "f9703896e4cc509c740cef6f9ef5f050", "is_reserved": 0}, {"is_disabled": 0, "fusion_lon": 0.0, "fusion_lat": 0.0, "lat": 38.852839333333336, "type": "electric_bike", "lon": -76.9815675, "bike_id": "d5540b6749c530b78ed1d18e51a3bb44", "rental_uris": {"android": "https://dc.lft.to/lastmile_qr_scan", "ios": "https://dc.lft.to/lastmile_qr_scan"}, "name": "d5540b6749c530b78ed1d18e51a3bb44", "is_reserved": 0}, {"is_disabled": 0, "fusion_lon": 0.0, "fusion_lat": 0.0, "lat": 38.883149833333334, "type": "electric_scooter", "lon": -76.94940883333334, "bike_id": "cee58c8f0a94ade73c704cf723d8e0eb", "rental_uris": {"android": "https://dc.lft.to/lastmile_qr_scan", "ios": "https://dc.lft.to/lastmile_qr_scan"}, "name": "cee58c8f0a94ade73c704cf723d8e0eb", "is_reserved": 0}, {"is_disabled": 0, "fusion_lon": 0.0, "fusion_lat": 0.0, "lat": 38.884341, "type": "electric_scooter", "lon": -77.02462416666667, "bike_id": "7e530f9fb27e018fc070605abb69e258", "rental_uris": {"android": "https://dc.lft.to/lastmile_qr_scan", "ios": "https://dc.lft.to/lastmile_qr_scan"}, "name": "7e530f9fb27e018fc070605abb69e258", "is_reserved": 0}, {"is_disabled": 0, "fusion_lon": 0.0, "fusion_lat": 0.0, "lat": 38.91814466666666, "type": "electric_scooter", "lon": -77.026897, "bike_id": "52fec93851a58892854df43261a29251", "rental_uris": {"android": "https://dc.lft.to/lastmile_qr_scan", "ios": "https://dc.lft.to/lastmile_qr_scan"}, "name": "52fec93851a58892854df43261a29251", "is_reserved": 0}, {"is_disabled": 0, "fusion_lon": 0.0, "fusion_lat": 0.0, "lat": 38.858365166666665, "type": "electric_bike", "lon": -76.99285116666667, "bike_id": "7d85a30a754137797ac212fd76fd319b", "rental_uris": {"android": "https://dc.lft.to/lastmile_qr_scan", "ios": "https://dc.lft.to/lastmile_qr_scan"}, "name": "7d85a30a754137797ac212fd76fd319b", "is_reserved": 0}, {"is_disabled": 0, "fusion_lon": 0.0, "fusion_lat": 0.0, "lat": 38.923795166666665, "type": "electric_scooter", "lon": -77.03018283333333, "bike_id": "4776eb055875727ec08fab78e5ab142b", "rental_uris": {"android": "https://dc.lft.to/lastmile_qr_scan", "ios": "https://dc.lft.to/lastmile_qr_scan"}, "name": "4776eb055875727ec08fab78e5ab142b", "is_reserved": 0}, {"is_disabled": 0, "fusion_lon": 0.0, "fusion_lat": 0.0, "lat": 38.895519, "type": "electric_scooter", "lon": -77.0152995, "bike_id": "e225572200f2606f38e76eea68d7c8c0", "rental_uris": {"android": "https://dc.lft.to/lastmile_qr_scan", "ios": "https://dc.lft.to/lastmile_qr_scan"}, "name": "e225572200f2606f38e76eea68d7c8c0", "is_reserved": 0}, {"is_disabled": 0, "fusion_lon": 0.0, "fusion_lat": 0.0, "lat": 38.943265333333336, "type": "electric_bike", "lon": -77.01483216666666, "bike_id": "dd32803b7d74f6d7845fd2815085f38b", "rental_uris": {"android": "https://dc.lft.to/lastmile_qr_scan", "ios": "https://dc.lft.to/lastmile_qr_scan"}, "name": "dd32803b7d74f6d7845fd2815085f38b", "is_reserved": 0}, {"is_disabled": 0, "fusion_lon": 0.0, "fusion_lat": 0.0, "lat": 38.93191916666667, "type": "electric_scooter", "lon": -77.02834033333333, "bike_id": "3f3ce52fd400022b4cf7ba07e8c3c416", "rental_uris": {"android": "https://dc.lft.to/lastmile_qr_scan", "ios": "https://dc.lft.to/lastmile_qr_scan"}, "name": "3f3ce52fd400022b4cf7ba07e8c3c416", "is_reserved": 0}, {"is_disabled": 0, "fusion_lon": 0.0, "fusion_lat": 0.0, "lat": 38.89464016666667, "type": "electric_scooter", "lon": -76.97733166666667, "bike_id": "1913ab62e4e9c49b7c22578d6af3ded1", "rental_uris": {"android": "https://dc.lft.to/lastmile_qr_scan", "ios": "https://dc.lft.to/lastmile_qr_scan"}, "name": "1913ab62e4e9c49b7c22578d6af3ded1", "is_reserved": 0}, {"is_disabled": 0, "fusion_lon": 0.0, "fusion_lat": 0.0, "lat": 38.90929933333334, "type": "electric_scooter", "lon": -76.9922915, "bike_id": "39400049c74d4d98db8eaf64e4515f0d", "rental_uris": {"android": "https://dc.lft.to/lastmile_qr_scan", "ios": "https://dc.lft.to/lastmile_qr_scan"}, "name": "39400049c74d4d98db8eaf64e4515f0d", "is_reserved": 0}, {"is_disabled": 0, "fusion_lon": 0.0, "fusion_lat": 0.0, "lat": 38.897433666666664, "type": "electric_scooter", "lon": -77.01598366666667, "bike_id": "2a3259b58ab4a0fecb56da45df45a62f", "rental_uris": {"android": "https://dc.lft.to/lastmile_qr_scan", "ios": "https://dc.lft.to/lastmile_qr_scan"}, "name": "2a3259b58ab4a0fecb56da45df45a62f", "is_reserved": 0}, {"is_disabled": 0, "fusion_lon": 0.0, "fusion_lat": 0.0, "lat": 38.91206, "type": "electric_scooter", "lon": -77.00088933333333, "bike_id": "f4e2eddf16d720971512197fb0306058", "rental_uris": {"android": "https://dc.lft.to/lastmile_qr_scan", "ios": "https://dc.lft.to/lastmile_qr_scan"}, "name": "f4e2eddf16d720971512197fb0306058", "is_reserved": 0}, {"is_disabled": 0, "fusion_lon": 0.0, "fusion_lat": 0.0, "lat": 38.936803, "type": "electric_scooter", "lon": -77.03622916666667, "bike_id": "3fdffde114a5838638cdd7834df640dd", "rental_uris": {"android": "https://dc.lft.to/lastmile_qr_scan", "ios": "https://dc.lft.to/lastmile_qr_scan"}, "name": "3fdffde114a5838638cdd7834df640dd", "is_reserved": 0}, {"is_disabled": 0, "fusion_lon": 0.0, "fusion_lat": 0.0, "lat": 38.899635, "type": "electric_scooter", "lon": -77.01629266666667, "bike_id": "591006ab9c2cff8d8ef24c14570e9e1a", "rental_uris": {"android": "https://dc.lft.to/lastmile_qr_scan", "ios": "https://dc.lft.to/lastmile_qr_scan"}, "name": "591006ab9c2cff8d8ef24c14570e9e1a", "is_reserved": 0}, {"is_disabled": 0, "fusion_lon": 0.0, "fusion_lat": 0.0, "lat": 38.90060966666667, "type": "electric_scooter", "lon": -77.0394015, "bike_id": "7b6e4348a5fd29563f0c40551d9c2d9b", "rental_uris": {"android": "https://dc.lft.to/lastmile_qr_scan", "ios": "https://dc.lft.to/lastmile_qr_scan"}, "name": "7b6e4348a5fd29563f0c40551d9c2d9b", "is_reserved": 0}, {"is_disabled": 0, "fusion_lon": 0.0, "fusion_lat": 0.0, "lat": 38.94447266666667, "type": "electric_scooter", "lon": -77.06042733333334, "bike_id": "24965dbefdedf010f60330506372fd7b", "rental_uris": {"android": "https://dc.lft.to/lastmile_qr_scan", "ios": "https://dc.lft.to/lastmile_qr_scan"}, "name": "24965dbefdedf010f60330506372fd7b", "is_reserved": 0}, {"is_disabled": 0, "fusion_lon": 0.0, "fusion_lat": 0.0, "lat": 38.91144216666667, "type": "electric_scooter", "lon": -76.9847725, "bike_id": "1563018fe9a3965c4a48b211e93039e6", "rental_uris": {"android": "https://dc.lft.to/lastmile_qr_scan", "ios": "https://dc.lft.to/lastmile_qr_scan"}, "name": "1563018fe9a3965c4a48b211e93039e6", "is_reserved": 0}, {"is_disabled": 0, "fusion_lon": 0.0, "fusion_lat": 0.0, "lat": 38.916389833333334, "type": "electric_scooter", "lon": -77.050596, "bike_id": "ea2998a74f24cba8e363a845bba20f22", "rental_uris": {"android": "https://dc.lft.to/lastmile_qr_scan", "ios": "https://dc.lft.to/lastmile_qr_scan"}, "name": "ea2998a74f24cba8e363a845bba20f22", "is_reserved": 0}, {"is_disabled": 0, "fusion_lon": 0.0, "fusion_lat": 0.0, "lat": 38.92477366666667, "type": "electric_scooter", "lon": -77.0266615, "bike_id": "be1cc732a626a337a960767d46d60831", "rental_uris": {"android": "https://dc.lft.to/lastmile_qr_scan", "ios": "https://dc.lft.to/lastmile_qr_scan"}, "name": "be1cc732a626a337a960767d46d60831", "is_reserved": 0}, {"is_disabled": 0, "fusion_lon": 0.0, "fusion_lat": 0.0, "lat": 38.8834235, "type": "electric_scooter", "lon": -76.94180433333334, "bike_id": "302734a35af91fcd58189398fa4feed1", "rental_uris": {"android": "https://dc.lft.to/lastmile_qr_scan", "ios": "https://dc.lft.to/lastmile_qr_scan"}, "name": "302734a35af91fcd58189398fa4feed1", "is_reserved": 0}, {"is_disabled": 0, "fusion_lon": 0.0, "fusion_lat": 0.0, "lat": 38.899956, "type": "electric_scooter", "lon": -76.92229366666666, "bike_id": "faa9111cdc61f0a89656ed7c2a0a5d67", "rental_uris": {"android": "https://dc.lft.to/lastmile_qr_scan", "ios": "https://dc.lft.to/lastmile_qr_scan"}, "name": "faa9111cdc61f0a89656ed7c2a0a5d67", "is_reserved": 0}, {"is_disabled": 0, "fusion_lon": 0.0, "fusion_lat": 0.0, "lat": 38.85206866666667, "type": "electric_bike", "lon": -77.10133983333333, "bike_id": "73b50cbd78563db86065e84f9c662fa6", "rental_uris": {"android": "https://dc.lft.to/lastmile_qr_scan", "ios": "https://dc.lft.to/lastmile_qr_scan"}, "name": "73b50cbd78563db86065e84f9c662fa6", "is_reserved": 0}, {"is_disabled": 0, "fusion_lon": 0.0, "fusion_lat": 0.0, "lat": 38.91810016666667, "type": "electric_scooter", "lon": -77.01013666666667, "bike_id": "5e712e20d714a7ebad23ca2b01721b99", "rental_uris": {"android": "https://dc.lft.to/lastmile_qr_scan", "ios": "https://dc.lft.to/lastmile_qr_scan"}, "name": "5e712e20d714a7ebad23ca2b01721b99", "is_reserved": 0}, {"is_disabled": 0, "fusion_lon": 0.0, "fusion_lat": 0.0, "lat": 38.91050716666667, "type": "electric_scooter", "lon": -77.04341866666667, "bike_id": "a4b370c295730e9d24858e7ad22cb238", "rental_uris": {"android": "https://dc.lft.to/lastmile_qr_scan", "ios": "https://dc.lft.to/lastmile_qr_scan"}, "name": "a4b370c295730e9d24858e7ad22cb238", "is_reserved": 0}, {"is_disabled": 0, "fusion_lon": 0.0, "fusion_lat": 0.0, "lat": 38.92577816666667, "type": "electric_scooter", "lon": -76.99492816666667, "bike_id": "3f9f848a04cafae209571f5e24dd791c", "rental_uris": {"android": "https://dc.lft.to/lastmile_qr_scan", "ios": "https://dc.lft.to/lastmile_qr_scan"}, "name": "3f9f848a04cafae209571f5e24dd791c", "is_reserved": 0}, {"is_disabled": 0, "fusion_lon": 0.0, "fusion_lat": 0.0, "lat": 38.91797966666667, "type": "electric_scooter", "lon": -77.040408, "bike_id": "174649dfb889fde8273ff0edda25c5f9", "rental_uris": {"android": "https://dc.lft.to/lastmile_qr_scan", "ios": "https://dc.lft.to/lastmile_qr_scan"}, "name": "174649dfb889fde8273ff0edda25c5f9", "is_reserved": 0}, {"is_disabled": 0, "fusion_lon": 0.0, "fusion_lat": 0.0, "lat": 38.902528333333336, "type": "electric_scooter", "lon": -77.01949116666667, "bike_id": "8c363666cb657f2bf2b37b6f9fadf2c6", "rental_uris": {"android": "https://dc.lft.to/lastmile_qr_scan", "ios": "https://dc.lft.to/lastmile_qr_scan"}, "name": "8c363666cb657f2bf2b37b6f9fadf2c6", "is_reserved": 0}, {"is_disabled": 0, "fusion_lon": 0.0, "fusion_lat": 0.0, "lat": 38.88229183333333, "type": "electric_bike", "lon": -77.10745116666666, "bike_id": "7dc7a9891e0c7c23397fa7cf40fbbdc1", "rental_uris": {"android": "https://dc.lft.to/lastmile_qr_scan", "ios": "https://dc.lft.to/lastmile_qr_scan"}, "name": "7dc7a9891e0c7c23397fa7cf40fbbdc1", "is_reserved": 0}, {"is_disabled": 0, "fusion_lon": 0.0, "fusion_lat": 0.0, "lat": 38.90937183333333, "type": "electric_scooter", "lon": -77.022889, "bike_id": "fc08dad7181ea7638c1fc2748e12a0e2", "rental_uris": {"android": "https://dc.lft.to/lastmile_qr_scan", "ios": "https://dc.lft.to/lastmile_qr_scan"}, "name": "fc08dad7181ea7638c1fc2748e12a0e2", "is_reserved": 0}, {"is_disabled": 0, "fusion_lon": 0.0, "fusion_lat": 0.0, "lat": 38.899642, "type": "electric_scooter", "lon": -77.029743, "bike_id": "3ff8abf62976456da92c25434c783592", "rental_uris": {"android": "https://dc.lft.to/lastmile_qr_scan", "ios": "https://dc.lft.to/lastmile_qr_scan"}, "name": "3ff8abf62976456da92c25434c783592", "is_reserved": 0}, {"is_disabled": 0, "fusion_lon": 0.0, "fusion_lat": 0.0, "lat": 38.98492916666667, "type": "electric_bike", "lon": -76.98185, "bike_id": "8f6ab8eac7e927878b37323148e5cb22", "rental_uris": {"android": "https://dc.lft.to/lastmile_qr_scan", "ios": "https://dc.lft.to/lastmile_qr_scan"}, "name": "8f6ab8eac7e927878b37323148e5cb22", "is_reserved": 0}, {"is_disabled": 0, "fusion_lon": 0.0, "fusion_lat": 0.0, "lat": 38.90508966666667, "type": "electric_scooter", "lon": -77.02524, "bike_id": "46c525d77cf8691c4de399aeea737cbf", "rental_uris": {"android": "https://dc.lft.to/lastmile_qr_scan", "ios": "https://dc.lft.to/lastmile_qr_scan"}, "name": "46c525d77cf8691c4de399aeea737cbf", "is_reserved": 0}, {"is_disabled": 0, "fusion_lon": 0.0, "fusion_lat": 0.0, "lat": 38.93206566666667, "type": "electric_scooter", "lon": -77.03665516666666, "bike_id": "e80986861f94490d39c5600d9c6bab6e", "rental_uris": {"android": "https://dc.lft.to/lastmile_qr_scan", "ios": "https://dc.lft.to/lastmile_qr_scan"}, "name": "e80986861f94490d39c5600d9c6bab6e", "is_reserved": 0}, {"is_disabled": 0, "fusion_lon": 0.0, "fusion_lat": 0.0, "lat": 38.954172166666666, "type": "electric_scooter", "lon": -77.02844033333334, "bike_id": "886318e73300f172637c17182699b004", "rental_uris": {"android": "https://dc.lft.to/lastmile_qr_scan", "ios": "https://dc.lft.to/lastmile_qr_scan"}, "name": "886318e73300f172637c17182699b004", "is_reserved": 0}, {"is_disabled": 0, "fusion_lon": 0.0, "fusion_lat": 0.0, "lat": 38.97675566666667, "type": "electric_bike", "lon": -76.9717135, "bike_id": "46939b15ace0122147df145d0fb59bf4", "rental_uris": {"android": "https://dc.lft.to/lastmile_qr_scan", "ios": "https://dc.lft.to/lastmile_qr_scan"}, "name": "46939b15ace0122147df145d0fb59bf4", "is_reserved": 0}, {"is_disabled": 0, "fusion_lon": 0.0, "fusion_lat": 0.0, "lat": 38.918726666666664, "type": "electric_scooter", "lon": -77.0449045, "bike_id": "6a07515aea6bae84e7703f3d45fa4730", "rental_uris": {"android": "https://dc.lft.to/lastmile_qr_scan", "ios": "https://dc.lft.to/lastmile_qr_scan"}, "name": "6a07515aea6bae84e7703f3d45fa4730", "is_reserved": 0}, {"is_disabled": 0, "fusion_lon": 0.0, "fusion_lat": 0.0, "lat": 38.89235333333333, "type": "electric_bike", "lon": -76.95223783333333, "bike_id": "9a597b484e4feedfc0124e4dff110de1", "rental_uris": {"android": "https://dc.lft.to/lastmile_qr_scan", "ios": "https://dc.lft.to/lastmile_qr_scan"}, "name": "9a597b484e4feedfc0124e4dff110de1", "is_reserved": 0}, {"is_disabled": 0, "fusion_lon": 0.0, "fusion_lat": 0.0, "lat": 38.91706766666667, "type": "electric_scooter", "lon": -77.01075683333333, "bike_id": "c5e12c952698e8a3790ce0d2daa4236e", "rental_uris": {"android": "https://dc.lft.to/lastmile_qr_scan", "ios": "https://dc.lft.to/lastmile_qr_scan"}, "name": "c5e12c952698e8a3790ce0d2daa4236e", "is_reserved": 0}, {"is_disabled": 0, "fusion_lon": 0.0, "fusion_lat": 0.0, "lat": 38.914190833333336, "type": "electric_scooter", "lon": -77.03222483333333, "bike_id": "b5a25f35c5ddbe24db8e54e314083333", "rental_uris": {"android": "https://dc.lft.to/lastmile_qr_scan", "ios": "https://dc.lft.to/lastmile_qr_scan"}, "name": "b5a25f35c5ddbe24db8e54e314083333", "is_reserved": 0}, {"is_disabled": 0, "fusion_lon": 0.0, "fusion_lat": 0.0, "lat": 38.925936666666665, "type": "electric_bike", "lon": -76.88907366666666, "bike_id": "8b8942f0ce4fa6799d630b25e4bba444", "rental_uris": {"android": "https://dc.lft.to/lastmile_qr_scan", "ios": "https://dc.lft.to/lastmile_qr_scan"}, "name": "8b8942f0ce4fa6799d630b25e4bba444", "is_reserved": 0}, {"is_disabled": 0, "fusion_lon": 0.0, "fusion_lat": 0.0, "lat": 38.8960435, "type": "electric_scooter", "lon": -77.00920433333333, "bike_id": "b7a6811a13ff8a6cb8c4644136841e31", "rental_uris": {"android": "https://dc.lft.to/lastmile_qr_scan", "ios": "https://dc.lft.to/lastmile_qr_scan"}, "name": "b7a6811a13ff8a6cb8c4644136841e31", "is_reserved": 0}, {"is_disabled": 0, "fusion_lon": 0.0, "fusion_lat": 0.0, "lat": 38.90565216666667, "type": "electric_scooter", "lon": -77.046792, "bike_id": "6809a7ab0b1b7752c9abcea1bd88cbbe", "rental_uris": {"android": "https://dc.lft.to/lastmile_qr_scan", "ios": "https://dc.lft.to/lastmile_qr_scan"}, "name": "6809a7ab0b1b7752c9abcea1bd88cbbe", "is_reserved": 0}, {"is_disabled": 0, "fusion_lon": 0.0, "fusion_lat": 0.0, "lat": 38.909741333333336, "type": "electric_scooter", "lon": -77.03857633333334, "bike_id": "56a67054d386277987f4628a5f975d82", "rental_uris": {"android": "https://dc.lft.to/lastmile_qr_scan", "ios": "https://dc.lft.to/lastmile_qr_scan"}, "name": "56a67054d386277987f4628a5f975d82", "is_reserved": 0}, {"is_disabled": 0, "fusion_lon": 0.0, "fusion_lat": 0.0, "lat": 38.915892666666664, "type": "electric_scooter", "lon": -77.04676533333334, "bike_id": "c207913e31df95bef5802f53a6487d01", "rental_uris": {"android": "https://dc.lft.to/lastmile_qr_scan", "ios": "https://dc.lft.to/lastmile_qr_scan"}, "name": "c207913e31df95bef5802f53a6487d01", "is_reserved": 0}, {"is_disabled": 0, "fusion_lon": 0.0, "fusion_lat": 0.0, "lat": 38.9500105, "type": "electric_bike", "lon": -77.35309633333334, "bike_id": "dd7472a93d0109800a95c91e5b38cc09", "rental_uris": {"android": "https://dc.lft.to/lastmile_qr_scan", "ios": "https://dc.lft.to/lastmile_qr_scan"}, "name": "dd7472a93d0109800a95c91e5b38cc09", "is_reserved": 0}, {"is_disabled": 0, "fusion_lon": 0.0, "fusion_lat": 0.0, "lat": 38.89741466666667, "type": "electric_scooter", "lon": -77.04803916666667, "bike_id": "86b6b4c42edfd6980c6d7995a4796106", "rental_uris": {"android": "https://dc.lft.to/lastmile_qr_scan", "ios": "https://dc.lft.to/lastmile_qr_scan"}, "name": "86b6b4c42edfd6980c6d7995a4796106", "is_reserved": 0}, {"is_disabled": 0, "fusion_lon": 0.0, "fusion_lat": 0.0, "lat": 38.88742933333333, "type": "electric_scooter", "lon": -77.01537166666667, "bike_id": "422d981f23fe2f1db165f2c6d717e5cd", "rental_uris": {"android": "https://dc.lft.to/lastmile_qr_scan", "ios": "https://dc.lft.to/lastmile_qr_scan"}, "name": "422d981f23fe2f1db165f2c6d717e5cd", "is_reserved": 0}, {"is_disabled": 0, "fusion_lon": 0.0, "fusion_lat": 0.0, "lat": 38.919505, "type": "electric_scooter", "lon": -77.01393216666666, "bike_id": "4906ff820cbb7492d3e2ac8e89aa2681", "rental_uris": {"android": "https://dc.lft.to/lastmile_qr_scan", "ios": "https://dc.lft.to/lastmile_qr_scan"}, "name": "4906ff820cbb7492d3e2ac8e89aa2681", "is_reserved": 0}, {"is_disabled": 0, "fusion_lon": 0.0, "fusion_lat": 0.0, "lat": 38.92256, "type": "electric_scooter", "lon": -77.03298083333334, "bike_id": "424bae5efb33beed3b15d0bad48db1f9", "rental_uris": {"android": "https://dc.lft.to/lastmile_qr_scan", "ios": "https://dc.lft.to/lastmile_qr_scan"}, "name": "424bae5efb33beed3b15d0bad48db1f9", "is_reserved": 0}, {"is_disabled": 0, "fusion_lon": 0.0, "fusion_lat": 0.0, "lat": 38.9171465, "type": "electric_scooter", "lon": -77.02881866666667, "bike_id": "f947ea90caf8437b627277dab8b4b5f2", "rental_uris": {"android": "https://dc.lft.to/lastmile_qr_scan", "ios": "https://dc.lft.to/lastmile_qr_scan"}, "name": "f947ea90caf8437b627277dab8b4b5f2", "is_reserved": 0}, {"is_disabled": 0, "fusion_lon": 0.0, "fusion_lat": 0.0, "lat": 38.9248295, "type": "electric_scooter", "lon": -77.0299875, "bike_id": "c98a8a8dae08e4b911439c653d2b140a", "rental_uris": {"android": "https://dc.lft.to/lastmile_qr_scan", "ios": "https://dc.lft.to/lastmile_qr_scan"}, "name": "c98a8a8dae08e4b911439c653d2b140a", "is_reserved": 0}, {"is_disabled": 0, "fusion_lon": 0.0, "fusion_lat": 0.0, "lat": 38.918080833333335, "type": "electric_scooter", "lon": -77.03567683333333, "bike_id": "c83c0fdc1699dc2ee51cfbbc215b6939", "rental_uris": {"android": "https://dc.lft.to/lastmile_qr_scan", "ios": "https://dc.lft.to/lastmile_qr_scan"}, "name": "c83c0fdc1699dc2ee51cfbbc215b6939", "is_reserved": 0}, {"is_disabled": 0, "fusion_lon": 0.0, "fusion_lat": 0.0, "lat": 38.934775333333334, "type": "electric_scooter", "lon": -77.0241205, "bike_id": "cfbf73ea1ce3221fc5fb6382ecce04e2", "rental_uris": {"android": "https://dc.lft.to/lastmile_qr_scan", "ios": "https://dc.lft.to/lastmile_qr_scan"}, "name": "cfbf73ea1ce3221fc5fb6382ecce04e2", "is_reserved": 0}, {"is_disabled": 0, "fusion_lon": 0.0, "fusion_lat": 0.0, "lat": 38.913075666666664, "type": "electric_scooter", "lon": -77.03628383333333, "bike_id": "1b97f6c97960d31f6610ab35722c4e20", "rental_uris": {"android": "https://dc.lft.to/lastmile_qr_scan", "ios": "https://dc.lft.to/lastmile_qr_scan"}, "name": "1b97f6c97960d31f6610ab35722c4e20", "is_reserved": 0}, {"is_disabled": 0, "fusion_lon": 0.0, "fusion_lat": 0.0, "lat": 38.802985666666665, "type": "electric_bike", "lon": -77.039859, "bike_id": "0822e3f6afe6a8f166b4fab8a497fb68", "rental_uris": {"android": "https://dc.lft.to/lastmile_qr_scan", "ios": "https://dc.lft.to/lastmile_qr_scan"}, "name": "0822e3f6afe6a8f166b4fab8a497fb68", "is_reserved": 0}, {"is_disabled": 0, "fusion_lon": 0.0, "fusion_lat": 0.0, "lat": 38.920343833333334, "type": "electric_scooter", "lon": -77.01904183333333, "bike_id": "9bcbad79356e2bbf281b80b8bb8d1f6b", "rental_uris": {"android": "https://dc.lft.to/lastmile_qr_scan", "ios": "https://dc.lft.to/lastmile_qr_scan"}, "name": "9bcbad79356e2bbf281b80b8bb8d1f6b", "is_reserved": 0}, {"is_disabled": 0, "fusion_lon": 0.0, "fusion_lat": 0.0, "lat": 38.9157015, "type": "electric_scooter", "lon": -77.041704, "bike_id": "22a27786784e3dbfbc50ba4e6b8150d7", "rental_uris": {"android": "https://dc.lft.to/lastmile_qr_scan", "ios": "https://dc.lft.to/lastmile_qr_scan"}, "name": "22a27786784e3dbfbc50ba4e6b8150d7", "is_reserved": 0}, {"is_disabled": 0, "fusion_lon": 0.0, "fusion_lat": 0.0, "lat": 39.100022833333334, "type": "electric_bike", "lon": -77.18641183333334, "bike_id": "7d3325cb6d44a483ab45e69608ded1fb", "rental_uris": {"android": "https://dc.lft.to/lastmile_qr_scan", "ios": "https://dc.lft.to/lastmile_qr_scan"}, "name": "7d3325cb6d44a483ab45e69608ded1fb", "is_reserved": 0}, {"is_disabled": 0, "fusion_lon": 0.0, "fusion_lat": 0.0, "lat": 38.905816333333334, "type": "electric_scooter", "lon": -77.02606266666666, "bike_id": "1ba51fcb778f38d65f84d40406daa6db", "rental_uris": {"android": "https://dc.lft.to/lastmile_qr_scan", "ios": "https://dc.lft.to/lastmile_qr_scan"}, "name": "1ba51fcb778f38d65f84d40406daa6db", "is_reserved": 0}, {"is_disabled": 0, "fusion_lon": 0.0, "fusion_lat": 0.0, "lat": 38.91654333333334, "type": "electric_scooter", "lon": -77.02281583333334, "bike_id": "b7737d5f46d911f75f29cdf687dbd358", "rental_uris": {"android": "https://dc.lft.to/lastmile_qr_scan", "ios": "https://dc.lft.to/lastmile_qr_scan"}, "name": "b7737d5f46d911f75f29cdf687dbd358", "is_reserved": 0}, {"is_disabled": 0, "fusion_lon": 0.0, "fusion_lat": 0.0, "lat": 38.83812733333333, "type": "electric_scooter", "lon": -77.004359, "bike_id": "fe144d42727c60c3684d12320b4bbc30", "rental_uris": {"android": "https://dc.lft.to/lastmile_qr_scan", "ios": "https://dc.lft.to/lastmile_qr_scan"}, "name": "fe144d42727c60c3684d12320b4bbc30", "is_reserved": 0}, {"is_disabled": 0, "fusion_lon": 0.0, "fusion_lat": 0.0, "lat": 38.935033833333335, "type": "electric_bike", "lon": -76.949577, "bike_id": "75c77e7936c588e437b402f1b01f3dcc", "rental_uris": {"android": "https://dc.lft.to/lastmile_qr_scan", "ios": "https://dc.lft.to/lastmile_qr_scan"}, "name": "75c77e7936c588e437b402f1b01f3dcc", "is_reserved": 0}, {"is_disabled": 0, "fusion_lon": 0.0, "fusion_lat": 0.0, "lat": 38.91679466666667, "type": "electric_scooter", "lon": -77.02971983333333, "bike_id": "6e8ffa5e05e86d3d71b45dbe5c457b3f", "rental_uris": {"android": "https://dc.lft.to/lastmile_qr_scan", "ios": "https://dc.lft.to/lastmile_qr_scan"}, "name": "6e8ffa5e05e86d3d71b45dbe5c457b3f", "is_reserved": 0}, {"is_disabled": 0, "fusion_lon": 0.0, "fusion_lat": 0.0, "lat": 38.90246416666667, "type": "electric_scooter", "lon": -76.98967983333333, "bike_id": "d1b16e08ccdf6067ae74a794c43f19ee", "rental_uris": {"android": "https://dc.lft.to/lastmile_qr_scan", "ios": "https://dc.lft.to/lastmile_qr_scan"}, "name": "d1b16e08ccdf6067ae74a794c43f19ee", "is_reserved": 0}, {"is_disabled": 0, "fusion_lon": 0.0, "fusion_lat": 0.0, "lat": 38.88606083333333, "type": "electric_scooter", "lon": -76.99504433333334, "bike_id": "db51f624e1b78b213a49dbc5ecf1ff80", "rental_uris": {"android": "https://dc.lft.to/lastmile_qr_scan", "ios": "https://dc.lft.to/lastmile_qr_scan"}, "name": "db51f624e1b78b213a49dbc5ecf1ff80", "is_reserved": 0}, {"is_disabled": 0, "fusion_lon": 0.0, "fusion_lat": 0.0, "lat": 38.842830666666664, "type": "electric_scooter", "lon": -76.99971683333334, "bike_id": "58ea8841fd9cfad2853f41adc66cfe70", "rental_uris": {"android": "https://dc.lft.to/lastmile_qr_scan", "ios": "https://dc.lft.to/lastmile_qr_scan"}, "name": "58ea8841fd9cfad2853f41adc66cfe70", "is_reserved": 0}, {"is_disabled": 0, "fusion_lon": 0.0, "fusion_lat": 0.0, "lat": 38.9215585, "type": "electric_scooter", "lon": -77.033812, "bike_id": "45b9c65805888d44e89acf56cfdec54b", "rental_uris": {"android": "https://dc.lft.to/lastmile_qr_scan", "ios": "https://dc.lft.to/lastmile_qr_scan"}, "name": "45b9c65805888d44e89acf56cfdec54b", "is_reserved": 0}, {"is_disabled": 0, "fusion_lon": 0.0, "fusion_lat": 0.0, "lat": 38.91817866666667, "type": "electric_scooter", "lon": -77.04002316666667, "bike_id": "9fbe4b6027dc7333df3190a8fa1173f3", "rental_uris": {"android": "https://dc.lft.to/lastmile_qr_scan", "ios": "https://dc.lft.to/lastmile_qr_scan"}, "name": "9fbe4b6027dc7333df3190a8fa1173f3", "is_reserved": 0}, {"is_disabled": 0, "fusion_lon": 0.0, "fusion_lat": 0.0, "lat": 38.89781283333333, "type": "electric_scooter", "lon": -77.02477966666666, "bike_id": "acc1fa7b1660f625552458cd14a44676", "rental_uris": {"android": "https://dc.lft.to/lastmile_qr_scan", "ios": "https://dc.lft.to/lastmile_qr_scan"}, "name": "acc1fa7b1660f625552458cd14a44676", "is_reserved": 0}, {"is_disabled": 0, "fusion_lon": 0.0, "fusion_lat": 0.0, "lat": 38.9417935, "type": "electric_scooter", "lon": -77.03655416666666, "bike_id": "a4a2fc4e88ef2b7df20ef91f702754d3", "rental_uris": {"android": "https://dc.lft.to/lastmile_qr_scan", "ios": "https://dc.lft.to/lastmile_qr_scan"}, "name": "a4a2fc4e88ef2b7df20ef91f702754d3", "is_reserved": 0}, {"is_disabled": 0, "fusion_lon": 0.0, "fusion_lat": 0.0, "lat": 38.918123666666666, "type": "electric_scooter", "lon": -77.0271175, "bike_id": "f290dc65d05f7244b3aee130a2a7c3ce", "rental_uris": {"android": "https://dc.lft.to/lastmile_qr_scan", "ios": "https://dc.lft.to/lastmile_qr_scan"}, "name": "f290dc65d05f7244b3aee130a2a7c3ce", "is_reserved": 0}, {"is_disabled": 0, "fusion_lon": 0.0, "fusion_lat": 0.0, "lat": 38.932786, "type": "electric_scooter", "lon": -77.03632883333333, "bike_id": "1f0ec124fbff4c9cc4f50b00e92c8869", "rental_uris": {"android": "https://dc.lft.to/lastmile_qr_scan", "ios": "https://dc.lft.to/lastmile_qr_scan"}, "name": "1f0ec124fbff4c9cc4f50b00e92c8869", "is_reserved": 0}, {"is_disabled": 0, "fusion_lon": 0.0, "fusion_lat": 0.0, "lat": 38.901739166666665, "type": "electric_scooter", "lon": -77.04815766666667, "bike_id": "bb37d0786bf38c826eff946f1b3f8fee", "rental_uris": {"android": "https://dc.lft.to/lastmile_qr_scan", "ios": "https://dc.lft.to/lastmile_qr_scan"}, "name": "bb37d0786bf38c826eff946f1b3f8fee", "is_reserved": 0}, {"is_disabled": 0, "fusion_lon": 0.0, "fusion_lat": 0.0, "lat": 38.90026833333334, "type": "electric_scooter", "lon": -77.00194816666666, "bike_id": "1e3446b1f487a8a5505542feddcb3665", "rental_uris": {"android": "https://dc.lft.to/lastmile_qr_scan", "ios": "https://dc.lft.to/lastmile_qr_scan"}, "name": "1e3446b1f487a8a5505542feddcb3665", "is_reserved": 0}, {"is_disabled": 0, "fusion_lon": 0.0, "fusion_lat": 0.0, "lat": 38.9564825, "type": "electric_scooter", "lon": -77.01495783333333, "bike_id": "bc6e729f65fc1e46104aa04fb40b00cd", "rental_uris": {"android": "https://dc.lft.to/lastmile_qr_scan", "ios": "https://dc.lft.to/lastmile_qr_scan"}, "name": "bc6e729f65fc1e46104aa04fb40b00cd", "is_reserved": 0}, {"is_disabled": 0, "fusion_lon": 0.0, "fusion_lat": 0.0, "lat": 38.89487183333333, "type": "electric_scooter", "lon": -77.00213316666667, "bike_id": "a6f14d716f85d0020e166288e6620230", "rental_uris": {"android": "https://dc.lft.to/lastmile_qr_scan", "ios": "https://dc.lft.to/lastmile_qr_scan"}, "name": "a6f14d716f85d0020e166288e6620230", "is_reserved": 0}, {"is_disabled": 0, "fusion_lon": 0.0, "fusion_lat": 0.0, "lat": 38.913556666666665, "type": "electric_scooter", "lon": -77.03221716666667, "bike_id": "df83684efab070a9f3717a2a019d0fd9", "rental_uris": {"android": "https://dc.lft.to/lastmile_qr_scan", "ios": "https://dc.lft.to/lastmile_qr_scan"}, "name": "df83684efab070a9f3717a2a019d0fd9", "is_reserved": 0}, {"is_disabled": 0, "fusion_lon": 0.0, "fusion_lat": 0.0, "lat": 39.10566566666667, "type": "electric_bike", "lon": -77.1526755, "bike_id": "85d2a179d256e2f8b275776a4dbcd682", "rental_uris": {"android": "https://dc.lft.to/lastmile_qr_scan", "ios": "https://dc.lft.to/lastmile_qr_scan"}, "name": "85d2a179d256e2f8b275776a4dbcd682", "is_reserved": 0}, {"is_disabled": 0, "fusion_lon": 0.0, "fusion_lat": 0.0, "lat": 38.93635, "type": "electric_scooter", "lon": -77.03266316666667, "bike_id": "4ccfa1990e5cd0b22030811c655b3597", "rental_uris": {"android": "https://dc.lft.to/lastmile_qr_scan", "ios": "https://dc.lft.to/lastmile_qr_scan"}, "name": "4ccfa1990e5cd0b22030811c655b3597", "is_reserved": 0}, {"is_disabled": 0, "fusion_lon": 0.0, "fusion_lat": 0.0, "lat": 38.924432333333336, "type": "electric_scooter", "lon": -77.04030466666667, "bike_id": "4e2702dee253e75b5840a743bd03c30c", "rental_uris": {"android": "https://dc.lft.to/lastmile_qr_scan", "ios": "https://dc.lft.to/lastmile_qr_scan"}, "name": "4e2702dee253e75b5840a743bd03c30c", "is_reserved": 0}, {"is_disabled": 0, "fusion_lon": 0.0, "fusion_lat": 0.0, "lat": 38.9041795, "type": "electric_scooter", "lon": -77.025806, "bike_id": "4320e8089e2180602ca482c4a84689c2", "rental_uris": {"android": "https://dc.lft.to/lastmile_qr_scan", "ios": "https://dc.lft.to/lastmile_qr_scan"}, "name": "4320e8089e2180602ca482c4a84689c2", "is_reserved": 0}, {"is_disabled": 0, "fusion_lon": 0.0, "fusion_lat": 0.0, "lat": 38.9244345, "type": "electric_bike", "lon": -76.96836233333333, "bike_id": "fdfdce9881cbf13b37fdbec985421498", "rental_uris": {"android": "https://dc.lft.to/lastmile_qr_scan", "ios": "https://dc.lft.to/lastmile_qr_scan"}, "name": "fdfdce9881cbf13b37fdbec985421498", "is_reserved": 0}, {"is_disabled": 0, "fusion_lon": 0.0, "fusion_lat": 0.0, "lat": 38.90028316666667, "type": "electric_scooter", "lon": -77.0020475, "bike_id": "6c575cc17fbb3a4745aa66cb677960da", "rental_uris": {"android": "https://dc.lft.to/lastmile_qr_scan", "ios": "https://dc.lft.to/lastmile_qr_scan"}, "name": "6c575cc17fbb3a4745aa66cb677960da", "is_reserved": 0}, {"is_disabled": 0, "fusion_lon": 0.0, "fusion_lat": 0.0, "lat": 38.923746666666666, "type": "electric_scooter", "lon": -77.03133133333333, "bike_id": "49e047b44286c87eb23dd3ff915d71f8", "rental_uris": {"android": "https://dc.lft.to/lastmile_qr_scan", "ios": "https://dc.lft.to/lastmile_qr_scan"}, "name": "49e047b44286c87eb23dd3ff915d71f8", "is_reserved": 0}, {"is_disabled": 0, "fusion_lon": 0.0, "fusion_lat": 0.0, "lat": 38.909406, "type": "electric_scooter", "lon": -77.03211616666667, "bike_id": "f7590ac7c22678001cc8ebe873043909", "rental_uris": {"android": "https://dc.lft.to/lastmile_qr_scan", "ios": "https://dc.lft.to/lastmile_qr_scan"}, "name": "f7590ac7c22678001cc8ebe873043909", "is_reserved": 0}, {"is_disabled": 0, "fusion_lon": 0.0, "fusion_lat": 0.0, "lat": 38.88763466666666, "type": "electric_bike", "lon": -76.9008705, "bike_id": "e5a6589ddc41f93640f30cedf4a7893b", "rental_uris": {"android": "https://dc.lft.to/lastmile_qr_scan", "ios": "https://dc.lft.to/lastmile_qr_scan"}, "name": "e5a6589ddc41f93640f30cedf4a7893b", "is_reserved": 0}, {"is_disabled": 0, "fusion_lon": 0.0, "fusion_lat": 0.0, "lat": 38.9256, "type": "electric_scooter", "lon": -77.0330435, "bike_id": "8043b4a7e44ae8fe3059ba18c7eb314e", "rental_uris": {"android": "https://dc.lft.to/lastmile_qr_scan", "ios": "https://dc.lft.to/lastmile_qr_scan"}, "name": "8043b4a7e44ae8fe3059ba18c7eb314e", "is_reserved": 0}, {"is_disabled": 0, "fusion_lon": 0.0, "fusion_lat": 0.0, "lat": 38.893709666666666, "type": "electric_scooter", "lon": -76.9499875, "bike_id": "3fd4cc3d1cb5a834a8586df2d6be391b", "rental_uris": {"android": "https://dc.lft.to/lastmile_qr_scan", "ios": "https://dc.lft.to/lastmile_qr_scan"}, "name": "3fd4cc3d1cb5a834a8586df2d6be391b", "is_reserved": 0}, {"is_disabled": 0, "fusion_lon": 0.0, "fusion_lat": 0.0, "lat": 38.88124883333333, "type": "electric_scooter", "lon": -76.995965, "bike_id": "1b8259f31ce40bd3025aecb1b285c79a", "rental_uris": {"android": "https://dc.lft.to/lastmile_qr_scan", "ios": "https://dc.lft.to/lastmile_qr_scan"}, "name": "1b8259f31ce40bd3025aecb1b285c79a", "is_reserved": 0}, {"is_disabled": 0, "fusion_lon": 0.0, "fusion_lat": 0.0, "lat": 38.911896666666664, "type": "electric_scooter", "lon": -77.04150883333334, "bike_id": "0c18117b3a7e6826a15ea9ec56c1b17b", "rental_uris": {"android": "https://dc.lft.to/lastmile_qr_scan", "ios": "https://dc.lft.to/lastmile_qr_scan"}, "name": "0c18117b3a7e6826a15ea9ec56c1b17b", "is_reserved": 0}, {"is_disabled": 0, "fusion_lon": 0.0, "fusion_lat": 0.0, "lat": 38.93129016666666, "type": "electric_scooter", "lon": -77.04063233333333, "bike_id": "67323aee9bb2a659a8e7a2bf9f9f112d", "rental_uris": {"android": "https://dc.lft.to/lastmile_qr_scan", "ios": "https://dc.lft.to/lastmile_qr_scan"}, "name": "67323aee9bb2a659a8e7a2bf9f9f112d", "is_reserved": 0}, {"is_disabled": 0, "fusion_lon": 0.0, "fusion_lat": 0.0, "lat": 38.865377, "type": "electric_scooter", "lon": -76.987094, "bike_id": "6807bfb2338dc3d96eb67d95f0e0ca2c", "rental_uris": {"android": "https://dc.lft.to/lastmile_qr_scan", "ios": "https://dc.lft.to/lastmile_qr_scan"}, "name": "6807bfb2338dc3d96eb67d95f0e0ca2c", "is_reserved": 0}, {"is_disabled": 0, "fusion_lon": 0.0, "fusion_lat": 0.0, "lat": 38.893970333333336, "type": "electric_scooter", "lon": -76.94998883333334, "bike_id": "13d53ae1c1edf2b605d9aef6d9815374", "rental_uris": {"android": "https://dc.lft.to/lastmile_qr_scan", "ios": "https://dc.lft.to/lastmile_qr_scan"}, "name": "13d53ae1c1edf2b605d9aef6d9815374", "is_reserved": 0}, {"is_disabled": 0, "fusion_lon": 0.0, "fusion_lat": 0.0, "lat": 38.920661, "type": "electric_scooter", "lon": -77.04698583333334, "bike_id": "dfbf1e1fb685de3e7c888b1ffb57c27f", "rental_uris": {"android": "https://dc.lft.to/lastmile_qr_scan", "ios": "https://dc.lft.to/lastmile_qr_scan"}, "name": "dfbf1e1fb685de3e7c888b1ffb57c27f", "is_reserved": 0}, {"is_disabled": 0, "fusion_lon": 0.0, "fusion_lat": 0.0, "lat": 38.90516083333333, "type": "electric_scooter", "lon": -77.05393783333334, "bike_id": "8ced84753bb1e215d299665a91e207e7", "rental_uris": {"android": "https://dc.lft.to/lastmile_qr_scan", "ios": "https://dc.lft.to/lastmile_qr_scan"}, "name": "8ced84753bb1e215d299665a91e207e7", "is_reserved": 0}, {"is_disabled": 0, "fusion_lon": 0.0, "fusion_lat": 0.0, "lat": 38.91185933333333, "type": "electric_scooter", "lon": -77.03925416666667, "bike_id": "e86de5451c25c6aa2bfe11dfc0d858e3", "rental_uris": {"android": "https://dc.lft.to/lastmile_qr_scan", "ios": "https://dc.lft.to/lastmile_qr_scan"}, "name": "e86de5451c25c6aa2bfe11dfc0d858e3", "is_reserved": 0}, {"is_disabled": 0, "fusion_lon": 0.0, "fusion_lat": 0.0, "lat": 38.91072883333333, "type": "electric_scooter", "lon": -77.04170583333334, "bike_id": "87472c00445a136105cc76237e3bd377", "rental_uris": {"android": "https://dc.lft.to/lastmile_qr_scan", "ios": "https://dc.lft.to/lastmile_qr_scan"}, "name": "87472c00445a136105cc76237e3bd377", "is_reserved": 0}, {"is_disabled": 0, "fusion_lon": 0.0, "fusion_lat": 0.0, "lat": 38.91703016666666, "type": "electric_scooter", "lon": -77.02840266666666, "bike_id": "17b757e882b77ac7aa159e299c4a06b3", "rental_uris": {"android": "https://dc.lft.to/lastmile_qr_scan", "ios": "https://dc.lft.to/lastmile_qr_scan"}, "name": "17b757e882b77ac7aa159e299c4a06b3", "is_reserved": 0}, {"is_disabled": 0, "fusion_lon": 0.0, "fusion_lat": 0.0, "lat": 38.91821633333333, "type": "electric_scooter", "lon": -77.04012, "bike_id": "fde09f52695fe7afd31f0abd1cf3458c", "rental_uris": {"android": "https://dc.lft.to/lastmile_qr_scan", "ios": "https://dc.lft.to/lastmile_qr_scan"}, "name": "fde09f52695fe7afd31f0abd1cf3458c", "is_reserved": 0}, {"is_disabled": 0, "fusion_lon": 0.0, "fusion_lat": 0.0, "lat": 38.902310166666666, "type": "electric_scooter", "lon": -77.060835, "bike_id": "e16dcaf8b2b78c197de41712439e0359", "rental_uris": {"android": "https://dc.lft.to/lastmile_qr_scan", "ios": "https://dc.lft.to/lastmile_qr_scan"}, "name": "e16dcaf8b2b78c197de41712439e0359", "is_reserved": 0}, {"is_disabled": 0, "fusion_lon": 0.0, "fusion_lat": 0.0, "lat": 38.8971265, "type": "electric_scooter", "lon": -77.02158466666667, "bike_id": "46f5deb2834dabae7413a05d7fe4888f", "rental_uris": {"android": "https://dc.lft.to/lastmile_qr_scan", "ios": "https://dc.lft.to/lastmile_qr_scan"}, "name": "46f5deb2834dabae7413a05d7fe4888f", "is_reserved": 0}, {"is_disabled": 0, "fusion_lon": 0.0, "fusion_lat": 0.0, "lat": 38.9349545, "type": "electric_scooter", "lon": -77.032864, "bike_id": "28e18afabd6f68d181652b9df312d00b", "rental_uris": {"android": "https://dc.lft.to/lastmile_qr_scan", "ios": "https://dc.lft.to/lastmile_qr_scan"}, "name": "28e18afabd6f68d181652b9df312d00b", "is_reserved": 0}, {"is_disabled": 0, "fusion_lon": 0.0, "fusion_lat": 0.0, "lat": 38.925516, "type": "electric_scooter", "lon": -77.05297516666667, "bike_id": "0bfef1a8dc1ede20588436891765eaa6", "rental_uris": {"android": "https://dc.lft.to/lastmile_qr_scan", "ios": "https://dc.lft.to/lastmile_qr_scan"}, "name": "0bfef1a8dc1ede20588436891765eaa6", "is_reserved": 0}, {"is_disabled": 0, "fusion_lon": 0.0, "fusion_lat": 0.0, "lat": 38.903683, "type": "electric_scooter", "lon": -77.01762933333333, "bike_id": "5f2a26bc7dc8ef94a6e76be8c8acd08d", "rental_uris": {"android": "https://dc.lft.to/lastmile_qr_scan", "ios": "https://dc.lft.to/lastmile_qr_scan"}, "name": "5f2a26bc7dc8ef94a6e76be8c8acd08d", "is_reserved": 0}, {"is_disabled": 0, "fusion_lon": 0.0, "fusion_lat": 0.0, "lat": 39.00018383333333, "type": "electric_bike", "lon": -76.87284383333333, "bike_id": "764e36f31120211528d28b888a0b5ba9", "rental_uris": {"android": "https://dc.lft.to/lastmile_qr_scan", "ios": "https://dc.lft.to/lastmile_qr_scan"}, "name": "764e36f31120211528d28b888a0b5ba9", "is_reserved": 0}, {"is_disabled": 0, "fusion_lon": 0.0, "fusion_lat": 0.0, "lat": 38.82872283333333, "type": "electric_bike", "lon": -77.11221783333333, "bike_id": "b676a9b9066c18d152c944db2b047cd4", "rental_uris": {"android": "https://dc.lft.to/lastmile_qr_scan", "ios": "https://dc.lft.to/lastmile_qr_scan"}, "name": "b676a9b9066c18d152c944db2b047cd4", "is_reserved": 0}, {"is_disabled": 0, "fusion_lon": 0.0, "fusion_lat": 0.0, "lat": 38.901797, "type": "electric_scooter", "lon": -77.022105, "bike_id": "ec9299adc8e3737c6e4d31ed8c00677c", "rental_uris": {"android": "https://dc.lft.to/lastmile_qr_scan", "ios": "https://dc.lft.to/lastmile_qr_scan"}, "name": "ec9299adc8e3737c6e4d31ed8c00677c", "is_reserved": 0}, {"is_disabled": 0, "fusion_lon": 0.0, "fusion_lat": 0.0, "lat": 38.92891383333333, "type": "electric_scooter", "lon": -77.0324375, "bike_id": "3a878d6e4fcbd6afeb950b4c717860e5", "rental_uris": {"android": "https://dc.lft.to/lastmile_qr_scan", "ios": "https://dc.lft.to/lastmile_qr_scan"}, "name": "3a878d6e4fcbd6afeb950b4c717860e5", "is_reserved": 0}, {"is_disabled": 0, "fusion_lon": 0.0, "fusion_lat": 0.0, "lat": 38.905225333333334, "type": "electric_scooter", "lon": -77.0509055, "bike_id": "a8dbe2f8a4378bd09d0d700e3f4c48a7", "rental_uris": {"android": "https://dc.lft.to/lastmile_qr_scan", "ios": "https://dc.lft.to/lastmile_qr_scan"}, "name": "a8dbe2f8a4378bd09d0d700e3f4c48a7", "is_reserved": 0}, {"is_disabled": 0, "fusion_lon": 0.0, "fusion_lat": 0.0, "lat": 38.9856265, "type": "electric_bike", "lon": -76.98827583333333, "bike_id": "57397248aa9b9fc871e233448e16b165", "rental_uris": {"android": "https://dc.lft.to/lastmile_qr_scan", "ios": "https://dc.lft.to/lastmile_qr_scan"}, "name": "57397248aa9b9fc871e233448e16b165", "is_reserved": 0}, {"is_disabled": 0, "fusion_lon": 0.0, "fusion_lat": 0.0, "lat": 38.899565, "type": "electric_scooter", "lon": -77.052244, "bike_id": "fa33dda88935b17e9ec285ef65639475", "rental_uris": {"android": "https://dc.lft.to/lastmile_qr_scan", "ios": "https://dc.lft.to/lastmile_qr_scan"}, "name": "fa33dda88935b17e9ec285ef65639475", "is_reserved": 0}, {"is_disabled": 0, "fusion_lon": 0.0, "fusion_lat": 0.0, "lat": 38.916869, "type": "electric_scooter", "lon": -76.9808845, "bike_id": "1cfe6c305f6cd4847bf8e5059c06e0ba", "rental_uris": {"android": "https://dc.lft.to/lastmile_qr_scan", "ios": "https://dc.lft.to/lastmile_qr_scan"}, "name": "1cfe6c305f6cd4847bf8e5059c06e0ba", "is_reserved": 0}, {"is_disabled": 0, "fusion_lon": 0.0, "fusion_lat": 0.0, "lat": 38.918291833333335, "type": "electric_scooter", "lon": -77.0364435, "bike_id": "46c6a6c01166b37c2521b924360716e0", "rental_uris": {"android": "https://dc.lft.to/lastmile_qr_scan", "ios": "https://dc.lft.to/lastmile_qr_scan"}, "name": "46c6a6c01166b37c2521b924360716e0", "is_reserved": 0}, {"is_disabled": 0, "fusion_lon": 0.0, "fusion_lat": 0.0, "lat": 38.84292083333333, "type": "electric_scooter", "lon": -76.999501, "bike_id": "15060d87aff629bed680e569d6858aa0", "rental_uris": {"android": "https://dc.lft.to/lastmile_qr_scan", "ios": "https://dc.lft.to/lastmile_qr_scan"}, "name": "15060d87aff629bed680e569d6858aa0", "is_reserved": 0}, {"is_disabled": 0, "fusion_lon": 0.0, "fusion_lat": 0.0, "lat": 38.90832666666667, "type": "electric_scooter", "lon": -76.99702983333333, "bike_id": "77c7aa5a0689622b68b193bacf668480", "rental_uris": {"android": "https://dc.lft.to/lastmile_qr_scan", "ios": "https://dc.lft.to/lastmile_qr_scan"}, "name": "77c7aa5a0689622b68b193bacf668480", "is_reserved": 0}, {"is_disabled": 0, "fusion_lon": 0.0, "fusion_lat": 0.0, "lat": 39.030006, "type": "electric_bike", "lon": -77.1065235, "bike_id": "aef623e56da2233d9bd39a9d1a68d824", "rental_uris": {"android": "https://dc.lft.to/lastmile_qr_scan", "ios": "https://dc.lft.to/lastmile_qr_scan"}, "name": "aef623e56da2233d9bd39a9d1a68d824", "is_reserved": 0}, {"is_disabled": 0, "fusion_lon": 0.0, "fusion_lat": 0.0, "lat": 38.897277833333334, "type": "electric_scooter", "lon": -77.04680783333333, "bike_id": "71e3acc8a098fc9b64eb15326f071f92", "rental_uris": {"android": "https://dc.lft.to/lastmile_qr_scan", "ios": "https://dc.lft.to/lastmile_qr_scan"}, "name": "71e3acc8a098fc9b64eb15326f071f92", "is_reserved": 0}, {"is_disabled": 0, "fusion_lon": 0.0, "fusion_lat": 0.0, "lat": 38.9372305, "type": "electric_scooter", "lon": -77.03353166666666, "bike_id": "cc4a572688311c814462c89251aa1869", "rental_uris": {"android": "https://dc.lft.to/lastmile_qr_scan", "ios": "https://dc.lft.to/lastmile_qr_scan"}, "name": "cc4a572688311c814462c89251aa1869", "is_reserved": 0}, {"is_disabled": 0, "fusion_lon": 0.0, "fusion_lat": 0.0, "lat": 38.914157833333334, "type": "electric_scooter", "lon": -77.02231183333333, "bike_id": "8f49e797fb025bc6d66b4c30e8aa647d", "rental_uris": {"android": "https://dc.lft.to/lastmile_qr_scan", "ios": "https://dc.lft.to/lastmile_qr_scan"}, "name": "8f49e797fb025bc6d66b4c30e8aa647d", "is_reserved": 0}, {"is_disabled": 0, "fusion_lon": 0.0, "fusion_lat": 0.0, "lat": 38.94038116666667, "type": "electric_scooter", "lon": -77.02520033333333, "bike_id": "c42fb910a279b033e2eadeff3fc138fb", "rental_uris": {"android": "https://dc.lft.to/lastmile_qr_scan", "ios": "https://dc.lft.to/lastmile_qr_scan"}, "name": "c42fb910a279b033e2eadeff3fc138fb", "is_reserved": 0}, {"is_disabled": 0, "fusion_lon": 0.0, "fusion_lat": 0.0, "lat": 38.911829833333336, "type": "electric_scooter", "lon": -77.018788, "bike_id": "96746d12c8aa0b20a41897f21617c267", "rental_uris": {"android": "https://dc.lft.to/lastmile_qr_scan", "ios": "https://dc.lft.to/lastmile_qr_scan"}, "name": "96746d12c8aa0b20a41897f21617c267", "is_reserved": 0}, {"is_disabled": 0, "fusion_lon": 0.0, "fusion_lat": 0.0, "lat": 38.920601, "type": "electric_scooter", "lon": -77.02379216666667, "bike_id": "470978a749f09a69588a6fd44c23c75a", "rental_uris": {"android": "https://dc.lft.to/lastmile_qr_scan", "ios": "https://dc.lft.to/lastmile_qr_scan"}, "name": "470978a749f09a69588a6fd44c23c75a", "is_reserved": 0}, {"is_disabled": 0, "fusion_lon": 0.0, "fusion_lat": 0.0, "lat": 38.898405333333336, "type": "electric_scooter", "lon": -77.02221966666667, "bike_id": "6176920f7bf5217dba036f1cf7a00158", "rental_uris": {"android": "https://dc.lft.to/lastmile_qr_scan", "ios": "https://dc.lft.to/lastmile_qr_scan"}, "name": "6176920f7bf5217dba036f1cf7a00158", "is_reserved": 0}, {"is_disabled": 0, "fusion_lon": 0.0, "fusion_lat": 0.0, "lat": 38.956081833333336, "type": "electric_scooter", "lon": -77.027624, "bike_id": "0dc67319d37bdb9053ae233744db2cbd", "rental_uris": {"android": "https://dc.lft.to/lastmile_qr_scan", "ios": "https://dc.lft.to/lastmile_qr_scan"}, "name": "0dc67319d37bdb9053ae233744db2cbd", "is_reserved": 0}, {"is_disabled": 0, "fusion_lon": 0.0, "fusion_lat": 0.0, "lat": 38.91539383333333, "type": "electric_scooter", "lon": -77.03213616666666, "bike_id": "1c0b931fed77bd74888a169cce6dbf7d", "rental_uris": {"android": "https://dc.lft.to/lastmile_qr_scan", "ios": "https://dc.lft.to/lastmile_qr_scan"}, "name": "1c0b931fed77bd74888a169cce6dbf7d", "is_reserved": 0}, {"is_disabled": 0, "fusion_lon": 0.0, "fusion_lat": 0.0, "lat": 38.906965166666666, "type": "electric_scooter", "lon": -77.06306233333333, "bike_id": "7685f790b1fd29e4e2f7d27a7edcc8cc", "rental_uris": {"android": "https://dc.lft.to/lastmile_qr_scan", "ios": "https://dc.lft.to/lastmile_qr_scan"}, "name": "7685f790b1fd29e4e2f7d27a7edcc8cc", "is_reserved": 0}, {"is_disabled": 0, "fusion_lon": 0.0, "fusion_lat": 0.0, "lat": 38.928681, "type": "electric_scooter", "lon": -77.02733433333333, "bike_id": "125794f9bbddff7562c837b98e17c8c8", "rental_uris": {"android": "https://dc.lft.to/lastmile_qr_scan", "ios": "https://dc.lft.to/lastmile_qr_scan"}, "name": "125794f9bbddff7562c837b98e17c8c8", "is_reserved": 0}, {"is_disabled": 0, "fusion_lon": 0.0, "fusion_lat": 0.0, "lat": 38.92440366666666, "type": "electric_bike", "lon": -76.90758333333333, "bike_id": "7ecfd0f680a93d9c323286eac8a65b4e", "rental_uris": {"android": "https://dc.lft.to/lastmile_qr_scan", "ios": "https://dc.lft.to/lastmile_qr_scan"}, "name": "7ecfd0f680a93d9c323286eac8a65b4e", "is_reserved": 0}, {"is_disabled": 0, "fusion_lon": 0.0, "fusion_lat": 0.0, "lat": 38.91800683333334, "type": "electric_scooter", "lon": -77.031921, "bike_id": "8293153af7f0f25646acb912a63387d4", "rental_uris": {"android": "https://dc.lft.to/lastmile_qr_scan", "ios": "https://dc.lft.to/lastmile_qr_scan"}, "name": "8293153af7f0f25646acb912a63387d4", "is_reserved": 0}, {"is_disabled": 0, "fusion_lon": 0.0, "fusion_lat": 0.0, "lat": 38.91575566666667, "type": "electric_scooter", "lon": -77.04679583333333, "bike_id": "c0c576b662c40c3d89c7bc3eb8010a04", "rental_uris": {"android": "https://dc.lft.to/lastmile_qr_scan", "ios": "https://dc.lft.to/lastmile_qr_scan"}, "name": "c0c576b662c40c3d89c7bc3eb8010a04", "is_reserved": 0}, {"is_disabled": 0, "fusion_lon": 0.0, "fusion_lat": 0.0, "lat": 38.91706966666667, "type": "electric_scooter", "lon": -77.02615966666667, "bike_id": "b7d66f209ad4ed089bb0fd044c831bbe", "rental_uris": {"android": "https://dc.lft.to/lastmile_qr_scan", "ios": "https://dc.lft.to/lastmile_qr_scan"}, "name": "b7d66f209ad4ed089bb0fd044c831bbe", "is_reserved": 0}, {"is_disabled": 0, "fusion_lon": 0.0, "fusion_lat": 0.0, "lat": 38.91973983333333, "type": "electric_scooter", "lon": -77.04152816666667, "bike_id": "e7b8c5d09293f2f70a61231dfda22a92", "rental_uris": {"android": "https://dc.lft.to/lastmile_qr_scan", "ios": "https://dc.lft.to/lastmile_qr_scan"}, "name": "e7b8c5d09293f2f70a61231dfda22a92", "is_reserved": 0}, {"is_disabled": 0, "fusion_lon": 0.0, "fusion_lat": 0.0, "lat": 38.91445316666667, "type": "electric_scooter", "lon": -77.0089925, "bike_id": "e9ee112596c22e45abdd5870cdf09348", "rental_uris": {"android": "https://dc.lft.to/lastmile_qr_scan", "ios": "https://dc.lft.to/lastmile_qr_scan"}, "name": "e9ee112596c22e45abdd5870cdf09348", "is_reserved": 0}, {"is_disabled": 0, "fusion_lon": 0.0, "fusion_lat": 0.0, "lat": 38.9157925, "type": "electric_scooter", "lon": -77.0200025, "bike_id": "6a7962da39e65eac8446613190003a3a", "rental_uris": {"android": "https://dc.lft.to/lastmile_qr_scan", "ios": "https://dc.lft.to/lastmile_qr_scan"}, "name": "6a7962da39e65eac8446613190003a3a", "is_reserved": 0}, {"is_disabled": 0, "fusion_lon": 0.0, "fusion_lat": 0.0, "lat": 38.912057, "type": "electric_scooter", "lon": -76.98486716666666, "bike_id": "97856af0bafc602166b6b760e23ae617", "rental_uris": {"android": "https://dc.lft.to/lastmile_qr_scan", "ios": "https://dc.lft.to/lastmile_qr_scan"}, "name": "97856af0bafc602166b6b760e23ae617", "is_reserved": 0}, {"is_disabled": 0, "fusion_lon": 0.0, "fusion_lat": 0.0, "lat": 38.92178533333333, "type": "electric_scooter", "lon": -77.043475, "bike_id": "cf5409514ef7712fe06b8799390a30ae", "rental_uris": {"android": "https://dc.lft.to/lastmile_qr_scan", "ios": "https://dc.lft.to/lastmile_qr_scan"}, "name": "cf5409514ef7712fe06b8799390a30ae", "is_reserved": 0}, {"is_disabled": 0, "fusion_lon": 0.0, "fusion_lat": 0.0, "lat": 38.9705595, "type": "electric_bike", "lon": -76.96066116666667, "bike_id": "3caea438e6378c18917d134571457c27", "rental_uris": {"android": "https://dc.lft.to/lastmile_qr_scan", "ios": "https://dc.lft.to/lastmile_qr_scan"}, "name": "3caea438e6378c18917d134571457c27", "is_reserved": 0}, {"is_disabled": 0, "fusion_lon": 0.0, "fusion_lat": 0.0, "lat": 38.907299, "type": "electric_scooter", "lon": -77.02369933333334, "bike_id": "443a9732d0a8faf319f768955d619a5f", "rental_uris": {"android": "https://dc.lft.to/lastmile_qr_scan", "ios": "https://dc.lft.to/lastmile_qr_scan"}, "name": "443a9732d0a8faf319f768955d619a5f", "is_reserved": 0}, {"is_disabled": 0, "fusion_lon": 0.0, "fusion_lat": 0.0, "lat": 38.885713, "type": "electric_scooter", "lon": -77.00070816666667, "bike_id": "7aef81324977c1836895f665fbb4fdd2", "rental_uris": {"android": "https://dc.lft.to/lastmile_qr_scan", "ios": "https://dc.lft.to/lastmile_qr_scan"}, "name": "7aef81324977c1836895f665fbb4fdd2", "is_reserved": 0}, {"is_disabled": 0, "fusion_lon": 0.0, "fusion_lat": 0.0, "lat": 38.9483535, "type": "electric_scooter", "lon": -77.02824633333333, "bike_id": "cbe486e1db5abcc7be2c4516e78412bc", "rental_uris": {"android": "https://dc.lft.to/lastmile_qr_scan", "ios": "https://dc.lft.to/lastmile_qr_scan"}, "name": "cbe486e1db5abcc7be2c4516e78412bc", "is_reserved": 0}, {"is_disabled": 0, "fusion_lon": 0.0, "fusion_lat": 0.0, "lat": 38.917313666666665, "type": "electric_scooter", "lon": -76.991787, "bike_id": "fc21c2270932241fed31193639a8ff91", "rental_uris": {"android": "https://dc.lft.to/lastmile_qr_scan", "ios": "https://dc.lft.to/lastmile_qr_scan"}, "name": "fc21c2270932241fed31193639a8ff91", "is_reserved": 0}, {"is_disabled": 0, "fusion_lon": 0.0, "fusion_lat": 0.0, "lat": 38.901619, "type": "electric_scooter", "lon": -76.99385916666667, "bike_id": "7786b46ac7486a16c4e287d416d1f111", "rental_uris": {"android": "https://dc.lft.to/lastmile_qr_scan", "ios": "https://dc.lft.to/lastmile_qr_scan"}, "name": "7786b46ac7486a16c4e287d416d1f111", "is_reserved": 0}, {"is_disabled": 0, "fusion_lon": 0.0, "fusion_lat": 0.0, "lat": 38.872089, "type": "electric_bike", "lon": -76.95486583333333, "bike_id": "eaa8026dc183be0635ae0e02d390901c", "rental_uris": {"android": "https://dc.lft.to/lastmile_qr_scan", "ios": "https://dc.lft.to/lastmile_qr_scan"}, "name": "eaa8026dc183be0635ae0e02d390901c", "is_reserved": 0}, {"is_disabled": 0, "fusion_lon": 0.0, "fusion_lat": 0.0, "lat": 38.9157785, "type": "electric_scooter", "lon": -77.04678666666666, "bike_id": "8df8a6504076d5e1d15a820261f62bfb", "rental_uris": {"android": "https://dc.lft.to/lastmile_qr_scan", "ios": "https://dc.lft.to/lastmile_qr_scan"}, "name": "8df8a6504076d5e1d15a820261f62bfb", "is_reserved": 0}, {"is_disabled": 0, "fusion_lon": 0.0, "fusion_lat": 0.0, "lat": 38.9179815, "type": "electric_scooter", "lon": -77.03462433333333, "bike_id": "316823ec09f26d225166a6bca60acb8b", "rental_uris": {"android": "https://dc.lft.to/lastmile_qr_scan", "ios": "https://dc.lft.to/lastmile_qr_scan"}, "name": "316823ec09f26d225166a6bca60acb8b", "is_reserved": 0}, {"is_disabled": 0, "fusion_lon": 0.0, "fusion_lat": 0.0, "lat": 38.94809516666667, "type": "electric_bike", "lon": -76.97209233333334, "bike_id": "01c86e8407cdfe525b996a4ddf180e63", "rental_uris": {"android": "https://dc.lft.to/lastmile_qr_scan", "ios": "https://dc.lft.to/lastmile_qr_scan"}, "name": "01c86e8407cdfe525b996a4ddf180e63", "is_reserved": 0}, {"is_disabled": 0, "fusion_lon": 0.0, "fusion_lat": 0.0, "lat": 38.90857166666667, "type": "electric_scooter", "lon": -76.9979955, "bike_id": "f591c0c32ddadba85c7d950f0ff9957c", "rental_uris": {"android": "https://dc.lft.to/lastmile_qr_scan", "ios": "https://dc.lft.to/lastmile_qr_scan"}, "name": "f591c0c32ddadba85c7d950f0ff9957c", "is_reserved": 0}, {"is_disabled": 0, "fusion_lon": 0.0, "fusion_lat": 0.0, "lat": 38.94898516666667, "type": "electric_bike", "lon": -76.96375783333333, "bike_id": "51a36e953839a06afdbb4a4258bb7c86", "rental_uris": {"android": "https://dc.lft.to/lastmile_qr_scan", "ios": "https://dc.lft.to/lastmile_qr_scan"}, "name": "51a36e953839a06afdbb4a4258bb7c86", "is_reserved": 0}, {"is_disabled": 0, "fusion_lon": 0.0, "fusion_lat": 0.0, "lat": 38.9281, "type": "electric_scooter", "lon": -77.02349716666667, "bike_id": "7826a67291108d85a1a059c99b0efb9d", "rental_uris": {"android": "https://dc.lft.to/lastmile_qr_scan", "ios": "https://dc.lft.to/lastmile_qr_scan"}, "name": "7826a67291108d85a1a059c99b0efb9d", "is_reserved": 0}, {"is_disabled": 0, "fusion_lon": 0.0, "fusion_lat": 0.0, "lat": 38.934123666666665, "type": "electric_scooter", "lon": -77.01965816666667, "bike_id": "fc3e93048c3ffaf020c632c479152a60", "rental_uris": {"android": "https://dc.lft.to/lastmile_qr_scan", "ios": "https://dc.lft.to/lastmile_qr_scan"}, "name": "fc3e93048c3ffaf020c632c479152a60", "is_reserved": 0}, {"is_disabled": 0, "fusion_lon": 0.0, "fusion_lat": 0.0, "lat": 38.924928333333334, "type": "electric_scooter", "lon": -77.0393465, "bike_id": "a35d7e9b87b74c27717b4ae0ad3f5770", "rental_uris": {"android": "https://dc.lft.to/lastmile_qr_scan", "ios": "https://dc.lft.to/lastmile_qr_scan"}, "name": "a35d7e9b87b74c27717b4ae0ad3f5770", "is_reserved": 0}, {"is_disabled": 0, "fusion_lon": 0.0, "fusion_lat": 0.0, "lat": 38.8996985, "type": "electric_scooter", "lon": -77.01630183333333, "bike_id": "7adab21766e1078f9ed4029bcaa29bcd", "rental_uris": {"android": "https://dc.lft.to/lastmile_qr_scan", "ios": "https://dc.lft.to/lastmile_qr_scan"}, "name": "7adab21766e1078f9ed4029bcaa29bcd", "is_reserved": 0}, {"is_disabled": 0, "fusion_lon": 0.0, "fusion_lat": 0.0, "lat": 38.933678666666665, "type": "electric_scooter", "lon": -77.057558, "bike_id": "69a7c6b2821a8746945ba030a93570b7", "rental_uris": {"android": "https://dc.lft.to/lastmile_qr_scan", "ios": "https://dc.lft.to/lastmile_qr_scan"}, "name": "69a7c6b2821a8746945ba030a93570b7", "is_reserved": 0}, {"is_disabled": 0, "fusion_lon": 0.0, "fusion_lat": 0.0, "lat": 39.05269416666667, "type": "electric_bike", "lon": -77.04381616666667, "bike_id": "e4436c968704ff4f9516570103c2be5d", "rental_uris": {"android": "https://dc.lft.to/lastmile_qr_scan", "ios": "https://dc.lft.to/lastmile_qr_scan"}, "name": "e4436c968704ff4f9516570103c2be5d", "is_reserved": 0}, {"is_disabled": 0, "fusion_lon": 0.0, "fusion_lat": 0.0, "lat": 38.87876966666666, "type": "electric_scooter", "lon": -77.019539, "bike_id": "6a3c3e2988469e5d3b64e8e96c35f96e", "rental_uris": {"android": "https://dc.lft.to/lastmile_qr_scan", "ios": "https://dc.lft.to/lastmile_qr_scan"}, "name": "6a3c3e2988469e5d3b64e8e96c35f96e", "is_reserved": 0}, {"is_disabled": 0, "fusion_lon": 0.0, "fusion_lat": 0.0, "lat": 38.90959183333333, "type": "electric_scooter", "lon": -77.03953983333334, "bike_id": "c2d4305e66f8201cc9fc37b559cbbb3f", "rental_uris": {"android": "https://dc.lft.to/lastmile_qr_scan", "ios": "https://dc.lft.to/lastmile_qr_scan"}, "name": "c2d4305e66f8201cc9fc37b559cbbb3f", "is_reserved": 0}, {"is_disabled": 0, "fusion_lon": 0.0, "fusion_lat": 0.0, "lat": 38.917029, "type": "electric_bike", "lon": -77.09566633333333, "bike_id": "e281c7f700fb7b6d41f8a7123b17e555", "rental_uris": {"android": "https://dc.lft.to/lastmile_qr_scan", "ios": "https://dc.lft.to/lastmile_qr_scan"}, "name": "e281c7f700fb7b6d41f8a7123b17e555", "is_reserved": 0}, {"is_disabled": 0, "fusion_lon": 0.0, "fusion_lat": 0.0, "lat": 38.9004615, "type": "electric_scooter", "lon": -76.98837483333334, "bike_id": "b6cf399865d1522529f750c43f3447ee", "rental_uris": {"android": "https://dc.lft.to/lastmile_qr_scan", "ios": "https://dc.lft.to/lastmile_qr_scan"}, "name": "b6cf399865d1522529f750c43f3447ee", "is_reserved": 0}, {"is_disabled": 0, "fusion_lon": 0.0, "fusion_lat": 0.0, "lat": 38.91999633333333, "type": "electric_scooter", "lon": -77.03273166666666, "bike_id": "81178410a6f3355337e833027be7108f", "rental_uris": {"android": "https://dc.lft.to/lastmile_qr_scan", "ios": "https://dc.lft.to/lastmile_qr_scan"}, "name": "81178410a6f3355337e833027be7108f", "is_reserved": 0}, {"is_disabled": 0, "fusion_lon": 0.0, "fusion_lat": 0.0, "lat": 38.892341333333334, "type": "electric_scooter", "lon": -77.0258805, "bike_id": "779e34452829046d36883f706b66128c", "rental_uris": {"android": "https://dc.lft.to/lastmile_qr_scan", "ios": "https://dc.lft.to/lastmile_qr_scan"}, "name": "779e34452829046d36883f706b66128c", "is_reserved": 0}, {"is_disabled": 0, "fusion_lon": 0.0, "fusion_lat": 0.0, "lat": 38.90564666666667, "type": "electric_scooter", "lon": -77.03638583333333, "bike_id": "0d9f1052a33b1c9e205d1c9fca36ef0a", "rental_uris": {"android": "https://dc.lft.to/lastmile_qr_scan", "ios": "https://dc.lft.to/lastmile_qr_scan"}, "name": "0d9f1052a33b1c9e205d1c9fca36ef0a", "is_reserved": 0}, {"is_disabled": 0, "fusion_lon": 0.0, "fusion_lat": 0.0, "lat": 38.92212683333333, "type": "electric_scooter", "lon": -77.032935, "bike_id": "d037d2138ad0201d700ff2c9c118e7fb", "rental_uris": {"android": "https://dc.lft.to/lastmile_qr_scan", "ios": "https://dc.lft.to/lastmile_qr_scan"}, "name": "d037d2138ad0201d700ff2c9c118e7fb", "is_reserved": 0}, {"is_disabled": 0, "fusion_lon": 0.0, "fusion_lat": 0.0, "lat": 38.923175, "type": "electric_scooter", "lon": -77.042106, "bike_id": "33341a0dbda69b7c80ce95e63b526a7f", "rental_uris": {"android": "https://dc.lft.to/lastmile_qr_scan", "ios": "https://dc.lft.to/lastmile_qr_scan"}, "name": "33341a0dbda69b7c80ce95e63b526a7f", "is_reserved": 0}, {"is_disabled": 0, "fusion_lon": 0.0, "fusion_lat": 0.0, "lat": 38.92260133333333, "type": "electric_scooter", "lon": -77.04125916666666, "bike_id": "45c71c6cfea8c7b25a452e328d081efa", "rental_uris": {"android": "https://dc.lft.to/lastmile_qr_scan", "ios": "https://dc.lft.to/lastmile_qr_scan"}, "name": "45c71c6cfea8c7b25a452e328d081efa", "is_reserved": 0}, {"is_disabled": 0, "fusion_lon": 0.0, "fusion_lat": 0.0, "lat": 38.925787, "type": "electric_scooter", "lon": -76.99494016666667, "bike_id": "b2afdd0e60cde5937451396283979d47", "rental_uris": {"android": "https://dc.lft.to/lastmile_qr_scan", "ios": "https://dc.lft.to/lastmile_qr_scan"}, "name": "b2afdd0e60cde5937451396283979d47", "is_reserved": 0}, {"is_disabled": 0, "fusion_lon": 0.0, "fusion_lat": 0.0, "lat": 38.920022833333334, "type": "electric_scooter", "lon": -77.02518283333333, "bike_id": "3b907c8ec18e41bc30b8de99f28510eb", "rental_uris": {"android": "https://dc.lft.to/lastmile_qr_scan", "ios": "https://dc.lft.to/lastmile_qr_scan"}, "name": "3b907c8ec18e41bc30b8de99f28510eb", "is_reserved": 0}, {"is_disabled": 0, "fusion_lon": 0.0, "fusion_lat": 0.0, "lat": 38.92135966666667, "type": "electric_bike", "lon": -76.97532183333334, "bike_id": "e9bccf13134c255e6fc61d6390a82a3b", "rental_uris": {"android": "https://dc.lft.to/lastmile_qr_scan", "ios": "https://dc.lft.to/lastmile_qr_scan"}, "name": "e9bccf13134c255e6fc61d6390a82a3b", "is_reserved": 0}, {"is_disabled": 0, "fusion_lon": 0.0, "fusion_lat": 0.0, "lat": 38.9079945, "type": "electric_scooter", "lon": -77.04989866666666, "bike_id": "d688e21f8f0235831c62fdf9f20bd974", "rental_uris": {"android": "https://dc.lft.to/lastmile_qr_scan", "ios": "https://dc.lft.to/lastmile_qr_scan"}, "name": "d688e21f8f0235831c62fdf9f20bd974", "is_reserved": 0}, {"is_disabled": 0, "fusion_lon": 0.0, "fusion_lat": 0.0, "lat": 38.90772066666667, "type": "electric_scooter", "lon": -77.02818516666666, "bike_id": "e7d8467b89f72068a05bcf30989a6ec2", "rental_uris": {"android": "https://dc.lft.to/lastmile_qr_scan", "ios": "https://dc.lft.to/lastmile_qr_scan"}, "name": "e7d8467b89f72068a05bcf30989a6ec2", "is_reserved": 0}, {"is_disabled": 0, "fusion_lon": 0.0, "fusion_lat": 0.0, "lat": 38.93230783333333, "type": "electric_scooter", "lon": -76.9948445, "bike_id": "359a844a13c9f344a517006ad5433311", "rental_uris": {"android": "https://dc.lft.to/lastmile_qr_scan", "ios": "https://dc.lft.to/lastmile_qr_scan"}, "name": "359a844a13c9f344a517006ad5433311", "is_reserved": 0}, {"is_disabled": 0, "fusion_lon": 0.0, "fusion_lat": 0.0, "lat": 38.9725815, "type": "electric_bike", "lon": -76.99167966666667, "bike_id": "c639732d2568d09b5b0d9701d217cc96", "rental_uris": {"android": "https://dc.lft.to/lastmile_qr_scan", "ios": "https://dc.lft.to/lastmile_qr_scan"}, "name": "c639732d2568d09b5b0d9701d217cc96", "is_reserved": 0}, {"is_disabled": 0, "fusion_lon": 0.0, "fusion_lat": 0.0, "lat": 38.93468583333333, "type": "electric_scooter", "lon": -77.068705, "bike_id": "c892f2784ed1b42cc563ff7c73ca0ed8", "rental_uris": {"android": "https://dc.lft.to/lastmile_qr_scan", "ios": "https://dc.lft.to/lastmile_qr_scan"}, "name": "c892f2784ed1b42cc563ff7c73ca0ed8", "is_reserved": 0}, {"is_disabled": 0, "fusion_lon": 0.0, "fusion_lat": 0.0, "lat": 38.897139833333334, "type": "electric_scooter", "lon": -77.01010016666666, "bike_id": "45a27c5426f857b25a0c2e4967d354c8", "rental_uris": {"android": "https://dc.lft.to/lastmile_qr_scan", "ios": "https://dc.lft.to/lastmile_qr_scan"}, "name": "45a27c5426f857b25a0c2e4967d354c8", "is_reserved": 0}, {"is_disabled": 0, "fusion_lon": 0.0, "fusion_lat": 0.0, "lat": 38.91798, "type": "electric_scooter", "lon": -77.0343395, "bike_id": "0b4c10f801ae11ed29d6eb429f955713", "rental_uris": {"android": "https://dc.lft.to/lastmile_qr_scan", "ios": "https://dc.lft.to/lastmile_qr_scan"}, "name": "0b4c10f801ae11ed29d6eb429f955713", "is_reserved": 0}, {"is_disabled": 0, "fusion_lon": 0.0, "fusion_lat": 0.0, "lat": 38.812645333333336, "type": "electric_bike", "lon": -77.06179016666667, "bike_id": "deb40f46054dbb16d19aa6764662f26c", "rental_uris": {"android": "https://dc.lft.to/lastmile_qr_scan", "ios": "https://dc.lft.to/lastmile_qr_scan"}, "name": "deb40f46054dbb16d19aa6764662f26c", "is_reserved": 0}, {"is_disabled": 0, "fusion_lon": 0.0, "fusion_lat": 0.0, "lat": 38.839351, "type": "electric_bike", "lon": -77.07904366666666, "bike_id": "6c2a3c6e59ff29126bb2ea08812f5c7c", "rental_uris": {"android": "https://dc.lft.to/lastmile_qr_scan", "ios": "https://dc.lft.to/lastmile_qr_scan"}, "name": "6c2a3c6e59ff29126bb2ea08812f5c7c", "is_reserved": 0}, {"is_disabled": 0, "fusion_lon": 0.0, "fusion_lat": 0.0, "lat": 38.918259666666664, "type": "electric_scooter", "lon": -77.03172483333333, "bike_id": "37a957f55e13cae1609ab37b1be44dbc", "rental_uris": {"android": "https://dc.lft.to/lastmile_qr_scan", "ios": "https://dc.lft.to/lastmile_qr_scan"}, "name": "37a957f55e13cae1609ab37b1be44dbc", "is_reserved": 0}, {"is_disabled": 0, "fusion_lon": 0.0, "fusion_lat": 0.0, "lat": 38.90381566666667, "type": "electric_scooter", "lon": -77.040622, "bike_id": "45feadefeaf7f6ede947f96a4258dfb0", "rental_uris": {"android": "https://dc.lft.to/lastmile_qr_scan", "ios": "https://dc.lft.to/lastmile_qr_scan"}, "name": "45feadefeaf7f6ede947f96a4258dfb0", "is_reserved": 0}, {"is_disabled": 0, "fusion_lon": 0.0, "fusion_lat": 0.0, "lat": 38.9176005, "type": "electric_scooter", "lon": -77.02801483333333, "bike_id": "4b5594f39242143ca88eb02cd585d3db", "rental_uris": {"android": "https://dc.lft.to/lastmile_qr_scan", "ios": "https://dc.lft.to/lastmile_qr_scan"}, "name": "4b5594f39242143ca88eb02cd585d3db", "is_reserved": 0}, {"is_disabled": 0, "fusion_lon": 0.0, "fusion_lat": 0.0, "lat": 38.9205105, "type": "electric_scooter", "lon": -77.026093, "bike_id": "31289dae2d5034048dfec2e80dee8fbd", "rental_uris": {"android": "https://dc.lft.to/lastmile_qr_scan", "ios": "https://dc.lft.to/lastmile_qr_scan"}, "name": "31289dae2d5034048dfec2e80dee8fbd", "is_reserved": 0}, {"is_disabled": 0, "fusion_lon": 0.0, "fusion_lat": 0.0, "lat": 38.90837783333333, "type": "electric_scooter", "lon": -76.99694033333333, "bike_id": "5c0515b98785e7319d3115e659bae82f", "rental_uris": {"android": "https://dc.lft.to/lastmile_qr_scan", "ios": "https://dc.lft.to/lastmile_qr_scan"}, "name": "5c0515b98785e7319d3115e659bae82f", "is_reserved": 0}, {"is_disabled": 0, "fusion_lon": 0.0, "fusion_lat": 0.0, "lat": 38.90220083333333, "type": "electric_scooter", "lon": -77.023682, "bike_id": "5b228c5f084bc9f8300e8039d56a3b03", "rental_uris": {"android": "https://dc.lft.to/lastmile_qr_scan", "ios": "https://dc.lft.to/lastmile_qr_scan"}, "name": "5b228c5f084bc9f8300e8039d56a3b03", "is_reserved": 0}, {"is_disabled": 0, "fusion_lon": 0.0, "fusion_lat": 0.0, "lat": 38.90558266666667, "type": "electric_scooter", "lon": -77.033484, "bike_id": "2f7195cbc9df488899d819bf1c64a5c2", "rental_uris": {"android": "https://dc.lft.to/lastmile_qr_scan", "ios": "https://dc.lft.to/lastmile_qr_scan"}, "name": "2f7195cbc9df488899d819bf1c64a5c2", "is_reserved": 0}, {"is_disabled": 0, "fusion_lon": 0.0, "fusion_lat": 0.0, "lat": 38.903588666666664, "type": "electric_scooter", "lon": -77.0627125, "bike_id": "06260385020fcfa84e39cd773756e4e2", "rental_uris": {"android": "https://dc.lft.to/lastmile_qr_scan", "ios": "https://dc.lft.to/lastmile_qr_scan"}, "name": "06260385020fcfa84e39cd773756e4e2", "is_reserved": 0}, {"is_disabled": 0, "fusion_lon": 0.0, "fusion_lat": 0.0, "lat": 38.91858533333333, "type": "electric_scooter", "lon": -77.04180666666667, "bike_id": "2f9fed42cf071fd04378d11e3fd8ec74", "rental_uris": {"android": "https://dc.lft.to/lastmile_qr_scan", "ios": "https://dc.lft.to/lastmile_qr_scan"}, "name": "2f9fed42cf071fd04378d11e3fd8ec74", "is_reserved": 0}, {"is_disabled": 0, "fusion_lon": 0.0, "fusion_lat": 0.0, "lat": 38.91828816666667, "type": "electric_scooter", "lon": -77.0121, "bike_id": "6c89aa5d989d7789e65a661e17d63aaf", "rental_uris": {"android": "https://dc.lft.to/lastmile_qr_scan", "ios": "https://dc.lft.to/lastmile_qr_scan"}, "name": "6c89aa5d989d7789e65a661e17d63aaf", "is_reserved": 0}, {"is_disabled": 0, "fusion_lon": 0.0, "fusion_lat": 0.0, "lat": 38.845183, "type": "electric_bike", "lon": -77.07797866666667, "bike_id": "2201b74060ae0995c952ae8dcf456ed9", "rental_uris": {"android": "https://dc.lft.to/lastmile_qr_scan", "ios": "https://dc.lft.to/lastmile_qr_scan"}, "name": "2201b74060ae0995c952ae8dcf456ed9", "is_reserved": 0}, {"is_disabled": 0, "fusion_lon": 0.0, "fusion_lat": 0.0, "lat": 38.90142616666667, "type": "electric_scooter", "lon": -77.01778466666667, "bike_id": "f9b36cac3e4c57a60c9799071b09d7c7", "rental_uris": {"android": "https://dc.lft.to/lastmile_qr_scan", "ios": "https://dc.lft.to/lastmile_qr_scan"}, "name": "f9b36cac3e4c57a60c9799071b09d7c7", "is_reserved": 0}, {"is_disabled": 0, "fusion_lon": 0.0, "fusion_lat": 0.0, "lat": 38.92472083333333, "type": "electric_scooter", "lon": -77.02986833333334, "bike_id": "6938043c397b4b5cabe80f516b4ef5d7", "rental_uris": {"android": "https://dc.lft.to/lastmile_qr_scan", "ios": "https://dc.lft.to/lastmile_qr_scan"}, "name": "6938043c397b4b5cabe80f516b4ef5d7", "is_reserved": 0}, {"is_disabled": 0, "fusion_lon": 0.0, "fusion_lat": 0.0, "lat": 38.89845866666667, "type": "electric_scooter", "lon": -76.94493283333334, "bike_id": "3554de210a9deb43cc6a8f779dcdc244", "rental_uris": {"android": "https://dc.lft.to/lastmile_qr_scan", "ios": "https://dc.lft.to/lastmile_qr_scan"}, "name": "3554de210a9deb43cc6a8f779dcdc244", "is_reserved": 0}, {"is_disabled": 0, "fusion_lon": 0.0, "fusion_lat": 0.0, "lat": 38.890463833333335, "type": "electric_scooter", "lon": -76.93754416666667, "bike_id": "541a190a2c385641e13caf4a973dfcf0", "rental_uris": {"android": "https://dc.lft.to/lastmile_qr_scan", "ios": "https://dc.lft.to/lastmile_qr_scan"}, "name": "541a190a2c385641e13caf4a973dfcf0", "is_reserved": 0}, {"is_disabled": 0, "fusion_lon": 0.0, "fusion_lat": 0.0, "lat": 38.90070866666667, "type": "electric_scooter", "lon": -77.01341883333333, "bike_id": "a2af0003ea3c9317f2067c7a51b3e525", "rental_uris": {"android": "https://dc.lft.to/lastmile_qr_scan", "ios": "https://dc.lft.to/lastmile_qr_scan"}, "name": "a2af0003ea3c9317f2067c7a51b3e525", "is_reserved": 0}, {"is_disabled": 0, "fusion_lon": 0.0, "fusion_lat": 0.0, "lat": 38.960521166666666, "type": "electric_scooter", "lon": -77.08572133333334, "bike_id": "8a77d8be5abe2c51911a45f0ff6342e3", "rental_uris": {"android": "https://dc.lft.to/lastmile_qr_scan", "ios": "https://dc.lft.to/lastmile_qr_scan"}, "name": "8a77d8be5abe2c51911a45f0ff6342e3", "is_reserved": 0}, {"is_disabled": 0, "fusion_lon": 0.0, "fusion_lat": 0.0, "lat": 38.93135766666666, "type": "electric_scooter", "lon": -77.02198316666667, "bike_id": "b760a067b91fc866bb1586f17e727ea8", "rental_uris": {"android": "https://dc.lft.to/lastmile_qr_scan", "ios": "https://dc.lft.to/lastmile_qr_scan"}, "name": "b760a067b91fc866bb1586f17e727ea8", "is_reserved": 0}, {"is_disabled": 0, "fusion_lon": 0.0, "fusion_lat": 0.0, "lat": 38.893306833333334, "type": "electric_scooter", "lon": -77.021254, "bike_id": "3ebfac66fdc37b33866d9ed08c51326f", "rental_uris": {"android": "https://dc.lft.to/lastmile_qr_scan", "ios": "https://dc.lft.to/lastmile_qr_scan"}, "name": "3ebfac66fdc37b33866d9ed08c51326f", "is_reserved": 0}, {"is_disabled": 0, "fusion_lon": 0.0, "fusion_lat": 0.0, "lat": 38.9060335, "type": "electric_scooter", "lon": -77.01629666666666, "bike_id": "0735efc67de91b4ad013b0e69ea434bf", "rental_uris": {"android": "https://dc.lft.to/lastmile_qr_scan", "ios": "https://dc.lft.to/lastmile_qr_scan"}, "name": "0735efc67de91b4ad013b0e69ea434bf", "is_reserved": 0}, {"is_disabled": 0, "fusion_lon": 0.0, "fusion_lat": 0.0, "lat": 38.9419115, "type": "electric_scooter", "lon": -77.042609, "bike_id": "b80a7bb9ca06be29d12d791daa475f24", "rental_uris": {"android": "https://dc.lft.to/lastmile_qr_scan", "ios": "https://dc.lft.to/lastmile_qr_scan"}, "name": "b80a7bb9ca06be29d12d791daa475f24", "is_reserved": 0}, {"is_disabled": 0, "fusion_lon": 0.0, "fusion_lat": 0.0, "lat": 38.92309, "type": "electric_scooter", "lon": -77.03924416666666, "bike_id": "95f325a60e423d3981c2f8a9a0d2154d", "rental_uris": {"android": "https://dc.lft.to/lastmile_qr_scan", "ios": "https://dc.lft.to/lastmile_qr_scan"}, "name": "95f325a60e423d3981c2f8a9a0d2154d", "is_reserved": 0}, {"is_disabled": 0, "fusion_lon": 0.0, "fusion_lat": 0.0, "lat": 38.9354215, "type": "electric_scooter", "lon": -77.034202, "bike_id": "0bc3ca198bb34d4759074d1116dd48c3", "rental_uris": {"android": "https://dc.lft.to/lastmile_qr_scan", "ios": "https://dc.lft.to/lastmile_qr_scan"}, "name": "0bc3ca198bb34d4759074d1116dd48c3", "is_reserved": 0}, {"is_disabled": 0, "fusion_lon": 0.0, "fusion_lat": 0.0, "lat": 39.02295016666667, "type": "electric_bike", "lon": -77.0210005, "bike_id": "c7a773476e712cacc2c5e41ed19997b3", "rental_uris": {"android": "https://dc.lft.to/lastmile_qr_scan", "ios": "https://dc.lft.to/lastmile_qr_scan"}, "name": "c7a773476e712cacc2c5e41ed19997b3", "is_reserved": 0}, {"is_disabled": 0, "fusion_lon": 0.0, "fusion_lat": 0.0, "lat": 38.897615, "type": "electric_scooter", "lon": -77.05163, "bike_id": "d17490f73155960af62e88cda94a53f6", "rental_uris": {"android": "https://dc.lft.to/lastmile_qr_scan", "ios": "https://dc.lft.to/lastmile_qr_scan"}, "name": "d17490f73155960af62e88cda94a53f6", "is_reserved": 0}, {"is_disabled": 0, "fusion_lon": 0.0, "fusion_lat": 0.0, "lat": 38.91045583333333, "type": "electric_scooter", "lon": -77.04345883333333, "bike_id": "2dc6680745b6f72c5929eda5b5e546a9", "rental_uris": {"android": "https://dc.lft.to/lastmile_qr_scan", "ios": "https://dc.lft.to/lastmile_qr_scan"}, "name": "2dc6680745b6f72c5929eda5b5e546a9", "is_reserved": 0}, {"is_disabled": 0, "fusion_lon": 0.0, "fusion_lat": 0.0, "lat": 38.90969583333333, "type": "electric_scooter", "lon": -77.02176666666666, "bike_id": "52303bef8f7db46e3a14413d29291dcb", "rental_uris": {"android": "https://dc.lft.to/lastmile_qr_scan", "ios": "https://dc.lft.to/lastmile_qr_scan"}, "name": "52303bef8f7db46e3a14413d29291dcb", "is_reserved": 0}, {"is_disabled": 0, "fusion_lon": 0.0, "fusion_lat": 0.0, "lat": 38.9179605, "type": "electric_scooter", "lon": -77.03190816666667, "bike_id": "e4c0ceacd980fc93477f5c8428464476", "rental_uris": {"android": "https://dc.lft.to/lastmile_qr_scan", "ios": "https://dc.lft.to/lastmile_qr_scan"}, "name": "e4c0ceacd980fc93477f5c8428464476", "is_reserved": 0}, {"is_disabled": 0, "fusion_lon": 0.0, "fusion_lat": 0.0, "lat": 38.905507166666666, "type": "electric_scooter", "lon": -77.0073365, "bike_id": "fafbb3477f3ffbfcb281056d6b2f935a", "rental_uris": {"android": "https://dc.lft.to/lastmile_qr_scan", "ios": "https://dc.lft.to/lastmile_qr_scan"}, "name": "fafbb3477f3ffbfcb281056d6b2f935a", "is_reserved": 0}, {"is_disabled": 0, "fusion_lon": 0.0, "fusion_lat": 0.0, "lat": 38.928173, "type": "electric_scooter", "lon": -77.03628383333333, "bike_id": "e47cfa29505b8bb70cc749aea0b1290b", "rental_uris": {"android": "https://dc.lft.to/lastmile_qr_scan", "ios": "https://dc.lft.to/lastmile_qr_scan"}, "name": "e47cfa29505b8bb70cc749aea0b1290b", "is_reserved": 0}, {"is_disabled": 0, "fusion_lon": 0.0, "fusion_lat": 0.0, "lat": 38.919942666666664, "type": "electric_scooter", "lon": -77.03269183333333, "bike_id": "c32b02216e60463c8933a71ba3010046", "rental_uris": {"android": "https://dc.lft.to/lastmile_qr_scan", "ios": "https://dc.lft.to/lastmile_qr_scan"}, "name": "c32b02216e60463c8933a71ba3010046", "is_reserved": 0}, {"is_disabled": 0, "fusion_lon": 0.0, "fusion_lat": 0.0, "lat": 38.879379666666665, "type": "electric_bike", "lon": -77.01465566666667, "bike_id": "afcc07e2bece6c132761a205efaf1105", "rental_uris": {"android": "https://dc.lft.to/lastmile_qr_scan", "ios": "https://dc.lft.to/lastmile_qr_scan"}, "name": "afcc07e2bece6c132761a205efaf1105", "is_reserved": 0}, {"is_disabled": 0, "fusion_lon": 0.0, "fusion_lat": 0.0, "lat": 38.9329085, "type": "electric_scooter", "lon": -77.02453233333334, "bike_id": "02913f56948d92390acb488c581e8a36", "rental_uris": {"android": "https://dc.lft.to/lastmile_qr_scan", "ios": "https://dc.lft.to/lastmile_qr_scan"}, "name": "02913f56948d92390acb488c581e8a36", "is_reserved": 0}, {"is_disabled": 0, "fusion_lon": 0.0, "fusion_lat": 0.0, "lat": 38.85067633333333, "type": "electric_bike", "lon": -76.9732995, "bike_id": "c02b4c71953a370ba32d35488acf102f", "rental_uris": {"android": "https://dc.lft.to/lastmile_qr_scan", "ios": "https://dc.lft.to/lastmile_qr_scan"}, "name": "c02b4c71953a370ba32d35488acf102f", "is_reserved": 0}, {"is_disabled": 0, "fusion_lon": 0.0, "fusion_lat": 0.0, "lat": 38.928496, "type": "electric_bike", "lon": -77.02062133333334, "bike_id": "eec3517c4b2e05d629be8c1a3fa272a9", "rental_uris": {"android": "https://dc.lft.to/lastmile_qr_scan", "ios": "https://dc.lft.to/lastmile_qr_scan"}, "name": "eec3517c4b2e05d629be8c1a3fa272a9", "is_reserved": 0}, {"is_disabled": 0, "fusion_lon": 0.0, "fusion_lat": 0.0, "lat": 38.913874666666665, "type": "electric_scooter", "lon": -77.0386405, "bike_id": "978e455ffe6a270efb901244553b1ec0", "rental_uris": {"android": "https://dc.lft.to/lastmile_qr_scan", "ios": "https://dc.lft.to/lastmile_qr_scan"}, "name": "978e455ffe6a270efb901244553b1ec0", "is_reserved": 0}, {"is_disabled": 0, "fusion_lon": 0.0, "fusion_lat": 0.0, "lat": 38.90669316666666, "type": "electric_scooter", "lon": -77.02712033333333, "bike_id": "99fd04af77cd188038d106a14322f777", "rental_uris": {"android": "https://dc.lft.to/lastmile_qr_scan", "ios": "https://dc.lft.to/lastmile_qr_scan"}, "name": "99fd04af77cd188038d106a14322f777", "is_reserved": 0}, {"is_disabled": 0, "fusion_lon": 0.0, "fusion_lat": 0.0, "lat": 38.9073565, "type": "electric_scooter", "lon": -77.0318075, "bike_id": "a70f5c67067dff5a584d59da65ebe3e5", "rental_uris": {"android": "https://dc.lft.to/lastmile_qr_scan", "ios": "https://dc.lft.to/lastmile_qr_scan"}, "name": "a70f5c67067dff5a584d59da65ebe3e5", "is_reserved": 0}, {"is_disabled": 0, "fusion_lon": 0.0, "fusion_lat": 0.0, "lat": 38.95204016666667, "type": "electric_bike", "lon": -77.02369133333333, "bike_id": "92d6b3816a0f0d8ab48799b556b54326", "rental_uris": {"android": "https://dc.lft.to/lastmile_qr_scan", "ios": "https://dc.lft.to/lastmile_qr_scan"}, "name": "92d6b3816a0f0d8ab48799b556b54326", "is_reserved": 0}, {"is_disabled": 0, "fusion_lon": 0.0, "fusion_lat": 0.0, "lat": 38.8812455, "type": "electric_scooter", "lon": -76.9959815, "bike_id": "f1a631306275c342ab445c14673238a5", "rental_uris": {"android": "https://dc.lft.to/lastmile_qr_scan", "ios": "https://dc.lft.to/lastmile_qr_scan"}, "name": "f1a631306275c342ab445c14673238a5", "is_reserved": 0},