{"data": {"bikes": [{"lon": -76.99003983333333, "name": "3d83b077903d4a08e17b27210776556f", "is_disabled": 0, "type": "electric_scooter", "is_reserved": 0, "fusion_lon": 0.0, "lat": 38.9039585, "rental_uris": {"ios": "https://dc.lft.to/lastmile_qr_scan", "android": "https://dc.lft.to/lastmile_qr_scan"}, "bike_id": "3d83b077903d4a08e17b27210776556f", "fusion_lat": 0.0}, {"lon": -77.04714583333333, "name": "c56f3186b67d428bae90e2a419e77d3f", "is_disabled": 0, "type": "electric_scooter", "is_reserved": 0, "fusion_lon": 0.0, "lat": 38.899697333333336, "rental_uris": {"ios": "https://dc.lft.to/lastmile_qr_scan", "android": "https://dc.lft.to/lastmile_qr_scan"}, "bike_id": "c56f3186b67d428bae90e2a419e77d3f", "fusion_lat": 0.0}, {"lon": -77.023672, "name": "9510798023a9914f6a545d13b66ad4e9", "is_disabled": 0, "type": "electric_scooter", "is_reserved": 0, "fusion_lon": 0.0, "lat": 38.94740016666667, "rental_uris": {"ios": "https://dc.lft.to/lastmile_qr_scan", "android": "https://dc.lft.to/lastmile_qr_scan"}, "bike_id": "9510798023a9914f6a545d13b66ad4e9", "fusion_lat": 0.0}, {"lon": -77.02798233333333, "name": "c40c70dbe951e98ad6271281b5663d19", "is_disabled": 0, "type": "electric_scooter", "is_reserved": 0, "fusion_lon": 0.0, "lat": 38.9308105, "rental_uris": {"ios": "https://dc.lft.to/lastmile_qr_scan", "android": "https://dc.lft.to/lastmile_qr_scan"}, "bike_id": "c40c70dbe951e98ad6271281b5663d19", "fusion_lat": 0.0}, {"lon": -77.04019966666667, "name": "d65c623348c99194325734d8bdff6a98", "is_disabled": 0, "type": "electric_scooter", "is_reserved": 0, "fusion_lon": 0.0, "lat": 38.92167933333333, "rental_uris": {"ios": "https://dc.lft.to/lastmile_qr_scan", "android": "https://dc.lft.to/lastmile_qr_scan"}, "bike_id": "d65c623348c99194325734d8bdff6a98", "fusion_lat": 0.0}, {"lon": -77.0414415, "name": "cd7e4c86d0c00fa4c81e376cf108d8bb", "is_disabled": 0, "type": "electric_scooter", "is_reserved": 0, "fusion_lon": 0.0, "lat": 38.900568666666665, "rental_uris": {"ios": "https://dc.lft.to/lastmile_qr_scan", "android": "https://dc.lft.to/lastmile_qr_scan"}, "bike_id": "cd7e4c86d0c00fa4c81e376cf108d8bb", "fusion_lat": 0.0}, {"lon": -77.008934, "name": "8a87141eb410fee1a31ec95130edf0f7", "is_disabled": 0, "type": "electric_scooter", "is_reserved": 0, "fusion_lon": 0.0, "lat": 38.909547333333336, "rental_uris": {"ios": "https://dc.lft.to/lastmile_qr_scan", "android": "https://dc.lft.to/lastmile_qr_scan"}, "bike_id": "8a87141eb410fee1a31ec95130edf0f7", "fusion_lat": 0.0}, {"lon": -76.99018166666667, "name": "b97354c7dc3bd9dce44fe2ff456ea8d7", "is_disabled": 0, "type": "electric_scooter", "is_reserved": 0, "fusion_lon": 0.0, "lat": 38.86516066666667, "rental_uris": {"ios": "https://dc.lft.to/lastmile_qr_scan", "android": "https://dc.lft.to/lastmile_qr_scan"}, "bike_id": "b97354c7dc3bd9dce44fe2ff456ea8d7", "fusion_lat": 0.0}, {"lon": -77.03584966666666, "name": "3c7ab17b2a3732f86fcdbe99e9ffe91d", "is_disabled": 0, "type": "electric_bike", "is_reserved": 0, "fusion_lon": 0.0, "lat": 38.992254833333334, "rental_uris": {"ios": "https://dc.lft.to/lastmile_qr_scan", "android": "https://dc.lft.to/lastmile_qr_scan"}, "bike_id": "3c7ab17b2a3732f86fcdbe99e9ffe91d", "fusion_lat": 0.0}, {"lon": -77.02746866666666, "name": "ba881891cc75583b3ce643124ebcf027", "is_disabled": 0, "type": "electric_scooter", "is_reserved": 0, "fusion_lon": 0.0, "lat": 38.9664935, "rental_uris": {"ios": "https://dc.lft.to/lastmile_qr_scan", "android": "https://dc.lft.to/lastmile_qr_scan"}, "bike_id": "ba881891cc75583b3ce643124ebcf027", "fusion_lat": 0.0}, {"lon": -77.03290466666667, "name": "fdf4e0d131798ec149795be983e988de", "is_disabled": 0, "type": "electric_scooter", "is_reserved": 0, "fusion_lon": 0.0, "lat": 38.9204935, "rental_uris": {"ios": "https://dc.lft.to/lastmile_qr_scan", "android": "https://dc.lft.to/lastmile_qr_scan"}, "bike_id": "fdf4e0d131798ec149795be983e988de", "fusion_lat": 0.0}, {"lon": -77.02365516666667, "name": "ad986627d2f5339dcd0cdbd21e767a9b", "is_disabled": 0, "type": "electric_scooter", "is_reserved": 0, "fusion_lon": 0.0, "lat": 38.90872, "rental_uris": {"ios": "https://dc.lft.to/lastmile_qr_scan", "android": "https://dc.lft.to/lastmile_qr_scan"}, "bike_id": "ad986627d2f5339dcd0cdbd21e767a9b", "fusion_lat": 0.0}, {"lon": -77.00375166666667, "name": "3edf7f33574913e1f0786db2531bde41", "is_disabled": 0, "type": "electric_bike", "is_reserved": 0, "fusion_lon": 0.0, "lat": 38.836067, "rental_uris": {"ios": "https://dc.lft.to/lastmile_qr_scan", "android": "https://dc.lft.to/lastmile_qr_scan"}, "bike_id": "3edf7f33574913e1f0786db2531bde41", "fusion_lat": 0.0}, {"lon": -76.99889483333334, "name": "7967165aacd077d348867a905d91dd8c", "is_disabled": 0, "type": "electric_scooter", "is_reserved": 0, "fusion_lon": 0.0, "lat": 38.90901233333334, "rental_uris": {"ios": "https://dc.lft.to/lastmile_qr_scan", "android": "https://dc.lft.to/lastmile_qr_scan"}, "bike_id": "7967165aacd077d348867a905d91dd8c", "fusion_lat": 0.0}, {"lon": -77.01374, "name": "bf3ff771cf9211e670807026062b3b78", "is_disabled": 0, "type": "electric_scooter", "is_reserved": 0, "fusion_lon": 0.0, "lat": 38.9103515, "rental_uris": {"ios": "https://dc.lft.to/lastmile_qr_scan", "android": "https://dc.lft.to/lastmile_qr_scan"}, "bike_id": "bf3ff771cf9211e670807026062b3b78", "fusion_lat": 0.0}, {"lon": -77.04006483333333, "name": "41c8a9ce0a1a3b49a8b770b91dd75c57", "is_disabled": 0, "type": "electric_scooter", "is_reserved": 0, "fusion_lon": 0.0, "lat": 38.909991166666664, "rental_uris": {"ios": "https://dc.lft.to/lastmile_qr_scan", "android": "https://dc.lft.to/lastmile_qr_scan"}, "bike_id": "41c8a9ce0a1a3b49a8b770b91dd75c57", "fusion_lat": 0.0}, {"lon": -77.0391015, "name": "081d62de25e69f5ad1c31190ccb76154", "is_disabled": 0, "type": "electric_scooter", "is_reserved": 0, "fusion_lon": 0.0, "lat": 38.898568166666664, "rental_uris": {"ios": "https://dc.lft.to/lastmile_qr_scan", "android": "https://dc.lft.to/lastmile_qr_scan"}, "bike_id": "081d62de25e69f5ad1c31190ccb76154", "fusion_lat": 0.0}, {"lon": -77.03195916666667, "name": "dcfdabc9365d2b066328c8b0fede5afe", "is_disabled": 0, "type": "electric_scooter", "is_reserved": 0, "fusion_lon": 0.0, "lat": 38.892390666666664, "rental_uris": {"ios": "https://dc.lft.to/lastmile_qr_scan", "android": "https://dc.lft.to/lastmile_qr_scan"}, "bike_id": "dcfdabc9365d2b066328c8b0fede5afe", "fusion_lat": 0.0}, {"lon": -77.03666833333334, "name": "de76039ae125f0a3643ae63e7d69dbc5", "is_disabled": 0, "type": "electric_scooter", "is_reserved": 0, "fusion_lon": 0.0, "lat": 38.9320875, "rental_uris": {"ios": "https://dc.lft.to/lastmile_qr_scan", "android": "https://dc.lft.to/lastmile_qr_scan"}, "bike_id": "de76039ae125f0a3643ae63e7d69dbc5", "fusion_lat": 0.0}, {"lon": -77.04031583333334, "name": "6a2819ce4d9d906dd9cf99e1a0791405", "is_disabled": 0, "type": "electric_scooter", "is_reserved": 0, "fusion_lon": 0.0, "lat": 38.90367883333333, "rental_uris": {"ios": "https://dc.lft.to/lastmile_qr_scan", "android": "https://dc.lft.to/lastmile_qr_scan"}, "bike_id": "6a2819ce4d9d906dd9cf99e1a0791405", "fusion_lat": 0.0}, {"lon": -77.09051316666667, "name": "126ef06a2b2b892c7bdfc0255acc3853", "is_disabled": 0, "type": "electric_scooter", "is_reserved": 0, "fusion_lon": 0.0, "lat": 38.9176015, "rental_uris": {"ios": "https://dc.lft.to/lastmile_qr_scan", "android": "https://dc.lft.to/lastmile_qr_scan"}, "bike_id": "126ef06a2b2b892c7bdfc0255acc3853", "fusion_lat": 0.0}, {"lon": -76.9773685, "name": "74841b0b1a364f2b24f315db0ebbe14d", "is_disabled": 0, "type": "electric_bike", "is_reserved": 0, "fusion_lon": 0.0, "lat": 38.86488033333333, "rental_uris": {"ios": "https://dc.lft.to/lastmile_qr_scan", "android": "https://dc.lft.to/lastmile_qr_scan"}, "bike_id": "74841b0b1a364f2b24f315db0ebbe14d", "fusion_lat": 0.0}, {"lon": -77.02204866666666, "name": "46d3e7a65368b5f8c671280dc832d23f", "is_disabled": 0, "type": "electric_scooter", "is_reserved": 0, "fusion_lon": 0.0, "lat": 38.9057705, "rental_uris": {"ios": "https://dc.lft.to/lastmile_qr_scan", "android": "https://dc.lft.to/lastmile_qr_scan"}, "bike_id": "46d3e7a65368b5f8c671280dc832d23f", "fusion_lat": 0.0}, {"lon": -76.9915245, "name": "b6bfcefeb52ccde8973af163331642b4", "is_disabled": 0, "type": "electric_scooter", "is_reserved": 0, "fusion_lon": 0.0, "lat": 38.891644166666666, "rental_uris": {"ios": "https://dc.lft.to/lastmile_qr_scan", "android": "https://dc.lft.to/lastmile_qr_scan"}, "bike_id": "b6bfcefeb52ccde8973af163331642b4", "fusion_lat": 0.0}, {"lon": -77.04621066666667, "name": "c2be2668ad2526d2e647d1f27d4f23f6", "is_disabled": 0, "type": "electric_scooter", "is_reserved": 0, "fusion_lon": 0.0, "lat": 38.9161625, "rental_uris": {"ios": "https://dc.lft.to/lastmile_qr_scan", "android": "https://dc.lft.to/lastmile_qr_scan"}, "bike_id": "c2be2668ad2526d2e647d1f27d4f23f6", "fusion_lat": 0.0}, {"lon": -77.018366, "name": "ee04131689a5c5b00899699e8a4e2c07", "is_disabled": 0, "type": "electric_scooter", "is_reserved": 0, "fusion_lon": 0.0, "lat": 38.9086715, "rental_uris": {"ios": "https://dc.lft.to/lastmile_qr_scan", "android": "https://dc.lft.to/lastmile_qr_scan"}, "bike_id": "ee04131689a5c5b00899699e8a4e2c07", "fusion_lat": 0.0}, {"lon": -77.0014295, "name": "eee82e236c02796b4b2a2e5e3117a801", "is_disabled": 0, "type": "electric_scooter", "is_reserved": 0, "fusion_lon": 0.0, "lat": 38.88433216666667, "rental_uris": {"ios": "https://dc.lft.to/lastmile_qr_scan", "android": "https://dc.lft.to/lastmile_qr_scan"}, "bike_id": "eee82e236c02796b4b2a2e5e3117a801", "fusion_lat": 0.0}, {"lon": -76.98095083333334, "name": "b3c21ede1fba969dd5874f423f43bbeb", "is_disabled": 0, "type": "electric_bike", "is_reserved": 0, "fusion_lon": 0.0, "lat": 38.953572666666666, "rental_uris": {"ios": "https://dc.lft.to/lastmile_qr_scan", "android": "https://dc.lft.to/lastmile_qr_scan"}, "bike_id": "b3c21ede1fba969dd5874f423f43bbeb", "fusion_lat": 0.0}, {"lon": -77.05738166666667, "name": "693729c952e20024f58dc210cd627951", "is_disabled": 0, "type": "electric_scooter", "is_reserved": 0, "fusion_lon": 0.0, "lat": 38.93339616666667, "rental_uris": {"ios": "https://dc.lft.to/lastmile_qr_scan", "android": "https://dc.lft.to/lastmile_qr_scan"}, "bike_id": "693729c952e20024f58dc210cd627951", "fusion_lat": 0.0}, {"lon": -77.01849933333334, "name": "ecf62d80e324f7b7695423204de25130", "is_disabled": 0, "type": "electric_scooter", "is_reserved": 0, "fusion_lon": 0.0, "lat": 38.87456483333333, "rental_uris": {"ios": "https://dc.lft.to/lastmile_qr_scan", "android": "https://dc.lft.to/lastmile_qr_scan"}, "bike_id": "ecf62d80e324f7b7695423204de25130", "fusion_lat": 0.0}, {"lon": -76.99282833333334, "name": "f2760c176f81bf851c37727bf04f6170", "is_disabled": 0, "type": "electric_scooter", "is_reserved": 0, "fusion_lon": 0.0, "lat": 38.904183, "rental_uris": {"ios": "https://dc.lft.to/lastmile_qr_scan", "android": "https://dc.lft.to/lastmile_qr_scan"}, "bike_id": "f2760c176f81bf851c37727bf04f6170", "fusion_lat": 0.0}, {"lon": -77.01856716666667, "name": "7b0d935706d249e9f444cd50a6dd6223", "is_disabled": 0, "type": "electric_scooter", "is_reserved": 0, "fusion_lon": 0.0, "lat": 38.94189316666667, "rental_uris": {"ios": "https://dc.lft.to/lastmile_qr_scan", "android": "https://dc.lft.to/lastmile_qr_scan"}, "bike_id": "7b0d935706d249e9f444cd50a6dd6223", "fusion_lat": 0.0}, {"lon": -77.034223, "name": "9354dd6557e082d4edfcedb35c735009", "is_disabled": 0, "type": "electric_scooter", "is_reserved": 0, "fusion_lon": 0.0, "lat": 38.919240333333335, "rental_uris": {"ios": "https://dc.lft.to/lastmile_qr_scan", "android": "https://dc.lft.to/lastmile_qr_scan"}, "bike_id": "9354dd6557e082d4edfcedb35c735009", "fusion_lat": 0.0}, {"lon": -77.06517166666667, "name": "c0a921c381cd589f7fe9d4f9ea3b2f08", "is_disabled": 0, "type": "electric_scooter", "is_reserved": 0, "fusion_lon": 0.0, "lat": 38.90393683333333, "rental_uris": {"ios": "https://dc.lft.to/lastmile_qr_scan", "android": "https://dc.lft.to/lastmile_qr_scan"}, "bike_id": "c0a921c381cd589f7fe9d4f9ea3b2f08", "fusion_lat": 0.0}, {"lon": -77.0336455, "name": "5820e7aa6c90b9dfa00a8b6944c5323d", "is_disabled": 0, "type": "electric_scooter", "is_reserved": 0, "fusion_lon": 0.0, "lat": 38.93773383333333, "rental_uris": {"ios": "https://dc.lft.to/lastmile_qr_scan", "android": "https://dc.lft.to/lastmile_qr_scan"}, "bike_id": "5820e7aa6c90b9dfa00a8b6944c5323d", "fusion_lat": 0.0}, {"lon": -77.0188765, "name": "7c67808a0ad98384b17e543a9b46fc1f", "is_disabled": 0, "type": "electric_scooter", "is_reserved": 0, "fusion_lon": 0.0, "lat": 38.914849333333336, "rental_uris": {"ios": "https://dc.lft.to/lastmile_qr_scan", "android": "https://dc.lft.to/lastmile_qr_scan"}, "bike_id": "7c67808a0ad98384b17e543a9b46fc1f", "fusion_lat": 0.0}, {"lon": -77.00944083333333, "name": "3ef8bebd2fd400c9dd7c0bb5dd2f4223", "is_disabled": 0, "type": "electric_scooter", "is_reserved": 0, "fusion_lon": 0.0, "lat": 38.915651833333335, "rental_uris": {"ios": "https://dc.lft.to/lastmile_qr_scan", "android": "https://dc.lft.to/lastmile_qr_scan"}, "bike_id": "3ef8bebd2fd400c9dd7c0bb5dd2f4223", "fusion_lat": 0.0}, {"lon": -77.03381716666667, "name": "a24f7fae18f16242500076053db846c0", "is_disabled": 0, "type": "electric_scooter", "is_reserved": 0, "fusion_lon": 0.0, "lat": 38.921596666666666, "rental_uris": {"ios": "https://dc.lft.to/lastmile_qr_scan", "android": "https://dc.lft.to/lastmile_qr_scan"}, "bike_id": "a24f7fae18f16242500076053db846c0", "fusion_lat": 0.0}, {"lon": -77.012969, "name": "6ca5b1551f605955445386e2713783a2", "is_disabled": 0, "type": "electric_scooter", "is_reserved": 0, "fusion_lon": 0.0, "lat": 38.90182083333333, "rental_uris": {"ios": "https://dc.lft.to/lastmile_qr_scan", "android": "https://dc.lft.to/lastmile_qr_scan"}, "bike_id": "6ca5b1551f605955445386e2713783a2", "fusion_lat": 0.0}, {"lon": -77.03205483333333, "name": "8a40de83497cba076d0bae67831fcc4b", "is_disabled": 0, "type": "electric_scooter", "is_reserved": 0, "fusion_lon": 0.0, "lat": 38.909969833333335, "rental_uris": {"ios": "https://dc.lft.to/lastmile_qr_scan", "android": "https://dc.lft.to/lastmile_qr_scan"}, "bike_id": "8a40de83497cba076d0bae67831fcc4b", "fusion_lat": 0.0}, {"lon": -77.01264583333334, "name": "d1b062873bcdf722599caad460f47444", "is_disabled": 0, "type": "electric_scooter", "is_reserved": 0, "fusion_lon": 0.0, "lat": 38.9154325, "rental_uris": {"ios": "https://dc.lft.to/lastmile_qr_scan", "android": "https://dc.lft.to/lastmile_qr_scan"}, "bike_id": "d1b062873bcdf722599caad460f47444", "fusion_lat": 0.0}, {"lon": -77.0021735, "name": "62b5494e9389b3cd90de6407c5ad4678", "is_disabled": 0, "type": "electric_scooter", "is_reserved": 0, "fusion_lon": 0.0, "lat": 38.9018975, "rental_uris": {"ios": "https://dc.lft.to/lastmile_qr_scan", "android": "https://dc.lft.to/lastmile_qr_scan"}, "bike_id": "62b5494e9389b3cd90de6407c5ad4678", "fusion_lat": 0.0}, {"lon": -77.04742866666666, "name": "bdb94ee299a948974d7eb192ece357af", "is_disabled": 0, "type": "electric_scooter", "is_reserved": 0, "fusion_lon": 0.0, "lat": 38.90045883333333, "rental_uris": {"ios": "https://dc.lft.to/lastmile_qr_scan", "android": "https://dc.lft.to/lastmile_qr_scan"}, "bike_id": "bdb94ee299a948974d7eb192ece357af", "fusion_lat": 0.0}, {"lon": -77.0335445, "name": "fd8f47c83aab0184c844fd523035e08f", "is_disabled": 0, "type": "electric_scooter", "is_reserved": 0, "fusion_lon": 0.0, "lat": 38.884778833333336, "rental_uris": {"ios": "https://dc.lft.to/lastmile_qr_scan", "android": "https://dc.lft.to/lastmile_qr_scan"}, "bike_id": "fd8f47c83aab0184c844fd523035e08f", "fusion_lat": 0.0}, {"lon": -77.02857783333333, "name": "8f383833c340ddd0a656b64876d1335b", "is_disabled": 0, "type": "electric_scooter", "is_reserved": 0, "fusion_lon": 0.0, "lat": 38.88877216666667, "rental_uris": {"ios": "https://dc.lft.to/lastmile_qr_scan", "android": "https://dc.lft.to/lastmile_qr_scan"}, "bike_id": "8f383833c340ddd0a656b64876d1335b", "fusion_lat": 0.0}, {"lon": -76.98686333333333, "name": "5c5a3f477a34afec465a3605c0ce540c", "is_disabled": 0, "type": "electric_bike", "is_reserved": 0, "fusion_lon": 0.0, "lat": 38.94472283333333, "rental_uris": {"ios": "https://dc.lft.to/lastmile_qr_scan", "android": "https://dc.lft.to/lastmile_qr_scan"}, "bike_id": "5c5a3f477a34afec465a3605c0ce540c", "fusion_lat": 0.0}, {"lon": -77.02452383333333, "name": "35c17108a9c687abf6557454752c5c91", "is_disabled": 0, "type": "electric_scooter", "is_reserved": 0, "fusion_lon": 0.0, "lat": 38.89386366666667, "rental_uris": {"ios": "https://dc.lft.to/lastmile_qr_scan", "android": "https://dc.lft.to/lastmile_qr_scan"}, "bike_id": "35c17108a9c687abf6557454752c5c91", "fusion_lat": 0.0}, {"lon": -76.99898383333333, "name": "20aaf6197df39f2cfe10b96eb4964ef5", "is_disabled": 0, "type": "electric_scooter", "is_reserved": 0, "fusion_lon": 0.0, "lat": 38.89095183333333, "rental_uris": {"ios": "https://dc.lft.to/lastmile_qr_scan", "android": "https://dc.lft.to/lastmile_qr_scan"}, "bike_id": "20aaf6197df39f2cfe10b96eb4964ef5", "fusion_lat": 0.0}, {"lon": -77.021059, "name": "84bf0433d9e129c64b21af0ecdeac799", "is_disabled": 0, "type": "electric_bike", "is_reserved": 0, "fusion_lon": 0.0, "lat": 39.0229815, "rental_uris": {"ios": "https://dc.lft.to/lastmile_qr_scan", "android": "https://dc.lft.to/lastmile_qr_scan"}, "bike_id": "84bf0433d9e129c64b21af0ecdeac799", "fusion_lat": 0.0}, {"lon": -77.0206505, "name": "42e065bd9e692ef8c2c2c2ee0826ac04", "is_disabled": 0, "type": "electric_scooter", "is_reserved": 0, "fusion_lon": 0.0, "lat": 38.92143466666667, "rental_uris": {"ios": "https://dc.lft.to/lastmile_qr_scan", "android": "https://dc.lft.to/lastmile_qr_scan"}, "bike_id": "42e065bd9e692ef8c2c2c2ee0826ac04", "fusion_lat": 0.0}, {"lon": -77.0944805, "name": "15e9cfbb697355aa0db6f7cdf4d23366", "is_disabled": 0, "type": "electric_bike", "is_reserved": 0, "fusion_lon": 0.0, "lat": 38.8942385, "rental_uris": {"ios": "https://dc.lft.to/lastmile_qr_scan", "android": "https://dc.lft.to/lastmile_qr_scan"}, "bike_id": "15e9cfbb697355aa0db6f7cdf4d23366", "fusion_lat": 0.0}, {"lon": -77.02427516666667, "name": "98e4128cb0942599fd2c645923b56768", "is_disabled": 0, "type": "electric_scooter", "is_reserved": 0, "fusion_lon": 0.0, "lat": 38.92076466666666, "rental_uris": {"ios": "https://dc.lft.to/lastmile_qr_scan", "android": "https://dc.lft.to/lastmile_qr_scan"}, "bike_id": "98e4128cb0942599fd2c645923b56768", "fusion_lat": 0.0}, {"lon": -76.98650716666667, "name": "2794733d11a1a48436d661fe49322df5", "is_disabled": 0, "type": "electric_bike", "is_reserved": 0, "fusion_lon": 0.0, "lat": 38.974791833333335, "rental_uris": {"ios": "https://dc.lft.to/lastmile_qr_scan", "android": "https://dc.lft.to/lastmile_qr_scan"}, "bike_id": "2794733d11a1a48436d661fe49322df5", "fusion_lat": 0.0}, {"lon": -77.06050766666667, "name": "cabc65ebb210fd5fdd8c7b915f574dfe", "is_disabled": 0, "type": "electric_scooter", "is_reserved": 0, "fusion_lon": 0.0, "lat": 38.93934016666667, "rental_uris": {"ios": "https://dc.lft.to/lastmile_qr_scan", "android": "https://dc.lft.to/lastmile_qr_scan"}, "bike_id": "cabc65ebb210fd5fdd8c7b915f574dfe", "fusion_lat": 0.0}, {"lon": -77.02317466666666, "name": "fa04e4cf883f9fdb44c60fbbd0901d5d", "is_disabled": 0, "type": "electric_scooter", "is_reserved": 0, "fusion_lon": 0.0, "lat": 38.91839683333333, "rental_uris": {"ios": "https://dc.lft.to/lastmile_qr_scan", "android": "https://dc.lft.to/lastmile_qr_scan"}, "bike_id": "fa04e4cf883f9fdb44c60fbbd0901d5d", "fusion_lat": 0.0}, {"lon": -77.03181466666666, "name": "07ae95fa7e0e4519709a893d87db851f", "is_disabled": 0, "type": "electric_scooter", "is_reserved": 0, "fusion_lon": 0.0, "lat": 38.916179166666666, "rental_uris": {"ios": "https://dc.lft.to/lastmile_qr_scan", "android": "https://dc.lft.to/lastmile_qr_scan"}, "bike_id": "07ae95fa7e0e4519709a893d87db851f", "fusion_lat": 0.0}, {"lon": -77.02894033333334, "name": "f259c699c5edf7d62d4c056aff50f2d1", "is_disabled": 0, "type": "electric_bike", "is_reserved": 0, "fusion_lon": 0.0, "lat": 38.94055383333333, "rental_uris": {"ios": "https://dc.lft.to/lastmile_qr_scan", "android": "https://dc.lft.to/lastmile_qr_scan"}, "bike_id": "f259c699c5edf7d62d4c056aff50f2d1", "fusion_lat": 0.0}, {"lon": -77.03222483333333, "name": "4bb1d4a0f7b6b9c45bc288f097e64933", "is_disabled": 0, "type": "electric_scooter", "is_reserved": 0, "fusion_lon": 0.0, "lat": 38.89223716666667, "rental_uris": {"ios": "https://dc.lft.to/lastmile_qr_scan", "android": "https://dc.lft.to/lastmile_qr_scan"}, "bike_id": "4bb1d4a0f7b6b9c45bc288f097e64933", "fusion_lat": 0.0}, {"lon": -77.03691183333333, "name": "ffee1c1708d175a348873f112462c6cc", "is_disabled": 0, "type": "electric_scooter", "is_reserved": 0, "fusion_lon": 0.0, "lat": 38.926359, "rental_uris": {"ios": "https://dc.lft.to/lastmile_qr_scan", "android": "https://dc.lft.to/lastmile_qr_scan"}, "bike_id": "ffee1c1708d175a348873f112462c6cc", "fusion_lat": 0.0}, {"lon": -76.9881985, "name": "e2b526fedda634091108aa6434c18b0a", "is_disabled": 0, "type": "electric_scooter", "is_reserved": 0, "fusion_lon": 0.0, "lat": 38.890791, "rental_uris": {"ios": "https://dc.lft.to/lastmile_qr_scan", "android": "https://dc.lft.to/lastmile_qr_scan"}, "bike_id": "e2b526fedda634091108aa6434c18b0a", "fusion_lat": 0.0}, {"lon": -77.018916, "name": "47b054678a00ac558806cdda7d4c1eaa", "is_disabled": 0, "type": "electric_scooter", "is_reserved": 0, "fusion_lon": 0.0, "lat": 38.919527333333335, "rental_uris": {"ios": "https://dc.lft.to/lastmile_qr_scan", "android": "https://dc.lft.to/lastmile_qr_scan"}, "bike_id": "47b054678a00ac558806cdda7d4c1eaa", "fusion_lat": 0.0}, {"lon": -77.022844, "name": "8edae82d742172c3618fe57e6047a8ce", "is_disabled": 0, "type": "electric_scooter", "is_reserved": 0, "fusion_lon": 0.0, "lat": 38.926597666666666, "rental_uris": {"ios": "https://dc.lft.to/lastmile_qr_scan", "android": "https://dc.lft.to/lastmile_qr_scan"}, "bike_id": "8edae82d742172c3618fe57e6047a8ce", "fusion_lat": 0.0}, {"lon": -76.93938616666667, "name": "41a7a3f03e7c271d80b0556d65e3908b", "is_disabled": 0, "type": "electric_scooter", "is_reserved": 0, "fusion_lon": 0.0, "lat": 38.908615166666664, "rental_uris": {"ios": "https://dc.lft.to/lastmile_qr_scan", "android": "https://dc.lft.to/lastmile_qr_scan"}, "bike_id": "41a7a3f03e7c271d80b0556d65e3908b", "fusion_lat": 0.0}, {"lon": -77.021923, "name": "006fff7d6fa03f5a2263d5947600e2da", "is_disabled": 0, "type": "electric_scooter", "is_reserved": 0, "fusion_lon": 0.0, "lat": 38.877997666666666, "rental_uris": {"ios": "https://dc.lft.to/lastmile_qr_scan", "android": "https://dc.lft.to/lastmile_qr_scan"}, "bike_id": "006fff7d6fa03f5a2263d5947600e2da", "fusion_lat": 0.0}, {"lon": -77.04572233333333, "name": "62931f0d89e596d16cad2a19ab41d74e", "is_disabled": 0, "type": "electric_scooter", "is_reserved": 0, "fusion_lon": 0.0, "lat": 38.92129166666667, "rental_uris": {"ios": "https://dc.lft.to/lastmile_qr_scan", "android": "https://dc.lft.to/lastmile_qr_scan"}, "bike_id": "62931f0d89e596d16cad2a19ab41d74e", "fusion_lat": 0.0}, {"lon": -77.02973566666667, "name": "7b1e9171d15eb8c0a77e93ebff919c00", "is_disabled": 0, "type": "electric_scooter", "is_reserved": 0, "fusion_lon": 0.0, "lat": 38.91095883333333, "rental_uris": {"ios": "https://dc.lft.to/lastmile_qr_scan", "android": "https://dc.lft.to/lastmile_qr_scan"}, "bike_id": "7b1e9171d15eb8c0a77e93ebff919c00", "fusion_lat": 0.0}, {"lon": -77.016106, "name": "e3adea89b292edb284f551ad0285cbba", "is_disabled": 0, "type": "electric_scooter", "is_reserved": 0, "fusion_lon": 0.0, "lat": 38.905897, "rental_uris": {"ios": "https://dc.lft.to/lastmile_qr_scan", "android": "https://dc.lft.to/lastmile_qr_scan"}, "bike_id": "e3adea89b292edb284f551ad0285cbba", "fusion_lat": 0.0}, {"lon": -77.02618, "name": "b517bccd29f77be2020ba933b0d91f1c", "is_disabled": 0, "type": "electric_scooter", "is_reserved": 0, "fusion_lon": 0.0, "lat": 38.920242, "rental_uris": {"ios": "https://dc.lft.to/lastmile_qr_scan", "android": "https://dc.lft.to/lastmile_qr_scan"}, "bike_id": "b517bccd29f77be2020ba933b0d91f1c", "fusion_lat": 0.0}, {"lon": -77.0314215, "name": "0d11b6eb65a7d4600d3cefc60acda2e5", "is_disabled": 0, "type": "electric_scooter", "is_reserved": 0, "fusion_lon": 0.0, "lat": 38.914071, "rental_uris": {"ios": "https://dc.lft.to/lastmile_qr_scan", "android": "https://dc.lft.to/lastmile_qr_scan"}, "bike_id": "0d11b6eb65a7d4600d3cefc60acda2e5", "fusion_lat": 0.0}, {"lon": -77.06351283333333, "name": "e4e55d4d998ff969e45f21e130028369", "is_disabled": 0, "type": "electric_scooter", "is_reserved": 0, "fusion_lon": 0.0, "lat": 38.90687233333333, "rental_uris": {"ios": "https://dc.lft.to/lastmile_qr_scan", "android": "https://dc.lft.to/lastmile_qr_scan"}, "bike_id": "e4e55d4d998ff969e45f21e130028369", "fusion_lat": 0.0}, {"lon": -77.01593566666666, "name": "5a31888b0d8be66e0b15dbf12d388eeb", "is_disabled": 0, "type": "electric_scooter", "is_reserved": 0, "fusion_lon": 0.0, "lat": 38.874703, "rental_uris": {"ios": "https://dc.lft.to/lastmile_qr_scan", "android": "https://dc.lft.to/lastmile_qr_scan"}, "bike_id": "5a31888b0d8be66e0b15dbf12d388eeb", "fusion_lat": 0.0}, {"lon": -77.08337766666666, "name": "2dbeb51d9eaf7556aaaafa3b1ea4523c", "is_disabled": 0, "type": "electric_scooter", "is_reserved": 0, "fusion_lon": 0.0, "lat": 38.92984116666667, "rental_uris": {"ios": "https://dc.lft.to/lastmile_qr_scan", "android": "https://dc.lft.to/lastmile_qr_scan"}, "bike_id": "2dbeb51d9eaf7556aaaafa3b1ea4523c", "fusion_lat": 0.0}, {"lon": -76.95564033333333, "name": "ead548d9363819e90c69911b1ed359c3", "is_disabled": 0, "type": "electric_bike", "is_reserved": 0, "fusion_lon": 0.0, "lat": 38.985024333333335, "rental_uris": {"ios": "https://dc.lft.to/lastmile_qr_scan", "android": "https://dc.lft.to/lastmile_qr_scan"}, "bike_id": "ead548d9363819e90c69911b1ed359c3", "fusion_lat": 0.0}, {"lon": -77.0299095, "name": "01048755054ff6248d9c9d95d398d767", "is_disabled": 0, "type": "electric_scooter", "is_reserved": 0, "fusion_lon": 0.0, "lat": 38.942625666666665, "rental_uris": {"ios": "https://dc.lft.to/lastmile_qr_scan", "android": "https://dc.lft.to/lastmile_qr_scan"}, "bike_id": "01048755054ff6248d9c9d95d398d767", "fusion_lat": 0.0}, {"lon": -77.0175375, "name": "6ae65f30ea106228fd8a44ae8a4f4d51", "is_disabled": 0, "type": "electric_scooter", "is_reserved": 0, "fusion_lon": 0.0, "lat": 38.882140666666665, "rental_uris": {"ios": "https://dc.lft.to/lastmile_qr_scan", "android": "https://dc.lft.to/lastmile_qr_scan"}, "bike_id": "6ae65f30ea106228fd8a44ae8a4f4d51", "fusion_lat": 0.0}, {"lon": -77.03864266666666, "name": "83429bc8df9c3be887f7c81c15450512", "is_disabled": 0, "type": "electric_scooter", "is_reserved": 0, "fusion_lon": 0.0, "lat": 38.917085166666666, "rental_uris": {"ios": "https://dc.lft.to/lastmile_qr_scan", "android": "https://dc.lft.to/lastmile_qr_scan"}, "bike_id": "83429bc8df9c3be887f7c81c15450512", "fusion_lat": 0.0}, {"lon": -77.04997566666667, "name": "8b1e6cbf88c8a51cf55b39c2303cf8a3", "is_disabled": 0, "type": "electric_scooter", "is_reserved": 0, "fusion_lon": 0.0, "lat": 38.89230883333333, "rental_uris": {"ios": "https://dc.lft.to/lastmile_qr_scan", "android": "https://dc.lft.to/lastmile_qr_scan"}, "bike_id": "8b1e6cbf88c8a51cf55b39c2303cf8a3", "fusion_lat": 0.0}, {"lon": -77.0258475, "name": "408b123ca4686dd91639ac8d9d388e5b", "is_disabled": 0, "type": "electric_scooter", "is_reserved": 0, "fusion_lon": 0.0, "lat": 38.8963785, "rental_uris": {"ios": "https://dc.lft.to/lastmile_qr_scan", "android": "https://dc.lft.to/lastmile_qr_scan"}, "bike_id": "408b123ca4686dd91639ac8d9d388e5b", "fusion_lat": 0.0}, {"lon": -77.0222835, "name": "7e9a121b67e2618b9579173aa0679217", "is_disabled": 0, "type": "electric_scooter", "is_reserved": 0, "fusion_lon": 0.0, "lat": 38.92091116666667, "rental_uris": {"ios": "https://dc.lft.to/lastmile_qr_scan", "android": "https://dc.lft.to/lastmile_qr_scan"}, "bike_id": "7e9a121b67e2618b9579173aa0679217", "fusion_lat": 0.0}, {"lon": -77.03442883333334, "name": "dbf207e389c5a93cb218c5567bde5fcd", "is_disabled": 0, "type": "electric_scooter", "is_reserved": 0, "fusion_lon": 0.0, "lat": 38.917858833333334, "rental_uris": {"ios": "https://dc.lft.to/lastmile_qr_scan", "android": "https://dc.lft.to/lastmile_qr_scan"}, "bike_id": "dbf207e389c5a93cb218c5567bde5fcd", "fusion_lat": 0.0}, {"lon": -77.02211716666666, "name": "216bcad3255f4a409468652127ec36c4", "is_disabled": 0, "type": "electric_scooter", "is_reserved": 0, "fusion_lon": 0.0, "lat": 38.912723166666666, "rental_uris": {"ios": "https://dc.lft.to/lastmile_qr_scan", "android": "https://dc.lft.to/lastmile_qr_scan"}, "bike_id": "216bcad3255f4a409468652127ec36c4", "fusion_lat": 0.0}, {"lon": -77.0551555, "name": "bd081c10329a3d294f8c059475ebb643", "is_disabled": 0, "type": "electric_scooter", "is_reserved": 0, "fusion_lon": 0.0, "lat": 38.910608333333336, "rental_uris": {"ios": "https://dc.lft.to/lastmile_qr_scan", "android": "https://dc.lft.to/lastmile_qr_scan"}, "bike_id": "bd081c10329a3d294f8c059475ebb643", "fusion_lat": 0.0}, {"lon": -77.02121083333333, "name": "5cb2beb3e7eb6e6f201c7ff3a8c4d515", "is_disabled": 0, "type": "electric_scooter", "is_reserved": 0, "fusion_lon": 0.0, "lat": 38.9217005, "rental_uris": {"ios": "https://dc.lft.to/lastmile_qr_scan", "android": "https://dc.lft.to/lastmile_qr_scan"}, "bike_id": "5cb2beb3e7eb6e6f201c7ff3a8c4d515", "fusion_lat": 0.0}, {"lon": -77.06655566666667, "name": "83a026230d1874ffbbd2ebb88b2cb1dd", "is_disabled": 0, "type": "electric_scooter", "is_reserved": 0, "fusion_lon": 0.0, "lat": 38.906875666666664, "rental_uris": {"ios": "https://dc.lft.to/lastmile_qr_scan", "android": "https://dc.lft.to/lastmile_qr_scan"}, "bike_id": "83a026230d1874ffbbd2ebb88b2cb1dd", "fusion_lat": 0.0}, {"lon": -76.98375333333334, "name": "69ca90d8620885ac2801de2e2675ab56", "is_disabled": 0, "type": "electric_scooter", "is_reserved": 0, "fusion_lon": 0.0, "lat": 38.887239666666666, "rental_uris": {"ios": "https://dc.lft.to/lastmile_qr_scan", "android": "https://dc.lft.to/lastmile_qr_scan"}, "bike_id": "69ca90d8620885ac2801de2e2675ab56", "fusion_lat": 0.0}, {"lon": -77.040823, "name": "a9020e86541b9760beb3d5b98b291ade", "is_disabled": 0, "type": "electric_scooter", "is_reserved": 0, "fusion_lon": 0.0, "lat": 38.923829166666664, "rental_uris": {"ios": "https://dc.lft.to/lastmile_qr_scan", "android": "https://dc.lft.to/lastmile_qr_scan"}, "bike_id": "a9020e86541b9760beb3d5b98b291ade", "fusion_lat": 0.0}, {"lon": -77.028573, "name": "378788eaa5f9c2a25c511c3b69150234", "is_disabled": 0, "type": "electric_scooter", "is_reserved": 0, "fusion_lon": 0.0, "lat": 38.908598, "rental_uris": {"ios": "https://dc.lft.to/lastmile_qr_scan", "android": "https://dc.lft.to/lastmile_qr_scan"}, "bike_id": "378788eaa5f9c2a25c511c3b69150234", "fusion_lat": 0.0}, {"lon": -77.05750833333333, "name": "d9b578b4638cd51c572580c96ee402f6", "is_disabled": 0, "type": "electric_scooter", "is_reserved": 0, "fusion_lon": 0.0, "lat": 38.928755, "rental_uris": {"ios": "https://dc.lft.to/lastmile_qr_scan", "android": "https://dc.lft.to/lastmile_qr_scan"}, "bike_id": "d9b578b4638cd51c572580c96ee402f6", "fusion_lat": 0.0}, {"lon": -77.01806666666667, "name": "a73793e83f86d2b9105664542bde2c38", "is_disabled": 0, "type": "electric_scooter", "is_reserved": 0, "fusion_lon": 0.0, "lat": 38.9214285, "rental_uris": {"ios": "https://dc.lft.to/lastmile_qr_scan", "android": "https://dc.lft.to/lastmile_qr_scan"}, "bike_id": "a73793e83f86d2b9105664542bde2c38", "fusion_lat": 0.0}, {"lon": -76.98615733333334, "name": "6745292eb0719b856e65affe5650da80", "is_disabled": 0, "type": "electric_scooter", "is_reserved": 0, "fusion_lon": 0.0, "lat": 38.9058085, "rental_uris": {"ios": "https://dc.lft.to/lastmile_qr_scan", "android": "https://dc.lft.to/lastmile_qr_scan"}, "bike_id": "6745292eb0719b856e65affe5650da80", "fusion_lat": 0.0}, {"lon": -77.04226533333333, "name": "a5d2a7f2548b7640b7ae47e644a107a8", "is_disabled": 0, "type": "electric_scooter", "is_reserved": 0, "fusion_lon": 0.0, "lat": 38.92183133333333, "rental_uris": {"ios": "https://dc.lft.to/lastmile_qr_scan", "android": "https://dc.lft.to/lastmile_qr_scan"}, "bike_id": "a5d2a7f2548b7640b7ae47e644a107a8", "fusion_lat": 0.0}, {"lon": -77.00953466666667, "name": "282265c4a92a78f48423afa38208e2f0", "is_disabled": 0, "type": "electric_scooter", "is_reserved": 0, "fusion_lon": 0.0, "lat": 38.90733, "rental_uris": {"ios": "https://dc.lft.to/lastmile_qr_scan", "android": "https://dc.lft.to/lastmile_qr_scan"}, "bike_id": "282265c4a92a78f48423afa38208e2f0", "fusion_lat": 0.0}, {"lon": -77.02777316666666, "name": "382becb3860e23eff5c2037d56583236", "is_disabled": 0, "type": "electric_scooter", "is_reserved": 0, "fusion_lon": 0.0, "lat": 38.929551833333335, "rental_uris": {"ios": "https://dc.lft.to/lastmile_qr_scan", "android": "https://dc.lft.to/lastmile_qr_scan"}, "bike_id": "382becb3860e23eff5c2037d56583236", "fusion_lat": 0.0}, {"lon": -77.041908, "name": "65df8b0a5f33f5bf19c71ac58e731b58", "is_disabled": 0, "type": "electric_scooter", "is_reserved": 0, "fusion_lon": 0.0, "lat": 38.920643, "rental_uris": {"ios": "https://dc.lft.to/lastmile_qr_scan", "android": "https://dc.lft.to/lastmile_qr_scan"}, "bike_id": "65df8b0a5f33f5bf19c71ac58e731b58", "fusion_lat": 0.0}, {"lon": -77.01994166666667, "name": "bce1713895b744f615cc496c4dd8b1a4", "is_disabled": 0, "type": "electric_scooter", "is_reserved": 0, "fusion_lon": 0.0, "lat": 38.913636, "rental_uris": {"ios": "https://dc.lft.to/lastmile_qr_scan", "android": "https://dc.lft.to/lastmile_qr_scan"}, "bike_id": "bce1713895b744f615cc496c4dd8b1a4", "fusion_lat": 0.0}, {"lon": -77.03338283333333, "name": "92125ed60113bcfc3187ab104322234b", "is_disabled": 0, "type": "electric_scooter", "is_reserved": 0, "fusion_lon": 0.0, "lat": 38.917053833333334, "rental_uris": {"ios": "https://dc.lft.to/lastmile_qr_scan", "android": "https://dc.lft.to/lastmile_qr_scan"}, "bike_id": "92125ed60113bcfc3187ab104322234b", "fusion_lat": 0.0}, {"lon": -77.00919466666667, "name": "c0b771a1a24d04581c9ebf75d84288d0", "is_disabled": 0, "type": "electric_scooter", "is_reserved": 0, "fusion_lon": 0.0, "lat": 38.9187825, "rental_uris": {"ios": "https://dc.lft.to/lastmile_qr_scan", "android": "https://dc.lft.to/lastmile_qr_scan"}, "bike_id": "c0b771a1a24d04581c9ebf75d84288d0", "fusion_lat": 0.0}, {"lon": -76.926578, "name": "f2abae78deaf265fca8c74e92960a40c", "is_disabled": 0, "type": "electric_scooter", "is_reserved": 0, "fusion_lon": 0.0, "lat": 38.895486, "rental_uris": {"ios": "https://dc.lft.to/lastmile_qr_scan", "android": "https://dc.lft.to/lastmile_qr_scan"}, "bike_id": "f2abae78deaf265fca8c74e92960a40c", "fusion_lat": 0.0}, {"lon": -77.09608816666666, "name": "b07a6a2ab033005a04009c7b9b73379e", "is_disabled": 0, "type": "electric_bike", "is_reserved": 0, "fusion_lon": 0.0, "lat": 38.97438016666667, "rental_uris": {"ios": "https://dc.lft.to/lastmile_qr_scan", "android": "https://dc.lft.to/lastmile_qr_scan"}, "bike_id": "b07a6a2ab033005a04009c7b9b73379e", "fusion_lat": 0.0}, {"lon": -77.02340183333334, "name": "711db8e391fedb0de0bc42ce14d29985", "is_disabled": 0, "type": "electric_scooter", "is_reserved": 0, "fusion_lon": 0.0, "lat": 38.9177995, "rental_uris": {"ios": "https://dc.lft.to/lastmile_qr_scan", "android": "https://dc.lft.to/lastmile_qr_scan"}, "bike_id": "711db8e391fedb0de0bc42ce14d29985", "fusion_lat": 0.0}, {"lon": -77.0400205, "name": "44ae2cd8bf58729df9f570cc792e94b5", "is_disabled": 0, "type": "electric_scooter", "is_reserved": 0, "fusion_lon": 0.0, "lat": 38.93427283333333, "rental_uris": {"ios": "https://dc.lft.to/lastmile_qr_scan", "android": "https://dc.lft.to/lastmile_qr_scan"}, "bike_id": "44ae2cd8bf58729df9f570cc792e94b5", "fusion_lat": 0.0}, {"lon": -76.9390815, "name": "0efee0814096c2ac3711601fda895a5c", "is_disabled": 0, "type": "electric_scooter", "is_reserved": 0, "fusion_lon": 0.0, "lat": 38.89162566666667, "rental_uris": {"ios": "https://dc.lft.to/lastmile_qr_scan", "android": "https://dc.lft.to/lastmile_qr_scan"}, "bike_id": "0efee0814096c2ac3711601fda895a5c", "fusion_lat": 0.0}, {"lon": -77.04309233333333, "name": "c57a1898421eb6a40c1ffb0d21d57238", "is_disabled": 0, "type": "electric_scooter", "is_reserved": 0, "fusion_lon": 0.0, "lat": 38.90123583333333, "rental_uris": {"ios": "https://dc.lft.to/lastmile_qr_scan", "android": "https://dc.lft.to/lastmile_qr_scan"}, "bike_id": "c57a1898421eb6a40c1ffb0d21d57238", "fusion_lat": 0.0}, {"lon": -76.998155, "name": "c555544448d8bdbda840500ca8a4df5a", "is_disabled": 0, "type": "electric_scooter", "is_reserved": 0, "fusion_lon": 0.0, "lat": 38.9060845, "rental_uris": {"ios": "https://dc.lft.to/lastmile_qr_scan", "android": "https://dc.lft.to/lastmile_qr_scan"}, "bike_id": "c555544448d8bdbda840500ca8a4df5a", "fusion_lat": 0.0}, {"lon": -77.0195075, "name": "a699b75070c2f0d4f03ba31c482d7605", "is_disabled": 0, "type": "electric_scooter", "is_reserved": 0, "fusion_lon": 0.0, "lat": 38.92251266666667, "rental_uris": {"ios": "https://dc.lft.to/lastmile_qr_scan", "android": "https://dc.lft.to/lastmile_qr_scan"}, "bike_id": "a699b75070c2f0d4f03ba31c482d7605", "fusion_lat": 0.0}, {"lon": -77.0366065, "name": "7a933b93b313cd54a7646f4c180237ad", "is_disabled": 0, "type": "electric_scooter", "is_reserved": 0, "fusion_lon": 0.0, "lat": 38.92333266666667, "rental_uris": {"ios": "https://dc.lft.to/lastmile_qr_scan", "android": "https://dc.lft.to/lastmile_qr_scan"}, "bike_id": "7a933b93b313cd54a7646f4c180237ad", "fusion_lat": 0.0}, {"lon": -77.04359083333334, "name": "6ddeac1fefbf6688049e5b2ff66c1672", "is_disabled": 0, "type": "electric_scooter", "is_reserved": 0, "fusion_lon": 0.0, "lat": 38.920651, "rental_uris": {"ios": "https://dc.lft.to/lastmile_qr_scan", "android": "https://dc.lft.to/lastmile_qr_scan"}, "bike_id": "6ddeac1fefbf6688049e5b2ff66c1672", "fusion_lat": 0.0}, {"lon": -77.02504766666667, "name": "926f62f854c4d722ac646836f097a497", "is_disabled": 0, "type": "electric_scooter", "is_reserved": 0, "fusion_lon": 0.0, "lat": 38.904135, "rental_uris": {"ios": "https://dc.lft.to/lastmile_qr_scan", "android": "https://dc.lft.to/lastmile_qr_scan"}, "bike_id": "926f62f854c4d722ac646836f097a497", "fusion_lat": 0.0}, {"lon": -77.02032066666666, "name": "601e33144b350e35c604816aef2e7438", "is_disabled": 0, "type": "electric_scooter", "is_reserved": 0, "fusion_lon": 0.0, "lat": 38.8987735, "rental_uris": {"ios": "https://dc.lft.to/lastmile_qr_scan", "android": "https://dc.lft.to/lastmile_qr_scan"}, "bike_id": "601e33144b350e35c604816aef2e7438", "fusion_lat": 0.0}, {"lon": -77.020658, "name": "a791d9218791b0fb65ed6a79bb59ebc0", "is_disabled": 0, "type": "electric_scooter", "is_reserved": 0, "fusion_lon": 0.0, "lat": 38.922860166666666, "rental_uris": {"ios": "https://dc.lft.to/lastmile_qr_scan", "android": "https://dc.lft.to/lastmile_qr_scan"}, "bike_id": "a791d9218791b0fb65ed6a79bb59ebc0", "fusion_lat": 0.0}, {"lon": -76.98346966666666, "name": "202f19d1342eb2a1e666d8f669e6d6a5", "is_disabled": 0, "type": "electric_bike", "is_reserved": 0, "fusion_lon": 0.0, "lat": 38.86268033333333, "rental_uris": {"ios": "https://dc.lft.to/lastmile_qr_scan", "android": "https://dc.lft.to/lastmile_qr_scan"}, "bike_id": "202f19d1342eb2a1e666d8f669e6d6a5", "fusion_lat": 0.0}, {"lon": -76.97955666666667, "name": "d383b73107e90c61a8d1e1c58c54af97", "is_disabled": 0, "type": "electric_bike", "is_reserved": 0, "fusion_lon": 0.0, "lat": 38.9203695, "rental_uris": {"ios": "https://dc.lft.to/lastmile_qr_scan", "android": "https://dc.lft.to/lastmile_qr_scan"}, "bike_id": "d383b73107e90c61a8d1e1c58c54af97", "fusion_lat": 0.0}, {"lon": -77.04996583333333, "name": "88d58fc4eec96781b03b4b1c9a4bae15", "is_disabled": 0, "type": "electric_scooter", "is_reserved": 0, "fusion_lon": 0.0, "lat": 38.89229316666667, "rental_uris": {"ios": "https://dc.lft.to/lastmile_qr_scan", "android": "https://dc.lft.to/lastmile_qr_scan"}, "bike_id": "88d58fc4eec96781b03b4b1c9a4bae15", "fusion_lat": 0.0}, {"lon": -77.02223216666667, "name": "54f4bf1366640297a1fee6291a674589", "is_disabled": 0, "type": "electric_scooter", "is_reserved": 0, "fusion_lon": 0.0, "lat": 38.924774, "rental_uris": {"ios": "https://dc.lft.to/lastmile_qr_scan", "android": "https://dc.lft.to/lastmile_qr_scan"}, "bike_id": "54f4bf1366640297a1fee6291a674589", "fusion_lat": 0.0}, {"lon": -77.02202333333334, "name": "6531b7757fbf9307f1307ad1ecc631c8", "is_disabled": 0, "type": "electric_scooter", "is_reserved": 0, "fusion_lon": 0.0, "lat": 38.92098266666667, "rental_uris": {"ios": "https://dc.lft.to/lastmile_qr_scan", "android": "https://dc.lft.to/lastmile_qr_scan"}, "bike_id": "6531b7757fbf9307f1307ad1ecc631c8", "fusion_lat": 0.0}, {"lon": -76.9845305, "name": "b318414ace4f86d66c5e9c54379bb3a0", "is_disabled": 0, "type": "electric_scooter", "is_reserved": 0, "fusion_lon": 0.0, "lat": 38.89236566666666, "rental_uris": {"ios": "https://dc.lft.to/lastmile_qr_scan", "android": "https://dc.lft.to/lastmile_qr_scan"}, "bike_id": "b318414ace4f86d66c5e9c54379bb3a0", "fusion_lat": 0.0}, {"lon": -77.03448716666666, "name": "26ef44d50f27108231c24ee0c5f6ff7c", "is_disabled": 0, "type": "electric_scooter", "is_reserved": 0, "fusion_lon": 0.0, "lat": 38.903540666666665, "rental_uris": {"ios": "https://dc.lft.to/lastmile_qr_scan", "android": "https://dc.lft.to/lastmile_qr_scan"}, "bike_id": "26ef44d50f27108231c24ee0c5f6ff7c", "fusion_lat": 0.0}, {"lon": -77.03381283333333, "name": "3e409ebf367f452d013a8169dcc99778", "is_disabled": 0, "type": "electric_scooter", "is_reserved": 0, "fusion_lon": 0.0, "lat": 38.90027966666667, "rental_uris": {"ios": "https://dc.lft.to/lastmile_qr_scan", "android": "https://dc.lft.to/lastmile_qr_scan"}, "bike_id": "3e409ebf367f452d013a8169dcc99778", "fusion_lat": 0.0}, {"lon": -76.9480605, "name": "550417cbc3973ab0eeee5074a61670fa", "is_disabled": 0, "type": "electric_bike", "is_reserved": 0, "fusion_lon": 0.0, "lat": 38.893543, "rental_uris": {"ios": "https://dc.lft.to/lastmile_qr_scan", "android": "https://dc.lft.to/lastmile_qr_scan"}, "bike_id": "550417cbc3973ab0eeee5074a61670fa", "fusion_lat": 0.0}, {"lon": -77.0161175, "name": "73726abe82f6b041e4790c316a9aefe3", "is_disabled": 0, "type": "electric_scooter", "is_reserved": 0, "fusion_lon": 0.0, "lat": 38.91069983333333, "rental_uris": {"ios": "https://dc.lft.to/lastmile_qr_scan", "android": "https://dc.lft.to/lastmile_qr_scan"}, "bike_id": "73726abe82f6b041e4790c316a9aefe3", "fusion_lat": 0.0}, {"lon": -77.02212733333333, "name": "8f69a1f6f36cb152778cd70a482647eb", "is_disabled": 0, "type": "electric_scooter", "is_reserved": 0, "fusion_lon": 0.0, "lat": 38.91012516666667, "rental_uris": {"ios": "https://dc.lft.to/lastmile_qr_scan", "android": "https://dc.lft.to/lastmile_qr_scan"}, "bike_id": "8f69a1f6f36cb152778cd70a482647eb", "fusion_lat": 0.0}, {"lon": -77.02049783333334, "name": "194bf8b6cf7a70b68c8f55b5701104c2", "is_disabled": 0, "type": "electric_scooter", "is_reserved": 0, "fusion_lon": 0.0, "lat": 38.921727833333335, "rental_uris": {"ios": "https://dc.lft.to/lastmile_qr_scan", "android": "https://dc.lft.to/lastmile_qr_scan"}, "bike_id": "194bf8b6cf7a70b68c8f55b5701104c2", "fusion_lat": 0.0}, {"lon": -77.02688616666667, "name": "44f350923f5b811a0cb040eaec4996a4", "is_disabled": 0, "type": "electric_scooter", "is_reserved": 0, "fusion_lon": 0.0, "lat": 38.9169295, "rental_uris": {"ios": "https://dc.lft.to/lastmile_qr_scan", "android": "https://dc.lft.to/lastmile_qr_scan"}, "bike_id": "44f350923f5b811a0cb040eaec4996a4", "fusion_lat": 0.0}, {"lon": -77.04316566666667, "name": "433782204547878152fb6c6a19eaa060", "is_disabled": 0, "type": "electric_scooter", "is_reserved": 0, "fusion_lon": 0.0, "lat": 38.92208683333333, "rental_uris": {"ios": "https://dc.lft.to/lastmile_qr_scan", "android": "https://dc.lft.to/lastmile_qr_scan"}, "bike_id": "433782204547878152fb6c6a19eaa060", "fusion_lat": 0.0}, {"lon": -77.02158616666667, "name": "cc70785b79a6773899d2b1cd8a949144", "is_disabled": 0, "type": "electric_scooter", "is_reserved": 0, "fusion_lon": 0.0, "lat": 38.926132333333335, "rental_uris": {"ios": "https://dc.lft.to/lastmile_qr_scan", "android": "https://dc.lft.to/lastmile_qr_scan"}, "bike_id": "cc70785b79a6773899d2b1cd8a949144", "fusion_lat": 0.0}, {"lon": -77.08492, "name": "1ad9675857ebb1e1cb408116abf38ffb", "is_disabled": 0, "type": "electric_scooter", "is_reserved": 0, "fusion_lon": 0.0, "lat": 38.958920666666664, "rental_uris": {"ios": "https://dc.lft.to/lastmile_qr_scan", "android": "https://dc.lft.to/lastmile_qr_scan"}, "bike_id": "1ad9675857ebb1e1cb408116abf38ffb", "fusion_lat": 0.0}, {"lon": -76.94146733333334, "name": "11b4f4eefbca972f84556e1572797217", "is_disabled": 0, "type": "electric_bike", "is_reserved": 0, "fusion_lon": 0.0, "lat": 38.8655355, "rental_uris": {"ios": "https://dc.lft.to/lastmile_qr_scan", "android": "https://dc.lft.to/lastmile_qr_scan"}, "bike_id": "11b4f4eefbca972f84556e1572797217", "fusion_lat": 0.0}, {"lon": -77.01839416666667, "name": "76c06bf3d930ad59d3f6e0643d2fe79f", "is_disabled": 0, "type": "electric_scooter", "is_reserved": 0, "fusion_lon": 0.0, "lat": 38.903728, "rental_uris": {"ios": "https://dc.lft.to/lastmile_qr_scan", "android": "https://dc.lft.to/lastmile_qr_scan"}, "bike_id": "76c06bf3d930ad59d3f6e0643d2fe79f", "fusion_lat": 0.0}, {"lon": -77.03188133333333, "name": "da58bb1d80fc656fb2d8bdb246b1bce2", "is_disabled": 0, "type": "electric_scooter", "is_reserved": 0, "fusion_lon": 0.0, "lat": 38.92047083333333, "rental_uris": {"ios": "https://dc.lft.to/lastmile_qr_scan", "android": "https://dc.lft.to/lastmile_qr_scan"}, "bike_id": "da58bb1d80fc656fb2d8bdb246b1bce2", "fusion_lat": 0.0}, {"lon": -77.041871, "name": "0dc6e350326105f28480ad90e9e45c5d", "is_disabled": 0, "type": "electric_scooter", "is_reserved": 0, "fusion_lon": 0.0, "lat": 38.905940333333334, "rental_uris": {"ios": "https://dc.lft.to/lastmile_qr_scan", "android": "https://dc.lft.to/lastmile_qr_scan"}, "bike_id": "0dc6e350326105f28480ad90e9e45c5d", "fusion_lat": 0.0}, {"lon": -77.02964283333333, "name": "8f5bb326540ce653d882b9f0a757e41c", "is_disabled": 0, "type": "electric_scooter", "is_reserved": 0, "fusion_lon": 0.0, "lat": 38.92590533333333, "rental_uris": {"ios": "https://dc.lft.to/lastmile_qr_scan", "android": "https://dc.lft.to/lastmile_qr_scan"}, "bike_id": "8f5bb326540ce653d882b9f0a757e41c", "fusion_lat": 0.0}, {"lon": -77.0509795, "name": "f7f9eb74dfe85a39ea30d35f68f9b386", "is_disabled": 0, "type": "electric_bike", "is_reserved": 0, "fusion_lon": 0.0, "lat": 38.81332916666667, "rental_uris": {"ios": "https://dc.lft.to/lastmile_qr_scan", "android": "https://dc.lft.to/lastmile_qr_scan"}, "bike_id": "f7f9eb74dfe85a39ea30d35f68f9b386", "fusion_lat": 0.0}, {"lon": -77.041246, "name": "8c37aeebd84ed510440b214695870d6e", "is_disabled": 0, "type": "electric_scooter", "is_reserved": 0, "fusion_lon": 0.0, "lat": 38.918889666666665, "rental_uris": {"ios": "https://dc.lft.to/lastmile_qr_scan", "android": "https://dc.lft.to/lastmile_qr_scan"}, "bike_id": "8c37aeebd84ed510440b214695870d6e", "fusion_lat": 0.0}, {"lon": -77.02841083333334, "name": "08d4fd8c2fab2fdfb22e43421f59e86e", "is_disabled": 0, "type": "electric_scooter", "is_reserved": 0, "fusion_lon": 0.0, "lat": 38.935339, "rental_uris": {"ios": "https://dc.lft.to/lastmile_qr_scan", "android": "https://dc.lft.to/lastmile_qr_scan"}, "bike_id": "08d4fd8c2fab2fdfb22e43421f59e86e", "fusion_lat": 0.0}, {"lon": -77.00149883333333, "name": "7473ff1ce38b8f9ccbbb4373b873dbe3", "is_disabled": 0, "type": "electric_scooter", "is_reserved": 0, "fusion_lon": 0.0, "lat": 38.894739333333334, "rental_uris": {"ios": "https://dc.lft.to/lastmile_qr_scan", "android": "https://dc.lft.to/lastmile_qr_scan"}, "bike_id": "7473ff1ce38b8f9ccbbb4373b873dbe3", "fusion_lat": 0.0}, {"lon": -77.02202516666667, "name": "7df4352d47a3c615ed9a9445c47ff47f", "is_disabled": 0, "type": "electric_scooter", "is_reserved": 0, "fusion_lon": 0.0, "lat": 38.90574816666667, "rental_uris": {"ios": "https://dc.lft.to/lastmile_qr_scan", "android": "https://dc.lft.to/lastmile_qr_scan"}, "bike_id": "7df4352d47a3c615ed9a9445c47ff47f", "fusion_lat": 0.0}, {"lon": -77.02262783333333, "name": "ff2e5d4b271fae3acfbe612ec42b9704", "is_disabled": 0, "type": "electric_scooter", "is_reserved": 0, "fusion_lon": 0.0, "lat": 38.92741266666667, "rental_uris": {"ios": "https://dc.lft.to/lastmile_qr_scan", "android": "https://dc.lft.to/lastmile_qr_scan"}, "bike_id": "ff2e5d4b271fae3acfbe612ec42b9704", "fusion_lat": 0.0}, {"lon": -77.03220183333333, "name": "5f5f59abdd104f71b9425764e95fecd8", "is_disabled": 0, "type": "electric_scooter", "is_reserved": 0, "fusion_lon": 0.0, "lat": 38.89921666666667, "rental_uris": {"ios": "https://dc.lft.to/lastmile_qr_scan", "android": "https://dc.lft.to/lastmile_qr_scan"}, "bike_id": "5f5f59abdd104f71b9425764e95fecd8", "fusion_lat": 0.0}, {"lon": -77.03738383333334, "name": "d28ea35815caa0b67adba7957fee52b5", "is_disabled": 0, "type": "electric_scooter", "is_reserved": 0, "fusion_lon": 0.0, "lat": 38.92860433333333, "rental_uris": {"ios": "https://dc.lft.to/lastmile_qr_scan", "android": "https://dc.lft.to/lastmile_qr_scan"}, "bike_id": "d28ea35815caa0b67adba7957fee52b5", "fusion_lat": 0.0}, {"lon": -77.04157216666667, "name": "a9309521145e137c6fc2d2c3c6b5d659", "is_disabled": 0, "type": "electric_scooter", "is_reserved": 0, "fusion_lon": 0.0, "lat": 38.915927833333335, "rental_uris": {"ios": "https://dc.lft.to/lastmile_qr_scan", "android": "https://dc.lft.to/lastmile_qr_scan"}, "bike_id": "a9309521145e137c6fc2d2c3c6b5d659", "fusion_lat": 0.0}, {"lon": -77.0548335, "name": "dadb515f2dc2fc1c037beca105770c43", "is_disabled": 0, "type": "electric_scooter", "is_reserved": 0, "fusion_lon": 0.0, "lat": 38.90958216666667, "rental_uris": {"ios": "https://dc.lft.to/lastmile_qr_scan", "android": "https://dc.lft.to/lastmile_qr_scan"}, "bike_id": "dadb515f2dc2fc1c037beca105770c43", "fusion_lat": 0.0}, {"lon": -77.0262875, "name": "318b02cbce1ff9e113d8161ac02d0f66", "is_disabled": 0, "type": "electric_scooter", "is_reserved": 0, "fusion_lon": 0.0, "lat": 38.883657666666664, "rental_uris": {"ios": "https://dc.lft.to/lastmile_qr_scan", "android": "https://dc.lft.to/lastmile_qr_scan"}, "bike_id": "318b02cbce1ff9e113d8161ac02d0f66", "fusion_lat": 0.0}, {"lon": -77.043725, "name": "5c9d363a3d36763a0d216c60add11930", "is_disabled": 0, "type": "electric_scooter", "is_reserved": 0, "fusion_lon": 0.0, "lat": 38.920693, "rental_uris": {"ios": "https://dc.lft.to/lastmile_qr_scan", "android": "https://dc.lft.to/lastmile_qr_scan"}, "bike_id": "5c9d363a3d36763a0d216c60add11930", "fusion_lat": 0.0}, {"lon": -77.027861, "name": "fc5ae6c0ebbd9841f9110b2b62f3e227", "is_disabled": 0, "type": "electric_scooter", "is_reserved": 0, "fusion_lon": 0.0, "lat": 38.92770633333333, "rental_uris": {"ios": "https://dc.lft.to/lastmile_qr_scan", "android": "https://dc.lft.to/lastmile_qr_scan"}, "bike_id": "fc5ae6c0ebbd9841f9110b2b62f3e227", "fusion_lat": 0.0}, {"lon": -77.05877833333334, "name": "4258623b6dace8b4d0eb77e8be9002c5", "is_disabled": 0, "type": "electric_bike", "is_reserved": 0, "fusion_lon": 0.0, "lat": 38.827088, "rental_uris": {"ios": "https://dc.lft.to/lastmile_qr_scan", "android": "https://dc.lft.to/lastmile_qr_scan"}, "bike_id": "4258623b6dace8b4d0eb77e8be9002c5", "fusion_lat": 0.0}, {"lon": -76.96263583333334, "name": "9684f1f07704326dc0d35255879f81c1", "is_disabled": 0, "type": "electric_bike", "is_reserved": 0, "fusion_lon": 0.0, "lat": 38.882448, "rental_uris": {"ios": "https://dc.lft.to/lastmile_qr_scan", "android": "https://dc.lft.to/lastmile_qr_scan"}, "bike_id": "9684f1f07704326dc0d35255879f81c1", "fusion_lat": 0.0}, {"lon": -77.02590216666667, "name": "b4f34faad89add012f605d02fe95ec7b", "is_disabled": 0, "type": "electric_scooter", "is_reserved": 0, "fusion_lon": 0.0, "lat": 38.904324, "rental_uris": {"ios": "https://dc.lft.to/lastmile_qr_scan", "android": "https://dc.lft.to/lastmile_qr_scan"}, "bike_id": "b4f34faad89add012f605d02fe95ec7b", "fusion_lat": 0.0}, {"lon": -76.98935816666666, "name": "877ee4171d4fdc58ac4bfb750c81b7e3", "is_disabled": 0, "type": "electric_scooter", "is_reserved": 0, "fusion_lon": 0.0, "lat": 38.9000875, "rental_uris": {"ios": "https://dc.lft.to/lastmile_qr_scan", "android": "https://dc.lft.to/lastmile_qr_scan"}, "bike_id": "877ee4171d4fdc58ac4bfb750c81b7e3", "fusion_lat": 0.0}, {"lon": -77.01737766666666, "name": "a01bf0ec3af649d86c8187166a40f88c", "is_disabled": 0, "type": "electric_scooter", "is_reserved": 0, "fusion_lon": 0.0, "lat": 38.877014833333334, "rental_uris": {"ios": "https://dc.lft.to/lastmile_qr_scan", "android": "https://dc.lft.to/lastmile_qr_scan"}, "bike_id": "a01bf0ec3af649d86c8187166a40f88c", "fusion_lat": 0.0}, {"lon": -77.00534616666667, "name": "13523ebaa6517e113ba1302025b50190", "is_disabled": 0, "type": "electric_scooter", "is_reserved": 0, "fusion_lon": 0.0, "lat": 38.875471833333336, "rental_uris": {"ios": "https://dc.lft.to/lastmile_qr_scan", "android": "https://dc.lft.to/lastmile_qr_scan"}, "bike_id": "13523ebaa6517e113ba1302025b50190", "fusion_lat": 0.0}, {"lon": -76.9484865, "name": "7ebabd61edfed4cb0b3b91ec2d31acd1", "is_disabled": 0, "type": "electric_scooter", "is_reserved": 0, "fusion_lon": 0.0, "lat": 38.896017, "rental_uris": {"ios": "https://dc.lft.to/lastmile_qr_scan", "android": "https://dc.lft.to/lastmile_qr_scan"}, "bike_id": "7ebabd61edfed4cb0b3b91ec2d31acd1", "fusion_lat": 0.0}, {"lon": -77.03139833333333, "name": "94b0b36a871d0dea85b1c436f2a68b49", "is_disabled": 0, "type": "electric_scooter", "is_reserved": 0, "fusion_lon": 0.0, "lat": 38.94195333333333, "rental_uris": {"ios": "https://dc.lft.to/lastmile_qr_scan", "android": "https://dc.lft.to/lastmile_qr_scan"}, "bike_id": "94b0b36a871d0dea85b1c436f2a68b49", "fusion_lat": 0.0}, {"lon": -77.00137716666667, "name": "eb2217ea537853656e9d4a80080b5a6c", "is_disabled": 0, "type": "electric_bike", "is_reserved": 0, "fusion_lon": 0.0, "lat": 38.994974666666664, "rental_uris": {"ios": "https://dc.lft.to/lastmile_qr_scan", "android": "https://dc.lft.to/lastmile_qr_scan"}, "bike_id": "eb2217ea537853656e9d4a80080b5a6c", "fusion_lat": 0.0}, {"lon": -77.02001716666666, "name": "ab0265974f36c42b47bb89c1f6d359ba", "is_disabled": 0, "type": "electric_bike", "is_reserved": 0, "fusion_lon": 0.0, "lat": 38.96023533333333, "rental_uris": {"ios": "https://dc.lft.to/lastmile_qr_scan", "android": "https://dc.lft.to/lastmile_qr_scan"}, "bike_id": "ab0265974f36c42b47bb89c1f6d359ba", "fusion_lat": 0.0}, {"lon": -77.020643, "name": "b29a3bcd6cda6be89a3c5428c422d6dd", "is_disabled": 0, "type": "electric_scooter", "is_reserved": 0, "fusion_lon": 0.0, "lat": 38.932604166666664, "rental_uris": {"ios": "https://dc.lft.to/lastmile_qr_scan", "android": "https://dc.lft.to/lastmile_qr_scan"}, "bike_id": "b29a3bcd6cda6be89a3c5428c422d6dd", "fusion_lat": 0.0}, {"lon": -76.997854, "name": "8d3eaccebef0b177e9b1fca85367293b", "is_disabled": 0, "type": "electric_scooter", "is_reserved": 0, "fusion_lon": 0.0, "lat": 38.93219966666667, "rental_uris": {"ios": "https://dc.lft.to/lastmile_qr_scan", "android": "https://dc.lft.to/lastmile_qr_scan"}, "bike_id": "8d3eaccebef0b177e9b1fca85367293b", "fusion_lat": 0.0}, {"lon": -77.04702316666666, "name": "bf7054727f5021ab4494c811c3cdc3dd", "is_disabled": 0, "type": "electric_scooter", "is_reserved": 0, "fusion_lon": 0.0, "lat": 38.89722283333333, "rental_uris": {"ios": "https://dc.lft.to/lastmile_qr_scan", "android": "https://dc.lft.to/lastmile_qr_scan"}, "bike_id": "bf7054727f5021ab4494c811c3cdc3dd", "fusion_lat": 0.0}, {"lon": -77.04021733333333, "name": "500d1ed7eaf8c6ab5e29c6a9fdb524c2", "is_disabled": 0, "type": "electric_scooter", "is_reserved": 0, "fusion_lon": 0.0, "lat": 38.904829666666664, "rental_uris": {"ios": "https://dc.lft.to/lastmile_qr_scan", "android": "https://dc.lft.to/lastmile_qr_scan"}, "bike_id": "500d1ed7eaf8c6ab5e29c6a9fdb524c2", "fusion_lat": 0.0}, {"lon": -76.93387583333333, "name": "093ff9cd0b6276f29859d0b750d1039b", "is_disabled": 0, "type": "electric_scooter", "is_reserved": 0, "fusion_lon": 0.0, "lat": 38.8991025, "rental_uris": {"ios": "https://dc.lft.to/lastmile_qr_scan", "android": "https://dc.lft.to/lastmile_qr_scan"}, "bike_id": "093ff9cd0b6276f29859d0b750d1039b", "fusion_lat": 0.0}, {"lon": -77.04230933333334, "name": "01edc12d2954c897b8a8e5d13e548c17", "is_disabled": 0, "type": "electric_scooter", "is_reserved": 0, "fusion_lon": 0.0, "lat": 38.921566, "rental_uris": {"ios": "https://dc.lft.to/lastmile_qr_scan", "android": "https://dc.lft.to/lastmile_qr_scan"}, "bike_id": "01edc12d2954c897b8a8e5d13e548c17", "fusion_lat": 0.0}, {"lon": -77.02168033333334, "name": "74562367821e85ada904688b025d5551", "is_disabled": 0, "type": "electric_scooter", "is_reserved": 0, "fusion_lon": 0.0, "lat": 38.914002833333335, "rental_uris": {"ios": "https://dc.lft.to/lastmile_qr_scan", "android": "https://dc.lft.to/lastmile_qr_scan"}, "bike_id": "74562367821e85ada904688b025d5551", "fusion_lat": 0.0}, {"lon": -77.0067335, "name": "c185ec7b134c64bada7e18f274291104", "is_disabled": 0, "type": "electric_bike", "is_reserved": 0, "fusion_lon": 0.0, "lat": 38.94511583333333, "rental_uris": {"ios": "https://dc.lft.to/lastmile_qr_scan", "android": "https://dc.lft.to/lastmile_qr_scan"}, "bike_id": "c185ec7b134c64bada7e18f274291104", "fusion_lat": 0.0}, {"lon": -77.0790245, "name": "9764ffd2471222e248e8bf11bf21eab2", "is_disabled": 0, "type": "electric_bike", "is_reserved": 0, "fusion_lon": 0.0, "lat": 38.83938083333334, "rental_uris": {"ios": "https://dc.lft.to/lastmile_qr_scan", "android": "https://dc.lft.to/lastmile_qr_scan"}, "bike_id": "9764ffd2471222e248e8bf11bf21eab2", "fusion_lat": 0.0}, {"lon": -77.06774733333333, "name": "a596a581147eef9492e2aa1f4e05aacc", "is_disabled": 0, "type": "electric_scooter", "is_reserved": 0, "fusion_lon": 0.0, "lat": 38.95216533333333, "rental_uris": {"ios": "https://dc.lft.to/lastmile_qr_scan", "android": "https://dc.lft.to/lastmile_qr_scan"}, "bike_id": "a596a581147eef9492e2aa1f4e05aacc", "fusion_lat": 0.0}, {"lon": -76.98476033333333, "name": "7f2a6e1f4af25e2444f0ead419ad232a", "is_disabled": 0, "type": "electric_bike", "is_reserved": 0, "fusion_lon": 0.0, "lat": 38.912671333333336, "rental_uris": {"ios": "https://dc.lft.to/lastmile_qr_scan", "android": "https://dc.lft.to/lastmile_qr_scan"}, "bike_id": "7f2a6e1f4af25e2444f0ead419ad232a", "fusion_lat": 0.0}, {"lon": -77.03361666666666, "name": "557fb4e59cb75c6cf73273d0e172ee7d", "is_disabled": 0, "type": "electric_scooter", "is_reserved": 0, "fusion_lon": 0.0, "lat": 38.927529666666665, "rental_uris": {"ios": "https://dc.lft.to/lastmile_qr_scan", "android": "https://dc.lft.to/lastmile_qr_scan"}, "bike_id": "557fb4e59cb75c6cf73273d0e172ee7d", "fusion_lat": 0.0}, {"lon": -77.04858766666666, "name": "c6db444e4ee44ceb0cccd2201b094325", "is_disabled": 0, "type": "electric_scooter", "is_reserved": 0, "fusion_lon": 0.0, "lat": 38.906332666666664, "rental_uris": {"ios": "https://dc.lft.to/lastmile_qr_scan", "android": "https://dc.lft.to/lastmile_qr_scan"}, "bike_id": "c6db444e4ee44ceb0cccd2201b094325", "fusion_lat": 0.0}, {"lon": -77.022115, "name": "94226dad3563ddb53cb081fbad75b4d5", "is_disabled": 0, "type": "electric_scooter", "is_reserved": 0, "fusion_lon": 0.0, "lat": 38.89617766666667, "rental_uris": {"ios": "https://dc.lft.to/lastmile_qr_scan", "android": "https://dc.lft.to/lastmile_qr_scan"}, "bike_id": "94226dad3563ddb53cb081fbad75b4d5", "fusion_lat": 0.0}, {"lon": -76.993, "name": "83215d90ca5c5870567ce888618550d2", "is_disabled": 0, "type": "electric_scooter", "is_reserved": 0, "fusion_lon": 0.0, "lat": 38.93772383333334, "rental_uris": {"ios": "https://dc.lft.to/lastmile_qr_scan", "android": "https://dc.lft.to/lastmile_qr_scan"}, "bike_id": "83215d90ca5c5870567ce888618550d2", "fusion_lat": 0.0}, {"lon": -77.02658783333334, "name": "e0290f6a8280a64c101e5e29696565f9", "is_disabled": 0, "type": "electric_scooter", "is_reserved": 0, "fusion_lon": 0.0, "lat": 38.92378716666666, "rental_uris": {"ios": "https://dc.lft.to/lastmile_qr_scan", "android": "https://dc.lft.to/lastmile_qr_scan"}, "bike_id": "e0290f6a8280a64c101e5e29696565f9", "fusion_lat": 0.0}, {"lon": -77.06081883333333, "name": "9fc14db1c6e386d491fc1a46f7b3b250", "is_disabled": 0, "type": "electric_scooter", "is_reserved": 0, "fusion_lon": 0.0, "lat": 38.9118915, "rental_uris": {"ios": "https://dc.lft.to/lastmile_qr_scan", "android": "https://dc.lft.to/lastmile_qr_scan"}, "bike_id": "9fc14db1c6e386d491fc1a46f7b3b250", "fusion_lat": 0.0}, {"lon": -77.018854, "name": "398e67a4a9388ed021a838673a359d0f", "is_disabled": 0, "type": "electric_scooter", "is_reserved": 0, "fusion_lon": 0.0, "lat": 38.9091625, "rental_uris": {"ios": "https://dc.lft.to/lastmile_qr_scan", "android": "https://dc.lft.to/lastmile_qr_scan"}, "bike_id": "398e67a4a9388ed021a838673a359d0f", "fusion_lat": 0.0}, {"lon": -77.020638, "name": "b6a4051877956112fff3a80e3040660e", "is_disabled": 0, "type": "electric_scooter", "is_reserved": 0, "fusion_lon": 0.0, "lat": 38.922544, "rental_uris": {"ios": "https://dc.lft.to/lastmile_qr_scan", "android": "https://dc.lft.to/lastmile_qr_scan"}, "bike_id": "b6a4051877956112fff3a80e3040660e", "fusion_lat": 0.0}, {"lon": -77.02375116666667, "name": "9932e17297ab2eae0a689007db270b04", "is_disabled": 0, "type": "electric_scooter", "is_reserved": 0, "fusion_lon": 0.0, "lat": 38.920450833333334, "rental_uris": {"ios": "https://dc.lft.to/lastmile_qr_scan", "android": "https://dc.lft.to/lastmile_qr_scan"}, "bike_id": "9932e17297ab2eae0a689007db270b04", "fusion_lat": 0.0}, {"lon": -76.97080983333333, "name": "e7b352f5ba266d9fd59f769087f3d346", "is_disabled": 0, "type": "electric_scooter", "is_reserved": 0, "fusion_lon": 0.0, "lat": 38.86942783333333, "rental_uris": {"ios": "https://dc.lft.to/lastmile_qr_scan", "android": "https://dc.lft.to/lastmile_qr_scan"}, "bike_id": "e7b352f5ba266d9fd59f769087f3d346", "fusion_lat": 0.0}, {"lon": -77.03177933333333, "name": "e97336c5c25375294e0788155a103e7a", "is_disabled": 0, "type": "electric_scooter", "is_reserved": 0, "fusion_lon": 0.0, "lat": 38.911923, "rental_uris": {"ios": "https://dc.lft.to/lastmile_qr_scan", "android": "https://dc.lft.to/lastmile_qr_scan"}, "bike_id": "e97336c5c25375294e0788155a103e7a", "fusion_lat": 0.0}, {"lon": -77.03900433333334, "name": "c8169f4798cab26180dadd9f80f04543", "is_disabled": 0, "type": "electric_scooter", "is_reserved": 0, "fusion_lon": 0.0, "lat": 38.91838966666667, "rental_uris": {"ios": "https://dc.lft.to/lastmile_qr_scan", "android": "https://dc.lft.to/lastmile_qr_scan"}, "bike_id": "c8169f4798cab26180dadd9f80f04543", "fusion_lat": 0.0}, {"lon": -77.05473, "name": "d810f873e819944f8868743d4c2c19a3", "is_disabled": 0, "type": "electric_scooter", "is_reserved": 0, "fusion_lon": 0.0, "lat": 38.89730316666667, "rental_uris": {"ios": "https://dc.lft.to/lastmile_qr_scan", "android": "https://dc.lft.to/lastmile_qr_scan"}, "bike_id": "d810f873e819944f8868743d4c2c19a3", "fusion_lat": 0.0}, {"lon": -76.98595866666666, "name": "2e626229ee6a8a33ddb3902eb15ab538", "is_disabled": 0, "type": "electric_scooter", "is_reserved": 0, "fusion_lon": 0.0, "lat": 38.9002615, "rental_uris": {"ios": "https://dc.lft.to/lastmile_qr_scan", "android": "https://dc.lft.to/lastmile_qr_scan"}, "bike_id": "2e626229ee6a8a33ddb3902eb15ab538", "fusion_lat": 0.0}, {"lon": -76.98845216666666, "name": "72daccffdf96cba68c8d730acebae21b", "is_disabled": 0, "type": "electric_scooter", "is_reserved": 0, "fusion_lon": 0.0, "lat": 38.892475, "rental_uris": {"ios": "https://dc.lft.to/lastmile_qr_scan", "android": "https://dc.lft.to/lastmile_qr_scan"}, "bike_id": "72daccffdf96cba68c8d730acebae21b", "fusion_lat": 0.0}, {"lon": -77.02215733333334, "name": "166a6ba48b4498a7dde5f8c225fc167d", "is_disabled": 0, "type": "electric_scooter", "is_reserved": 0, "fusion_lon": 0.0, "lat": 38.924729666666664, "rental_uris": {"ios": "https://dc.lft.to/lastmile_qr_scan", "android": "https://dc.lft.to/lastmile_qr_scan"}, "bike_id": "166a6ba48b4498a7dde5f8c225fc167d", "fusion_lat": 0.0}, {"lon": -77.01904466666667, "name": "4bf6220f5596d3b0f591472671a1d3af", "is_disabled": 0, "type": "electric_scooter", "is_reserved": 0, "fusion_lon": 0.0, "lat": 38.923389, "rental_uris": {"ios": "https://dc.lft.to/lastmile_qr_scan", "android": "https://dc.lft.to/lastmile_qr_scan"}, "bike_id": "4bf6220f5596d3b0f591472671a1d3af", "fusion_lat": 0.0}, {"lon": -77.03262166666667, "name": "167b28705d7c4d2cde7fe7c3a80671c9", "is_disabled": 0, "type": "electric_scooter", "is_reserved": 0, "fusion_lon": 0.0, "lat": 38.9344805, "rental_uris": {"ios": "https://dc.lft.to/lastmile_qr_scan", "android": "https://dc.lft.to/lastmile_qr_scan"}, "bike_id": "167b28705d7c4d2cde7fe7c3a80671c9", "fusion_lat": 0.0}, {"lon": -77.02958566666666, "name": "94ab1ed1e8d71c9379eb2d250f3d1497", "is_disabled": 0, "type": "electric_scooter", "is_reserved": 0, "fusion_lon": 0.0, "lat": 38.9258845, "rental_uris": {"ios": "https://dc.lft.to/lastmile_qr_scan", "android": "https://dc.lft.to/lastmile_qr_scan"}, "bike_id": "94ab1ed1e8d71c9379eb2d250f3d1497", "fusion_lat": 0.0}, {"lon": -77.03184733333333, "name": "1ceb41444cf8f1259bac530ac1a822f5", "is_disabled": 0, "type": "electric_scooter", "is_reserved": 0, "fusion_lon": 0.0, "lat": 38.8923895, "rental_uris": {"ios": "https://dc.lft.to/lastmile_qr_scan", "android": "https://dc.lft.to/lastmile_qr_scan"}, "bike_id": "1ceb41444cf8f1259bac530ac1a822f5", "fusion_lat": 0.0}, {"lon": -76.98335466666667, "name": "bf044a77f7b2a80d1cfd0c66f288a968", "is_disabled": 0, "type": "electric_scooter", "is_reserved": 0, "fusion_lon": 0.0, "lat": 38.895445333333335, "rental_uris": {"ios": "https://dc.lft.to/lastmile_qr_scan", "android": "https://dc.lft.to/lastmile_qr_scan"}, "bike_id": "bf044a77f7b2a80d1cfd0c66f288a968", "fusion_lat": 0.0}, {"lon": -77.0657145, "name": "59dd8225a0f6445a7f6180c6ce1cdb4b", "is_disabled": 0, "type": "electric_bike", "is_reserved": 0, "fusion_lon": 0.0, "lat": 38.911305166666665, "rental_uris": {"ios": "https://dc.lft.to/lastmile_qr_scan", "android": "https://dc.lft.to/lastmile_qr_scan"}, "bike_id": "59dd8225a0f6445a7f6180c6ce1cdb4b", "fusion_lat": 0.0}, {"lon": -77.024314, "name": "56f3725f9315595797f8b6e1f0ba6859", "is_disabled": 0, "type": "electric_scooter", "is_reserved": 0, "fusion_lon": 0.0, "lat": 38.918525833333334, "rental_uris": {"ios": "https://dc.lft.to/lastmile_qr_scan", "android": "https://dc.lft.to/lastmile_qr_scan"}, "bike_id": "56f3725f9315595797f8b6e1f0ba6859", "fusion_lat": 0.0}, {"lon": -77.00216583333334, "name": "29aa75c9e65ead66d08cd1b3e265dd2e", "is_disabled": 0, "type": "electric_scooter", "is_reserved": 0, "fusion_lon": 0.0, "lat": 38.9118825, "rental_uris": {"ios": "https://dc.lft.to/lastmile_qr_scan", "android": "https://dc.lft.to/lastmile_qr_scan"}, "bike_id": "29aa75c9e65ead66d08cd1b3e265dd2e", "fusion_lat": 0.0}, {"lon": -77.03229683333333, "name": "56639df80b0e0d4547c2e783827c7889", "is_disabled": 0, "type": "electric_scooter", "is_reserved": 0, "fusion_lon": 0.0, "lat": 38.923580666666666, "rental_uris": {"ios": "https://dc.lft.to/lastmile_qr_scan", "android": "https://dc.lft.to/lastmile_qr_scan"}, "bike_id": "56639df80b0e0d4547c2e783827c7889", "fusion_lat": 0.0}, {"lon": -76.9785045, "name": "cb7e32a4f2c54366d43be66ef46d4019", "is_disabled": 0, "type": "electric_scooter", "is_reserved": 0, "fusion_lon": 0.0, "lat": 38.897191166666666, "rental_uris": {"ios": "https://dc.lft.to/lastmile_qr_scan", "android": "https://dc.lft.to/lastmile_qr_scan"}, "bike_id": "cb7e32a4f2c54366d43be66ef46d4019", "fusion_lat": 0.0}, {"lon": -77.02140766666666, "name": "f7c24f33ae2e3a0ec8374e34a2730b87", "is_disabled": 0, "type": "electric_scooter", "is_reserved": 0, "fusion_lon": 0.0, "lat": 38.9311385, "rental_uris": {"ios": "https://dc.lft.to/lastmile_qr_scan", "android": "https://dc.lft.to/lastmile_qr_scan"}, "bike_id": "f7c24f33ae2e3a0ec8374e34a2730b87", "fusion_lat": 0.0}, {"lon": -77.033843, "name": "c08fca73841d3fa606f7507059fd0461", "is_disabled": 0, "type": "electric_scooter", "is_reserved": 0, "fusion_lon": 0.0, "lat": 38.92158533333333, "rental_uris": {"ios": "https://dc.lft.to/lastmile_qr_scan", "android": "https://dc.lft.to/lastmile_qr_scan"}, "bike_id": "c08fca73841d3fa606f7507059fd0461", "fusion_lat": 0.0}, {"lon": -77.00736783333333, "name": "d1f90af5a1e1a9ba4beb65ccd81a0c61", "is_disabled": 0, "type": "electric_scooter", "is_reserved": 0, "fusion_lon": 0.0, "lat": 38.90385283333333, "rental_uris": {"ios": "https://dc.lft.to/lastmile_qr_scan", "android": "https://dc.lft.to/lastmile_qr_scan"}, "bike_id": "d1f90af5a1e1a9ba4beb65ccd81a0c61", "fusion_lat": 0.0}, {"lon": -77.03361416666667, "name": "6dcfb5d941fb84161d63f11bcb48d9ab", "is_disabled": 0, "type": "electric_scooter", "is_reserved": 0, "fusion_lon": 0.0, "lat": 38.92866216666667, "rental_uris": {"ios": "https://dc.lft.to/lastmile_qr_scan", "android": "https://dc.lft.to/lastmile_qr_scan"}, "bike_id": "6dcfb5d941fb84161d63f11bcb48d9ab", "fusion_lat": 0.0}, {"lon": -77.024496, "name": "8da5a1bd2a3ea8d95d9ccc872a015f53", "is_disabled": 0, "type": "electric_scooter", "is_reserved": 0, "fusion_lon": 0.0, "lat": 38.9497675, "rental_uris": {"ios": "https://dc.lft.to/lastmile_qr_scan", "android": "https://dc.lft.to/lastmile_qr_scan"}, "bike_id": "8da5a1bd2a3ea8d95d9ccc872a015f53", "fusion_lat": 0.0}, {"lon": -77.02037033333333, "name": "dafdd3483e4927806865b092ebf9d943", "is_disabled": 0, "type": "electric_scooter", "is_reserved": 0, "fusion_lon": 0.0, "lat": 38.92417583333334, "rental_uris": {"ios": "https://dc.lft.to/lastmile_qr_scan", "android": "https://dc.lft.to/lastmile_qr_scan"}, "bike_id": "dafdd3483e4927806865b092ebf9d943", "fusion_lat": 0.0}, {"lon": -77.02382083333333, "name": "949797f958e968534be0cbd57f4014a7", "is_disabled": 0, "type": "electric_scooter", "is_reserved": 0, "fusion_lon": 0.0, "lat": 38.95273483333333, "rental_uris": {"ios": "https://dc.lft.to/lastmile_qr_scan", "android": "https://dc.lft.to/lastmile_qr_scan"}, "bike_id": "949797f958e968534be0cbd57f4014a7", "fusion_lat": 0.0}, {"lon": -76.98557733333334, "name": "419b4f6619b6f23282cc90099fd62ed1", "is_disabled": 0, "type": "electric_scooter", "is_reserved": 0, "fusion_lon": 0.0, "lat": 38.907086, "rental_uris": {"ios": "https://dc.lft.to/lastmile_qr_scan", "android": "https://dc.lft.to/lastmile_qr_scan"}, "bike_id": "419b4f6619b6f23282cc90099fd62ed1", "fusion_lat": 0.0}, {"lon": -77.03855233333333, "name": "d1beeeff02416deb58e927595e8e9bdd", "is_disabled": 0, "type": "electric_scooter", "is_reserved": 0, "fusion_lon": 0.0, "lat": 38.91708833333333, "rental_uris": {"ios": "https://dc.lft.to/lastmile_qr_scan", "android": "https://dc.lft.to/lastmile_qr_scan"}, "bike_id": "d1beeeff02416deb58e927595e8e9bdd", "fusion_lat": 0.0}, {"lon": -77.0006915, "name": "b65942788aad2ec00e551f9cbab58ddd", "is_disabled": 0, "type": "electric_scooter", "is_reserved": 0, "fusion_lon": 0.0, "lat": 38.87540033333333, "rental_uris": {"ios": "https://dc.lft.to/lastmile_qr_scan", "android": "https://dc.lft.to/lastmile_qr_scan"}, "bike_id": "b65942788aad2ec00e551f9cbab58ddd", "fusion_lat": 0.0}, {"lon": -77.0339165, "name": "99913c7ce949d0febde964efdabe24ec", "is_disabled": 0, "type": "electric_scooter", "is_reserved": 0, "fusion_lon": 0.0, "lat": 38.921589833333336, "rental_uris": {"ios": "https://dc.lft.to/lastmile_qr_scan", "android": "https://dc.lft.to/lastmile_qr_scan"}, "bike_id": "99913c7ce949d0febde964efdabe24ec", "fusion_lat": 0.0}, {"lon": -77.006009, "name": "fa02196193139a7d96a612614f7dd6cb", "is_disabled": 0, "type": "electric_scooter", "is_reserved": 0, "fusion_lon": 0.0, "lat": 38.90564083333334, "rental_uris": {"ios": "https://dc.lft.to/lastmile_qr_scan", "android": "https://dc.lft.to/lastmile_qr_scan"}, "bike_id": "fa02196193139a7d96a612614f7dd6cb", "fusion_lat": 0.0}, {"lon": -77.01674033333333, "name": "6ed089239a53cdc62aab443f80be2a9f", "is_disabled": 0, "type": "electric_scooter", "is_reserved": 0, "fusion_lon": 0.0, "lat": 38.90267, "rental_uris": {"ios": "https://dc.lft.to/lastmile_qr_scan", "android": "https://dc.lft.to/lastmile_qr_scan"}, "bike_id": "6ed089239a53cdc62aab443f80be2a9f", "fusion_lat": 0.0}, {"lon": -77.024102, "name": "810ef4c2b64f2adcfc29705df7ffabf1", "is_disabled": 0, "type": "electric_scooter", "is_reserved": 0, "fusion_lon": 0.0, "lat": 38.927069, "rental_uris": {"ios": "https://dc.lft.to/lastmile_qr_scan", "android": "https://dc.lft.to/lastmile_qr_scan"}, "bike_id": "810ef4c2b64f2adcfc29705df7ffabf1", "fusion_lat": 0.0}, {"lon": -77.03142833333334, "name": "f1aafb4460053aaf6e2eea5986712d8c", "is_disabled": 0, "type": "electric_scooter", "is_reserved": 0, "fusion_lon": 0.0, "lat": 38.92809583333333, "rental_uris": {"ios": "https://dc.lft.to/lastmile_qr_scan", "android": "https://dc.lft.to/lastmile_qr_scan"}, "bike_id": "f1aafb4460053aaf6e2eea5986712d8c", "fusion_lat": 0.0}, {"lon": -77.028173, "name": "f2cf2bcab803371f5f8b5d48df018e43", "is_disabled": 0, "type": "electric_scooter", "is_reserved": 0, "fusion_lon": 0.0, "lat": 38.906953, "rental_uris": {"ios": "https://dc.lft.to/lastmile_qr_scan", "android": "https://dc.lft.to/lastmile_qr_scan"}, "bike_id": "f2cf2bcab803371f5f8b5d48df018e43", "fusion_lat": 0.0}, {"lon": -77.0158225, "name": "0f73e4b3417466c2276828373d1e4482", "is_disabled": 0, "type": "electric_scooter", "is_reserved": 0, "fusion_lon": 0.0, "lat": 38.876652, "rental_uris": {"ios": "https://dc.lft.to/lastmile_qr_scan", "android": "https://dc.lft.to/lastmile_qr_scan"}, "bike_id": "0f73e4b3417466c2276828373d1e4482", "fusion_lat": 0.0}, {"lon": -77.05757333333334, "name": "e377241c0029ca2aec50d8cbf2bc27fb", "is_disabled": 0, "type": "electric_scooter", "is_reserved": 0, "fusion_lon": 0.0, "lat": 38.924554, "rental_uris": {"ios": "https://dc.lft.to/lastmile_qr_scan", "android": "https://dc.lft.to/lastmile_qr_scan"}, "bike_id": "e377241c0029ca2aec50d8cbf2bc27fb", "fusion_lat": 0.0}, {"lon": -77.0234275, "name": "fc0b6812d9c5232d7469877115fd23e4", "is_disabled": 0, "type": "electric_scooter", "is_reserved": 0, "fusion_lon": 0.0, "lat": 38.929712333333335, "rental_uris": {"ios": "https://dc.lft.to/lastmile_qr_scan", "android": "https://dc.lft.to/lastmile_qr_scan"}, "bike_id": "fc0b6812d9c5232d7469877115fd23e4", "fusion_lat": 0.0}, {"lon": -77.031846, "name": "17cb4c2d514e881824d6e8ba5b0a93a3", "is_disabled": 0, "type": "electric_scooter", "is_reserved": 0, "fusion_lon": 0.0, "lat": 38.89241283333333, "rental_uris": {"ios": "https://dc.lft.to/lastmile_qr_scan", "android": "https://dc.lft.to/lastmile_qr_scan"}, "bike_id": "17cb4c2d514e881824d6e8ba5b0a93a3", "fusion_lat": 0.0}, {"lon": -76.98870566666666, "name": "758ba3c2537fc9d0a73f2d37e043103e", "is_disabled": 0, "type": "electric_scooter", "is_reserved": 0, "fusion_lon": 0.0, "lat": 38.91343066666667, "rental_uris": {"ios": "https://dc.lft.to/lastmile_qr_scan", "android": "https://dc.lft.to/lastmile_qr_scan"}, "bike_id": "758ba3c2537fc9d0a73f2d37e043103e", "fusion_lat": 0.0}, {"lon": -77.00147633333333, "name": "bc5728dd3dcfb2ad7e4525bcdcfabede", "is_disabled": 0, "type": "electric_scooter", "is_reserved": 0, "fusion_lon": 0.0, "lat": 38.86751966666667, "rental_uris": {"ios": "https://dc.lft.to/lastmile_qr_scan", "android": "https://dc.lft.to/lastmile_qr_scan"}, "bike_id": "bc5728dd3dcfb2ad7e4525bcdcfabede", "fusion_lat": 0.0}, {"lon": -77.03609283333333, "name": "0f5d60946cbecbac773ef48d6fdb8408", "is_disabled": 0, "type": "electric_scooter", "is_reserved": 0, "fusion_lon": 0.0, "lat": 38.923227833333335, "rental_uris": {"ios": "https://dc.lft.to/lastmile_qr_scan", "android": "https://dc.lft.to/lastmile_qr_scan"}, "bike_id": "0f5d60946cbecbac773ef48d6fdb8408", "fusion_lat": 0.0}, {"lon": -77.04826383333334, "name": "9ecaae52c477f619f9b76c8e5d452e34", "is_disabled": 0, "type": "electric_scooter", "is_reserved": 0, "fusion_lon": 0.0, "lat": 38.90216316666667, "rental_uris": {"ios": "https://dc.lft.to/lastmile_qr_scan", "android": "https://dc.lft.to/lastmile_qr_scan"}, "bike_id": "9ecaae52c477f619f9b76c8e5d452e34", "fusion_lat": 0.0}, {"lon": -77.04510466666666, "name": "0dfaa80c4c2536d4db3c0e5220cb1683", "is_disabled": 0, "type": "electric_scooter", "is_reserved": 0, "fusion_lon": 0.0, "lat": 38.910103166666666, "rental_uris": {"ios": "https://dc.lft.to/lastmile_qr_scan", "android": "https://dc.lft.to/lastmile_qr_scan"}, "bike_id": "0dfaa80c4c2536d4db3c0e5220cb1683", "fusion_lat": 0.0}, {"lon": -76.95065266666667, "name": "36bb6cd1d842463e04a4ba30ceafc523", "is_disabled": 0, "type": "electric_bike", "is_reserved": 0, "fusion_lon": 0.0, "lat": 39.08509466666667, "rental_uris": {"ios": "https://dc.lft.to/lastmile_qr_scan", "android": "https://dc.lft.to/lastmile_qr_scan"}, "bike_id": "36bb6cd1d842463e04a4ba30ceafc523", "fusion_lat": 0.0}, {"lon": -77.00578783333333, "name": "171b597151da8255b2b3d8df47f6ebd5", "is_disabled": 0, "type": "electric_scooter", "is_reserved": 0, "fusion_lon": 0.0, "lat": 38.8721825, "rental_uris": {"ios": "https://dc.lft.to/lastmile_qr_scan", "android": "https://dc.lft.to/lastmile_qr_scan"}, "bike_id": "171b597151da8255b2b3d8df47f6ebd5", "fusion_lat": 0.0}, {"lon": -77.02932483333333, "name": "9e21624b1e518d8e5c7bc8a456a08b8a", "is_disabled": 0, "type": "electric_scooter", "is_reserved": 0, "fusion_lon": 0.0, "lat": 38.942825, "rental_uris": {"ios": "https://dc.lft.to/lastmile_qr_scan", "android": "https://dc.lft.to/lastmile_qr_scan"}, "bike_id": "9e21624b1e518d8e5c7bc8a456a08b8a", "fusion_lat": 0.0}, {"lon": -77.01945783333333, "name": "e6f027ebb1cf74b9f9b11d2e3891eac3", "is_disabled": 0, "type": "electric_scooter", "is_reserved": 0, "fusion_lon": 0.0, "lat": 38.97474166666667, "rental_uris": {"ios": "https://dc.lft.to/lastmile_qr_scan", "android": "https://dc.lft.to/lastmile_qr_scan"}, "bike_id": "e6f027ebb1cf74b9f9b11d2e3891eac3", "fusion_lat": 0.0}, {"lon": -76.98245066666667, "name": "b5b8763cbc69b069d76c51158bf1d4fd", "is_disabled": 0, "type": "electric_scooter", "is_reserved": 0, "fusion_lon": 0.0, "lat": 38.864599166666665, "rental_uris": {"ios": "https://dc.lft.to/lastmile_qr_scan", "android": "https://dc.lft.to/lastmile_qr_scan"}, "bike_id": "b5b8763cbc69b069d76c51158bf1d4fd", "fusion_lat": 0.0}, {"lon": -77.0347235, "name": "83ec8c1b8db1cef75549f09ee638e42e", "is_disabled": 0, "type": "electric_scooter", "is_reserved": 0, "fusion_lon": 0.0, "lat": 38.904515833333335, "rental_uris": {"ios": "https://dc.lft.to/lastmile_qr_scan", "android": "https://dc.lft.to/lastmile_qr_scan"}, "bike_id": "83ec8c1b8db1cef75549f09ee638e42e", "fusion_lat": 0.0}, {"lon": -77.00687216666667, "name": "b2cb31aaaf8280dc5206f66af67b1b08", "is_disabled": 0, "type": "electric_scooter", "is_reserved": 0, "fusion_lon": 0.0, "lat": 38.87938783333333, "rental_uris": {"ios": "https://dc.lft.to/lastmile_qr_scan", "android": "https://dc.lft.to/lastmile_qr_scan"}, "bike_id": "b2cb31aaaf8280dc5206f66af67b1b08", "fusion_lat": 0.0}, {"lon": -77.0370435, "name": "efa3ba83ca57516fc99080f20dad9e42", "is_disabled": 0, "type": "electric_scooter", "is_reserved": 0, "fusion_lon": 0.0, "lat": 38.930621333333335, "rental_uris": {"ios": "https://dc.lft.to/lastmile_qr_scan", "android": "https://dc.lft.to/lastmile_qr_scan"}, "bike_id": "efa3ba83ca57516fc99080f20dad9e42", "fusion_lat": 0.0}, {"lon": -77.02757766666667, "name": "43850432c494ee345def4a5415396a1d", "is_disabled": 0, "type": "electric_scooter", "is_reserved": 0, "fusion_lon": 0.0, "lat": 38.92578816666666, "rental_uris": {"ios": "https://dc.lft.to/lastmile_qr_scan", "android": "https://dc.lft.to/lastmile_qr_scan"}, "bike_id": "43850432c494ee345def4a5415396a1d", "fusion_lat": 0.0}, {"lon": -77.00355083333334, "name": "bef733d3f61fe6fa52a72d69654be977", "is_disabled": 0, "type": "electric_scooter", "is_reserved": 0, "fusion_lon": 0.0, "lat": 38.917654666666664, "rental_uris": {"ios": "https://dc.lft.to/lastmile_qr_scan", "android": "https://dc.lft.to/lastmile_qr_scan"}, "bike_id": "bef733d3f61fe6fa52a72d69654be977", "fusion_lat": 0.0}, {"lon": -76.99101783333333, "name": "6d8e06be439d9ae62729648b142fcae2", "is_disabled": 0, "type": "electric_bike", "is_reserved": 0, "fusion_lon": 0.0, "lat": 38.80481, "rental_uris": {"ios": "https://dc.lft.to/lastmile_qr_scan", "android": "https://dc.lft.to/lastmile_qr_scan"}, "bike_id": "6d8e06be439d9ae62729648b142fcae2", "fusion_lat": 0.0}, {"lon": -76.98722066666667, "name": "5ef64509bfbe81164c35654c75c9280e", "is_disabled": 0, "type": "electric_bike", "is_reserved": 0, "fusion_lon": 0.0, "lat": 38.863341, "rental_uris": {"ios": "https://dc.lft.to/lastmile_qr_scan", "android": "https://dc.lft.to/lastmile_qr_scan"}, "bike_id": "5ef64509bfbe81164c35654c75c9280e", "fusion_lat": 0.0}, {"lon": -76.97562183333334, "name": "3b676aef1342218592283bec6c4818bf", "is_disabled": 0, "type": "electric_bike", "is_reserved": 0, "fusion_lon": 0.0, "lat": 38.872653, "rental_uris": {"ios": "https://dc.lft.to/lastmile_qr_scan", "android": "https://dc.lft.to/lastmile_qr_scan"}, "bike_id": "3b676aef1342218592283bec6c4818bf", "fusion_lat": 0.0}, {"lon": -77.01265366666667, "name": "aa072519568f9dcb072ffa03c3e19c93", "is_disabled": 0, "type": "electric_scooter", "is_reserved": 0, "fusion_lon": 0.0, "lat": 38.86451483333333, "rental_uris": {"ios": "https://dc.lft.to/lastmile_qr_scan", "android": "https://dc.lft.to/lastmile_qr_scan"}, "bike_id": "aa072519568f9dcb072ffa03c3e19c93", "fusion_lat": 0.0}, {"lon": -77.03211066666667, "name": "a5603ad5a6e70ae5f9c5022f609d5ab7", "is_disabled": 0, "type": "electric_scooter", "is_reserved": 0, "fusion_lon": 0.0, "lat": 38.916379666666664, "rental_uris": {"ios": "https://dc.lft.to/lastmile_qr_scan", "android": "https://dc.lft.to/lastmile_qr_scan"}, "bike_id": "a5603ad5a6e70ae5f9c5022f609d5ab7", "fusion_lat": 0.0}, {"lon": -77.03659383333333, "name": "81513d6d021410ab0a6acceb503e91fa", "is_disabled": 0, "type": "electric_scooter", "is_reserved": 0, "fusion_lon": 0.0, "lat": 38.923339666666664, "rental_uris": {"ios": "https://dc.lft.to/lastmile_qr_scan", "android": "https://dc.lft.to/lastmile_qr_scan"}, "bike_id": "81513d6d021410ab0a6acceb503e91fa", "fusion_lat": 0.0}, {"lon": -77.01850633333333, "name": "2b361a076d92d97a9eb4b4f28aee2310", "is_disabled": 0, "type": "electric_scooter", "is_reserved": 0, "fusion_lon": 0.0, "lat": 38.9489125, "rental_uris": {"ios": "https://dc.lft.to/lastmile_qr_scan", "android": "https://dc.lft.to/lastmile_qr_scan"}, "bike_id": "2b361a076d92d97a9eb4b4f28aee2310", "fusion_lat": 0.0}, {"lon": -77.08021916666667, "name": "b2ff0849ec8f3ba5917d2a3bc1ecfb32", "is_disabled": 0, "type": "electric_bike", "is_reserved": 0, "fusion_lon": 0.0, "lat": 38.95778333333333, "rental_uris": {"ios": "https://dc.lft.to/lastmile_qr_scan", "android": "https://dc.lft.to/lastmile_qr_scan"}, "bike_id": "b2ff0849ec8f3ba5917d2a3bc1ecfb32", "fusion_lat": 0.0}, {"lon": -76.99381533333333, "name": "551bfe7198798b972d356569d1d32f5b", "is_disabled": 0, "type": "electric_scooter", "is_reserved": 0, "fusion_lon": 0.0, "lat": 38.89343983333333, "rental_uris": {"ios": "https://dc.lft.to/lastmile_qr_scan", "android": "https://dc.lft.to/lastmile_qr_scan"}, "bike_id": "551bfe7198798b972d356569d1d32f5b", "fusion_lat": 0.0}, {"lon": -77.01554666666667, "name": "25f0a97dd5737aa0040689506fb2cdf3", "is_disabled": 0, "type": "electric_scooter", "is_reserved": 0, "fusion_lon": 0.0, "lat": 38.8921855, "rental_uris": {"ios": "https://dc.lft.to/lastmile_qr_scan", "android": "https://dc.lft.to/lastmile_qr_scan"}, "bike_id": "25f0a97dd5737aa0040689506fb2cdf3", "fusion_lat": 0.0}, {"lon": -77.028171, "name": "37e5843ff4e03b401b38bf06bdd8a2cd", "is_disabled": 0, "type": "electric_scooter", "is_reserved": 0, "fusion_lon": 0.0, "lat": 38.96133183333333, "rental_uris": {"ios": "https://dc.lft.to/lastmile_qr_scan", "android": "https://dc.lft.to/lastmile_qr_scan"}, "bike_id": "37e5843ff4e03b401b38bf06bdd8a2cd", "fusion_lat": 0.0}, {"lon": -77.057043, "name": "1a6a459b581c0504e627a30411945d09", "is_disabled": 0, "type": "electric_scooter", "is_reserved": 0, "fusion_lon": 0.0, "lat": 38.9166785, "rental_uris": {"ios": "https://dc.lft.to/lastmile_qr_scan", "android": "https://dc.lft.to/lastmile_qr_scan"}, "bike_id": "1a6a459b581c0504e627a30411945d09", "fusion_lat": 0.0}, {"lon": -77.041289, "name": "82402a09237994fcb3388a213503a716", "is_disabled": 0, "type": "electric_scooter", "is_reserved": 0, "fusion_lon": 0.0, "lat": 38.906381, "rental_uris": {"ios": "https://dc.lft.to/lastmile_qr_scan", "android": "https://dc.lft.to/lastmile_qr_scan"}, "bike_id": "82402a09237994fcb3388a213503a716", "fusion_lat": 0.0}, {"lon": -76.97745983333333, "name": "965598749ebc05242c96e718225eb4b5", "is_disabled": 0, "type": "electric_scooter", "is_reserved": 0, "fusion_lon": 0.0, "lat": 38.90015316666667, "rental_uris": {"ios": "https://dc.lft.to/lastmile_qr_scan", "android": "https://dc.lft.to/lastmile_qr_scan"}, "bike_id": "965598749ebc05242c96e718225eb4b5", "fusion_lat": 0.0}, {"lon": -76.99334666666667, "name": "d411bca74a7382869f17e56c8b17d15b", "is_disabled": 0, "type": "electric_scooter", "is_reserved": 0, "fusion_lon": 0.0, "lat": 38.900571666666664, "rental_uris": {"ios": "https://dc.lft.to/lastmile_qr_scan", "android": "https://dc.lft.to/lastmile_qr_scan"}, "bike_id": "d411bca74a7382869f17e56c8b17d15b", "fusion_lat": 0.0}, {"lon": -76.92508816666667, "name": "10c0b0e23db2bd6edd73899e10a45e13", "is_disabled": 0, "type": "electric_scooter", "is_reserved": 0, "fusion_lon": 0.0, "lat": 38.88602916666667, "rental_uris": {"ios": "https://dc.lft.to/lastmile_qr_scan", "android": "https://dc.lft.to/lastmile_qr_scan"}, "bike_id": "10c0b0e23db2bd6edd73899e10a45e13", "fusion_lat": 0.0}, {"lon": -77.05474516666666, "name": "fdd9f46333e4e1920e5bd5a9d48daea9", "is_disabled": 0, "type": "electric_scooter", "is_reserved": 0, "fusion_lon": 0.0, "lat": 38.893912, "rental_uris": {"ios": "https://dc.lft.to/lastmile_qr_scan", "android": "https://dc.lft.to/lastmile_qr_scan"}, "bike_id": "fdd9f46333e4e1920e5bd5a9d48daea9", "fusion_lat": 0.0}, {"lon": -77.00534233333333, "name": "a62f66ec8cb08acba1e5674e3a217ee7", "is_disabled": 0, "type": "electric_scooter", "is_reserved": 0, "fusion_lon": 0.0, "lat": 38.87545266666667, "rental_uris": {"ios": "https://dc.lft.to/lastmile_qr_scan", "android": "https://dc.lft.to/lastmile_qr_scan"}, "bike_id": "a62f66ec8cb08acba1e5674e3a217ee7", "fusion_lat": 0.0}, {"lon": -76.98234533333333, "name": "de8c0f7f4ec7309c1858bd19627342b1", "is_disabled": 0, "type": "electric_scooter", "is_reserved": 0, "fusion_lon": 0.0, "lat": 38.90472883333333, "rental_uris": {"ios": "https://dc.lft.to/lastmile_qr_scan", "android": "https://dc.lft.to/lastmile_qr_scan"}, "bike_id": "de8c0f7f4ec7309c1858bd19627342b1", "fusion_lat": 0.0}, {"lon": -77.02314866666667, "name": "e0cc2e8c3988bfaa727ede38281c0dd6", "is_disabled": 0, "type": "electric_scooter", "is_reserved": 0, "fusion_lon": 0.0, "lat": 38.92073583333333, "rental_uris": {"ios": "https://dc.lft.to/lastmile_qr_scan", "android": "https://dc.lft.to/lastmile_qr_scan"}, "bike_id": "e0cc2e8c3988bfaa727ede38281c0dd6", "fusion_lat": 0.0}, {"lon": -77.01992533333333, "name": "995191d5ba16d55257dd25ea6ca87d4e", "is_disabled": 0, "type": "electric_scooter", "is_reserved": 0, "fusion_lon": 0.0, "lat": 38.937793, "rental_uris": {"ios": "https://dc.lft.to/lastmile_qr_scan", "android": "https://dc.lft.to/lastmile_qr_scan"}, "bike_id": "995191d5ba16d55257dd25ea6ca87d4e", "fusion_lat": 0.0}, {"lon": -77.0240795, "name": "578f37c17d34b1059ac9019d21b9a6e3", "is_disabled": 0, "type": "electric_scooter", "is_reserved": 0, "fusion_lon": 0.0, "lat": 38.898830333333336, "rental_uris": {"ios": "https://dc.lft.to/lastmile_qr_scan", "android": "https://dc.lft.to/lastmile_qr_scan"}, "bike_id": "578f37c17d34b1059ac9019d21b9a6e3", "fusion_lat": 0.0}, {"lon": -77.02420083333334, "name": "173fabfc7b41df1152d1623e2779e790", "is_disabled": 0, "type": "electric_scooter", "is_reserved": 0, "fusion_lon": 0.0, "lat": 38.9207395, "rental_uris": {"ios": "https://dc.lft.to/lastmile_qr_scan", "android": "https://dc.lft.to/lastmile_qr_scan"}, "bike_id": "173fabfc7b41df1152d1623e2779e790", "fusion_lat": 0.0}, {"lon": -76.99691233333333, "name": "c98d03cdf1b5bf51797facb2ad2b2d34", "is_disabled": 0, "type": "electric_scooter", "is_reserved": 0, "fusion_lon": 0.0, "lat": 38.9079935, "rental_uris": {"ios": "https://dc.lft.to/lastmile_qr_scan", "android": "https://dc.lft.to/lastmile_qr_scan"}, "bike_id": "c98d03cdf1b5bf51797facb2ad2b2d34", "fusion_lat": 0.0}, {"lon": -77.0003525, "name": "2c48ca83f02ba3c66caa8a9c9585a6ca", "is_disabled": 0, "type": "electric_scooter", "is_reserved": 0, "fusion_lon": 0.0, "lat": 38.90817583333333, "rental_uris": {"ios": "https://dc.lft.to/lastmile_qr_scan", "android": "https://dc.lft.to/lastmile_qr_scan"}, "bike_id": "2c48ca83f02ba3c66caa8a9c9585a6ca", "fusion_lat": 0.0}, {"lon": -77.02530233333333, "name": "f10a51741c17d94b7481e7c5bf602573", "is_disabled": 0, "type": "electric_scooter", "is_reserved": 0, "fusion_lon": 0.0, "lat": 38.94840216666667, "rental_uris": {"ios": "https://dc.lft.to/lastmile_qr_scan", "android": "https://dc.lft.to/lastmile_qr_scan"}, "bike_id": "f10a51741c17d94b7481e7c5bf602573", "fusion_lat": 0.0}, {"lon": -76.973304, "name": "566d696267c8a98e37916b2896429c9b", "is_disabled": 0, "type": "electric_scooter", "is_reserved": 0, "fusion_lon": 0.0, "lat": 38.904106166666665, "rental_uris": {"ios": "https://dc.lft.to/lastmile_qr_scan", "android": "https://dc.lft.to/lastmile_qr_scan"}, "bike_id": "566d696267c8a98e37916b2896429c9b", "fusion_lat": 0.0}, {"lon": -76.9837185, "name": "82b1b99dcb2e3b6877e336f07b690c10", "is_disabled": 0, "type": "electric_scooter", "is_reserved": 0, "fusion_lon": 0.0, "lat": 38.860353833333335, "rental_uris": {"ios": "https://dc.lft.to/lastmile_qr_scan", "android": "https://dc.lft.to/lastmile_qr_scan"}, "bike_id": "82b1b99dcb2e3b6877e336f07b690c10", "fusion_lat": 0.0}, {"lon": -77.072378, "name": "8999e852e758ace4d260ec011b4e1840", "is_disabled": 0, "type": "electric_scooter", "is_reserved": 0, "fusion_lon": 0.0, "lat": 38.941171833333335, "rental_uris": {"ios": "https://dc.lft.to/lastmile_qr_scan", "android": "https://dc.lft.to/lastmile_qr_scan"}, "bike_id": "8999e852e758ace4d260ec011b4e1840", "fusion_lat": 0.0}, {"lon": -76.9721985, "name": "50cf1093a3508a973dfea99f1deb093a", "is_disabled": 0, "type": "electric_bike", "is_reserved": 0, "fusion_lon": 0.0, "lat": 38.90028933333333, "rental_uris": {"ios": "https://dc.lft.to/lastmile_qr_scan", "android": "https://dc.lft.to/lastmile_qr_scan"}, "bike_id": "50cf1093a3508a973dfea99f1deb093a", "fusion_lat": 0.0}, {"lon": -77.04017683333333, "name": "de2ad8ad72a9847f7306a435362e4349", "is_disabled": 0, "type": "electric_scooter", "is_reserved": 0, "fusion_lon": 0.0, "lat": 38.921701166666665, "rental_uris": {"ios": "https://dc.lft.to/lastmile_qr_scan", "android": "https://dc.lft.to/lastmile_qr_scan"}, "bike_id": "de2ad8ad72a9847f7306a435362e4349", "fusion_lat": 0.0}, {"lon": -77.0279465, "name": "eafc5d2f3b20cbc69524cb4bf1d1740e", "is_disabled": 0, "type": "electric_scooter", "is_reserved": 0, "fusion_lon": 0.0, "lat": 38.93080333333333, "rental_uris": {"ios": "https://dc.lft.to/lastmile_qr_scan", "android": "https://dc.lft.to/lastmile_qr_scan"}, "bike_id": "eafc5d2f3b20cbc69524cb4bf1d1740e", "fusion_lat": 0.0}, {"lon": -76.97593183333333, "name": "d8f9a750b005264fd36c1ea9f730408e", "is_disabled": 0, "type": "electric_scooter", "is_reserved": 0, "fusion_lon": 0.0, "lat": 38.9033415, "rental_uris": {"ios": "https://dc.lft.to/lastmile_qr_scan", "android": "https://dc.lft.to/lastmile_qr_scan"}, "bike_id": "d8f9a750b005264fd36c1ea9f730408e", "fusion_lat": 0.0}, {"lon": -77.023496, "name": "f57d5dc2704522ce0a08fe2cb64543cd", "is_disabled": 0, "type": "electric_scooter", "is_reserved": 0, "fusion_lon": 0.0, "lat": 38.931355833333335, "rental_uris": {"ios": "https://dc.lft.to/lastmile_qr_scan", "android": "https://dc.lft.to/lastmile_qr_scan"}, "bike_id": "f57d5dc2704522ce0a08fe2cb64543cd", "fusion_lat": 0.0}, {"lon": -76.92439433333334, "name": "8b2aae4d163c15764d7f89abbaa7b79a", "is_disabled": 0, "type": "electric_scooter", "is_reserved": 0, "fusion_lon": 0.0, "lat": 38.88514, "rental_uris": {"ios": "https://dc.lft.to/lastmile_qr_scan", "android": "https://dc.lft.to/lastmile_qr_scan"}, "bike_id": "8b2aae4d163c15764d7f89abbaa7b79a", "fusion_lat": 0.0}, {"lon": -76.90749766666667, "name": "2a0281e11ce0dd5f40d6021423692ab7", "is_disabled": 0, "type": "electric_bike", "is_reserved": 0, "fusion_lon": 0.0, "lat": 38.8962055, "rental_uris": {"ios": "https://dc.lft.to/lastmile_qr_scan", "android": "https://dc.lft.to/lastmile_qr_scan"}, "bike_id": "2a0281e11ce0dd5f40d6021423692ab7", "fusion_lat": 0.0}, {"lon": -77.0224845, "name": "87b3dc966587f5796cc3a4b0d73bcfff", "is_disabled": 0, "type": "electric_scooter", "is_reserved": 0, "fusion_lon": 0.0, "lat": 38.9243165, "rental_uris": {"ios": "https://dc.lft.to/lastmile_qr_scan", "android": "https://dc.lft.to/lastmile_qr_scan"}, "bike_id": "87b3dc966587f5796cc3a4b0d73bcfff", "fusion_lat": 0.0}, {"lon": -77.02192016666666, "name": "c989c7cd71f3bc3694da4c7d49e595e0", "is_disabled": 0, "type": "electric_scooter", "is_reserved": 0, "fusion_lon": 0.0, "lat": 38.90129733333333, "rental_uris": {"ios": "https://dc.lft.to/lastmile_qr_scan", "android": "https://dc.lft.to/lastmile_qr_scan"}, "bike_id": "c989c7cd71f3bc3694da4c7d49e595e0", "fusion_lat": 0.0}, {"lon": -77.04103833333333, "name": "a381c14a14a1d1ca6806afd845e11ec1", "is_disabled": 0, "type": "electric_scooter", "is_reserved": 0, "fusion_lon": 0.0, "lat": 38.89225283333333, "rental_uris": {"ios": "https://dc.lft.to/lastmile_qr_scan", "android": "https://dc.lft.to/lastmile_qr_scan"}, "bike_id": "a381c14a14a1d1ca6806afd845e11ec1", "fusion_lat": 0.0}, {"lon": -77.03174583333333, "name": "761726f3ffcf4a7589ef1a4b686f9d24", "is_disabled": 0, "type": "electric_scooter", "is_reserved": 0, "fusion_lon": 0.0, "lat": 38.8922215, "rental_uris": {"ios": "https://dc.lft.to/lastmile_qr_scan", "android": "https://dc.lft.to/lastmile_qr_scan"}, "bike_id": "761726f3ffcf4a7589ef1a4b686f9d24", "fusion_lat": 0.0}, {"lon": -77.00710083333334, "name": "692ed6393e0aa2d883ba815b283ca472", "is_disabled": 0, "type": "electric_scooter", "is_reserved": 0, "fusion_lon": 0.0, "lat": 38.90729283333334, "rental_uris": {"ios": "https://dc.lft.to/lastmile_qr_scan", "android": "https://dc.lft.to/lastmile_qr_scan"}, "bike_id": "692ed6393e0aa2d883ba815b283ca472", "fusion_lat": 0.0}, {"lon": -76.95767283333333, "name": "cc6521a2fe848af2c261ff96ceb2f336", "is_disabled": 0, "type": "electric_scooter", "is_reserved": 0, "fusion_lon": 0.0, "lat": 38.883577833333334, "rental_uris": {"ios": "https://dc.lft.to/lastmile_qr_scan", "android": "https://dc.lft.to/lastmile_qr_scan"}, "bike_id": "cc6521a2fe848af2c261ff96ceb2f336", "fusion_lat": 0.0}, {"lon": -77.0228945, "name": "08cd8902d223525936bf26f23fec9b6d", "is_disabled": 0, "type": "electric_scooter", "is_reserved": 0, "fusion_lon": 0.0, "lat": 38.917841833333334, "rental_uris": {"ios": "https://dc.lft.to/lastmile_qr_scan", "android": "https://dc.lft.to/lastmile_qr_scan"}, "bike_id": "08cd8902d223525936bf26f23fec9b6d", "fusion_lat": 0.0}, {"lon": -77.02224483333333, "name": "5e44cccefaf97c26c2fe0a28cecce4c7", "is_disabled": 0, "type": "electric_scooter", "is_reserved": 0, "fusion_lon": 0.0, "lat": 38.92483, "rental_uris": {"ios": "https://dc.lft.to/lastmile_qr_scan", "android": "https://dc.lft.to/lastmile_qr_scan"}, "bike_id": "5e44cccefaf97c26c2fe0a28cecce4c7", "fusion_lat": 0.0}, {"lon": -77.02794966666667, "name": "12c2eafa551479fd9a0d9e472581716b", "is_disabled": 0, "type": "electric_scooter", "is_reserved": 0, "fusion_lon": 0.0, "lat": 38.94179666666667, "rental_uris": {"ios": "https://dc.lft.to/lastmile_qr_scan", "android": "https://dc.lft.to/lastmile_qr_scan"}, "bike_id": "12c2eafa551479fd9a0d9e472581716b", "fusion_lat": 0.0}, {"lon": -77.01556116666667, "name": "174d23e9cf5eb86decfed1afef53d43b", "is_disabled": 0, "type": "electric_scooter", "is_reserved": 0, "fusion_lon": 0.0, "lat": 38.8921495, "rental_uris": {"ios": "https://dc.lft.to/lastmile_qr_scan", "android": "https://dc.lft.to/lastmile_qr_scan"}, "bike_id": "174d23e9cf5eb86decfed1afef53d43b", "fusion_lat": 0.0}, {"lon": -76.98025733333333, "name": "361045b005f22c57bba1c863491ce4e8", "is_disabled": 0, "type": "electric_bike", "is_reserved": 0, "fusion_lon": 0.0, "lat": 38.8681705, "rental_uris": {"ios": "https://dc.lft.to/lastmile_qr_scan", "android": "https://dc.lft.to/lastmile_qr_scan"}, "bike_id": "361045b005f22c57bba1c863491ce4e8", "fusion_lat": 0.0}, {"lon": -77.02474683333334, "name": "ee674fc34f7c21dcb66dac753b8105e5", "is_disabled": 0, "type": "electric_scooter", "is_reserved": 0, "fusion_lon": 0.0, "lat": 38.936227333333335, "rental_uris": {"ios": "https://dc.lft.to/lastmile_qr_scan", "android": "https://dc.lft.to/lastmile_qr_scan"}, "bike_id": "ee674fc34f7c21dcb66dac753b8105e5", "fusion_lat": 0.0}, {"lon": -77.02704433333334, "name": "0eec649f3af98ab6215417e1a1d21d46", "is_disabled": 0, "type": "electric_scooter", "is_reserved": 0, "fusion_lon": 0.0, "lat": 38.928778666666666, "rental_uris": {"ios": "https://dc.lft.to/lastmile_qr_scan", "android": "https://dc.lft.to/lastmile_qr_scan"}, "bike_id": "0eec649f3af98ab6215417e1a1d21d46", "fusion_lat": 0.0}, {"lon": -76.98032866666667, "name": "98258698b2726d8d5c69c1c25303c7e3", "is_disabled": 0, "type": "electric_scooter", "is_reserved": 0, "fusion_lon": 0.0, "lat": 38.889658833333336, "rental_uris": {"ios": "https://dc.lft.to/lastmile_qr_scan", "android": "https://dc.lft.to/lastmile_qr_scan"}, "bike_id": "98258698b2726d8d5c69c1c25303c7e3", "fusion_lat": 0.0}, {"lon": -77.019775, "name": "1cc64795accc00e8e57d2ef5cd8460a9", "is_disabled": 0, "type": "electric_scooter", "is_reserved": 0, "fusion_lon": 0.0, "lat": 38.885902333333334, "rental_uris": {"ios": "https://dc.lft.to/lastmile_qr_scan", "android": "https://dc.lft.to/lastmile_qr_scan"}, "bike_id": "1cc64795accc00e8e57d2ef5cd8460a9", "fusion_lat": 0.0}, {"lon": -76.944614, "name": "1ae9e73a0246ff73e25ac76885cc4fde", "is_disabled": 0, "type": "electric_scooter", "is_reserved": 0, "fusion_lon": 0.0, "lat": 38.89025266666667, "rental_uris": {"ios": "https://dc.lft.to/lastmile_qr_scan", "android": "https://dc.lft.to/lastmile_qr_scan"}, "bike_id": "1ae9e73a0246ff73e25ac76885cc4fde", "fusion_lat": 0.0}, {"lon": -77.02613383333333, "name": "7d172f2412488c9f45142ebe36586630", "is_disabled": 0, "type": "electric_scooter", "is_reserved": 0, "fusion_lon": 0.0, "lat": 38.89747366666667, "rental_uris": {"ios": "https://dc.lft.to/lastmile_qr_scan", "android": "https://dc.lft.to/lastmile_qr_scan"}, "bike_id": "7d172f2412488c9f45142ebe36586630", "fusion_lat": 0.0}, {"lon": -77.02285033333334, "name": "296c149002b3349a4891f3d63028d0a7", "is_disabled": 0, "type": "electric_scooter", "is_reserved": 0, "fusion_lon": 0.0, "lat": 38.91442116666666, "rental_uris": {"ios": "https://dc.lft.to/lastmile_qr_scan", "android": "https://dc.lft.to/lastmile_qr_scan"}, "bike_id": "296c149002b3349a4891f3d63028d0a7", "fusion_lat": 0.0}, {"lon": -77.0250655, "name": "06660c4b14af385647f8dffac898e5ab", "is_disabled": 0, "type": "electric_scooter", "is_reserved": 0, "fusion_lon": 0.0, "lat": 38.9208075, "rental_uris": {"ios": "https://dc.lft.to/lastmile_qr_scan", "android": "https://dc.lft.to/lastmile_qr_scan"}, "bike_id": "06660c4b14af385647f8dffac898e5ab", "fusion_lat": 0.0}, {"lon": -77.0033745, "name": "2611b5c82a18e217d7407f00875bb402", "is_disabled": 0, "type": "electric_scooter", "is_reserved": 0, "fusion_lon": 0.0, "lat": 38.922647, "rental_uris": {"ios": "https://dc.lft.to/lastmile_qr_scan", "android": "https://dc.lft.to/lastmile_qr_scan"}, "bike_id": "2611b5c82a18e217d7407f00875bb402", "fusion_lat": 0.0},