{"data": {"bikes": [{"bike_id": "36d3c448d23f380b441f65347c9bbc5f", "name": "36d3c448d23f380b441f65347c9bbc5f", "rental_uris": {"ios": "https://dc.lft.to/lastmile_qr_scan", "android": "https://dc.lft.to/lastmile_qr_scan"}, "lon": -77.0747135, "is_disabled": 0, "type": "electric_scooter", "fusion_lon": 0.0, "fusion_lat": 0.0, "lat": 38.935573166666664, "is_reserved": 0}, {"bike_id": "c2a704a825adcee26b0b988a553ac2ad", "name": "c2a704a825adcee26b0b988a553ac2ad", "rental_uris": {"ios": "https://dc.lft.to/lastmile_qr_scan", "android": "https://dc.lft.to/lastmile_qr_scan"}, "lon": -77.0221965, "is_disabled": 0, "type": "electric_scooter", "fusion_lon": 0.0, "fusion_lat": 0.0, "lat": 38.92473116666667, "is_reserved": 0}, {"bike_id": "6f35d6befe11513bda0fb973c70b7a39", "name": "6f35d6befe11513bda0fb973c70b7a39", "rental_uris": {"ios": "https://dc.lft.to/lastmile_qr_scan", "android": "https://dc.lft.to/lastmile_qr_scan"}, "lon": -77.04874733333334, "is_disabled": 0, "type": "electric_scooter", "fusion_lon": 0.0, "fusion_lat": 0.0, "lat": 38.89331416666667, "is_reserved": 0}, {"bike_id": "8ab6c5e134f56b496ee4cc6a1c094199", "name": "8ab6c5e134f56b496ee4cc6a1c094199", "rental_uris": {"ios": "https://dc.lft.to/lastmile_qr_scan", "android": "https://dc.lft.to/lastmile_qr_scan"}, "lon": -76.93007266666666, "is_disabled": 0, "type": "electric_scooter", "fusion_lon": 0.0, "fusion_lat": 0.0, "lat": 38.898218666666665, "is_reserved": 0}, {"bike_id": "7d257fb0069d887dddb5dd47884c4b41", "name": "7d257fb0069d887dddb5dd47884c4b41", "rental_uris": {"ios": "https://dc.lft.to/lastmile_qr_scan", "android": "https://dc.lft.to/lastmile_qr_scan"}, "lon": -76.9902685, "is_disabled": 0, "type": "electric_bike", "fusion_lon": 0.0, "fusion_lat": 0.0, "lat": 38.835846333333336, "is_reserved": 0}, {"bike_id": "303e6f7acbaf298273a7345ff40801cb", "name": "303e6f7acbaf298273a7345ff40801cb", "rental_uris": {"ios": "https://dc.lft.to/lastmile_qr_scan", "android": "https://dc.lft.to/lastmile_qr_scan"}, "lon": -76.98918733333333, "is_disabled": 0, "type": "electric_scooter", "fusion_lon": 0.0, "fusion_lat": 0.0, "lat": 38.88203, "is_reserved": 0}, {"bike_id": "4ecdd36f7c9da6ae6bcb89ce862e21b1", "name": "4ecdd36f7c9da6ae6bcb89ce862e21b1", "rental_uris": {"ios": "https://dc.lft.to/lastmile_qr_scan", "android": "https://dc.lft.to/lastmile_qr_scan"}, "lon": -76.98720466666667, "is_disabled": 0, "type": "electric_scooter", "fusion_lon": 0.0, "fusion_lat": 0.0, "lat": 38.863404833333334, "is_reserved": 0}, {"bike_id": "b29913d3017f307d117e16575d9c9bd2", "name": "b29913d3017f307d117e16575d9c9bd2", "rental_uris": {"ios": "https://dc.lft.to/lastmile_qr_scan", "android": "https://dc.lft.to/lastmile_qr_scan"}, "lon": -77.025924, "is_disabled": 0, "type": "electric_scooter", "fusion_lon": 0.0, "fusion_lat": 0.0, "lat": 38.899596333333335, "is_reserved": 0}, {"bike_id": "b1d9da2d636d3cb4e3598c0feb105d95", "name": "b1d9da2d636d3cb4e3598c0feb105d95", "rental_uris": {"ios": "https://dc.lft.to/lastmile_qr_scan", "android": "https://dc.lft.to/lastmile_qr_scan"}, "lon": -77.033535, "is_disabled": 0, "type": "electric_scooter", "fusion_lon": 0.0, "fusion_lat": 0.0, "lat": 38.9224105, "is_reserved": 0}, {"bike_id": "1770e79590cd9c590296a193305684cb", "name": "1770e79590cd9c590296a193305684cb", "rental_uris": {"ios": "https://dc.lft.to/lastmile_qr_scan", "android": "https://dc.lft.to/lastmile_qr_scan"}, "lon": -77.03220216666666, "is_disabled": 0, "type": "electric_scooter", "fusion_lon": 0.0, "fusion_lat": 0.0, "lat": 38.91847816666667, "is_reserved": 0}, {"bike_id": "5fd971508c5364d44e20cd6439b8c424", "name": "5fd971508c5364d44e20cd6439b8c424", "rental_uris": {"ios": "https://dc.lft.to/lastmile_qr_scan", "android": "https://dc.lft.to/lastmile_qr_scan"}, "lon": -77.0220295, "is_disabled": 0, "type": "electric_scooter", "fusion_lon": 0.0, "fusion_lat": 0.0, "lat": 38.89727366666666, "is_reserved": 0}, {"bike_id": "835aaf762514ddac60d5ee39a3532209", "name": "835aaf762514ddac60d5ee39a3532209", "rental_uris": {"ios": "https://dc.lft.to/lastmile_qr_scan", "android": "https://dc.lft.to/lastmile_qr_scan"}, "lon": -77.0318585, "is_disabled": 0, "type": "electric_scooter", "fusion_lon": 0.0, "fusion_lat": 0.0, "lat": 38.909935, "is_reserved": 0}, {"bike_id": "5a8c3470a59887fa5a0084edcafc2d56", "name": "5a8c3470a59887fa5a0084edcafc2d56", "rental_uris": {"ios": "https://dc.lft.to/lastmile_qr_scan", "android": "https://dc.lft.to/lastmile_qr_scan"}, "lon": -77.02712533333333, "is_disabled": 0, "type": "electric_scooter", "fusion_lon": 0.0, "fusion_lat": 0.0, "lat": 38.9005455, "is_reserved": 0}, {"bike_id": "25467e92bcdb95e8c1e3d2bfc5aa9baa", "name": "25467e92bcdb95e8c1e3d2bfc5aa9baa", "rental_uris": {"ios": "https://dc.lft.to/lastmile_qr_scan", "android": "https://dc.lft.to/lastmile_qr_scan"}, "lon": -77.0393365, "is_disabled": 0, "type": "electric_scooter", "fusion_lon": 0.0, "fusion_lat": 0.0, "lat": 38.9125975, "is_reserved": 0}, {"bike_id": "17981ceffeaa210a50aba6c1414d4a0c", "name": "17981ceffeaa210a50aba6c1414d4a0c", "rental_uris": {"ios": "https://dc.lft.to/lastmile_qr_scan", "android": "https://dc.lft.to/lastmile_qr_scan"}, "lon": -77.02692766666667, "is_disabled": 0, "type": "electric_scooter", "fusion_lon": 0.0, "fusion_lat": 0.0, "lat": 38.906772, "is_reserved": 0}, {"bike_id": "5ed5c9dc9730c55c7a57a4eb6fd8d7a5", "name": "5ed5c9dc9730c55c7a57a4eb6fd8d7a5", "rental_uris": {"ios": "https://dc.lft.to/lastmile_qr_scan", "android": "https://dc.lft.to/lastmile_qr_scan"}, "lon": -77.01916416666667, "is_disabled": 0, "type": "electric_scooter", "fusion_lon": 0.0, "fusion_lat": 0.0, "lat": 38.91763, "is_reserved": 0}, {"bike_id": "aad28b940d6223ca5a5af37ec61eaff1", "name": "aad28b940d6223ca5a5af37ec61eaff1", "rental_uris": {"ios": "https://dc.lft.to/lastmile_qr_scan", "android": "https://dc.lft.to/lastmile_qr_scan"}, "lon": -77.0460765, "is_disabled": 0, "type": "electric_scooter", "fusion_lon": 0.0, "fusion_lat": 0.0, "lat": 38.910698333333336, "is_reserved": 0}, {"bike_id": "a503bc483967febdb23bedcb3b55e2cf", "name": "a503bc483967febdb23bedcb3b55e2cf", "rental_uris": {"ios": "https://dc.lft.to/lastmile_qr_scan", "android": "https://dc.lft.to/lastmile_qr_scan"}, "lon": -77.003516, "is_disabled": 0, "type": "electric_scooter", "fusion_lon": 0.0, "fusion_lat": 0.0, "lat": 38.908273, "is_reserved": 0}, {"bike_id": "56383e6891dae6cad844c9aecf015b3d", "name": "56383e6891dae6cad844c9aecf015b3d", "rental_uris": {"ios": "https://dc.lft.to/lastmile_qr_scan", "android": "https://dc.lft.to/lastmile_qr_scan"}, "lon": -77.0150815, "is_disabled": 0, "type": "electric_scooter", "fusion_lon": 0.0, "fusion_lat": 0.0, "lat": 38.92679416666667, "is_reserved": 0}, {"bike_id": "6e2ca0cc8290bbfb4fb580b4df75e18e", "name": "6e2ca0cc8290bbfb4fb580b4df75e18e", "rental_uris": {"ios": "https://dc.lft.to/lastmile_qr_scan", "android": "https://dc.lft.to/lastmile_qr_scan"}, "lon": -77.0344775, "is_disabled": 0, "type": "electric_scooter", "fusion_lon": 0.0, "fusion_lat": 0.0, "lat": 38.910924666666666, "is_reserved": 0}, {"bike_id": "731ef49706615c14190a0dd81134138e", "name": "731ef49706615c14190a0dd81134138e", "rental_uris": {"ios": "https://dc.lft.to/lastmile_qr_scan", "android": "https://dc.lft.to/lastmile_qr_scan"}, "lon": -77.0337095, "is_disabled": 0, "type": "electric_scooter", "fusion_lon": 0.0, "fusion_lat": 0.0, "lat": 38.89232416666667, "is_reserved": 0}, {"bike_id": "5e95fab2ca1e32dff660ffa8a3f36ea6", "name": "5e95fab2ca1e32dff660ffa8a3f36ea6", "rental_uris": {"ios": "https://dc.lft.to/lastmile_qr_scan", "android": "https://dc.lft.to/lastmile_qr_scan"}, "lon": -77.02683333333333, "is_disabled": 0, "type": "electric_scooter", "fusion_lon": 0.0, "fusion_lat": 0.0, "lat": 38.907236, "is_reserved": 0}, {"bike_id": "f30847315169b862a2267a4a2adbc4af", "name": "f30847315169b862a2267a4a2adbc4af", "rental_uris": {"ios": "https://dc.lft.to/lastmile_qr_scan", "android": "https://dc.lft.to/lastmile_qr_scan"}, "lon": -77.02708583333333, "is_disabled": 0, "type": "electric_scooter", "fusion_lon": 0.0, "fusion_lat": 0.0, "lat": 38.96934266666667, "is_reserved": 0}, {"bike_id": "ed141c8905b7ede907855c2da4067c02", "name": "ed141c8905b7ede907855c2da4067c02", "rental_uris": {"ios": "https://dc.lft.to/lastmile_qr_scan", "android": "https://dc.lft.to/lastmile_qr_scan"}, "lon": -77.02609983333333, "is_disabled": 0, "type": "electric_scooter", "fusion_lon": 0.0, "fusion_lat": 0.0, "lat": 38.90604016666666, "is_reserved": 0}, {"bike_id": "f100288798600ca17edea9347df8456c", "name": "f100288798600ca17edea9347df8456c", "rental_uris": {"ios": "https://dc.lft.to/lastmile_qr_scan", "android": "https://dc.lft.to/lastmile_qr_scan"}, "lon": -76.99474333333333, "is_disabled": 0, "type": "electric_scooter", "fusion_lon": 0.0, "fusion_lat": 0.0, "lat": 38.8827005, "is_reserved": 0}, {"bike_id": "928ad6736a9f07547e95d99b88ebd929", "name": "928ad6736a9f07547e95d99b88ebd929", "rental_uris": {"ios": "https://dc.lft.to/lastmile_qr_scan", "android": "https://dc.lft.to/lastmile_qr_scan"}, "lon": -77.02383466666667, "is_disabled": 0, "type": "electric_scooter", "fusion_lon": 0.0, "fusion_lat": 0.0, "lat": 38.906275666666666, "is_reserved": 0}, {"bike_id": "aad22204cbc5cd021b361eb2c6048556", "name": "aad22204cbc5cd021b361eb2c6048556", "rental_uris": {"ios": "https://dc.lft.to/lastmile_qr_scan", "android": "https://dc.lft.to/lastmile_qr_scan"}, "lon": -77.05870816666666, "is_disabled": 0, "type": "electric_scooter", "fusion_lon": 0.0, "fusion_lat": 0.0, "lat": 38.93601483333333, "is_reserved": 0}, {"bike_id": "725320167be77b8525df899445041d3c", "name": "725320167be77b8525df899445041d3c", "rental_uris": {"ios": "https://dc.lft.to/lastmile_qr_scan", "android": "https://dc.lft.to/lastmile_qr_scan"}, "lon": -77.021577, "is_disabled": 0, "type": "electric_scooter", "fusion_lon": 0.0, "fusion_lat": 0.0, "lat": 38.926043, "is_reserved": 0}, {"bike_id": "4696a398c59849574110eba8ac9c59cf", "name": "4696a398c59849574110eba8ac9c59cf", "rental_uris": {"ios": "https://dc.lft.to/lastmile_qr_scan", "android": "https://dc.lft.to/lastmile_qr_scan"}, "lon": -77.02037133333333, "is_disabled": 0, "type": "electric_scooter", "fusion_lon": 0.0, "fusion_lat": 0.0, "lat": 38.89271516666667, "is_reserved": 0}, {"bike_id": "908f8ef80cc72685e4fc388b2b93f421", "name": "908f8ef80cc72685e4fc388b2b93f421", "rental_uris": {"ios": "https://dc.lft.to/lastmile_qr_scan", "android": "https://dc.lft.to/lastmile_qr_scan"}, "lon": -77.02404933333334, "is_disabled": 0, "type": "electric_scooter", "fusion_lon": 0.0, "fusion_lat": 0.0, "lat": 38.901401666666665, "is_reserved": 0}, {"bike_id": "11fb9dc069320754af52a060a664738e", "name": "11fb9dc069320754af52a060a664738e", "rental_uris": {"ios": "https://dc.lft.to/lastmile_qr_scan", "android": "https://dc.lft.to/lastmile_qr_scan"}, "lon": -77.029699, "is_disabled": 0, "type": "electric_scooter", "fusion_lon": 0.0, "fusion_lat": 0.0, "lat": 38.915459166666665, "is_reserved": 0}, {"bike_id": "13c2a302abc83b252af8e89792100ad2", "name": "13c2a302abc83b252af8e89792100ad2", "rental_uris": {"ios": "https://dc.lft.to/lastmile_qr_scan", "android": "https://dc.lft.to/lastmile_qr_scan"}, "lon": -77.02479233333334, "is_disabled": 0, "type": "electric_scooter", "fusion_lon": 0.0, "fusion_lat": 0.0, "lat": 38.938585833333335, "is_reserved": 0}, {"bike_id": "77ad1277a10367e7d38643c7e843c91c", "name": "77ad1277a10367e7d38643c7e843c91c", "rental_uris": {"ios": "https://dc.lft.to/lastmile_qr_scan", "android": "https://dc.lft.to/lastmile_qr_scan"}, "lon": -77.03048833333334, "is_disabled": 0, "type": "electric_scooter", "fusion_lon": 0.0, "fusion_lat": 0.0, "lat": 38.90128816666667, "is_reserved": 0}, {"bike_id": "2cba0989a7595ce26190ab392edd1289", "name": "2cba0989a7595ce26190ab392edd1289", "rental_uris": {"ios": "https://dc.lft.to/lastmile_qr_scan", "android": "https://dc.lft.to/lastmile_qr_scan"}, "lon": -77.02125216666667, "is_disabled": 0, "type": "electric_scooter", "fusion_lon": 0.0, "fusion_lat": 0.0, "lat": 38.90219466666667, "is_reserved": 0}, {"bike_id": "207f1105334b100e79286cd6ffb958b0", "name": "207f1105334b100e79286cd6ffb958b0", "rental_uris": {"ios": "https://dc.lft.to/lastmile_qr_scan", "android": "https://dc.lft.to/lastmile_qr_scan"}, "lon": -77.03930316666667, "is_disabled": 0, "type": "electric_scooter", "fusion_lon": 0.0, "fusion_lat": 0.0, "lat": 38.8993775, "is_reserved": 0}, {"bike_id": "0dd4e6a054d885795101bb144b7023e5", "name": "0dd4e6a054d885795101bb144b7023e5", "rental_uris": {"ios": "https://dc.lft.to/lastmile_qr_scan", "android": "https://dc.lft.to/lastmile_qr_scan"}, "lon": -77.048677, "is_disabled": 0, "type": "electric_scooter", "fusion_lon": 0.0, "fusion_lat": 0.0, "lat": 38.899793833333334, "is_reserved": 0}, {"bike_id": "653d01fbc1e337453b74e901b4cce7a6", "name": "653d01fbc1e337453b74e901b4cce7a6", "rental_uris": {"ios": "https://dc.lft.to/lastmile_qr_scan", "android": "https://dc.lft.to/lastmile_qr_scan"}, "lon": -77.02365066666667, "is_disabled": 0, "type": "electric_scooter", "fusion_lon": 0.0, "fusion_lat": 0.0, "lat": 38.915516833333335, "is_reserved": 0}, {"bike_id": "d591367958a4552148dd48c94b975740", "name": "d591367958a4552148dd48c94b975740", "rental_uris": {"ios": "https://dc.lft.to/lastmile_qr_scan", "android": "https://dc.lft.to/lastmile_qr_scan"}, "lon": -77.0304885, "is_disabled": 0, "type": "electric_scooter", "fusion_lon": 0.0, "fusion_lat": 0.0, "lat": 38.91111166666666, "is_reserved": 0}, {"bike_id": "2b1f4a66cb598de57fce9c66149849ee", "name": "2b1f4a66cb598de57fce9c66149849ee", "rental_uris": {"ios": "https://dc.lft.to/lastmile_qr_scan", "android": "https://dc.lft.to/lastmile_qr_scan"}, "lon": -77.0309835, "is_disabled": 0, "type": "electric_scooter", "fusion_lon": 0.0, "fusion_lat": 0.0, "lat": 38.9325615, "is_reserved": 0}, {"bike_id": "354807117d68b3579700c400658b8d71", "name": "354807117d68b3579700c400658b8d71", "rental_uris": {"ios": "https://dc.lft.to/lastmile_qr_scan", "android": "https://dc.lft.to/lastmile_qr_scan"}, "lon": -77.02222233333333, "is_disabled": 0, "type": "electric_scooter", "fusion_lon": 0.0, "fusion_lat": 0.0, "lat": 38.895759166666664, "is_reserved": 0}, {"bike_id": "9c0363ef34e328f9328041c787d44167", "name": "9c0363ef34e328f9328041c787d44167", "rental_uris": {"ios": "https://dc.lft.to/lastmile_qr_scan", "android": "https://dc.lft.to/lastmile_qr_scan"}, "lon": -77.01677633333334, "is_disabled": 0, "type": "electric_scooter", "fusion_lon": 0.0, "fusion_lat": 0.0, "lat": 38.89735966666667, "is_reserved": 0}, {"bike_id": "9954e67aa3cbae8de5b5dcfbe63879d1", "name": "9954e67aa3cbae8de5b5dcfbe63879d1", "rental_uris": {"ios": "https://dc.lft.to/lastmile_qr_scan", "android": "https://dc.lft.to/lastmile_qr_scan"}, "lon": -77.02389333333333, "is_disabled": 0, "type": "electric_scooter", "fusion_lon": 0.0, "fusion_lat": 0.0, "lat": 38.91613383333333, "is_reserved": 0}, {"bike_id": "a6fa3c47b505a39766eb9e2b95f2b7a9", "name": "a6fa3c47b505a39766eb9e2b95f2b7a9", "rental_uris": {"ios": "https://dc.lft.to/lastmile_qr_scan", "android": "https://dc.lft.to/lastmile_qr_scan"}, "lon": -76.9317945, "is_disabled": 0, "type": "electric_scooter", "fusion_lon": 0.0, "fusion_lat": 0.0, "lat": 38.898870333333335, "is_reserved": 0}, {"bike_id": "50c75676a46a6d8556f446ee20cc7863", "name": "50c75676a46a6d8556f446ee20cc7863", "rental_uris": {"ios": "https://dc.lft.to/lastmile_qr_scan", "android": "https://dc.lft.to/lastmile_qr_scan"}, "lon": -77.03985966666667, "is_disabled": 0, "type": "electric_scooter", "fusion_lon": 0.0, "fusion_lat": 0.0, "lat": 38.91812183333333, "is_reserved": 0}, {"bike_id": "ac9f90f687d4073ed4973b7a8c412851", "name": "ac9f90f687d4073ed4973b7a8c412851", "rental_uris": {"ios": "https://dc.lft.to/lastmile_qr_scan", "android": "https://dc.lft.to/lastmile_qr_scan"}, "lon": -77.048549, "is_disabled": 0, "type": "electric_scooter", "fusion_lon": 0.0, "fusion_lat": 0.0, "lat": 38.90039066666667, "is_reserved": 0}, {"bike_id": "7f6868d12dab56d8117d9803f298e2b6", "name": "7f6868d12dab56d8117d9803f298e2b6", "rental_uris": {"ios": "https://dc.lft.to/lastmile_qr_scan", "android": "https://dc.lft.to/lastmile_qr_scan"}, "lon": -77.02954133333333, "is_disabled": 0, "type": "electric_scooter", "fusion_lon": 0.0, "fusion_lat": 0.0, "lat": 38.917233, "is_reserved": 0}, {"bike_id": "240ff555e66d341373b9fee1a2672ead", "name": "240ff555e66d341373b9fee1a2672ead", "rental_uris": {"ios": "https://dc.lft.to/lastmile_qr_scan", "android": "https://dc.lft.to/lastmile_qr_scan"}, "lon": -77.01904416666666, "is_disabled": 0, "type": "electric_scooter", "fusion_lon": 0.0, "fusion_lat": 0.0, "lat": 38.923493, "is_reserved": 0}, {"bike_id": "ad4b03a94a92a60a8b934f1000d6686d", "name": "ad4b03a94a92a60a8b934f1000d6686d", "rental_uris": {"ios": "https://dc.lft.to/lastmile_qr_scan", "android": "https://dc.lft.to/lastmile_qr_scan"}, "lon": -77.03020683333334, "is_disabled": 0, "type": "electric_scooter", "fusion_lon": 0.0, "fusion_lat": 0.0, "lat": 38.917014, "is_reserved": 0}, {"bike_id": "59175cd64c1d22859b89e43cf6cf45f5", "name": "59175cd64c1d22859b89e43cf6cf45f5", "rental_uris": {"ios": "https://dc.lft.to/lastmile_qr_scan", "android": "https://dc.lft.to/lastmile_qr_scan"}, "lon": -77.032038, "is_disabled": 0, "type": "electric_scooter", "fusion_lon": 0.0, "fusion_lat": 0.0, "lat": 38.91645616666667, "is_reserved": 0}, {"bike_id": "e33bf0b630f365586cf70944af76bc5e", "name": "e33bf0b630f365586cf70944af76bc5e", "rental_uris": {"ios": "https://dc.lft.to/lastmile_qr_scan", "android": "https://dc.lft.to/lastmile_qr_scan"}, "lon": -77.0649775, "is_disabled": 0, "type": "electric_scooter", "fusion_lon": 0.0, "fusion_lat": 0.0, "lat": 38.905303, "is_reserved": 0}, {"bike_id": "c8bb3b27839523b3aa6065073f099539", "name": "c8bb3b27839523b3aa6065073f099539", "rental_uris": {"ios": "https://dc.lft.to/lastmile_qr_scan", "android": "https://dc.lft.to/lastmile_qr_scan"}, "lon": -77.03200016666666, "is_disabled": 0, "type": "electric_scooter", "fusion_lon": 0.0, "fusion_lat": 0.0, "lat": 38.9159785, "is_reserved": 0}, {"bike_id": "3242b11eba3bfd140cd1753253e8f6d2", "name": "3242b11eba3bfd140cd1753253e8f6d2", "rental_uris": {"ios": "https://dc.lft.to/lastmile_qr_scan", "android": "https://dc.lft.to/lastmile_qr_scan"}, "lon": -76.93853883333334, "is_disabled": 0, "type": "electric_scooter", "fusion_lon": 0.0, "fusion_lat": 0.0, "lat": 38.899685, "is_reserved": 0}, {"bike_id": "0cd84cc8bc96841967a82e1a0e866f27", "name": "0cd84cc8bc96841967a82e1a0e866f27", "rental_uris": {"ios": "https://dc.lft.to/lastmile_qr_scan", "android": "https://dc.lft.to/lastmile_qr_scan"}, "lon": -77.03668883333333, "is_disabled": 0, "type": "electric_scooter", "fusion_lon": 0.0, "fusion_lat": 0.0, "lat": 38.9260625, "is_reserved": 0}, {"bike_id": "8a530c73510077f14d0b66d354d8030b", "name": "8a530c73510077f14d0b66d354d8030b", "rental_uris": {"ios": "https://dc.lft.to/lastmile_qr_scan", "android": "https://dc.lft.to/lastmile_qr_scan"}, "lon": -76.924256, "is_disabled": 0, "type": "electric_scooter", "fusion_lon": 0.0, "fusion_lat": 0.0, "lat": 38.883744166666666, "is_reserved": 0}, {"bike_id": "2c6b9ed38462bedab0234f2519449d33", "name": "2c6b9ed38462bedab0234f2519449d33", "rental_uris": {"ios": "https://dc.lft.to/lastmile_qr_scan", "android": "https://dc.lft.to/lastmile_qr_scan"}, "lon": -77.02056666666667, "is_disabled": 0, "type": "electric_scooter", "fusion_lon": 0.0, "fusion_lat": 0.0, "lat": 38.91907883333333, "is_reserved": 0}, {"bike_id": "290ba066c2e455745d51d33d3af27f3b", "name": "290ba066c2e455745d51d33d3af27f3b", "rental_uris": {"ios": "https://dc.lft.to/lastmile_qr_scan", "android": "https://dc.lft.to/lastmile_qr_scan"}, "lon": -77.0218845, "is_disabled": 0, "type": "electric_scooter", "fusion_lon": 0.0, "fusion_lat": 0.0, "lat": 38.91089733333333, "is_reserved": 0}, {"bike_id": "aaf131673ebdb2da83de05c3ef3696df", "name": "aaf131673ebdb2da83de05c3ef3696df", "rental_uris": {"ios": "https://dc.lft.to/lastmile_qr_scan", "android": "https://dc.lft.to/lastmile_qr_scan"}, "lon": -77.04655016666666, "is_disabled": 0, "type": "electric_scooter", "fusion_lon": 0.0, "fusion_lat": 0.0, "lat": 38.900164333333336, "is_reserved": 0}, {"bike_id": "711fbd82ec1d26bbe764b4b973b7bad9", "name": "711fbd82ec1d26bbe764b4b973b7bad9", "rental_uris": {"ios": "https://dc.lft.to/lastmile_qr_scan", "android": "https://dc.lft.to/lastmile_qr_scan"}, "lon": -77.050519, "is_disabled": 0, "type": "electric_scooter", "fusion_lon": 0.0, "fusion_lat": 0.0, "lat": 38.92369683333333, "is_reserved": 0}, {"bike_id": "fae6700181a1eb4b3d3a198257e5c197", "name": "fae6700181a1eb4b3d3a198257e5c197", "rental_uris": {"ios": "https://dc.lft.to/lastmile_qr_scan", "android": "https://dc.lft.to/lastmile_qr_scan"}, "lon": -77.032442, "is_disabled": 0, "type": "electric_scooter", "fusion_lon": 0.0, "fusion_lat": 0.0, "lat": 38.92912783333333, "is_reserved": 0}, {"bike_id": "be8b4d4a8a322c39417e5d3c6cfe69a8", "name": "be8b4d4a8a322c39417e5d3c6cfe69a8", "rental_uris": {"ios": "https://dc.lft.to/lastmile_qr_scan", "android": "https://dc.lft.to/lastmile_qr_scan"}, "lon": -77.072753, "is_disabled": 0, "type": "electric_scooter", "fusion_lon": 0.0, "fusion_lat": 0.0, "lat": 38.908969666666664, "is_reserved": 0}, {"bike_id": "0827a6b1a11594a665e236f10f015ce0", "name": "0827a6b1a11594a665e236f10f015ce0", "rental_uris": {"ios": "https://dc.lft.to/lastmile_qr_scan", "android": "https://dc.lft.to/lastmile_qr_scan"}, "lon": -77.00069033333334, "is_disabled": 0, "type": "electric_scooter", "fusion_lon": 0.0, "fusion_lat": 0.0, "lat": 38.92438833333333, "is_reserved": 0}, {"bike_id": "81bfd7f0f27c98f7dbc7033bd2941827", "name": "81bfd7f0f27c98f7dbc7033bd2941827", "rental_uris": {"ios": "https://dc.lft.to/lastmile_qr_scan", "android": "https://dc.lft.to/lastmile_qr_scan"}, "lon": -77.03085, "is_disabled": 0, "type": "electric_scooter", "fusion_lon": 0.0, "fusion_lat": 0.0, "lat": 38.92793783333333, "is_reserved": 0}, {"bike_id": "c40c962b557ea51501d2475eb375b599", "name": "c40c962b557ea51501d2475eb375b599", "rental_uris": {"ios": "https://dc.lft.to/lastmile_qr_scan", "android": "https://dc.lft.to/lastmile_qr_scan"}, "lon": -77.02683783333333, "is_disabled": 0, "type": "electric_scooter", "fusion_lon": 0.0, "fusion_lat": 0.0, "lat": 38.89730683333333, "is_reserved": 0}, {"bike_id": "fb1cf9182063a66ae83d11a68f687c2e", "name": "fb1cf9182063a66ae83d11a68f687c2e", "rental_uris": {"ios": "https://dc.lft.to/lastmile_qr_scan", "android": "https://dc.lft.to/lastmile_qr_scan"}, "lon": -77.06041333333333, "is_disabled": 0, "type": "electric_scooter", "fusion_lon": 0.0, "fusion_lat": 0.0, "lat": 38.9390725, "is_reserved": 0}, {"bike_id": "7169343fffbc8b0db8eb55a412f9a0f9", "name": "7169343fffbc8b0db8eb55a412f9a0f9", "rental_uris": {"ios": "https://dc.lft.to/lastmile_qr_scan", "android": "https://dc.lft.to/lastmile_qr_scan"}, "lon": -77.02713266666666, "is_disabled": 0, "type": "electric_scooter", "fusion_lon": 0.0, "fusion_lat": 0.0, "lat": 38.89723016666667, "is_reserved": 0}, {"bike_id": "e650ca48fc9f0f7286517dd76a4add5e", "name": "e650ca48fc9f0f7286517dd76a4add5e", "rental_uris": {"ios": "https://dc.lft.to/lastmile_qr_scan", "android": "https://dc.lft.to/lastmile_qr_scan"}, "lon": -77.05062966666667, "is_disabled": 0, "type": "electric_scooter", "fusion_lon": 0.0, "fusion_lat": 0.0, "lat": 38.900904, "is_reserved": 0}, {"bike_id": "ca8dfe3ddfecb99e9201ef1c3f864b43", "name": "ca8dfe3ddfecb99e9201ef1c3f864b43", "rental_uris": {"ios": "https://dc.lft.to/lastmile_qr_scan", "android": "https://dc.lft.to/lastmile_qr_scan"}, "lon": -77.03799083333334, "is_disabled": 0, "type": "electric_scooter", "fusion_lon": 0.0, "fusion_lat": 0.0, "lat": 38.915402, "is_reserved": 0}, {"bike_id": "905d43cbab905ed8b04f26266b3574e4", "name": "905d43cbab905ed8b04f26266b3574e4", "rental_uris": {"ios": "https://dc.lft.to/lastmile_qr_scan", "android": "https://dc.lft.to/lastmile_qr_scan"}, "lon": -77.04161516666667, "is_disabled": 0, "type": "electric_scooter", "fusion_lon": 0.0, "fusion_lat": 0.0, "lat": 38.91724283333333, "is_reserved": 0}, {"bike_id": "6bd5308c3f5c047e0b05d365d973fe76", "name": "6bd5308c3f5c047e0b05d365d973fe76", "rental_uris": {"ios": "https://dc.lft.to/lastmile_qr_scan", "android": "https://dc.lft.to/lastmile_qr_scan"}, "lon": -76.99154983333334, "is_disabled": 0, "type": "electric_scooter", "fusion_lon": 0.0, "fusion_lat": 0.0, "lat": 38.859529333333334, "is_reserved": 0}, {"bike_id": "f9b4331100e89bb28ff8b5999d52a2dc", "name": "f9b4331100e89bb28ff8b5999d52a2dc", "rental_uris": {"ios": "https://dc.lft.to/lastmile_qr_scan", "android": "https://dc.lft.to/lastmile_qr_scan"}, "lon": -77.042667, "is_disabled": 0, "type": "electric_scooter", "fusion_lon": 0.0, "fusion_lat": 0.0, "lat": 38.922436833333336, "is_reserved": 0}, {"bike_id": "28378b9d60f184c984651431731a6a79", "name": "28378b9d60f184c984651431731a6a79", "rental_uris": {"ios": "https://dc.lft.to/lastmile_qr_scan", "android": "https://dc.lft.to/lastmile_qr_scan"}, "lon": -76.998413, "is_disabled": 0, "type": "electric_scooter", "fusion_lon": 0.0, "fusion_lat": 0.0, "lat": 38.92177433333333, "is_reserved": 0}, {"bike_id": "5bdb0e77e29911c135dc2053d311067d", "name": "5bdb0e77e29911c135dc2053d311067d", "rental_uris": {"ios": "https://dc.lft.to/lastmile_qr_scan", "android": "https://dc.lft.to/lastmile_qr_scan"}, "lon": -77.04713566666666, "is_disabled": 0, "type": "electric_scooter", "fusion_lon": 0.0, "fusion_lat": 0.0, "lat": 38.91560833333333, "is_reserved": 0}, {"bike_id": "0ec298a047ef2790fdb8cd53cd3617c8", "name": "0ec298a047ef2790fdb8cd53cd3617c8", "rental_uris": {"ios": "https://dc.lft.to/lastmile_qr_scan", "android": "https://dc.lft.to/lastmile_qr_scan"}, "lon": -77.027123, "is_disabled": 0, "type": "electric_scooter", "fusion_lon": 0.0, "fusion_lat": 0.0, "lat": 38.905983666666664, "is_reserved": 0}, {"bike_id": "189814e57552fc87882e39e7653a1f23", "name": "189814e57552fc87882e39e7653a1f23", "rental_uris": {"ios": "https://dc.lft.to/lastmile_qr_scan", "android": "https://dc.lft.to/lastmile_qr_scan"}, "lon": -77.02429233333334, "is_disabled": 0, "type": "electric_scooter", "fusion_lon": 0.0, "fusion_lat": 0.0, "lat": 38.960361666666664, "is_reserved": 0}, {"bike_id": "9251177e1d6ca940eec1290c5f18e688", "name": "9251177e1d6ca940eec1290c5f18e688", "rental_uris": {"ios": "https://dc.lft.to/lastmile_qr_scan", "android": "https://dc.lft.to/lastmile_qr_scan"}, "lon": -76.97710366666666, "is_disabled": 0, "type": "electric_scooter", "fusion_lon": 0.0, "fusion_lat": 0.0, "lat": 38.88523583333333, "is_reserved": 0}, {"bike_id": "5503b097f376c8b5d0108cb009602540", "name": "5503b097f376c8b5d0108cb009602540", "rental_uris": {"ios": "https://dc.lft.to/lastmile_qr_scan", "android": "https://dc.lft.to/lastmile_qr_scan"}, "lon": -77.02711733333334, "is_disabled": 0, "type": "electric_scooter", "fusion_lon": 0.0, "fusion_lat": 0.0, "lat": 38.900582166666666, "is_reserved": 0}, {"bike_id": "b1277ab5a9221b06990c1b30ae80944b", "name": "b1277ab5a9221b06990c1b30ae80944b", "rental_uris": {"ios": "https://dc.lft.to/lastmile_qr_scan", "android": "https://dc.lft.to/lastmile_qr_scan"}, "lon": -77.0337355, "is_disabled": 0, "type": "electric_scooter", "fusion_lon": 0.0, "fusion_lat": 0.0, "lat": 38.90973366666667, "is_reserved": 0}, {"bike_id": "8608d035d3344d4e5cac4d454ba48938", "name": "8608d035d3344d4e5cac4d454ba48938", "rental_uris": {"ios": "https://dc.lft.to/lastmile_qr_scan", "android": "https://dc.lft.to/lastmile_qr_scan"}, "lon": -77.03201283333334, "is_disabled": 0, "type": "electric_scooter", "fusion_lon": 0.0, "fusion_lat": 0.0, "lat": 38.91636583333333, "is_reserved": 0}, {"bike_id": "e540097b4403701c9a3d3e33f266c8b5", "name": "e540097b4403701c9a3d3e33f266c8b5", "rental_uris": {"ios": "https://dc.lft.to/lastmile_qr_scan", "android": "https://dc.lft.to/lastmile_qr_scan"}, "lon": -76.98044983333334, "is_disabled": 0, "type": "electric_bike", "fusion_lon": 0.0, "fusion_lat": 0.0, "lat": 38.899840166666664, "is_reserved": 0}, {"bike_id": "75dcb8916e3d0e39955213b7a69ff0bd", "name": "75dcb8916e3d0e39955213b7a69ff0bd", "rental_uris": {"ios": "https://dc.lft.to/lastmile_qr_scan", "android": "https://dc.lft.to/lastmile_qr_scan"}, "lon": -77.0351625, "is_disabled": 0, "type": "electric_scooter", "fusion_lon": 0.0, "fusion_lat": 0.0, "lat": 38.90159933333333, "is_reserved": 0}, {"bike_id": "9818ea2ea67cbd4ecbf1e9dad6fab998", "name": "9818ea2ea67cbd4ecbf1e9dad6fab998", "rental_uris": {"ios": "https://dc.lft.to/lastmile_qr_scan", "android": "https://dc.lft.to/lastmile_qr_scan"}, "lon": -77.0052215, "is_disabled": 0, "type": "electric_scooter", "fusion_lon": 0.0, "fusion_lat": 0.0, "lat": 38.880653333333335, "is_reserved": 0}, {"bike_id": "951ee0de7d47e7b0f814287189b8b3a7", "name": "951ee0de7d47e7b0f814287189b8b3a7", "rental_uris": {"ios": "https://dc.lft.to/lastmile_qr_scan", "android": "https://dc.lft.to/lastmile_qr_scan"}, "lon": -76.99265566666666, "is_disabled": 0, "type": "electric_scooter", "fusion_lon": 0.0, "fusion_lat": 0.0, "lat": 38.88357216666667, "is_reserved": 0}, {"bike_id": "6d5e8fcbab20b05837c3cc8312d02980", "name": "6d5e8fcbab20b05837c3cc8312d02980", "rental_uris": {"ios": "https://dc.lft.to/lastmile_qr_scan", "android": "https://dc.lft.to/lastmile_qr_scan"}, "lon": -76.9468265, "is_disabled": 0, "type": "electric_scooter", "fusion_lon": 0.0, "fusion_lat": 0.0, "lat": 38.898691, "is_reserved": 0}, {"bike_id": "0886cab852d159256f49d6c3eb774a90", "name": "0886cab852d159256f49d6c3eb774a90", "rental_uris": {"ios": "https://dc.lft.to/lastmile_qr_scan", "android": "https://dc.lft.to/lastmile_qr_scan"}, "lon": -77.0503105, "is_disabled": 0, "type": "electric_scooter", "fusion_lon": 0.0, "fusion_lat": 0.0, "lat": 38.9237065, "is_reserved": 0}, {"bike_id": "d4100c2ed014625d711c093c2dd4bbeb", "name": "d4100c2ed014625d711c093c2dd4bbeb", "rental_uris": {"ios": "https://dc.lft.to/lastmile_qr_scan", "android": "https://dc.lft.to/lastmile_qr_scan"}, "lon": -76.97913583333333, "is_disabled": 0, "type": "electric_scooter", "fusion_lon": 0.0, "fusion_lat": 0.0, "lat": 38.870696333333335, "is_reserved": 0}, {"bike_id": "69eb7b8840e610149e1f012a23050b0f", "name": "69eb7b8840e610149e1f012a23050b0f", "rental_uris": {"ios": "https://dc.lft.to/lastmile_qr_scan", "android": "https://dc.lft.to/lastmile_qr_scan"}, "lon": -77.06325016666666, "is_disabled": 0, "type": "electric_scooter", "fusion_lon": 0.0, "fusion_lat": 0.0, "lat": 38.944166, "is_reserved": 0}, {"bike_id": "1bf27ff10005188f49a925f2d856c0a7", "name": "1bf27ff10005188f49a925f2d856c0a7", "rental_uris": {"ios": "https://dc.lft.to/lastmile_qr_scan", "android": "https://dc.lft.to/lastmile_qr_scan"}, "lon": -77.00038633333334, "is_disabled": 0, "type": "electric_scooter", "fusion_lon": 0.0, "fusion_lat": 0.0, "lat": 38.873912833333335, "is_reserved": 0}, {"bike_id": "06649f15cc98c81ac53bfcbcac747ec0", "name": "06649f15cc98c81ac53bfcbcac747ec0", "rental_uris": {"ios": "https://dc.lft.to/lastmile_qr_scan", "android": "https://dc.lft.to/lastmile_qr_scan"}, "lon": -77.058104, "is_disabled": 0, "type": "electric_scooter", "fusion_lon": 0.0, "fusion_lat": 0.0, "lat": 38.90298333333333, "is_reserved": 0}, {"bike_id": "2aa1ef0fcea937a5dc3912885a17c7a2", "name": "2aa1ef0fcea937a5dc3912885a17c7a2", "rental_uris": {"ios": "https://dc.lft.to/lastmile_qr_scan", "android": "https://dc.lft.to/lastmile_qr_scan"}, "lon": -77.0214, "is_disabled": 0, "type": "electric_scooter", "fusion_lon": 0.0, "fusion_lat": 0.0, "lat": 38.91554633333333, "is_reserved": 0}, {"bike_id": "83fad22ffc97a943c1e259d8943f269a", "name": "83fad22ffc97a943c1e259d8943f269a", "rental_uris": {"ios": "https://dc.lft.to/lastmile_qr_scan", "android": "https://dc.lft.to/lastmile_qr_scan"}, "lon": -77.03207, "is_disabled": 0, "type": "electric_scooter", "fusion_lon": 0.0, "fusion_lat": 0.0, "lat": 38.88621, "is_reserved": 0}, {"bike_id": "8ab34a7a0fcd894d14071faf5bc72f0c", "name": "8ab34a7a0fcd894d14071faf5bc72f0c", "rental_uris": {"ios": "https://dc.lft.to/lastmile_qr_scan", "android": "https://dc.lft.to/lastmile_qr_scan"}, "lon": -77.02503433333334, "is_disabled": 0, "type": "electric_scooter", "fusion_lon": 0.0, "fusion_lat": 0.0, "lat": 38.897357166666666, "is_reserved": 0}, {"bike_id": "904a7ca4d879b11875bc098ccc0bb7c2", "name": "904a7ca4d879b11875bc098ccc0bb7c2", "rental_uris": {"ios": "https://dc.lft.to/lastmile_qr_scan", "android": "https://dc.lft.to/lastmile_qr_scan"}, "lon": -77.04143, "is_disabled": 0, "type": "electric_scooter", "fusion_lon": 0.0, "fusion_lat": 0.0, "lat": 38.916834333333334, "is_reserved": 0}, {"bike_id": "b01262c74df8c45b45f5f529da1709d2", "name": "b01262c74df8c45b45f5f529da1709d2", "rental_uris": {"ios": "https://dc.lft.to/lastmile_qr_scan", "android": "https://dc.lft.to/lastmile_qr_scan"}, "lon": -77.048271, "is_disabled": 0, "type": "electric_scooter", "fusion_lon": 0.0, "fusion_lat": 0.0, "lat": 38.920393833333335, "is_reserved": 0}, {"bike_id": "24f348babdb826246572977bbfbd4857", "name": "24f348babdb826246572977bbfbd4857", "rental_uris": {"ios": "https://dc.lft.to/lastmile_qr_scan", "android": "https://dc.lft.to/lastmile_qr_scan"}, "lon": -76.98213216666667, "is_disabled": 0, "type": "electric_scooter", "fusion_lon": 0.0, "fusion_lat": 0.0, "lat": 38.85710133333333, "is_reserved": 0}, {"bike_id": "a38a9b55effe9765e0e695fe39d284c0", "name": "a38a9b55effe9765e0e695fe39d284c0", "rental_uris": {"ios": "https://dc.lft.to/lastmile_qr_scan", "android": "https://dc.lft.to/lastmile_qr_scan"}, "lon": -77.0299185, "is_disabled": 0, "type": "electric_scooter", "fusion_lon": 0.0, "fusion_lat": 0.0, "lat": 38.915524166666664, "is_reserved": 0}, {"bike_id": "09f91f15ecb4abdbd6fbacf90f95d0e5", "name": "09f91f15ecb4abdbd6fbacf90f95d0e5", "rental_uris": {"ios": "https://dc.lft.to/lastmile_qr_scan", "android": "https://dc.lft.to/lastmile_qr_scan"}, "lon": -77.03194983333333, "is_disabled": 0, "type": "electric_scooter", "fusion_lon": 0.0, "fusion_lat": 0.0, "lat": 38.918164833333336, "is_reserved": 0}, {"bike_id": "ce73a83211c26609fb6eec06f95b36bb", "name": "ce73a83211c26609fb6eec06f95b36bb", "rental_uris": {"ios": "https://dc.lft.to/lastmile_qr_scan", "android": "https://dc.lft.to/lastmile_qr_scan"}, "lon": -77.04155066666667, "is_disabled": 0, "type": "electric_scooter", "fusion_lon": 0.0, "fusion_lat": 0.0, "lat": 38.895822833333334, "is_reserved": 0}, {"bike_id": "e579405864746b3b9698fda373874bb8", "name": "e579405864746b3b9698fda373874bb8", "rental_uris": {"ios": "https://dc.lft.to/lastmile_qr_scan", "android": "https://dc.lft.to/lastmile_qr_scan"}, "lon": -77.04136566666666, "is_disabled": 0, "type": "electric_scooter", "fusion_lon": 0.0, "fusion_lat": 0.0, "lat": 38.90007933333333, "is_reserved": 0}, {"bike_id": "758e3ca7d8a3542ac271a71a4b25611b", "name": "758e3ca7d8a3542ac271a71a4b25611b", "rental_uris": {"ios": "https://dc.lft.to/lastmile_qr_scan", "android": "https://dc.lft.to/lastmile_qr_scan"}, "lon": -76.97425583333333, "is_disabled": 0, "type": "electric_scooter", "fusion_lon": 0.0, "fusion_lat": 0.0, "lat": 38.90153466666667, "is_reserved": 0}, {"bike_id": "c4c0b9a14df6bbfb20afd40edc823f42", "name": "c4c0b9a14df6bbfb20afd40edc823f42", "rental_uris": {"ios": "https://dc.lft.to/lastmile_qr_scan", "android": "https://dc.lft.to/lastmile_qr_scan"}, "lon": -76.98378533333333, "is_disabled": 0, "type": "electric_scooter", "fusion_lon": 0.0, "fusion_lat": 0.0, "lat": 38.88728066666667, "is_reserved": 0}, {"bike_id": "aa39c8687d2b95eb81bc5d451bc3c2f3", "name": "aa39c8687d2b95eb81bc5d451bc3c2f3", "rental_uris": {"ios": "https://dc.lft.to/lastmile_qr_scan", "android": "https://dc.lft.to/lastmile_qr_scan"}, "lon": -77.032582, "is_disabled": 0, "type": "electric_scooter", "fusion_lon": 0.0, "fusion_lat": 0.0, "lat": 38.927195166666664, "is_reserved": 0}, {"bike_id": "440a8bf55578c16199c214e38757c48e", "name": "440a8bf55578c16199c214e38757c48e", "rental_uris": {"ios": "https://dc.lft.to/lastmile_qr_scan", "android": "https://dc.lft.to/lastmile_qr_scan"}, "lon": -77.03170633333333, "is_disabled": 0, "type": "electric_scooter", "fusion_lon": 0.0, "fusion_lat": 0.0, "lat": 38.91419533333333, "is_reserved": 0}, {"bike_id": "3bfca30581c176490efa4ccde878f8d8", "name": "3bfca30581c176490efa4ccde878f8d8", "rental_uris": {"ios": "https://dc.lft.to/lastmile_qr_scan", "android": "https://dc.lft.to/lastmile_qr_scan"}, "lon": -77.048426, "is_disabled": 0, "type": "electric_scooter", "fusion_lon": 0.0, "fusion_lat": 0.0, "lat": 38.8996515, "is_reserved": 0}, {"bike_id": "213836688d74ae632fca54500643e2b0", "name": "213836688d74ae632fca54500643e2b0", "rental_uris": {"ios": "https://dc.lft.to/lastmile_qr_scan", "android": "https://dc.lft.to/lastmile_qr_scan"}, "lon": -77.032266, "is_disabled": 0, "type": "electric_scooter", "fusion_lon": 0.0, "fusion_lat": 0.0, "lat": 38.908698, "is_reserved": 0}, {"bike_id": "a82eb0ad59e8c2b49e6dfbd5a778a0b2", "name": "a82eb0ad59e8c2b49e6dfbd5a778a0b2", "rental_uris": {"ios": "https://dc.lft.to/lastmile_qr_scan", "android": "https://dc.lft.to/lastmile_qr_scan"}, "lon": -77.040112, "is_disabled": 0, "type": "electric_scooter", "fusion_lon": 0.0, "fusion_lat": 0.0, "lat": 38.8886545, "is_reserved": 0}, {"bike_id": "2f1c4c1e9af7e1b6a46291abe7b2b86b", "name": "2f1c4c1e9af7e1b6a46291abe7b2b86b", "rental_uris": {"ios": "https://dc.lft.to/lastmile_qr_scan", "android": "https://dc.lft.to/lastmile_qr_scan"}, "lon": -77.0211775, "is_disabled": 0, "type": "electric_scooter", "fusion_lon": 0.0, "fusion_lat": 0.0, "lat": 38.92756633333333, "is_reserved": 0}, {"bike_id": "e116e27748bf7c349bdef0973c943989", "name": "e116e27748bf7c349bdef0973c943989", "rental_uris": {"ios": "https://dc.lft.to/lastmile_qr_scan", "android": "https://dc.lft.to/lastmile_qr_scan"}, "lon": -77.03450966666666, "is_disabled": 0, "type": "electric_scooter", "fusion_lon": 0.0, "fusion_lat": 0.0, "lat": 38.919107, "is_reserved": 0}, {"bike_id": "122d839d84c45cc4b4db138e1538c696", "name": "122d839d84c45cc4b4db138e1538c696", "rental_uris": {"ios": "https://dc.lft.to/lastmile_qr_scan", "android": "https://dc.lft.to/lastmile_qr_scan"}, "lon": -77.032138, "is_disabled": 0, "type": "electric_scooter", "fusion_lon": 0.0, "fusion_lat": 0.0, "lat": 38.91510066666667, "is_reserved": 0}, {"bike_id": "9c7c1aca1e131c8c7d89c027893568e1", "name": "9c7c1aca1e131c8c7d89c027893568e1", "rental_uris": {"ios": "https://dc.lft.to/lastmile_qr_scan", "android": "https://dc.lft.to/lastmile_qr_scan"}, "lon": -77.04677633333333, "is_disabled": 0, "type": "electric_scooter", "fusion_lon": 0.0, "fusion_lat": 0.0, "lat": 38.90026116666667, "is_reserved": 0}, {"bike_id": "1545312d36709b1196fc5af2119ebc33", "name": "1545312d36709b1196fc5af2119ebc33", "rental_uris": {"ios": "https://dc.lft.to/lastmile_qr_scan", "android": "https://dc.lft.to/lastmile_qr_scan"}, "lon": -76.92775483333334, "is_disabled": 0, "type": "electric_scooter", "fusion_lon": 0.0, "fusion_lat": 0.0, "lat": 38.89539283333333, "is_reserved": 0}, {"bike_id": "49aae9f013b784de31f599500da108c1", "name": "49aae9f013b784de31f599500da108c1", "rental_uris": {"ios": "https://dc.lft.to/lastmile_qr_scan", "android": "https://dc.lft.to/lastmile_qr_scan"}, "lon": -77.037317, "is_disabled": 0, "type": "electric_scooter", "fusion_lon": 0.0, "fusion_lat": 0.0, "lat": 38.924731666666666, "is_reserved": 0}, {"bike_id": "618c28e3293ca2e8f8a8b98006ae34cc", "name": "618c28e3293ca2e8f8a8b98006ae34cc", "rental_uris": {"ios": "https://dc.lft.to/lastmile_qr_scan", "android": "https://dc.lft.to/lastmile_qr_scan"}, "lon": -77.03202483333334, "is_disabled": 0, "type": "electric_scooter", "fusion_lon": 0.0, "fusion_lat": 0.0, "lat": 38.91789716666667, "is_reserved": 0}, {"bike_id": "2a343b1be5ed977cfcbb72a67ecac5ae", "name": "2a343b1be5ed977cfcbb72a67ecac5ae", "rental_uris": {"ios": "https://dc.lft.to/lastmile_qr_scan", "android": "https://dc.lft.to/lastmile_qr_scan"}, "lon": -77.09524683333333, "is_disabled": 0, "type": "electric_bike", "fusion_lon": 0.0, "fusion_lat": 0.0, "lat": 38.83813716666667, "is_reserved": 0}, {"bike_id": "3db1a38a6b1560382269e880e5a23e87", "name": "3db1a38a6b1560382269e880e5a23e87", "rental_uris": {"ios": "https://dc.lft.to/lastmile_qr_scan", "android": "https://dc.lft.to/lastmile_qr_scan"}, "lon": -77.03301366666666, "is_disabled": 0, "type": "electric_scooter", "fusion_lon": 0.0, "fusion_lat": 0.0, "lat": 38.947273333333335, "is_reserved": 0}, {"bike_id": "803afed5c0138266b0c6897fd25ffdef", "name": "803afed5c0138266b0c6897fd25ffdef", "rental_uris": {"ios": "https://dc.lft.to/lastmile_qr_scan", "android": "https://dc.lft.to/lastmile_qr_scan"}, "lon": -77.03609266666666, "is_disabled": 0, "type": "electric_scooter", "fusion_lon": 0.0, "fusion_lat": 0.0, "lat": 38.96674933333333, "is_reserved": 0}, {"bike_id": "e325f0150511ac4918cff567af89cedc", "name": "e325f0150511ac4918cff567af89cedc", "rental_uris": {"ios": "https://dc.lft.to/lastmile_qr_scan", "android": "https://dc.lft.to/lastmile_qr_scan"}, "lon": -77.031608, "is_disabled": 0, "type": "electric_scooter", "fusion_lon": 0.0, "fusion_lat": 0.0, "lat": 38.88672283333333, "is_reserved": 0}, {"bike_id": "4daf165048c56bf02b171cb5849fa860", "name": "4daf165048c56bf02b171cb5849fa860", "rental_uris": {"ios": "https://dc.lft.to/lastmile_qr_scan", "android": "https://dc.lft.to/lastmile_qr_scan"}, "lon": -77.02182933333333, "is_disabled": 0, "type": "electric_scooter", "fusion_lon": 0.0, "fusion_lat": 0.0, "lat": 38.899388333333334, "is_reserved": 0}, {"bike_id": "0667070a03ec0aeb0f56445d5ab16517", "name": "0667070a03ec0aeb0f56445d5ab16517", "rental_uris": {"ios": "https://dc.lft.to/lastmile_qr_scan", "android": "https://dc.lft.to/lastmile_qr_scan"}, "lon": -77.0024295, "is_disabled": 0, "type": "electric_scooter", "fusion_lon": 0.0, "fusion_lat": 0.0, "lat": 38.95220466666667, "is_reserved": 0}, {"bike_id": "629025710e6b7c93e76b8da473014f1b", "name": "629025710e6b7c93e76b8da473014f1b", "rental_uris": {"ios": "https://dc.lft.to/lastmile_qr_scan", "android": "https://dc.lft.to/lastmile_qr_scan"}, "lon": -76.98339316666667, "is_disabled": 0, "type": "electric_scooter", "fusion_lon": 0.0, "fusion_lat": 0.0, "lat": 38.89547866666667, "is_reserved": 0}, {"bike_id": "8a0829f1bbc34520437f1409b5e00792", "name": "8a0829f1bbc34520437f1409b5e00792", "rental_uris": {"ios": "https://dc.lft.to/lastmile_qr_scan", "android": "https://dc.lft.to/lastmile_qr_scan"}, "lon": -77.00646183333333, "is_disabled": 0, "type": "electric_scooter", "fusion_lon": 0.0, "fusion_lat": 0.0, "lat": 38.953914833333336, "is_reserved": 0}, {"bike_id": "5d481fb9d0e4dfa0016bac6a9dec2383", "name": "5d481fb9d0e4dfa0016bac6a9dec2383", "rental_uris": {"ios": "https://dc.lft.to/lastmile_qr_scan", "android": "https://dc.lft.to/lastmile_qr_scan"}, "lon": -77.02970783333333, "is_disabled": 0, "type": "electric_scooter", "fusion_lon": 0.0, "fusion_lat": 0.0, "lat": 38.91061, "is_reserved": 0}, {"bike_id": "b4b48bd5e7657e03fa219a4e457696b6", "name": "b4b48bd5e7657e03fa219a4e457696b6", "rental_uris": {"ios": "https://dc.lft.to/lastmile_qr_scan", "android": "https://dc.lft.to/lastmile_qr_scan"}, "lon": -76.97002683333334, "is_disabled": 0, "type": "electric_scooter", "fusion_lon": 0.0, "fusion_lat": 0.0, "lat": 38.8601825, "is_reserved": 0}, {"bike_id": "7f7045dc52c6ce6cf6b8f47174c96038", "name": "7f7045dc52c6ce6cf6b8f47174c96038", "rental_uris": {"ios": "https://dc.lft.to/lastmile_qr_scan", "android": "https://dc.lft.to/lastmile_qr_scan"}, "lon": -77.01784383333333, "is_disabled": 0, "type": "electric_scooter", "fusion_lon": 0.0, "fusion_lat": 0.0, "lat": 38.904774, "is_reserved": 0}, {"bike_id": "223ec0b92fae9ca690e90c2b97755e23", "name": "223ec0b92fae9ca690e90c2b97755e23", "rental_uris": {"ios": "https://dc.lft.to/lastmile_qr_scan", "android": "https://dc.lft.to/lastmile_qr_scan"}, "lon": -76.97354566666667, "is_disabled": 0, "type": "electric_scooter", "fusion_lon": 0.0, "fusion_lat": 0.0, "lat": 38.90405333333333, "is_reserved": 0}, {"bike_id": "a3514ff1d5a624352ec8d0969cf4b608", "name": "a3514ff1d5a624352ec8d0969cf4b608", "rental_uris": {"ios": "https://dc.lft.to/lastmile_qr_scan", "android": "https://dc.lft.to/lastmile_qr_scan"}, "lon": -77.03094016666667, "is_disabled": 0, "type": "electric_scooter", "fusion_lon": 0.0, "fusion_lat": 0.0, "lat": 38.91414983333333, "is_reserved": 0}, {"bike_id": "ec01f411c338a34e7309788f04a6a631", "name": "ec01f411c338a34e7309788f04a6a631", "rental_uris": {"ios": "https://dc.lft.to/lastmile_qr_scan", "android": "https://dc.lft.to/lastmile_qr_scan"}, "lon": -77.02124166666667, "is_disabled": 0, "type": "electric_scooter", "fusion_lon": 0.0, "fusion_lat": 0.0, "lat": 38.94067016666666, "is_reserved": 0}, {"bike_id": "a9cfd51ad6b1024e1f7e3e16f068ac7b", "name": "a9cfd51ad6b1024e1f7e3e16f068ac7b", "rental_uris": {"ios": "https://dc.lft.to/lastmile_qr_scan", "android": "https://dc.lft.to/lastmile_qr_scan"}, "lon": -76.98121916666666, "is_disabled": 0, "type": "electric_scooter", "fusion_lon": 0.0, "fusion_lat": 0.0, "lat": 38.846283666666665, "is_reserved": 0}, {"bike_id": "f653466065ad67ed2b769221a65a1c97", "name": "f653466065ad67ed2b769221a65a1c97", "rental_uris": {"ios": "https://dc.lft.to/lastmile_qr_scan", "android": "https://dc.lft.to/lastmile_qr_scan"}, "lon": -76.983978, "is_disabled": 0, "type": "electric_scooter", "fusion_lon": 0.0, "fusion_lat": 0.0, "lat": 38.91997816666667, "is_reserved": 0}, {"bike_id": "21b9b100bdd2b4421da025b5fd268a04", "name": "21b9b100bdd2b4421da025b5fd268a04", "rental_uris": {"ios": "https://dc.lft.to/lastmile_qr_scan", "android": "https://dc.lft.to/lastmile_qr_scan"}, "lon": -77.04245733333333, "is_disabled": 0, "type": "electric_scooter", "fusion_lon": 0.0, "fusion_lat": 0.0, "lat": 38.908193, "is_reserved": 0}, {"bike_id": "06367fc456c62cc2ac7bc18bbc18d4db", "name": "06367fc456c62cc2ac7bc18bbc18d4db", "rental_uris": {"ios": "https://dc.lft.to/lastmile_qr_scan", "android": "https://dc.lft.to/lastmile_qr_scan"}, "lon": -76.98378933333333, "is_disabled": 0, "type": "electric_scooter", "fusion_lon": 0.0, "fusion_lat": 0.0, "lat": 38.91499316666667, "is_reserved": 0}, {"bike_id": "468071c011dadb1ede6671fa599a70bd", "name": "468071c011dadb1ede6671fa599a70bd", "rental_uris": {"ios": "https://dc.lft.to/lastmile_qr_scan", "android": "https://dc.lft.to/lastmile_qr_scan"}, "lon": -77.0725345, "is_disabled": 0, "type": "electric_scooter", "fusion_lon": 0.0, "fusion_lat": 0.0, "lat": 38.907846166666666, "is_reserved": 0}, {"bike_id": "6ec30dbc434cfe2d91cbc63e1a803fb0", "name": "6ec30dbc434cfe2d91cbc63e1a803fb0", "rental_uris": {"ios": "https://dc.lft.to/lastmile_qr_scan", "android": "https://dc.lft.to/lastmile_qr_scan"}, "lon": -77.00387666666667, "is_disabled": 0, "type": "electric_bike", "fusion_lon": 0.0, "fusion_lat": 0.0, "lat": 38.836106, "is_reserved": 0}, {"bike_id": "448013fd100c9f4a9b50fe98be3070a2", "name": "448013fd100c9f4a9b50fe98be3070a2", "rental_uris": {"ios": "https://dc.lft.to/lastmile_qr_scan", "android": "https://dc.lft.to/lastmile_qr_scan"}, "lon": -77.07281983333333, "is_disabled": 0, "type": "electric_scooter", "fusion_lon": 0.0, "fusion_lat": 0.0, "lat": 38.90908066666667, "is_reserved": 0}, {"bike_id": "def87a7b2cc7b2d17a687bc01585acad", "name": "def87a7b2cc7b2d17a687bc01585acad", "rental_uris": {"ios": "https://dc.lft.to/lastmile_qr_scan", "android": "https://dc.lft.to/lastmile_qr_scan"}, "lon": -76.9970145, "is_disabled": 0, "type": "electric_scooter", "fusion_lon": 0.0, "fusion_lat": 0.0, "lat": 38.90834, "is_reserved": 0}, {"bike_id": "aa99a47b3690e3cb1ac159ff83aaf07f", "name": "aa99a47b3690e3cb1ac159ff83aaf07f", "rental_uris": {"ios": "https://dc.lft.to/lastmile_qr_scan", "android": "https://dc.lft.to/lastmile_qr_scan"}, "lon": -77.02336583333333, "is_disabled": 0, "type": "electric_scooter", "fusion_lon": 0.0, "fusion_lat": 0.0, "lat": 38.913093, "is_reserved": 0}, {"bike_id": "c83a09b4c38dd819b1d478871a6da11a", "name": "c83a09b4c38dd819b1d478871a6da11a", "rental_uris": {"ios": "https://dc.lft.to/lastmile_qr_scan", "android": "https://dc.lft.to/lastmile_qr_scan"}, "lon": -77.03184033333334, "is_disabled": 0, "type": "electric_scooter", "fusion_lon": 0.0, "fusion_lat": 0.0, "lat": 38.89243283333333, "is_reserved": 0}, {"bike_id": "d726c9f99422681681cbf7811dc2c841", "name": "d726c9f99422681681cbf7811dc2c841", "rental_uris": {"ios": "https://dc.lft.to/lastmile_qr_scan", "android": "https://dc.lft.to/lastmile_qr_scan"}, "lon": -77.0328555, "is_disabled": 0, "type": "electric_scooter", "fusion_lon": 0.0, "fusion_lat": 0.0, "lat": 38.9290155, "is_reserved": 0}, {"bike_id": "6f6efb7f60b6e9f9cd8131a3735e6e53", "name": "6f6efb7f60b6e9f9cd8131a3735e6e53", "rental_uris": {"ios": "https://dc.lft.to/lastmile_qr_scan", "android": "https://dc.lft.to/lastmile_qr_scan"}, "lon": -77.01107916666666, "is_disabled": 0, "type": "electric_scooter", "fusion_lon": 0.0, "fusion_lat": 0.0, "lat": 38.895574333333336, "is_reserved": 0}, {"bike_id": "7d7910bda51dd2813af493bd2546d30f", "name": "7d7910bda51dd2813af493bd2546d30f", "rental_uris": {"ios": "https://dc.lft.to/lastmile_qr_scan", "android": "https://dc.lft.to/lastmile_qr_scan"}, "lon": -77.0188385, "is_disabled": 0, "type": "electric_scooter", "fusion_lon": 0.0, "fusion_lat": 0.0, "lat": 38.91943166666667, "is_reserved": 0}, {"bike_id": "46ee499b67edb3cf5038751eb0a8702e", "name": "46ee499b67edb3cf5038751eb0a8702e", "rental_uris": {"ios": "https://dc.lft.to/lastmile_qr_scan", "android": "https://dc.lft.to/lastmile_qr_scan"}, "lon": -77.03372766666666, "is_disabled": 0, "type": "electric_scooter", "fusion_lon": 0.0, "fusion_lat": 0.0, "lat": 38.898307, "is_reserved": 0}, {"bike_id": "cea3d15a9822ffea444927c500a79345", "name": "cea3d15a9822ffea444927c500a79345", "rental_uris": {"ios": "https://dc.lft.to/lastmile_qr_scan", "android": "https://dc.lft.to/lastmile_qr_scan"}, "lon": -77.07336333333333, "is_disabled": 0, "type": "electric_scooter", "fusion_lon": 0.0, "fusion_lat": 0.0, "lat": 38.90971066666667, "is_reserved": 0}, {"bike_id": "56cc046a1c69959da1bae2fb775f478f", "name": "56cc046a1c69959da1bae2fb775f478f", "rental_uris": {"ios": "https://dc.lft.to/lastmile_qr_scan", "android": "https://dc.lft.to/lastmile_qr_scan"}, "lon": -76.99905766666667, "is_disabled": 0, "type": "electric_scooter", "fusion_lon": 0.0, "fusion_lat": 0.0, "lat": 38.92843083333333, "is_reserved": 0}, {"bike_id": "40d347eef37fd65678abb980bffbc937", "name": "40d347eef37fd65678abb980bffbc937", "rental_uris": {"ios": "https://dc.lft.to/lastmile_qr_scan", "android": "https://dc.lft.to/lastmile_qr_scan"}, "lon": -77.06992833333334, "is_disabled": 0, "type": "electric_scooter", "fusion_lon": 0.0, "fusion_lat": 0.0, "lat": 38.9059815, "is_reserved": 0}, {"bike_id": "e77ce47edd61a360e1ed605fa2b722b5", "name": "e77ce47edd61a360e1ed605fa2b722b5", "rental_uris": {"ios": "https://dc.lft.to/lastmile_qr_scan", "android": "https://dc.lft.to/lastmile_qr_scan"}, "lon": -77.01707433333333, "is_disabled": 0, "type": "electric_scooter", "fusion_lon": 0.0, "fusion_lat": 0.0, "lat": 38.9015865, "is_reserved": 0}, {"bike_id": "92b8fbf5e3b3382bd419192add61bc1f", "name": "92b8fbf5e3b3382bd419192add61bc1f", "rental_uris": {"ios": "https://dc.lft.to/lastmile_qr_scan", "android": "https://dc.lft.to/lastmile_qr_scan"}, "lon": -77.02190066666667, "is_disabled": 0, "type": "electric_scooter", "fusion_lon": 0.0, "fusion_lat": 0.0, "lat": 38.8849375, "is_reserved": 0}, {"bike_id": "6dc81b68737d81d921eda0c03602cc9f", "name": "6dc81b68737d81d921eda0c03602cc9f", "rental_uris": {"ios": "https://dc.lft.to/lastmile_qr_scan", "android": "https://dc.lft.to/lastmile_qr_scan"}, "lon": -77.04454283333334, "is_disabled": 0, "type": "electric_scooter", "fusion_lon": 0.0, "fusion_lat": 0.0, "lat": 38.91017466666667, "is_reserved": 0}, {"bike_id": "724b059fea0e2089c8e7e9f89ce11e57", "name": "724b059fea0e2089c8e7e9f89ce11e57", "rental_uris": {"ios": "https://dc.lft.to/lastmile_qr_scan", "android": "https://dc.lft.to/lastmile_qr_scan"}, "lon": -77.03262116666667, "is_disabled": 0, "type": "electric_scooter", "fusion_lon": 0.0, "fusion_lat": 0.0, "lat": 38.937372, "is_reserved": 0}, {"bike_id": "349e0a3ecca1f28308a769092d57bfef", "name": "349e0a3ecca1f28308a769092d57bfef", "rental_uris": {"ios": "https://dc.lft.to/lastmile_qr_scan", "android": "https://dc.lft.to/lastmile_qr_scan"}, "lon": -77.03209116666666, "is_disabled": 0, "type": "electric_scooter", "fusion_lon": 0.0, "fusion_lat": 0.0, "lat": 38.90950266666667, "is_reserved": 0}, {"bike_id": "c00fcfcccba3f202372d0a6dd2062d42", "name": "c00fcfcccba3f202372d0a6dd2062d42", "rental_uris": {"ios": "https://dc.lft.to/lastmile_qr_scan", "android": "https://dc.lft.to/lastmile_qr_scan"}, "lon": -77.00328016666667, "is_disabled": 0, "type": "electric_scooter", "fusion_lon": 0.0, "fusion_lat": 0.0, "lat": 38.87765516666666, "is_reserved": 0}, {"bike_id": "e3e1b10781a34f61f8b5d1f79b5e353f", "name": "e3e1b10781a34f61f8b5d1f79b5e353f", "rental_uris": {"ios": "https://dc.lft.to/lastmile_qr_scan", "android": "https://dc.lft.to/lastmile_qr_scan"}, "lon": -77.03218116666666, "is_disabled": 0, "type": "electric_scooter", "fusion_lon": 0.0, "fusion_lat": 0.0, "lat": 38.9199715, "is_reserved": 0}, {"bike_id": "ea89f9185bc99c1224ae82e5f8a6808b", "name": "ea89f9185bc99c1224ae82e5f8a6808b", "rental_uris": {"ios": "https://dc.lft.to/lastmile_qr_scan", "android": "https://dc.lft.to/lastmile_qr_scan"}, "lon": -77.03260916666666, "is_disabled": 0, "type": "electric_scooter", "fusion_lon": 0.0, "fusion_lat": 0.0, "lat": 38.93744016666667, "is_reserved": 0}, {"bike_id": "c43a3e57a5cf669df8af42b9dfd3a2a1", "name": "c43a3e57a5cf669df8af42b9dfd3a2a1", "rental_uris": {"ios": "https://dc.lft.to/lastmile_qr_scan", "android": "https://dc.lft.to/lastmile_qr_scan"}, "lon": -76.99676883333333, "is_disabled": 0, "type": "electric_scooter", "fusion_lon": 0.0, "fusion_lat": 0.0, "lat": 38.88728566666666, "is_reserved": 0}, {"bike_id": "ab7cc7aa3b17d45fb0f102526828e89c", "name": "ab7cc7aa3b17d45fb0f102526828e89c", "rental_uris": {"ios": "https://dc.lft.to/lastmile_qr_scan", "android": "https://dc.lft.to/lastmile_qr_scan"}, "lon": -77.028272, "is_disabled": 0, "type": "electric_scooter", "fusion_lon": 0.0, "fusion_lat": 0.0, "lat": 38.898378666666666, "is_reserved": 0}, {"bike_id": "1701858f0e434ab4e6a0c1144247c394", "name": "1701858f0e434ab4e6a0c1144247c394", "rental_uris": {"ios": "https://dc.lft.to/lastmile_qr_scan", "android": "https://dc.lft.to/lastmile_qr_scan"}, "lon": -76.995112, "is_disabled": 0, "type": "electric_bike", "fusion_lon": 0.0, "fusion_lat": 0.0, "lat": 38.877767666666664, "is_reserved": 0}, {"bike_id": "2cb5706db022bcaacb0937cefc8755aa", "name": "2cb5706db022bcaacb0937cefc8755aa", "rental_uris": {"ios": "https://dc.lft.to/lastmile_qr_scan", "android": "https://dc.lft.to/lastmile_qr_scan"}, "lon": -77.003365, "is_disabled": 0, "type": "electric_scooter", "fusion_lon": 0.0, "fusion_lat": 0.0, "lat": 38.89356166666666, "is_reserved": 0}, {"bike_id": "ea2e53d47e2d42135b7fb76ffbf35d66", "name": "ea2e53d47e2d42135b7fb76ffbf35d66", "rental_uris": {"ios": "https://dc.lft.to/lastmile_qr_scan", "android": "https://dc.lft.to/lastmile_qr_scan"}, "lon": -77.02717116666666, "is_disabled": 0, "type": "electric_scooter", "fusion_lon": 0.0, "fusion_lat": 0.0, "lat": 38.93695066666667, "is_reserved": 0}, {"bike_id": "cd46ab6750fab89739465a15026926fd", "name": "cd46ab6750fab89739465a15026926fd", "rental_uris": {"ios": "https://dc.lft.to/lastmile_qr_scan", "android": "https://dc.lft.to/lastmile_qr_scan"}, "lon": -77.014275, "is_disabled": 0, "type": "electric_scooter", "fusion_lon": 0.0, "fusion_lat": 0.0, "lat": 38.9064045, "is_reserved": 0}, {"bike_id": "b2e4f71c9aa4823e0b5c783b557f1acf", "name": "b2e4f71c9aa4823e0b5c783b557f1acf", "rental_uris": {"ios": "https://dc.lft.to/lastmile_qr_scan", "android": "https://dc.lft.to/lastmile_qr_scan"}, "lon": -77.06123633333333, "is_disabled": 0, "type": "electric_scooter", "fusion_lon": 0.0, "fusion_lat": 0.0, "lat": 38.902095, "is_reserved": 0}, {"bike_id": "36f4188d2f4c06c79fb298013a921138", "name": "36f4188d2f4c06c79fb298013a921138", "rental_uris": {"ios": "https://dc.lft.to/lastmile_qr_scan", "android": "https://dc.lft.to/lastmile_qr_scan"}, "lon": -77.022337, "is_disabled": 0, "type": "electric_scooter", "fusion_lon": 0.0, "fusion_lat": 0.0, "lat": 38.92337033333333, "is_reserved": 0}, {"bike_id": "a010b3a992dcb686badce8dee6b2ad0a", "name": "a010b3a992dcb686badce8dee6b2ad0a", "rental_uris": {"ios": "https://dc.lft.to/lastmile_qr_scan", "android": "https://dc.lft.to/lastmile_qr_scan"}, "lon": -77.022527, "is_disabled": 0, "type": "electric_scooter", "fusion_lon": 0.0, "fusion_lat": 0.0, "lat": 38.881401833333335, "is_reserved": 0}, {"bike_id": "b0d6975ea2206b2f20552f4b4ea59018", "name": "b0d6975ea2206b2f20552f4b4ea59018", "rental_uris": {"ios": "https://dc.lft.to/lastmile_qr_scan", "android": "https://dc.lft.to/lastmile_qr_scan"}, "lon": -77.04147133333333, "is_disabled": 0, "type": "electric_scooter", "fusion_lon": 0.0, "fusion_lat": 0.0, "lat": 38.917071666666665, "is_reserved": 0}, {"bike_id": "f4b59b0f6d268a493c6a09544969147f", "name": "f4b59b0f6d268a493c6a09544969147f", "rental_uris": {"ios": "https://dc.lft.to/lastmile_qr_scan", "android": "https://dc.lft.to/lastmile_qr_scan"}, "lon": -76.99423533333334, "is_disabled": 0, "type": "electric_scooter", "fusion_lon": 0.0, "fusion_lat": 0.0, "lat": 38.9078935, "is_reserved": 0}, {"bike_id": "c8388fd86a800ceb35f8413aacb561b6", "name": "c8388fd86a800ceb35f8413aacb561b6", "rental_uris": {"ios": "https://dc.lft.to/lastmile_qr_scan", "android": "https://dc.lft.to/lastmile_qr_scan"}, "lon": -76.98147533333334, "is_disabled": 0, "type": "electric_bike", "fusion_lon": 0.0, "fusion_lat": 0.0, "lat": 39.007258666666665, "is_reserved": 0}, {"bike_id": "32906c4f9af0eb5f3a3b5e96cc55175d", "name": "32906c4f9af0eb5f3a3b5e96cc55175d", "rental_uris": {"ios": "https://dc.lft.to/lastmile_qr_scan", "android": "https://dc.lft.to/lastmile_qr_scan"}, "lon": -77.03222866666667, "is_disabled": 0, "type": "electric_scooter", "fusion_lon": 0.0, "fusion_lat": 0.0, "lat": 38.92047216666667, "is_reserved": 0}, {"bike_id": "ff98ec31c93634f8b914de0213158f8a", "name": "ff98ec31c93634f8b914de0213158f8a", "rental_uris": {"ios": "https://dc.lft.to/lastmile_qr_scan", "android": "https://dc.lft.to/lastmile_qr_scan"}, "lon": -77.031656, "is_disabled": 0, "type": "electric_scooter", "fusion_lon": 0.0, "fusion_lat": 0.0, "lat": 38.9096185, "is_reserved": 0}, {"bike_id": "99790c244a364d09a61b5986148e82f7", "name": "99790c244a364d09a61b5986148e82f7", "rental_uris": {"ios": "https://dc.lft.to/lastmile_qr_scan", "android": "https://dc.lft.to/lastmile_qr_scan"}, "lon": -77.0364975, "is_disabled": 0, "type": "electric_scooter", "fusion_lon": 0.0, "fusion_lat": 0.0, "lat": 38.92349883333333, "is_reserved": 0}, {"bike_id": "4bc4f810ae77741e0ce58527b1b13d5e", "name": "4bc4f810ae77741e0ce58527b1b13d5e", "rental_uris": {"ios": "https://dc.lft.to/lastmile_qr_scan", "android": "https://dc.lft.to/lastmile_qr_scan"}, "lon": -77.0461765, "is_disabled": 0, "type": "electric_scooter", "fusion_lon": 0.0, "fusion_lat": 0.0, "lat": 38.923325166666665, "is_reserved": 0}, {"bike_id": "e6d968af05107a1dccbd63207dccf2a8", "name": "e6d968af05107a1dccbd63207dccf2a8", "rental_uris": {"ios": "https://dc.lft.to/lastmile_qr_scan", "android": "https://dc.lft.to/lastmile_qr_scan"}, "lon": -77.05928416666667, "is_disabled": 0, "type": "electric_scooter", "fusion_lon": 0.0, "fusion_lat": 0.0, "lat": 38.94305083333333, "is_reserved": 0}, {"bike_id": "6a8f0d9764915ee3feb433dbb47135f4", "name": "6a8f0d9764915ee3feb433dbb47135f4", "rental_uris": {"ios": "https://dc.lft.to/lastmile_qr_scan", "android": "https://dc.lft.to/lastmile_qr_scan"}, "lon": -77.0462645, "is_disabled": 0, "type": "electric_scooter", "fusion_lon": 0.0, "fusion_lat": 0.0, "lat": 38.919256, "is_reserved": 0}, {"bike_id": "b7646264b06a5c7d7fdbe97a5b72f4d0", "name": "b7646264b06a5c7d7fdbe97a5b72f4d0", "rental_uris": {"ios": "https://dc.lft.to/lastmile_qr_scan", "android": "https://dc.lft.to/lastmile_qr_scan"}, "lon": -76.9778145, "is_disabled": 0, "type": "electric_scooter", "fusion_lon": 0.0, "fusion_lat": 0.0, "lat": 38.89801083333333, "is_reserved": 0}, {"bike_id": "65d11f1a5573e0dd4500b463c505b93b", "name": "65d11f1a5573e0dd4500b463c505b93b", "rental_uris": {"ios": "https://dc.lft.to/lastmile_qr_scan", "android": "https://dc.lft.to/lastmile_qr_scan"}, "lon": -77.01118266666667, "is_disabled": 0, "type": "electric_scooter", "fusion_lon": 0.0, "fusion_lat": 0.0, "lat": 38.88510383333333, "is_reserved": 0}, {"bike_id": "bd0bb0326518071c0041696462b197f4", "name": "bd0bb0326518071c0041696462b197f4", "rental_uris": {"ios": "https://dc.lft.to/lastmile_qr_scan", "android": "https://dc.lft.to/lastmile_qr_scan"}, "lon": -77.02339766666667, "is_disabled": 0, "type": "electric_scooter", "fusion_lon": 0.0, "fusion_lat": 0.0, "lat": 38.94171433333333, "is_reserved": 0}, {"bike_id": "5782bb1bd130bb572c55a23f67ca5f03", "name": "5782bb1bd130bb572c55a23f67ca5f03", "rental_uris": {"ios": "https://dc.lft.to/lastmile_qr_scan", "android": "https://dc.lft.to/lastmile_qr_scan"}, "lon": -76.99488933333333, "is_disabled": 0, "type": "electric_scooter", "fusion_lon": 0.0, "fusion_lat": 0.0, "lat": 38.8921375, "is_reserved": 0}, {"bike_id": "57ef37c27b3e64b71a778845abc9b980", "name": "57ef37c27b3e64b71a778845abc9b980", "rental_uris": {"ios": "https://dc.lft.to/lastmile_qr_scan", "android": "https://dc.lft.to/lastmile_qr_scan"}, "lon": -77.027178, "is_disabled": 0, "type": "electric_scooter", "fusion_lon": 0.0, "fusion_lat": 0.0, "lat": 38.90670983333333, "is_reserved": 0}, {"bike_id": "1b2669bf6ebdd629ae7c00ca8f63cdbc", "name": "1b2669bf6ebdd629ae7c00ca8f63cdbc", "rental_uris": {"ios": "https://dc.lft.to/lastmile_qr_scan", "android": "https://dc.lft.to/lastmile_qr_scan"}, "lon": -77.00613883333334, "is_disabled": 0, "type": "electric_scooter", "fusion_lon": 0.0, "fusion_lat": 0.0, "lat": 38.895989166666666, "is_reserved": 0}, {"bike_id": "533c9345b49fd4f4e1c332c6dc2bb58c", "name": "533c9345b49fd4f4e1c332c6dc2bb58c", "rental_uris": {"ios": "https://dc.lft.to/lastmile_qr_scan", "android": "https://dc.lft.to/lastmile_qr_scan"}, "lon": -77.03319416666666, "is_disabled": 0, "type": "electric_scooter", "fusion_lon": 0.0, "fusion_lat": 0.0, "lat": 38.93888883333333, "is_reserved": 0}, {"bike_id": "87069ba6b55ed4367b7f5bd63673f8d6", "name": "87069ba6b55ed4367b7f5bd63673f8d6", "rental_uris": {"ios": "https://dc.lft.to/lastmile_qr_scan", "android": "https://dc.lft.to/lastmile_qr_scan"}, "lon": -77.035216, "is_disabled": 0, "type": "electric_scooter", "fusion_lon": 0.0, "fusion_lat": 0.0, "lat": 38.92533983333333, "is_reserved": 0}, {"bike_id": "143098c7866d2d87b75ef569fcd719ce", "name": "143098c7866d2d87b75ef569fcd719ce", "rental_uris": {"ios": "https://dc.lft.to/lastmile_qr_scan", "android": "https://dc.lft.to/lastmile_qr_scan"}, "lon": -77.03850433333334, "is_disabled": 0, "type": "electric_scooter", "fusion_lon": 0.0, "fusion_lat": 0.0, "lat": 38.913301, "is_reserved": 0}, {"bike_id": "e392efc2543f33f29145e531739978a5", "name": "e392efc2543f33f29145e531739978a5", "rental_uris": {"ios": "https://dc.lft.to/lastmile_qr_scan", "android": "https://dc.lft.to/lastmile_qr_scan"}, "lon": -77.064537, "is_disabled": 0, "type": "electric_scooter", "fusion_lon": 0.0, "fusion_lat": 0.0, "lat": 38.907945833333336, "is_reserved": 0}, {"bike_id": "7fcdc64d309b4c0638cd79f36b54172a", "name": "7fcdc64d309b4c0638cd79f36b54172a", "rental_uris": {"ios": "https://dc.lft.to/lastmile_qr_scan", "android": "https://dc.lft.to/lastmile_qr_scan"}, "lon": -77.00977316666666, "is_disabled": 0, "type": "electric_scooter", "fusion_lon": 0.0, "fusion_lat": 0.0, "lat": 38.919292666666664, "is_reserved": 0}, {"bike_id": "0f4051a9e51a38d29b03e42bc9cfd7f7", "name": "0f4051a9e51a38d29b03e42bc9cfd7f7", "rental_uris": {"ios": "https://dc.lft.to/lastmile_qr_scan", "android": "https://dc.lft.to/lastmile_qr_scan"}, "lon": -76.95010383333333, "is_disabled": 0, "type": "electric_scooter", "fusion_lon": 0.0, "fusion_lat": 0.0, "lat": 38.90629116666667, "is_reserved": 0}, {"bike_id": "48c822cb72335e7976c1c808d69767b3", "name": "48c822cb72335e7976c1c808d69767b3", "rental_uris": {"ios": "https://dc.lft.to/lastmile_qr_scan", "android": "https://dc.lft.to/lastmile_qr_scan"}, "lon": -77.00802466666667, "is_disabled": 0, "type": "electric_scooter", "fusion_lon": 0.0, "fusion_lat": 0.0, "lat": 38.897193333333334, "is_reserved": 0}, {"bike_id": "1e1184f77e83879c1aa42c3d708f6954", "name": "1e1184f77e83879c1aa42c3d708f6954", "rental_uris": {"ios": "https://dc.lft.to/lastmile_qr_scan", "android": "https://dc.lft.to/lastmile_qr_scan"}, "lon": -77.0216095, "is_disabled": 0, "type": "electric_scooter", "fusion_lon": 0.0, "fusion_lat": 0.0, "lat": 38.926046666666664, "is_reserved": 0}, {"bike_id": "abec19b0961954e154339a2924e229b4", "name": "abec19b0961954e154339a2924e229b4", "rental_uris": {"ios": "https://dc.lft.to/lastmile_qr_scan", "android": "https://dc.lft.to/lastmile_qr_scan"}, "lon": -76.9981795, "is_disabled": 0, "type": "electric_scooter", "fusion_lon": 0.0, "fusion_lat": 0.0, "lat": 38.9291815, "is_reserved": 0}, {"bike_id": "5a88896db2b6c73dcbae9d1b547008cf", "name": "5a88896db2b6c73dcbae9d1b547008cf", "rental_uris": {"ios": "https://dc.lft.to/lastmile_qr_scan", "android": "https://dc.lft.to/lastmile_qr_scan"}, "lon": -77.033832, "is_disabled": 0, "type": "electric_scooter", "fusion_lon": 0.0, "fusion_lat": 0.0, "lat": 38.92162783333333, "is_reserved": 0}, {"bike_id": "ba67e9cad6a6c95d5efb177a83cd7dff", "name": "ba67e9cad6a6c95d5efb177a83cd7dff", "rental_uris": {"ios": "https://dc.lft.to/lastmile_qr_scan", "android": "https://dc.lft.to/lastmile_qr_scan"}, "lon": -77.04352833333333, "is_disabled": 0, "type": "electric_scooter", "fusion_lon": 0.0, "fusion_lat": 0.0, "lat": 38.89679983333333, "is_reserved": 0}, {"bike_id": "f7240c6a43edd29b5961d78325de6efa", "name": "f7240c6a43edd29b5961d78325de6efa", "rental_uris": {"ios": "https://dc.lft.to/lastmile_qr_scan", "android": "https://dc.lft.to/lastmile_qr_scan"}, "lon": -77.0448255, "is_disabled": 0, "type": "electric_scooter", "fusion_lon": 0.0, "fusion_lat": 0.0, "lat": 38.910898, "is_reserved": 0}, {"bike_id": "469afc2cf50e9330df5cfe6c96257172", "name": "469afc2cf50e9330df5cfe6c96257172", "rental_uris": {"ios": "https://dc.lft.to/lastmile_qr_scan", "android": "https://dc.lft.to/lastmile_qr_scan"}, "lon": -77.04378916666667, "is_disabled": 0, "type": "electric_scooter", "fusion_lon": 0.0, "fusion_lat": 0.0, "lat": 38.9105135, "is_reserved": 0}, {"bike_id": "dfbd70e4cbc9f7f8f080218c8845d274", "name": "dfbd70e4cbc9f7f8f080218c8845d274", "rental_uris": {"ios": "https://dc.lft.to/lastmile_qr_scan", "android": "https://dc.lft.to/lastmile_qr_scan"}, "lon": -77.03362283333334, "is_disabled": 0, "type": "electric_scooter", "fusion_lon": 0.0, "fusion_lat": 0.0, "lat": 38.927998, "is_reserved": 0}, {"bike_id": "d76dfb548fb8683ab3fd648a05d7337e", "name": "d76dfb548fb8683ab3fd648a05d7337e", "rental_uris": {"ios": "https://dc.lft.to/lastmile_qr_scan", "android": "https://dc.lft.to/lastmile_qr_scan"}, "lon": -77.02890116666667, "is_disabled": 0, "type": "electric_scooter", "fusion_lon": 0.0, "fusion_lat": 0.0, "lat": 38.897323166666666, "is_reserved": 0}, {"bike_id": "bf8388cf572c53fdb32cdd87c073241a", "name": "bf8388cf572c53fdb32cdd87c073241a", "rental_uris": {"ios": "https://dc.lft.to/lastmile_qr_scan", "android": "https://dc.lft.to/lastmile_qr_scan"}, "lon": -77.02137383333333, "is_disabled": 0, "type": "electric_scooter", "fusion_lon": 0.0, "fusion_lat": 0.0, "lat": 38.92387816666667, "is_reserved": 0}, {"bike_id": "f2aaec678389ca3b397db7c3dbb16205", "name": "f2aaec678389ca3b397db7c3dbb16205", "rental_uris": {"ios": "https://dc.lft.to/lastmile_qr_scan", "android": "https://dc.lft.to/lastmile_qr_scan"}, "lon": -77.026961, "is_disabled": 0, "type": "electric_scooter", "fusion_lon": 0.0, "fusion_lat": 0.0, "lat": 38.90701216666667, "is_reserved": 0}, {"bike_id": "715ffd2d0fe353ab78ee14038603b2c6", "name": "715ffd2d0fe353ab78ee14038603b2c6", "rental_uris": {"ios": "https://dc.lft.to/lastmile_qr_scan", "android": "https://dc.lft.to/lastmile_qr_scan"}, "lon": -77.022808, "is_disabled": 0, "type": "electric_scooter", "fusion_lon": 0.0, "fusion_lat": 0.0, "lat": 38.902166666666666, "is_reserved": 0}, {"bike_id": "4c0897f18515b626ba3e8181fe9135b3", "name": "4c0897f18515b626ba3e8181fe9135b3", "rental_uris": {"ios": "https://dc.lft.to/lastmile_qr_scan", "android": "https://dc.lft.to/lastmile_qr_scan"}, "lon": -77.02351133333333, "is_disabled": 0, "type": "electric_bike", "fusion_lon": 0.0, "fusion_lat": 0.0, "lat": 38.943849666666665, "is_reserved": 0}, {"bike_id": "1ea1a943392b497ffa6e27965ac725b0", "name": "1ea1a943392b497ffa6e27965ac725b0", "rental_uris": {"ios": "https://dc.lft.to/lastmile_qr_scan", "android": "https://dc.lft.to/lastmile_qr_scan"}, "lon": -77.0211065, "is_disabled": 0, "type": "electric_scooter", "fusion_lon": 0.0, "fusion_lat": 0.0, "lat": 38.92157916666667, "is_reserved": 0}, {"bike_id": "1ffb9edcf8455b3fc15c1622db114af3", "name": "1ffb9edcf8455b3fc15c1622db114af3", "rental_uris": {"ios": "https://dc.lft.to/lastmile_qr_scan", "android": "https://dc.lft.to/lastmile_qr_scan"}, "lon": -77.0875725, "is_disabled": 0, "type": "electric_scooter", "fusion_lon": 0.0, "fusion_lat": 0.0, "lat": 38.935641333333336, "is_reserved": 0}, {"bike_id": "4a1c9c73e80faef2180a4583d539a085", "name": "4a1c9c73e80faef2180a4583d539a085", "rental_uris": {"ios": "https://dc.lft.to/lastmile_qr_scan", "android": "https://dc.lft.to/lastmile_qr_scan"}, "lon": -77.06153333333333, "is_disabled": 0, "type": "electric_scooter", "fusion_lon": 0.0, "fusion_lat": 0.0, "lat": 38.94327933333334, "is_reserved": 0}, {"bike_id": "dceddf386bf0096b55fb6de575cb649e", "name": "dceddf386bf0096b55fb6de575cb649e", "rental_uris": {"ios": "https://dc.lft.to/lastmile_qr_scan", "android": "https://dc.lft.to/lastmile_qr_scan"}, "lon": -77.07276533333334, "is_disabled": 0, "type": "electric_scooter", "fusion_lon": 0.0, "fusion_lat": 0.0, "lat": 38.9192695, "is_reserved": 0}, {"bike_id": "cd7cdfae24837d7b0cb9e4830c4885ad", "name": "cd7cdfae24837d7b0cb9e4830c4885ad", "rental_uris": {"ios": "https://dc.lft.to/lastmile_qr_scan", "android": "https://dc.lft.to/lastmile_qr_scan"}, "lon": -77.021586, "is_disabled": 0, "type": "electric_scooter", "fusion_lon": 0.0, "fusion_lat": 0.0, "lat": 38.879243833333334, "is_reserved": 0}, {"bike_id": "a2adbf0838bdaccfb33264385c527e5e", "name": "a2adbf0838bdaccfb33264385c527e5e", "rental_uris": {"ios": "https://dc.lft.to/lastmile_qr_scan", "android": "https://dc.lft.to/lastmile_qr_scan"}, "lon": -77.04503533333333, "is_disabled": 0, "type": "electric_scooter", "fusion_lon": 0.0, "fusion_lat": 0.0, "lat": 38.892254666666666, "is_reserved": 0}, {"bike_id": "93d0a3601a1f846726a9da55cffc452f", "name": "93d0a3601a1f846726a9da55cffc452f", "rental_uris": {"ios": "https://dc.lft.to/lastmile_qr_scan", "android": "https://dc.lft.to/lastmile_qr_scan"}, "lon": -77.03207183333333, "is_disabled": 0, "type": "electric_scooter", "fusion_lon": 0.0, "fusion_lat": 0.0, "lat": 38.914283, "is_reserved": 0}, {"bike_id": "1e7ae6fb38f5b8bb149449979b631651", "name": "1e7ae6fb38f5b8bb149449979b631651", "rental_uris": {"ios": "https://dc.lft.to/lastmile_qr_scan", "android": "https://dc.lft.to/lastmile_qr_scan"}, "lon": -76.98002966666667, "is_disabled": 0, "type": "electric_scooter", "fusion_lon": 0.0, "fusion_lat": 0.0, "lat": 38.898833333333336, "is_reserved": 0}, {"bike_id": "da0a3e64fb10b22b53c4fa9eaf293e55", "name": "da0a3e64fb10b22b53c4fa9eaf293e55", "rental_uris": {"ios": "https://dc.lft.to/lastmile_qr_scan", "android": "https://dc.lft.to/lastmile_qr_scan"}, "lon": -77.02302583333334, "is_disabled": 0, "type": "electric_scooter", "fusion_lon": 0.0, "fusion_lat": 0.0, "lat": 38.92059533333333, "is_reserved": 0}, {"bike_id": "888c1e4f3e75f2957a26ea15c26aa84e", "name": "888c1e4f3e75f2957a26ea15c26aa84e", "rental_uris": {"ios": "https://dc.lft.to/lastmile_qr_scan", "android": "https://dc.lft.to/lastmile_qr_scan"}, "lon": -76.9976775, "is_disabled": 0, "type": "electric_scooter", "fusion_lon": 0.0, "fusion_lat": 0.0, "lat": 38.922972333333334, "is_reserved": 0}, {"bike_id": "b7e79b986cf37ff87e306a2b8e1fde85", "name": "b7e79b986cf37ff87e306a2b8e1fde85", "rental_uris": {"ios": "https://dc.lft.to/lastmile_qr_scan", "android": "https://dc.lft.to/lastmile_qr_scan"}, "lon": -77.01500983333334, "is_disabled": 0, "type": "electric_scooter", "fusion_lon": 0.0, "fusion_lat": 0.0, "lat": 38.9133035, "is_reserved": 0}, {"bike_id": "970723ff4594e819ca53fc1265f64e8a", "name": "970723ff4594e819ca53fc1265f64e8a", "rental_uris": {"ios": "https://dc.lft.to/lastmile_qr_scan", "android": "https://dc.lft.to/lastmile_qr_scan"}, "lon": -77.005959, "is_disabled": 0, "type": "electric_scooter", "fusion_lon": 0.0, "fusion_lat": 0.0, "lat": 38.875645666666664, "is_reserved": 0}, {"bike_id": "8d755585da3497ec31e977d593ccd29b", "name": "8d755585da3497ec31e977d593ccd29b", "rental_uris": {"ios": "https://dc.lft.to/lastmile_qr_scan", "android": "https://dc.lft.to/lastmile_qr_scan"}, "lon": -77.0235515, "is_disabled": 0, "type": "electric_scooter", "fusion_lon": 0.0, "fusion_lat": 0.0, "lat": 38.93532783333333, "is_reserved": 0}, {"bike_id": "00d5029eb6dcb6ecfbca752e5f271b93", "name": "00d5029eb6dcb6ecfbca752e5f271b93", "rental_uris": {"ios": "https://dc.lft.to/lastmile_qr_scan", "android": "https://dc.lft.to/lastmile_qr_scan"}, "lon": -77.028274, "is_disabled": 0, "type": "electric_scooter", "fusion_lon": 0.0, "fusion_lat": 0.0, "lat": 38.898369833333334, "is_reserved": 0}, {"bike_id": "5265ba35786d6bc7f42b7270e5f3bc54", "name": "5265ba35786d6bc7f42b7270e5f3bc54", "rental_uris": {"ios": "https://dc.lft.to/lastmile_qr_scan", "android": "https://dc.lft.to/lastmile_qr_scan"}, "lon": -77.032951, "is_disabled": 0, "type": "electric_scooter", "fusion_lon": 0.0, "fusion_lat": 0.0, "lat": 38.92450383333333, "is_reserved": 0}, {"bike_id": "35a9f55a8fb1f358d3ff6670badeaf44", "name": "35a9f55a8fb1f358d3ff6670badeaf44", "rental_uris": {"ios": "https://dc.lft.to/lastmile_qr_scan", "android": "https://dc.lft.to/lastmile_qr_scan"}, "lon": -77.02497, "is_disabled": 0, "type": "electric_scooter", "fusion_lon": 0.0, "fusion_lat": 0.0, "lat": 38.92596916666667, "is_reserved": 0}, {"bike_id": "e1fc96a2bf40003fe2713b88d8f2592f", "name": "e1fc96a2bf40003fe2713b88d8f2592f", "rental_uris": {"ios": "https://dc.lft.to/lastmile_qr_scan", "android": "https://dc.lft.to/lastmile_qr_scan"}, "lon": -76.96901566666666, "is_disabled": 0, "type": "electric_scooter", "fusion_lon": 0.0, "fusion_lat": 0.0, "lat": 38.865101333333335, "is_reserved": 0}, {"bike_id": "f268cdb121649371eaa8719fa6e52db2", "name": "f268cdb121649371eaa8719fa6e52db2", "rental_uris": {"ios": "https://dc.lft.to/lastmile_qr_scan", "android": "https://dc.lft.to/lastmile_qr_scan"}, "lon": -77.024781, "is_disabled": 0, "type": "electric_scooter", "fusion_lon": 0.0, "fusion_lat": 0.0, "lat": 38.94197116666667, "is_reserved": 0}, {"bike_id": "9ad4f544a11f95c09474022e21b3040c", "name": "9ad4f544a11f95c09474022e21b3040c", "rental_uris": {"ios": "https://dc.lft.to/lastmile_qr_scan", "android": "https://dc.lft.to/lastmile_qr_scan"}, "lon": -77.02274733333333, "is_disabled": 0, "type": "electric_scooter", "fusion_lon": 0.0, "fusion_lat": 0.0, "lat": 38.914935666666665, "is_reserved": 0}, {"bike_id": "8a072b2821d5f2415d3e56e11cf62c91", "name": "8a072b2821d5f2415d3e56e11cf62c91", "rental_uris": {"ios": "https://dc.lft.to/lastmile_qr_scan", "android": "https://dc.lft.to/lastmile_qr_scan"}, "lon": -76.99161933333333, "is_disabled": 0, "type": "electric_scooter", "fusion_lon": 0.0, "fusion_lat": 0.0, "lat": 38.880752, "is_reserved": 0}, {"bike_id": "352e413a4b4fee36e0e54917ecfc2bca", "name": "352e413a4b4fee36e0e54917ecfc2bca", "rental_uris": {"ios": "https://dc.lft.to/lastmile_qr_scan", "android": "https://dc.lft.to/lastmile_qr_scan"}, "lon": -76.98213516666667, "is_disabled": 0, "type": "electric_scooter", "fusion_lon": 0.0, "fusion_lat": 0.0, "lat": 38.85710066666667, "is_reserved": 0}, {"bike_id": "b1adedcc920a18f7806d32055159d87b", "name": "b1adedcc920a18f7806d32055159d87b", "rental_uris": {"ios": "https://dc.lft.to/lastmile_qr_scan", "android": "https://dc.lft.to/lastmile_qr_scan"}, "lon": -77.04626083333333, "is_disabled": 0, "type": "electric_scooter", "fusion_lon": 0.0, "fusion_lat": 0.0, "lat": 38.915686, "is_reserved": 0}, {"bike_id": "7c9acc179517181caef32256b2ff5e9e", "name": "7c9acc179517181caef32256b2ff5e9e", "rental_uris": {"ios": "https://dc.lft.to/lastmile_qr_scan", "android": "https://dc.lft.to/lastmile_qr_scan"}, "lon": -77.057085, "is_disabled": 0, "type": "electric_scooter", "fusion_lon": 0.0, "fusion_lat": 0.0, "lat": 38.933485, "is_reserved": 0}, {"bike_id": "8f92a8d2e9c4cc3363d6504252f47a80", "name": "8f92a8d2e9c4cc3363d6504252f47a80", "rental_uris": {"ios": "https://dc.lft.to/lastmile_qr_scan", "android": "https://dc.lft.to/lastmile_qr_scan"}, "lon": -77.03192733333333, "is_disabled": 0, "type": "electric_scooter", "fusion_lon": 0.0, "fusion_lat": 0.0, "lat": 38.91580583333333, "is_reserved": 0}, {"bike_id": "e5d3c6a8799a5175d7dc1f1496f0c25e", "name": "e5d3c6a8799a5175d7dc1f1496f0c25e", "rental_uris": {"ios": "https://dc.lft.to/lastmile_qr_scan", "android": "https://dc.lft.to/lastmile_qr_scan"}, "lon": -77.02594216666667, "is_disabled": 0, "type": "electric_scooter", "fusion_lon": 0.0, "fusion_lat": 0.0, "lat": 38.916949833333334, "is_reserved": 0}, {"bike_id": "421bbdeedfa558c7741d1cc73ce23f96", "name": "421bbdeedfa558c7741d1cc73ce23f96", "rental_uris": {"ios": "https://dc.lft.to/lastmile_qr_scan", "android": "https://dc.lft.to/lastmile_qr_scan"}, "lon": -76.9730345, "is_disabled": 0, "type": "electric_scooter", "fusion_lon": 0.0, "fusion_lat": 0.0, "lat": 38.91993683333333, "is_reserved": 0}, {"bike_id": "368dc0addfb3b8bed639e513124b7f01", "name": "368dc0addfb3b8bed639e513124b7f01", "rental_uris": {"ios": "https://dc.lft.to/lastmile_qr_scan", "android": "https://dc.lft.to/lastmile_qr_scan"}, "lon": -77.04513266666666, "is_disabled": 0, "type": "electric_scooter", "fusion_lon": 0.0, "fusion_lat": 0.0, "lat": 38.886057, "is_reserved": 0}, {"bike_id": "3cc60d52ab4d4d0bb85b7814534ad90f", "name": "3cc60d52ab4d4d0bb85b7814534ad90f", "rental_uris": {"ios": "https://dc.lft.to/lastmile_qr_scan", "android": "https://dc.lft.to/lastmile_qr_scan"}, "lon": -76.99420433333333, "is_disabled": 0, "type": "electric_scooter", "fusion_lon": 0.0, "fusion_lat": 0.0, "lat": 38.87694316666666, "is_reserved": 0}, {"bike_id": "7a5c6a12b9df3149db5099cf3d6f2d7d", "name": "7a5c6a12b9df3149db5099cf3d6f2d7d", "rental_uris": {"ios": "https://dc.lft.to/lastmile_qr_scan", "android": "https://dc.lft.to/lastmile_qr_scan"}, "lon": -77.03625983333333, "is_disabled": 0, "type": "electric_scooter", "fusion_lon": 0.0, "fusion_lat": 0.0, "lat": 38.9291165, "is_reserved": 0}, {"bike_id": "8a96346a3129fe1edd5c898829dbfab7", "name": "8a96346a3129fe1edd5c898829dbfab7", "rental_uris": {"ios": "https://dc.lft.to/lastmile_qr_scan", "android": "https://dc.lft.to/lastmile_qr_scan"}, "lon": -77.016953, "is_disabled": 0, "type": "electric_scooter", "fusion_lon": 0.0, "fusion_lat": 0.0, "lat": 38.9046365, "is_reserved": 0}, {"bike_id": "2e5b240268a14d134edcbd7f8b7b6a68", "name": "2e5b240268a14d134edcbd7f8b7b6a68", "rental_uris": {"ios": "https://dc.lft.to/lastmile_qr_scan", "android": "https://dc.lft.to/lastmile_qr_scan"}, "lon": -77.0572585, "is_disabled": 0, "type": "electric_scooter", "fusion_lon": 0.0, "fusion_lat": 0.0, "lat": 38.909394666666664, "is_reserved": 0}, {"bike_id": "901cbb791bfa2cd0814a02dd9eeeee69", "name": "901cbb791bfa2cd0814a02dd9eeeee69", "rental_uris": {"ios": "https://dc.lft.to/lastmile_qr_scan", "android": "https://dc.lft.to/lastmile_qr_scan"}, "lon": -77.02540116666667, "is_disabled": 0, "type": "electric_bike", "fusion_lon": 0.0, "fusion_lat": 0.0, "lat": 38.989162666666665, "is_reserved": 0}, {"bike_id": "f85307403c8e0d2c780291856793ccc9", "name": "f85307403c8e0d2c780291856793ccc9", "rental_uris": {"ios": "https://dc.lft.to/lastmile_qr_scan", "android": "https://dc.lft.to/lastmile_qr_scan"}, "lon": -76.98066883333334, "is_disabled": 0, "type": "electric_scooter", "fusion_lon": 0.0, "fusion_lat": 0.0, "lat": 38.901679333333334, "is_reserved": 0}, {"bike_id": "6f1309002ed92bce1a2e2384bad92999", "name": "6f1309002ed92bce1a2e2384bad92999", "rental_uris": {"ios": "https://dc.lft.to/lastmile_qr_scan", "android": "https://dc.lft.to/lastmile_qr_scan"}, "lon": -77.14230783333333, "is_disabled": 0, "type": "electric_bike", "fusion_lon": 0.0, "fusion_lat": 0.0, "lat": 38.886064, "is_reserved": 0}, {"bike_id": "060214f7ae92faef1b5b5c77c2f81ee1", "name": "060214f7ae92faef1b5b5c77c2f81ee1", "rental_uris": {"ios": "https://dc.lft.to/lastmile_qr_scan", "android": "https://dc.lft.to/lastmile_qr_scan"}, "lon": -77.0785815, "is_disabled": 0, "type": "electric_scooter", "fusion_lon": 0.0, "fusion_lat": 0.0, "lat": 38.931732833333335, "is_reserved": 0}, {"bike_id": "e1e69d3663e9187fddc1903f9057eccb", "name": "e1e69d3663e9187fddc1903f9057eccb", "rental_uris": {"ios": "https://dc.lft.to/lastmile_qr_scan", "android": "https://dc.lft.to/lastmile_qr_scan"}, "lon": -77.01952133333333, "is_disabled": 0, "type": "electric_scooter", "fusion_lon": 0.0, "fusion_lat": 0.0, "lat": 38.9242505, "is_reserved": 0}, {"bike_id": "e77ad00c5e3fcd98c2fa390bce91bc3e", "name": "e77ad00c5e3fcd98c2fa390bce91bc3e", "rental_uris": {"ios": "https://dc.lft.to/lastmile_qr_scan", "android": "https://dc.lft.to/lastmile_qr_scan"}, "lon": -76.99336716666667, "is_disabled": 0, "type": "electric_bike", "fusion_lon": 0.0, "fusion_lat": 0.0, "lat": 38.946691666666666, "is_reserved": 0}, {"bike_id": "4178d789be1b3b4f848540de2ed386af", "name": "4178d789be1b3b4f848540de2ed386af", "rental_uris": {"ios": "https://dc.lft.to/lastmile_qr_scan", "android": "https://dc.lft.to/lastmile_qr_scan"}, "lon": -77.02831066666667, "is_disabled": 0, "type": "electric_scooter", "fusion_lon": 0.0, "fusion_lat": 0.0, "lat": 38.93235583333333, "is_reserved": 0}, {"bike_id": "960323b80e753c26801739606fce1bc0", "name": "960323b80e753c26801739606fce1bc0", "rental_uris": {"ios": "https://dc.lft.to/lastmile_qr_scan", "android": "https://dc.lft.to/lastmile_qr_scan"}, "lon": -77.04584183333333, "is_disabled": 0, "type": "electric_scooter", "fusion_lon": 0.0, "fusion_lat": 0.0, "lat": 38.921328833333334, "is_reserved": 0}, {"bike_id": "c7628a327b530f72123d750220ab40a6", "name": "c7628a327b530f72123d750220ab40a6", "rental_uris": {"ios": "https://dc.lft.to/lastmile_qr_scan", "android": "https://dc.lft.to/lastmile_qr_scan"}, "lon": -77.032101, "is_disabled": 0, "type": "electric_scooter", "fusion_lon": 0.0, "fusion_lat": 0.0, "lat": 38.91251366666667, "is_reserved": 0}, {"bike_id": "6a5f0f776405bd329c436f0a9ab74a1f", "name": "6a5f0f776405bd329c436f0a9ab74a1f", "rental_uris": {"ios": "https://dc.lft.to/lastmile_qr_scan", "android": "https://dc.lft.to/lastmile_qr_scan"}, "lon": -77.05003733333334, "is_disabled": 0, "type": "electric_scooter", "fusion_lon": 0.0, "fusion_lat": 0.0, "lat": 38.892332833333334, "is_reserved": 0}, {"bike_id": "a7e23794d9a85e51a206b22becc3c895", "name": "a7e23794d9a85e51a206b22becc3c895", "rental_uris": {"ios": "https://dc.lft.to/lastmile_qr_scan", "android": "https://dc.lft.to/lastmile_qr_scan"}, "lon": -77.00332633333333, "is_disabled": 0, "type": "electric_scooter", "fusion_lon": 0.0, "fusion_lat": 0.0, "lat": 38.89356033333333, "is_reserved": 0}, {"bike_id": "149827a6f1b52b025cb6ca2214725e5f", "name": "149827a6f1b52b025cb6ca2214725e5f", "rental_uris": {"ios": "https://dc.lft.to/lastmile_qr_scan", "android": "https://dc.lft.to/lastmile_qr_scan"}, "lon": -77.03020116666667, "is_disabled": 0, "type": "electric_scooter", "fusion_lon": 0.0, "fusion_lat": 0.0, "lat": 38.918088, "is_reserved": 0}, {"bike_id": "591609da3898619b4ce36b969632aece", "name": "591609da3898619b4ce36b969632aece", "rental_uris": {"ios": "https://dc.lft.to/lastmile_qr_scan", "android": "https://dc.lft.to/lastmile_qr_scan"}, "lon": -77.01116016666667, "is_disabled": 0, "type": "electric_scooter", "fusion_lon": 0.0, "fusion_lat": 0.0, "lat": 38.88512466666667, "is_reserved": 0}, {"bike_id": "cfa8bf9d2f89ce2a4f3d2eb819de94f0", "name": "cfa8bf9d2f89ce2a4f3d2eb819de94f0", "rental_uris": {"ios": "https://dc.lft.to/lastmile_qr_scan", "android": "https://dc.lft.to/lastmile_qr_scan"}, "lon": -77.0218405, "is_disabled": 0, "type": "electric_scooter", "fusion_lon": 0.0, "fusion_lat": 0.0, "lat": 38.91495416666667, "is_reserved": 0}, {"bike_id": "e16ab628100e2b46889f5df642b32c47", "name": "e16ab628100e2b46889f5df642b32c47", "rental_uris": {"ios": "https://dc.lft.to/lastmile_qr_scan", "android": "https://dc.lft.to/lastmile_qr_scan"}, "lon": -77.03322283333334, "is_disabled": 0, "type": "electric_scooter", "fusion_lon": 0.0, "fusion_lat": 0.0, "lat": 38.915696, "is_reserved": 0}, {"bike_id": "7b06ec8764d01ff54481f1948268b685", "name": "7b06ec8764d01ff54481f1948268b685", "rental_uris": {"ios": "https://dc.lft.to/lastmile_qr_scan", "android": "https://dc.lft.to/lastmile_qr_scan"}, "lon": -77.0019095, "is_disabled": 0, "type": "electric_scooter", "fusion_lon": 0.0, "fusion_lat": 0.0, "lat": 38.90828333333333, "is_reserved": 0}, {"bike_id": "96d793431147a39f461cdfdef46fc5c2", "name": "96d793431147a39f461cdfdef46fc5c2", "rental_uris": {"ios": "https://dc.lft.to/lastmile_qr_scan", "android": "https://dc.lft.to/lastmile_qr_scan"}, "lon": -77.060432, "is_disabled": 0, "type": "electric_scooter", "fusion_lon": 0.0, "fusion_lat": 0.0, "lat": 38.943833166666664, "is_reserved": 0}, {"bike_id": "54e0ce4d68da547bdc55d8376ecacbe0", "name": "54e0ce4d68da547bdc55d8376ecacbe0", "rental_uris": {"ios": "https://dc.lft.to/lastmile_qr_scan", "android": "https://dc.lft.to/lastmile_qr_scan"}, "lon": -77.03183883333334, "is_disabled": 0, "type": "electric_scooter", "fusion_lon": 0.0, "fusion_lat": 0.0, "lat": 38.892459333333335, "is_reserved": 0}, {"bike_id": "d6bcda65d71ffdbe2d6d510ac082d49f", "name": "d6bcda65d71ffdbe2d6d510ac082d49f", "rental_uris": {"ios": "https://dc.lft.to/lastmile_qr_scan", "android": "https://dc.lft.to/lastmile_qr_scan"}, "lon": -77.0348095, "is_disabled": 0, "type": "electric_scooter", "fusion_lon": 0.0, "fusion_lat": 0.0, "lat": 38.92064516666667, "is_reserved": 0}, {"bike_id": "5b3fec7589282cea59d2e97b05f2d36e", "name": "5b3fec7589282cea59d2e97b05f2d36e", "rental_uris": {"ios": "https://dc.lft.to/lastmile_qr_scan", "android": "https://dc.lft.to/lastmile_qr_scan"}, "lon": -77.01647466666667, "is_disabled": 0, "type": "electric_scooter", "fusion_lon": 0.0, "fusion_lat": 0.0, "lat": 38.89784566666667, "is_reserved": 0}, {"bike_id": "91b7af748aa94e34a774981304a35466", "name": "91b7af748aa94e34a774981304a35466", "rental_uris": {"ios": "https://dc.lft.to/lastmile_qr_scan", "android": "https://dc.lft.to/lastmile_qr_scan"}, "lon": -77.02193016666666, "is_disabled": 0, "type": "electric_scooter", "fusion_lon": 0.0, "fusion_lat": 0.0, "lat": 38.9105055, "is_reserved": 0}, {"bike_id": "4af9cd75a6d191d9bad76e904888ac36", "name": "4af9cd75a6d191d9bad76e904888ac36", "rental_uris": {"ios": "https://dc.lft.to/lastmile_qr_scan", "android": "https://dc.lft.to/lastmile_qr_scan"}, "lon": -76.98008866666666, "is_disabled": 0, "type": "electric_scooter", "fusion_lon": 0.0, "fusion_lat": 0.0, "lat": 38.9012315, "is_reserved": 0}, {"bike_id": "e71e5869a21f6d96aa4334c39fd5416f", "name": "e71e5869a21f6d96aa4334c39fd5416f", "rental_uris": {"ios": "https://dc.lft.to/lastmile_qr_scan", "android": "https://dc.lft.to/lastmile_qr_scan"}, "lon": -77.02169733333334, "is_disabled": 0, "type": "electric_scooter", "fusion_lon": 0.0, "fusion_lat": 0.0, "lat": 38.88721283333334, "is_reserved": 0}, {"bike_id": "ba4e96fa4a7f41c7aa938f05bff3070c", "name": "ba4e96fa4a7f41c7aa938f05bff3070c", "rental_uris": {"ios": "https://dc.lft.to/lastmile_qr_scan", "android": "https://dc.lft.to/lastmile_qr_scan"}, "lon": -77.04621433333334, "is_disabled": 0, "type": "electric_scooter", "fusion_lon": 0.0, "fusion_lat": 0.0, "lat": 38.898056, "is_reserved": 0}, {"bike_id": "beef5f4d9c2c8cec31d5ef743b521320", "name": "beef5f4d9c2c8cec31d5ef743b521320", "rental_uris": {"ios": "https://dc.lft.to/lastmile_qr_scan", "android": "https://dc.lft.to/lastmile_qr_scan"}, "lon": -77.04134816666667, "is_disabled": 0, "type": "electric_scooter", "fusion_lon": 0.0, "fusion_lat": 0.0, "lat": 38.934695833333336, "is_reserved": 0}, {"bike_id": "be386aec1ce742688ebd06c7c44bfdf7", "name": "be386aec1ce742688ebd06c7c44bfdf7", "rental_uris": {"ios": "https://dc.lft.to/lastmile_qr_scan", "android": "https://dc.lft.to/lastmile_qr_scan"}, "lon": -77.0190815, "is_disabled": 0, "type": "electric_scooter", "fusion_lon": 0.0, "fusion_lat": 0.0, "lat": 38.9141775, "is_reserved": 0}, {"bike_id": "02c8a028c9dd6ee004a95640a26a94d2", "name": "02c8a028c9dd6ee004a95640a26a94d2", "rental_uris": {"ios": "https://dc.lft.to/lastmile_qr_scan", "android": "https://dc.lft.to/lastmile_qr_scan"}, "lon": -77.02155066666667, "is_disabled": 0, "type": "electric_scooter", "fusion_lon": 0.0, "fusion_lat": 0.0, "lat": 38.9260605, "is_reserved": 0}, {"bike_id": "3ddc6ca377c9bccfc96dd5406663d701", "name": "3ddc6ca377c9bccfc96dd5406663d701", "rental_uris": {"ios": "https://dc.lft.to/lastmile_qr_scan", "android": "https://dc.lft.to/lastmile_qr_scan"}, "lon": -77.03760316666667, "is_disabled": 0, "type": "electric_scooter", "fusion_lon": 0.0, "fusion_lat": 0.0, "lat": 38.907809666666665, "is_reserved": 0}, {"bike_id": "6ba19e2738eeacfb11f6a6ed3882e5db", "name": "6ba19e2738eeacfb11f6a6ed3882e5db", "rental_uris": {"ios": "https://dc.lft.to/lastmile_qr_scan", "android": "https://dc.lft.to/lastmile_qr_scan"}, "lon": -77.03174516666667, "is_disabled": 0, "type": "electric_scooter", "fusion_lon": 0.0, "fusion_lat": 0.0, "lat": 38.91421183333333, "is_reserved": 0}, {"bike_id": "e661b74a711423ba7034943bc5cf2fb7", "name": "e661b74a711423ba7034943bc5cf2fb7", "rental_uris": {"ios": "https://dc.lft.to/lastmile_qr_scan", "android": "https://dc.lft.to/lastmile_qr_scan"}, "lon": -76.9948755, "is_disabled": 0, "type": "electric_scooter", "fusion_lon": 0.0, "fusion_lat": 0.0, "lat": 38.8947355, "is_reserved": 0}, {"bike_id": "ea0d0cca624c0d7cdc6c963a53a2db13", "name": "ea0d0cca624c0d7cdc6c963a53a2db13", "rental_uris": {"ios": "https://dc.lft.to/lastmile_qr_scan", "android": "https://dc.lft.to/lastmile_qr_scan"}, "lon": -77.024, "is_disabled": 0, "type": "electric_scooter", "fusion_lon": 0.0, "fusion_lat": 0.0, "lat": 38.90600933333333, "is_reserved": 0}, {"bike_id": "de52d1c3665fb1f217da03525c1ed2d0", "name": "de52d1c3665fb1f217da03525c1ed2d0", "rental_uris": {"ios": "https://dc.lft.to/lastmile_qr_scan", "android": "https://dc.lft.to/lastmile_qr_scan"}, "lon": -77.04206233333333, "is_disabled": 0, "type": "electric_scooter", "fusion_lon": 0.0, "fusion_lat": 0.0, "lat": 38.920447, "is_reserved": 0}, {"bike_id": "ac22d3b66eed0476358c414ac597bc8f", "name": "ac22d3b66eed0476358c414ac597bc8f", "rental_uris": {"ios": "https://dc.lft.to/lastmile_qr_scan", "android": "https://dc.lft.to/lastmile_qr_scan"}, "lon": -77.024052, "is_disabled": 0, "type": "electric_scooter", "fusion_lon": 0.0, "fusion_lat": 0.0, "lat": 38.92500583333333, "is_reserved": 0}, {"bike_id": "cd3fcd6a3ee63d782616bc62b4dd836a", "name": "cd3fcd6a3ee63d782616bc62b4dd836a", "rental_uris": {"ios": "https://dc.lft.to/lastmile_qr_scan", "android": "https://dc.lft.to/lastmile_qr_scan"}, "lon": -77.03209266666667, "is_disabled": 0, "type": "electric_scooter", "fusion_lon": 0.0, "fusion_lat": 0.0, "lat": 38.89237833333333, "is_reserved": 0}, {"bike_id": "c5a8c69b4c3dce60e46ec6bf94132c38", "name": "c5a8c69b4c3dce60e46ec6bf94132c38", "rental_uris": {"ios": "https://dc.lft.to/lastmile_qr_scan", "android": "https://dc.lft.to/lastmile_qr_scan"}, "lon": -76.99538, "is_disabled": 0, "type": "electric_bike", "fusion_lon": 0.0, "fusion_lat": 0.0, "lat": 38.83872, "is_reserved": 0}, {"bike_id": "847fe4d1c35e564932bf3990bc41dd6c", "name": "847fe4d1c35e564932bf3990bc41dd6c", "rental_uris": {"ios": "https://dc.lft.to/lastmile_qr_scan", "android": "https://dc.lft.to/lastmile_qr_scan"}, "lon": -77.0413015, "is_disabled": 0, "type": "electric_scooter", "fusion_lon": 0.0, "fusion_lat": 0.0, "lat": 38.915549666666664, "is_reserved": 0}, {"bike_id": "1dd55acd888afafd1d596d9685e8e8ad", "name": "1dd55acd888afafd1d596d9685e8e8ad", "rental_uris": {"ios": "https://dc.lft.to/lastmile_qr_scan", "android": "https://dc.lft.to/lastmile_qr_scan"}, "lon": -76.99696583333333, "is_disabled": 0, "type": "electric_scooter", "fusion_lon": 0.0, "fusion_lat": 0.0, "lat": 38.9083465, "is_reserved": 0}, {"bike_id": "556582dcbaf73dbe2a38077923bdcc05", "name": "556582dcbaf73dbe2a38077923bdcc05", "rental_uris": {"ios": "https://dc.lft.to/lastmile_qr_scan", "android": "https://dc.lft.to/lastmile_qr_scan"}, "lon": -77.0647405, "is_disabled": 0, "type": "electric_scooter", "fusion_lon": 0.0, "fusion_lat": 0.0, "lat": 38.94657266666667, "is_reserved": 0}, {"bike_id": "417d0e19446c1bdcfa8e08aebb4b9d0d", "name": "417d0e19446c1bdcfa8e08aebb4b9d0d", "rental_uris": {"ios": "https://dc.lft.to/lastmile_qr_scan", "android": "https://dc.lft.to/lastmile_qr_scan"}, "lon": -77.01326633333333, "is_disabled": 0, "type": "electric_scooter", "fusion_lon": 0.0, "fusion_lat": 0.0, "lat": 38.897160166666666, "is_reserved": 0}, {"bike_id": "7d2c9f991297dbf9d20f029b5383c3c0", "name": "7d2c9f991297dbf9d20f029b5383c3c0", "rental_uris": {"ios": "https://dc.lft.to/lastmile_qr_scan", "android": "https://dc.lft.to/lastmile_qr_scan"}, "lon": -76.98692283333334, "is_disabled": 0, "type": "electric_bike", "fusion_lon": 0.0, "fusion_lat": 0.0, "lat": 38.944735333333334, "is_reserved": 0}, {"bike_id": "4c8b27806a5a6182e048ab0f9ebc954c", "name": "4c8b27806a5a6182e048ab0f9ebc954c", "rental_uris": {"ios": "https://dc.lft.to/lastmile_qr_scan", "android": "https://dc.lft.to/lastmile_qr_scan"}, "lon": -77.01798116666667, "is_disabled": 0, "type": "electric_bike", "fusion_lon": 0.0, "fusion_lat": 0.0, "lat": 38.994145333333336, "is_reserved": 0}, {"bike_id": "4c6676489491f4488c7bc8cd0fade1c7", "name": "4c6676489491f4488c7bc8cd0fade1c7", "rental_uris": {"ios": "https://dc.lft.to/lastmile_qr_scan", "android": "https://dc.lft.to/lastmile_qr_scan"}, "lon": -77.02006266666666, "is_disabled": 0, "type": "electric_scooter", "fusion_lon": 0.0, "fusion_lat": 0.0, "lat": 38.90267983333333, "is_reserved": 0}, {"bike_id": "cec278e986f70ca2c58d888db54d81f3", "name": "cec278e986f70ca2c58d888db54d81f3", "rental_uris": {"ios": "https://dc.lft.to/lastmile_qr_scan", "android": "https://dc.lft.to/lastmile_qr_scan"}, "lon": -77.02219783333334, "is_disabled": 0, "type": "electric_scooter", "fusion_lon": 0.0, "fusion_lat": 0.0, "lat": 38.891961333333334, "is_reserved": 0}, {"bike_id": "3ab422a883a7af99737c756ca536df0f", "name": "3ab422a883a7af99737c756ca536df0f", "rental_uris": {"ios": "https://dc.lft.to/lastmile_qr_scan", "android": "https://dc.lft.to/lastmile_qr_scan"}, "lon": -77.03607966666667, "is_disabled": 0, "type": "electric_scooter", "fusion_lon": 0.0, "fusion_lat": 0.0, "lat": 38.92327383333333, "is_reserved": 0}, {"bike_id": "387d4cce9297d1688c341744cf75e6f2", "name": "387d4cce9297d1688c341744cf75e6f2", "rental_uris": {"ios": "https://dc.lft.to/lastmile_qr_scan", "android": "https://dc.lft.to/lastmile_qr_scan"}, "lon": -76.9741855, "is_disabled": 0, "type": "electric_scooter", "fusion_lon": 0.0, "fusion_lat": 0.0, "lat": 38.90243816666667, "is_reserved": 0}, {"bike_id": "7024a4eaaf87fff3122d8efeb19108ef", "name": "7024a4eaaf87fff3122d8efeb19108ef", "rental_uris": {"ios": "https://dc.lft.to/lastmile_qr_scan", "android": "https://dc.lft.to/lastmile_qr_scan"}, "lon": -76.99776366666667, "is_disabled": 0, "type": "electric_scooter", "fusion_lon": 0.0, "fusion_lat": 0.0, "lat": 38.89425833333333, "is_reserved": 0}, {"bike_id": "070a17dfe2e73cf19192c9636a502603", "name": "070a17dfe2e73cf19192c9636a502603", "rental_uris": {"ios": "https://dc.lft.to/lastmile_qr_scan", "android": "https://dc.lft.to/lastmile_qr_scan"}, "lon": -77.002582, "is_disabled": 0, "type": "electric_scooter", "fusion_lon": 0.0, "fusion_lat": 0.0, "lat": 38.876635, "is_reserved": 0}, {"bike_id": "69f7711cd4101f023833a624f9e30e0d", "name": "69f7711cd4101f023833a624f9e30e0d", "rental_uris": {"ios": "https://dc.lft.to/lastmile_qr_scan", "android": "https://dc.lft.to/lastmile_qr_scan"}, "lon": -77.02526766666666, "is_disabled": 0, "type": "electric_scooter", "fusion_lon": 0.0, "fusion_lat": 0.0, "lat": 38.90184583333333, "is_reserved": 0}, {"bike_id": "59b4b7f32a3a011c001a708cf83b6069", "name": "59b4b7f32a3a011c001a708cf83b6069", "rental_uris": {"ios": "https://dc.lft.to/lastmile_qr_scan", "android": "https://dc.lft.to/lastmile_qr_scan"}, "lon": -77.04227166666666, "is_disabled": 0, "type": "electric_bike", "fusion_lon": 0.0, "fusion_lat": 0.0, "lat": 39.038137666666664, "is_reserved": 0}, {"bike_id": "8b2a854e21381b1d1ed72edbdcbc6404", "name": "8b2a854e21381b1d1ed72edbdcbc6404", "rental_uris": {"ios": "https://dc.lft.to/lastmile_qr_scan", "android": "https://dc.lft.to/lastmile_qr_scan"}, "lon": -77.043694, "is_disabled": 0, "type": "electric_scooter", "fusion_lon": 0.0, "fusion_lat": 0.0, "lat": 38.892249, "is_reserved": 0}, {"bike_id": "e55f60a608411eecc21cb7c0fb415c77", "name": "e55f60a608411eecc21cb7c0fb415c77", "rental_uris": {"ios": "https://dc.lft.to/lastmile_qr_scan", "android": "https://dc.lft.to/lastmile_qr_scan"}, "lon": -77.018506, "is_disabled": 0, "type": "electric_scooter", "fusion_lon": 0.0, "fusion_lat": 0.0, "lat": 38.90967416666667, "is_reserved": 0}, {"bike_id": "c1cc49abebac00c54fd035c7e4135a7f", "name": "c1cc49abebac00c54fd035c7e4135a7f", "rental_uris": {"ios": "https://dc.lft.to/lastmile_qr_scan", "android": "https://dc.lft.to/lastmile_qr_scan"}, "lon": -77.0466015, "is_disabled": 0, "type": "electric_scooter", "fusion_lon": 0.0, "fusion_lat": 0.0, "lat": 38.896495333333334, "is_reserved": 0}, {"bike_id": "f4c0844897b3d5a6b8028c7ccf9b07da", "name": "f4c0844897b3d5a6b8028c7ccf9b07da", "rental_uris": {"ios": "https://dc.lft.to/lastmile_qr_scan", "android": "https://dc.lft.to/lastmile_qr_scan"}, "lon": -77.04613066666667, "is_disabled": 0, "type": "electric_scooter", "fusion_lon": 0.0, "fusion_lat": 0.0, "lat": 38.89830383333333, "is_reserved": 0}, {"bike_id": "9856c068fe91e75b5d53e8953df49eb5", "name": "9856c068fe91e75b5d53e8953df49eb5", "rental_uris": {"ios": "https://dc.lft.to/lastmile_qr_scan", "android": "https://dc.lft.to/lastmile_qr_scan"}, "lon": -76.91096366666666, "is_disabled": 0, "type": "electric_bike", "fusion_lon": 0.0, "fusion_lat": 0.0, "lat": 38.883198666666665, "is_reserved": 0}, {"bike_id": "e6ca5a4b958ee0cda4b7140525872314", "name": "e6ca5a4b958ee0cda4b7140525872314", "rental_uris": {"ios": "https://dc.lft.to/lastmile_qr_scan", "android": "https://dc.lft.to/lastmile_qr_scan"}, "lon": -77.045019, "is_disabled": 0, "type": "electric_scooter", "fusion_lon": 0.0, "fusion_lat": 0.0, "lat": 38.914887666666665, "is_reserved": 0}, {"bike_id": "ea469a3740e223bb6e68bf44d7af1e07", "name": "ea469a3740e223bb6e68bf44d7af1e07", "rental_uris": {"ios": "https://dc.lft.to/lastmile_qr_scan", "android": "https://dc.lft.to/lastmile_qr_scan"}, "lon": -77.02976366666667, "is_disabled": 0, "type": "electric_scooter", "fusion_lon": 0.0, "fusion_lat": 0.0, "lat": 38.90885866666667, "is_reserved": 0}, {"bike_id": "cbefe8b99aaaada7c004a128aa10be91", "name": "cbefe8b99aaaada7c004a128aa10be91", "rental_uris": {"ios": "https://dc.lft.to/lastmile_qr_scan", "android": "https://dc.lft.to/lastmile_qr_scan"}, "lon": -77.0395625, "is_disabled": 0, "type": "electric_scooter", "fusion_lon": 0.0, "fusion_lat": 0.0, "lat": 38.892468666666666, "is_reserved": 0},