{"data": {"bikes": [{"lat": 38.90170483333333, "is_disabled": 0, "type": "electric_scooter", "lon": -77.02246883333333, "bike_id": "68fcc3ab8afce9ed95f09c610f8a89b3", "fusion_lat": 0.0, "name": "68fcc3ab8afce9ed95f09c610f8a89b3", "is_reserved": 0, "rental_uris": {"android": "https://dc.lft.to/lastmile_qr_scan", "ios": "https://dc.lft.to/lastmile_qr_scan"}, "fusion_lon": 0.0}, {"lat": 38.918903666666665, "is_disabled": 0, "type": "electric_scooter", "lon": -77.0412865, "bike_id": "b086115a95c7659b585e1a3e765a293f", "fusion_lat": 0.0, "name": "b086115a95c7659b585e1a3e765a293f", "is_reserved": 0, "rental_uris": {"android": "https://dc.lft.to/lastmile_qr_scan", "ios": "https://dc.lft.to/lastmile_qr_scan"}, "fusion_lon": 0.0}, {"lat": 38.90386516666667, "is_disabled": 0, "type": "electric_scooter", "lon": -77.0447255, "bike_id": "b3d935c29db2d4c48700064cc89b3205", "fusion_lat": 0.0, "name": "b3d935c29db2d4c48700064cc89b3205", "is_reserved": 0, "rental_uris": {"android": "https://dc.lft.to/lastmile_qr_scan", "ios": "https://dc.lft.to/lastmile_qr_scan"}, "fusion_lon": 0.0}, {"lat": 38.9169425, "is_disabled": 0, "type": "electric_scooter", "lon": -77.03121983333334, "bike_id": "dc3cc216e59ac700a3c46c43a31776af", "fusion_lat": 0.0, "name": "dc3cc216e59ac700a3c46c43a31776af", "is_reserved": 0, "rental_uris": {"android": "https://dc.lft.to/lastmile_qr_scan", "ios": "https://dc.lft.to/lastmile_qr_scan"}, "fusion_lon": 0.0}, {"lat": 38.870679, "is_disabled": 0, "type": "electric_scooter", "lon": -77.00841666666666, "bike_id": "e7b36c86b5bcd370571c7ce429df86d9", "fusion_lat": 0.0, "name": "e7b36c86b5bcd370571c7ce429df86d9", "is_reserved": 0, "rental_uris": {"android": "https://dc.lft.to/lastmile_qr_scan", "ios": "https://dc.lft.to/lastmile_qr_scan"}, "fusion_lon": 0.0}, {"lat": 38.91409633333333, "is_disabled": 0, "type": "electric_scooter", "lon": -77.032614, "bike_id": "d4b4f5e136fec1118beebd5bfb5b3eba", "fusion_lat": 0.0, "name": "d4b4f5e136fec1118beebd5bfb5b3eba", "is_reserved": 0, "rental_uris": {"android": "https://dc.lft.to/lastmile_qr_scan", "ios": "https://dc.lft.to/lastmile_qr_scan"}, "fusion_lon": 0.0}, {"lat": 38.884478333333334, "is_disabled": 0, "type": "electric_scooter", "lon": -77.01768316666667, "bike_id": "8949a21a75479f8fdcfe2874ba6635cb", "fusion_lat": 0.0, "name": "8949a21a75479f8fdcfe2874ba6635cb", "is_reserved": 0, "rental_uris": {"android": "https://dc.lft.to/lastmile_qr_scan", "ios": "https://dc.lft.to/lastmile_qr_scan"}, "fusion_lon": 0.0}, {"lat": 38.91974033333334, "is_disabled": 0, "type": "electric_scooter", "lon": -77.023923, "bike_id": "ab3254a28e50360a9419775c6daa0252", "fusion_lat": 0.0, "name": "ab3254a28e50360a9419775c6daa0252", "is_reserved": 0, "rental_uris": {"android": "https://dc.lft.to/lastmile_qr_scan", "ios": "https://dc.lft.to/lastmile_qr_scan"}, "fusion_lon": 0.0}, {"lat": 38.917371333333335, "is_disabled": 0, "type": "electric_scooter", "lon": -77.036575, "bike_id": "bcf384ca075707cb642ad9aaa3b1fba1", "fusion_lat": 0.0, "name": "bcf384ca075707cb642ad9aaa3b1fba1", "is_reserved": 0, "rental_uris": {"android": "https://dc.lft.to/lastmile_qr_scan", "ios": "https://dc.lft.to/lastmile_qr_scan"}, "fusion_lon": 0.0}, {"lat": 38.91777533333333, "is_disabled": 0, "type": "electric_scooter", "lon": -77.02265483333333, "bike_id": "4a5594780fe8b98174c2709f7e5f40ce", "fusion_lat": 0.0, "name": "4a5594780fe8b98174c2709f7e5f40ce", "is_reserved": 0, "rental_uris": {"android": "https://dc.lft.to/lastmile_qr_scan", "ios": "https://dc.lft.to/lastmile_qr_scan"}, "fusion_lon": 0.0}, {"lat": 38.914181666666664, "is_disabled": 0, "type": "electric_scooter", "lon": -77.03175383333334, "bike_id": "135f48f73badd15ca50bfb4d7443081d", "fusion_lat": 0.0, "name": "135f48f73badd15ca50bfb4d7443081d", "is_reserved": 0, "rental_uris": {"android": "https://dc.lft.to/lastmile_qr_scan", "ios": "https://dc.lft.to/lastmile_qr_scan"}, "fusion_lon": 0.0}, {"lat": 38.8950585, "is_disabled": 0, "type": "electric_scooter", "lon": -77.022834, "bike_id": "6d1752a1174b88bf3b7fbdb343af7acc", "fusion_lat": 0.0, "name": "6d1752a1174b88bf3b7fbdb343af7acc", "is_reserved": 0, "rental_uris": {"android": "https://dc.lft.to/lastmile_qr_scan", "ios": "https://dc.lft.to/lastmile_qr_scan"}, "fusion_lon": 0.0}, {"lat": 38.93415516666666, "is_disabled": 0, "type": "electric_scooter", "lon": -77.057844, "bike_id": "e4b242193974a494dc39241f7b1e0362", "fusion_lat": 0.0, "name": "e4b242193974a494dc39241f7b1e0362", "is_reserved": 0, "rental_uris": {"android": "https://dc.lft.to/lastmile_qr_scan", "ios": "https://dc.lft.to/lastmile_qr_scan"}, "fusion_lon": 0.0}, {"lat": 38.905597666666665, "is_disabled": 0, "type": "electric_scooter", "lon": -77.03464266666667, "bike_id": "40479044022459b4c96abd1e9bc134e3", "fusion_lat": 0.0, "name": "40479044022459b4c96abd1e9bc134e3", "is_reserved": 0, "rental_uris": {"android": "https://dc.lft.to/lastmile_qr_scan", "ios": "https://dc.lft.to/lastmile_qr_scan"}, "fusion_lon": 0.0}, {"lat": 38.9200785, "is_disabled": 0, "type": "electric_scooter", "lon": -77.03232266666667, "bike_id": "1d53c1a6ee78e2e0c0638de0f9b04db0", "fusion_lat": 0.0, "name": "1d53c1a6ee78e2e0c0638de0f9b04db0", "is_reserved": 0, "rental_uris": {"android": "https://dc.lft.to/lastmile_qr_scan", "ios": "https://dc.lft.to/lastmile_qr_scan"}, "fusion_lon": 0.0}, {"lat": 38.9056265, "is_disabled": 0, "type": "electric_scooter", "lon": -77.03415416666667, "bike_id": "1851617dc55d157933bd3a91ef5dc471", "fusion_lat": 0.0, "name": "1851617dc55d157933bd3a91ef5dc471", "is_reserved": 0, "rental_uris": {"android": "https://dc.lft.to/lastmile_qr_scan", "ios": "https://dc.lft.to/lastmile_qr_scan"}, "fusion_lon": 0.0}, {"lat": 38.95402983333334, "is_disabled": 0, "type": "electric_scooter", "lon": -77.03631266666666, "bike_id": "d19cbd63971ec66cbf9454e3af2639b9", "fusion_lat": 0.0, "name": "d19cbd63971ec66cbf9454e3af2639b9", "is_reserved": 0, "rental_uris": {"android": "https://dc.lft.to/lastmile_qr_scan", "ios": "https://dc.lft.to/lastmile_qr_scan"}, "fusion_lon": 0.0}, {"lat": 38.905579, "is_disabled": 0, "type": "electric_scooter", "lon": -77.03415116666666, "bike_id": "6b96d0d0fd7110ecde6e0ad830915c97", "fusion_lat": 0.0, "name": "6b96d0d0fd7110ecde6e0ad830915c97", "is_reserved": 0, "rental_uris": {"android": "https://dc.lft.to/lastmile_qr_scan", "ios": "https://dc.lft.to/lastmile_qr_scan"}, "fusion_lon": 0.0}, {"lat": 38.86918283333333, "is_disabled": 0, "type": "electric_bike", "lon": -77.13189966666667, "bike_id": "b51359783f8323ce171023968b2ed82e", "fusion_lat": 0.0, "name": "b51359783f8323ce171023968b2ed82e", "is_reserved": 0, "rental_uris": {"android": "https://dc.lft.to/lastmile_qr_scan", "ios": "https://dc.lft.to/lastmile_qr_scan"}, "fusion_lon": 0.0}, {"lat": 38.90250133333333, "is_disabled": 0, "type": "electric_scooter", "lon": -77.01853466666667, "bike_id": "2266c6a1fd747949a82a39a32d7e6c7e", "fusion_lat": 0.0, "name": "2266c6a1fd747949a82a39a32d7e6c7e", "is_reserved": 0, "rental_uris": {"android": "https://dc.lft.to/lastmile_qr_scan", "ios": "https://dc.lft.to/lastmile_qr_scan"}, "fusion_lon": 0.0}, {"lat": 38.93173983333333, "is_disabled": 0, "type": "electric_scooter", "lon": -77.028166, "bike_id": "dfeb1575d6b83cd896b54d9a5302eca3", "fusion_lat": 0.0, "name": "dfeb1575d6b83cd896b54d9a5302eca3", "is_reserved": 0, "rental_uris": {"android": "https://dc.lft.to/lastmile_qr_scan", "ios": "https://dc.lft.to/lastmile_qr_scan"}, "fusion_lon": 0.0}, {"lat": 38.905019833333334, "is_disabled": 0, "type": "electric_scooter", "lon": -77.05814216666667, "bike_id": "c66dbb6e4dc4310b7ceb12f4fdfd1de3", "fusion_lat": 0.0, "name": "c66dbb6e4dc4310b7ceb12f4fdfd1de3", "is_reserved": 0, "rental_uris": {"android": "https://dc.lft.to/lastmile_qr_scan", "ios": "https://dc.lft.to/lastmile_qr_scan"}, "fusion_lon": 0.0}, {"lat": 38.90019783333334, "is_disabled": 0, "type": "electric_scooter", "lon": -76.9870255, "bike_id": "3e816436c6f3be6ae51f43cd8a207b37", "fusion_lat": 0.0, "name": "3e816436c6f3be6ae51f43cd8a207b37", "is_reserved": 0, "rental_uris": {"android": "https://dc.lft.to/lastmile_qr_scan", "ios": "https://dc.lft.to/lastmile_qr_scan"}, "fusion_lon": 0.0}, {"lat": 38.91258933333334, "is_disabled": 0, "type": "electric_scooter", "lon": -77.04468683333333, "bike_id": "6a01a185fc825a70b76613e42ca2a59f", "fusion_lat": 0.0, "name": "6a01a185fc825a70b76613e42ca2a59f", "is_reserved": 0, "rental_uris": {"android": "https://dc.lft.to/lastmile_qr_scan", "ios": "https://dc.lft.to/lastmile_qr_scan"}, "fusion_lon": 0.0}, {"lat": 38.913369, "is_disabled": 0, "type": "electric_scooter", "lon": -77.038522, "bike_id": "adfa8caa2ad72ee24576f24e505f2196", "fusion_lat": 0.0, "name": "adfa8caa2ad72ee24576f24e505f2196", "is_reserved": 0, "rental_uris": {"android": "https://dc.lft.to/lastmile_qr_scan", "ios": "https://dc.lft.to/lastmile_qr_scan"}, "fusion_lon": 0.0}, {"lat": 38.890441333333335, "is_disabled": 0, "type": "electric_scooter", "lon": -76.9514315, "bike_id": "685c66aa19cde6247a9f7c923625f985", "fusion_lat": 0.0, "name": "685c66aa19cde6247a9f7c923625f985", "is_reserved": 0, "rental_uris": {"android": "https://dc.lft.to/lastmile_qr_scan", "ios": "https://dc.lft.to/lastmile_qr_scan"}, "fusion_lon": 0.0}, {"lat": 38.84669783333333, "is_disabled": 0, "type": "electric_bike", "lon": -76.97935066666666, "bike_id": "af679b0e7eb9984a16b6293eec98406c", "fusion_lat": 0.0, "name": "af679b0e7eb9984a16b6293eec98406c", "is_reserved": 0, "rental_uris": {"android": "https://dc.lft.to/lastmile_qr_scan", "ios": "https://dc.lft.to/lastmile_qr_scan"}, "fusion_lon": 0.0}, {"lat": 38.90562466666667, "is_disabled": 0, "type": "electric_scooter", "lon": -77.020152, "bike_id": "e5c00a41a0f0d33aea80bf75cbe8a144", "fusion_lat": 0.0, "name": "e5c00a41a0f0d33aea80bf75cbe8a144", "is_reserved": 0, "rental_uris": {"android": "https://dc.lft.to/lastmile_qr_scan", "ios": "https://dc.lft.to/lastmile_qr_scan"}, "fusion_lon": 0.0}, {"lat": 38.932901666666666, "is_disabled": 0, "type": "electric_scooter", "lon": -77.0397895, "bike_id": "d26ab7721c89a9b5f894112c8d335026", "fusion_lat": 0.0, "name": "d26ab7721c89a9b5f894112c8d335026", "is_reserved": 0, "rental_uris": {"android": "https://dc.lft.to/lastmile_qr_scan", "ios": "https://dc.lft.to/lastmile_qr_scan"}, "fusion_lon": 0.0}, {"lat": 38.9105625, "is_disabled": 0, "type": "electric_scooter", "lon": -77.01516983333333, "bike_id": "35518133f8851099aeb86d7e930f3e8f", "fusion_lat": 0.0, "name": "35518133f8851099aeb86d7e930f3e8f", "is_reserved": 0, "rental_uris": {"android": "https://dc.lft.to/lastmile_qr_scan", "ios": "https://dc.lft.to/lastmile_qr_scan"}, "fusion_lon": 0.0}, {"lat": 38.9295045, "is_disabled": 0, "type": "electric_scooter", "lon": -77.01891383333333, "bike_id": "27d13b69574f9255d5cfafe34b11e0db", "fusion_lat": 0.0, "name": "27d13b69574f9255d5cfafe34b11e0db", "is_reserved": 0, "rental_uris": {"android": "https://dc.lft.to/lastmile_qr_scan", "ios": "https://dc.lft.to/lastmile_qr_scan"}, "fusion_lon": 0.0}, {"lat": 38.919219166666664, "is_disabled": 0, "type": "electric_scooter", "lon": -77.03129266666667, "bike_id": "1c0c5e563887fc49b0096ae585eeca69", "fusion_lat": 0.0, "name": "1c0c5e563887fc49b0096ae585eeca69", "is_reserved": 0, "rental_uris": {"android": "https://dc.lft.to/lastmile_qr_scan", "ios": "https://dc.lft.to/lastmile_qr_scan"}, "fusion_lon": 0.0}, {"lat": 38.909642166666664, "is_disabled": 0, "type": "electric_scooter", "lon": -77.04780816666667, "bike_id": "8d6bcc955f122cec9bf12d559714787b", "fusion_lat": 0.0, "name": "8d6bcc955f122cec9bf12d559714787b", "is_reserved": 0, "rental_uris": {"android": "https://dc.lft.to/lastmile_qr_scan", "ios": "https://dc.lft.to/lastmile_qr_scan"}, "fusion_lon": 0.0}, {"lat": 38.92154716666667, "is_disabled": 0, "type": "electric_scooter", "lon": -77.03510716666666, "bike_id": "851b8dafeddf8b0f9ca3a0c510278a68", "fusion_lat": 0.0, "name": "851b8dafeddf8b0f9ca3a0c510278a68", "is_reserved": 0, "rental_uris": {"android": "https://dc.lft.to/lastmile_qr_scan", "ios": "https://dc.lft.to/lastmile_qr_scan"}, "fusion_lon": 0.0}, {"lat": 38.92278483333333, "is_disabled": 0, "type": "electric_scooter", "lon": -77.02246416666667, "bike_id": "ade71cefa367e0448bb3aab147627cc4", "fusion_lat": 0.0, "name": "ade71cefa367e0448bb3aab147627cc4", "is_reserved": 0, "rental_uris": {"android": "https://dc.lft.to/lastmile_qr_scan", "ios": "https://dc.lft.to/lastmile_qr_scan"}, "fusion_lon": 0.0}, {"lat": 39.05205333333333, "is_disabled": 0, "type": "electric_bike", "lon": -77.10920016666667, "bike_id": "67ec5a4ca62485e33f0b8be36b71ac78", "fusion_lat": 0.0, "name": "67ec5a4ca62485e33f0b8be36b71ac78", "is_reserved": 0, "rental_uris": {"android": "https://dc.lft.to/lastmile_qr_scan", "ios": "https://dc.lft.to/lastmile_qr_scan"}, "fusion_lon": 0.0}, {"lat": 38.9197295, "is_disabled": 0, "type": "electric_scooter", "lon": -77.01348, "bike_id": "78f38e33e0784e8387e3dadc3e614aea", "fusion_lat": 0.0, "name": "78f38e33e0784e8387e3dadc3e614aea", "is_reserved": 0, "rental_uris": {"android": "https://dc.lft.to/lastmile_qr_scan", "ios": "https://dc.lft.to/lastmile_qr_scan"}, "fusion_lon": 0.0}, {"lat": 38.899673, "is_disabled": 0, "type": "electric_scooter", "lon": -76.926515, "bike_id": "fd2baebb4f3b68cf7859c9037633f757", "fusion_lat": 0.0, "name": "fd2baebb4f3b68cf7859c9037633f757", "is_reserved": 0, "rental_uris": {"android": "https://dc.lft.to/lastmile_qr_scan", "ios": "https://dc.lft.to/lastmile_qr_scan"}, "fusion_lon": 0.0}, {"lat": 38.908251, "is_disabled": 0, "type": "electric_scooter", "lon": -77.044804, "bike_id": "3b4f4a1f0ea923e98605f5c3a335c33f", "fusion_lat": 0.0, "name": "3b4f4a1f0ea923e98605f5c3a335c33f", "is_reserved": 0, "rental_uris": {"android": "https://dc.lft.to/lastmile_qr_scan", "ios": "https://dc.lft.to/lastmile_qr_scan"}, "fusion_lon": 0.0}, {"lat": 38.9039235, "is_disabled": 0, "type": "electric_scooter", "lon": -77.053846, "bike_id": "82eea5fa10a26a8b236661e95a3c3db1", "fusion_lat": 0.0, "name": "82eea5fa10a26a8b236661e95a3c3db1", "is_reserved": 0, "rental_uris": {"android": "https://dc.lft.to/lastmile_qr_scan", "ios": "https://dc.lft.to/lastmile_qr_scan"}, "fusion_lon": 0.0}, {"lat": 38.9175505, "is_disabled": 0, "type": "electric_scooter", "lon": -77.036595, "bike_id": "6ed7fc3f4518042c40cdf62c99749c95", "fusion_lat": 0.0, "name": "6ed7fc3f4518042c40cdf62c99749c95", "is_reserved": 0, "rental_uris": {"android": "https://dc.lft.to/lastmile_qr_scan", "ios": "https://dc.lft.to/lastmile_qr_scan"}, "fusion_lon": 0.0}, {"lat": 38.900674333333335, "is_disabled": 0, "type": "electric_scooter", "lon": -77.02583533333333, "bike_id": "b49a2ab715ac5f89e94649eb0f44b472", "fusion_lat": 0.0, "name": "b49a2ab715ac5f89e94649eb0f44b472", "is_reserved": 0, "rental_uris": {"android": "https://dc.lft.to/lastmile_qr_scan", "ios": "https://dc.lft.to/lastmile_qr_scan"}, "fusion_lon": 0.0}, {"lat": 38.9002585, "is_disabled": 0, "type": "electric_scooter", "lon": -77.04504666666666, "bike_id": "b19f6b7dbcb14abb5747b9d6fb8a8381", "fusion_lat": 0.0, "name": "b19f6b7dbcb14abb5747b9d6fb8a8381", "is_reserved": 0, "rental_uris": {"android": "https://dc.lft.to/lastmile_qr_scan", "ios": "https://dc.lft.to/lastmile_qr_scan"}, "fusion_lon": 0.0}, {"lat": 38.9143225, "is_disabled": 0, "type": "electric_scooter", "lon": -77.03212883333333, "bike_id": "686a03fa687bb35dfb4c0df5f5308180", "fusion_lat": 0.0, "name": "686a03fa687bb35dfb4c0df5f5308180", "is_reserved": 0, "rental_uris": {"android": "https://dc.lft.to/lastmile_qr_scan", "ios": "https://dc.lft.to/lastmile_qr_scan"}, "fusion_lon": 0.0}, {"lat": 38.91553916666667, "is_disabled": 0, "type": "electric_scooter", "lon": -77.032428, "bike_id": "04ed43a8cc1713beaa982df99eb0b348", "fusion_lat": 0.0, "name": "04ed43a8cc1713beaa982df99eb0b348", "is_reserved": 0, "rental_uris": {"android": "https://dc.lft.to/lastmile_qr_scan", "ios": "https://dc.lft.to/lastmile_qr_scan"}, "fusion_lon": 0.0}, {"lat": 38.900689666666665, "is_disabled": 0, "type": "electric_scooter", "lon": -77.044181, "bike_id": "e17e9c7b09ab314d42fd96c731903654", "fusion_lat": 0.0, "name": "e17e9c7b09ab314d42fd96c731903654", "is_reserved": 0, "rental_uris": {"android": "https://dc.lft.to/lastmile_qr_scan", "ios": "https://dc.lft.to/lastmile_qr_scan"}, "fusion_lon": 0.0}, {"lat": 38.842958333333335, "is_disabled": 0, "type": "electric_scooter", "lon": -76.99946833333334, "bike_id": "dc53a5761368a2e515c4c9991b385c18", "fusion_lat": 0.0, "name": "dc53a5761368a2e515c4c9991b385c18", "is_reserved": 0, "rental_uris": {"android": "https://dc.lft.to/lastmile_qr_scan", "ios": "https://dc.lft.to/lastmile_qr_scan"}, "fusion_lon": 0.0}, {"lat": 38.93034316666667, "is_disabled": 0, "type": "electric_scooter", "lon": -77.02342083333333, "bike_id": "7f04c423a74deb3c34dd50166f1f988b", "fusion_lat": 0.0, "name": "7f04c423a74deb3c34dd50166f1f988b", "is_reserved": 0, "rental_uris": {"android": "https://dc.lft.to/lastmile_qr_scan", "ios": "https://dc.lft.to/lastmile_qr_scan"}, "fusion_lon": 0.0}, {"lat": 38.87631483333333, "is_disabled": 0, "type": "electric_scooter", "lon": -76.96523383333333, "bike_id": "1e8a6b8c4a0ea82bc14899af70695418", "fusion_lat": 0.0, "name": "1e8a6b8c4a0ea82bc14899af70695418", "is_reserved": 0, "rental_uris": {"android": "https://dc.lft.to/lastmile_qr_scan", "ios": "https://dc.lft.to/lastmile_qr_scan"}, "fusion_lon": 0.0}, {"lat": 38.9073415, "is_disabled": 0, "type": "electric_scooter", "lon": -77.04783183333333, "bike_id": "3db5991cf10fa23f0f4d6a517b5919ca", "fusion_lat": 0.0, "name": "3db5991cf10fa23f0f4d6a517b5919ca", "is_reserved": 0, "rental_uris": {"android": "https://dc.lft.to/lastmile_qr_scan", "ios": "https://dc.lft.to/lastmile_qr_scan"}, "fusion_lon": 0.0}, {"lat": 38.9051675, "is_disabled": 0, "type": "electric_scooter", "lon": -77.05677783333333, "bike_id": "ff2554e0fd5879a3ab9e8985e152561c", "fusion_lat": 0.0, "name": "ff2554e0fd5879a3ab9e8985e152561c", "is_reserved": 0, "rental_uris": {"android": "https://dc.lft.to/lastmile_qr_scan", "ios": "https://dc.lft.to/lastmile_qr_scan"}, "fusion_lon": 0.0}, {"lat": 38.86001433333333, "is_disabled": 0, "type": "electric_scooter", "lon": -76.9855505, "bike_id": "d7c756812065b9ef2aa188fc67dac6b0", "fusion_lat": 0.0, "name": "d7c756812065b9ef2aa188fc67dac6b0", "is_reserved": 0, "rental_uris": {"android": "https://dc.lft.to/lastmile_qr_scan", "ios": "https://dc.lft.to/lastmile_qr_scan"}, "fusion_lon": 0.0}, {"lat": 38.905736166666664, "is_disabled": 0, "type": "electric_scooter", "lon": -77.0221225, "bike_id": "86a5380331adfcd713e08d7d17a28113", "fusion_lat": 0.0, "name": "86a5380331adfcd713e08d7d17a28113", "is_reserved": 0, "rental_uris": {"android": "https://dc.lft.to/lastmile_qr_scan", "ios": "https://dc.lft.to/lastmile_qr_scan"}, "fusion_lon": 0.0}, {"lat": 38.90029166666667, "is_disabled": 0, "type": "electric_scooter", "lon": -77.00200633333333, "bike_id": "3291495a7ba0708f3bdc2c81127ebd9b", "fusion_lat": 0.0, "name": "3291495a7ba0708f3bdc2c81127ebd9b", "is_reserved": 0, "rental_uris": {"android": "https://dc.lft.to/lastmile_qr_scan", "ios": "https://dc.lft.to/lastmile_qr_scan"}, "fusion_lon": 0.0}, {"lat": 38.95074366666667, "is_disabled": 0, "type": "electric_scooter", "lon": -77.06657933333334, "bike_id": "0f0e45c82be44f1c16eae22691b539a2", "fusion_lat": 0.0, "name": "0f0e45c82be44f1c16eae22691b539a2", "is_reserved": 0, "rental_uris": {"android": "https://dc.lft.to/lastmile_qr_scan", "ios": "https://dc.lft.to/lastmile_qr_scan"}, "fusion_lon": 0.0}, {"lat": 38.905687, "is_disabled": 0, "type": "electric_scooter", "lon": -77.04684433333334, "bike_id": "4afd82ceabc02d15de3a1573e3e7daf7", "fusion_lat": 0.0, "name": "4afd82ceabc02d15de3a1573e3e7daf7", "is_reserved": 0, "rental_uris": {"android": "https://dc.lft.to/lastmile_qr_scan", "ios": "https://dc.lft.to/lastmile_qr_scan"}, "fusion_lon": 0.0}, {"lat": 38.89232533333333, "is_disabled": 0, "type": "electric_scooter", "lon": -77.02413266666667, "bike_id": "4484229255eedd2abb9948519258298e", "fusion_lat": 0.0, "name": "4484229255eedd2abb9948519258298e", "is_reserved": 0, "rental_uris": {"android": "https://dc.lft.to/lastmile_qr_scan", "ios": "https://dc.lft.to/lastmile_qr_scan"}, "fusion_lon": 0.0}, {"lat": 38.91916483333333, "is_disabled": 0, "type": "electric_scooter", "lon": -77.031275, "bike_id": "446d85e20ba58180937ec21a42881259", "fusion_lat": 0.0, "name": "446d85e20ba58180937ec21a42881259", "is_reserved": 0, "rental_uris": {"android": "https://dc.lft.to/lastmile_qr_scan", "ios": "https://dc.lft.to/lastmile_qr_scan"}, "fusion_lon": 0.0}, {"lat": 38.9050685, "is_disabled": 0, "type": "electric_scooter", "lon": -77.05812333333333, "bike_id": "9fb00314375149364cef84c237758662", "fusion_lat": 0.0, "name": "9fb00314375149364cef84c237758662", "is_reserved": 0, "rental_uris": {"android": "https://dc.lft.to/lastmile_qr_scan", "ios": "https://dc.lft.to/lastmile_qr_scan"}, "fusion_lon": 0.0}, {"lat": 38.909681, "is_disabled": 0, "type": "electric_scooter", "lon": -77.04803483333333, "bike_id": "879fc41e6ae7326bc448fac3217613e9", "fusion_lat": 0.0, "name": "879fc41e6ae7326bc448fac3217613e9", "is_reserved": 0, "rental_uris": {"android": "https://dc.lft.to/lastmile_qr_scan", "ios": "https://dc.lft.to/lastmile_qr_scan"}, "fusion_lon": 0.0}, {"lat": 38.919095166666665, "is_disabled": 0, "type": "electric_scooter", "lon": -77.04630766666666, "bike_id": "beab46367a4bafb1d28e20820affebb3", "fusion_lat": 0.0, "name": "beab46367a4bafb1d28e20820affebb3", "is_reserved": 0, "rental_uris": {"android": "https://dc.lft.to/lastmile_qr_scan", "ios": "https://dc.lft.to/lastmile_qr_scan"}, "fusion_lon": 0.0}, {"lat": 38.9096625, "is_disabled": 0, "type": "electric_scooter", "lon": -77.0372645, "bike_id": "9de8f893b9377640eee373d7d8c08818", "fusion_lat": 0.0, "name": "9de8f893b9377640eee373d7d8c08818", "is_reserved": 0, "rental_uris": {"android": "https://dc.lft.to/lastmile_qr_scan", "ios": "https://dc.lft.to/lastmile_qr_scan"}, "fusion_lon": 0.0}, {"lat": 38.907769, "is_disabled": 0, "type": "electric_scooter", "lon": -77.0693065, "bike_id": "89943c050beba3cc6f9954e0460c5d1c", "fusion_lat": 0.0, "name": "89943c050beba3cc6f9954e0460c5d1c", "is_reserved": 0, "rental_uris": {"android": "https://dc.lft.to/lastmile_qr_scan", "ios": "https://dc.lft.to/lastmile_qr_scan"}, "fusion_lon": 0.0}, {"lat": 38.93361216666667, "is_disabled": 0, "type": "electric_bike", "lon": -77.09965133333333, "bike_id": "14ea11fe2472d64419521b8fa012e2a3", "fusion_lat": 0.0, "name": "14ea11fe2472d64419521b8fa012e2a3", "is_reserved": 0, "rental_uris": {"android": "https://dc.lft.to/lastmile_qr_scan", "ios": "https://dc.lft.to/lastmile_qr_scan"}, "fusion_lon": 0.0}, {"lat": 38.86522183333334, "is_disabled": 0, "type": "electric_scooter", "lon": -76.99036616666666, "bike_id": "c4799d46f940f5d3000003e665ed2fa9", "fusion_lat": 0.0, "name": "c4799d46f940f5d3000003e665ed2fa9", "is_reserved": 0, "rental_uris": {"android": "https://dc.lft.to/lastmile_qr_scan", "ios": "https://dc.lft.to/lastmile_qr_scan"}, "fusion_lon": 0.0}, {"lat": 38.90100433333333, "is_disabled": 0, "type": "electric_scooter", "lon": -77.02037666666666, "bike_id": "494e681fc7aa54681bdd40bc73be845c", "fusion_lat": 0.0, "name": "494e681fc7aa54681bdd40bc73be845c", "is_reserved": 0, "rental_uris": {"android": "https://dc.lft.to/lastmile_qr_scan", "ios": "https://dc.lft.to/lastmile_qr_scan"}, "fusion_lon": 0.0}, {"lat": 38.825753666666664, "is_disabled": 0, "type": "electric_scooter", "lon": -76.99978966666667, "bike_id": "64bc83e14c8bdee03c7be4581f8dc87e", "fusion_lat": 0.0, "name": "64bc83e14c8bdee03c7be4581f8dc87e", "is_reserved": 0, "rental_uris": {"android": "https://dc.lft.to/lastmile_qr_scan", "ios": "https://dc.lft.to/lastmile_qr_scan"}, "fusion_lon": 0.0}, {"lat": 38.904695833333335, "is_disabled": 0, "type": "electric_scooter", "lon": -77.0322485, "bike_id": "a95f5c24bd6252f8366216db2191638d", "fusion_lat": 0.0, "name": "a95f5c24bd6252f8366216db2191638d", "is_reserved": 0, "rental_uris": {"android": "https://dc.lft.to/lastmile_qr_scan", "ios": "https://dc.lft.to/lastmile_qr_scan"}, "fusion_lon": 0.0}, {"lat": 38.92478716666667, "is_disabled": 0, "type": "electric_scooter", "lon": -77.03979183333334, "bike_id": "cdded5df1893b47bd5ef73546246d6fd", "fusion_lat": 0.0, "name": "cdded5df1893b47bd5ef73546246d6fd", "is_reserved": 0, "rental_uris": {"android": "https://dc.lft.to/lastmile_qr_scan", "ios": "https://dc.lft.to/lastmile_qr_scan"}, "fusion_lon": 0.0}, {"lat": 38.921248166666665, "is_disabled": 0, "type": "electric_scooter", "lon": -77.03660333333333, "bike_id": "530f82cca46f72b5baa130d13d615c4f", "fusion_lat": 0.0, "name": "530f82cca46f72b5baa130d13d615c4f", "is_reserved": 0, "rental_uris": {"android": "https://dc.lft.to/lastmile_qr_scan", "ios": "https://dc.lft.to/lastmile_qr_scan"}, "fusion_lon": 0.0}, {"lat": 38.903431166666664, "is_disabled": 0, "type": "electric_scooter", "lon": -77.02097566666667, "bike_id": "0aaaff9b1b8d86d40e2f2a8f2fd03865", "fusion_lat": 0.0, "name": "0aaaff9b1b8d86d40e2f2a8f2fd03865", "is_reserved": 0, "rental_uris": {"android": "https://dc.lft.to/lastmile_qr_scan", "ios": "https://dc.lft.to/lastmile_qr_scan"}, "fusion_lon": 0.0}, {"lat": 38.925865333333334, "is_disabled": 0, "type": "electric_scooter", "lon": -77.05761916666667, "bike_id": "4f98045e9345a16b7106315f13817185", "fusion_lat": 0.0, "name": "4f98045e9345a16b7106315f13817185", "is_reserved": 0, "rental_uris": {"android": "https://dc.lft.to/lastmile_qr_scan", "ios": "https://dc.lft.to/lastmile_qr_scan"}, "fusion_lon": 0.0}, {"lat": 38.91221916666667, "is_disabled": 0, "type": "electric_scooter", "lon": -77.04133916666666, "bike_id": "04c882c98473fc88c7c89d22f693eca6", "fusion_lat": 0.0, "name": "04c882c98473fc88c7c89d22f693eca6", "is_reserved": 0, "rental_uris": {"android": "https://dc.lft.to/lastmile_qr_scan", "ios": "https://dc.lft.to/lastmile_qr_scan"}, "fusion_lon": 0.0}, {"lat": 38.92900733333333, "is_disabled": 0, "type": "electric_scooter", "lon": -77.07454133333333, "bike_id": "957d68b26841e03a31773970aaeffdff", "fusion_lat": 0.0, "name": "957d68b26841e03a31773970aaeffdff", "is_reserved": 0, "rental_uris": {"android": "https://dc.lft.to/lastmile_qr_scan", "ios": "https://dc.lft.to/lastmile_qr_scan"}, "fusion_lon": 0.0}, {"lat": 38.92344933333333, "is_disabled": 0, "type": "electric_scooter", "lon": -77.04128, "bike_id": "2be1e0ee6fb726d0e84b16a28b92705a", "fusion_lat": 0.0, "name": "2be1e0ee6fb726d0e84b16a28b92705a", "is_reserved": 0, "rental_uris": {"android": "https://dc.lft.to/lastmile_qr_scan", "ios": "https://dc.lft.to/lastmile_qr_scan"}, "fusion_lon": 0.0}, {"lat": 38.872240166666664, "is_disabled": 0, "type": "electric_scooter", "lon": -77.0176845, "bike_id": "9ab4917bcc0b6b93f25a56b035d26a02", "fusion_lat": 0.0, "name": "9ab4917bcc0b6b93f25a56b035d26a02", "is_reserved": 0, "rental_uris": {"android": "https://dc.lft.to/lastmile_qr_scan", "ios": "https://dc.lft.to/lastmile_qr_scan"}, "fusion_lon": 0.0}, {"lat": 38.9169375, "is_disabled": 0, "type": "electric_scooter", "lon": -77.0295815, "bike_id": "ed91dbebfa98b7bd9ebb004fe9bc17c6", "fusion_lat": 0.0, "name": "ed91dbebfa98b7bd9ebb004fe9bc17c6", "is_reserved": 0, "rental_uris": {"android": "https://dc.lft.to/lastmile_qr_scan", "ios": "https://dc.lft.to/lastmile_qr_scan"}, "fusion_lon": 0.0}, {"lat": 38.9981705, "is_disabled": 0, "type": "electric_bike", "lon": -76.88369066666667, "bike_id": "1fc19be6fdc8ed9dea4eb00a783fac4e", "fusion_lat": 0.0, "name": "1fc19be6fdc8ed9dea4eb00a783fac4e", "is_reserved": 0, "rental_uris": {"android": "https://dc.lft.to/lastmile_qr_scan", "ios": "https://dc.lft.to/lastmile_qr_scan"}, "fusion_lon": 0.0}, {"lat": 38.90279366666667, "is_disabled": 0, "type": "electric_scooter", "lon": -77.0343885, "bike_id": "7aa563a4aafca2a87815ef0fb6e03942", "fusion_lat": 0.0, "name": "7aa563a4aafca2a87815ef0fb6e03942", "is_reserved": 0, "rental_uris": {"android": "https://dc.lft.to/lastmile_qr_scan", "ios": "https://dc.lft.to/lastmile_qr_scan"}, "fusion_lon": 0.0}, {"lat": 38.945198833333336, "is_disabled": 0, "type": "electric_scooter", "lon": -77.06396983333333, "bike_id": "1ee34a768b2552c78dbf369ba41ed29a", "fusion_lat": 0.0, "name": "1ee34a768b2552c78dbf369ba41ed29a", "is_reserved": 0, "rental_uris": {"android": "https://dc.lft.to/lastmile_qr_scan", "ios": "https://dc.lft.to/lastmile_qr_scan"}, "fusion_lon": 0.0}, {"lat": 38.8858665, "is_disabled": 0, "type": "electric_scooter", "lon": -77.01226666666666, "bike_id": "7a991655d61882ecf99fecfc5129eb80", "fusion_lat": 0.0, "name": "7a991655d61882ecf99fecfc5129eb80", "is_reserved": 0, "rental_uris": {"android": "https://dc.lft.to/lastmile_qr_scan", "ios": "https://dc.lft.to/lastmile_qr_scan"}, "fusion_lon": 0.0}, {"lat": 38.8901065, "is_disabled": 0, "type": "electric_scooter", "lon": -77.033235, "bike_id": "ba49203e8145d5be13d577fd55ab66fe", "fusion_lat": 0.0, "name": "ba49203e8145d5be13d577fd55ab66fe", "is_reserved": 0, "rental_uris": {"android": "https://dc.lft.to/lastmile_qr_scan", "ios": "https://dc.lft.to/lastmile_qr_scan"}, "fusion_lon": 0.0}, {"lat": 39.030454, "is_disabled": 0, "type": "electric_bike", "lon": -77.09479, "bike_id": "4272ea40497858f391cc96ac5efee6ba", "fusion_lat": 0.0, "name": "4272ea40497858f391cc96ac5efee6ba", "is_reserved": 0, "rental_uris": {"android": "https://dc.lft.to/lastmile_qr_scan", "ios": "https://dc.lft.to/lastmile_qr_scan"}, "fusion_lon": 0.0}, {"lat": 39.024345, "is_disabled": 0, "type": "electric_bike", "lon": -77.13100333333334, "bike_id": "d101fb1b51705ca2829ef315f8a4f453", "fusion_lat": 0.0, "name": "d101fb1b51705ca2829ef315f8a4f453", "is_reserved": 0, "rental_uris": {"android": "https://dc.lft.to/lastmile_qr_scan", "ios": "https://dc.lft.to/lastmile_qr_scan"}, "fusion_lon": 0.0}, {"lat": 38.9171275, "is_disabled": 0, "type": "electric_scooter", "lon": -77.03875916666667, "bike_id": "c0f8e25b544ddd79cff48b57061c604f", "fusion_lat": 0.0, "name": "c0f8e25b544ddd79cff48b57061c604f", "is_reserved": 0, "rental_uris": {"android": "https://dc.lft.to/lastmile_qr_scan", "ios": "https://dc.lft.to/lastmile_qr_scan"}, "fusion_lon": 0.0}, {"lat": 38.862321, "is_disabled": 0, "type": "electric_scooter", "lon": -76.99553483333334, "bike_id": "a62e88751346b0ef2a2a50518ddad2c2", "fusion_lat": 0.0, "name": "a62e88751346b0ef2a2a50518ddad2c2", "is_reserved": 0, "rental_uris": {"android": "https://dc.lft.to/lastmile_qr_scan", "ios": "https://dc.lft.to/lastmile_qr_scan"}, "fusion_lon": 0.0}, {"lat": 38.9362335, "is_disabled": 0, "type": "electric_scooter", "lon": -77.03219283333334, "bike_id": "1a1dcbbad49eb326c01c49855f54f957", "fusion_lat": 0.0, "name": "1a1dcbbad49eb326c01c49855f54f957", "is_reserved": 0, "rental_uris": {"android": "https://dc.lft.to/lastmile_qr_scan", "ios": "https://dc.lft.to/lastmile_qr_scan"}, "fusion_lon": 0.0}, {"lat": 38.907720833333336, "is_disabled": 0, "type": "electric_scooter", "lon": -77.0386825, "bike_id": "aa00311bd22507f6c3a00febf8f38f4d", "fusion_lat": 0.0, "name": "aa00311bd22507f6c3a00febf8f38f4d", "is_reserved": 0, "rental_uris": {"android": "https://dc.lft.to/lastmile_qr_scan", "ios": "https://dc.lft.to/lastmile_qr_scan"}, "fusion_lon": 0.0}, {"lat": 38.90520083333333, "is_disabled": 0, "type": "electric_scooter", "lon": -77.0020935, "bike_id": "fd47da20183eaf9e0b4cfad9c6c40477", "fusion_lat": 0.0, "name": "fd47da20183eaf9e0b4cfad9c6c40477", "is_reserved": 0, "rental_uris": {"android": "https://dc.lft.to/lastmile_qr_scan", "ios": "https://dc.lft.to/lastmile_qr_scan"}, "fusion_lon": 0.0}, {"lat": 38.92306833333333, "is_disabled": 0, "type": "electric_scooter", "lon": -77.02256983333334, "bike_id": "057b2e47eb89f69f64a5c9f58c5837b6", "fusion_lat": 0.0, "name": "057b2e47eb89f69f64a5c9f58c5837b6", "is_reserved": 0, "rental_uris": {"android": "https://dc.lft.to/lastmile_qr_scan", "ios": "https://dc.lft.to/lastmile_qr_scan"}, "fusion_lon": 0.0}, {"lat": 38.90463, "is_disabled": 0, "type": "electric_scooter", "lon": -77.01462016666666, "bike_id": "056db5d739897b846386b85b3429a2bb", "fusion_lat": 0.0, "name": "056db5d739897b846386b85b3429a2bb", "is_reserved": 0, "rental_uris": {"android": "https://dc.lft.to/lastmile_qr_scan", "ios": "https://dc.lft.to/lastmile_qr_scan"}, "fusion_lon": 0.0}, {"lat": 38.893775, "is_disabled": 0, "type": "electric_scooter", "lon": -76.94993816666667, "bike_id": "d25eccff92470c84a6a0168d83684e23", "fusion_lat": 0.0, "name": "d25eccff92470c84a6a0168d83684e23", "is_reserved": 0, "rental_uris": {"android": "https://dc.lft.to/lastmile_qr_scan", "ios": "https://dc.lft.to/lastmile_qr_scan"}, "fusion_lon": 0.0}, {"lat": 38.92496366666666, "is_disabled": 0, "type": "electric_scooter", "lon": -77.00890183333334, "bike_id": "8d86fe64017930e89f1e218703549117", "fusion_lat": 0.0, "name": "8d86fe64017930e89f1e218703549117", "is_reserved": 0, "rental_uris": {"android": "https://dc.lft.to/lastmile_qr_scan", "ios": "https://dc.lft.to/lastmile_qr_scan"}, "fusion_lon": 0.0}, {"lat": 38.903844, "is_disabled": 0, "type": "electric_scooter", "lon": -77.04468666666666, "bike_id": "13f63ed3acad2e96aee6bd77065ec698", "fusion_lat": 0.0, "name": "13f63ed3acad2e96aee6bd77065ec698", "is_reserved": 0, "rental_uris": {"android": "https://dc.lft.to/lastmile_qr_scan", "ios": "https://dc.lft.to/lastmile_qr_scan"}, "fusion_lon": 0.0}, {"lat": 38.923112833333334, "is_disabled": 0, "type": "electric_scooter", "lon": -77.03914166666667, "bike_id": "e318e9cec431632fc5aac1b49b16028f", "fusion_lat": 0.0, "name": "e318e9cec431632fc5aac1b49b16028f", "is_reserved": 0, "rental_uris": {"android": "https://dc.lft.to/lastmile_qr_scan", "ios": "https://dc.lft.to/lastmile_qr_scan"}, "fusion_lon": 0.0}, {"lat": 38.91273233333333, "is_disabled": 0, "type": "electric_scooter", "lon": -77.031997, "bike_id": "bda863404684c5437004cbee541f3da4", "fusion_lat": 0.0, "name": "bda863404684c5437004cbee541f3da4", "is_reserved": 0, "rental_uris": {"android": "https://dc.lft.to/lastmile_qr_scan", "ios": "https://dc.lft.to/lastmile_qr_scan"}, "fusion_lon": 0.0}, {"lat": 38.91062683333333, "is_disabled": 0, "type": "electric_scooter", "lon": -77.02085183333334, "bike_id": "bc6a78c9a98d28e48c898abb964cceb0", "fusion_lat": 0.0, "name": "bc6a78c9a98d28e48c898abb964cceb0", "is_reserved": 0, "rental_uris": {"android": "https://dc.lft.to/lastmile_qr_scan", "ios": "https://dc.lft.to/lastmile_qr_scan"}, "fusion_lon": 0.0}, {"lat": 38.94511166666667, "is_disabled": 0, "type": "electric_scooter", "lon": -77.02172783333333, "bike_id": "066f3492abbeaedd879416ab94bd911b", "fusion_lat": 0.0, "name": "066f3492abbeaedd879416ab94bd911b", "is_reserved": 0, "rental_uris": {"android": "https://dc.lft.to/lastmile_qr_scan", "ios": "https://dc.lft.to/lastmile_qr_scan"}, "fusion_lon": 0.0}, {"lat": 38.87661383333333, "is_disabled": 0, "type": "electric_scooter", "lon": -77.00581233333334, "bike_id": "6460c25f3981f2ce95f3090d9a69e4a8", "fusion_lat": 0.0, "name": "6460c25f3981f2ce95f3090d9a69e4a8", "is_reserved": 0, "rental_uris": {"android": "https://dc.lft.to/lastmile_qr_scan", "ios": "https://dc.lft.to/lastmile_qr_scan"}, "fusion_lon": 0.0}, {"lat": 38.9127375, "is_disabled": 0, "type": "electric_scooter", "lon": -77.0226875, "bike_id": "8da5279e1c45b880f7bbc20611763c0a", "fusion_lat": 0.0, "name": "8da5279e1c45b880f7bbc20611763c0a", "is_reserved": 0, "rental_uris": {"android": "https://dc.lft.to/lastmile_qr_scan", "ios": "https://dc.lft.to/lastmile_qr_scan"}, "fusion_lon": 0.0}, {"lat": 38.92291383333333, "is_disabled": 0, "type": "electric_scooter", "lon": -77.02965133333333, "bike_id": "8d6178acbba91c938819241de65fe44e", "fusion_lat": 0.0, "name": "8d6178acbba91c938819241de65fe44e", "is_reserved": 0, "rental_uris": {"android": "https://dc.lft.to/lastmile_qr_scan", "ios": "https://dc.lft.to/lastmile_qr_scan"}, "fusion_lon": 0.0}, {"lat": 38.92577133333333, "is_disabled": 0, "type": "electric_scooter", "lon": -77.0257035, "bike_id": "c873dd9c6c5d586d60804fe07e892449", "fusion_lat": 0.0, "name": "c873dd9c6c5d586d60804fe07e892449", "is_reserved": 0, "rental_uris": {"android": "https://dc.lft.to/lastmile_qr_scan", "ios": "https://dc.lft.to/lastmile_qr_scan"}, "fusion_lon": 0.0}, {"lat": 38.90467433333333, "is_disabled": 0, "type": "electric_scooter", "lon": -77.03232, "bike_id": "c3155999779bdd6eb17d6ec45db7de29", "fusion_lat": 0.0, "name": "c3155999779bdd6eb17d6ec45db7de29", "is_reserved": 0, "rental_uris": {"android": "https://dc.lft.to/lastmile_qr_scan", "ios": "https://dc.lft.to/lastmile_qr_scan"}, "fusion_lon": 0.0}, {"lat": 38.9073005, "is_disabled": 0, "type": "electric_scooter", "lon": -77.02543683333333, "bike_id": "118f32e19f68379fd7472055e559d8d9", "fusion_lat": 0.0, "name": "118f32e19f68379fd7472055e559d8d9", "is_reserved": 0, "rental_uris": {"android": "https://dc.lft.to/lastmile_qr_scan", "ios": "https://dc.lft.to/lastmile_qr_scan"}, "fusion_lon": 0.0}, {"lat": 38.866183166666666, "is_disabled": 0, "type": "electric_bike", "lon": -76.94566816666666, "bike_id": "22b607343061a89ffc95d010fbbde07a", "fusion_lat": 0.0, "name": "22b607343061a89ffc95d010fbbde07a", "is_reserved": 0, "rental_uris": {"android": "https://dc.lft.to/lastmile_qr_scan", "ios": "https://dc.lft.to/lastmile_qr_scan"}, "fusion_lon": 0.0}, {"lat": 38.88430733333333, "is_disabled": 0, "type": "electric_scooter", "lon": -76.957576, "bike_id": "b001484022866d2b5a7dac031d94531d", "fusion_lat": 0.0, "name": "b001484022866d2b5a7dac031d94531d", "is_reserved": 0, "rental_uris": {"android": "https://dc.lft.to/lastmile_qr_scan", "ios": "https://dc.lft.to/lastmile_qr_scan"}, "fusion_lon": 0.0}, {"lat": 38.86567733333333, "is_disabled": 0, "type": "electric_scooter", "lon": -76.9895525, "bike_id": "edff7ab55f9bff95457dca5df1d0b8a5", "fusion_lat": 0.0, "name": "edff7ab55f9bff95457dca5df1d0b8a5", "is_reserved": 0, "rental_uris": {"android": "https://dc.lft.to/lastmile_qr_scan", "ios": "https://dc.lft.to/lastmile_qr_scan"}, "fusion_lon": 0.0}, {"lat": 38.91817983333333, "is_disabled": 0, "type": "electric_scooter", "lon": -77.034528, "bike_id": "d37cf3821c05103231f88d302a2efe47", "fusion_lat": 0.0, "name": "d37cf3821c05103231f88d302a2efe47", "is_reserved": 0, "rental_uris": {"android": "https://dc.lft.to/lastmile_qr_scan", "ios": "https://dc.lft.to/lastmile_qr_scan"}, "fusion_lon": 0.0}, {"lat": 38.89225483333333, "is_disabled": 0, "type": "electric_scooter", "lon": -76.933018, "bike_id": "394e704e88e881b91265d8c560d8f0ec", "fusion_lat": 0.0, "name": "394e704e88e881b91265d8c560d8f0ec", "is_reserved": 0, "rental_uris": {"android": "https://dc.lft.to/lastmile_qr_scan", "ios": "https://dc.lft.to/lastmile_qr_scan"}, "fusion_lon": 0.0}, {"lat": 38.93222433333333, "is_disabled": 0, "type": "electric_scooter", "lon": -77.027308, "bike_id": "23d65ce0f8ba7154a857be81cf5ff713", "fusion_lat": 0.0, "name": "23d65ce0f8ba7154a857be81cf5ff713", "is_reserved": 0, "rental_uris": {"android": "https://dc.lft.to/lastmile_qr_scan", "ios": "https://dc.lft.to/lastmile_qr_scan"}, "fusion_lon": 0.0}, {"lat": 38.88974266666666, "is_disabled": 0, "type": "electric_scooter", "lon": -76.93743416666666, "bike_id": "81612dc64fa896c1696caeb47cbeabc9", "fusion_lat": 0.0, "name": "81612dc64fa896c1696caeb47cbeabc9", "is_reserved": 0, "rental_uris": {"android": "https://dc.lft.to/lastmile_qr_scan", "ios": "https://dc.lft.to/lastmile_qr_scan"}, "fusion_lon": 0.0}, {"lat": 38.90776, "is_disabled": 0, "type": "electric_scooter", "lon": -77.03859233333333, "bike_id": "deb15726f22a96a2e4ae88be4e51dc70", "fusion_lat": 0.0, "name": "deb15726f22a96a2e4ae88be4e51dc70", "is_reserved": 0, "rental_uris": {"android": "https://dc.lft.to/lastmile_qr_scan", "ios": "https://dc.lft.to/lastmile_qr_scan"}, "fusion_lon": 0.0}, {"lat": 38.8143745, "is_disabled": 0, "type": "electric_bike", "lon": -77.11893066666667, "bike_id": "81bc5df73a9d6674da8bc35f3f037ad3", "fusion_lat": 0.0, "name": "81bc5df73a9d6674da8bc35f3f037ad3", "is_reserved": 0, "rental_uris": {"android": "https://dc.lft.to/lastmile_qr_scan", "ios": "https://dc.lft.to/lastmile_qr_scan"}, "fusion_lon": 0.0}, {"lat": 38.939867166666666, "is_disabled": 0, "type": "electric_scooter", "lon": -77.02961283333333, "bike_id": "fd3efaff8fbf4fbd6e15089f5c92c5c2", "fusion_lat": 0.0, "name": "fd3efaff8fbf4fbd6e15089f5c92c5c2", "is_reserved": 0, "rental_uris": {"android": "https://dc.lft.to/lastmile_qr_scan", "ios": "https://dc.lft.to/lastmile_qr_scan"}, "fusion_lon": 0.0}, {"lat": 38.885175333333336, "is_disabled": 0, "type": "electric_scooter", "lon": -77.010668, "bike_id": "26bcbaf847442adaf7a74a0fde082eda", "fusion_lat": 0.0, "name": "26bcbaf847442adaf7a74a0fde082eda", "is_reserved": 0, "rental_uris": {"android": "https://dc.lft.to/lastmile_qr_scan", "ios": "https://dc.lft.to/lastmile_qr_scan"}, "fusion_lon": 0.0}, {"lat": 38.845968, "is_disabled": 0, "type": "electric_bike", "lon": -77.0768065, "bike_id": "a213e5173bd0ac173961e4c59464410c", "fusion_lat": 0.0, "name": "a213e5173bd0ac173961e4c59464410c", "is_reserved": 0, "rental_uris": {"android": "https://dc.lft.to/lastmile_qr_scan", "ios": "https://dc.lft.to/lastmile_qr_scan"}, "fusion_lon": 0.0}, {"lat": 38.8661755, "is_disabled": 0, "type": "electric_scooter", "lon": -76.98665933333334, "bike_id": "b8725038c0e730d4d2164db5a5291ddc", "fusion_lat": 0.0, "name": "b8725038c0e730d4d2164db5a5291ddc", "is_reserved": 0, "rental_uris": {"android": "https://dc.lft.to/lastmile_qr_scan", "ios": "https://dc.lft.to/lastmile_qr_scan"}, "fusion_lon": 0.0}, {"lat": 38.90962233333333, "is_disabled": 0, "type": "electric_scooter", "lon": -77.04825116666666, "bike_id": "4e2d352cdba5967b9f3d023259f0ee35", "fusion_lat": 0.0, "name": "4e2d352cdba5967b9f3d023259f0ee35", "is_reserved": 0, "rental_uris": {"android": "https://dc.lft.to/lastmile_qr_scan", "ios": "https://dc.lft.to/lastmile_qr_scan"}, "fusion_lon": 0.0}, {"lat": 38.88488366666667, "is_disabled": 0, "type": "electric_scooter", "lon": -77.00715066666666, "bike_id": "56fcc97ee490899ffb1d4a1be7f5730a", "fusion_lat": 0.0, "name": "56fcc97ee490899ffb1d4a1be7f5730a", "is_reserved": 0, "rental_uris": {"android": "https://dc.lft.to/lastmile_qr_scan", "ios": "https://dc.lft.to/lastmile_qr_scan"}, "fusion_lon": 0.0}, {"lat": 38.906365, "is_disabled": 0, "type": "electric_scooter", "lon": -77.013762, "bike_id": "0b39242f9f2d50fff6acb601c354eb24", "fusion_lat": 0.0, "name": "0b39242f9f2d50fff6acb601c354eb24", "is_reserved": 0, "rental_uris": {"android": "https://dc.lft.to/lastmile_qr_scan", "ios": "https://dc.lft.to/lastmile_qr_scan"}, "fusion_lon": 0.0}, {"lat": 38.905775, "is_disabled": 0, "type": "electric_scooter", "lon": -77.04693633333333, "bike_id": "2d2f63c00ff0e7d552810a5ec8f62e9d", "fusion_lat": 0.0, "name": "2d2f63c00ff0e7d552810a5ec8f62e9d", "is_reserved": 0, "rental_uris": {"android": "https://dc.lft.to/lastmile_qr_scan", "ios": "https://dc.lft.to/lastmile_qr_scan"}, "fusion_lon": 0.0}, {"lat": 38.89256016666667, "is_disabled": 0, "type": "electric_scooter", "lon": -77.02204383333333, "bike_id": "de97fb27bf25e0912c91870546e7ee4a", "fusion_lat": 0.0, "name": "de97fb27bf25e0912c91870546e7ee4a", "is_reserved": 0, "rental_uris": {"android": "https://dc.lft.to/lastmile_qr_scan", "ios": "https://dc.lft.to/lastmile_qr_scan"}, "fusion_lon": 0.0}, {"lat": 38.914201, "is_disabled": 0, "type": "electric_scooter", "lon": -77.03174233333333, "bike_id": "2ec62c0b751b270e26eb65bd91cceca7", "fusion_lat": 0.0, "name": "2ec62c0b751b270e26eb65bd91cceca7", "is_reserved": 0, "rental_uris": {"android": "https://dc.lft.to/lastmile_qr_scan", "ios": "https://dc.lft.to/lastmile_qr_scan"}, "fusion_lon": 0.0}, {"lat": 38.93652633333333, "is_disabled": 0, "type": "electric_scooter", "lon": -77.02397616666667, "bike_id": "d9fa03fc90c403f6907c9544b51fc1be", "fusion_lat": 0.0, "name": "d9fa03fc90c403f6907c9544b51fc1be", "is_reserved": 0, "rental_uris": {"android": "https://dc.lft.to/lastmile_qr_scan", "ios": "https://dc.lft.to/lastmile_qr_scan"}, "fusion_lon": 0.0}, {"lat": 38.9184435, "is_disabled": 0, "type": "electric_scooter", "lon": -77.03534566666667, "bike_id": "3dab1bafbdd5079207c2e823a153d198", "fusion_lat": 0.0, "name": "3dab1bafbdd5079207c2e823a153d198", "is_reserved": 0, "rental_uris": {"android": "https://dc.lft.to/lastmile_qr_scan", "ios": "https://dc.lft.to/lastmile_qr_scan"}, "fusion_lon": 0.0}, {"lat": 38.94295316666667, "is_disabled": 0, "type": "electric_scooter", "lon": -77.07704816666667, "bike_id": "0e6dab950eae8cf339ecb13eee62d2f4", "fusion_lat": 0.0, "name": "0e6dab950eae8cf339ecb13eee62d2f4", "is_reserved": 0, "rental_uris": {"android": "https://dc.lft.to/lastmile_qr_scan", "ios": "https://dc.lft.to/lastmile_qr_scan"}, "fusion_lon": 0.0}, {"lat": 38.890992833333335, "is_disabled": 0, "type": "electric_scooter", "lon": -76.95255216666666, "bike_id": "c9f5f028b3e35e0f37c1aa6a6016aa25", "fusion_lat": 0.0, "name": "c9f5f028b3e35e0f37c1aa6a6016aa25", "is_reserved": 0, "rental_uris": {"android": "https://dc.lft.to/lastmile_qr_scan", "ios": "https://dc.lft.to/lastmile_qr_scan"}, "fusion_lon": 0.0}, {"lat": 38.920537, "is_disabled": 0, "type": "electric_scooter", "lon": -77.0347095, "bike_id": "f65bb722f9c14bd26bbe760a84343020", "fusion_lat": 0.0, "name": "f65bb722f9c14bd26bbe760a84343020", "is_reserved": 0, "rental_uris": {"android": "https://dc.lft.to/lastmile_qr_scan", "ios": "https://dc.lft.to/lastmile_qr_scan"}, "fusion_lon": 0.0}, {"lat": 38.90020483333333, "is_disabled": 0, "type": "electric_scooter", "lon": -77.03370133333334, "bike_id": "c6d430acc3c4d6248545956b7d5e7d29", "fusion_lat": 0.0, "name": "c6d430acc3c4d6248545956b7d5e7d29", "is_reserved": 0, "rental_uris": {"android": "https://dc.lft.to/lastmile_qr_scan", "ios": "https://dc.lft.to/lastmile_qr_scan"}, "fusion_lon": 0.0}, {"lat": 38.905024166666664, "is_disabled": 0, "type": "electric_scooter", "lon": -77.06769916666667, "bike_id": "0cf3ad64b025127cca0565064e77d477", "fusion_lat": 0.0, "name": "0cf3ad64b025127cca0565064e77d477", "is_reserved": 0, "rental_uris": {"android": "https://dc.lft.to/lastmile_qr_scan", "ios": "https://dc.lft.to/lastmile_qr_scan"}, "fusion_lon": 0.0}, {"lat": 38.90066783333333, "is_disabled": 0, "type": "electric_scooter", "lon": -76.9339235, "bike_id": "6e0f89a284fa0dd29d6c9d76c9b00987", "fusion_lat": 0.0, "name": "6e0f89a284fa0dd29d6c9d76c9b00987", "is_reserved": 0, "rental_uris": {"android": "https://dc.lft.to/lastmile_qr_scan", "ios": "https://dc.lft.to/lastmile_qr_scan"}, "fusion_lon": 0.0}, {"lat": 38.999982833333334, "is_disabled": 0, "type": "electric_bike", "lon": -76.92496366666667, "bike_id": "d6d645cfa9878cc59cea89a8d5d12503", "fusion_lat": 0.0, "name": "d6d645cfa9878cc59cea89a8d5d12503", "is_reserved": 0, "rental_uris": {"android": "https://dc.lft.to/lastmile_qr_scan", "ios": "https://dc.lft.to/lastmile_qr_scan"}, "fusion_lon": 0.0}, {"lat": 38.915561333333336, "is_disabled": 0, "type": "electric_scooter", "lon": -77.0324175, "bike_id": "0ce867cb59f6da5217dd37f7952df56a", "fusion_lat": 0.0, "name": "0ce867cb59f6da5217dd37f7952df56a", "is_reserved": 0, "rental_uris": {"android": "https://dc.lft.to/lastmile_qr_scan", "ios": "https://dc.lft.to/lastmile_qr_scan"}, "fusion_lon": 0.0}, {"lat": 38.91429333333333, "is_disabled": 0, "type": "electric_scooter", "lon": -77.03206, "bike_id": "e6bd613495030c929b39b90bee74de85", "fusion_lat": 0.0, "name": "e6bd613495030c929b39b90bee74de85", "is_reserved": 0, "rental_uris": {"android": "https://dc.lft.to/lastmile_qr_scan", "ios": "https://dc.lft.to/lastmile_qr_scan"}, "fusion_lon": 0.0}, {"lat": 38.907855, "is_disabled": 0, "type": "electric_scooter", "lon": -77.00396216666667, "bike_id": "a8b44a4298a2891f3b0812cb4259b989", "fusion_lat": 0.0, "name": "a8b44a4298a2891f3b0812cb4259b989", "is_reserved": 0, "rental_uris": {"android": "https://dc.lft.to/lastmile_qr_scan", "ios": "https://dc.lft.to/lastmile_qr_scan"}, "fusion_lon": 0.0}, {"lat": 38.8050695, "is_disabled": 0, "type": "electric_bike", "lon": -77.04139766666667, "bike_id": "5e03beb02b07fec6d2e34f86c8043284", "fusion_lat": 0.0, "name": "5e03beb02b07fec6d2e34f86c8043284", "is_reserved": 0, "rental_uris": {"android": "https://dc.lft.to/lastmile_qr_scan", "ios": "https://dc.lft.to/lastmile_qr_scan"}, "fusion_lon": 0.0}, {"lat": 38.921843833333334, "is_disabled": 0, "type": "electric_scooter", "lon": -77.02420533333333, "bike_id": "af62ccc677f08824a82d72460fc44cec", "fusion_lat": 0.0, "name": "af62ccc677f08824a82d72460fc44cec", "is_reserved": 0, "rental_uris": {"android": "https://dc.lft.to/lastmile_qr_scan", "ios": "https://dc.lft.to/lastmile_qr_scan"}, "fusion_lon": 0.0}, {"lat": 38.852085833333334, "is_disabled": 0, "type": "electric_bike", "lon": -76.99578616666666, "bike_id": "06f26475a534fce78cdbd4d31ea98d1f", "fusion_lat": 0.0, "name": "06f26475a534fce78cdbd4d31ea98d1f", "is_reserved": 0, "rental_uris": {"android": "https://dc.lft.to/lastmile_qr_scan", "ios": "https://dc.lft.to/lastmile_qr_scan"}, "fusion_lon": 0.0}, {"lat": 38.914150666666664, "is_disabled": 0, "type": "electric_scooter", "lon": -77.03167333333333, "bike_id": "b6121c93291d1cef61e12a20684b1438", "fusion_lat": 0.0, "name": "b6121c93291d1cef61e12a20684b1438", "is_reserved": 0, "rental_uris": {"android": "https://dc.lft.to/lastmile_qr_scan", "ios": "https://dc.lft.to/lastmile_qr_scan"}, "fusion_lon": 0.0}, {"lat": 38.84428583333333, "is_disabled": 0, "type": "electric_scooter", "lon": -76.99779316666667, "bike_id": "ca181548af9f3d03fc57ec0903a1fc6a", "fusion_lat": 0.0, "name": "ca181548af9f3d03fc57ec0903a1fc6a", "is_reserved": 0, "rental_uris": {"android": "https://dc.lft.to/lastmile_qr_scan", "ios": "https://dc.lft.to/lastmile_qr_scan"}, "fusion_lon": 0.0}, {"lat": 38.907097666666665, "is_disabled": 0, "type": "electric_scooter", "lon": -77.0310535, "bike_id": "0115d774c1df045d2f3f64e3de400c39", "fusion_lat": 0.0, "name": "0115d774c1df045d2f3f64e3de400c39", "is_reserved": 0, "rental_uris": {"android": "https://dc.lft.to/lastmile_qr_scan", "ios": "https://dc.lft.to/lastmile_qr_scan"}, "fusion_lon": 0.0}, {"lat": 38.917029166666666, "is_disabled": 0, "type": "electric_scooter", "lon": -77.01106466666667, "bike_id": "31c68ca2059aedf740136546ad3ed829", "fusion_lat": 0.0, "name": "31c68ca2059aedf740136546ad3ed829", "is_reserved": 0, "rental_uris": {"android": "https://dc.lft.to/lastmile_qr_scan", "ios": "https://dc.lft.to/lastmile_qr_scan"}, "fusion_lon": 0.0}, {"lat": 38.922579166666665, "is_disabled": 0, "type": "electric_scooter", "lon": -77.0391515, "bike_id": "a9c0bf0a85f32a251d01bcb6353b6b2c", "fusion_lat": 0.0, "name": "a9c0bf0a85f32a251d01bcb6353b6b2c", "is_reserved": 0, "rental_uris": {"android": "https://dc.lft.to/lastmile_qr_scan", "ios": "https://dc.lft.to/lastmile_qr_scan"}, "fusion_lon": 0.0}, {"lat": 38.95333466666666, "is_disabled": 0, "type": "electric_bike", "lon": -76.98821716666667, "bike_id": "37671799a9f8aa782020fd95cae8700e", "fusion_lat": 0.0, "name": "37671799a9f8aa782020fd95cae8700e", "is_reserved": 0, "rental_uris": {"android": "https://dc.lft.to/lastmile_qr_scan", "ios": "https://dc.lft.to/lastmile_qr_scan"}, "fusion_lon": 0.0}, {"lat": 38.866216333333334, "is_disabled": 0, "type": "electric_scooter", "lon": -76.9864525, "bike_id": "eb6218cfd24f90b737e71eb6b02ec255", "fusion_lat": 0.0, "name": "eb6218cfd24f90b737e71eb6b02ec255", "is_reserved": 0, "rental_uris": {"android": "https://dc.lft.to/lastmile_qr_scan", "ios": "https://dc.lft.to/lastmile_qr_scan"}, "fusion_lon": 0.0}, {"lat": 38.91250516666667, "is_disabled": 0, "type": "electric_scooter", "lon": -77.0385385, "bike_id": "1eae548400e655b25ebe9af3f6f5fb56", "fusion_lat": 0.0, "name": "1eae548400e655b25ebe9af3f6f5fb56", "is_reserved": 0, "rental_uris": {"android": "https://dc.lft.to/lastmile_qr_scan", "ios": "https://dc.lft.to/lastmile_qr_scan"}, "fusion_lon": 0.0}, {"lat": 38.949034166666664, "is_disabled": 0, "type": "electric_bike", "lon": -76.9724195, "bike_id": "b694b07e0452e6e878a09b4ad66042ee", "fusion_lat": 0.0, "name": "b694b07e0452e6e878a09b4ad66042ee", "is_reserved": 0, "rental_uris": {"android": "https://dc.lft.to/lastmile_qr_scan", "ios": "https://dc.lft.to/lastmile_qr_scan"}, "fusion_lon": 0.0}, {"lat": 38.924029833333336, "is_disabled": 0, "type": "electric_scooter", "lon": -77.027029, "bike_id": "38d3fb0e36f631af6c31b69dab243c1f", "fusion_lat": 0.0, "name": "38d3fb0e36f631af6c31b69dab243c1f", "is_reserved": 0, "rental_uris": {"android": "https://dc.lft.to/lastmile_qr_scan", "ios": "https://dc.lft.to/lastmile_qr_scan"}, "fusion_lon": 0.0}, {"lat": 38.93094333333333, "is_disabled": 0, "type": "electric_scooter", "lon": -77.03150016666666, "bike_id": "8c4d46911b02b310955666b3606327cc", "fusion_lat": 0.0, "name": "8c4d46911b02b310955666b3606327cc", "is_reserved": 0, "rental_uris": {"android": "https://dc.lft.to/lastmile_qr_scan", "ios": "https://dc.lft.to/lastmile_qr_scan"}, "fusion_lon": 0.0}, {"lat": 38.89828083333333, "is_disabled": 0, "type": "electric_scooter", "lon": -77.02384316666667, "bike_id": "7dc992a51cc1612f7fde5dde8e54c508", "fusion_lat": 0.0, "name": "7dc992a51cc1612f7fde5dde8e54c508", "is_reserved": 0, "rental_uris": {"android": "https://dc.lft.to/lastmile_qr_scan", "ios": "https://dc.lft.to/lastmile_qr_scan"}, "fusion_lon": 0.0}, {"lat": 38.940878833333336, "is_disabled": 0, "type": "electric_scooter", "lon": -77.06132433333333, "bike_id": "1008c7db95edd96243191059213e39b1", "fusion_lat": 0.0, "name": "1008c7db95edd96243191059213e39b1", "is_reserved": 0, "rental_uris": {"android": "https://dc.lft.to/lastmile_qr_scan", "ios": "https://dc.lft.to/lastmile_qr_scan"}, "fusion_lon": 0.0}, {"lat": 38.916343166666664, "is_disabled": 0, "type": "electric_scooter", "lon": -77.03142166666666, "bike_id": "bf63d5be3738ce201ecf3500accc10fe", "fusion_lat": 0.0, "name": "bf63d5be3738ce201ecf3500accc10fe", "is_reserved": 0, "rental_uris": {"android": "https://dc.lft.to/lastmile_qr_scan", "ios": "https://dc.lft.to/lastmile_qr_scan"}, "fusion_lon": 0.0}, {"lat": 38.94118566666667, "is_disabled": 0, "type": "electric_scooter", "lon": -77.023477, "bike_id": "5dfc01fe388e57f718e5716a8334dca0", "fusion_lat": 0.0, "name": "5dfc01fe388e57f718e5716a8334dca0", "is_reserved": 0, "rental_uris": {"android": "https://dc.lft.to/lastmile_qr_scan", "ios": "https://dc.lft.to/lastmile_qr_scan"}, "fusion_lon": 0.0}, {"lat": 38.935713166666666, "is_disabled": 0, "type": "electric_scooter", "lon": -77.03264366666667, "bike_id": "e18bc4022a37433efb72ab4ce8d9582a", "fusion_lat": 0.0, "name": "e18bc4022a37433efb72ab4ce8d9582a", "is_reserved": 0, "rental_uris": {"android": "https://dc.lft.to/lastmile_qr_scan", "ios": "https://dc.lft.to/lastmile_qr_scan"}, "fusion_lon": 0.0}, {"lat": 38.919669999999996, "is_disabled": 0, "type": "electric_scooter", "lon": -77.03207, "bike_id": "3110d61ec8091faf529fdbed473e1dac", "fusion_lat": 0.0, "name": "3110d61ec8091faf529fdbed473e1dac", "is_reserved": 0, "rental_uris": {"android": "https://dc.lft.to/lastmile_qr_scan", "ios": "https://dc.lft.to/lastmile_qr_scan"}, "fusion_lon": 0.0}, {"lat": 38.904897, "is_disabled": 0, "type": "electric_scooter", "lon": -77.05740483333334, "bike_id": "ac8f0155985f5480e62c71d856f11719", "fusion_lat": 0.0, "name": "ac8f0155985f5480e62c71d856f11719", "is_reserved": 0, "rental_uris": {"android": "https://dc.lft.to/lastmile_qr_scan", "ios": "https://dc.lft.to/lastmile_qr_scan"}, "fusion_lon": 0.0}, {"lat": 38.90767566666667, "is_disabled": 0, "type": "electric_scooter", "lon": -77.02410116666667, "bike_id": "539f53b69ff49ec318b0cee9ec5df0aa", "fusion_lat": 0.0, "name": "539f53b69ff49ec318b0cee9ec5df0aa", "is_reserved": 0, "rental_uris": {"android": "https://dc.lft.to/lastmile_qr_scan", "ios": "https://dc.lft.to/lastmile_qr_scan"}, "fusion_lon": 0.0}, {"lat": 38.86270533333333, "is_disabled": 0, "type": "electric_scooter", "lon": -76.99245566666667, "bike_id": "dc9d120e5cb82faf1ac7e85e25c1ac07", "fusion_lat": 0.0, "name": "dc9d120e5cb82faf1ac7e85e25c1ac07", "is_reserved": 0, "rental_uris": {"android": "https://dc.lft.to/lastmile_qr_scan", "ios": "https://dc.lft.to/lastmile_qr_scan"}, "fusion_lon": 0.0}, {"lat": 38.912485, "is_disabled": 0, "type": "electric_scooter", "lon": -77.03201766666666, "bike_id": "857ff653c3f42779bd1eacc06f2edb62", "fusion_lat": 0.0, "name": "857ff653c3f42779bd1eacc06f2edb62", "is_reserved": 0, "rental_uris": {"android": "https://dc.lft.to/lastmile_qr_scan", "ios": "https://dc.lft.to/lastmile_qr_scan"}, "fusion_lon": 0.0}, {"lat": 38.896077166666664, "is_disabled": 0, "type": "electric_scooter", "lon": -77.00925133333334, "bike_id": "302d3f0adb3288bace15ad35fa601a5e", "fusion_lat": 0.0, "name": "302d3f0adb3288bace15ad35fa601a5e", "is_reserved": 0, "rental_uris": {"android": "https://dc.lft.to/lastmile_qr_scan", "ios": "https://dc.lft.to/lastmile_qr_scan"}, "fusion_lon": 0.0}, {"lat": 38.9217395, "is_disabled": 0, "type": "electric_scooter", "lon": -77.04242833333333, "bike_id": "4583c1afc5ccabb9e20dc667bc72e821", "fusion_lat": 0.0, "name": "4583c1afc5ccabb9e20dc667bc72e821", "is_reserved": 0, "rental_uris": {"android": "https://dc.lft.to/lastmile_qr_scan", "ios": "https://dc.lft.to/lastmile_qr_scan"}, "fusion_lon": 0.0}, {"lat": 38.937067666666664, "is_disabled": 0, "type": "electric_scooter", "lon": -77.02403283333334, "bike_id": "87804046b8e6f84a7ae6fe1754ffbeca", "fusion_lat": 0.0, "name": "87804046b8e6f84a7ae6fe1754ffbeca", "is_reserved": 0, "rental_uris": {"android": "https://dc.lft.to/lastmile_qr_scan", "ios": "https://dc.lft.to/lastmile_qr_scan"}, "fusion_lon": 0.0}, {"lat": 38.90143316666666, "is_disabled": 0, "type": "electric_scooter", "lon": -77.02996916666666, "bike_id": "45a917e32f1cf3e0a3ee61497519633b", "fusion_lat": 0.0, "name": "45a917e32f1cf3e0a3ee61497519633b", "is_reserved": 0, "rental_uris": {"android": "https://dc.lft.to/lastmile_qr_scan", "ios": "https://dc.lft.to/lastmile_qr_scan"}, "fusion_lon": 0.0}, {"lat": 38.89718333333333, "is_disabled": 0, "type": "electric_scooter", "lon": -77.00801966666667, "bike_id": "b4e88764c9aa3041e731330e6769981b", "fusion_lat": 0.0, "name": "b4e88764c9aa3041e731330e6769981b", "is_reserved": 0, "rental_uris": {"android": "https://dc.lft.to/lastmile_qr_scan", "ios": "https://dc.lft.to/lastmile_qr_scan"}, "fusion_lon": 0.0}, {"lat": 38.82878566666667, "is_disabled": 0, "type": "electric_bike", "lon": -77.1122125, "bike_id": "a597312a083fbdbbb9b41a9fc075e483", "fusion_lat": 0.0, "name": "a597312a083fbdbbb9b41a9fc075e483", "is_reserved": 0, "rental_uris": {"android": "https://dc.lft.to/lastmile_qr_scan", "ios": "https://dc.lft.to/lastmile_qr_scan"}, "fusion_lon": 0.0}, {"lat": 38.956124, "is_disabled": 0, "type": "electric_scooter", "lon": -77.0278045, "bike_id": "768d6025a70e4ae6ebbd4d6f4613fa6f", "fusion_lat": 0.0, "name": "768d6025a70e4ae6ebbd4d6f4613fa6f", "is_reserved": 0, "rental_uris": {"android": "https://dc.lft.to/lastmile_qr_scan", "ios": "https://dc.lft.to/lastmile_qr_scan"}, "fusion_lon": 0.0}, {"lat": 38.93191733333333, "is_disabled": 0, "type": "electric_scooter", "lon": -77.02970616666667, "bike_id": "07cb8dc384e16890e4434b0c2d6c3bb1", "fusion_lat": 0.0, "name": "07cb8dc384e16890e4434b0c2d6c3bb1", "is_reserved": 0, "rental_uris": {"android": "https://dc.lft.to/lastmile_qr_scan", "ios": "https://dc.lft.to/lastmile_qr_scan"}, "fusion_lon": 0.0}, {"lat": 39.00008566666666, "is_disabled": 0, "type": "electric_bike", "lon": -76.91076416666667, "bike_id": "3408592937b0f8f3b3fdf770f1e5c086", "fusion_lat": 0.0, "name": "3408592937b0f8f3b3fdf770f1e5c086", "is_reserved": 0, "rental_uris": {"android": "https://dc.lft.to/lastmile_qr_scan", "ios": "https://dc.lft.to/lastmile_qr_scan"}, "fusion_lon": 0.0}, {"lat": 38.909934666666665, "is_disabled": 0, "type": "electric_scooter", "lon": -76.99739433333333, "bike_id": "072ed186cd0ac5c8bd6af974343b72cb", "fusion_lat": 0.0, "name": "072ed186cd0ac5c8bd6af974343b72cb", "is_reserved": 0, "rental_uris": {"android": "https://dc.lft.to/lastmile_qr_scan", "ios": "https://dc.lft.to/lastmile_qr_scan"}, "fusion_lon": 0.0}, {"lat": 38.9296505, "is_disabled": 0, "type": "electric_scooter", "lon": -77.0317245, "bike_id": "1eb80a2da6a2afd09b37d01d726e22db", "fusion_lat": 0.0, "name": "1eb80a2da6a2afd09b37d01d726e22db", "is_reserved": 0, "rental_uris": {"android": "https://dc.lft.to/lastmile_qr_scan", "ios": "https://dc.lft.to/lastmile_qr_scan"}, "fusion_lon": 0.0}, {"lat": 38.903831833333335, "is_disabled": 0, "type": "electric_scooter", "lon": -77.021596, "bike_id": "515765f9e5c51bcfb8d63d38c613b703", "fusion_lat": 0.0, "name": "515765f9e5c51bcfb8d63d38c613b703", "is_reserved": 0, "rental_uris": {"android": "https://dc.lft.to/lastmile_qr_scan", "ios": "https://dc.lft.to/lastmile_qr_scan"}, "fusion_lon": 0.0}, {"lat": 38.9118045, "is_disabled": 0, "type": "electric_scooter", "lon": -77.03829683333333, "bike_id": "ff0ed929d2e5eb02b9e61f50f4e3029e", "fusion_lat": 0.0, "name": "ff0ed929d2e5eb02b9e61f50f4e3029e", "is_reserved": 0, "rental_uris": {"android": "https://dc.lft.to/lastmile_qr_scan", "ios": "https://dc.lft.to/lastmile_qr_scan"}, "fusion_lon": 0.0}, {"lat": 38.88749816666667, "is_disabled": 0, "type": "electric_scooter", "lon": -77.020721, "bike_id": "139ed040ce960ec22621b5daab4bed5d", "fusion_lat": 0.0, "name": "139ed040ce960ec22621b5daab4bed5d", "is_reserved": 0, "rental_uris": {"android": "https://dc.lft.to/lastmile_qr_scan", "ios": "https://dc.lft.to/lastmile_qr_scan"}, "fusion_lon": 0.0}, {"lat": 38.867136, "is_disabled": 0, "type": "electric_scooter", "lon": -76.98727516666666, "bike_id": "b86e9dea64dccd1b1945a52f2f622ff7", "fusion_lat": 0.0, "name": "b86e9dea64dccd1b1945a52f2f622ff7", "is_reserved": 0, "rental_uris": {"android": "https://dc.lft.to/lastmile_qr_scan", "ios": "https://dc.lft.to/lastmile_qr_scan"}, "fusion_lon": 0.0}, {"lat": 38.925129, "is_disabled": 0, "type": "electric_scooter", "lon": -76.98579333333333, "bike_id": "65f13444eb17318f5176c66fd9a68cf3", "fusion_lat": 0.0, "name": "65f13444eb17318f5176c66fd9a68cf3", "is_reserved": 0, "rental_uris": {"android": "https://dc.lft.to/lastmile_qr_scan", "ios": "https://dc.lft.to/lastmile_qr_scan"}, "fusion_lon": 0.0}, {"lat": 38.913186333333336, "is_disabled": 0, "type": "electric_scooter", "lon": -77.03213416666667, "bike_id": "27e9d9750fada329a5b755d70a95d9d9", "fusion_lat": 0.0, "name": "27e9d9750fada329a5b755d70a95d9d9", "is_reserved": 0, "rental_uris": {"android": "https://dc.lft.to/lastmile_qr_scan", "ios": "https://dc.lft.to/lastmile_qr_scan"}, "fusion_lon": 0.0}, {"lat": 38.911998833333335, "is_disabled": 0, "type": "electric_scooter", "lon": -77.0433845, "bike_id": "1b28824537ea8506aa971b116a4af397", "fusion_lat": 0.0, "name": "1b28824537ea8506aa971b116a4af397", "is_reserved": 0, "rental_uris": {"android": "https://dc.lft.to/lastmile_qr_scan", "ios": "https://dc.lft.to/lastmile_qr_scan"}, "fusion_lon": 0.0}, {"lat": 38.920336166666665, "is_disabled": 0, "type": "electric_scooter", "lon": -76.97804466666666, "bike_id": "444f38d8e4a6e429bf3e595bea49392c", "fusion_lat": 0.0, "name": "444f38d8e4a6e429bf3e595bea49392c", "is_reserved": 0, "rental_uris": {"android": "https://dc.lft.to/lastmile_qr_scan", "ios": "https://dc.lft.to/lastmile_qr_scan"}, "fusion_lon": 0.0}, {"lat": 38.923977, "is_disabled": 0, "type": "electric_scooter", "lon": -77.04459116666666, "bike_id": "1321de6d0a68b8ab8eacac1c1efbc364", "fusion_lat": 0.0, "name": "1321de6d0a68b8ab8eacac1c1efbc364", "is_reserved": 0, "rental_uris": {"android": "https://dc.lft.to/lastmile_qr_scan", "ios": "https://dc.lft.to/lastmile_qr_scan"}, "fusion_lon": 0.0}, {"lat": 38.88470366666667, "is_disabled": 0, "type": "electric_scooter", "lon": -77.02411816666667, "bike_id": "840f122a77221b07010b0ffd919ac3e8", "fusion_lat": 0.0, "name": "840f122a77221b07010b0ffd919ac3e8", "is_reserved": 0, "rental_uris": {"android": "https://dc.lft.to/lastmile_qr_scan", "ios": "https://dc.lft.to/lastmile_qr_scan"}, "fusion_lon": 0.0}, {"lat": 38.871461333333336, "is_disabled": 0, "type": "electric_bike", "lon": -76.93709383333334, "bike_id": "e30dd5496d3eb676121f09bfacf81149", "fusion_lat": 0.0, "name": "e30dd5496d3eb676121f09bfacf81149", "is_reserved": 0, "rental_uris": {"android": "https://dc.lft.to/lastmile_qr_scan", "ios": "https://dc.lft.to/lastmile_qr_scan"}, "fusion_lon": 0.0}, {"lat": 38.9058745, "is_disabled": 0, "type": "electric_scooter", "lon": -77.04720283333333, "bike_id": "51ebb06062dca885621a39e3bf38671c", "fusion_lat": 0.0, "name": "51ebb06062dca885621a39e3bf38671c", "is_reserved": 0, "rental_uris": {"android": "https://dc.lft.to/lastmile_qr_scan", "ios": "https://dc.lft.to/lastmile_qr_scan"}, "fusion_lon": 0.0}, {"lat": 38.916268333333335, "is_disabled": 0, "type": "electric_scooter", "lon": -77.03270433333333, "bike_id": "ae9e0331c55b00dbc24e98217d312d0a", "fusion_lat": 0.0, "name": "ae9e0331c55b00dbc24e98217d312d0a", "is_reserved": 0, "rental_uris": {"android": "https://dc.lft.to/lastmile_qr_scan", "ios": "https://dc.lft.to/lastmile_qr_scan"}, "fusion_lon": 0.0}, {"lat": 38.911781166666664, "is_disabled": 0, "type": "electric_bike", "lon": -77.00272033333333, "bike_id": "7ad3d9559a4b1408ec42112ad59a7491", "fusion_lat": 0.0, "name": "7ad3d9559a4b1408ec42112ad59a7491", "is_reserved": 0, "rental_uris": {"android": "https://dc.lft.to/lastmile_qr_scan", "ios": "https://dc.lft.to/lastmile_qr_scan"}, "fusion_lon": 0.0}, {"lat": 38.93092466666667, "is_disabled": 0, "type": "electric_scooter", "lon": -77.02522433333333, "bike_id": "0c27d3010f02dcb1341029bae8ac2f3b", "fusion_lat": 0.0, "name": "0c27d3010f02dcb1341029bae8ac2f3b", "is_reserved": 0, "rental_uris": {"android": "https://dc.lft.to/lastmile_qr_scan", "ios": "https://dc.lft.to/lastmile_qr_scan"}, "fusion_lon": 0.0}, {"lat": 38.89231816666667, "is_disabled": 0, "type": "electric_scooter", "lon": -77.0176895, "bike_id": "b4dd13742bacabf71d749d9b8d706643", "fusion_lat": 0.0, "name": "b4dd13742bacabf71d749d9b8d706643", "is_reserved": 0, "rental_uris": {"android": "https://dc.lft.to/lastmile_qr_scan", "ios": "https://dc.lft.to/lastmile_qr_scan"}, "fusion_lon": 0.0}, {"lat": 38.9002645, "is_disabled": 0, "type": "electric_scooter", "lon": -76.988098, "bike_id": "8039e66949346d7bdda63d7702b7e65f", "fusion_lat": 0.0, "name": "8039e66949346d7bdda63d7702b7e65f", "is_reserved": 0, "rental_uris": {"android": "https://dc.lft.to/lastmile_qr_scan", "ios": "https://dc.lft.to/lastmile_qr_scan"}, "fusion_lon": 0.0}, {"lat": 38.84567166666667, "is_disabled": 0, "type": "electric_bike", "lon": -77.09624166666667, "bike_id": "9f06858f53c7ad9eebcf5551a38da593", "fusion_lat": 0.0, "name": "9f06858f53c7ad9eebcf5551a38da593", "is_reserved": 0, "rental_uris": {"android": "https://dc.lft.to/lastmile_qr_scan", "ios": "https://dc.lft.to/lastmile_qr_scan"}, "fusion_lon": 0.0}, {"lat": 38.867125333333334, "is_disabled": 0, "type": "electric_scooter", "lon": -76.98729133333333, "bike_id": "4ced3c19ce3280544f7a7c48b423cfd5", "fusion_lat": 0.0, "name": "4ced3c19ce3280544f7a7c48b423cfd5", "is_reserved": 0, "rental_uris": {"android": "https://dc.lft.to/lastmile_qr_scan", "ios": "https://dc.lft.to/lastmile_qr_scan"}, "fusion_lon": 0.0}, {"lat": 38.91109066666667, "is_disabled": 0, "type": "electric_scooter", "lon": -77.021598, "bike_id": "ac1ca15d5fc735e6506cf83d41767d32", "fusion_lat": 0.0, "name": "ac1ca15d5fc735e6506cf83d41767d32", "is_reserved": 0, "rental_uris": {"android": "https://dc.lft.to/lastmile_qr_scan", "ios": "https://dc.lft.to/lastmile_qr_scan"}, "fusion_lon": 0.0}, {"lat": 38.92714183333333, "is_disabled": 0, "type": "electric_scooter", "lon": -77.02081833333334, "bike_id": "d1694571c4ee700f28e1211c6f95434c", "fusion_lat": 0.0, "name": "d1694571c4ee700f28e1211c6f95434c", "is_reserved": 0, "rental_uris": {"android": "https://dc.lft.to/lastmile_qr_scan", "ios": "https://dc.lft.to/lastmile_qr_scan"}, "fusion_lon": 0.0}, {"lat": 38.90160016666667, "is_disabled": 0, "type": "electric_scooter", "lon": -77.05322833333334, "bike_id": "64be99403a5799cc6c70499e54f5bd13", "fusion_lat": 0.0, "name": "64be99403a5799cc6c70499e54f5bd13", "is_reserved": 0, "rental_uris": {"android": "https://dc.lft.to/lastmile_qr_scan", "ios": "https://dc.lft.to/lastmile_qr_scan"}, "fusion_lon": 0.0}, {"lat": 38.89930533333333, "is_disabled": 0, "type": "electric_scooter", "lon": -77.04019466666666, "bike_id": "11aff1f4beef4459a4ac51d22b7426c7", "fusion_lat": 0.0, "name": "11aff1f4beef4459a4ac51d22b7426c7", "is_reserved": 0, "rental_uris": {"android": "https://dc.lft.to/lastmile_qr_scan", "ios": "https://dc.lft.to/lastmile_qr_scan"}, "fusion_lon": 0.0}, {"lat": 38.916675166666664, "is_disabled": 0, "type": "electric_scooter", "lon": -77.00665583333334, "bike_id": "d71172f991367a99c2cb80fff30bfc57", "fusion_lat": 0.0, "name": "d71172f991367a99c2cb80fff30bfc57", "is_reserved": 0, "rental_uris": {"android": "https://dc.lft.to/lastmile_qr_scan", "ios": "https://dc.lft.to/lastmile_qr_scan"}, "fusion_lon": 0.0}, {"lat": 38.92154816666667, "is_disabled": 0, "type": "electric_scooter", "lon": -77.03509116666666, "bike_id": "6f8e3c0a7a954cadcd0ecc566ca81707", "fusion_lat": 0.0, "name": "6f8e3c0a7a954cadcd0ecc566ca81707", "is_reserved": 0, "rental_uris": {"android": "https://dc.lft.to/lastmile_qr_scan", "ios": "https://dc.lft.to/lastmile_qr_scan"}, "fusion_lon": 0.0}, {"lat": 38.842985166666665, "is_disabled": 0, "type": "electric_scooter", "lon": -76.99955283333334, "bike_id": "f90e83244025b5e402152319bd592acf", "fusion_lat": 0.0, "name": "f90e83244025b5e402152319bd592acf", "is_reserved": 0, "rental_uris": {"android": "https://dc.lft.to/lastmile_qr_scan", "ios": "https://dc.lft.to/lastmile_qr_scan"}, "fusion_lon": 0.0}, {"lat": 38.92091833333333, "is_disabled": 0, "type": "electric_scooter", "lon": -77.02174566666666, "bike_id": "85975f6d3324007d46305fadf339f569", "fusion_lat": 0.0, "name": "85975f6d3324007d46305fadf339f569", "is_reserved": 0, "rental_uris": {"android": "https://dc.lft.to/lastmile_qr_scan", "ios": "https://dc.lft.to/lastmile_qr_scan"}, "fusion_lon": 0.0}, {"lat": 38.994195166666664, "is_disabled": 0, "type": "electric_bike", "lon": -77.0316545, "bike_id": "2c45f2b846a8ce3de9c7fcb8ab25874a", "fusion_lat": 0.0, "name": "2c45f2b846a8ce3de9c7fcb8ab25874a", "is_reserved": 0, "rental_uris": {"android": "https://dc.lft.to/lastmile_qr_scan", "ios": "https://dc.lft.to/lastmile_qr_scan"}, "fusion_lon": 0.0}, {"lat": 38.9257195, "is_disabled": 0, "type": "electric_scooter", "lon": -76.98612516666667, "bike_id": "e19b6946c8246c3ef7c0b19ffca12c04", "fusion_lat": 0.0, "name": "e19b6946c8246c3ef7c0b19ffca12c04", "is_reserved": 0, "rental_uris": {"android": "https://dc.lft.to/lastmile_qr_scan", "ios": "https://dc.lft.to/lastmile_qr_scan"}, "fusion_lon": 0.0}, {"lat": 38.9253005, "is_disabled": 0, "type": "electric_scooter", "lon": -77.007545, "bike_id": "aedac3e102d065877cd4115423f20899", "fusion_lat": 0.0, "name": "aedac3e102d065877cd4115423f20899", "is_reserved": 0, "rental_uris": {"android": "https://dc.lft.to/lastmile_qr_scan", "ios": "https://dc.lft.to/lastmile_qr_scan"}, "fusion_lon": 0.0}, {"lat": 38.900812333333334, "is_disabled": 0, "type": "electric_scooter", "lon": -77.02198633333333, "bike_id": "ff4ed7674c4e26cc44022954b950bc8b", "fusion_lat": 0.0, "name": "ff4ed7674c4e26cc44022954b950bc8b", "is_reserved": 0, "rental_uris": {"android": "https://dc.lft.to/lastmile_qr_scan", "ios": "https://dc.lft.to/lastmile_qr_scan"}, "fusion_lon": 0.0}, {"lat": 38.8849215, "is_disabled": 0, "type": "electric_scooter", "lon": -77.007106, "bike_id": "d6aa30287fc2f1c65fced92cf30cbc54", "fusion_lat": 0.0, "name": "d6aa30287fc2f1c65fced92cf30cbc54", "is_reserved": 0, "rental_uris": {"android": "https://dc.lft.to/lastmile_qr_scan", "ios": "https://dc.lft.to/lastmile_qr_scan"}, "fusion_lon": 0.0}, {"lat": 38.91783216666666, "is_disabled": 0, "type": "electric_scooter", "lon": -77.02313483333333, "bike_id": "f37e010c43a0848954fb20825e4c13e5", "fusion_lat": 0.0, "name": "f37e010c43a0848954fb20825e4c13e5", "is_reserved": 0, "rental_uris": {"android": "https://dc.lft.to/lastmile_qr_scan", "ios": "https://dc.lft.to/lastmile_qr_scan"}, "fusion_lon": 0.0}, {"lat": 38.90645766666667, "is_disabled": 0, "type": "electric_scooter", "lon": -77.046312, "bike_id": "78a36259c07333b2f60d9902ceb7a85f", "fusion_lat": 0.0, "name": "78a36259c07333b2f60d9902ceb7a85f", "is_reserved": 0, "rental_uris": {"android": "https://dc.lft.to/lastmile_qr_scan", "ios": "https://dc.lft.to/lastmile_qr_scan"}, "fusion_lon": 0.0}, {"lat": 38.90164216666667, "is_disabled": 0, "type": "electric_scooter", "lon": -76.98048966666667, "bike_id": "108072fd710c5d821d68983c87beac83", "fusion_lat": 0.0, "name": "108072fd710c5d821d68983c87beac83", "is_reserved": 0, "rental_uris": {"android": "https://dc.lft.to/lastmile_qr_scan", "ios": "https://dc.lft.to/lastmile_qr_scan"}, "fusion_lon": 0.0}, {"lat": 38.8637275, "is_disabled": 0, "type": "electric_scooter", "lon": -76.99044116666667, "bike_id": "d021ded7389a642cf055cfc20d34dfa5", "fusion_lat": 0.0, "name": "d021ded7389a642cf055cfc20d34dfa5", "is_reserved": 0, "rental_uris": {"android": "https://dc.lft.to/lastmile_qr_scan", "ios": "https://dc.lft.to/lastmile_qr_scan"}, "fusion_lon": 0.0}, {"lat": 38.951866333333335, "is_disabled": 0, "type": "electric_bike", "lon": -76.93546733333334, "bike_id": "f74a3b6078c8d832557897a8b9101d83", "fusion_lat": 0.0, "name": "f74a3b6078c8d832557897a8b9101d83", "is_reserved": 0, "rental_uris": {"android": "https://dc.lft.to/lastmile_qr_scan", "ios": "https://dc.lft.to/lastmile_qr_scan"}, "fusion_lon": 0.0}, {"lat": 38.89219633333333, "is_disabled": 0, "type": "electric_scooter", "lon": -77.02163533333334, "bike_id": "cf80c482d1fb5681c2ca5cf1ab3a89e7", "fusion_lat": 0.0, "name": "cf80c482d1fb5681c2ca5cf1ab3a89e7", "is_reserved": 0, "rental_uris": {"android": "https://dc.lft.to/lastmile_qr_scan", "ios": "https://dc.lft.to/lastmile_qr_scan"}, "fusion_lon": 0.0}, {"lat": 38.870745166666666, "is_disabled": 0, "type": "electric_scooter", "lon": -77.01188883333333, "bike_id": "7e2a3757528ae7c83962d2d1bc831e3d", "fusion_lat": 0.0, "name": "7e2a3757528ae7c83962d2d1bc831e3d", "is_reserved": 0, "rental_uris": {"android": "https://dc.lft.to/lastmile_qr_scan", "ios": "https://dc.lft.to/lastmile_qr_scan"}, "fusion_lon": 0.0}, {"lat": 38.9110775, "is_disabled": 0, "type": "electric_scooter", "lon": -77.03257616666667, "bike_id": "fb5d76ae58a1d52c1d72393af45ce557", "fusion_lat": 0.0, "name": "fb5d76ae58a1d52c1d72393af45ce557", "is_reserved": 0, "rental_uris": {"android": "https://dc.lft.to/lastmile_qr_scan", "ios": "https://dc.lft.to/lastmile_qr_scan"}, "fusion_lon": 0.0}, {"lat": 38.90780266666667, "is_disabled": 0, "type": "electric_scooter", "lon": -77.04345533333333, "bike_id": "5210dec2ea66ff9fdce9528297e387ac", "fusion_lat": 0.0, "name": "5210dec2ea66ff9fdce9528297e387ac", "is_reserved": 0, "rental_uris": {"android": "https://dc.lft.to/lastmile_qr_scan", "ios": "https://dc.lft.to/lastmile_qr_scan"}, "fusion_lon": 0.0}, {"lat": 38.877347, "is_disabled": 0, "type": "electric_bike", "lon": -77.11849416666666, "bike_id": "d925fca7c84c5fecae17cc5e190a2940", "fusion_lat": 0.0, "name": "d925fca7c84c5fecae17cc5e190a2940", "is_reserved": 0, "rental_uris": {"android": "https://dc.lft.to/lastmile_qr_scan", "ios": "https://dc.lft.to/lastmile_qr_scan"}, "fusion_lon": 0.0}, {"lat": 38.905527666666664, "is_disabled": 0, "type": "electric_scooter", "lon": -77.019936, "bike_id": "a4ff53e02bf21b22f8e43530803df858", "fusion_lat": 0.0, "name": "a4ff53e02bf21b22f8e43530803df858", "is_reserved": 0, "rental_uris": {"android": "https://dc.lft.to/lastmile_qr_scan", "ios": "https://dc.lft.to/lastmile_qr_scan"}, "fusion_lon": 0.0}, {"lat": 38.807467833333334, "is_disabled": 0, "type": "electric_bike", "lon": -77.09434016666667, "bike_id": "d715a548757be3d229eae156e75131cd", "fusion_lat": 0.0, "name": "d715a548757be3d229eae156e75131cd", "is_reserved": 0, "rental_uris": {"android": "https://dc.lft.to/lastmile_qr_scan", "ios": "https://dc.lft.to/lastmile_qr_scan"}, "fusion_lon": 0.0}, {"lat": 38.938711, "is_disabled": 0, "type": "electric_scooter", "lon": -77.02445516666667, "bike_id": "0acc83ca487fa74d2e20828cddf8d8e3", "fusion_lat": 0.0, "name": "0acc83ca487fa74d2e20828cddf8d8e3", "is_reserved": 0, "rental_uris": {"android": "https://dc.lft.to/lastmile_qr_scan", "ios": "https://dc.lft.to/lastmile_qr_scan"}, "fusion_lon": 0.0}, {"lat": 38.90858433333333, "is_disabled": 0, "type": "electric_scooter", "lon": -76.99954616666666, "bike_id": "8639f8becce04b8109bd5221bb413bb2", "fusion_lat": 0.0, "name": "8639f8becce04b8109bd5221bb413bb2", "is_reserved": 0, "rental_uris": {"android": "https://dc.lft.to/lastmile_qr_scan", "ios": "https://dc.lft.to/lastmile_qr_scan"}, "fusion_lon": 0.0}, {"lat": 38.9087855, "is_disabled": 0, "type": "electric_scooter", "lon": -77.06439966666667, "bike_id": "8196ca94b3f42532c0240f65bc6476d1", "fusion_lat": 0.0, "name": "8196ca94b3f42532c0240f65bc6476d1", "is_reserved": 0, "rental_uris": {"android": "https://dc.lft.to/lastmile_qr_scan", "ios": "https://dc.lft.to/lastmile_qr_scan"}, "fusion_lon": 0.0}, {"lat": 38.93759433333334, "is_disabled": 0, "type": "electric_scooter", "lon": -77.03145483333333, "bike_id": "f3f4d1fa2a31f0b3d8b5d062605ad007", "fusion_lat": 0.0, "name": "f3f4d1fa2a31f0b3d8b5d062605ad007", "is_reserved": 0, "rental_uris": {"android": "https://dc.lft.to/lastmile_qr_scan", "ios": "https://dc.lft.to/lastmile_qr_scan"}, "fusion_lon": 0.0}, {"lat": 38.913919, "is_disabled": 0, "type": "electric_scooter", "lon": -77.03664566666667, "bike_id": "082a52d8455975624785f08c8e0ae905", "fusion_lat": 0.0, "name": "082a52d8455975624785f08c8e0ae905", "is_reserved": 0, "rental_uris": {"android": "https://dc.lft.to/lastmile_qr_scan", "ios": "https://dc.lft.to/lastmile_qr_scan"}, "fusion_lon": 0.0}, {"lat": 38.91865333333333, "is_disabled": 0, "type": "electric_scooter", "lon": -76.97123616666667, "bike_id": "bb90be9196f135788960de188be2de61", "fusion_lat": 0.0, "name": "bb90be9196f135788960de188be2de61", "is_reserved": 0, "rental_uris": {"android": "https://dc.lft.to/lastmile_qr_scan", "ios": "https://dc.lft.to/lastmile_qr_scan"}, "fusion_lon": 0.0}, {"lat": 38.9027855, "is_disabled": 0, "type": "electric_scooter", "lon": -77.0389925, "bike_id": "1a4b3ba3477309888aca6a2ae6da4d32", "fusion_lat": 0.0, "name": "1a4b3ba3477309888aca6a2ae6da4d32", "is_reserved": 0, "rental_uris": {"android": "https://dc.lft.to/lastmile_qr_scan", "ios": "https://dc.lft.to/lastmile_qr_scan"}, "fusion_lon": 0.0}, {"lat": 38.934811333333336, "is_disabled": 0, "type": "electric_scooter", "lon": -77.02853233333333, "bike_id": "0bd53edc7fa5a1743a86521196fcd953", "fusion_lat": 0.0, "name": "0bd53edc7fa5a1743a86521196fcd953", "is_reserved": 0, "rental_uris": {"android": "https://dc.lft.to/lastmile_qr_scan", "ios": "https://dc.lft.to/lastmile_qr_scan"}, "fusion_lon": 0.0}, {"lat": 38.91105116666667, "is_disabled": 0, "type": "electric_scooter", "lon": -77.04394766666667, "bike_id": "fcdeb74877b9b69ec32b57d4866e818d", "fusion_lat": 0.0, "name": "fcdeb74877b9b69ec32b57d4866e818d", "is_reserved": 0, "rental_uris": {"android": "https://dc.lft.to/lastmile_qr_scan", "ios": "https://dc.lft.to/lastmile_qr_scan"}, "fusion_lon": 0.0}, {"lat": 38.921927, "is_disabled": 0, "type": "electric_scooter", "lon": -77.04132283333334, "bike_id": "972068e92ffbde63e362603ba7e7af58", "fusion_lat": 0.0, "name": "972068e92ffbde63e362603ba7e7af58", "is_reserved": 0, "rental_uris": {"android": "https://dc.lft.to/lastmile_qr_scan", "ios": "https://dc.lft.to/lastmile_qr_scan"}, "fusion_lon": 0.0}, {"lat": 38.91018116666667, "is_disabled": 0, "type": "electric_scooter", "lon": -77.03855516666667, "bike_id": "c3a2b5953792b3b9f913f2709b489c02", "fusion_lat": 0.0, "name": "c3a2b5953792b3b9f913f2709b489c02", "is_reserved": 0, "rental_uris": {"android": "https://dc.lft.to/lastmile_qr_scan", "ios": "https://dc.lft.to/lastmile_qr_scan"}, "fusion_lon": 0.0}, {"lat": 38.8845555, "is_disabled": 0, "type": "electric_scooter", "lon": -76.926192, "bike_id": "04bdb203a8933781f31c27b7bcaad30e", "fusion_lat": 0.0, "name": "04bdb203a8933781f31c27b7bcaad30e", "is_reserved": 0, "rental_uris": {"android": "https://dc.lft.to/lastmile_qr_scan", "ios": "https://dc.lft.to/lastmile_qr_scan"}, "fusion_lon": 0.0}, {"lat": 38.88487, "is_disabled": 0, "type": "electric_scooter", "lon": -77.03475883333333, "bike_id": "9d6331efd978e5caaef8c0d75c9ab7b2", "fusion_lat": 0.0, "name": "9d6331efd978e5caaef8c0d75c9ab7b2", "is_reserved": 0, "rental_uris": {"android": "https://dc.lft.to/lastmile_qr_scan", "ios": "https://dc.lft.to/lastmile_qr_scan"}, "fusion_lon": 0.0}, {"lat": 38.928540166666664, "is_disabled": 0, "type": "electric_bike", "lon": -77.10680333333333, "bike_id": "94c91edfbdcf26d6055fa93a488a6076", "fusion_lat": 0.0, "name": "94c91edfbdcf26d6055fa93a488a6076", "is_reserved": 0, "rental_uris": {"android": "https://dc.lft.to/lastmile_qr_scan", "ios": "https://dc.lft.to/lastmile_qr_scan"}, "fusion_lon": 0.0}, {"lat": 38.90616583333333, "is_disabled": 0, "type": "electric_scooter", "lon": -77.06302283333333, "bike_id": "120302e1c2f4c8aa2bdfdca3d939fd63", "fusion_lat": 0.0, "name": "120302e1c2f4c8aa2bdfdca3d939fd63", "is_reserved": 0, "rental_uris": {"android": "https://dc.lft.to/lastmile_qr_scan", "ios": "https://dc.lft.to/lastmile_qr_scan"}, "fusion_lon": 0.0}, {"lat": 38.917140333333336, "is_disabled": 0, "type": "electric_scooter", "lon": -77.03469483333333, "bike_id": "f5fe7f9d1ca3a7dd98aaafe20547c890", "fusion_lat": 0.0, "name": "f5fe7f9d1ca3a7dd98aaafe20547c890", "is_reserved": 0, "rental_uris": {"android": "https://dc.lft.to/lastmile_qr_scan", "ios": "https://dc.lft.to/lastmile_qr_scan"}, "fusion_lon": 0.0}, {"lat": 38.966084, "is_disabled": 0, "type": "electric_bike", "lon": -76.98335833333333, "bike_id": "598867003a53e27d67c127df44567f12", "fusion_lat": 0.0, "name": "598867003a53e27d67c127df44567f12", "is_reserved": 0, "rental_uris": {"android": "https://dc.lft.to/lastmile_qr_scan", "ios": "https://dc.lft.to/lastmile_qr_scan"}, "fusion_lon": 0.0}, {"lat": 38.93353333333334, "is_disabled": 0, "type": "electric_scooter", "lon": -77.0738235, "bike_id": "03af84cc2780c8a9b63db6762a65c518", "fusion_lat": 0.0, "name": "03af84cc2780c8a9b63db6762a65c518", "is_reserved": 0, "rental_uris": {"android": "https://dc.lft.to/lastmile_qr_scan", "ios": "https://dc.lft.to/lastmile_qr_scan"}, "fusion_lon": 0.0}, {"lat": 38.935877833333336, "is_disabled": 0, "type": "electric_scooter", "lon": -77.0365865, "bike_id": "be81245ad590f933113d80f3c136b56f", "fusion_lat": 0.0, "name": "be81245ad590f933113d80f3c136b56f", "is_reserved": 0, "rental_uris": {"android": "https://dc.lft.to/lastmile_qr_scan", "ios": "https://dc.lft.to/lastmile_qr_scan"}, "fusion_lon": 0.0}, {"lat": 38.899616333333334, "is_disabled": 0, "type": "electric_bike", "lon": -76.98566333333333, "bike_id": "5ac3e1fe856c0f82cded51b615d2952f", "fusion_lat": 0.0, "name": "5ac3e1fe856c0f82cded51b615d2952f", "is_reserved": 0, "rental_uris": {"android": "https://dc.lft.to/lastmile_qr_scan", "ios": "https://dc.lft.to/lastmile_qr_scan"}, "fusion_lon": 0.0}, {"lat": 38.892493333333334, "is_disabled": 0, "type": "electric_scooter", "lon": -77.048961, "bike_id": "07f7c1b81ef7b096e77363e3e2d44135", "fusion_lat": 0.0, "name": "07f7c1b81ef7b096e77363e3e2d44135", "is_reserved": 0, "rental_uris": {"android": "https://dc.lft.to/lastmile_qr_scan", "ios": "https://dc.lft.to/lastmile_qr_scan"}, "fusion_lon": 0.0}, {"lat": 38.923259, "is_disabled": 0, "type": "electric_scooter", "lon": -77.02965266666666, "bike_id": "80a1a3ef392cce9406a4c7115d7bec77", "fusion_lat": 0.0, "name": "80a1a3ef392cce9406a4c7115d7bec77", "is_reserved": 0, "rental_uris": {"android": "https://dc.lft.to/lastmile_qr_scan", "ios": "https://dc.lft.to/lastmile_qr_scan"}, "fusion_lon": 0.0}, {"lat": 38.92072, "is_disabled": 0, "type": "electric_scooter", "lon": -77.02504983333333, "bike_id": "5fa31e4ef88b89145070ce8a1ff583f7", "fusion_lat": 0.0, "name": "5fa31e4ef88b89145070ce8a1ff583f7", "is_reserved": 0, "rental_uris": {"android": "https://dc.lft.to/lastmile_qr_scan", "ios": "https://dc.lft.to/lastmile_qr_scan"}, "fusion_lon": 0.0}, {"lat": 38.938263166666665, "is_disabled": 0, "type": "electric_scooter", "lon": -77.06044466666667, "bike_id": "d18ee19074c978a2594ef3c186b54a44", "fusion_lat": 0.0, "name": "d18ee19074c978a2594ef3c186b54a44", "is_reserved": 0, "rental_uris": {"android": "https://dc.lft.to/lastmile_qr_scan", "ios": "https://dc.lft.to/lastmile_qr_scan"}, "fusion_lon": 0.0}, {"lat": 38.9056595, "is_disabled": 0, "type": "electric_scooter", "lon": -77.0329255, "bike_id": "9476defd151cb26ca945c2f946783897", "fusion_lat": 0.0, "name": "9476defd151cb26ca945c2f946783897", "is_reserved": 0, "rental_uris": {"android": "https://dc.lft.to/lastmile_qr_scan", "ios": "https://dc.lft.to/lastmile_qr_scan"}, "fusion_lon": 0.0}, {"lat": 38.8983715, "is_disabled": 0, "type": "electric_scooter", "lon": -76.9310385, "bike_id": "d68decd62236c438d62f5b7ae997e367", "fusion_lat": 0.0, "name": "d68decd62236c438d62f5b7ae997e367", "is_reserved": 0, "rental_uris": {"android": "https://dc.lft.to/lastmile_qr_scan", "ios": "https://dc.lft.to/lastmile_qr_scan"}, "fusion_lon": 0.0}, {"lat": 38.9170805, "is_disabled": 0, "type": "electric_scooter", "lon": -77.03874433333333, "bike_id": "a6a56fb903462d938286420b080d9d39", "fusion_lat": 0.0, "name": "a6a56fb903462d938286420b080d9d39", "is_reserved": 0, "rental_uris": {"android": "https://dc.lft.to/lastmile_qr_scan", "ios": "https://dc.lft.to/lastmile_qr_scan"}, "fusion_lon": 0.0}, {"lat": 38.844245666666666, "is_disabled": 0, "type": "electric_scooter", "lon": -76.9977695, "bike_id": "b4b37a0bb07903929d5c394a0109bcd4", "fusion_lat": 0.0, "name": "b4b37a0bb07903929d5c394a0109bcd4", "is_reserved": 0, "rental_uris": {"android": "https://dc.lft.to/lastmile_qr_scan", "ios": "https://dc.lft.to/lastmile_qr_scan"}, "fusion_lon": 0.0}, {"lat": 38.986548166666665, "is_disabled": 0, "type": "electric_bike", "lon": -77.0564875, "bike_id": "6ccb6a5024dbdb2fb110590bffa6aaad", "fusion_lat": 0.0, "name": "6ccb6a5024dbdb2fb110590bffa6aaad", "is_reserved": 0, "rental_uris": {"android": "https://dc.lft.to/lastmile_qr_scan", "ios": "https://dc.lft.to/lastmile_qr_scan"}, "fusion_lon": 0.0}, {"lat": 38.906853166666664, "is_disabled": 0, "type": "electric_scooter", "lon": -77.06270766666667, "bike_id": "f27bb47b3ed25b940e0d4eb1dc90155b", "fusion_lat": 0.0, "name": "f27bb47b3ed25b940e0d4eb1dc90155b", "is_reserved": 0, "rental_uris": {"android": "https://dc.lft.to/lastmile_qr_scan", "ios": "https://dc.lft.to/lastmile_qr_scan"}, "fusion_lon": 0.0}, {"lat": 38.91842166666667, "is_disabled": 0, "type": "electric_scooter", "lon": -77.03901816666666, "bike_id": "1807b9fa67158b996aff3a84d78ca5e3", "fusion_lat": 0.0, "name": "1807b9fa67158b996aff3a84d78ca5e3", "is_reserved": 0, "rental_uris": {"android": "https://dc.lft.to/lastmile_qr_scan", "ios": "https://dc.lft.to/lastmile_qr_scan"}, "fusion_lon": 0.0}, {"lat": 38.90669316666666, "is_disabled": 0, "type": "electric_scooter", "lon": -77.02951616666667, "bike_id": "8ea490bfe61be1e454f28e556dcb6a7b", "fusion_lat": 0.0, "name": "8ea490bfe61be1e454f28e556dcb6a7b", "is_reserved": 0, "rental_uris": {"android": "https://dc.lft.to/lastmile_qr_scan", "ios": "https://dc.lft.to/lastmile_qr_scan"}, "fusion_lon": 0.0}, {"lat": 38.91858383333334, "is_disabled": 0, "type": "electric_scooter", "lon": -77.03219216666666, "bike_id": "cae8aad901ee5432eeb307ef05d6cfae", "fusion_lat": 0.0, "name": "cae8aad901ee5432eeb307ef05d6cfae", "is_reserved": 0, "rental_uris": {"android": "https://dc.lft.to/lastmile_qr_scan", "ios": "https://dc.lft.to/lastmile_qr_scan"}, "fusion_lon": 0.0}, {"lat": 38.873796, "is_disabled": 0, "type": "electric_bike", "lon": -76.93657833333333, "bike_id": "aeb2451d1dc57e28e0e5903cf0fb729e", "fusion_lat": 0.0, "name": "aeb2451d1dc57e28e0e5903cf0fb729e", "is_reserved": 0, "rental_uris": {"android": "https://dc.lft.to/lastmile_qr_scan", "ios": "https://dc.lft.to/lastmile_qr_scan"}, "fusion_lon": 0.0}, {"lat": 38.869216, "is_disabled": 0, "type": "electric_scooter", "lon": -76.983066, "bike_id": "8d31be81cc77b7878525cd616886b334", "fusion_lat": 0.0, "name": "8d31be81cc77b7878525cd616886b334", "is_reserved": 0, "rental_uris": {"android": "https://dc.lft.to/lastmile_qr_scan", "ios": "https://dc.lft.to/lastmile_qr_scan"}, "fusion_lon": 0.0}, {"lat": 38.908467, "is_disabled": 0, "type": "electric_scooter", "lon": -77.02717683333333, "bike_id": "1b9012416f36e6208cf86799def5f7f0", "fusion_lat": 0.0, "name": "1b9012416f36e6208cf86799def5f7f0", "is_reserved": 0, "rental_uris": {"android": "https://dc.lft.to/lastmile_qr_scan", "ios": "https://dc.lft.to/lastmile_qr_scan"}, "fusion_lon": 0.0}, {"lat": 38.929208833333334, "is_disabled": 0, "type": "electric_scooter", "lon": -77.03763216666667, "bike_id": "cf25590fb3f5de698070ffc8b6f39f47", "fusion_lat": 0.0, "name": "cf25590fb3f5de698070ffc8b6f39f47", "is_reserved": 0, "rental_uris": {"android": "https://dc.lft.to/lastmile_qr_scan", "ios": "https://dc.lft.to/lastmile_qr_scan"}, "fusion_lon": 0.0}, {"lat": 38.9134425, "is_disabled": 0, "type": "electric_scooter", "lon": -77.03129966666667, "bike_id": "c7172380d6e55af24575832c5685faaa", "fusion_lat": 0.0, "name": "c7172380d6e55af24575832c5685faaa", "is_reserved": 0, "rental_uris": {"android": "https://dc.lft.to/lastmile_qr_scan", "ios": "https://dc.lft.to/lastmile_qr_scan"}, "fusion_lon": 0.0}, {"lat": 38.902984000000004, "is_disabled": 0, "type": "electric_scooter", "lon": -77.0003805, "bike_id": "4653a0422a33ef7b2260f7cb5e9b414f", "fusion_lat": 0.0, "name": "4653a0422a33ef7b2260f7cb5e9b414f", "is_reserved": 0, "rental_uris": {"android": "https://dc.lft.to/lastmile_qr_scan", "ios": "https://dc.lft.to/lastmile_qr_scan"}, "fusion_lon": 0.0}, {"lat": 38.92241166666667, "is_disabled": 0, "type": "electric_scooter", "lon": -77.03662433333334, "bike_id": "bcd67510f8df4fdf2a31be37161bc5d3", "fusion_lat": 0.0, "name": "bcd67510f8df4fdf2a31be37161bc5d3", "is_reserved": 0, "rental_uris": {"android": "https://dc.lft.to/lastmile_qr_scan", "ios": "https://dc.lft.to/lastmile_qr_scan"}, "fusion_lon": 0.0}, {"lat": 38.957133666666664, "is_disabled": 0, "type": "electric_scooter", "lon": -77.024069, "bike_id": "1c779cb4656fcd023a7bd0d0449bb894", "fusion_lat": 0.0, "name": "1c779cb4656fcd023a7bd0d0449bb894", "is_reserved": 0, "rental_uris": {"android": "https://dc.lft.to/lastmile_qr_scan", "ios": "https://dc.lft.to/lastmile_qr_scan"}, "fusion_lon": 0.0}, {"lat": 38.928880666666664, "is_disabled": 0, "type": "electric_scooter", "lon": -77.01661066666666, "bike_id": "5d3d53da24d70cf9cd6be29b01912d95", "fusion_lat": 0.0, "name": "5d3d53da24d70cf9cd6be29b01912d95", "is_reserved": 0, "rental_uris": {"android": "https://dc.lft.to/lastmile_qr_scan", "ios": "https://dc.lft.to/lastmile_qr_scan"}, "fusion_lon": 0.0}, {"lat": 38.93180366666667, "is_disabled": 0, "type": "electric_scooter", "lon": -77.02377583333333, "bike_id": "e198192e9f03f31cb9c2b522d629b402", "fusion_lat": 0.0, "name": "e198192e9f03f31cb9c2b522d629b402", "is_reserved": 0, "rental_uris": {"android": "https://dc.lft.to/lastmile_qr_scan", "ios": "https://dc.lft.to/lastmile_qr_scan"}, "fusion_lon": 0.0}, {"lat": 38.93383683333333, "is_disabled": 0, "type": "electric_scooter", "lon": -77.03557283333333, "bike_id": "86ea3a764c069b7d49ec138906419d8e", "fusion_lat": 0.0, "name": "86ea3a764c069b7d49ec138906419d8e", "is_reserved": 0, "rental_uris": {"android": "https://dc.lft.to/lastmile_qr_scan", "ios": "https://dc.lft.to/lastmile_qr_scan"}, "fusion_lon": 0.0}, {"lat": 38.900254, "is_disabled": 0, "type": "electric_scooter", "lon": -77.00206083333333, "bike_id": "e97eb9f4f082656a98dbd7221a8aaf6a", "fusion_lat": 0.0, "name": "e97eb9f4f082656a98dbd7221a8aaf6a", "is_reserved": 0, "rental_uris": {"android": "https://dc.lft.to/lastmile_qr_scan", "ios": "https://dc.lft.to/lastmile_qr_scan"}, "fusion_lon": 0.0}, {"lat": 38.934307, "is_disabled": 0, "type": "electric_scooter", "lon": -76.96510083333334, "bike_id": "ed45873888eafc47dff694ed07771544", "fusion_lat": 0.0, "name": "ed45873888eafc47dff694ed07771544", "is_reserved": 0, "rental_uris": {"android": "https://dc.lft.to/lastmile_qr_scan", "ios": "https://dc.lft.to/lastmile_qr_scan"}, "fusion_lon": 0.0}, {"lat": 38.885504, "is_disabled": 0, "type": "electric_bike", "lon": -77.1179105, "bike_id": "23d792a10bb43748e8201fb32e1da9ae", "fusion_lat": 0.0, "name": "23d792a10bb43748e8201fb32e1da9ae", "is_reserved": 0, "rental_uris": {"android": "https://dc.lft.to/lastmile_qr_scan", "ios": "https://dc.lft.to/lastmile_qr_scan"}, "fusion_lon": 0.0}, {"lat": 38.8845765, "is_disabled": 0, "type": "electric_scooter", "lon": -76.9296055, "bike_id": "ebefe8bc807058191abc3b50eeac8f24", "fusion_lat": 0.0, "name": "ebefe8bc807058191abc3b50eeac8f24", "is_reserved": 0, "rental_uris": {"android": "https://dc.lft.to/lastmile_qr_scan", "ios": "https://dc.lft.to/lastmile_qr_scan"}, "fusion_lon": 0.0}, {"lat": 38.8991045, "is_disabled": 0, "type": "electric_scooter", "lon": -77.039191, "bike_id": "4ec512ac67f96bedebdd2507776eaa5c", "fusion_lat": 0.0, "name": "4ec512ac67f96bedebdd2507776eaa5c", "is_reserved": 0, "rental_uris": {"android": "https://dc.lft.to/lastmile_qr_scan", "ios": "https://dc.lft.to/lastmile_qr_scan"}, "fusion_lon": 0.0}, {"lat": 38.87642683333333, "is_disabled": 0, "type": "electric_scooter", "lon": -77.0159485, "bike_id": "3fa2e587f56a34b4e8cd746b9567434a", "fusion_lat": 0.0, "name": "3fa2e587f56a34b4e8cd746b9567434a", "is_reserved": 0, "rental_uris": {"android": "https://dc.lft.to/lastmile_qr_scan", "ios": "https://dc.lft.to/lastmile_qr_scan"}, "fusion_lon": 0.0}, {"lat": 38.88610366666666, "is_disabled": 0, "type": "electric_scooter", "lon": -77.01897166666667, "bike_id": "863d2e52f31cae1ffb03b9e06e444d2d", "fusion_lat": 0.0, "name": "863d2e52f31cae1ffb03b9e06e444d2d", "is_reserved": 0, "rental_uris": {"android": "https://dc.lft.to/lastmile_qr_scan", "ios": "https://dc.lft.to/lastmile_qr_scan"}, "fusion_lon": 0.0}, {"lat": 38.89566833333333, "is_disabled": 0, "type": "electric_bike", "lon": -77.1274085, "bike_id": "63594048d80628aebafef818b9880170", "fusion_lat": 0.0, "name": "63594048d80628aebafef818b9880170", "is_reserved": 0, "rental_uris": {"android": "https://dc.lft.to/lastmile_qr_scan", "ios": "https://dc.lft.to/lastmile_qr_scan"}, "fusion_lon": 0.0}, {"lat": 38.9418125, "is_disabled": 0, "type": "electric_scooter", "lon": -77.0365575, "bike_id": "cb50f0e0f1c84b2fb757d89784e724d6", "fusion_lat": 0.0, "name": "cb50f0e0f1c84b2fb757d89784e724d6", "is_reserved": 0, "rental_uris": {"android": "https://dc.lft.to/lastmile_qr_scan", "ios": "https://dc.lft.to/lastmile_qr_scan"}, "fusion_lon": 0.0}, {"lat": 38.8621295, "is_disabled": 0, "type": "electric_bike", "lon": -76.997817, "bike_id": "edb5f0aa78fef88b0956094edabeeffa", "fusion_lat": 0.0, "name": "edb5f0aa78fef88b0956094edabeeffa", "is_reserved": 0, "rental_uris": {"android": "https://dc.lft.to/lastmile_qr_scan", "ios": "https://dc.lft.to/lastmile_qr_scan"}, "fusion_lon": 0.0}, {"lat": 38.90884, "is_disabled": 0, "type": "electric_bike", "lon": -76.99697666666667, "bike_id": "c2b0d51175708e57856ebfa24f4eb6dc", "fusion_lat": 0.0, "name": "c2b0d51175708e57856ebfa24f4eb6dc", "is_reserved": 0, "rental_uris": {"android": "https://dc.lft.to/lastmile_qr_scan", "ios": "https://dc.lft.to/lastmile_qr_scan"}, "fusion_lon": 0.0}, {"lat": 38.90393983333333, "is_disabled": 0, "type": "electric_scooter", "lon": -77.0280595, "bike_id": "aa31373560a36718f15bed1d353baa0f", "fusion_lat": 0.0, "name": "aa31373560a36718f15bed1d353baa0f", "is_reserved": 0, "rental_uris": {"android": "https://dc.lft.to/lastmile_qr_scan", "ios": "https://dc.lft.to/lastmile_qr_scan"}, "fusion_lon": 0.0}, {"lat": 38.91545266666667, "is_disabled": 0, "type": "electric_scooter", "lon": -77.02199933333333, "bike_id": "2d672c70707dce23abdc9765bf3b00fc", "fusion_lat": 0.0, "name": "2d672c70707dce23abdc9765bf3b00fc", "is_reserved": 0, "rental_uris": {"android": "https://dc.lft.to/lastmile_qr_scan", "ios": "https://dc.lft.to/lastmile_qr_scan"}, "fusion_lon": 0.0}, {"lat": 38.870649, "is_disabled": 0, "type": "electric_scooter", "lon": -77.00844733333334, "bike_id": "6a2f114af279ffa26ded1dcc7e27fa92", "fusion_lat": 0.0, "name": "6a2f114af279ffa26ded1dcc7e27fa92", "is_reserved": 0, "rental_uris": {"android": "https://dc.lft.to/lastmile_qr_scan", "ios": "https://dc.lft.to/lastmile_qr_scan"}, "fusion_lon": 0.0}, {"lat": 38.901708166666666, "is_disabled": 0, "type": "electric_scooter", "lon": -77.04827033333333, "bike_id": "2726f5c6db27a3f03f3dcc1917a2a9c6", "fusion_lat": 0.0, "name": "2726f5c6db27a3f03f3dcc1917a2a9c6", "is_reserved": 0, "rental_uris": {"android": "https://dc.lft.to/lastmile_qr_scan", "ios": "https://dc.lft.to/lastmile_qr_scan"}, "fusion_lon": 0.0}, {"lat": 38.92479616666667, "is_disabled": 0, "type": "electric_scooter", "lon": -77.02842166666667, "bike_id": "2e998e4dad20e5bdd01dd477dc2ecb97", "fusion_lat": 0.0, "name": "2e998e4dad20e5bdd01dd477dc2ecb97", "is_reserved": 0, "rental_uris": {"android": "https://dc.lft.to/lastmile_qr_scan", "ios": "https://dc.lft.to/lastmile_qr_scan"}, "fusion_lon": 0.0}, {"lat": 38.8982195, "is_disabled": 0, "type": "electric_scooter", "lon": -76.99690533333333, "bike_id": "d613ba1dd4beb2f531b7bfd8acab378e", "fusion_lat": 0.0, "name": "d613ba1dd4beb2f531b7bfd8acab378e", "is_reserved": 0, "rental_uris": {"android": "https://dc.lft.to/lastmile_qr_scan", "ios": "https://dc.lft.to/lastmile_qr_scan"}, "fusion_lon": 0.0}, {"lat": 38.885769, "is_disabled": 0, "type": "electric_scooter", "lon": -76.91910066666667, "bike_id": "06072dffef670764847e74ac33175633", "fusion_lat": 0.0, "name": "06072dffef670764847e74ac33175633", "is_reserved": 0, "rental_uris": {"android": "https://dc.lft.to/lastmile_qr_scan", "ios": "https://dc.lft.to/lastmile_qr_scan"}, "fusion_lon": 0.0}, {"lat": 38.91761183333333, "is_disabled": 0, "type": "electric_scooter", "lon": -77.0320085, "bike_id": "da8e90de76450d5da614be3fe717a7b7", "fusion_lat": 0.0, "name": "da8e90de76450d5da614be3fe717a7b7", "is_reserved": 0, "rental_uris": {"android": "https://dc.lft.to/lastmile_qr_scan", "ios": "https://dc.lft.to/lastmile_qr_scan"}, "fusion_lon": 0.0}, {"lat": 38.923660166666664, "is_disabled": 0, "type": "electric_scooter", "lon": -77.041314, "bike_id": "6716517681a8ce76bd81228b7b8b50c0", "fusion_lat": 0.0, "name": "6716517681a8ce76bd81228b7b8b50c0", "is_reserved": 0, "rental_uris": {"android": "https://dc.lft.to/lastmile_qr_scan", "ios": "https://dc.lft.to/lastmile_qr_scan"}, "fusion_lon": 0.0}, {"lat": 38.906085166666664, "is_disabled": 0, "type": "electric_scooter", "lon": -77.0396415, "bike_id": "09d4ff38a20ea8c511dd8c715d6a2214", "fusion_lat": 0.0, "name": "09d4ff38a20ea8c511dd8c715d6a2214", "is_reserved": 0, "rental_uris": {"android": "https://dc.lft.to/lastmile_qr_scan", "ios": "https://dc.lft.to/lastmile_qr_scan"}, "fusion_lon": 0.0}, {"lat": 38.914800666666665, "is_disabled": 0, "type": "electric_scooter", "lon": -77.0094405, "bike_id": "09d1893fbf826afcbf31320f09b122da", "fusion_lat": 0.0, "name": "09d1893fbf826afcbf31320f09b122da", "is_reserved": 0, "rental_uris": {"android": "https://dc.lft.to/lastmile_qr_scan", "ios": "https://dc.lft.to/lastmile_qr_scan"}, "fusion_lon": 0.0}, {"lat": 38.862297, "is_disabled": 0, "type": "electric_scooter", "lon": -76.99549266666666, "bike_id": "023a99d358fb986c1c88fc42f1c0cbab", "fusion_lat": 0.0, "name": "023a99d358fb986c1c88fc42f1c0cbab", "is_reserved": 0, "rental_uris": {"android": "https://dc.lft.to/lastmile_qr_scan", "ios": "https://dc.lft.to/lastmile_qr_scan"}, "fusion_lon": 0.0}, {"lat": 38.88641966666667, "is_disabled": 0, "type": "electric_bike", "lon": -76.95478833333334, "bike_id": "369b570094422897f9999986235c3ee5", "fusion_lat": 0.0, "name": "369b570094422897f9999986235c3ee5", "is_reserved": 0, "rental_uris": {"android": "https://dc.lft.to/lastmile_qr_scan", "ios": "https://dc.lft.to/lastmile_qr_scan"}, "fusion_lon": 0.0},